country,state,city,station,last_update,latitude,longitude,pollutant_id,min_value,max_value,avg_value
India,Assam,Guwahati,"Railway Colony, Guwahati - PCBA",16-02-2026 09:00:00,26.181742,91.78063,NO2,3,4,3
India,Assam,Nagaon,"Christianpatty, Nagaon - PCBA",16-02-2026 09:00:00,26.349082,92.68449,NO2,1,1,1
India,Assam,Nagaon,"Christianpatty, Nagaon - PCBA",16-02-2026 09:00:00,26.349082,92.68449,CO,10,24,20
India,Assam,Nalbari,"Bata Chowk, Nalbari - PCBA",16-02-2026 09:00:00,26.446912,91.439057,NO2,14,15,14
India,Assam,Nalbari,"Bata Chowk, Nalbari - PCBA",16-02-2026 09:00:00,26.446912,91.439057,SO2,5,8,8
India,Assam,Nalbari,"Bata Chowk, Nalbari - PCBA",16-02-2026 09:00:00,26.446912,91.439057,CO,20,22,20
India,Assam,Silchar,"Tarapur, Silchar - PCBA",16-02-2026 09:00:00,24.82827,92.79525,NH3,1,1,1
India,Assam,Silchar,"Tarapur, Silchar - PCBA",16-02-2026 09:00:00,24.82827,92.79525,SO2,3,6,5
India,Bihar,Araria,"Kharahiya Basti, Araria - BSPCB",16-02-2026 09:00:00,26.146529,87.454184,PM10,35,108,85
India,Bihar,Gaya,"Kareemganj, Gaya - BSPCB",16-02-2026 09:00:00,24.792403,84.992416,PM2.5,32,180,80
India,Bihar,Gaya,"Kareemganj, Gaya - BSPCB",16-02-2026 09:00:00,24.792403,84.992416,NO2,NA,NA,NA
India,Bihar,Gaya,"Kareemganj, Gaya - BSPCB",16-02-2026 09:00:00,24.792403,84.992416,SO2,41,44,43
India,Bihar,Gaya,"SFTI Kusdihra, Gaya - BSPCB",16-02-2026 09:00:00,24.762518,84.982348,CO,14,61,59
India,Bihar,Hajipur,"Industrial Area, Hajipur - BSPCB",16-02-2026 09:00:00,25.697189,85.245900,PM10,104,149,130
India,Bihar,Hajipur,"Industrial Area, Hajipur - BSPCB",16-02-2026 09:00:00,25.697189,85.245900,CO,26,50,46
India,Bihar,Kishanganj,"SDM Office_Khagra, Kishanganj - BSPCB",16-02-2026 09:00:00,26.0881305,87.93840336,PM2.5,55,190,93
India,Bihar,Kishanganj,"SDM Office_Khagra, Kishanganj - BSPCB",16-02-2026 09:00:00,26.0881305,87.93840336,NO2,8,14,11
India,Bihar,Kishanganj,"SDM Office_Khagra, Kishanganj - BSPCB",16-02-2026 09:00:00,26.0881305,87.93840336,OZONE,32,33,32
India,Arunachal_Pradesh,Naharlagun,"Naharlagun, Naharlagun - APSPCB",16-02-2026 09:00:00,27.103358,93.679645,PM10,59,150,93
India,Arunachal_Pradesh,Naharlagun,"Naharlagun, Naharlagun - APSPCB",16-02-2026 09:00:00,27.103358,93.679645,CO,16,50,19
India,Assam,Byrnihat,"Central Academy for SFS, Byrnihat - PCBA",16-02-2026 09:00:00,26.071318,91.87488,PM2.5,86,222,141
India,Assam,Byrnihat,"Central Academy for SFS, Byrnihat - PCBA",16-02-2026 09:00:00,26.071318,91.87488,NH3,4,4,4
India,Assam,Byrnihat,"Central Academy for SFS, Byrnihat - PCBA",16-02-2026 09:00:00,26.071318,91.87488,SO2,14,33,31
India,Assam,Guwahati,"LGBI Airport, Guwahati - PCBA",16-02-2026 09:00:00,26.10887,91.589544,SO2,10,14,12
India,Assam,Guwahati,"LGBI Airport, Guwahati - PCBA",16-02-2026 09:00:00,26.10887,91.589544,OZONE,11,14,12
India,Assam,Guwahati,"Railway Colony, Guwahati - PCBA",16-02-2026 09:00:00,26.181742,91.78063,PM10,117,309,192
India,Andhra_Pradesh,Amaravati,"Secretariat, Amaravati - APPCB",16-02-2026 09:00:00,16.5150833,80.5181667,NH3,5,6,6
India,Andhra_Pradesh,Anantapur,"Gulzarpet, Anantapur - APPCB",16-02-2026 09:00:00,14.675886,77.593027,NO2,21,21,21
India,Andhra_Pradesh,Anantapur,"Gulzarpet, Anantapur - APPCB",16-02-2026 09:00:00,14.675886,77.593027,NH3,5,5,5
India,Andhra_Pradesh,Anantapur,"Gulzarpet, Anantapur - APPCB",16-02-2026 09:00:00,14.675886,77.593027,SO2,8,8,8
India,Andhra_Pradesh,Chittoor,"Gangineni Cheruvu, Chittoor - APPCB",16-02-2026 09:00:00,13.204880,79.097889,SO2,11,12,11
India,Andhra_Pradesh,Chittoor,"Gangineni Cheruvu, Chittoor - APPCB",16-02-2026 09:00:00,13.204880,79.097889,CO,28,58,34
India,Andhra_Pradesh,Chittoor,"Gangineni Cheruvu, Chittoor - APPCB",16-02-2026 09:00:00,13.204880,79.097889,OZONE,69,69,69
India,Andhra_Pradesh,Kadapa,"Yerramukkapalli, Kadapa - APPCB",16-02-2026 09:00:00,14.465052,78.824187,PM10,84,119,93
India,Bihar,Bhagalpur,"Mayaganj, Bhagalpur - BSPCB",16-02-2026 09:00:00,25.265194,87.012947,PM10,66,115,86
India,Bihar,Bhagalpur,"Mayaganj, Bhagalpur - BSPCB",16-02-2026 09:00:00,25.265194,87.012947,OZONE,16,37,20
India,Bihar,Bihar Sharif,"D M Colony, Bihar Sharif - BSPCB",16-02-2026 09:00:00,25.204762,85.514960,OZONE,NA,NA,NA
India,Bihar,Buxar,"Charitra Van, Buxar - BSPCB",16-02-2026 09:00:00,25.567520,83.966379,PM2.5,60,88,70
India,Bihar,Buxar,"Charitra Van, Buxar - BSPCB",16-02-2026 09:00:00,25.567520,83.966379,NH3,3,3,3
India,Bihar,Chhapra,"Darshan Nagar, Chhapra - BSPCB",16-02-2026 09:00:00,25.7808257,84.7446768,PM10,56,133,97
India,Bihar,Chhapra,"Darshan Nagar, Chhapra - BSPCB",16-02-2026 09:00:00,25.7808257,84.7446768,CO,18,55,49
India,Bihar,Arrah,"New DM Office, Arrah - BSPCB",16-02-2026 09:00:00,25.5626095,84.663264,PM2.5,52,93,74
India,Bihar,Arrah,"New DM Office, Arrah - BSPCB",16-02-2026 09:00:00,25.5626095,84.663264,NH3,1,2,2
India,Bihar,Arrah,"New DM Office, Arrah - BSPCB",16-02-2026 09:00:00,25.5626095,84.663264,OZONE,7,8,8
India,Bihar,Begusarai,"Lohiyanagar, Begusarai - BSPCB",16-02-2026 09:00:00,25.42742023,86.13886079,NH3,10,11,11
India,Bihar,Begusarai,"Lohiyanagar, Begusarai - BSPCB",16-02-2026 09:00:00,25.42742023,86.13886079,OZONE,5,103,14
India,Bihar,Bettiah,"Kamalnath Nagar, Bettiah - BSPCB",16-02-2026 09:00:00,26.80365,84.51954,PM10,40,111,75
India,Bihar,Bettiah,"Kamalnath Nagar, Bettiah - BSPCB",16-02-2026 09:00:00,26.80365,84.51954,NO2,8,10,8
India,Bihar,Muzaffarpur,"Muzaffarpur Collectorate, Muzaffarpur - BSPCB",16-02-2026 09:00:00,26.1209,85.3647,OZONE,7,20,8
India,Bihar,Patna,"Govt. High School Shikarpur, Patna - BSPCB",16-02-2026 09:00:00,25.592539,85.227158,PM2.5,159,279,207
India,Bihar,Patna,"Govt. High School Shikarpur, Patna - BSPCB",16-02-2026 09:00:00,25.592539,85.227158,NH3,4,5,5
India,Bihar,Patna,"IGSC Planetarium Complex, Patna - BSPCB",16-02-2026 09:00:00,25.610369,85.132568,OZONE,28,30,29
India,Bihar,Patna,"Rajbansi Nagar, Patna - BSPCB",16-02-2026 09:00:00,25.599486,85.113666,SO2,2,8,5
India,Andhra_Pradesh,Vijayawada,"HB Colony, Vijayawada - APPCB",16-02-2026 09:00:00,16.536107,80.594233,NO2,26,26,26
India,Andhra_Pradesh,Vijayawada,"Rajiv Gandhi Park, Vijayawada - APPCB",16-02-2026 09:00:00,16.509717,80.612222,PM2.5,47,139,73
India,Andhra_Pradesh,Vijayawada,"Rajiv Nagar, Vijayawada - APPCB",16-02-2026 09:00:00,16.554731,80.649110,NH3,NA,NA,NA
India,Andhra_Pradesh,Vijayawada,"Rajiv Nagar, Vijayawada - APPCB",16-02-2026 09:00:00,16.554731,80.649110,SO2,20,22,21
India,Bihar,Munger,"Town Hall, Munger - BSPCB",16-02-2026 09:00:00,25.376776,86.471523,SO2,27,33,30
India,Bihar,Muzaffarpur,"Buddha Colony, Muzaffarpur - BSPCB",16-02-2026 09:00:00,26.11442,85.39813,CO,26,59,32
India,Bihar,Muzaffarpur,"MIT-Daudpur Kothi, Muzaffarpur - BSPCB",16-02-2026 09:00:00,26.1403345,85.3650192,CO,35,50,44
India,Bihar,Purnia,"Mariam Nagar, Purnia - BSPCB",16-02-2026 09:00:00,25.366336,87.117468,PM10,56,82,70
India,Chandigarh,Chandigarh,"Sector 22, Chandigarh - CPCC",16-02-2026 09:00:00,30.735567,76.775714,NH3,7,14,12
India,Chandigarh,Chandigarh,"Sector-25, Chandigarh - CPCC",16-02-2026 09:00:00,30.751462,76.762879,SO2,3,10,5
India,Chhattisgarh,Bhilai,"32Bungalows, Bhilai - CECB",16-02-2026 09:00:00,21.194815,81.314770,PM2.5,13,32,24
India,Chhattisgarh,Bhilai,"32Bungalows, Bhilai - CECB",16-02-2026 09:00:00,21.194815,81.314770,SO2,6,8,7
India,Chhattisgarh,Bhilai,"Civic Center, Bhilai - Bhilai Steel Plant",16-02-2026 09:00:00,21.185571,81.343175,PM2.5,11,81,38
India,Chhattisgarh,Bhilai,"Hathkhoj, Bhilai - CECB",16-02-2026 09:00:00,21.224231,81.408350,SO2,12,103,30
India,Chhattisgarh,Bilaspur,"Mangala, Bilaspur - NTPC",16-02-2026 09:00:00,22.08815,82.13737,PM2.5,27,89,46
India,Chhattisgarh,Bilaspur,"Mangala, Bilaspur - NTPC",16-02-2026 09:00:00,22.08815,82.13737,SO2,7,14,10
India,Delhi,Delhi,"Jahangirpuri, Delhi - DPCC",16-02-2026 09:00:00,28.732820,77.170633,CO,30,117,97
India,Delhi,Delhi,"Jawaharlal Nehru Stadium, Delhi - DPCC",16-02-2026 09:00:00,28.580280,77.233829,NO2,27,137,70
India,Delhi,Delhi,"Jawaharlal Nehru Stadium, Delhi - DPCC",16-02-2026 09:00:00,28.580280,77.233829,OZONE,1,214,2
India,Delhi,Delhi,"Lodhi Road, Delhi - IMD",16-02-2026 09:00:00,28.5918245,77.2273074,PM10,115,231,153
India,Delhi,Delhi,"Lodhi Road, Delhi - IMD",16-02-2026 09:00:00,28.5918245,77.2273074,NO2,13,66,36
India,Delhi,Delhi,"Major Dhyan Chand National Stadium, Delhi - DPCC",16-02-2026 09:00:00,28.611281,77.237738,PM10,95,268,161
India,Delhi,Delhi,"Mundka, Delhi - DPCC",16-02-2026 09:00:00,28.684678,77.076574,PM10,129,493,245
India,Delhi,Delhi,"Mundka, Delhi - DPCC",16-02-2026 09:00:00,28.684678,77.076574,SO2,12,37,26
India,Delhi,Delhi,"Mundka, Delhi - DPCC",16-02-2026 09:00:00,28.684678,77.076574,OZONE,5,89,7
India,Delhi,Delhi,"NSIT Dwarka, Delhi - CPCB",16-02-2026 09:00:00,28.60909,77.0325413,NO2,1,63,11
India,Delhi,Delhi,"NSIT Dwarka, Delhi - CPCB",16-02-2026 09:00:00,28.60909,77.0325413,OZONE,13,37,31
India,Delhi,Delhi,"Najafgarh, Delhi - DPCC",16-02-2026 09:00:00,28.570173,76.933762,NH3,13,16,14
India,Delhi,Delhi,"Najafgarh, Delhi - DPCC",16-02-2026 09:00:00,28.570173,76.933762,CO,21,106,40
India,Delhi,Delhi,"Najafgarh, Delhi - DPCC",16-02-2026 09:00:00,28.570173,76.933762,OZONE,4,191,5
India,Delhi,Delhi,"Nehru Nagar, Delhi - DPCC",16-02-2026 09:00:00,28.567890,77.250515,PM2.5,73,437,256
India,Delhi,Delhi,"Nehru Nagar, Delhi - DPCC",16-02-2026 09:00:00,28.567890,77.250515,CO,38,124,110
India,Delhi,Delhi,"Okhla Phase-2, Delhi - DPCC",16-02-2026 09:00:00,28.530785,77.271255,NH3,10,14,11
India,Delhi,Delhi,"Chandni Chowk, Delhi - IITM",16-02-2026 09:00:00,28.656756,77.227234,PM2.5,84,374,244
India,Delhi,Delhi,"Chandni Chowk, Delhi - IITM",16-02-2026 09:00:00,28.656756,77.227234,PM10,79,409,203
India,Delhi,Delhi,"Chandni Chowk, Delhi - IITM",16-02-2026 09:00:00,28.656756,77.227234,NH3,5,13,8
India,Delhi,Delhi,"Chandni Chowk, Delhi - IITM",16-02-2026 09:00:00,28.656756,77.227234,OZONE,1,138,4
India,Delhi,Delhi,"DTU, Delhi - CPCB",16-02-2026 09:00:00,28.7500499,77.1112615,NH3,6,8,8
India,Delhi,Delhi,"DTU, Delhi - CPCB",16-02-2026 09:00:00,28.7500499,77.1112615,OZONE,5,27,7
India,Delhi,Delhi,"Dr. Karni Singh Shooting Range, Delhi - DPCC",16-02-2026 09:00:00,28.498571,77.264840,SO2,14,36,20
India,Delhi,Delhi,"Dr. Karni Singh Shooting Range, Delhi - DPCC",16-02-2026 09:00:00,28.498571,77.264840,OZONE,2,166,10
India,Delhi,Delhi,"Dwarka-Sector 8, Delhi - DPCC ",16-02-2026 09:00:00,28.5710274,77.0719006,SO2,24,36,29
India,Delhi,Delhi,"IGI Airport (T3), Delhi - IMD",16-02-2026 09:00:00,28.5627763,77.1180053,NO2,47,124,82
India,Delhi,Delhi,"IHBAS, Dilshad Garden, Delhi - CPCB",16-02-2026 09:00:00,28.6811736,77.3025234,OZONE,26,29,27
India,Delhi,Delhi,"ITO, Delhi - CPCB",16-02-2026 09:00:00,28.628624,77.241060,PM2.5,69,312,209
India,Delhi,Delhi,"ITO, Delhi - CPCB",16-02-2026 09:00:00,28.628624,77.241060,NH3,3,6,4
India,Delhi,Delhi,"Jahangirpuri, Delhi - DPCC",16-02-2026 09:00:00,28.732820,77.170633,PM2.5,88,430,289
India,Delhi,Delhi,"Patparganj, Delhi - DPCC",16-02-2026 09:00:00,28.623763,77.287209,SO2,15,32,23
India,Delhi,Delhi,"Patparganj, Delhi - DPCC",16-02-2026 09:00:00,28.623763,77.287209,OZONE,1,150,2
India,Delhi,Delhi,"Pusa, Delhi - DPCC",16-02-2026 09:00:00,28.639652,77.146275,SO2,1,29,15
India,Delhi,Delhi,"Pusa, Delhi - IMD",16-02-2026 09:00:00,28.636110,77.173332,NO2,42,204,117
India,Delhi,Delhi,"Pusa, Delhi - IMD",16-02-2026 09:00:00,28.636110,77.173332,OZONE,38,228,45
India,Delhi,Delhi,"R K Puram, Delhi - DPCC",16-02-2026 09:00:00,28.563262,77.186937,SO2,13,44,29
India,Delhi,Delhi,"R K Puram, Delhi - DPCC",16-02-2026 09:00:00,28.563262,77.186937,OZONE,7,113,9
India,Chhattisgarh,Korba,"Rampur, Korba - CECB",16-02-2026 09:00:00,22.368195,82.746431,PM2.5,8,45,17
India,Chhattisgarh,Kunjemura,"OP Jindal School, Kunjemura - CECB",16-02-2026 09:00:00,22.126650,83.483212,NO2,11,67,39
India,Chhattisgarh,Milupara,"Govt. Higher Secondary School, Milupara - CECB",16-02-2026 09:00:00,22.1910172,83.5197009,NO2,10,85,36
India,Delhi,Delhi,"Aya Nagar, Delhi - IMD",16-02-2026 09:00:00,28.4706914,77.1099364,NO2,16,120,53
India,Delhi,Delhi,"Bawana, Delhi - DPCC",16-02-2026 09:00:00,28.776200,77.051074,CO,42,125,52
India,Delhi,Delhi,"Burari Crossing, Delhi - IMD",16-02-2026 09:00:00,28.7256504,77.2011573,PM10,117,366,211
India,Delhi,Delhi,"Alipur, Delhi - DPCC",16-02-2026 09:00:00,28.815329,77.153010,PM2.5,57,435,255
India,Delhi,Delhi,"Alipur, Delhi - DPCC",16-02-2026 09:00:00,28.815329,77.153010,NH3,12,16,14
India,Delhi,Delhi,"Alipur, Delhi - DPCC",16-02-2026 09:00:00,28.815329,77.153010,SO2,4,16,11
India,Delhi,Delhi,"Alipur, Delhi - DPCC",16-02-2026 09:00:00,28.815329,77.153010,CO,46,108,88
India,Gujarat,Gandhinagar,"Sector-10, Gandhinagar - GPCB",16-02-2026 09:00:00,23.221714,72.654328,CO,50,76,58
India,Gujarat,Gandhinagar,"Sector-10, Gandhinagar - GPCB",16-02-2026 09:00:00,23.221714,72.654328,OZONE,3,106,5
India,Gujarat,Mehsana,"Sadanand Nagar, Mehsana - Nexteng Enviro",16-02-2026 09:00:00,23.593150,72.372792,PM2.5,35,325,143
India,Gujarat,Mehsana,"Sadanand Nagar, Mehsana - Nexteng Enviro",16-02-2026 09:00:00,23.593150,72.372792,NO2,22,53,36
India,Gujarat,Mehsana,"Sadanand Nagar, Mehsana - Nexteng Enviro",16-02-2026 09:00:00,23.593150,72.372792,SO2,7,33,16
India,Gujarat,Mehsana,"Sadanand Nagar, Mehsana - Nexteng Enviro",16-02-2026 09:00:00,23.593150,72.372792,OZONE,9,27,10
India,Gujarat,Rajkot,"Mavdi, Rajkot - Nexteng Enviro ",16-02-2026 09:00:00,22.248853,70.776774,PM10,34,189,85
India,Gujarat,Surat,"Katargam, Surat - Nexteng Enviro",16-02-2026 09:00:00,21.217779 ,72.834787 ,PM2.5,36,284,118
India,Gujarat,Surat,"Katargam, Surat - Nexteng Enviro",16-02-2026 09:00:00,21.217779 ,72.834787 ,CO,119,135,127
India,Gujarat,Surat,"Science Center, Surat - SMC",16-02-2026 09:00:00,21.170046,72.795405,SO2,22,30,25
India,Gujarat,Vadodara,"Bapunagar, Vadodara - Nexteng Enviro",16-02-2026 09:00:00,22.320153,73.216285,CO,124,143,137
India,Haryana,Charkhi Dadri,"Mini Secretariat, Charkhi Dadri - HSPCB",16-02-2026 09:00:00,28.593883,76.270653,PM10,74,139,93
India,Haryana,Charkhi Dadri,"Mini Secretariat, Charkhi Dadri - HSPCB",16-02-2026 09:00:00,28.593883,76.270653,NH3,5,8,6
India,Haryana,Dharuhera,"Municipal Corporation Office, Dharuhera -  HSPCB",16-02-2026 09:00:00,28.206800,76.799700,CO,53,102,84
India,Haryana,Faridabad,"New Industrial Town, Faridabad - HSPCB",16-02-2026 09:00:00,28.39072,77.30059,NO2,23,26,25
India,Haryana,Faridabad,"New Industrial Town, Faridabad - HSPCB",16-02-2026 09:00:00,28.39072,77.30059,SO2,8,8,8
India,Haryana,Faridabad,"New Industrial Town, Faridabad - HSPCB",16-02-2026 09:00:00,28.39072,77.30059,CO,10,12,12
India,Haryana,Faridabad,"New Industrial Town, Faridabad - HSPCB",16-02-2026 09:00:00,28.39072,77.30059,OZONE,26,32,29
India,Haryana,Faridabad,"Sector 11, Faridabad - HSPCB",16-02-2026 09:00:00,28.376058,77.315741,PM2.5,NA,NA,NA
India,Haryana,Faridabad,"Sector 11, Faridabad - HSPCB",16-02-2026 09:00:00,28.376058,77.315741,PM10,NA,NA,NA
India,Haryana,Faridabad,"Sector 11, Faridabad - HSPCB",16-02-2026 09:00:00,28.376058,77.315741,NO2,NA,NA,NA
India,Haryana,Faridabad,"Sector 11, Faridabad - HSPCB",16-02-2026 09:00:00,28.376058,77.315741,CO,10,62,60
India,Haryana,Faridabad,"Sector 30, Faridabad - HSPCB",16-02-2026 09:00:00,28.4417,77.3217,PM2.5,94,95,94
India,Haryana,Palwal,"Shyam Nagar, Palwal - HSPCB",16-02-2026 09:00:00,28.1485564,77.3320667,NH3,8,9,9
India,Haryana,Panchgaon,"Amity University, Panchgaon - IITM",16-02-2026 09:00:00,28.3153,76.9143,PM2.5,174,325,247
India,Haryana,Panchgaon,"Amity University, Panchgaon - IITM",16-02-2026 09:00:00,28.3153,76.9143,NO2,4,44,17
India,Haryana,Panchgaon,"Amity University, Panchgaon - IITM",16-02-2026 09:00:00,28.3153,76.9143,OZONE,1,95,3
India,Haryana,Panchkula,"Sector-6, Panchkula - HSPCB ",16-02-2026 09:00:00,30.7057778,76.8531805555555,OZONE,1,7,4
India,Haryana,Rohtak,"MD University, Rohtak - HSPCB",16-02-2026 09:00:00,28.52123,76.37138,PM10,68,415,110
India,Haryana,Rohtak,"MD University, Rohtak - HSPCB",16-02-2026 09:00:00,28.52123,76.37138,NO2,10,13,12
India,Haryana,Sirsa,"F-Block, Sirsa - HSPCB",16-02-2026 09:00:00,29.536400,75.015800,NH3,15,16,15
India,Haryana,Sirsa,"F-Block, Sirsa - HSPCB",16-02-2026 09:00:00,29.536400,75.015800,OZONE,59,100,88
India,Delhi,Delhi,"Rohini, Delhi - DPCC",16-02-2026 09:00:00,28.732528,77.119920,OZONE,5,178,7
India,Delhi,Delhi,"Shadipur, Delhi - CPCB",16-02-2026 09:00:00,28.6514781,77.1473105,PM10,126,243,184
India,Delhi,Delhi,"Shadipur, Delhi - CPCB",16-02-2026 09:00:00,28.6514781,77.1473105,SO2,9,24,16
India,Delhi,Delhi,"Shadipur, Delhi - CPCB",16-02-2026 09:00:00,28.6514781,77.1473105,OZONE,8,56,12
India,Delhi,Delhi,"Sonia Vihar, Delhi - DPCC",16-02-2026 09:00:00,28.710508,77.249485,NH3,3,32,9
India,Delhi,Delhi,"Sonia Vihar, Delhi - DPCC",16-02-2026 09:00:00,28.710508,77.249485,SO2,29,76,49
India,Delhi,Delhi,"Sonia Vihar, Delhi - DPCC",16-02-2026 09:00:00,28.710508,77.249485,OZONE,1,158,5
India,Delhi,Delhi,"Sri Aurobindo Marg, Delhi - DPCC",16-02-2026 09:00:00,28.531346,77.190156,PM2.5,65,230,106
India,Delhi,Delhi,"Sri Aurobindo Marg, Delhi - DPCC",16-02-2026 09:00:00,28.531346,77.190156,OZONE,2,102,2
India,Delhi,Delhi,"Vivek Vihar, Delhi - DPCC",16-02-2026 09:00:00,28.672342,77.315260,NO2,NA,NA,NA
India,Gujarat,Ahmedabad,"SAC ISRO Bopal, Ahmedabad - IITM",16-02-2026 09:00:00,23.041137,72.456691,OZONE,1,115,6
India,Gujarat,Ahmedabad,"SAC ISRO Satellite, Ahmedabad - IITM",16-02-2026 09:00:00,23.023389,72.515201,CO,6,78,40
India,Gujarat,Ahmedabad,"SVPI Airport Hansol, Ahmedabad - IITM",16-02-2026 09:00:00,23.076793,72.627874,PM10,NA,NA,NA
India,Gujarat,Ahmedabad,"SVPI Airport Hansol, Ahmedabad - IITM",16-02-2026 09:00:00,23.076793,72.627874,NH3,NA,NA,NA
India,Gujarat,Ahmedabad,"SVPI Airport Hansol, Ahmedabad - IITM",16-02-2026 09:00:00,23.076793,72.627874,SO2,NA,NA,NA
India,Gujarat,Ahmedabad,"SVPI Airport Hansol, Ahmedabad - IITM",16-02-2026 09:00:00,23.076793,72.627874,CO,NA,NA,NA
India,Gujarat,Bhavnagar,"Vidhyanagar, Bhavnagar - Nexteng Enviro",16-02-2026 09:00:00,21.755417,72.139056,PM2.5,17,214,74
India,Gujarat,Bhavnagar,"Vidhyanagar, Bhavnagar - Nexteng Enviro",16-02-2026 09:00:00,21.755417,72.139056,OZONE,11,21,13
India,Gujarat,Gandhinagar,"GIFT City, Gandhinagar - IITM",16-02-2026 09:00:00,23.163798,72.677768,CO,9,81,64
India,Haryana,Gurugram,"Sector-51, Gurugram - HSPCB",16-02-2026 09:00:00,28.4227,77.0667,SO2,3,9,5
India,Haryana,Gurugram,"Sector-51, Gurugram - HSPCB",16-02-2026 09:00:00,28.4227,77.0667,OZONE,3,16,4
India,Haryana,Gurugram,"Teri Gram, Gurugram - HSPCB",16-02-2026 09:00:00,28.4275,77.1465,CO,58,102,101
India,Haryana,Gurugram,"Vikas Sadan, Gurugram - HSPCB",16-02-2026 09:00:00,28.4501238,77.0263051,CO,63,114,98
India,Haryana,Hisar,"Urban Estate-II, Hisar - HSPCB",16-02-2026 09:00:00,29.140560,75.744941,NO2,26,27,27
India,Haryana,Hisar,"Urban Estate-II, Hisar - HSPCB",16-02-2026 09:00:00,29.140560,75.744941,SO2,6,14,11
India,Delhi,Delhi,"Wazirpur, Delhi - DPCC",16-02-2026 09:00:00,28.699793,77.165453,OZONE,1,47,31
India,Gujarat,Ahmedabad,"Chandkheda, Ahmedabad - IITM",16-02-2026 09:00:00,23.107969,72.574648,PM10,94,189,159
India,Gujarat,Ahmedabad,"Chandkheda, Ahmedabad - IITM",16-02-2026 09:00:00,23.107969,72.574648,NH3,1,4,3
India,Gujarat,Ahmedabad,"Chandkheda, Ahmedabad - IITM",16-02-2026 09:00:00,23.107969,72.574648,SO2,2,22,7
India,Gujarat,Ahmedabad,"Gyaspur, Ahmedabad - IITM",16-02-2026 09:00:00,22.977134,72.553024,SO2,1,136,75
India,Gujarat,Ahmedabad,"Rakhial, Ahmedabad - IITM",16-02-2026 09:00:00,23.016834,72.625775,SO2,12,84,46
India,Haryana,Kaithal,"Rishi Nagar, Kaithal - HSPCB",16-02-2026 09:00:00,29.8006,76.4155,PM2.5,75,129,93
India,Haryana,Karnal,"Sector-12, Karnal - HSPCB",16-02-2026 09:00:00,29.695300,77.002700,NH3,5,7,6
India,Haryana,Manesar,"Sector-2 IMT, Manesar - HSPCB",16-02-2026 09:00:00,28.360699,76.936090,SO2,12,40,24
India,Haryana,Narnaul,"Shastri Nagar, Narnaul - HSPCB",16-02-2026 09:00:00,28.060249,76.113115,PM2.5,39,305,116
India,Haryana,Narnaul,"Shastri Nagar, Narnaul - HSPCB",16-02-2026 09:00:00,28.060249,76.113115,NH3,5,18,11
India,Gujarat,Vapi,"Phase-1 GIDC, Vapi - GPCB",16-02-2026 09:00:00,20.362421,72.918013,PM10,32,106,49
India,Gujarat,Vapi,"Phase-1 GIDC, Vapi - GPCB",16-02-2026 09:00:00,20.362421,72.918013,NH3,4,5,4
India,Gujarat,Vatva,"Phase-4 GIDC, Vatva - GPCB",16-02-2026 09:00:00,22.969611,72.643500,CO,16,30,20
India,Haryana,Ambala,"Patti Mehar, Ambala - HSPCB",16-02-2026 09:00:00,30.379589,76.778328,CO,26,42,28
India,Karnataka,Bengaluru,"Hebbal, Bengaluru - KSPCB",16-02-2026 09:00:00,13.029152,77.585901,OZONE,8,19,11
India,Karnataka,Bengaluru,"Hombegowda Nagar, Bengaluru - KSPCB",16-02-2026 09:00:00,12.938539,77.590100,NH3,3,7,5
India,Karnataka,Bengaluru,"Hombegowda Nagar, Bengaluru - KSPCB",16-02-2026 09:00:00,12.938539,77.590100,SO2,12,41,21
India,Karnataka,Bengaluru,"Jayanagar 5th Block, Bengaluru - KSPCB",16-02-2026 09:00:00,12.920984,77.584908,NO2,8,66,31
India,Karnataka,Bengaluru,"Jayanagar 5th Block, Bengaluru - KSPCB",16-02-2026 09:00:00,12.920984,77.584908,OZONE,7,134,111
India,Karnataka,Bengaluru,"Kasturi Nagar, Bengaluru - KSPCB",16-02-2026 09:00:00,13.003872,77.664217,PM10,79,81,80
India,Karnataka,Bengaluru,"Kasturi Nagar, Bengaluru - KSPCB",16-02-2026 09:00:00,13.003872,77.664217,NH3,5,5,5
India,Karnataka,Bengaluru,"Kasturi Nagar, Bengaluru - KSPCB",16-02-2026 09:00:00,13.003872,77.664217,SO2,13,14,14
India,Karnataka,Bengaluru,"RVCE-Mailasandra, Bengaluru - KSPCB",16-02-2026 09:00:00,12.921418,77.502466,SO2,5,6,6
India,Karnataka,Bengaluru,"RVCE-Mailasandra, Bengaluru - KSPCB",16-02-2026 09:00:00,12.921418,77.502466,OZONE,23,25,24
India,Karnataka,Bengaluru,"Sanegurava Halli, Bengaluru - KSPCB",16-02-2026 09:00:00,12.990328,77.5431385,NO2,17,19,18
India,Karnataka,Bengaluru,"Sanegurava Halli, Bengaluru - KSPCB",16-02-2026 09:00:00,12.990328,77.5431385,SO2,4,6,5
India,Karnataka,Bengaluru,"Silk Board, Bengaluru - KSPCB",16-02-2026 09:00:00,12.917348,77.622813,PM2.5,62,142,98
India,Karnataka,Bengaluru,"Silk Board, Bengaluru - KSPCB",16-02-2026 09:00:00,12.917348,77.622813,NO2,38,105,62
India,Karnataka,Bengaluru,"Silk Board, Bengaluru - KSPCB",16-02-2026 09:00:00,12.917348,77.622813,NH3,4,7,5
India,Karnataka,Tumakuru,"Thimmalapura, Tumakuru - KSPCB",16-02-2026 09:00:00,13.377516,77.099072,NH3,6,6,6
India,Karnataka,Tumakuru,"Thimmalapura, Tumakuru - KSPCB",16-02-2026 09:00:00,13.377516,77.099072,SO2,26,27,26
India,Karnataka,Vijayapura,"Ibrahimpur, Vijayapura - KSPCB",16-02-2026 09:00:00,16.802639,75.722694,NO2,11,12,11
India,Karnataka,Vijayapura,"Ibrahimpur, Vijayapura - KSPCB",16-02-2026 09:00:00,16.802639,75.722694,SO2,3,6,3
India,Karnataka,Yadgir,"Collector Office, Yadgir - KSPCB",16-02-2026 09:00:00,16.7602,77.1428,NO2,7,36,17
India,Karnataka,Yadgir,"Collector Office, Yadgir - KSPCB",16-02-2026 09:00:00,16.7602,77.1428,CO,6,38,20
India,Kerala,Eloor,"Udyogamandal, Eloor - Kerala PCB",16-02-2026 09:00:00,10.073232,76.302765,NO2,NA,NA,NA
India,Kerala,Kannur,"Thavakkara, Kannur - Kerala PCB",16-02-2026 09:00:00,11.875000,75.373200,PM2.5,75,88,83
India,Kerala,Kannur,"Thavakkara, Kannur - Kerala PCB",16-02-2026 09:00:00,11.875000,75.373200,NH3,2,2,2
India,Kerala,Kannur,"Thavakkara, Kannur - Kerala PCB",16-02-2026 09:00:00,11.875000,75.373200,CO,20,23,22
India,Kerala,Kannur,"Thavakkara, Kannur - Kerala PCB",16-02-2026 09:00:00,11.875000,75.373200,OZONE,27,32,28
India,Kerala,Kollam,"Polayathode, Kollam - Kerala PCB",16-02-2026 09:00:00,8.8787,76.6073,CO,13,18,15
India,Madhya Pradesh,Damoh,"Shrivastav Colony, Damoh - MPPCB",16-02-2026 09:00:00,23.81748678,79.446246,PM2.5,3,35,13
India,Madhya Pradesh,Damoh,"Shrivastav Colony, Damoh - MPPCB",16-02-2026 09:00:00,23.81748678,79.446246,SO2,37,41,40
India,Madhya Pradesh,Dewas,"Bhopal Chauraha, Dewas - MPPCB",16-02-2026 09:00:00,22.9682591,76.064118,CO,14,60,18
India,Madhya Pradesh,Gwalior,"City Center, Gwalior - MPPCB",16-02-2026 09:00:00,26.203442,78.193251,NH3,3,5,4
India,Madhya Pradesh,Gwalior,"City Center, Gwalior - MPPCB",16-02-2026 09:00:00,26.203442,78.193251,SO2,8,20,12
India,Madhya Pradesh,Gwalior,"Deen Dayal Nagar, Gwalior - MPPCB",16-02-2026 09:00:00,26.259242,78.216432,NO2,7,11,10
India,Madhya Pradesh,Gwalior,"Maharaj Bada, Gwalior - MPPCB",16-02-2026 09:00:00,26.200388,78.147714,OZONE,26,99,38
India,Madhya Pradesh,Indore,"Airport Area, Indore - IMC",16-02-2026 09:00:00,22.7289,75.8076,PM2.5,78,365,172
India,Madhya Pradesh,Indore,"Airport Area, Indore - IMC",16-02-2026 09:00:00,22.7289,75.8076,SO2,2,4,3
India,Madhya Pradesh,Indore,"Chhoti Gwaltoli, Indore - MPPCB",16-02-2026 09:00:00,22.4310,75.5213,PM2.5,62,255,110
India,Karnataka,Hubballi,"Lingaraj Nagar, Hubballi - KSPCB",16-02-2026 09:00:00,15.3714823,75.1160168,OZONE,19,20,19
India,Karnataka,Kalaburagi,"Mahatma Basaveswar Colony, Kalaburgi - KSPCB",16-02-2026 09:00:00,17.336318,76.847397,CO,34,96,46
India,Karnataka,Madikeri,"Stuart Hill, Madikeri - KSPCB",16-02-2026 09:00:00,12.415911,75.735050,SO2,7,7,7
India,Karnataka,Mysuru,"Hebbal 1st Stage, Mysuru - KSPCB",16-02-2026 09:00:00,12.21041,76.37376,PM2.5,13,57,48
India,Karnataka,Mysuru,"Hebbal 1st Stage, Mysuru - KSPCB",16-02-2026 09:00:00,12.21041,76.37376,PM10,48,103,75
India,Karnataka,Mysuru,"Hebbal 1st Stage, Mysuru - KSPCB",16-02-2026 09:00:00,12.21041,76.37376,SO2,1,5,3
India,Karnataka,Mysuru,"Hebbal 1st Stage, Mysuru - KSPCB",16-02-2026 09:00:00,12.21041,76.37376,CO,8,42,27
India,Karnataka,Shivamogga,"Vinoba Nagara, Shivamogga - KSPCB",16-02-2026 09:00:00,13.940000,75.555917,PM10,30,52,42
India,Karnataka,Tumakuru,"Thimmalapura, Tumakuru - KSPCB",16-02-2026 09:00:00,13.377516,77.099072,NO2,31,32,32
India,Himachal Pradesh,Baddi,"HIMUDA Complex Phase-1, Baddi - HPPCB",16-02-2026 09:00:00,30.943887,76.801991,PM10,88,284,133
India,Himachal Pradesh,Baddi,"HIMUDA Complex Phase-1, Baddi - HPPCB",16-02-2026 09:00:00,30.943887,76.801991,NO2,7,100,28
India,Himachal Pradesh,Baddi,"HIMUDA Complex Phase-1, Baddi - HPPCB",16-02-2026 09:00:00,30.943887,76.801991,NH3,5,7,6
India,Himachal Pradesh,Baddi,"HIMUDA Complex Phase-1, Baddi - HPPCB",16-02-2026 09:00:00,30.943887,76.801991,OZONE,17,138,46
India,Jammu_and_Kashmir,Pampore,"Khrew, Pampore - JKPCC",16-02-2026 09:00:00,34.031606,75.009712,PM10,37,78,60
India,Jammu_and_Kashmir,Srinagar,"Khunmoh, Srinagar - JKPCC",16-02-2026 09:00:00,34.06313,74.96017,PM2.5,NA,NA,NA
India,Jammu_and_Kashmir,Srinagar,"Khunmoh, Srinagar - JKPCC",16-02-2026 09:00:00,34.06313,74.96017,PM10,NA,NA,NA
India,Jammu_and_Kashmir,Srinagar,"Khunmoh, Srinagar - JKPCC",16-02-2026 09:00:00,34.06313,74.96017,SO2,2,4,3
India,Jharkhand,Dhanbad,"Sardar Patel Nagar, Dhanbad - JSPCB",16-02-2026 09:00:00,23.80569,86.44268,PM2.5,30,311,95
India,Jharkhand,Dhanbad,"Sardar Patel Nagar, Dhanbad - JSPCB",16-02-2026 09:00:00,23.80569,86.44268,PM10,51,240,108
India,Kerala,Thiruvananthapuram,"Kariavattom, Thiruvananthapuram - Kerala PCB",16-02-2026 09:00:00,8.563700,76.886500,NO2,7,8,8
India,Kerala,Thiruvananthapuram,"Plammoodu, Thiruvananthapuram - Kerala PCB",16-02-2026 09:00:00,8.5149093,76.9435879,PM2.5,35,57,44
India,Kerala,Thiruvananthapuram,"Plammoodu, Thiruvananthapuram - Kerala PCB",16-02-2026 09:00:00,8.5149093,76.9435879,NO2,NA,NA,NA
India,Kerala,Thiruvananthapuram,"Plammoodu, Thiruvananthapuram - Kerala PCB",16-02-2026 09:00:00,8.5149093,76.9435879,SO2,6,36,15
India,Madhya Pradesh,Bhopal,"Idgah Hills, Bhopal - MPPCB",16-02-2026 09:00:00,23.264759,77.381568,PM10,56,189,111
India,Madhya Pradesh,Bhopal,"Paryavaran Parisar, Bhopal - MPPCB",16-02-2026 09:00:00,23.210494,77.425409,PM2.5,37,253,109
India,Madhya Pradesh,Bhopal,"Paryavaran Parisar, Bhopal - MPPCB",16-02-2026 09:00:00,23.210494,77.425409,CO,3,20,16
India,Madhya Pradesh,Bhopal,"Paryavaran Parisar, Bhopal - MPPCB",16-02-2026 09:00:00,23.210494,77.425409,OZONE,7,51,17
India,Madhya Pradesh,Bhopal,"T T Nagar, Bhopal - MPPCB",16-02-2026 09:00:00,23.233584,77.400574,PM10,58,162,105
India,Madhya Pradesh,Indore,"Maguda Nagar, Indore - IMC",16-02-2026 09:00:00,22.7524,75.8872,PM10,32,295,64
India,Madhya Pradesh,Indore,"Maguda Nagar, Indore - IMC",16-02-2026 09:00:00,22.7524,75.8872,OZONE,18,23,18
India,Madhya Pradesh,Indore,"Residency Area, Indore - IMC",16-02-2026 09:00:00,22.7084,75.8815,NO2,18,31,25
India,Madhya Pradesh,Indore,"Residency Area, Indore - IMC",16-02-2026 09:00:00,22.7084,75.8815,OZONE,6,14,6
India,Madhya Pradesh,Jabalpur,"Govindh Bhavan Colony, Jabalpur - JMC",16-02-2026 09:00:00,23.163174,79.973061,NO2,8,16,10
India,Madhya Pradesh,Jabalpur,"Gupteshwar, Jabalpur - JMC",16-02-2026 09:00:00,23.142888,79.916147,PM10,24,86,52
India,Madhya Pradesh,Jabalpur,"Marhatal, Jabalpur - MPPCB",16-02-2026 09:00:00,23.168606,79.932247,PM10,60,279,130
India,Madhya Pradesh,Jabalpur,"Marhatal, Jabalpur - MPPCB",16-02-2026 09:00:00,23.168606,79.932247,NO2,18,54,29
India,Karnataka,Bagalkot,"Vidayagiri, Bagalkot - KSPCB",16-02-2026 09:00:00,16.172806,75.659694,PM2.5,35,36,35
India,Karnataka,Bagalkot,"Vidayagiri, Bagalkot - KSPCB",16-02-2026 09:00:00,16.172806,75.659694,NH3,1,2,1
India,Karnataka,Bagalkot,"Vidayagiri, Bagalkot - KSPCB",16-02-2026 09:00:00,16.172806,75.659694,CO,7,48,20
India,Karnataka,Bagalkot,"Vidayagiri, Bagalkot - KSPCB",16-02-2026 09:00:00,16.172806,75.659694,OZONE,12,12,12
India,Karnataka,Bengaluru,"BWSSB Kadabesanahalli, Bengaluru - CPCB",16-02-2026 09:00:00,12.9352049,77.6814488,SO2,3,8,5
India,Karnataka,Bengaluru,"City Railway Station, Bengaluru - KSPCB",16-02-2026 09:00:00,12.9756843,77.5660749,NO2,32,38,35
India,Karnataka,Bengaluru,"Hebbal, Bengaluru - KSPCB",16-02-2026 09:00:00,13.029152,77.585901,PM2.5,53,378,137
India,Karnataka,Chamarajanagar,"Urban, Chamarajanagar - KSPCB",16-02-2026 09:00:00,11.55358,76.55521,SO2,3,5,4
India,Karnataka,Chikkamagaluru,"Kalyana Nagara, Chikkamagaluru - KSPCB",16-02-2026 09:00:00,13.328028,75.797056,PM2.5,20,111,71
India,Karnataka,Chikkamagaluru,"Kalyana Nagara, Chikkamagaluru - KSPCB",16-02-2026 09:00:00,13.328028,75.797056,SO2,6,11,8
India,Karnataka,Dharwad,"Kalabhavan, Dharwad - KSPCB",16-02-2026 09:00:00,15.459706,75.008381,NO2,28,28,28
India,Karnataka,Hubballi,"Lingaraj Nagar, Hubballi - KSPCB",16-02-2026 09:00:00,15.3714823,75.1160168,NO2,11,11,11
India,Karnataka,Hubballi,"Lingaraj Nagar, Hubballi - KSPCB",16-02-2026 09:00:00,15.3714823,75.1160168,NH3,2,2,2
India,Madhya Pradesh,Sagar,"Deen Dayal Nagar, Sagar - MPPCB",16-02-2026 09:00:00,23.8640158,78.80289321,SO2,5,10,6
India,Madhya Pradesh,Satna,"Bandhavgar Colony, Satna - Birla Cement",16-02-2026 09:00:00,24.58434363,80.8549414,PM2.5,49,52,50
India,Madhya Pradesh,Satna,"Bandhavgar Colony, Satna - Birla Cement",16-02-2026 09:00:00,24.58434363,80.8549414,NO2,12,13,12
India,Madhya Pradesh,Singrauli,"Suryakiran Bhawan NCL, Singrauli - MPPCB",16-02-2026 09:00:00,24.108970,82.645580,PM2.5,30,358,194
India,Madhya Pradesh,Singrauli,"Suryakiran Bhawan NCL, Singrauli - MPPCB",16-02-2026 09:00:00,24.108970,82.645580,SO2,50,69,55
India,Madhya Pradesh,Singrauli,"Suryakiran Bhawan NCL, Singrauli - MPPCB",16-02-2026 09:00:00,24.108970,82.645580,OZONE,1,29,4
India,Madhya Pradesh,Ujjain,"Mahashweta Nagar, Ujjain - MPPCB",16-02-2026 09:00:00,23.1633321,75.800225,PM2.5,38,158,63
India,Madhya Pradesh,Ujjain,"Mahashweta Nagar, Ujjain - MPPCB",16-02-2026 09:00:00,23.1633321,75.800225,SO2,2,8,5
India,Madhya Pradesh,Ujjain,"Mahashweta Nagar, Ujjain - MPPCB",16-02-2026 09:00:00,23.1633321,75.800225,OZONE,10,65,44
India,Maharashtra,Ahmednagar,"Tarakpur, Ahmednagar - MPCB",16-02-2026 09:00:00,19.10122,74.73339,CO,33,126,62
India,Maharashtra,Dhule,"Deopur, Dhule - MPCB",16-02-2026 09:00:00,20.918946,74.776388,NH3,2,3,2
India,Maharashtra,Dhule,"Deopur, Dhule - MPCB",16-02-2026 09:00:00,20.918946,74.776388,OZONE,17,56,20
India,Maharashtra,Jalgaon,"Prabhat Colony, Jalgaon - MPCB",16-02-2026 09:00:00,21.001264,75.565602,PM10,42,134,93
India,Maharashtra,Jalna,"Old MIDC, Jalna - MPCB",16-02-2026 09:00:00,19.854616,75.905894,NO2,5,16,9
India,Maharashtra,Jalna,"Old MIDC, Jalna - MPCB",16-02-2026 09:00:00,19.854616,75.905894,NH3,3,5,4
India,Maharashtra,Jalna,"Old MIDC, Jalna - MPCB",16-02-2026 09:00:00,19.854616,75.905894,OZONE,45,60,47
India,Maharashtra,Kalyan,"Khadakpada, Kalyan - MPCB",16-02-2026 09:00:00,19.25292,73.142019,PM2.5,36,91,60
India,Maharashtra,Kalyan,"Khadakpada, Kalyan - MPCB",16-02-2026 09:00:00,19.25292,73.142019,PM10,38,96,63
India,Maharashtra,Kalyan,"Khadakpada, Kalyan - MPCB",16-02-2026 09:00:00,19.25292,73.142019,NH3,1,1,1
India,Maharashtra,Kolhapur,"Shivaji University, Kolhapur - MPCB",16-02-2026 09:00:00,16.6870449,74.2505872,PM10,51,97,70
India,Maharashtra,Mumbai,"Chakala-Andheri East, Mumbai - IITM",16-02-2026 09:00:00,19.11074,72.86084,PM2.5,81,192,123
India,Maharashtra,Mumbai,"Chhatrapati Shivaji Intl. Airport (T2), Mumbai - MPCB",16-02-2026 09:00:00,19.10078,72.87462,PM10,99,159,118
India,Maharashtra,Mumbai,"Chhatrapati Shivaji Intl. Airport (T2), Mumbai - MPCB",16-02-2026 09:00:00,19.10078,72.87462,NO2,1,12,2
India,Maharashtra,Mumbai,"Chhatrapati Shivaji Intl. Airport (T2), Mumbai - MPCB",16-02-2026 09:00:00,19.10078,72.87462,OZONE,6,8,7
India,Maharashtra,Mumbai,"Colaba, Mumbai - MPCB",16-02-2026 09:00:00,18.910000,72.820000,PM2.5,28,166,75
India,Maharashtra,Mumbai,"Colaba, Mumbai - MPCB",16-02-2026 09:00:00,18.910000,72.820000,PM10,33,140,85
India,Maharashtra,Mumbai,"Colaba, Mumbai - MPCB",16-02-2026 09:00:00,18.910000,72.820000,SO2,NA,NA,NA
India,Maharashtra,Mumbai,"Colaba, Mumbai - MPCB",16-02-2026 09:00:00,18.910000,72.820000,OZONE,11,11,11
India,Maharashtra,Mumbai,"Deonar, Mumbai - IITM",16-02-2026 09:00:00,19.04946,72.9230,PM2.5,46,173,97
India,Maharashtra,Mumbai,"Ghatkopar, Mumbai - BMC",16-02-2026 09:00:00,19.083694,72.920967,PM10,107,148,128
India,Maharashtra,Amravati,"Shivneri Colony, Amravati - MPCB",16-02-2026 09:00:00,20.9402359,77.7895248,NO2,8,36,17
India,Maharashtra,Amravati,"Shivneri Colony, Amravati - MPCB",16-02-2026 09:00:00,20.9402359,77.7895248,NH3,5,5,5
India,Maharashtra,Amravati,"Shri Shivaji Science College, Amravati - MPCB",16-02-2026 09:00:00,20.939198,77.765701,NH3,3,12,4
India,Maharashtra,Aurangabad,"MIDC Chilkalthana, Aurangabad - MPCB",16-02-2026 09:00:00,19.875620,75.387310,OZONE,17,71,29
India,Maharashtra,Aurangabad,"More Chowk Waluj, Aurangabad - MPCB",16-02-2026 09:00:00,19.8389439,75.244448,PM2.5,79,165,113
India,Maharashtra,Aurangabad,"More Chowk Waluj, Aurangabad - MPCB",16-02-2026 09:00:00,19.8389439,75.244448,NH3,10,12,10
India,Maharashtra,Aurangabad,"More Chowk Waluj, Aurangabad - MPCB",16-02-2026 09:00:00,19.8389439,75.244448,CO,4,126,57
India,Maharashtra,Badlapur,"Katrap, Badlapur - MPCB",16-02-2026 09:00:00,19.16485,73.23409,PM2.5,52,153,81
India,Maharashtra,Badlapur,"Katrap, Badlapur - MPCB",16-02-2026 09:00:00,19.16485,73.23409,PM10,89,158,120
India,Maharashtra,Belapur,"CBD Belapur, Belapur - MPCB",16-02-2026 09:00:00,19.0243902,73.0406721,SO2,16,40,22
India,Maharashtra,Bhiwandi,"Gokul Nagar, Bhiwandi - MPCB",16-02-2026 09:00:00,19.309073,73.057223,PM10,91,196,128
India,Maharashtra,Bhiwandi,"Gokul Nagar, Bhiwandi - MPCB",16-02-2026 09:00:00,19.309073,73.057223,NH3,5,11,8
India,Maharashtra,Bhiwandi,"Gokul Nagar, Bhiwandi - MPCB",16-02-2026 09:00:00,19.309073,73.057223,SO2,4,12,7
India,Maharashtra,Boisar,"Khaira, Boisar - MPCB",16-02-2026 09:00:00,19.786089,72.757971,SO2,8,24,15
India,Maharashtra,Chandrapur,"Chauhan Colony, Chandrapur - MPCB",16-02-2026 09:00:00,19.962900,79.298714,CO,16,32,20
India,Maharashtra,Chandrapur,"Chauhan Colony, Chandrapur - MPCB",16-02-2026 09:00:00,19.962900,79.298714,OZONE,26,26,26
India,Maharashtra,Chandrapur,"MIDC Khutala, Chandrapur - MPCB",16-02-2026 09:00:00,19.9775302,79.2337086,SO2,8,9,9
India,Maharashtra,Mumbai,"Bandra Kurla Complex, Mumbai - MPCB",16-02-2026 09:00:00,19.065931,72.862131,NH3,7,8,8
India,Maharashtra,Mumbai,"Bandra Kurla Complex, Mumbai - MPCB",16-02-2026 09:00:00,19.065931,72.862131,OZONE,2,62,3
India,Maharashtra,Mumbai,"Borivali East, Mumbai - IITM",16-02-2026 09:00:00,19.23241,72.86895,PM2.5,61,119,87
India,Maharashtra,Mumbai,"Borivali East, Mumbai - IITM",16-02-2026 09:00:00,19.23241,72.86895,PM10,68,164,120
India,Maharashtra,Mumbai,"Borivali East, Mumbai - IITM",16-02-2026 09:00:00,19.23241,72.86895,NO2,22,82,42
India,Maharashtra,Mumbai,"Borivali East, Mumbai - IITM",16-02-2026 09:00:00,19.23241,72.86895,CO,12,86,44
India,Maharashtra,Mumbai,"Borivali East, Mumbai - MPCB",16-02-2026 09:00:00,19.2243333,72.8658113,NO2,NA,NA,NA
India,Maharashtra,Mumbai,"Borivali East, Mumbai - MPCB",16-02-2026 09:00:00,19.2243333,72.8658113,NH3,1,8,4
India,Maharashtra,Mumbai,"Borivali East, Mumbai - MPCB",16-02-2026 09:00:00,19.2243333,72.8658113,SO2,14,19,17
India,Madhya Pradesh,Katni,"Gole Bazar, Katni - MPPCB",16-02-2026 09:00:00,23.50016,80.23284,PM2.5,5,307,81
India,Madhya Pradesh,Katni,"Gole Bazar, Katni - MPPCB",16-02-2026 09:00:00,23.50016,80.23284,PM10,19,163,69
India,Madhya Pradesh,Katni,"Gole Bazar, Katni - MPPCB",16-02-2026 09:00:00,23.50016,80.23284,NO2,19,60,40
India,Madhya Pradesh,Mandideep,"Sector-D Industrial Area, Mandideep - MPPCB",16-02-2026 09:00:00,23.108440,77.511428,NH3,1,7,4
India,Madhya Pradesh,Pithampur,"Sector-2 Industrial Area, Pithampur - MPPCB",16-02-2026 09:00:00,22.624758,75.675238,PM2.5,NA,NA,NA
India,Madhya Pradesh,Pithampur,"Sector-2 Industrial Area, Pithampur - MPPCB",16-02-2026 09:00:00,22.624758,75.675238,NO2,13,77,20
India,Madhya Pradesh,Ratlam,"Shasthri Nagar, Ratlam - IPCA Lab",16-02-2026 09:00:00,23.331731,75.045981,NO2,15,42,24
India,Maharashtra,Mira-Bhayandar,"Bhayandar West, Mira-Bhayandar - MPCB",16-02-2026 09:00:00,19.296481,72.840923,NO2,21,89,47
India,Maharashtra,Mira-Bhayandar,"Bhayandar West, Mira-Bhayandar - MPCB",16-02-2026 09:00:00,19.296481,72.840923,NH3,4,11,7
India,Maharashtra,Mira-Bhayandar,"Bhayandar West, Mira-Bhayandar - MPCB",16-02-2026 09:00:00,19.296481,72.840923,CO,22,54,41
India,Maharashtra,Mumbai,"Bandra Kurla Complex, Mumbai - IITM",16-02-2026 09:00:00,19.053536,72.84643,PM2.5,81,190,136
India,Maharashtra,Kolhapur,"Shivaji University, Kolhapur - MPCB",16-02-2026 09:00:00,16.6870449,74.2505872,CO,12,50,30
India,Maharashtra,Parbhani,"Masoom Colony, Parbhani - MPCB",16-02-2026 09:00:00,19.265594,76.761463,SO2,10,23,14
India,Maharashtra,Parbhani,"Masoom Colony, Parbhani - MPCB",16-02-2026 09:00:00,19.265594,76.761463,CO,8,14,12
India,Maharashtra,Parbhani,"Masoom Colony, Parbhani - MPCB",16-02-2026 09:00:00,19.265594,76.761463,OZONE,10,10,10
India,Maharashtra,Pimpri-Chinchwad,"Gavalinagar, Pimpri Chinchwad - MPCB",16-02-2026 09:00:00,18.63673,73.82487,OZONE,32,33,32
India,Maharashtra,Pimpri-Chinchwad,"Park Street Wakad, Pimpri Chinchwad - MPCB",16-02-2026 09:00:00,18.59051,73.77946,NO2,NA,NA,NA
India,Maharashtra,Pimpri-Chinchwad,"Park Street Wakad, Pimpri Chinchwad - MPCB",16-02-2026 09:00:00,18.59051,73.77946,NH3,NA,NA,NA
India,Maharashtra,Pimpri-Chinchwad,"Savta Mali Nagar, Pimpri-Chinchwad - IITM",16-02-2026 09:00:00,18.614767,73.799516,PM10,108,171,139
India,Maharashtra,Pimpri-Chinchwad,"Savta Mali Nagar, Pimpri-Chinchwad - IITM",16-02-2026 09:00:00,18.614767,73.799516,NO2,16,122,63
India,Maharashtra,Pimpri-Chinchwad,"Savta Mali Nagar, Pimpri-Chinchwad - IITM",16-02-2026 09:00:00,18.614767,73.799516,OZONE,2,41,5
India,Maharashtra,Pimpri-Chinchwad,"Thergaon, Pimpri Chinchwad - MPCB",16-02-2026 09:00:00,18.616318,73.765797,NO2,27,105,75
India,Maharashtra,Mumbai,"Kandivali East, Mumbai - MPCB",16-02-2026 09:00:00,19.205800,72.868200,PM2.5,16,48,31
India,Maharashtra,Mumbai,"Kandivali West, Mumbai - BMC",16-02-2026 09:00:00,19.215859,72.831718,PM2.5,69,120,96
India,Maharashtra,Mumbai,"Kandivali West, Mumbai - BMC",16-02-2026 09:00:00,19.215859,72.831718,SO2,NA,NA,NA
India,Maharashtra,Mumbai,"Khindipada-Bhandup West, Mumbai - IITM",16-02-2026 09:00:00,19.1653323,72.922099,NO2,14,48,25
India,Maharashtra,Mumbai,"Khindipada-Bhandup West, Mumbai - IITM",16-02-2026 09:00:00,19.1653323,72.922099,SO2,2,29,12
India,Maharashtra,Mumbai,"Khindipada-Bhandup West, Mumbai - IITM",16-02-2026 09:00:00,19.1653323,72.922099,CO,14,36,18
India,Maharashtra,Mumbai,"Kurla, Mumbai - MPCB",16-02-2026 09:00:00,19.0863,72.8888,NH3,NA,NA,NA
India,Maharashtra,Mumbai,"Kurla, Mumbai - MPCB",16-02-2026 09:00:00,19.0863,72.8888,CO,12,33,33
India,Maharashtra,Mumbai,"Malad West, Mumbai - IITM",16-02-2026 09:00:00,19.19709,72.82204,PM2.5,36,132,84
India,Maharashtra,Nagpur,"Ram Nagar, Nagpur - MPCB",16-02-2026 09:00:00,21.143383,79.048912,SO2,12,85,25
India,Maharashtra,Nagpur,"Ram Nagar, Nagpur - MPCB",16-02-2026 09:00:00,21.143383,79.048912,CO,14,62,30
India,Maharashtra,Nanded,"Sneh Nagar, Nanded - MPCB",16-02-2026 09:00:00,19.173852,77.296291,NH3,3,6,4
India,Maharashtra,Nanded,"Sneh Nagar, Nanded - MPCB",16-02-2026 09:00:00,19.173852,77.296291,SO2,NA,NA,NA
India,Maharashtra,Nashik,"Gangapur Road, Nashik - MPCB",16-02-2026 09:00:00,20.0073285,73.7762427,PM10,48,116,80
India,Maharashtra,Nashik,"Gangapur Road, Nashik - MPCB",16-02-2026 09:00:00,20.0073285,73.7762427,NO2,5,5,5
India,Maharashtra,Nashik,"MIDC Ambad, Nashik - MPCB",16-02-2026 09:00:00,19.950220,73.731480,PM10,79,128,103
India,Maharashtra,Nashik,"MIDC Ambad, Nashik - MPCB",16-02-2026 09:00:00,19.950220,73.731480,SO2,17,45,22
India,Maharashtra,Nashik,"MIDC Ambad, Nashik - MPCB",16-02-2026 09:00:00,19.950220,73.731480,CO,26,32,30
India,Maharashtra,Pune,"Dhankawadi, Pune - IITM",16-02-2026 09:00:00,18.459883,73.852193,NO2,28,128,80
India,Maharashtra,Pune,"Hadapsar, Pune - IITM",16-02-2026 09:00:00,18.501793,73.927532,PM2.5,132,323,247
India,Maharashtra,Pune,"Hadapsar, Pune - IITM",16-02-2026 09:00:00,18.501793,73.927532,PM10,182,244,214
India,Maharashtra,Pune,"Katraj Dairy, Pune - MPCB",16-02-2026 09:00:00,18.454450,73.854155,OZONE,30,52,32
India,Maharashtra,Pune,"Mhada Colony, Pune - IITM",16-02-2026 09:00:00,18.573040,73.927715,OZONE,9,75,13
India,Maharashtra,Pune,"Savitribai Phule Pune University, Pune - MPCB",16-02-2026 09:00:00,18.547056,73.826908,PM2.5,63,126,79
India,Maharashtra,Pune,"Transport Nagar-Nigdi, Pune - IITM",16-02-2026 09:00:00,18.664282,73.763966,PM2.5,72,222,119
India,Maharashtra,Mumbai,"Mazgaon, Mumbai - IITM",16-02-2026 09:00:00,18.96702,72.84214,SO2,17,31,22
India,Maharashtra,Mumbai,"Mazgaon, Mumbai - IITM",16-02-2026 09:00:00,18.96702,72.84214,CO,15,84,50
India,Maharashtra,Mumbai,"Mazgaon, Mumbai - IITM",16-02-2026 09:00:00,18.96702,72.84214,OZONE,6,80,22
India,Maharashtra,Mumbai,"Mindspace-Malad West, Mumbai - MPCB",16-02-2026 09:00:00,19.1878657,72.8304069,PM10,110,123,118
India,Maharashtra,Mumbai,"Navy Nagar-Colaba, Mumbai - IITM",16-02-2026 09:00:00,18.897756,72.813320,OZONE,7,68,34
India,Maharashtra,Mumbai,"Powai, Mumbai - MPCB",16-02-2026 09:00:00,19.137500,72.915056,PM2.5,NA,NA,NA
India,Maharashtra,Mumbai,"Powai, Mumbai - MPCB",16-02-2026 09:00:00,19.137500,72.915056,PM10,NA,NA,NA
India,Maharashtra,Mumbai,"Shivaji Nagar, Mumbai - BMC",16-02-2026 09:00:00,19.060498,72.923356,PM2.5,44,113,72
India,Maharashtra,Navi Mumbai,"Mahape, Navi Mumbai - MPCB",16-02-2026 09:00:00,19.1135051,73.008978,SO2,NA,NA,NA
India,Maharashtra,Navi Mumbai,"Mahape, Navi Mumbai - MPCB",16-02-2026 09:00:00,19.1135051,73.008978,OZONE,7,12,10
India,Maharashtra,Navi Mumbai,"Nerul, Navi Mumbai - MPCB",16-02-2026 09:00:00,19.008751,73.016620,NH3,4,4,4
India,Maharashtra,Navi Mumbai,"Sanpada, Navi Mumbai - MPCB",16-02-2026 09:00:00,19.0575752,73.0151367,PM2.5,43,235,74
India,Maharashtra,Navi Mumbai,"Sanpada, Navi Mumbai - MPCB",16-02-2026 09:00:00,19.0575752,73.0151367,CO,8,101,50
India,Maharashtra,Parbhani,"Masoom Colony, Parbhani - MPCB",16-02-2026 09:00:00,19.265594,76.761463,PM2.5,28,67,48
India,Maharashtra,Solapur,"Ratandeep Housing Society, Solapur - MPCB",16-02-2026 09:00:00,17.65439,75.90649,PM2.5,26,45,36
India,Maharashtra,Solapur,"Ratandeep Housing Society, Solapur - MPCB",16-02-2026 09:00:00,17.65439,75.90649,NH3,2,25,7
India,Maharashtra,Thane,"Kasarvadavali, Thane - MPCB",16-02-2026 09:00:00,19.26777,72.97182,SO2,6,40,16
India,Maharashtra,Thane,"Kasarvadavali, Thane - MPCB",16-02-2026 09:00:00,19.26777,72.97182,OZONE,3,106,35
India,Maharashtra,Thane,"Upvan Fort, Thane - MPCB",16-02-2026 09:00:00,19.222279,72.957979,PM2.5,31,163,74
India,Maharashtra,Thane,"Upvan Fort, Thane - MPCB",16-02-2026 09:00:00,19.222279,72.957979,OZONE,23,76,40
India,Maharashtra,Sangli,"Vijay Nagar, Sangli - MPCB",16-02-2026 09:00:00, 16.5038,74.3623,PM2.5,54,240,138
India,Maharashtra,Sangli,"Vijay Nagar, Sangli - MPCB",16-02-2026 09:00:00, 16.5038,74.3623,PM10,61,180,119
India,Maharashtra,Sangli,"Vijay Nagar, Sangli - MPCB",16-02-2026 09:00:00, 16.5038,74.3623,SO2,13,24,20
India,Maharashtra,Solapur,"Dnyaneshwar Nagar, Solapur - MPCB",16-02-2026 09:00:00,17.6336264,75.9132495,PM2.5,71,144,100
India,Maharashtra,Solapur,"Dnyaneshwar Nagar, Solapur - MPCB",16-02-2026 09:00:00,17.6336264,75.9132495,NH3,7,28,13
India,Maharashtra,Mumbai,"Siddharth Nagar-Worli, Mumbai - IITM",16-02-2026 09:00:00,19.000083,72.813993,PM2.5,58,138,85
India,Maharashtra,Nagpur,"Mahal, Nagpur - MPCB",16-02-2026 09:00:00,21.14472,79.107595,OZONE,8,33,10
India,Maharashtra,Nagpur,"Opp GPO Civil Lines, Nagpur - MPCB",16-02-2026 09:00:00,21.152875,79.0517531,OZONE,2,32,6
India,Rajasthan,Alwar,"Moti Doongri, Alwar - RSPCB",16-02-2026 09:00:00,27.554793,76.611536,NO2,43,83,58
India,Rajasthan,Alwar,"Moti Doongri, Alwar - RSPCB",16-02-2026 09:00:00,27.554793,76.611536,SO2,7,37,14
India,Rajasthan,Banswara,"Rati Talai, Banswara - RSPCB",16-02-2026 09:00:00,23.555190,74.440010,PM2.5,26,106,53
India,Rajasthan,Banswara,"Rati Talai, Banswara - RSPCB",16-02-2026 09:00:00,23.555190,74.440010,NO2,13,105,43
India,Rajasthan,Banswara,"Rati Talai, Banswara - RSPCB",16-02-2026 09:00:00,23.555190,74.440010,OZONE,8,138,68
India,Rajasthan,Baran,"Bamboliya, Baran - RSPCB",16-02-2026 09:00:00,25.106006,76.469948,CO,16,51,25
India,Rajasthan,Baran,"Bamboliya, Baran - RSPCB",16-02-2026 09:00:00,25.106006,76.469948,OZONE,13,123,32
India,Rajasthan,Barmer,"Railway Colony, Barmer - RSPCB",16-02-2026 09:00:00,25.747299,71.393989,PM2.5,12,170,42
India,Rajasthan,Barmer,"Railway Colony, Barmer - RSPCB",16-02-2026 09:00:00,25.747299,71.393989,NH3,4,11,6
India,Rajasthan,Bharatpur,"Krishna Nagar, Bharatpur - RSPCB",16-02-2026 09:00:00,27.215415,77.50873,NH3,10,28,16
India,Rajasthan,Bharatpur,"Krishna Nagar, Bharatpur - RSPCB",16-02-2026 09:00:00,27.215415,77.50873,OZONE,3,123,8
India,Rajasthan,Bhilwara,"Pratap Nagar, Bhilwara - RSPCB",16-02-2026 09:00:00,25.339605,74.618883,NO2,11,84,44
India,Punjab,Khanna,"Kalal Majra, Khanna - PPCB",16-02-2026 09:00:00,30.736056 ,76.209694,CO,9,49,17
India,Punjab,Ludhiana,"Punjab Agricultural University, Ludhiana - PPCB",16-02-2026 09:00:00,30.9028,75.8086,PM2.5,80,158,102
India,Punjab,Ludhiana,"Punjab Agricultural University, Ludhiana - PPCB",16-02-2026 09:00:00,30.9028,75.8086,OZONE,19,43,21
India,Punjab,Mandi Gobindgarh,"RIMT University, Mandi Gobindgarh - PPCB",16-02-2026 09:00:00,30.649961,76.331442,PM10,23,164,79
India,Punjab,Patiala,"Model Town, Patiala - PPCB",16-02-2026 09:00:00,30.349388,76.366642,NO2,NA,NA,NA
India,Punjab,Patiala,"Model Town, Patiala - PPCB",16-02-2026 09:00:00,30.349388,76.366642,OZONE,11,42,12
India,Punjab,Rupnagar,"Ratanpura, Rupnagar - Ambuja Cements",16-02-2026 09:00:00,31.0325454,76.5623046,NO2,9,45,26
India,Punjab,Rupnagar,"Ratanpura, Rupnagar - Ambuja Cements",16-02-2026 09:00:00,31.0325454,76.5623046,CO,38,47,41
India,Rajasthan,Ajmer,"Civil Lines,  Ajmer - RSPCB",16-02-2026 09:00:00,26.470859,74.646594,PM10,42,132,85
India,Rajasthan,Ajmer,"Civil Lines,  Ajmer - RSPCB",16-02-2026 09:00:00,26.470859,74.646594,CO,16,68,29
India,Odisha,Angul,"Hakimapada, Angul - OSPCB",16-02-2026 09:00:00,20.832874,85.104082,SO2,16,101,30
India,Odisha,Angul,"Hakimapada, Angul - OSPCB",16-02-2026 09:00:00,20.832874,85.104082,CO,22,86,64
India,Odisha,Balasore,"Kalidaspur, Balasore - OSPCB",16-02-2026 09:00:00,21.51161,86.89088,PM2.5,85,200,136
India,Odisha,Balasore,"Kalidaspur, Balasore - OSPCB",16-02-2026 09:00:00,21.51161,86.89088,NH3,1,5,2
India,Odisha,Barbil,"Forest Office, Barbil - OSPCB",16-02-2026 09:00:00,22.1166054,85.3945546,PM2.5,17,290,85
India,Odisha,Baripada,"Meher Colony, Baripada - OSPCB",16-02-2026 09:00:00,21.941841,86.728318,CO,37,80,41
India,Odisha,Baripada,"Meher Colony, Baripada - OSPCB",16-02-2026 09:00:00,21.941841,86.728318,OZONE,13,116,39
India,Odisha,Bhubaneswar,"Lingraj Mandir, Bhubaneswar - OSPCB",16-02-2026 09:00:00,20.240790,85.836784,NH3,5,12,9
India,Odisha,Bhubaneswar,"Patia, Bhubaneswar - OSPCB",16-02-2026 09:00:00,20.34652,85.81630,NO2,8,43,17
India,Odisha,Bhubaneswar,"Patia, Bhubaneswar - OSPCB",16-02-2026 09:00:00,20.34652,85.81630,SO2,5,31,15
India,Odisha,Tensa,"Barsua Iron Ore Mines, Tensa - OSPCB",16-02-2026 09:00:00,21.869985,85.167016,PM2.5,NA,NA,NA
India,Odisha,Tensa,"Barsua Iron Ore Mines, Tensa - OSPCB",16-02-2026 09:00:00,21.869985,85.167016,CO,33,40,36
India,Odisha,Tensa,"Barsua Iron Ore Mines, Tensa - OSPCB",16-02-2026 09:00:00,21.869985,85.167016,OZONE,12,39,19
India,Puducherry,Puducherry,"Jawahar Nagar, Puducherry - PPCC",16-02-2026 09:00:00,11.9309,79.8027,NO2,11,42,21
India,Punjab,Amritsar,"Golden Temple, Amritsar - PPCB",16-02-2026 09:00:00,31.620000,74.876512,PM2.5,12,71,33
India,Punjab,Amritsar,"Golden Temple, Amritsar - PPCB",16-02-2026 09:00:00,31.620000,74.876512,PM10,38,113,78
India,Punjab,Bathinda,"Hardev Nagar, Bathinda - PPCB",16-02-2026 09:00:00,30.233011,74.907758,SO2,NA,NA,NA
India,Punjab,Jalandhar,"Civil Line, Jalandhar - PPCB",16-02-2026 09:00:00,31.321907,75.578914,PM10,61,116,89
India,Punjab,Khanna,"Kalal Majra, Khanna - PPCB",16-02-2026 09:00:00,30.736056 ,76.209694,SO2,6,17,11
India,Maharashtra,Ulhasnagar,"Sidhi Vinayak Nagar, Ulhasnagar - MPCB",16-02-2026 09:00:00,19.235581,73.159121,PM10,78,150,106
India,Maharashtra,Ulhasnagar,"Sidhi Vinayak Nagar, Ulhasnagar - MPCB",16-02-2026 09:00:00,19.235581,73.159121,SO2,4,12,8
India,Maharashtra,Ulhasnagar,"Sidhi Vinayak Nagar, Ulhasnagar - MPCB",16-02-2026 09:00:00,19.235581,73.159121,CO,7,30,19
India,Maharashtra,Virar,"Bolinj, Virar - MPCB",16-02-2026 09:00:00,19.4458210,72.7988231,PM10,49,118,75
India,Maharashtra,Virar,"Bolinj, Virar - MPCB",16-02-2026 09:00:00,19.4458210,72.7988231,OZONE,4,47,14
India,Meghalaya,Shillong,"Lumpyngngad, Shillong - Meghalaya PCB",16-02-2026 09:00:00,25.5586,91.8985,OZONE,29,43,36
India,Mizoram,Aizawl,"Sikulpuikawn, Aizawl - Mizoram PCB",16-02-2026 09:00:00,23.7176342,92.7192841,OZONE,3,10,4
India,Nagaland,Kohima,"PWD Junction, Kohima - NPCB",16-02-2026 09:00:00,25.6635413,94.0989878,NH3,1,1,1
India,Odisha,Bileipada,"Tata Township, Bileipada - OSPCB",16-02-2026 09:00:00,22.06156703,85.47409613,NH3,NA,NA,NA
India,Odisha,Bileipada,"Tata Township, Bileipada - OSPCB",16-02-2026 09:00:00,22.06156703,85.47409613,OZONE,5,22,10
India,Odisha,Brajrajnagar,"GM Office, Brajrajnagar - OSPCB",16-02-2026 09:00:00,21.8004996,83.8396977,OZONE,28,30,29
India,Odisha,Byasanagar,"Ferro Chrome Colony, Byasanagar - OSPCB",16-02-2026 09:00:00,20.94185,86.11510,CO,16,71,42
India,Odisha,Cuttack,"CDA Area, Cuttack - OSPCB",16-02-2026 09:00:00,20.48891     ,85.84768     ,SO2,4,20,10
India,Odisha,Cuttack,"CDA Area, Cuttack - OSPCB",16-02-2026 09:00:00,20.48891     ,85.84768     ,CO,60,107,64
India,Odisha,Keonjhar,"Jagamohanpur, Keonjhar - OSPCB",16-02-2026 09:00:00,21.643900,85.599355,PM10,58,144,95
India,Odisha,Rairangpur,"Divisional Forest Office, Rairangpur - OSPCB",16-02-2026 09:00:00,22.265816,86.174829,PM2.5,29,87,61
India,Odisha,Rourkela,"Fertilizer Township, Rourkela - OSPCB",16-02-2026 09:00:00,22.18972222,84.86277778,SO2,8,11,9
India,Odisha,Rourkela,"Raghunathpali, Rourkela - OSPCB",16-02-2026 09:00:00,22.220833,84.809444,PM2.5,51,222,111
India,Odisha,Rourkela,"Sector-2, Rourkela - OSPCB",16-02-2026 09:00:00,22.24500000,84.88111111,PM10,42,63,52
India,Odisha,Suakati,"OMC Colony, Suakati - OSPCB",16-02-2026 09:00:00,21.606865,85.510538,NO2,8,8,8
India,Odisha,Talcher,"Talcher Coalfields,Talcher - OSPCB",16-02-2026 09:00:00,20.9360711,85.1707021,NH3,6,8,7
India,Rajasthan,Bikaner,"MM Ground, Bikaner - RSPCB",16-02-2026 09:00:00,28.018792,73.292658,NO2,15,118,52
India,Rajasthan,Bundi,"New Colony, Bundi - RSPCB",16-02-2026 09:00:00,25.435774,75.644272,PM10,46,184,103
India,Rajasthan,Bundi,"New Colony, Bundi - RSPCB",16-02-2026 09:00:00,25.435774,75.644272,OZONE,3,113,33
India,Rajasthan,Chittorgarh,"Shastri Nagar, Chittorgarh - RSPCB",16-02-2026 09:00:00,24.892047,74.623527,SO2,1,39,8
India,Rajasthan,Dholpur,"Raja Ganj, Dholpur - RSPCB",16-02-2026 09:00:00,26.699557,77.898881,SO2,2,11,7
India,Rajasthan,Dholpur,"Raja Ganj, Dholpur - RSPCB",16-02-2026 09:00:00,26.699557,77.898881,CO,19,76,30
India,TamilNadu,Gummidipoondi,"Anthoni Pillai Nagar, Gummidipoondi - TNPCB",16-02-2026 09:00:00,13.4127,80.1081,NH3,1,1,1
India,TamilNadu,Gummidipoondi,"Anthoni Pillai Nagar, Gummidipoondi - TNPCB",16-02-2026 09:00:00,13.4127,80.1081,SO2,2,103,24
India,TamilNadu,Perundurai,"SIPCOT Industrial Park, Perundurai - TNPCB",16-02-2026 09:00:00,11.258242,77.552761,PM10,NA,NA,NA
India,TamilNadu,Perundurai,"SIPCOT Industrial Park, Perundurai - TNPCB",16-02-2026 09:00:00,11.258242,77.552761,NO2,12,13,12
India,TamilNadu,Perundurai,"SIPCOT Industrial Park, Perundurai - TNPCB",16-02-2026 09:00:00,11.258242,77.552761,NH3,2,2,2
India,TamilNadu,Perundurai,"SIPCOT Industrial Park, Perundurai - TNPCB",16-02-2026 09:00:00,11.258242,77.552761,SO2,15,15,15
India,TamilNadu,Perundurai,"SIPCOT Industrial Park, Perundurai - TNPCB",16-02-2026 09:00:00,11.258242,77.552761,OZONE,22,28,28
India,TamilNadu,Thoothukudi,"Meelavittan, Thoothukudi - TNPCB",16-02-2026 09:00:00,8.816428 ,78.099039,OZONE,12,45,27
India,Telangana,Hyderabad,"Bollaram Industrial Area, Hyderabad - TSPCB",16-02-2026 09:00:00,17.540891,78.358528,NO2,5,70,37
India,Telangana,Hyderabad,"Bollaram Industrial Area, Hyderabad - TSPCB",16-02-2026 09:00:00,17.540891,78.358528,CO,3,70,36
India,Telangana,Hyderabad,"Central University, Hyderabad - TSPCB",16-02-2026 09:00:00,17.460103,78.334361,PM10,48,76,61
India,Telangana,Hyderabad,"ECIL Kapra, Hyderabad - TSPCB",16-02-2026 09:00:00,17.470431,78.566959,NO2,13,63,31
India,Telangana,Hyderabad,"ECIL Kapra, Hyderabad - TSPCB",16-02-2026 09:00:00,17.470431,78.566959,SO2,9,16,11
India,Rajasthan,Kota,"Nayapura, Kota - RSPCB",16-02-2026 09:00:00,25.196024,75.855668,NH3,9,13,11
India,Rajasthan,Kota,"Nayapura, Kota - RSPCB",16-02-2026 09:00:00,25.196024,75.855668,CO,8,101,39
India,Rajasthan,Kota,"Shrinath Puram, Kota - RSPCB",16-02-2026 09:00:00,25.14389,75.821256,NH3,3,9,5
India,Rajasthan,Nagaur,"Karni Colony, Nagaur - RSPCB",16-02-2026 09:00:00,27.213494,73.734444,PM2.5,23,322,70
India,Rajasthan,Nagaur,"Karni Colony, Nagaur - RSPCB",16-02-2026 09:00:00,27.213494,73.734444,NO2,9,58,27
India,Rajasthan,Nagaur,"Karni Colony, Nagaur - RSPCB",16-02-2026 09:00:00,27.213494,73.734444,NH3,8,15,10
India,Rajasthan,Pali,"Indira Colony Vistar, Pali - RSPCB",16-02-2026 09:00:00,25.771061, 73.340227,SO2,3,12,9
India,Rajasthan,Pali,"Indira Colony Vistar, Pali - RSPCB",16-02-2026 09:00:00,25.771061, 73.340227,CO,20,56,36
India,Rajasthan,Pratapgarh,"Pragati Nagar, Pratapgarh - RSPCB",16-02-2026 09:00:00,24.041198,74.780702,NH3,4,6,5
India,Rajasthan,Jaisalmer,"Sadar Bazar, Jaisalmer - RSPCB",16-02-2026 09:00:00,26.912329,70.909168,NH3,11,30,18
India,Rajasthan,Jhalawar,"Rajlaxmi Nagar, Jhalawar - RSPCB",16-02-2026 09:00:00,24.588397,76.172782,NH3,7,14,9
India,Rajasthan,Jhalawar,"Rajlaxmi Nagar, Jhalawar - RSPCB",16-02-2026 09:00:00,24.588397,76.172782,CO,18,98,35
India,Rajasthan,Jhalawar,"Rajlaxmi Nagar, Jhalawar - RSPCB",16-02-2026 09:00:00,24.588397,76.172782,OZONE,4,120,29
India,Rajasthan,Jhunjhunu,"Indra Nagar, Jhunjhunu - RSPCB",16-02-2026 09:00:00,28.108988,75.386577,PM2.5,15,174,63
India,Rajasthan,Jhunjhunu,"Indra Nagar, Jhunjhunu - RSPCB",16-02-2026 09:00:00,28.108988,75.386577,PM10,51,306,122
India,Rajasthan,Jhunjhunu,"Indra Nagar, Jhunjhunu - RSPCB",16-02-2026 09:00:00,28.108988,75.386577,CO,8,106,28
India,Rajasthan,Jodhpur,"Collectorate, Jodhpur - RSPCB",16-02-2026 09:00:00,26.268249,73.0193853,PM2.5,33,177,58
India,Rajasthan,Jodhpur,"Collectorate, Jodhpur - RSPCB",16-02-2026 09:00:00,26.268249,73.0193853,SO2,1,17,6
India,Rajasthan,Jaipur,"Adarsh Nagar, Jaipur - RSPCB",16-02-2026 09:00:00,26.902909,75.836858,SO2,12,26,22
India,Rajasthan,Jaipur,"Adarsh Nagar, Jaipur - RSPCB",16-02-2026 09:00:00,26.902909,75.836858,OZONE,17,66,35
India,Rajasthan,Jaipur,"Mansarovar Sector-12, Jaipur - RSPCB",16-02-2026 09:00:00,26.843698,75.766894,NO2,42,317,89
India,Rajasthan,Jaipur,"Police Commissionerate, Jaipur - RSPCB",16-02-2026 09:00:00,26.9164092,75.7994901,NO2,113,155,137
India,Rajasthan,Jaipur,"RIICO Sitapura, Jaipur - RSPCB",16-02-2026 09:00:00,26.786682,75.827928,CO,13,123,52
India,Rajasthan,Jaipur,"Sector-2 Murlipura, Jaipur - RSPCB",16-02-2026 09:00:00,26.960669,75.771817,NH3,4,8,5
India,Rajasthan,Jaipur,"Sector-2 Murlipura, Jaipur - RSPCB",16-02-2026 09:00:00,26.960669,75.771817,CO,20,106,56
India,Rajasthan,Jaipur,"Sector-2 Murlipura, Jaipur - RSPCB",16-02-2026 09:00:00,26.960669,75.771817,OZONE,10,77,21
India,Sikkim,Gangtok,"Zero Point GICI, Gangtok - SSPCB",16-02-2026 09:00:00,27.338530,88.614099,OZONE,19,23,20
India,TamilNadu,Chennai,"Arumbakkam, Chennai - TNPCB",16-02-2026 09:00:00,13.0664,80.2112 ,PM2.5,81,330,127
India,TamilNadu,Chennai,"Arumbakkam, Chennai - TNPCB",16-02-2026 09:00:00,13.0664,80.2112 ,SO2,3,23,7
India,TamilNadu,Chennai,"Kodungaiyur, Chennai - TNPCB",16-02-2026 09:00:00,13.1278,80.2642,PM10,97,194,121
India,TamilNadu,Chennai,"Kodungaiyur, Chennai - TNPCB",16-02-2026 09:00:00,13.1278,80.2642,OZONE,27,33,31
India,TamilNadu,Chennai,"Manali Village, Chennai - TNPCB",16-02-2026 09:00:00,13.1662,80.2584,NH3,1,2,1
India,TamilNadu,Chennai,"Manali Village, Chennai - TNPCB",16-02-2026 09:00:00,13.1662,80.2584,OZONE,15,30,26
India,TamilNadu,Chennai,"Manali, Chennai - CPCB",16-02-2026 09:00:00,13.164544,80.26285,SO2,6,26,15
India,Rajasthan,Rajsamand,"Dhoinda, Rajsamand - RSPCB",16-02-2026 09:00:00,25.036360,73.883502,OZONE,2,152,12
India,Rajasthan,Sawai Madhopur,"Sahu Nagar, Sawai Madhopur - RSPCB",16-02-2026 09:00:00,26.031443,76.359327,PM2.5,14,369,69
India,Rajasthan,Sawai Madhopur,"Sahu Nagar, Sawai Madhopur - RSPCB",16-02-2026 09:00:00,26.031443,76.359327,SO2,1,15,4
India,Rajasthan,Sri Ganganagar,"Old City, Sri Ganganagar - RSPCB",16-02-2026 09:00:00,29.931624,73.864511,NH3,5,8,6
India,Rajasthan,Sri Ganganagar,"Old City, Sri Ganganagar - RSPCB",16-02-2026 09:00:00,29.931624,73.864511,SO2,4,21,10
India,Rajasthan,Sri Ganganagar,"Old City, Sri Ganganagar - RSPCB",16-02-2026 09:00:00,29.931624,73.864511,OZONE,5,302,46
India,Rajasthan,Tonk,"Shastri Nagar, Tonk - RSPCB",16-02-2026 09:00:00,26.159933,75.780517,PM10,88,500,180
India,Rajasthan,Tonk,"Shastri Nagar, Tonk - RSPCB",16-02-2026 09:00:00,26.159933,75.780517,SO2,2,11,5
India,Rajasthan,Jodhpur,"Jhalamand, Jodhpur - RSPCB",16-02-2026 09:00:00,26.215415,73.070156,OZONE,5,95,7
India,Rajasthan,Jodhpur,"Samrat Ashok Udhyan, Jodhpur - RSPCB",16-02-2026 09:00:00,26.253384,72.976571,PM2.5,13,303,110
India,Rajasthan,Jodhpur,"Samrat Ashok Udhyan, Jodhpur - RSPCB",16-02-2026 09:00:00,26.253384,72.976571,SO2,2,21,7
India,Rajasthan,Jodhpur,"Samrat Ashok Udhyan, Jodhpur - RSPCB",16-02-2026 09:00:00,26.253384,72.976571,OZONE,3,175,21
India,Rajasthan,Karauli,"Satyawati Vihar, Karauli - RSPCB",16-02-2026 09:00:00,26.506177,77.025989,PM2.5,16,150,50
India,Rajasthan,Karauli,"Satyawati Vihar, Karauli - RSPCB",16-02-2026 09:00:00,26.506177,77.025989,SO2,1,7,3
India,Rajasthan,Kota,"Dhanmandi, Kota - RSPCB",16-02-2026 09:00:00,25.164090,75.858137,NO2,17,118,52
India,TamilNadu,Chennai,"Perungudi, Chennai - TNPCB",16-02-2026 09:00:00,12.9533,80.2357,NO2,3,9,5
India,TamilNadu,Chennai,"Perungudi, Chennai - TNPCB",16-02-2026 09:00:00,12.9533,80.2357,SO2,3,10,5
India,TamilNadu,Chennai,"Perungudi, Chennai - TNPCB",16-02-2026 09:00:00,12.9533,80.2357,OZONE,3,7,4
India,TamilNadu,Coimbatore,"PSG College of Arts and Science, Coimbatore - TNPCB",16-02-2026 09:00:00,11.0328,77.0349,OZONE,4,7,5
India,TamilNadu,Coimbatore,"SIDCO Kurichi, Coimbatore - TNPCB",16-02-2026 09:00:00,10.942451,76.978996,SO2,21,23,22
India,Rajasthan,Hanumangarh,"Housing Board, Hanumangarh - RSPCB",16-02-2026 09:00:00,29.610750,74.283608,PM2.5,23,193,61
India,Rajasthan,Hanumangarh,"Housing Board, Hanumangarh - RSPCB",16-02-2026 09:00:00,29.610750,74.283608,CO,12,102,25
India,Rajasthan,Jaipur,"Adarsh Nagar, Jaipur - RSPCB",16-02-2026 09:00:00,26.902909,75.836858,PM2.5,33,233,119
India,Telangana,Hyderabad,"IDA Pashamylaram, Hyderabad - TSPCB",16-02-2026 09:00:00,17.5316895,78.218939,SO2,4,78,18
India,Telangana,Hyderabad,"IDA Pashamylaram, Hyderabad - TSPCB",16-02-2026 09:00:00,17.5316895,78.218939,OZONE,16,19,17
India,Telangana,Hyderabad,"IITH Kandi, Hyderabad - TSPCB",16-02-2026 09:00:00,17.585705,78.126199,PM2.5,54,68,60
India,Telangana,Hyderabad,"Kokapet, Hyderabad - TSPCB",16-02-2026 09:00:00,17.393559,78.339194,NO2,NA,NA,NA
India,Telangana,Hyderabad,"Kokapet, Hyderabad - TSPCB",16-02-2026 09:00:00,17.393559,78.339194,NH3,NA,NA,NA
India,Telangana,Hyderabad,"Kokapet, Hyderabad - TSPCB",16-02-2026 09:00:00,17.393559,78.339194,CO,24,31,26
India,Telangana,Hyderabad,"Kompally Municipal Office, Hyderabad - TSPCB",16-02-2026 09:00:00,17.544899,78.486949,CO,NA,NA,NA
India,Telangana,Hyderabad,"New Malakpet, Hyderabad - TSPCB",16-02-2026 09:00:00,17.37206,78.50864,CO,31,40,32
India,Telangana,Hyderabad,"Ramachandrapuram, Hyderabad - TSPCB",16-02-2026 09:00:00,17.528544,78.286195,NH3,4,5,4
India,Telangana,Hyderabad,"Ramachandrapuram, Hyderabad - TSPCB",16-02-2026 09:00:00,17.528544,78.286195,OZONE,20,29,20
India,Telangana,Hyderabad,"Sanathnagar, Hyderabad - TSPCB",16-02-2026 09:00:00,17.4559458,78.4332152,PM2.5,62,140,92
India,Telangana,Hyderabad,"Sanathnagar, Hyderabad - TSPCB",16-02-2026 09:00:00,17.4559458,78.4332152,SO2,15,34,24
India,Telangana,Hyderabad,"Somajiguda, Hyderabad - TSPCB",16-02-2026 09:00:00,17.417094,78.457437,NO2,12,17,15
India,Telangana,Hyderabad,"Somajiguda, Hyderabad - TSPCB",16-02-2026 09:00:00,17.417094,78.457437,NH3,3,4,3
India,Tripura,Agartala,"Bardowali, Agartala - Tripura SPCB",16-02-2026 09:00:00,23.8175497,91.2726974,PM10,31,111,63
India,Uttar_Pradesh,Agra,"Rohta, Agra - UPPCB",16-02-2026 09:00:00,27.106972,78.000111,PM2.5,16,139,60
India,Uttar_Pradesh,Agra,"Sanjay Palace, Agra - UPPCB",16-02-2026 09:00:00,27.19865833,78.00598056,PM2.5,31,318,162
India,Uttar_Pradesh,Agra,"Sector-3B Avas Vikas Colony, Agra - UPPCB",16-02-2026 09:00:00,27.19412,77.96237,PM10,68,187,120
India,Uttar_Pradesh,Agra,"Sector-3B Avas Vikas Colony, Agra - UPPCB",16-02-2026 09:00:00,27.19412,77.96237,NO2,34,35,35
India,Uttar_Pradesh,Agra,"Sector-3B Avas Vikas Colony, Agra - UPPCB",16-02-2026 09:00:00,27.19412,77.96237,NH3,11,14,13
India,Uttar_Pradesh,Agra,"Shahjahan Garden, Agra - UPPCB",16-02-2026 09:00:00,27.169338,78.03582,CO,4,41,30
India,Uttar_Pradesh,Baghpat,"Sardar Patel Inter College, Baghpat - UPPCB",16-02-2026 09:00:00,28.964949,77.278761,SO2,17,42,25
India,Uttar_Pradesh,Bareilly,"Rajendra Nagar, Bareilly - UPPCB",16-02-2026 09:00:00,28.38910936,79.42963708,PM2.5,35,64,50
India,Uttar_Pradesh,Bareilly,"Rajendra Nagar, Bareilly - UPPCB",16-02-2026 09:00:00,28.38910936,79.42963708,NO2,9,10,9
India,Uttar_Pradesh,Bulandshahr,"Yamunapuram, Bulandshahr - UPPCB",16-02-2026 09:00:00,28.406963,77.849831,PM2.5,58,227,117
India,Uttar_Pradesh,Bulandshahr,"Yamunapuram, Bulandshahr - UPPCB",16-02-2026 09:00:00,28.406963,77.849831,CO,34,80,66
India,Uttar_Pradesh,Firozabad,"Nagla Bhau, Firozabad - UPPCB",16-02-2026 09:00:00,27.168897,78.376960,PM10,33,181,79
India,Uttar_Pradesh,Ghaziabad,"Indirapuram, Ghaziabad - UPPCB",16-02-2026 09:00:00,28.646233,77.358075,PM2.5,72,431,271
India,Uttar_Pradesh,Ghaziabad,"Indirapuram, Ghaziabad - UPPCB",16-02-2026 09:00:00,28.646233,77.358075,NH3,15,19,17
India,Uttar_Pradesh,Ghaziabad,"Indirapuram, Ghaziabad - UPPCB",16-02-2026 09:00:00,28.646233,77.358075,SO2,17,32,22
India,Uttar_Pradesh,Ghaziabad,"Indirapuram, Ghaziabad - UPPCB",16-02-2026 09:00:00,28.646233,77.358075,CO,29,171,91
India,Uttar_Pradesh,Ghaziabad,"Sanjay Nagar, Ghaziabad - UPPCB",16-02-2026 09:00:00,28.685382,77.453839,NH3,5,10,8
India,Uttar_Pradesh,Ghaziabad,"Vasundhara, Ghaziabad - UPPCB",16-02-2026 09:00:00,28.6603346,77.3572563,PM10,113,413,242
India,Uttar_Pradesh,Gorakhpur,"Madan Mohan Malaviya University of Technology, Gorakhpur - UPPCB",16-02-2026 09:00:00,26.730136,83.433859,PM2.5,63,339,92
India,Andhra_Pradesh,Vijayawada,"Rajiv Gandhi Park, Vijayawada - APPCB",16-02-2026 09:00:00,16.509717,80.612222,PM10,47,114,71
India,Andhra_Pradesh,Vijayawada,"Rajiv Gandhi Park, Vijayawada - APPCB",16-02-2026 09:00:00,16.509717,80.612222,NO2,34,49,40
India,Andhra_Pradesh,Vijayawada,"Rajiv Gandhi Park, Vijayawada - APPCB",16-02-2026 09:00:00,16.509717,80.612222,OZONE,5,56,7
India,Andhra_Pradesh,Vijayawada,"Rajiv Nagar, Vijayawada - APPCB",16-02-2026 09:00:00,16.554731,80.649110,PM10,52,63,58
India,Andhra_Pradesh,Vijayawada,"Rajiv Nagar, Vijayawada - APPCB",16-02-2026 09:00:00,16.554731,80.649110,CO,55,66,57
India,Andhra_Pradesh,Visakhapatnam,"GVM Corporation, Visakhapatnam - APPCB",16-02-2026 09:00:00,17.72,83.3,NO2,21,153,70
India,Andhra_Pradesh,Visakhapatnam,"GVM Corporation, Visakhapatnam - APPCB",16-02-2026 09:00:00,17.72,83.3,CO,11,83,38
India,Arunachal_Pradesh,Naharlagun,"Naharlagun, Naharlagun - APSPCB",16-02-2026 09:00:00,27.103358,93.679645,OZONE,6,6,6
India,Assam,Byrnihat,"Central Academy for SFS, Byrnihat - PCBA",16-02-2026 09:00:00,26.071318,91.87488,OZONE,13,24,15
India,Assam,Guwahati,"LGBI Airport, Guwahati - PCBA",16-02-2026 09:00:00,26.10887,91.589544,PM2.5,NA,NA,NA
India,Bihar,Patna,"Muradpur, Patna - BSPCB",16-02-2026 09:00:00,25.619651,85.147382,NO2,10,12,11
India,Bihar,Patna,"Rajbansi Nagar, Patna - BSPCB",16-02-2026 09:00:00,25.599486,85.113666,PM2.5,66,104,80
India,Bihar,Patna,"Rajbansi Nagar, Patna - BSPCB",16-02-2026 09:00:00,25.599486,85.113666,PM10,98,159,116
India,Bihar,Patna,"Rajbansi Nagar, Patna - BSPCB",16-02-2026 09:00:00,25.599486,85.113666,NO2,11,36,19
India,Bihar,Purnia,"Mariam Nagar, Purnia - BSPCB",16-02-2026 09:00:00,25.366336,87.117468,NH3,3,3,3
India,Bihar,Purnia,"Mariam Nagar, Purnia - BSPCB",16-02-2026 09:00:00,25.366336,87.117468,SO2,16,28,20
India,Bihar,Saharsa,"Police Line, Saharsa - BSPCB",16-02-2026 09:00:00,25.892357,86.590325,PM10,63,149,109
India,Bihar,Saharsa,"Police Line, Saharsa - BSPCB",16-02-2026 09:00:00,25.892357,86.590325,OZONE,3,12,9
India,Bihar,Samastipur,"DM Office_Kasipur, Samastipur - BSPCB",16-02-2026 09:00:00,25.859655,85.77944,PM2.5,40,328,84
India,Bihar,Samastipur,"DM Office_Kasipur, Samastipur - BSPCB",16-02-2026 09:00:00,25.859655,85.77944,NH3,1,1,1
India,Bihar,Samastipur,"DM Office_Kasipur, Samastipur - BSPCB",16-02-2026 09:00:00,25.859655,85.77944,SO2,19,29,25
India,Bihar,Muzaffarpur,"MIT-Daudpur Kothi, Muzaffarpur - BSPCB",16-02-2026 09:00:00,26.1403345,85.3650192,PM10,52,63,55
India,Bihar,Muzaffarpur,"MIT-Daudpur Kothi, Muzaffarpur - BSPCB",16-02-2026 09:00:00,26.1403345,85.3650192,NH3,2,4,3
India,Bihar,Muzaffarpur,"MIT-Daudpur Kothi, Muzaffarpur - BSPCB",16-02-2026 09:00:00,26.1403345,85.3650192,OZONE,26,70,27
India,Bihar,Muzaffarpur,"Muzaffarpur Collectorate, Muzaffarpur - BSPCB",16-02-2026 09:00:00,26.1209,85.3647,CO,12,34,13
India,Bihar,Patna,"DRM Office Danapur, Patna - BSPCB",16-02-2026 09:00:00,25.586562,85.043586,PM10,86,292,121
India,Bihar,Patna,"DRM Office Danapur, Patna - BSPCB",16-02-2026 09:00:00,25.586562,85.043586,NO2,46,54,50
India,Bihar,Patna,"Govt. High School Shikarpur, Patna - BSPCB",16-02-2026 09:00:00,25.592539,85.227158,NO2,13,36,23
India,Bihar,Patna,"IGSC Planetarium Complex, Patna - BSPCB",16-02-2026 09:00:00,25.610369,85.132568,PM2.5,78,256,123
India,Assam,Guwahati,"LGBI Airport, Guwahati - PCBA",16-02-2026 09:00:00,26.10887,91.589544,CO,16,88,38
India,Assam,Guwahati,"Pan Bazaar, Guwahati - PCBA",16-02-2026 09:00:00,26.187500,91.744194,NO2,NA,NA,NA
India,Assam,Guwahati,"Pan Bazaar, Guwahati - PCBA",16-02-2026 09:00:00,26.187500,91.744194,NH3,1,1,1
India,Assam,Guwahati,"Pan Bazaar, Guwahati - PCBA",16-02-2026 09:00:00,26.187500,91.744194,OZONE,12,21,13
India,Assam,Guwahati,"Railway Colony, Guwahati - PCBA",16-02-2026 09:00:00,26.181742,91.78063,CO,4,21,13
India,Assam,Nagaon,"Christianpatty, Nagaon - PCBA",16-02-2026 09:00:00,26.349082,92.68449,PM2.5,77,249,143
India,Assam,Nagaon,"Christianpatty, Nagaon - PCBA",16-02-2026 09:00:00,26.349082,92.68449,OZONE,8,9,9
India,Assam,Nalbari,"Bata Chowk, Nalbari - PCBA",16-02-2026 09:00:00,26.446912,91.439057,PM2.5,95,197,136
India,Bihar,Bettiah,"Kamalnath Nagar, Bettiah - BSPCB",16-02-2026 09:00:00,26.80365,84.51954,SO2,8,14,10
India,Bihar,Bhagalpur,"DM Office_Kachari Chowk, Bhagalpur - BSPCB",16-02-2026 09:00:00,25.251013,86.989001,PM10,65,115,86
India,Bihar,Bhagalpur,"DM Office_Kachari Chowk, Bhagalpur - BSPCB",16-02-2026 09:00:00,25.251013,86.989001,NO2,5,12,8
India,Bihar,Bhagalpur,"DM Office_Kachari Chowk, Bhagalpur - BSPCB",16-02-2026 09:00:00,25.251013,86.989001,CO,10,26,18
India,Bihar,Bhagalpur,"Mayaganj, Bhagalpur - BSPCB",16-02-2026 09:00:00,25.265194,87.012947,NH3,6,8,7
India,Bihar,Bhagalpur,"Mayaganj, Bhagalpur - BSPCB",16-02-2026 09:00:00,25.265194,87.012947,CO,81,98,88
India,Bihar,Bihar Sharif,"D M Colony, Bihar Sharif - BSPCB",16-02-2026 09:00:00,25.204762,85.514960,PM10,23,60,40
India,Bihar,Bihar Sharif,"D M Colony, Bihar Sharif - BSPCB",16-02-2026 09:00:00,25.204762,85.514960,SO2,10,10,10
India,Assam,Sivasagar,"Girls College, Sivasagar - PCBA",16-02-2026 09:00:00,26.987634,94.636574,SO2,12,15,14
India,Bihar,Araria,"Kharahiya Basti, Araria - BSPCB",16-02-2026 09:00:00,26.146529,87.454184,PM2.5,40,153,105
India,Bihar,Arrah,"New DM Office, Arrah - BSPCB",16-02-2026 09:00:00,25.5626095,84.663264,PM10,46,82,65
India,Bihar,Arrah,"New DM Office, Arrah - BSPCB",16-02-2026 09:00:00,25.5626095,84.663264,NO2,2,9,7
India,Bihar,Arrah,"New DM Office, Arrah - BSPCB",16-02-2026 09:00:00,25.5626095,84.663264,CO,8,72,58
India,Bihar,Aurangabad,"Gurdeo Nagar, Aurangabad - BSPCB",16-02-2026 09:00:00,24.75746,84.366208,CO,100,103,102
India,Bihar,Kishanganj,"SDM Office_Khagra, Kishanganj - BSPCB",16-02-2026 09:00:00,26.0881305,87.93840336,SO2,5,8,6
India,Bihar,Kishanganj,"SDM Office_Khagra, Kishanganj - BSPCB",16-02-2026 09:00:00,26.0881305,87.93840336,CO,16,26,17
India,Bihar,Manguraha,"Forest Rest House, Manguraha - BSPCB",16-02-2026 09:00:00,27.308328,84.531742,OZONE,10,10,10
India,Bihar,Motihari,"Gandak Colony, Motihari - BSPCB",16-02-2026 09:00:00,26.63086,84.90051,OZONE,3,6,3
India,Bihar,Munger,"Town Hall, Munger - BSPCB",16-02-2026 09:00:00,25.376776,86.471523,PM10,42,72,54
India,Bihar,Munger,"Town Hall, Munger - BSPCB",16-02-2026 09:00:00,25.376776,86.471523,OZONE,9,12,11
India,Andhra_Pradesh,Kadapa,"Yerramukkapalli, Kadapa - APPCB",16-02-2026 09:00:00,14.465052,78.824187,NO2,21,21,21
India,Andhra_Pradesh,Tirumala,"Toll Gate, Tirumala - APPCB",16-02-2026 09:00:00,13.67,79.35,PM2.5,115,165,139
India,Andhra_Pradesh,Tirumala,"Toll Gate, Tirumala - APPCB",16-02-2026 09:00:00,13.67,79.35,NH3,2,3,2
India,Andhra_Pradesh,Tirumala,"Toll Gate, Tirumala - APPCB",16-02-2026 09:00:00,13.67,79.35,SO2,15,24,20
India,Andhra_Pradesh,Vijayawada,"HB Colony, Vijayawada - APPCB",16-02-2026 09:00:00,16.536107,80.594233,CO,40,40,40
India,Andhra_Pradesh,Amaravati,"Secretariat, Amaravati - APPCB",16-02-2026 09:00:00,16.5150833,80.5181667,NO2,20,58,31
India,Andhra_Pradesh,Anantapur,"Gulzarpet, Anantapur - APPCB",16-02-2026 09:00:00,14.675886,77.593027,PM2.5,64,114,72
India,Andhra_Pradesh,Anantapur,"Gulzarpet, Anantapur - APPCB",16-02-2026 09:00:00,14.675886,77.593027,OZONE,17,17,17
India,Andhra_Pradesh,Chittoor,"Gangineni Cheruvu, Chittoor - APPCB",16-02-2026 09:00:00,13.204880,79.097889,PM10,60,73,68
India,Andhra_Pradesh,Chittoor,"Gangineni Cheruvu, Chittoor - APPCB",16-02-2026 09:00:00,13.204880,79.097889,NO2,13,17,14
India,Bihar,Gaya,"SFTI Kusdihra, Gaya - BSPCB",16-02-2026 09:00:00,24.762518,84.982348,PM2.5,37,79,55
India,Bihar,Gaya,"SFTI Kusdihra, Gaya - BSPCB",16-02-2026 09:00:00,24.762518,84.982348,NH3,3,7,4
India,Bihar,Gaya,"SFTI Kusdihra, Gaya - BSPCB",16-02-2026 09:00:00,24.762518,84.982348,OZONE,8,40,8
India,Bihar,Hajipur,"Industrial Area, Hajipur - BSPCB",16-02-2026 09:00:00,25.697189,85.245900,PM2.5,109,204,162
India,Chhattisgarh,Korba,"Urja Nagar, Korba - CECB",16-02-2026 09:00:00,22.348441,82.549611,OZONE,12,26,26
India,Chhattisgarh,Kunjemura,"OP Jindal School, Kunjemura - CECB",16-02-2026 09:00:00,22.126650,83.483212,PM10,32,471,199
India,Chhattisgarh,Kunjemura,"OP Jindal School, Kunjemura - CECB",16-02-2026 09:00:00,22.126650,83.483212,NH3,2,2,2
India,Chhattisgarh,Kunjemura,"OP Jindal School, Kunjemura - CECB",16-02-2026 09:00:00,22.126650,83.483212,OZONE,1,53,1
India,Chhattisgarh,Milupara,"Govt. Higher Secondary School, Milupara - CECB",16-02-2026 09:00:00,22.1910172,83.5197009,PM2.5,20,71,36
India,Chhattisgarh,Milupara,"Govt. Higher Secondary School, Milupara - CECB",16-02-2026 09:00:00,22.1910172,83.5197009,NH3,1,3,2
India,Chhattisgarh,Milupara,"Govt. Higher Secondary School, Milupara - CECB",16-02-2026 09:00:00,22.1910172,83.5197009,CO,9,58,23
India,Chhattisgarh,Raipur,"AIIMS, Raipur - CECB",16-02-2026 09:00:00,21.258815,81.578979,PM2.5,30,97,58
India,Chhattisgarh,Raipur,"AIIMS, Raipur - CECB",16-02-2026 09:00:00,21.258815,81.578979,OZONE,1,10,1
India,Chhattisgarh,Raipur,"Bhatagaon New ISBT, Raipur - CECB",16-02-2026 09:00:00,21.219665,81.630094,NH3,2,2,2
India,Chhattisgarh,Raipur,"Bhatagaon New ISBT, Raipur - CECB",16-02-2026 09:00:00,21.219665,81.630094,SO2,4,15,8
India,Chhattisgarh,Raipur,"Siltara Phase-II, Raipur - CECB",16-02-2026 09:00:00,21.371751,81.664929,PM10,19,146,87
India,Chhattisgarh,Raipur,"Siltara Phase-II, Raipur - CECB",16-02-2026 09:00:00,21.371751,81.664929,CO,10,22,18
India,Chhattisgarh,Tumidih,"OP Jindal Industrial Park, Tumidih - CECB",16-02-2026 09:00:00,22.06631475,83.33820077,NH3,1,2,2
India,Chhattisgarh,Tumidih,"OP Jindal Industrial Park, Tumidih - CECB",16-02-2026 09:00:00,22.06631475,83.33820077,SO2,5,17,7
India,Chhattisgarh,Tumidih,"OP Jindal Industrial Park, Tumidih - CECB",16-02-2026 09:00:00,22.06631475,83.33820077,CO,12,42,27
India,Delhi,Delhi,"Anand Vihar, Delhi - DPCC",16-02-2026 09:00:00,28.647622,77.3158090,NH3,6,15,11
India,Delhi,Delhi,"Anand Vihar, Delhi - DPCC",16-02-2026 09:00:00,28.647622,77.3158090,CO,58,153,135
India,Delhi,Delhi,"Anand Vihar, Delhi - DPCC",16-02-2026 09:00:00,28.647622,77.3158090,OZONE,9,36,20
India,Delhi,Delhi,"Ashok Vihar, Delhi - DPCC",16-02-2026 09:00:00,28.695381,77.181665,PM10,113,352,210
India,Delhi,Delhi,"Ashok Vihar, Delhi - DPCC",16-02-2026 09:00:00,28.695381,77.181665,SO2,4,24,16
India,Delhi,Delhi,"Ashok Vihar, Delhi - DPCC",16-02-2026 09:00:00,28.695381,77.181665,CO,8,126,73
India,Bihar,Sasaram,"Dada Peer, Sasaram - BSPCB",16-02-2026 09:00:00,24.952822,84.002396,NO2,NA,NA,NA
India,Bihar,Sasaram,"Dada Peer, Sasaram - BSPCB",16-02-2026 09:00:00,24.952822,84.002396,SO2,NA,NA,NA
India,Bihar,Siwan,"Chitragupta Nagar, Siwan - BSPCB",16-02-2026 09:00:00,26.2271665,84.3570427,SO2,7,9,8
India,Bihar,Siwan,"Chitragupta Nagar, Siwan - BSPCB",16-02-2026 09:00:00,26.2271665,84.3570427,OZONE,12,16,16
India,Chandigarh,Chandigarh,"Sector 22, Chandigarh - CPCC",16-02-2026 09:00:00,30.735567,76.775714,PM10,31,94,63
India,Chandigarh,Chandigarh,"Sector 22, Chandigarh - CPCC",16-02-2026 09:00:00,30.735567,76.775714,SO2,7,18,10
India,Chandigarh,Chandigarh,"Sector-25, Chandigarh - CPCC",16-02-2026 09:00:00,30.751462,76.762879,CO,16,52,27
India,Chandigarh,Chandigarh,"Sector-25, Chandigarh - CPCC",16-02-2026 09:00:00,30.751462,76.762879,OZONE,1,64,2
India,Chhattisgarh,Bhilai,"32Bungalows, Bhilai - CECB",16-02-2026 09:00:00,21.194815,81.314770,CO,16,42,29
India,Delhi,Delhi,"North Campus, DU, Delhi - IMD",16-02-2026 09:00:00,28.6573814,77.1585447,CO,4,139,126
India,Delhi,Delhi,"Okhla Phase-2, Delhi - DPCC",16-02-2026 09:00:00,28.530785,77.271255,PM10,109,312,195
India,Delhi,Delhi,"Okhla Phase-2, Delhi - DPCC",16-02-2026 09:00:00,28.530785,77.271255,NO2,37,135,85
India,Delhi,Delhi,"Okhla Phase-2, Delhi - DPCC",16-02-2026 09:00:00,28.530785,77.271255,CO,32,146,116
India,Delhi,Delhi,"Patparganj, Delhi - DPCC",16-02-2026 09:00:00,28.623763,77.287209,NH3,7,9,8
India,Delhi,Delhi,"Punjabi Bagh, Delhi - DPCC",16-02-2026 09:00:00,28.674045,77.131023,PM2.5,NA,NA,NA
India,Delhi,Delhi,"Punjabi Bagh, Delhi - DPCC",16-02-2026 09:00:00,28.674045,77.131023,PM10,101,389,209
India,Delhi,Delhi,"Punjabi Bagh, Delhi - DPCC",16-02-2026 09:00:00,28.674045,77.131023,SO2,17,29,22
India,Delhi,Delhi,"Dwarka-Sector 8, Delhi - DPCC ",16-02-2026 09:00:00,28.5710274,77.0719006,PM2.5,85,339,240
India,Delhi,Delhi,"Dwarka-Sector 8, Delhi - DPCC ",16-02-2026 09:00:00,28.5710274,77.0719006,PM10,115,407,210
India,Delhi,Delhi,"Dwarka-Sector 8, Delhi - DPCC ",16-02-2026 09:00:00,28.5710274,77.0719006,NO2,34,142,82
India,Delhi,Delhi,"Dwarka-Sector 8, Delhi - DPCC ",16-02-2026 09:00:00,28.5710274,77.0719006,NH3,20,25,23
India,Delhi,Delhi,"IGI Airport (T3), Delhi - IMD",16-02-2026 09:00:00,28.5627763,77.1180053,OZONE,4,63,4
India,Delhi,Delhi,"IHBAS, Dilshad Garden, Delhi - CPCB",16-02-2026 09:00:00,28.6811736,77.3025234,NO2,26,121,69
India,Delhi,Delhi,"IIT Delhi, Delhi - IITM",16-02-2026 09:00:00,28.542460,77.191651,PM2.5,64,308,146
India,Delhi,Delhi,"Jahangirpuri, Delhi - DPCC",16-02-2026 09:00:00,28.732820,77.170633,NO2,81,127,102
India,Delhi,Delhi,"Jahangirpuri, Delhi - DPCC",16-02-2026 09:00:00,28.732820,77.170633,SO2,48,67,57
India,Delhi,Delhi,"Jawaharlal Nehru Stadium, Delhi - DPCC",16-02-2026 09:00:00,28.580280,77.233829,CO,4,72,43
India,Delhi,Delhi,"Lodhi Road, Delhi - IMD",16-02-2026 09:00:00,28.5918245,77.2273074,PM2.5,63,217,131
India,Delhi,Delhi,"Mandir Marg, Delhi - DPCC",16-02-2026 09:00:00,28.636429,77.201067,PM10,100,227,159
India,Delhi,Delhi,"Mandir Marg, Delhi - DPCC",16-02-2026 09:00:00,28.636429,77.201067,NO2,53,188,117
India,Delhi,Delhi,"Mandir Marg, Delhi - DPCC",16-02-2026 09:00:00,28.636429,77.201067,CO,1,102,82
India,Delhi,Delhi,"Mandir Marg, Delhi - DPCC",16-02-2026 09:00:00,28.636429,77.201067,OZONE,16,190,20
India,Delhi,Delhi,"Najafgarh, Delhi - DPCC",16-02-2026 09:00:00,28.570173,76.933762,PM2.5,60,193,133
India,Delhi,Delhi,"Narela, Delhi - DPCC",16-02-2026 09:00:00,28.822836,77.101981,PM2.5,52,431,253
India,Delhi,Delhi,"Bawana, Delhi - DPCC",16-02-2026 09:00:00,28.776200,77.051074,PM2.5,80,500,267
India,Delhi,Delhi,"Burari Crossing, Delhi - IMD",16-02-2026 09:00:00,28.7256504,77.2011573,NO2,41,144,82
India,Delhi,Delhi,"CRRI Mathura Road, Delhi - IMD",16-02-2026 09:00:00,28.5512005,77.2735737,NO2,32,57,45
India,Delhi,Delhi,"CRRI Mathura Road, Delhi - IMD",16-02-2026 09:00:00,28.5512005,77.2735737,CO,8,118,110
India,Chhattisgarh,Bhilai,"Hathkhoj, Bhilai - CECB",16-02-2026 09:00:00,21.224231,81.408350,PM2.5,19,47,31
India,Chhattisgarh,Bhilai,"Hathkhoj, Bhilai - CECB",16-02-2026 09:00:00,21.224231,81.408350,NH3,4,5,4
India,Chhattisgarh,Bhilai,"Hathkhoj, Bhilai - CECB",16-02-2026 09:00:00,21.224231,81.408350,CO,14,48,21
India,Gujarat,Vatva,"Phase-4 GIDC, Vatva - GPCB",16-02-2026 09:00:00,22.969611,72.643500,OZONE,29,46,31
India,Haryana,Ambala,"Patti Mehar, Ambala - HSPCB",16-02-2026 09:00:00,30.379589,76.778328,PM10,78,126,104
India,Haryana,Ambala,"Patti Mehar, Ambala - HSPCB",16-02-2026 09:00:00,30.379589,76.778328,NO2,21,24,22
India,Haryana,Ambala,"Patti Mehar, Ambala - HSPCB",16-02-2026 09:00:00,30.379589,76.778328,NH3,9,11,10
India,Haryana,Bahadurgarh,"Arya Nagar, Bahadurgarh - HSPCB",16-02-2026 09:00:00,28.6701,76.9254,PM2.5,70,337,241
India,Haryana,Ballabgarh,"Nathu Colony, Ballabgarh - HSPCB",16-02-2026 09:00:00,28.3419248,77.319699,PM2.5,77,364,230
India,Haryana,Ballabgarh,"Nathu Colony, Ballabgarh - HSPCB",16-02-2026 09:00:00,28.3419248,77.319699,SO2,2,6,4
India,Haryana,Bhiwani,"H.B. Colony, Bhiwani - HSPCB",16-02-2026 09:00:00,28.806223,76.141105,NO2,1,35,31
India,Haryana,Charkhi Dadri,"Mini Secretariat, Charkhi Dadri - HSPCB",16-02-2026 09:00:00,28.593883,76.270653,PM2.5,45,60,51
India,Haryana,Dharuhera,"Municipal Corporation Office, Dharuhera -  HSPCB",16-02-2026 09:00:00,28.206800,76.799700,PM10,54,264,145
India,Haryana,Dharuhera,"Municipal Corporation Office, Dharuhera -  HSPCB",16-02-2026 09:00:00,28.206800,76.799700,NH3,9,26,20
India,Delhi,Delhi,"Punjabi Bagh, Delhi - DPCC",16-02-2026 09:00:00,28.674045,77.131023,OZONE,3,81,6
India,Delhi,Delhi,"Pusa, Delhi - DPCC",16-02-2026 09:00:00,28.639652,77.146275,PM10,135,339,168
India,Delhi,Delhi,"Pusa, Delhi - DPCC",16-02-2026 09:00:00,28.639652,77.146275,NH3,7,31,18
India,Delhi,Delhi,"Pusa, Delhi - IMD",16-02-2026 09:00:00,28.636110,77.173332,CO,76,146,129
India,Delhi,Delhi,"R K Puram, Delhi - DPCC",16-02-2026 09:00:00,28.563262,77.186937,PM2.5,93,439,252
India,Delhi,Delhi,"R K Puram, Delhi - DPCC",16-02-2026 09:00:00,28.563262,77.186937,NO2,15,116,49
India,Delhi,Delhi,"Rohini, Delhi - DPCC",16-02-2026 09:00:00,28.732528,77.119920,PM10,114,476,256
India,Delhi,Delhi,"Rohini, Delhi - DPCC",16-02-2026 09:00:00,28.732528,77.119920,NO2,17,87,50
India,Delhi,Delhi,"Rohini, Delhi - DPCC",16-02-2026 09:00:00,28.732528,77.119920,SO2,7,34,17
India,Delhi,Delhi,"Rohini, Delhi - DPCC",16-02-2026 09:00:00,28.732528,77.119920,CO,2,140,86
India,Delhi,Delhi,"Shadipur, Delhi - CPCB",16-02-2026 09:00:00,28.6514781,77.1473105,NO2,60,213,109
India,Delhi,Delhi,"Shadipur, Delhi - CPCB",16-02-2026 09:00:00,28.6514781,77.1473105,NH3,11,18,14
India,Delhi,Delhi,"Sirifort, Delhi - CPCB",16-02-2026 09:00:00,28.5504249,77.2159377,PM10,118,290,181
India,Delhi,Delhi,"Sirifort, Delhi - CPCB",16-02-2026 09:00:00,28.5504249,77.2159377,NH3,4,7,6
India,Haryana,Kurukshetra,"Sector-7, Kurukshetra - HSPCB",16-02-2026 09:00:00,29.966942,76.875879,PM2.5,99,153,130
India,Haryana,Kurukshetra,"Sector-7, Kurukshetra - HSPCB",16-02-2026 09:00:00,29.966942,76.875879,PM10,121,146,135
India,Haryana,Kurukshetra,"Sector-7, Kurukshetra - HSPCB",16-02-2026 09:00:00,29.966942,76.875879,NO2,16,21,19
India,Haryana,Kurukshetra,"Sector-7, Kurukshetra - HSPCB",16-02-2026 09:00:00,29.966942,76.875879,CO,24,36,28
India,Haryana,Kurukshetra,"Sector-7, Kurukshetra - HSPCB",16-02-2026 09:00:00,29.966942,76.875879,OZONE,2,63,12
India,Haryana,Mandikhera,"General Hospital, Mandikhera(Nuh) - HSPCB",16-02-2026 09:00:00,27.9002,76.9938,PM2.5,60,220,120
India,Haryana,Mandikhera,"General Hospital, Mandikhera(Nuh) - HSPCB",16-02-2026 09:00:00,27.9002,76.9938,PM10,67,153,109
India,Haryana,Mandikhera,"General Hospital, Mandikhera(Nuh) - HSPCB",16-02-2026 09:00:00,27.9002,76.9938,NO2,20,23,21
India,Haryana,Mandikhera,"General Hospital, Mandikhera(Nuh) - HSPCB",16-02-2026 09:00:00,27.9002,76.9938,SO2,31,37,34
India,Haryana,Manesar,"Sector-2 IMT, Manesar - HSPCB",16-02-2026 09:00:00,28.360699,76.936090,NO2,44,53,49
India,Haryana,Narnaul,"Shastri Nagar, Narnaul - HSPCB",16-02-2026 09:00:00,28.060249,76.113115,CO,46,72,64
India,Haryana,Palwal,"Shyam Nagar, Palwal - HSPCB",16-02-2026 09:00:00,28.1485564,77.3320667,PM10,38,84,61
India,Haryana,Palwal,"Shyam Nagar, Palwal - HSPCB",16-02-2026 09:00:00,28.1485564,77.3320667,OZONE,16,21,17
India,Gujarat,Ahmedabad,"Gyaspur, Ahmedabad - IITM",16-02-2026 09:00:00,22.977134,72.553024,CO,12,108,76
India,Gujarat,Ahmedabad,"Maninagar, Ahmedabad - GPCB",16-02-2026 09:00:00,23.002657,72.591912,PM10,61,254,115
India,Gujarat,Ahmedabad,"Maninagar, Ahmedabad - GPCB",16-02-2026 09:00:00,23.002657,72.591912,OZONE,35,102,40
India,Gujarat,Ahmedabad,"Rakhial, Ahmedabad - IITM",16-02-2026 09:00:00,23.016834,72.625775,CO,19,96,41
India,Gujarat,Ahmedabad,"Rakhial, Ahmedabad - IITM",16-02-2026 09:00:00,23.016834,72.625775,OZONE,2,112,2
India,Gujarat,Ahmedabad,"SAC ISRO Bopal, Ahmedabad - IITM",16-02-2026 09:00:00,23.041137,72.456691,PM10,101,167,134
India,Gujarat,Ahmedabad,"SAC ISRO Bopal, Ahmedabad - IITM",16-02-2026 09:00:00,23.041137,72.456691,NO2,13,44,27
India,Gujarat,Ahmedabad,"SAC ISRO Satellite, Ahmedabad - IITM",16-02-2026 09:00:00,23.023389,72.515201,PM10,113,197,149
India,Gujarat,Ahmedabad,"SAC ISRO Satellite, Ahmedabad - IITM",16-02-2026 09:00:00,23.023389,72.515201,NO2,5,39,23
India,Gujarat,Ahmedabad,"SAC ISRO Satellite, Ahmedabad - IITM",16-02-2026 09:00:00,23.023389,72.515201,NH3,5,20,11
India,Gujarat,Ahmedabad,"SVPI Airport Hansol, Ahmedabad - IITM",16-02-2026 09:00:00,23.076793,72.627874,NO2,NA,NA,NA
India,Gujarat,Rajkot,"Mavdi, Rajkot - Nexteng Enviro ",16-02-2026 09:00:00,22.248853,70.776774,SO2,9,105,26
India,Gujarat,Rajkot,"Mavdi, Rajkot - Nexteng Enviro ",16-02-2026 09:00:00,22.248853,70.776774,OZONE,11,39,20
India,Gujarat,Surat,"Katargam, Surat - Nexteng Enviro",16-02-2026 09:00:00,21.217779 ,72.834787 ,PM10,45,179,105
India,Gujarat,Surat,"Science Center, Surat - SMC",16-02-2026 09:00:00,21.170046,72.795405,CO,35,43,41
India,Gujarat,Vadodara,"Bapunagar, Vadodara - Nexteng Enviro",16-02-2026 09:00:00,22.320153,73.216285,NH3,2,3,2
India,Gujarat,Ankleshwar,"GIDC, Ankleshwar - GPCB",16-02-2026 09:00:00,21.613267,73.010555,NH3,7,8,7
India,Gujarat,Gandhinagar,"GIFT City, Gandhinagar - IITM",16-02-2026 09:00:00,23.163798,72.677768,PM2.5,6,71,38
India,Gujarat,Gandhinagar,"GIFT City, Gandhinagar - IITM",16-02-2026 09:00:00,23.163798,72.677768,PM10,107,213,158
India,Gujarat,Gandhinagar,"GIFT City, Gandhinagar - IITM",16-02-2026 09:00:00,23.163798,72.677768,NH3,5,19,11
India,Gujarat,Mehsana,"Sadanand Nagar, Mehsana - Nexteng Enviro",16-02-2026 09:00:00,23.593150,72.372792,PM10,73,277,144
India,Gujarat,Mehsana,"Sadanand Nagar, Mehsana - Nexteng Enviro",16-02-2026 09:00:00,23.593150,72.372792,CO,145,161,161
India,Delhi,Delhi,"Sirifort, Delhi - CPCB",16-02-2026 09:00:00,28.5504249,77.2159377,SO2,24,36,30
India,Delhi,Delhi,"Sirifort, Delhi - CPCB",16-02-2026 09:00:00,28.5504249,77.2159377,CO,10,106,100
India,Delhi,Delhi,"Sonia Vihar, Delhi - DPCC",16-02-2026 09:00:00,28.710508,77.249485,NO2,13,113,55
India,Delhi,Delhi,"Sri Aurobindo Marg, Delhi - DPCC",16-02-2026 09:00:00,28.531346,77.190156,CO,21,100,62
India,Delhi,Delhi,"Vivek Vihar, Delhi - DPCC",16-02-2026 09:00:00,28.672342,77.315260,PM2.5,NA,NA,NA
India,Delhi,Delhi,"Vivek Vihar, Delhi - DPCC",16-02-2026 09:00:00,28.672342,77.315260,PM10,NA,NA,NA
India,Haryana,Faridabad,"New Industrial Town, Faridabad - HSPCB",16-02-2026 09:00:00,28.39072,77.30059,PM10,129,135,133
India,Haryana,Faridabad,"Sector 11, Faridabad - HSPCB",16-02-2026 09:00:00,28.376058,77.315741,NH3,NA,NA,NA
India,Haryana,Faridabad,"Sector 11, Faridabad - HSPCB",16-02-2026 09:00:00,28.376058,77.315741,SO2,NA,NA,NA
India,Haryana,Faridabad,"Sector 30, Faridabad - HSPCB",16-02-2026 09:00:00,28.4417,77.3217,NH3,11,12,11
India,Haryana,Gurugram,"NISE Gwal Pahari, Gurugram - IMD",16-02-2026 09:00:00,28.422681,77.148944,OZONE,6,56,7
India,Haryana,Gurugram,"Sector-51, Gurugram - HSPCB",16-02-2026 09:00:00,28.4227,77.0667,PM10,93,500,280
India,Haryana,Gurugram,"Teri Gram, Gurugram - HSPCB",16-02-2026 09:00:00,28.4275,77.1465,OZONE,10,43,11
India,Haryana,Hisar,"Urban Estate-II, Hisar - HSPCB",16-02-2026 09:00:00,29.140560,75.744941,OZONE,17,126,32
India,Haryana,Kaithal,"Rishi Nagar, Kaithal - HSPCB",16-02-2026 09:00:00,29.8006,76.4155,NH3,5,6,6
India,Kerala,Thiruvananthapuram,"Plammoodu, Thiruvananthapuram - Kerala PCB",16-02-2026 09:00:00,8.5149093,76.9435879,CO,11,24,13
India,Kerala,Thiruvananthapuram,"Plammoodu, Thiruvananthapuram - Kerala PCB",16-02-2026 09:00:00,8.5149093,76.9435879,OZONE,10,47,15
India,Kerala,Thrissur,"Corporation Ground, Thrissur - Kerala PCB",16-02-2026 09:00:00,10.532400,76.215900,CO,7,10,8
India,Madhya Pradesh,Bhopal,"Idgah Hills, Bhopal - MPPCB",16-02-2026 09:00:00,23.264759,77.381568,OZONE,4,81,50
India,Madhya Pradesh,Bhopal,"Paryavaran Parisar, Bhopal - MPPCB",16-02-2026 09:00:00,23.210494,77.425409,PM10,55,242,127
India,Madhya Pradesh,Bhopal,"T T Nagar, Bhopal - MPPCB",16-02-2026 09:00:00,23.233584,77.400574,SO2,12,19,16
India,Madhya Pradesh,Bhopal,"T T Nagar, Bhopal - MPPCB",16-02-2026 09:00:00,23.233584,77.400574,CO,27,119,45
India,Madhya Pradesh,Dewas,"Bhopal Chauraha, Dewas - MPPCB",16-02-2026 09:00:00,22.9682591,76.064118,NH3,1,3,2
India,Madhya Pradesh,Dewas,"Bhopal Chauraha, Dewas - MPPCB",16-02-2026 09:00:00,22.9682591,76.064118,SO2,32,53,42
India,Madhya Pradesh,Gwalior,"City Center, Gwalior - MPPCB",16-02-2026 09:00:00,26.203442,78.193251,CO,17,110,27
India,Madhya Pradesh,Gwalior,"Deen Dayal Nagar, Gwalior - MPPCB",16-02-2026 09:00:00,26.259242,78.216432,OZONE,39,143,59
India,Madhya Pradesh,Gwalior,"Maharaj Bada, Gwalior - MPPCB",16-02-2026 09:00:00,26.200388,78.147714,SO2,8,11,9
India,Madhya Pradesh,Gwalior,"Maharaj Bada, Gwalior - MPPCB",16-02-2026 09:00:00,26.200388,78.147714,CO,2,126,12
India,Madhya Pradesh,Indore,"Airport Area, Indore - IMC",16-02-2026 09:00:00,22.7289,75.8076,NO2,42,94,67
India,Madhya Pradesh,Indore,"Chhoti Gwaltoli, Indore - MPPCB",16-02-2026 09:00:00,22.4310,75.5213,CO,37,111,57
India,Madhya Pradesh,Indore,"Chhoti Gwaltoli, Indore - MPPCB",16-02-2026 09:00:00,22.4310,75.5213,OZONE,1,47,20
India,Madhya Pradesh,Indore,"Maguda Nagar, Indore - IMC",16-02-2026 09:00:00,22.7524,75.8872,PM2.5,44,142,72
India,Madhya Pradesh,Indore,"Maguda Nagar, Indore - IMC",16-02-2026 09:00:00,22.7524,75.8872,NO2,10,18,13
India,Haryana,Panchgaon,"Amity University, Panchgaon - IITM",16-02-2026 09:00:00,28.3153,76.9143,SO2,5,14,9
India,Haryana,Rohtak,"MD University, Rohtak - HSPCB",16-02-2026 09:00:00,28.52123,76.37138,OZONE,39,40,39
India,Haryana,Sirsa,"F-Block, Sirsa - HSPCB",16-02-2026 09:00:00,29.536400,75.015800,PM10,5,18,10
India,Haryana,Sonipat,"Murthal, Sonipat - HSPCB",16-02-2026 09:00:00,29.027200,77.062100,NO2,12,13,12
India,Haryana,Sonipat,"Murthal, Sonipat - HSPCB",16-02-2026 09:00:00,29.027200,77.062100,CO,4,8,6
India,Haryana,Sonipat,"Murthal, Sonipat - HSPCB",16-02-2026 09:00:00,29.027200,77.062100,OZONE,25,26,26
India,Haryana,Yamuna Nagar,"Gobind Pura, Yamuna Nagar - HSPCB",16-02-2026 09:00:00,30.1480566,77.2893471,NO2,36,38,37
India,Haryana,Yamuna Nagar,"Gobind Pura, Yamuna Nagar - HSPCB",16-02-2026 09:00:00,30.1480566,77.2893471,OZONE,8,34,14
India,Karnataka,Chikkaballapur,"Chikkaballapur Rural, Chikkaballapur - KSPCB",16-02-2026 09:00:00,13.428828,77.731418,NH3,5,12,7
India,Karnataka,Chikkamagaluru,"Kalyana Nagara, Chikkamagaluru - KSPCB",16-02-2026 09:00:00,13.328028,75.797056,NO2,28,29,29
India,Karnataka,Dharwad,"Kalabhavan, Dharwad - KSPCB",16-02-2026 09:00:00,15.459706,75.008381,NH3,6,6,6
India,Karnataka,Dharwad,"Kalabhavan, Dharwad - KSPCB",16-02-2026 09:00:00,15.459706,75.008381,SO2,12,12,12
India,Karnataka,Dharwad,"Kalabhavan, Dharwad - KSPCB",16-02-2026 09:00:00,15.459706,75.008381,CO,43,113,80
India,Karnataka,Hubballi,"Lingaraj Nagar, Hubballi - KSPCB",16-02-2026 09:00:00,15.3714823,75.1160168,SO2,2,5,3
India,Karnataka,Madikeri,"Stuart Hill, Madikeri - KSPCB",16-02-2026 09:00:00,12.415911,75.735050,PM10,25,70,42
India,Karnataka,Mysuru,"Hebbal 1st Stage, Mysuru - KSPCB",16-02-2026 09:00:00,12.21041,76.37376,NO2,16,28,20
India,Karnataka,Ramanagara,"Vijay Nagar, Ramanagara - KSPCB",16-02-2026 09:00:00,12.733409,77.298051,PM10,86,170,136
India,Karnataka,Ramanagara,"Vijay Nagar, Ramanagara - KSPCB",16-02-2026 09:00:00,12.733409,77.298051,NO2,51,79,61
India,Karnataka,Tumakuru,"Thimmalapura, Tumakuru - KSPCB",16-02-2026 09:00:00,13.377516,77.099072,PM2.5,85,402,146
India,Karnataka,Tumakuru,"Thimmalapura, Tumakuru - KSPCB",16-02-2026 09:00:00,13.377516,77.099072,CO,52,54,53
India,Karnataka,Tumakuru,"Thimmalapura, Tumakuru - KSPCB",16-02-2026 09:00:00,13.377516,77.099072,OZONE,23,23,23
India,Karnataka,Vijayapura,"Ibrahimpur, Vijayapura - KSPCB",16-02-2026 09:00:00,16.802639,75.722694,PM10,61,62,62
India,Karnataka,Bengaluru,"BWSSB Kadabesanahalli, Bengaluru - CPCB",16-02-2026 09:00:00,12.9352049,77.6814488,CO,36,38,37
India,Karnataka,Bengaluru,"Bapuji Nagar, Bengaluru - KSPCB",16-02-2026 09:00:00,12.951913,77.539784,PM2.5,41,95,71
India,Karnataka,Bengaluru,"Bapuji Nagar, Bengaluru - KSPCB",16-02-2026 09:00:00,12.951913,77.539784,OZONE,47,302,151
India,Karnataka,Bengaluru,"City Railway Station, Bengaluru - KSPCB",16-02-2026 09:00:00,12.9756843,77.5660749,CO,70,80,74
India,Karnataka,Bengaluru,"Hebbal, Bengaluru - KSPCB",16-02-2026 09:00:00,13.029152,77.585901,NO2,38,51,46
India,Karnataka,Bengaluru,"Hombegowda Nagar, Bengaluru - KSPCB",16-02-2026 09:00:00,12.938539,77.590100,PM10,36,68,52
India,Karnataka,Yadgir,"Collector Office, Yadgir - KSPCB",16-02-2026 09:00:00,16.7602,77.1428,SO2,7,17,11
India,Kerala,Kannur,"Thavakkara, Kannur - Kerala PCB",16-02-2026 09:00:00,11.875000,75.373200,PM10,93,98,95
India,Kerala,Kollam,"Polayathode, Kollam - Kerala PCB",16-02-2026 09:00:00,8.8787,76.6073,NO2,8,10,9
India,Kerala,Kollam,"Polayathode, Kollam - Kerala PCB",16-02-2026 09:00:00,8.8787,76.6073,NH3,1,1,1
India,Kerala,Thiruvananthapuram,"Kariavattom, Thiruvananthapuram - Kerala PCB",16-02-2026 09:00:00,8.563700,76.886500,PM2.5,45,174,112
India,Karnataka,Bengaluru,"Kasturi Nagar, Bengaluru - KSPCB",16-02-2026 09:00:00,13.003872,77.664217,CO,44,50,47
India,Karnataka,Bengaluru,"RVCE-Mailasandra, Bengaluru - KSPCB",16-02-2026 09:00:00,12.921418,77.502466,NO2,24,31,31
India,Karnataka,Bengaluru,"Sanegurava Halli, Bengaluru - KSPCB",16-02-2026 09:00:00,12.990328,77.5431385,CO,4,106,24
India,Karnataka,Chamarajanagar,"Urban, Chamarajanagar - KSPCB",16-02-2026 09:00:00,11.55358,76.55521,PM2.5,26,39,33
India,Karnataka,Chamarajanagar,"Urban, Chamarajanagar - KSPCB",16-02-2026 09:00:00,11.55358,76.55521,OZONE,14,29,15
India,Jammu_and_Kashmir,Srinagar,"Rajbagh, Srinagar - JKPCC",16-02-2026 09:00:00,34.066206,74.819820,OZONE,NA,NA,NA
India,Jharkhand,Dhanbad,"Sardar Patel Nagar, Dhanbad - JSPCB",16-02-2026 09:00:00,23.80569,86.44268,NO2,50,52,51
India,Karnataka,Bagalkot,"Vidayagiri, Bagalkot - KSPCB",16-02-2026 09:00:00,16.172806,75.659694,SO2,7,7,7
India,Madhya Pradesh,Indore,"Regional Park, Indore - IMC",16-02-2026 09:00:00,22.6780,75.8559,NH3,1,3,2
India,Madhya Pradesh,Indore,"Regional Park, Indore - IMC",16-02-2026 09:00:00,22.6780,75.8559,SO2,10,13,12
India,Madhya Pradesh,Indore,"Residency Area, Indore - IMC",16-02-2026 09:00:00,22.7084,75.8815,PM2.5,35,241,75
India,Madhya Pradesh,Indore,"Residency Area, Indore - IMC",16-02-2026 09:00:00,22.7084,75.8815,PM10,37,162,76
India,Madhya Pradesh,Jabalpur,"Govindh Bhavan Colony, Jabalpur - JMC",16-02-2026 09:00:00,23.163174,79.973061,SO2,4,6,5
India,Madhya Pradesh,Jabalpur,"Govindh Bhavan Colony, Jabalpur - JMC",16-02-2026 09:00:00,23.163174,79.973061,OZONE,7,32,8
India,Madhya Pradesh,Jabalpur,"Gupteshwar, Jabalpur - JMC",16-02-2026 09:00:00,23.142888,79.916147,PM2.5,20,101,56
India,Madhya Pradesh,Jabalpur,"Gupteshwar, Jabalpur - JMC",16-02-2026 09:00:00,23.142888,79.916147,CO,33,113,39
India,Madhya Pradesh,Jabalpur,"Marhatal, Jabalpur - MPPCB",16-02-2026 09:00:00,23.168606,79.932247,NH3,2,2,2
India,Madhya Pradesh,Jabalpur,"Suhagi, Jabalpur - JMC",16-02-2026 09:00:00,23.218135,79.957770,NO2,20,104,44
India,Madhya Pradesh,Jabalpur,"Suhagi, Jabalpur - JMC",16-02-2026 09:00:00,23.218135,79.957770,SO2,11,35,17
India,Madhya Pradesh,Jabalpur,"Suhagi, Jabalpur - JMC",16-02-2026 09:00:00,23.218135,79.957770,OZONE,28,65,32
India,Madhya Pradesh,Katni,"Gole Bazar, Katni - MPPCB",16-02-2026 09:00:00,23.50016,80.23284,NH3,4,8,6
India,Madhya Pradesh,Katni,"Gole Bazar, Katni - MPPCB",16-02-2026 09:00:00,23.50016,80.23284,CO,10,108,57
India,Madhya Pradesh,Pithampur,"Sector-2 Industrial Area, Pithampur - MPPCB",16-02-2026 09:00:00,22.624758,75.675238,NH3,3,12,10
India,Madhya Pradesh,Ratlam,"Shasthri Nagar, Ratlam - IPCA Lab",16-02-2026 09:00:00,23.331731,75.045981,PM2.5,20,129,51
India,Madhya Pradesh,Sagar,"Civil Lines, Sagar - MPPCB",16-02-2026 09:00:00,23.838586,78.759431,NH3,4,13,7
India,Madhya Pradesh,Sagar,"Civil Lines, Sagar - MPPCB",16-02-2026 09:00:00,23.838586,78.759431,CO,19,40,22
India,Madhya Pradesh,Sagar,"Deen Dayal Nagar, Sagar - MPPCB",16-02-2026 09:00:00,23.8640158,78.80289321,NO2,6,44,18
India,Madhya Pradesh,Satna,"Bandhavgar Colony, Satna - Birla Cement",16-02-2026 09:00:00,24.58434363,80.8549414,PM10,70,71,70
India,Madhya Pradesh,Satna,"Bandhavgar Colony, Satna - Birla Cement",16-02-2026 09:00:00,24.58434363,80.8549414,CO,17,60,25
India,Madhya Pradesh,Satna,"Bandhavgar Colony, Satna - Birla Cement",16-02-2026 09:00:00,24.58434363,80.8549414,OZONE,3,88,20
India,Madhya Pradesh,Singrauli,"Suryakiran Bhawan NCL, Singrauli - MPPCB",16-02-2026 09:00:00,24.108970,82.645580,PM10,96,347,197
India,Maharashtra,Ahmednagar,"Tarakpur, Ahmednagar - MPCB",16-02-2026 09:00:00,19.10122,74.73339,NO2,11,28,20
India,Maharashtra,Akola,"Ramdaspeth, Akola - MPCB",16-02-2026 09:00:00,20.719516,77.000253,NH3,2,9,4
India,Maharashtra,Amravati,"Shivneri Colony, Amravati - MPCB",16-02-2026 09:00:00,20.9402359,77.7895248,OZONE,24,83,40
India,Maharashtra,Amravati,"Shri Shivaji Science College, Amravati - MPCB",16-02-2026 09:00:00,20.939198,77.765701,PM10,41,160,95
India,Maharashtra,Boisar,"Khaira, Boisar - MPCB",16-02-2026 09:00:00,19.786089,72.757971,PM10,71,155,101
India,Maharashtra,Boisar,"Khaira, Boisar - MPCB",16-02-2026 09:00:00,19.786089,72.757971,CO,2,60,33
India,Maharashtra,Boisar,"Khaira, Boisar - MPCB",16-02-2026 09:00:00,19.786089,72.757971,OZONE,15,109,26
India,Maharashtra,Chandrapur,"Chauhan Colony, Chandrapur - MPCB",16-02-2026 09:00:00,19.962900,79.298714,NO2,29,32,30
India,Maharashtra,Chandrapur,"Chauhan Colony, Chandrapur - MPCB",16-02-2026 09:00:00,19.962900,79.298714,SO2,38,38,38
India,Maharashtra,Chandrapur,"MIDC Khutala, Chandrapur - MPCB",16-02-2026 09:00:00,19.9775302,79.2337086,PM10,97,155,134
India,Maharashtra,Dhule,"Deopur, Dhule - MPCB",16-02-2026 09:00:00,20.918946,74.776388,PM2.5,59,95,74
India,Maharashtra,Dhule,"Deopur, Dhule - MPCB",16-02-2026 09:00:00,20.918946,74.776388,PM10,61,125,87
India,Maharashtra,Dhule,"Deopur, Dhule - MPCB",16-02-2026 09:00:00,20.918946,74.776388,NO2,2,38,13
India,Maharashtra,Dhule,"Deopur, Dhule - MPCB",16-02-2026 09:00:00,20.918946,74.776388,CO,14,68,23
India,Maharashtra,Amravati,"Shri Shivaji Science College, Amravati - MPCB",16-02-2026 09:00:00,20.939198,77.765701,CO,26,83,28
India,Maharashtra,Aurangabad,"More Chowk Waluj, Aurangabad - MPCB",16-02-2026 09:00:00,19.8389439,75.244448,PM10,83,127,106
India,Maharashtra,Aurangabad,"Rachnakar Colony, Aurangabad - MPCB",16-02-2026 09:00:00,19.863756,75.321188,PM2.5,62,201,82
India,Maharashtra,Badlapur,"Katrap, Badlapur - MPCB",16-02-2026 09:00:00,19.16485,73.23409,OZONE,12,88,15
India,Maharashtra,Belapur,"CBD Belapur, Belapur - MPCB",16-02-2026 09:00:00,19.0243902,73.0406721,CO,2,52,22
India,Maharashtra,Belapur,"CBD Belapur, Belapur - MPCB",16-02-2026 09:00:00,19.0243902,73.0406721,OZONE,1,72,6
India,Maharashtra,Mumbai,"Bandra Kurla Complex, Mumbai - IITM",16-02-2026 09:00:00,19.053536,72.84643,CO,23,100,67
India,Maharashtra,Mumbai,"Bandra Kurla Complex, Mumbai - MPCB",16-02-2026 09:00:00,19.065931,72.862131,PM2.5,55,278,126
India,Maharashtra,Mumbai,"Borivali East, Mumbai - IITM",16-02-2026 09:00:00,19.23241,72.86895,NH3,7,13,9
India,Maharashtra,Mumbai,"Byculla, Mumbai - BMC",16-02-2026 09:00:00,18.9767,72.8380,PM2.5,31,96,56
India,Maharashtra,Mumbai,"Byculla, Mumbai - BMC",16-02-2026 09:00:00,18.9767,72.8380,SO2,1,6,3
India,Maharashtra,Mumbai,"Chakala-Andheri East, Mumbai - IITM",16-02-2026 09:00:00,19.11074,72.86084,NO2,57,99,77
India,Maharashtra,Latur,"Sawe Wadi, Latur - MPCB",16-02-2026 09:00:00,18.39963,76.57452,NO2,13,63,35
India,Maharashtra,Latur,"Sawe Wadi, Latur - MPCB",16-02-2026 09:00:00,18.39963,76.57452,NH3,4,19,10
India,Maharashtra,Mahad,"Kamble Tarf Birwadi, Mahad - MPCB",16-02-2026 09:00:00,18.1023399,73.4783687,CO,1,30,4
India,Maharashtra,Malegaon,"Mahesh Nagar, Malegaon - MPCB",16-02-2026 09:00:00,20.555712,74.529236,PM2.5,64,111,82
India,Maharashtra,Mumbai,"Bandra Kurla Complex, Mumbai - IITM",16-02-2026 09:00:00,19.053536,72.84643,PM10,94,174,136
