country,state,city,station,last_update,latitude,longitude,pollutant_id,min_value,max_value,avg_value
India,Bihar,Muzaffarpur,"Buddha Colony, Muzaffarpur - BSPCB",26-01-2026 08:00:00,26.11442,85.39813,OZONE,26,68,30
India,Bihar,Muzaffarpur,"MIT-Daudpur Kothi, Muzaffarpur - BSPCB",26-01-2026 08:00:00,26.1403345,85.3650192,PM10,58,71,64
India,Bihar,Muzaffarpur,"MIT-Daudpur Kothi, Muzaffarpur - BSPCB",26-01-2026 08:00:00,26.1403345,85.3650192,NH3,2,2,2
India,Bihar,Muzaffarpur,"MIT-Daudpur Kothi, Muzaffarpur - BSPCB",26-01-2026 08:00:00,26.1403345,85.3650192,SO2,16,17,16
India,Bihar,Muzaffarpur,"Muzaffarpur Collectorate, Muzaffarpur - BSPCB",26-01-2026 08:00:00,26.1209,85.3647,PM2.5,85,127,97
India,Bihar,Patna,"DRM Office Danapur, Patna - BSPCB",26-01-2026 08:00:00,25.586562,85.043586,PM2.5,95,197,137
India,Bihar,Patna,"DRM Office Danapur, Patna - BSPCB",26-01-2026 08:00:00,25.586562,85.043586,NO2,10,83,29
India,Bihar,Patna,"DRM Office Danapur, Patna - BSPCB",26-01-2026 08:00:00,25.586562,85.043586,NH3,5,12,7
India,Bihar,Patna,"DRM Office Danapur, Patna - BSPCB",26-01-2026 08:00:00,25.586562,85.043586,OZONE,16,28,18
India,Bihar,Patna,"Muradpur, Patna - BSPCB",26-01-2026 08:00:00,25.619651,85.147382,PM10,77,179,114
India,Bihar,Patna,"Muradpur, Patna - BSPCB",26-01-2026 08:00:00,25.619651,85.147382,NH3,4,5,5
India,Bihar,Patna,"Muradpur, Patna - BSPCB",26-01-2026 08:00:00,25.619651,85.147382,CO,54,67,64
India,Bihar,Patna,"Rajbansi Nagar, Patna - BSPCB",26-01-2026 08:00:00,25.599486,85.113666,PM10,68,121,100
India,Bihar,Patna,"Rajbansi Nagar, Patna - BSPCB",26-01-2026 08:00:00,25.599486,85.113666,NO2,2,36,19
India,Bihar,Hajipur,"Industrial Area, Hajipur - BSPCB",26-01-2026 08:00:00,25.697189,85.245900,CO,28,55,40
India,Bihar,Katihar,"Mirchaibari, Katihar - BSPCB",26-01-2026 08:00:00,25.560083,87.553265,PM10,59,117,88
India,Bihar,Katihar,"Mirchaibari, Katihar - BSPCB",26-01-2026 08:00:00,25.560083,87.553265,NO2,8,10,9
India,Bihar,Katihar,"Mirchaibari, Katihar - BSPCB",26-01-2026 08:00:00,25.560083,87.553265,CO,57,82,64
India,Bihar,Kishanganj,"SDM Office_Khagra, Kishanganj - BSPCB",26-01-2026 08:00:00,26.0881305,87.93840336,PM10,28,88,57
India,Bihar,Motihari,"Gandak Colony, Motihari - BSPCB",26-01-2026 08:00:00,26.63086,84.90051,PM2.5,NA,NA,NA
India,Bihar,Motihari,"Gandak Colony, Motihari - BSPCB",26-01-2026 08:00:00,26.63086,84.90051,PM10,NA,NA,NA
India,Bihar,Motihari,"Gandak Colony, Motihari - BSPCB",26-01-2026 08:00:00,26.63086,84.90051,SO2,NA,NA,NA
India,Bihar,Munger,"Town Hall, Munger - BSPCB",26-01-2026 08:00:00,25.376776,86.471523,PM2.5,100,253,162
India,Bihar,Muzaffarpur,"Buddha Colony, Muzaffarpur - BSPCB",26-01-2026 08:00:00,26.11442,85.39813,PM10,48,111,76
India,Andhra_Pradesh,Kadapa,"Yerramukkapalli, Kadapa - APPCB",26-01-2026 08:00:00,14.465052,78.824187,SO2,12,12,12
India,Andhra_Pradesh,Rajamahendravaram,"Anand Kala Kshetram, Rajamahendravaram - APPCB",26-01-2026 08:00:00,16.9872867,81.7363176,OZONE,16,39,21
India,Andhra_Pradesh,Tirumala,"Toll Gate, Tirumala - APPCB",26-01-2026 08:00:00,13.67,79.35,PM2.5,22,58,39
India,Andhra_Pradesh,Tirumala,"Toll Gate, Tirumala - APPCB",26-01-2026 08:00:00,13.67,79.35,PM10,19,61,41
India,Andhra_Pradesh,Tirupati,"Vaikuntapuram, Tirupati - APPCB",26-01-2026 08:00:00,13.615387,79.409230,PM10,68,72,70
India,Andhra_Pradesh,Vijayawada,"HB Colony, Vijayawada - APPCB",26-01-2026 08:00:00,16.536107,80.594233,PM2.5,53,70,60
India,Andhra_Pradesh,Vijayawada,"HB Colony, Vijayawada - APPCB",26-01-2026 08:00:00,16.536107,80.594233,PM10,46,67,54
India,Andhra_Pradesh,Vijayawada,"HB Colony, Vijayawada - APPCB",26-01-2026 08:00:00,16.536107,80.594233,OZONE,16,52,32
India,Andhra_Pradesh,Vijayawada,"Kanuru, Vijayawada - APPCB",26-01-2026 08:00:00,16.486692,80.699436,PM10,46,49,48
India,Bihar,Samastipur,"DM Office_Kasipur, Samastipur - BSPCB",26-01-2026 08:00:00,25.859655,85.77944,CO,6,9,9
India,Bihar,Sasaram,"Dada Peer, Sasaram - BSPCB",26-01-2026 08:00:00,24.952822,84.002396,NH3,3,8,3
India,Bihar,Siwan,"Chitragupta Nagar, Siwan - BSPCB",26-01-2026 08:00:00,26.2271665,84.3570427,PM10,45,118,74
India,Chandigarh,Chandigarh,"Sector-25, Chandigarh - CPCC",26-01-2026 08:00:00,30.751462,76.762879,PM2.5,NA,NA,NA
India,Chhattisgarh,Bhilai,"32Bungalows, Bhilai - CECB",26-01-2026 08:00:00,21.194815,81.314770,PM2.5,28,52,38
India,Chhattisgarh,Bhilai,"32Bungalows, Bhilai - CECB",26-01-2026 08:00:00,21.194815,81.314770,NO2,32,60,46
India,Chhattisgarh,Bhilai,"32Bungalows, Bhilai - CECB",26-01-2026 08:00:00,21.194815,81.314770,NH3,5,7,6
India,Chhattisgarh,Bhilai,"32Bungalows, Bhilai - CECB",26-01-2026 08:00:00,21.194815,81.314770,SO2,6,8,7
India,Bihar,Arrah,"New DM Office, Arrah - BSPCB",26-01-2026 08:00:00,25.5626095,84.663264,OZONE,6,16,8
India,Bihar,Aurangabad,"Gurdeo Nagar, Aurangabad - BSPCB",26-01-2026 08:00:00,24.75746,84.366208,NH3,1,2,2
India,Bihar,Aurangabad,"Gurdeo Nagar, Aurangabad - BSPCB",26-01-2026 08:00:00,24.75746,84.366208,CO,101,103,102
India,Bihar,Begusarai,"Lohiyanagar, Begusarai - BSPCB",26-01-2026 08:00:00,25.42742023,86.13886079,CO,11,32,21
India,Bihar,Bettiah,"Kamalnath Nagar, Bettiah - BSPCB",26-01-2026 08:00:00,26.80365,84.51954,PM2.5,47,160,81
India,Bihar,Bhagalpur,"DM Office_Kachari Chowk, Bhagalpur - BSPCB",26-01-2026 08:00:00,25.251013,86.989001,PM2.5,85,153,100
India,Bihar,Bhagalpur,"Mayaganj, Bhagalpur - BSPCB",26-01-2026 08:00:00,25.265194,87.012947,PM10,116,171,132
India,Assam,Guwahati,"Pan Bazaar, Guwahati - PCBA",26-01-2026 08:00:00,26.187500,91.744194,OZONE,17,18,17
India,Assam,Nagaon,"Christianpatty, Nagaon - PCBA",26-01-2026 08:00:00,26.349082,92.68449,NH3,4,4,4
India,Assam,Nagaon,"Christianpatty, Nagaon - PCBA",26-01-2026 08:00:00,26.349082,92.68449,SO2,11,14,12
India,Assam,Nalbari,"Bata Chowk, Nalbari - PCBA",26-01-2026 08:00:00,26.446912,91.439057,SO2,6,8,8
India,Assam,Nalbari,"Bata Chowk, Nalbari - PCBA",26-01-2026 08:00:00,26.446912,91.439057,CO,8,22,21
India,Bihar,Araria,"Kharahiya Basti, Araria - BSPCB",26-01-2026 08:00:00,26.146529,87.454184,NH3,4,5,4
India,Bihar,Araria,"Kharahiya Basti, Araria - BSPCB",26-01-2026 08:00:00,26.146529,87.454184,CO,21,34,28
India,Andhra_Pradesh,Vijayawada,"Rajiv Gandhi Park, Vijayawada - APPCB",26-01-2026 08:00:00,16.509717,80.612222,NH3,3,5,4
India,Andhra_Pradesh,Vijayawada,"Rajiv Gandhi Park, Vijayawada - APPCB",26-01-2026 08:00:00,16.509717,80.612222,OZONE,14,49,23
India,Andhra_Pradesh,Vijayawada,"Rajiv Nagar, Vijayawada - APPCB",26-01-2026 08:00:00,16.554731,80.649110,PM10,NA,NA,NA
India,Andhra_Pradesh,Vijayawada,"Rajiv Nagar, Vijayawada - APPCB",26-01-2026 08:00:00,16.554731,80.649110,SO2,NA,NA,NA
India,Andhra_Pradesh,Vijayawada,"Rajiv Nagar, Vijayawada - APPCB",26-01-2026 08:00:00,16.554731,80.649110,OZONE,16,17,16
India,Andhra_Pradesh,Visakhapatnam,"GVM Corporation, Visakhapatnam - APPCB",26-01-2026 08:00:00,17.72,83.3,NH3,3,4,3
India,Andhra_Pradesh,Visakhapatnam,"GVM Corporation, Visakhapatnam - APPCB",26-01-2026 08:00:00,17.72,83.3,SO2,1,12,5
India,Bihar,Purnia,"Mariam Nagar, Purnia - BSPCB",26-01-2026 08:00:00,25.366336,87.117468,CO,46,80,62
India,Bihar,Rajgir,"Dangi Tola, Rajgir - BSPCB",26-01-2026 08:00:00,25.03280,85.41948,OZONE,30,34,32
India,Bihar,Saharsa,"Police Line, Saharsa - BSPCB",26-01-2026 08:00:00,25.892357,86.590325,OZONE,9,11,10
India,Bihar,Samastipur,"DM Office_Kasipur, Samastipur - BSPCB",26-01-2026 08:00:00,25.859655,85.77944,PM2.5,NA,NA,NA
India,Bihar,Buxar,"Charitra Van, Buxar - BSPCB",26-01-2026 08:00:00,25.567520,83.966379,SO2,10,55,27
India,Bihar,Buxar,"Charitra Van, Buxar - BSPCB",26-01-2026 08:00:00,25.567520,83.966379,OZONE,7,30,10
India,Bihar,Gaya,"SFTI Kusdihra, Gaya - BSPCB",26-01-2026 08:00:00,24.762518,84.982348,NH3,NA,NA,NA
India,Bihar,Hajipur,"Industrial Area, Hajipur - BSPCB",26-01-2026 08:00:00,25.697189,85.245900,NO2,25,49,34
India,Andhra_Pradesh,Amaravati,"Secretariat, Amaravati - APPCB",26-01-2026 08:00:00,16.5150833,80.5181667,NH3,4,6,5
India,Andhra_Pradesh,Chittoor,"Gangineni Cheruvu, Chittoor - APPCB",26-01-2026 08:00:00,13.204880,79.097889,NO2,45,49,47
India,Andhra_Pradesh,Chittoor,"Gangineni Cheruvu, Chittoor - APPCB",26-01-2026 08:00:00,13.204880,79.097889,CO,34,65,39
India,Chhattisgarh,Milupara,"Govt. Higher Secondary School, Milupara - CECB",26-01-2026 08:00:00,22.1910172,83.5197009,PM10,58,237,90
India,Chhattisgarh,Milupara,"Govt. Higher Secondary School, Milupara - CECB",26-01-2026 08:00:00,22.1910172,83.5197009,NO2,19,59,29
India,Chhattisgarh,Milupara,"Govt. Higher Secondary School, Milupara - CECB",26-01-2026 08:00:00,22.1910172,83.5197009,OZONE,7,165,19
India,Chhattisgarh,Raipur,"AIIMS, Raipur - CECB",26-01-2026 08:00:00,21.258815,81.578979,PM10,44,157,103
India,Chhattisgarh,Raipur,"AIIMS, Raipur - CECB",26-01-2026 08:00:00,21.258815,81.578979,CO,38,69,59
India,Chhattisgarh,Raipur,"Krishak Nagar, Raipur - CECB",26-01-2026 08:00:00,21.237755,81.705301,NH3,2,2,2
India,Chhattisgarh,Raipur,"Krishak Nagar, Raipur - CECB",26-01-2026 08:00:00,21.237755,81.705301,SO2,5,10,6
India,Chhattisgarh,Tumidih,"OP Jindal Industrial Park, Tumidih - CECB",26-01-2026 08:00:00,22.06631475,83.33820077,SO2,NA,NA,NA
India,Chhattisgarh,Tumidih,"OP Jindal Industrial Park, Tumidih - CECB",26-01-2026 08:00:00,22.06631475,83.33820077,OZONE,NA,NA,NA
India,Delhi,Delhi,"Alipur, Delhi - DPCC",26-01-2026 08:00:00,28.815329,77.153010,SO2,6,8,7
India,Delhi,Delhi,"Alipur, Delhi - DPCC",26-01-2026 08:00:00,28.815329,77.153010,CO,30,74,55
India,Delhi,Delhi,"Alipur, Delhi - DPCC",26-01-2026 08:00:00,28.815329,77.153010,OZONE,8,39,8
India,Delhi,Delhi,"Anand Vihar, Delhi - DPCC",26-01-2026 08:00:00,28.647622,77.3158090,PM10,148,491,300
India,Gujarat,Ahmedabad,"Chandkheda, Ahmedabad - IITM",26-01-2026 08:00:00,23.107969,72.574648,OZONE,5,51,26
India,Gujarat,Ahmedabad,"Gyaspur, Ahmedabad - IITM",26-01-2026 08:00:00,22.977134,72.553024,PM2.5,98,208,137
India,Gujarat,Ahmedabad,"Gyaspur, Ahmedabad - IITM",26-01-2026 08:00:00,22.977134,72.553024,SO2,57,119,94
India,Gujarat,Ahmedabad,"Maninagar, Ahmedabad - GPCB",26-01-2026 08:00:00,23.002657,72.591912,PM2.5,64,238,105
India,Gujarat,Ahmedabad,"Maninagar, Ahmedabad - GPCB",26-01-2026 08:00:00,23.002657,72.591912,NO2,99,131,115
India,Gujarat,Ahmedabad,"Maninagar, Ahmedabad - GPCB",26-01-2026 08:00:00,23.002657,72.591912,OZONE,38,91,53
India,Gujarat,Ahmedabad,"Raikhad, Ahmedabad - IITM",26-01-2026 08:00:00,23.020509,72.579261,NH3,11,22,14
India,Gujarat,Ahmedabad,"Rakhial, Ahmedabad - IITM",26-01-2026 08:00:00,23.016834,72.625775,NO2,13,60,24
India,Gujarat,Ahmedabad,"SAC ISRO Bopal, Ahmedabad - IITM",26-01-2026 08:00:00,23.041137,72.456691,NO2,17,40,27
India,Gujarat,Ahmedabad,"SAC ISRO Bopal, Ahmedabad - IITM",26-01-2026 08:00:00,23.041137,72.456691,NH3,8,13,10
India,Gujarat,Ahmedabad,"SAC ISRO Bopal, Ahmedabad - IITM",26-01-2026 08:00:00,23.041137,72.456691,CO,32,53,37
India,Gujarat,Ahmedabad,"SAC ISRO Satellite, Ahmedabad - IITM",26-01-2026 08:00:00,23.023389,72.515201,OZONE,4,40,16
India,Delhi,Delhi,"Patparganj, Delhi - DPCC",26-01-2026 08:00:00,28.623763,77.287209,PM2.5,85,367,224
India,Delhi,Delhi,"Punjabi Bagh, Delhi - DPCC",26-01-2026 08:00:00,28.674045,77.131023,PM10,102,354,180
India,Delhi,Delhi,"Punjabi Bagh, Delhi - DPCC",26-01-2026 08:00:00,28.674045,77.131023,CO,40,98,55
India,Delhi,Delhi,"Pusa, Delhi - DPCC",26-01-2026 08:00:00,28.639652,77.146275,SO2,4,11,6
India,Delhi,Delhi,"Pusa, Delhi - DPCC",26-01-2026 08:00:00,28.639652,77.146275,OZONE,2,33,2
India,Delhi,Delhi,"Pusa, Delhi - IMD",26-01-2026 08:00:00,28.636110,77.173332,PM2.5,55,320,146
India,Delhi,Delhi,"Pusa, Delhi - IMD",26-01-2026 08:00:00,28.636110,77.173332,PM10,48,283,152
India,Delhi,Delhi,"Pusa, Delhi - IMD",26-01-2026 08:00:00,28.636110,77.173332,NO2,40,142,73
India,Delhi,Delhi,"Pusa, Delhi - IMD",26-01-2026 08:00:00,28.636110,77.173332,CO,80,128,108
India,Delhi,Delhi,"Pusa, Delhi - IMD",26-01-2026 08:00:00,28.636110,77.173332,OZONE,29,165,31
India,Delhi,Delhi,"R K Puram, Delhi - DPCC",26-01-2026 08:00:00,28.563262,77.186937,PM2.5,97,374,221
India,Delhi,Delhi,"Shadipur, Delhi - CPCB",26-01-2026 08:00:00,28.6514781,77.1473105,NO2,41,114,67
India,Delhi,Delhi,"ITO, Delhi - CPCB",26-01-2026 08:00:00,28.628624,77.241060,OZONE,3,38,3
India,Delhi,Delhi,"Jahangirpuri, Delhi - DPCC",26-01-2026 08:00:00,28.732820,77.170633,NH3,26,36,32
India,Delhi,Delhi,"Jahangirpuri, Delhi - DPCC",26-01-2026 08:00:00,28.732820,77.170633,SO2,36,60,44
India,Delhi,Delhi,"Jawaharlal Nehru Stadium, Delhi - DPCC",26-01-2026 08:00:00,28.580280,77.233829,PM10,115,298,170
India,Delhi,Delhi,"Major Dhyan Chand National Stadium, Delhi - DPCC",26-01-2026 08:00:00,28.611281,77.237738,PM2.5,52,324,163
India,Delhi,Delhi,"Major Dhyan Chand National Stadium, Delhi - DPCC",26-01-2026 08:00:00,28.611281,77.237738,PM10,101,234,147
India,Delhi,Delhi,"Major Dhyan Chand National Stadium, Delhi - DPCC",26-01-2026 08:00:00,28.611281,77.237738,NH3,14,18,16
India,Delhi,Delhi,"Mandir Marg, Delhi - DPCC",26-01-2026 08:00:00,28.636429,77.201067,PM2.5,33,335,136
India,Delhi,Delhi,"Mandir Marg, Delhi - DPCC",26-01-2026 08:00:00,28.636429,77.201067,OZONE,8,274,12
India,Delhi,Delhi,"Mundka, Delhi - DPCC",26-01-2026 08:00:00,28.684678,77.076574,PM2.5,78,382,244
India,Delhi,Delhi,"Mundka, Delhi - DPCC",26-01-2026 08:00:00,28.684678,77.076574,NO2,45,90,61
India,Delhi,Delhi,"Anand Vihar, Delhi - DPCC",26-01-2026 08:00:00,28.647622,77.3158090,OZONE,7,26,11
India,Delhi,Delhi,"Ashok Vihar, Delhi - DPCC",26-01-2026 08:00:00,28.695381,77.181665,SO2,7,28,17
India,Delhi,Delhi,"Aya Nagar, Delhi - IMD",26-01-2026 08:00:00,28.4706914,77.1099364,PM2.5,73,280,132
India,Delhi,Delhi,"Aya Nagar, Delhi - IMD",26-01-2026 08:00:00,28.4706914,77.1099364,OZONE,8,52,10
India,Delhi,Delhi,"Bawana, Delhi - DPCC",26-01-2026 08:00:00,28.776200,77.051074,PM10,97,243,156
India,Delhi,Delhi,"Burari Crossing, Delhi - IMD",26-01-2026 08:00:00,28.7256504,77.2011573,OZONE,4,80,5
India,Delhi,Delhi,"Chandni Chowk, Delhi - IITM",26-01-2026 08:00:00,28.656756,77.227234,CO,50,113,102
India,Delhi,Delhi,"DTU, Delhi - CPCB",26-01-2026 08:00:00,28.7500499,77.1112615,PM2.5,61,380,222
India,Delhi,Delhi,"DTU, Delhi - CPCB",26-01-2026 08:00:00,28.7500499,77.1112615,PM10,93,237,147
India,Chhattisgarh,Bhilai,"Hathkhoj, Bhilai - CECB",26-01-2026 08:00:00,21.224231,81.408350,PM2.5,37,86,63
India,Chhattisgarh,Bhilai,"Hathkhoj, Bhilai - CECB",26-01-2026 08:00:00,21.224231,81.408350,NH3,4,6,5
India,Chhattisgarh,Bhilai,"Hathkhoj, Bhilai - CECB",26-01-2026 08:00:00,21.224231,81.408350,OZONE,5,17,8
India,Chhattisgarh,Bilaspur,"Mangala, Bilaspur - NTPC",26-01-2026 08:00:00,22.08815,82.13737,PM2.5,15,208,117
India,Chhattisgarh,Chhal,"Nawapara SECL Colony, Chhal - CECB",26-01-2026 08:00:00,22.118125,83.140608,PM2.5,NA,NA,NA
India,Chhattisgarh,Chhal,"Nawapara SECL Colony, Chhal - CECB",26-01-2026 08:00:00,22.118125,83.140608,NO2,NA,NA,NA
India,Chhattisgarh,Chhal,"Nawapara SECL Colony, Chhal - CECB",26-01-2026 08:00:00,22.118125,83.140608,NH3,NA,NA,NA
India,Chhattisgarh,Chhal,"Nawapara SECL Colony, Chhal - CECB",26-01-2026 08:00:00,22.118125,83.140608,SO2,NA,NA,NA
India,Chhattisgarh,Korba,"Urja Nagar, Korba - CECB",26-01-2026 08:00:00,22.348441,82.549611,PM2.5,NA,NA,NA
India,Chhattisgarh,Kunjemura,"OP Jindal School, Kunjemura - CECB",26-01-2026 08:00:00,22.126650,83.483212,NH3,2,2,2
India,Delhi,Delhi,"DTU, Delhi - CPCB",26-01-2026 08:00:00,28.7500499,77.1112615,OZONE,10,22,10
India,Delhi,Delhi,"Dr. Karni Singh Shooting Range, Delhi - DPCC",26-01-2026 08:00:00,28.498571,77.264840,PM2.5,95,356,215
India,Delhi,Delhi,"Dwarka-Sector 8, Delhi - DPCC ",26-01-2026 08:00:00,28.5710274,77.0719006,PM2.5,103,352,220
India,Delhi,Delhi,"Dwarka-Sector 8, Delhi - DPCC ",26-01-2026 08:00:00,28.5710274,77.0719006,NO2,33,114,65
India,Delhi,Delhi,"IGI Airport (T3), Delhi - IMD",26-01-2026 08:00:00,28.5627763,77.1180053,NO2,35,95,65
India,Delhi,Delhi,"IHBAS, Dilshad Garden, Delhi - CPCB",26-01-2026 08:00:00,28.6811736,77.3025234,CO,42,89,67
India,Delhi,Delhi,"IIT Delhi, Delhi - IITM",26-01-2026 08:00:00,28.542460,77.191651,PM2.5,75,310,163
India,Delhi,Delhi,"IIT Delhi, Delhi - IITM",26-01-2026 08:00:00,28.542460,77.191651,OZONE,3,60,7
India,Delhi,Delhi,"Shadipur, Delhi - CPCB",26-01-2026 08:00:00,28.6514781,77.1473105,NH3,10,15,12
India,Delhi,Delhi,"Shadipur, Delhi - CPCB",26-01-2026 08:00:00,28.6514781,77.1473105,SO2,2,22,12
India,Delhi,Delhi,"Shadipur, Delhi - CPCB",26-01-2026 08:00:00,28.6514781,77.1473105,CO,26,111,66
India,Delhi,Delhi,"Shadipur, Delhi - CPCB",26-01-2026 08:00:00,28.6514781,77.1473105,OZONE,12,27,21
India,Delhi,Delhi,"Sirifort, Delhi - CPCB",26-01-2026 08:00:00,28.5504249,77.2159377,SO2,30,33,31
India,Delhi,Delhi,"Sirifort, Delhi - CPCB",26-01-2026 08:00:00,28.5504249,77.2159377,CO,11,101,54
India,Delhi,Delhi,"Sonia Vihar, Delhi - DPCC",26-01-2026 08:00:00,28.710508,77.249485,PM2.5,83,355,239
India,Delhi,Delhi,"Sonia Vihar, Delhi - DPCC",26-01-2026 08:00:00,28.710508,77.249485,OZONE,3,97,4
India,Delhi,Delhi,"Sri Aurobindo Marg, Delhi - DPCC",26-01-2026 08:00:00,28.531346,77.190156,PM10,109,156,133
India,Delhi,Delhi,"Mundka, Delhi - DPCC",26-01-2026 08:00:00,28.684678,77.076574,CO,48,97,53
India,Delhi,Delhi,"NSIT Dwarka, Delhi - CPCB",26-01-2026 08:00:00,28.60909,77.0325413,PM2.5,33,185,56
India,Delhi,Delhi,"NSIT Dwarka, Delhi - CPCB",26-01-2026 08:00:00,28.60909,77.0325413,NO2,45,64,55
India,Delhi,Delhi,"NSIT Dwarka, Delhi - CPCB",26-01-2026 08:00:00,28.60909,77.0325413,NH3,6,9,7
India,Delhi,Delhi,"NSIT Dwarka, Delhi - CPCB",26-01-2026 08:00:00,28.60909,77.0325413,CO,43,90,57
India,Delhi,Delhi,"Nehru Nagar, Delhi - DPCC",26-01-2026 08:00:00,28.567890,77.250515,NH3,5,8,6
India,Delhi,Delhi,"Okhla Phase-2, Delhi - DPCC",26-01-2026 08:00:00,28.530785,77.271255,PM10,125,251,163
India,Jammu_and_Kashmir,Srinagar,"Rajbagh, Srinagar - JKPCC",26-01-2026 08:00:00,34.066206,74.819820,OZONE,1,7,1
India,Jharkhand,Dhanbad,"Sardar Patel Nagar, Dhanbad - JSPCB",26-01-2026 08:00:00,23.80569,86.44268,PM2.5,74,318,189
India,Jharkhand,Dhanbad,"Sardar Patel Nagar, Dhanbad - JSPCB",26-01-2026 08:00:00,23.80569,86.44268,NO2,50,51,50
India,Jharkhand,Dhanbad,"Sardar Patel Nagar, Dhanbad - JSPCB",26-01-2026 08:00:00,23.80569,86.44268,CO,4,52,31
India,Karnataka,Bagalkot,"Vidayagiri, Bagalkot - KSPCB",26-01-2026 08:00:00,16.172806,75.659694,CO,2,35,21
India,Karnataka,Belgaum,"Ramteerth Nagar, Belgaum - KSPCB",26-01-2026 08:00:00,15.888653,74.541751,PM2.5,27,68,46
India,Karnataka,Belgaum,"Ramteerth Nagar, Belgaum - KSPCB",26-01-2026 08:00:00,15.888653,74.541751,PM10,35,89,60
India,Karnataka,Belgaum,"Ramteerth Nagar, Belgaum - KSPCB",26-01-2026 08:00:00,15.888653,74.541751,SO2,29,30,29
India,Karnataka,Bengaluru,"BWSSB Kadabesanahalli, Bengaluru - CPCB",26-01-2026 08:00:00,12.9352049,77.6814488,PM2.5,17,105,65
India,Karnataka,Bengaluru,"City Railway Station, Bengaluru - KSPCB",26-01-2026 08:00:00,12.9756843,77.5660749,PM10,NA,NA,NA
India,Karnataka,Bengaluru,"Hebbal, Bengaluru - KSPCB",26-01-2026 08:00:00,13.029152,77.585901,PM2.5,12,81,34
India,Karnataka,Bengaluru,"Hebbal, Bengaluru - KSPCB",26-01-2026 08:00:00,13.029152,77.585901,PM10,18,86,46
India,Karnataka,Bengaluru,"RVCE-Mailasandra, Bengaluru - KSPCB",26-01-2026 08:00:00,12.921418,77.502466,NH3,2,3,3
India,Karnataka,Bengaluru,"RVCE-Mailasandra, Bengaluru - KSPCB",26-01-2026 08:00:00,12.921418,77.502466,CO,2,26,6
India,Karnataka,Bengaluru,"Sanegurava Halli, Bengaluru - KSPCB",26-01-2026 08:00:00,12.990328,77.5431385,PM10,50,65,53
India,Karnataka,Bengaluru,"Shivapura_Peenya, Bengaluru - KSPCB",26-01-2026 08:00:00,13.0246342,77.5080115,PM2.5,18,34,24
India,Karnataka,Bengaluru,"Shivapura_Peenya, Bengaluru - KSPCB",26-01-2026 08:00:00,13.0246342,77.5080115,NO2,79,79,79
India,Karnataka,Bengaluru,"Shivapura_Peenya, Bengaluru - KSPCB",26-01-2026 08:00:00,13.0246342,77.5080115,NH3,7,8,7
India,Karnataka,Bengaluru,"Silk Board, Bengaluru - KSPCB",26-01-2026 08:00:00,12.917348,77.622813,NH3,4,5,4
India,Karnataka,Bengaluru,"Silk Board, Bengaluru - KSPCB",26-01-2026 08:00:00,12.917348,77.622813,SO2,4,9,6
India,Karnataka,Chikkaballapur,"Chikkaballapur Rural, Chikkaballapur - KSPCB",26-01-2026 08:00:00,13.428828,77.731418,NO2,10,62,18
India,Karnataka,Chikkaballapur,"Chikkaballapur Rural, Chikkaballapur - KSPCB",26-01-2026 08:00:00,13.428828,77.731418,NH3,5,10,7
India,Karnataka,Chikkaballapur,"Chikkaballapur Rural, Chikkaballapur - KSPCB",26-01-2026 08:00:00,13.428828,77.731418,OZONE,22,28,28
India,Haryana,Dharuhera,"Municipal Corporation Office, Dharuhera -  HSPCB",26-01-2026 08:00:00,28.206800,76.799700,PM2.5,90,311,200
India,Haryana,Dharuhera,"Municipal Corporation Office, Dharuhera -  HSPCB",26-01-2026 08:00:00,28.206800,76.799700,NH3,9,27,19
India,Haryana,Faridabad,"Sector 11, Faridabad - HSPCB",26-01-2026 08:00:00,28.376058,77.315741,NO2,30,33,31
India,Haryana,Faridabad,"Sector 11, Faridabad - HSPCB",26-01-2026 08:00:00,28.376058,77.315741,SO2,4,4,4
India,Haryana,Faridabad,"Sector 30, Faridabad - HSPCB",26-01-2026 08:00:00,28.4417,77.3217,NO2,36,39,38
India,Haryana,Faridabad,"Sector 30, Faridabad - HSPCB",26-01-2026 08:00:00,28.4417,77.3217,OZONE,18,20,19
India,Haryana,Fatehabad,"Huda Sector, Fatehabad - HSPCB",26-01-2026 08:00:00,29.503664,75.467934,PM2.5,2,97,36
India,Haryana,Fatehabad,"Huda Sector, Fatehabad - HSPCB",26-01-2026 08:00:00,29.503664,75.467934,NH3,13,15,14
India,Haryana,Fatehabad,"Huda Sector, Fatehabad - HSPCB",26-01-2026 08:00:00,29.503664,75.467934,CO,25,36,29
India,Haryana,Fatehabad,"Huda Sector, Fatehabad - HSPCB",26-01-2026 08:00:00,29.503664,75.467934,OZONE,46,52,52
India,Haryana,Rohtak,"MD University, Rohtak - HSPCB",26-01-2026 08:00:00,28.52123,76.37138,PM2.5,72,169,107
India,Haryana,Rohtak,"MD University, Rohtak - HSPCB",26-01-2026 08:00:00,28.52123,76.37138,NO2,11,13,11
India,Haryana,Sirsa,"F-Block, Sirsa - HSPCB",26-01-2026 08:00:00,29.536400,75.015800,CO,24,96,78
India,Haryana,Sonipat,"Murthal, Sonipat - HSPCB",26-01-2026 08:00:00,29.027200,77.062100,SO2,6,11,8
India,Haryana,Sonipat,"Murthal, Sonipat - HSPCB",26-01-2026 08:00:00,29.027200,77.062100,OZONE,25,26,26
India,Haryana,Yamuna Nagar,"Gobind Pura, Yamuna Nagar - HSPCB",26-01-2026 08:00:00,30.1480566,77.2893471,NO2,11,21,16
India,Jammu_and_Kashmir,Srinagar,"Rajbagh, Srinagar - JKPCC",26-01-2026 08:00:00,34.066206,74.819820,SO2,3,4,3
India,Haryana,Mandikhera,"General Hospital, Mandikhera(Nuh) - HSPCB",26-01-2026 08:00:00,27.9002,76.9938,PM2.5,41,120,72
India,Haryana,Mandikhera,"General Hospital, Mandikhera(Nuh) - HSPCB",26-01-2026 08:00:00,27.9002,76.9938,PM10,46,115,80
India,Haryana,Narnaul,"Shastri Nagar, Narnaul - HSPCB",26-01-2026 08:00:00,28.060249,76.113115,CO,38,62,55
India,Haryana,Palwal,"Shyam Nagar, Palwal - HSPCB",26-01-2026 08:00:00,28.1485564,77.3320667,NO2,23,24,24
India,Haryana,Palwal,"Shyam Nagar, Palwal - HSPCB",26-01-2026 08:00:00,28.1485564,77.3320667,CO,16,48,25
India,Haryana,Panchgaon,"Amity University, Panchgaon - IITM",26-01-2026 08:00:00,28.3153,76.9143,OZONE,1,75,1
India,Haryana,Panipat,"Sector-18, Panipat - HSPCB",26-01-2026 08:00:00,29.432304,76.972765,PM2.5,49,50,49
India,Gujarat,Ahmedabad,"SVPI Airport Hansol, Ahmedabad - IITM",26-01-2026 08:00:00,23.076793,72.627874,CO,26,60,30
India,Gujarat,Ankleshwar,"GIDC, Ankleshwar - GPCB",26-01-2026 08:00:00,21.613267,73.010555,PM10,105,355,158
India,Gujarat,Gandhinagar,"GIFT City, Gandhinagar - IITM",26-01-2026 08:00:00,23.163798,72.677768,SO2,3,14,7
India,Gujarat,Gandhinagar,"GIFT City, Gandhinagar - IITM",26-01-2026 08:00:00,23.163798,72.677768,CO,20,55,23
India,Gujarat,Gandhinagar,"Sector-10, Gandhinagar - GPCB",26-01-2026 08:00:00,23.221714,72.654328,SO2,5,12,9
India,Gujarat,Surat,"Science Center, Surat - SMC",26-01-2026 08:00:00,21.170046,72.795405,NO2,14,60,33
India,Gujarat,Vapi,"Phase-1 GIDC, Vapi - GPCB",26-01-2026 08:00:00,20.362421,72.918013,PM10,NA,NA,NA
India,Gujarat,Vatva,"Phase-4 GIDC, Vatva - GPCB",26-01-2026 08:00:00,22.969611,72.643500,PM2.5,91,260,131
India,Haryana,Bahadurgarh,"Arya Nagar, Bahadurgarh - HSPCB",26-01-2026 08:00:00,28.6701,76.9254,NO2,13,14,13
India,Haryana,Bahadurgarh,"Arya Nagar, Bahadurgarh - HSPCB",26-01-2026 08:00:00,28.6701,76.9254,NH3,12,13,13
India,Haryana,Ballabgarh,"Nathu Colony, Ballabgarh - HSPCB",26-01-2026 08:00:00,28.3419248,77.319699,NO2,19,21,20
India,Haryana,Ballabgarh,"Nathu Colony, Ballabgarh - HSPCB",26-01-2026 08:00:00,28.3419248,77.319699,CO,20,88,36
India,Haryana,Ballabgarh,"Nathu Colony, Ballabgarh - HSPCB",26-01-2026 08:00:00,28.3419248,77.319699,OZONE,14,15,15
India,Haryana,Charkhi Dadri,"Mini Secretariat, Charkhi Dadri - HSPCB",26-01-2026 08:00:00,28.593883,76.270653,NH3,5,8,6
India,Haryana,Gurugram,"Sector-51, Gurugram - HSPCB",26-01-2026 08:00:00,28.4227,77.0667,NO2,6,15,9
India,Haryana,Gurugram,"Vikas Sadan, Gurugram - HSPCB",26-01-2026 08:00:00,28.4501238,77.0263051,PM10,115,198,163
India,Haryana,Gurugram,"Vikas Sadan, Gurugram - HSPCB",26-01-2026 08:00:00,28.4501238,77.0263051,NO2,9,45,26
India,Haryana,Kaithal,"Rishi Nagar, Kaithal - HSPCB",26-01-2026 08:00:00,29.8006,76.4155,NH3,5,6,6
India,Haryana,Kaithal,"Rishi Nagar, Kaithal - HSPCB",26-01-2026 08:00:00,29.8006,76.4155,CO,20,60,39
India,Haryana,Karnal,"Sector-12, Karnal - HSPCB",26-01-2026 08:00:00,29.695300,77.002700,PM10,74,113,100
India,Haryana,Karnal,"Sector-12, Karnal - HSPCB",26-01-2026 08:00:00,29.695300,77.002700,NO2,6,7,6
India,Haryana,Karnal,"Sector-12, Karnal - HSPCB",26-01-2026 08:00:00,29.695300,77.002700,CO,30,34,30
India,Karnataka,Bengaluru,"Jayanagar 5th Block, Bengaluru - KSPCB",26-01-2026 08:00:00,12.920984,77.584908,SO2,5,17,12
India,Karnataka,Bengaluru,"Jigani, Bengaluru - KSPCB",26-01-2026 08:00:00,12.7816279,77.6299145,PM10,54,291,85
India,Karnataka,Bengaluru,"Kasturi Nagar, Bengaluru - KSPCB",26-01-2026 08:00:00,13.003872,77.664217,SO2,10,14,11
India,Karnataka,Davanagere,"Devaraj Urs Badavane, Davanagere - KSPCB",26-01-2026 08:00:00,14.475800,75.905200,PM2.5,15,112,41
India,Karnataka,Davanagere,"Devaraj Urs Badavane, Davanagere - KSPCB",26-01-2026 08:00:00,14.475800,75.905200,CO,7,20,10
India,Karnataka,Dharwad,"Kalabhavan, Dharwad - KSPCB",26-01-2026 08:00:00,15.459706,75.008381,PM10,74,107,91
India,Karnataka,Dharwad,"Kalabhavan, Dharwad - KSPCB",26-01-2026 08:00:00,15.459706,75.008381,NH3,6,6,6
India,Karnataka,Dharwad,"Kalabhavan, Dharwad - KSPCB",26-01-2026 08:00:00,15.459706,75.008381,CO,48,105,68
India,Karnataka,Hubballi,"Lingaraj Nagar, Hubballi - KSPCB",26-01-2026 08:00:00,15.3714823,75.1160168,PM10,62,62,62
India,Karnataka,Hubballi,"Lingaraj Nagar, Hubballi - KSPCB",26-01-2026 08:00:00,15.3714823,75.1160168,CO,6,44,25
India,Karnataka,Hubballi,"Lingaraj Nagar, Hubballi - KSPCB",26-01-2026 08:00:00,15.3714823,75.1160168,OZONE,23,24,24
India,Karnataka,Kalaburagi,"Mahatma Basaveswar Colony, Kalaburgi - KSPCB",26-01-2026 08:00:00,17.336318,76.847397,NO2,11,18,16
India,Karnataka,Kalaburagi,"Mahatma Basaveswar Colony, Kalaburgi - KSPCB",26-01-2026 08:00:00,17.336318,76.847397,OZONE,13,13,13
India,Karnataka,Madikeri,"Stuart Hill, Madikeri - KSPCB",26-01-2026 08:00:00,12.415911,75.735050,SO2,6,7,7
India,Karnataka,Mysuru,"Hebbal 1st Stage, Mysuru - KSPCB",26-01-2026 08:00:00,12.21041,76.37376,PM2.5,18,38,28
India,Karnataka,Mysuru,"Hebbal 1st Stage, Mysuru - KSPCB",26-01-2026 08:00:00,12.21041,76.37376,CO,7,24,16
India,Karnataka,Mysuru,"Hebbal 1st Stage, Mysuru - KSPCB",26-01-2026 08:00:00,12.21041,76.37376,OZONE,6,62,6
India,Madhya Pradesh,Bhopal,"Paryavaran Parisar, Bhopal - MPPCB",26-01-2026 08:00:00,23.210494,77.425409,NH3,9,16,11
India,Madhya Pradesh,Bhopal,"T T Nagar, Bhopal - MPPCB",26-01-2026 08:00:00,23.233584,77.400574,PM2.5,104,270,181
India,Madhya Pradesh,Bhopal,"T T Nagar, Bhopal - MPPCB",26-01-2026 08:00:00,23.233584,77.400574,NO2,26,44,35
India,Madhya Pradesh,Bhopal,"T T Nagar, Bhopal - MPPCB",26-01-2026 08:00:00,23.233584,77.400574,NH3,7,8,8
India,Madhya Pradesh,Dewas,"Bhopal Chauraha, Dewas - MPPCB",26-01-2026 08:00:00,22.9682591,76.064118,NO2,63,89,75
India,Madhya Pradesh,Gwalior,"City Center, Gwalior - MPPCB",26-01-2026 08:00:00,26.203442,78.193251,PM2.5,58,310,120
India,Madhya Pradesh,Gwalior,"City Center, Gwalior - MPPCB",26-01-2026 08:00:00,26.203442,78.193251,NO2,23,110,46
India,Madhya Pradesh,Gwalior,"City Center, Gwalior - MPPCB",26-01-2026 08:00:00,26.203442,78.193251,OZONE,16,76,16
India,Madhya Pradesh,Gwalior,"Deen Dayal Nagar, Gwalior - MPPCB",26-01-2026 08:00:00,26.259242,78.216432,CO,46,109,50
India,Madhya Pradesh,Gwalior,"Deen Dayal Nagar, Gwalior - MPPCB",26-01-2026 08:00:00,26.259242,78.216432,OZONE,42,166,92
India,Madhya Pradesh,Gwalior,"Maharaj Bada, Gwalior - MPPCB",26-01-2026 08:00:00,26.200388,78.147714,PM10,86,352,122
India,Madhya Pradesh,Sagar,"Civil Lines, Sagar - MPPCB",26-01-2026 08:00:00,23.838586,78.759431,PM2.5,77,119,94
India,Madhya Pradesh,Sagar,"Civil Lines, Sagar - MPPCB",26-01-2026 08:00:00,23.838586,78.759431,NH3,1,2,1
India,Madhya Pradesh,Sagar,"Civil Lines, Sagar - MPPCB",26-01-2026 08:00:00,23.838586,78.759431,CO,30,50,32
India,Madhya Pradesh,Sagar,"Deen Dayal Nagar, Sagar - MPPCB",26-01-2026 08:00:00,23.8640158,78.80289321,PM10,75,132,106
India,Madhya Pradesh,Satna,"Bandhavgar Colony, Satna - Birla Cement",26-01-2026 08:00:00,24.58434363,80.8549414,PM2.5,48,52,50
India,Madhya Pradesh,Satna,"Bandhavgar Colony, Satna - Birla Cement",26-01-2026 08:00:00,24.58434363,80.8549414,CO,18,36,32
India,Madhya Pradesh,Satna,"Bandhavgar Colony, Satna - Birla Cement",26-01-2026 08:00:00,24.58434363,80.8549414,OZONE,NA,NA,NA
India,Madhya Pradesh,Singrauli,"Suryakiran Bhawan NCL, Singrauli - MPPCB",26-01-2026 08:00:00,24.108970,82.645580,NO2,8,44,11
India,Maharashtra,Ahmednagar,"Tarakpur, Ahmednagar - MPCB",26-01-2026 08:00:00,19.10122,74.73339,PM10,71,239,126
India,Maharashtra,Ahmednagar,"Tarakpur, Ahmednagar - MPCB",26-01-2026 08:00:00,19.10122,74.73339,NO2,16,27,20
India,Madhya Pradesh,Indore,"Chhoti Gwaltoli, Indore - MPPCB",26-01-2026 08:00:00,22.4310,75.5213,PM2.5,108,272,181
India,Madhya Pradesh,Indore,"Maguda Nagar, Indore - IMC",26-01-2026 08:00:00,22.7524,75.8872,PM10,76,123,99
India,Madhya Pradesh,Indore,"Regional Park, Indore - IMC",26-01-2026 08:00:00,22.6780,75.8559,PM2.5,75,166,100
India,Madhya Pradesh,Indore,"Regional Park, Indore - IMC",26-01-2026 08:00:00,22.6780,75.8559,CO,15,32,18
India,Madhya Pradesh,Indore,"Regional Park, Indore - IMC",26-01-2026 08:00:00,22.6780,75.8559,OZONE,6,6,6
India,Madhya Pradesh,Indore,"Residency Area, Indore - IMC",26-01-2026 08:00:00,22.7084,75.8815,CO,30,46,32
India,Madhya Pradesh,Jabalpur,"Govindh Bhavan Colony, Jabalpur - JMC",26-01-2026 08:00:00,23.163174,79.973061,PM2.5,78,277,200
India,Madhya Pradesh,Jabalpur,"Govindh Bhavan Colony, Jabalpur - JMC",26-01-2026 08:00:00,23.163174,79.973061,CO,27,39,37
India,Madhya Pradesh,Jabalpur,"Gupteshwar, Jabalpur - JMC",26-01-2026 08:00:00,23.142888,79.916147,PM2.5,NA,NA,NA
India,Maharashtra,Aurangabad,"Rachnakar Colony, Aurangabad - MPCB",26-01-2026 08:00:00,19.863756,75.321188,NH3,2,3,2
India,Maharashtra,Aurangabad,"Rachnakar Colony, Aurangabad - MPCB",26-01-2026 08:00:00,19.863756,75.321188,OZONE,14,94,15
India,Maharashtra,Belapur,"CBD Belapur, Belapur - MPCB",26-01-2026 08:00:00,19.0243902,73.0406721,PM2.5,90,185,143
India,Maharashtra,Belapur,"CBD Belapur, Belapur - MPCB",26-01-2026 08:00:00,19.0243902,73.0406721,SO2,7,21,13
India,Maharashtra,Bhiwandi,"Gokul Nagar, Bhiwandi - MPCB",26-01-2026 08:00:00,19.309073,73.057223,PM10,93,195,132
India,Maharashtra,Boisar,"Khaira, Boisar - MPCB",26-01-2026 08:00:00,19.786089,72.757971,PM10,88,119,106
India,Maharashtra,Boisar,"Khaira, Boisar - MPCB",26-01-2026 08:00:00,19.786089,72.757971,NH3,NA,NA,NA
India,Maharashtra,Chandrapur,"Chauhan Colony, Chandrapur - MPCB",26-01-2026 08:00:00,19.962900,79.298714,PM10,96,222,139
India,Madhya Pradesh,Jabalpur,"Suhagi, Jabalpur - JMC",26-01-2026 08:00:00,23.218135,79.957770,PM10,57,140,107
India,Madhya Pradesh,Jabalpur,"Suhagi, Jabalpur - JMC",26-01-2026 08:00:00,23.218135,79.957770,CO,44,111,80
India,Madhya Pradesh,Katni,"Gole Bazar, Katni - MPPCB",26-01-2026 08:00:00,23.50016,80.23284,NH3,4,5,4
India,Madhya Pradesh,Mandideep,"Sector-D Industrial Area, Mandideep - MPPCB",26-01-2026 08:00:00,23.108440,77.511428,PM2.5,132,309,213
India,Madhya Pradesh,Mandideep,"Sector-D Industrial Area, Mandideep - MPPCB",26-01-2026 08:00:00,23.108440,77.511428,PM10,120,198,150
India,Madhya Pradesh,Pithampur,"Sector-2 Industrial Area, Pithampur - MPPCB",26-01-2026 08:00:00,22.624758,75.675238,SO2,5,17,11
India,Madhya Pradesh,Ratlam,"Shasthri Nagar, Ratlam - IPCA Lab",26-01-2026 08:00:00,23.331731,75.045981,NO2,14,40,21
India,Karnataka,Ramanagara,"Vijay Nagar, Ramanagara - KSPCB",26-01-2026 08:00:00,12.733409,77.298051,PM10,2,92,40
India,Karnataka,Tumakuru,"Thimmalapura, Tumakuru - KSPCB",26-01-2026 08:00:00,13.377516,77.099072,PM2.5,55,362,104
India,Karnataka,Vijayapura,"Ibrahimpur, Vijayapura - KSPCB",26-01-2026 08:00:00,16.802639,75.722694,PM2.5,30,31,30
India,Karnataka,Vijayapura,"Ibrahimpur, Vijayapura - KSPCB",26-01-2026 08:00:00,16.802639,75.722694,NH3,1,2,1
India,Karnataka,Yadgir,"Collector Office, Yadgir - KSPCB",26-01-2026 08:00:00,16.7602,77.1428,PM10,41,126,84
India,Karnataka,Yadgir,"Collector Office, Yadgir - KSPCB",26-01-2026 08:00:00,16.7602,77.1428,NO2,4,31,13
India,Kerala,Eloor,"Udyogamandal, Eloor - Kerala PCB",26-01-2026 08:00:00,10.073232,76.302765,NO2,NA,NA,NA
India,Maharashtra,Amravati,"Shivneri Colony, Amravati - MPCB",26-01-2026 08:00:00,20.9402359,77.7895248,NO2,6,46,17
India,Maharashtra,Amravati,"Shivneri Colony, Amravati - MPCB",26-01-2026 08:00:00,20.9402359,77.7895248,SO2,29,36,32
India,Maharashtra,Amravati,"Shivneri Colony, Amravati - MPCB",26-01-2026 08:00:00,20.9402359,77.7895248,CO,15,43,24
India,Maharashtra,Amravati,"Shri Shivaji Science College, Amravati - MPCB",26-01-2026 08:00:00,20.939198,77.765701,PM10,81,199,124
India,Maharashtra,Amravati,"Shri Shivaji Science College, Amravati - MPCB",26-01-2026 08:00:00,20.939198,77.765701,OZONE,2,85,42
India,Maharashtra,Aurangabad,"MIDC Chilkalthana, Aurangabad - MPCB",26-01-2026 08:00:00,19.875620,75.387310,NH3,1,3,2
India,Maharashtra,Aurangabad,"More Chowk Waluj, Aurangabad - MPCB",26-01-2026 08:00:00,19.8389439,75.244448,PM2.5,54,101,72
India,Kerala,Kollam,"Polayathode, Kollam - Kerala PCB",26-01-2026 08:00:00,8.8787,76.6073,NH3,1,1,1
India,Kerala,Kollam,"Polayathode, Kollam - Kerala PCB",26-01-2026 08:00:00,8.8787,76.6073,SO2,2,3,2
India,Kerala,Kollam,"Polayathode, Kollam - Kerala PCB",26-01-2026 08:00:00,8.8787,76.6073,CO,12,18,15
India,Kerala,Thiruvananthapuram,"Kariavattom, Thiruvananthapuram - Kerala PCB",26-01-2026 08:00:00,8.563700,76.886500,PM10,37,85,59
India,Kerala,Thiruvananthapuram,"Plammoodu, Thiruvananthapuram - Kerala PCB",26-01-2026 08:00:00,8.5149093,76.9435879,PM2.5,15,42,27
India,Maharashtra,Navi Mumbai,"Sanpada, Navi Mumbai - MPCB",26-01-2026 08:00:00,19.0575752,73.0151367,OZONE,14,239,239
India,Maharashtra,Navi Mumbai,"Sector-2E Kalamboli, Navi Mumbai - MPCB",26-01-2026 08:00:00,19.02579,73.10297,NH3,6,18,12
India,Maharashtra,Navi Mumbai,"Sector-2E Kalamboli, Navi Mumbai - MPCB",26-01-2026 08:00:00,19.02579,73.10297,OZONE,NA,NA,NA
India,Maharashtra,Navi Mumbai,"Tondare-Taloja, Navi Mumbai - MPCB",26-01-2026 08:00:00,19.0630,73.1209,NH3,5,6,6
India,Maharashtra,Parbhani,"Masoom Colony, Parbhani - MPCB",26-01-2026 08:00:00,19.265594,76.761463,PM10,55,118,97
India,Maharashtra,Pimpri-Chinchwad,"Gavalinagar, Pimpri Chinchwad - MPCB",26-01-2026 08:00:00,18.63673,73.82487,CO,22,107,78
India,Maharashtra,Pimpri-Chinchwad,"Park Street Wakad, Pimpri Chinchwad - MPCB",26-01-2026 08:00:00,18.59051,73.77946,NO2,42,97,63
India,Maharashtra,Pimpri-Chinchwad,"Park Street Wakad, Pimpri Chinchwad - MPCB",26-01-2026 08:00:00,18.59051,73.77946,SO2,2,9,5
India,Maharashtra,Pimpri-Chinchwad,"Park Street Wakad, Pimpri Chinchwad - MPCB",26-01-2026 08:00:00,18.59051,73.77946,OZONE,1,117,4
India,Maharashtra,Pimpri-Chinchwad,"Savta Mali Nagar, Pimpri-Chinchwad - IITM",26-01-2026 08:00:00,18.614767,73.799516,PM10,96,193,141
India,Maharashtra,Pimpri-Chinchwad,"Savta Mali Nagar, Pimpri-Chinchwad - IITM",26-01-2026 08:00:00,18.614767,73.799516,NO2,17,130,72
India,Maharashtra,Mumbai,"Mulund West, Mumbai - MPCB",26-01-2026 08:00:00,19.1750,72.9419,NH3,3,5,4
India,Maharashtra,Mumbai,"Navy Nagar-Colaba, Mumbai - IITM",26-01-2026 08:00:00,18.897756,72.813320,PM10,115,162,134
India,Maharashtra,Mumbai,"Siddharth Nagar-Worli, Mumbai - IITM",26-01-2026 08:00:00,19.000083,72.813993,PM2.5,68,136,91
India,Maharashtra,Mumbai,"Siddharth Nagar-Worli, Mumbai - IITM",26-01-2026 08:00:00,19.000083,72.813993,NO2,45,110,74
India,Maharashtra,Mumbai,"Sion, Mumbai - MPCB",26-01-2026 08:00:00,19.047000,72.874600,PM10,73,242,130
India,Maharashtra,Mumbai,"Sion, Mumbai - MPCB",26-01-2026 08:00:00,19.047000,72.874600,NH3,6,7,6
India,Maharashtra,Mumbai,"Sion, Mumbai - MPCB",26-01-2026 08:00:00,19.047000,72.874600,OZONE,14,21,19
India,Maharashtra,Mumbai,"Vile Parle West, Mumbai - MPCB",26-01-2026 08:00:00,19.10861,72.83622,PM2.5,60,146,94
India,Maharashtra,Mumbai,"Vile Parle West, Mumbai - MPCB",26-01-2026 08:00:00,19.10861,72.83622,PM10,92,158,124
India,Maharashtra,Mumbai,"Vile Parle West, Mumbai - MPCB",26-01-2026 08:00:00,19.10861,72.83622,NO2,11,11,11
India,Maharashtra,Mumbai,"Vile Parle West, Mumbai - MPCB",26-01-2026 08:00:00,19.10861,72.83622,CO,82,101,95
India,Maharashtra,Nagpur,"Mahal, Nagpur - MPCB",26-01-2026 08:00:00,21.14472,79.107595,PM2.5,1,308,138
India,Maharashtra,Chandrapur,"MIDC Khutala, Chandrapur - MPCB",26-01-2026 08:00:00,19.9775302,79.2337086,CO,36,41,39
India,Maharashtra,Dhule,"Deopur, Dhule - MPCB",26-01-2026 08:00:00,20.918946,74.776388,NO2,8,57,23
India,Maharashtra,Jalgaon,"Prabhat Colony, Jalgaon - MPCB",26-01-2026 08:00:00,21.001264,75.565602,PM10,80,142,110
India,Maharashtra,Jalgaon,"Prabhat Colony, Jalgaon - MPCB",26-01-2026 08:00:00,21.001264,75.565602,NO2,3,25,8
India,Maharashtra,Jalgaon,"Prabhat Colony, Jalgaon - MPCB",26-01-2026 08:00:00,21.001264,75.565602,SO2,NA,NA,NA
India,Maharashtra,Jalgaon,"Prabhat Colony, Jalgaon - MPCB",26-01-2026 08:00:00,21.001264,75.565602,CO,20,44,21
India,Maharashtra,Jalna,"Old MIDC, Jalna - MPCB",26-01-2026 08:00:00,19.854616,75.905894,NH3,NA,NA,NA
India,Maharashtra,Kalyan,"Pimpleshwar Mandir, Kalyan - MPCB",26-01-2026 08:00:00,19.192056,72.9585188,PM10,110,184,149
India,Maharashtra,Kolhapur,"Shivaji University, Kolhapur - MPCB",26-01-2026 08:00:00,16.6870449,74.2505872,PM2.5,64,146,99
India,Maharashtra,Kolhapur,"Shivaji University, Kolhapur - MPCB",26-01-2026 08:00:00,16.6870449,74.2505872,CO,12,49,36
India,Maharashtra,Kolhapur,"Shivaji University, Kolhapur - MPCB",26-01-2026 08:00:00,16.6870449,74.2505872,OZONE,2,38,5
India,Maharashtra,Kolhapur,"Sinchan Bhavan, Kolhapur - MPCB",26-01-2026 08:00:00,16.7143745,74.2426398,PM10,50,83,60
India,Maharashtra,Kolhapur,"Sinchan Bhavan, Kolhapur - MPCB",26-01-2026 08:00:00,16.7143745,74.2426398,CO,3,9,7
India,Maharashtra,Latur,"Sawe Wadi, Latur - MPCB",26-01-2026 08:00:00,18.39963,76.57452,OZONE,2,55,36
India,Maharashtra,Mahad,"Kamble Tarf Birwadi, Mahad - MPCB",26-01-2026 08:00:00,18.1023399,73.4783687,NO2,22,111,36
India,Maharashtra,Mira-Bhayandar,"Bhayandar West, Mira-Bhayandar - MPCB",26-01-2026 08:00:00,19.296481,72.840923,PM2.5,83,201,121
India,Maharashtra,Mumbai,"Bandra Kurla Complex, Mumbai - IITM",26-01-2026 08:00:00,19.053536,72.84643,PM10,111,162,136
India,Maharashtra,Mumbai,"Bandra Kurla Complex, Mumbai - MPCB",26-01-2026 08:00:00,19.065931,72.862131,CO,14,18,16
India,Maharashtra,Mumbai,"Borivali East, Mumbai - IITM",26-01-2026 08:00:00,19.23241,72.86895,PM10,92,149,118
India,Maharashtra,Mumbai,"Borivali East, Mumbai - MPCB",26-01-2026 08:00:00,19.2243333,72.8658113,NO2,NA,NA,NA
India,Maharashtra,Mumbai,"Byculla, Mumbai - BMC",26-01-2026 08:00:00,18.9767,72.8380,NH3,10,33,19
India,Maharashtra,Mumbai,"Chakala-Andheri East, Mumbai - IITM",26-01-2026 08:00:00,19.11074,72.86084,PM2.5,110,199,147
India,Maharashtra,Mumbai,"Chakala-Andheri East, Mumbai - IITM",26-01-2026 08:00:00,19.11074,72.86084,NH3,12,41,20
India,Maharashtra,Mumbai,"Chembur, Mumbai - MPCB",26-01-2026 08:00:00,19.0364585,72.8954371,PM2.5,67,106,83
India,Maharashtra,Mumbai,"Chembur, Mumbai - MPCB",26-01-2026 08:00:00,19.0364585,72.8954371,NO2,19,88,49
India,Maharashtra,Nagpur,"Mahal, Nagpur - MPCB",26-01-2026 08:00:00,21.14472,79.107595,SO2,2,83,51
India,Maharashtra,Nagpur,"Mahal, Nagpur - MPCB",26-01-2026 08:00:00,21.14472,79.107595,OZONE,5,59,14
India,Maharashtra,Nagpur,"Opp GPO Civil Lines, Nagpur - MPCB",26-01-2026 08:00:00,21.152875,79.0517531,NH3,6,17,11
India,Maharashtra,Nagpur,"Opp GPO Civil Lines, Nagpur - MPCB",26-01-2026 08:00:00,21.152875,79.0517531,OZONE,2,56,4
India,Maharashtra,Nanded,"Sneh Nagar, Nanded - MPCB",26-01-2026 08:00:00,19.173852,77.296291,OZONE,NA,NA,NA
India,Maharashtra,Nashik,"Gangapur Road, Nashik - MPCB",26-01-2026 08:00:00,20.0073285,73.7762427,PM10,62,153,95
India,Maharashtra,Nashik,"Hirawadi, Nashik - MPCB",26-01-2026 08:00:00,20.021503,73.813844,NH3,2,8,4
India,Maharashtra,Mumbai,"Chhatrapati Shivaji Intl. Airport (T2), Mumbai - MPCB",26-01-2026 08:00:00,19.10078,72.87462,OZONE,7,8,7
India,Maharashtra,Mumbai,"Colaba, Mumbai - MPCB",26-01-2026 08:00:00,18.910000,72.820000,PM2.5,65,155,95
India,Maharashtra,Mumbai,"Colaba, Mumbai - MPCB",26-01-2026 08:00:00,18.910000,72.820000,CO,61,78,70
India,Maharashtra,Mumbai,"Deonar, Mumbai - IITM",26-01-2026 08:00:00,19.04946,72.9230,PM10,109,161,139
India,Maharashtra,Mumbai,"Deonar, Mumbai - IITM",26-01-2026 08:00:00,19.04946,72.9230,OZONE,1,26,3
India,Maharashtra,Mumbai,"Ghatkopar, Mumbai - BMC",26-01-2026 08:00:00,19.083694,72.920967,CO,8,48,31
India,Maharashtra,Mumbai,"Ghatkopar, Mumbai - BMC",26-01-2026 08:00:00,19.083694,72.920967,OZONE,1,67,2
India,Maharashtra,Mumbai,"Khindipada-Bhandup West, Mumbai - IITM",26-01-2026 08:00:00,19.1653323,72.922099,PM10,74,128,102
India,Maharashtra,Mumbai,"Khindipada-Bhandup West, Mumbai - IITM",26-01-2026 08:00:00,19.1653323,72.922099,NO2,19,42,28
India,Maharashtra,Mumbai,"Khindipada-Bhandup West, Mumbai - IITM",26-01-2026 08:00:00,19.1653323,72.922099,NH3,8,10,9
India,Maharashtra,Mumbai,"Khindipada-Bhandup West, Mumbai - IITM",26-01-2026 08:00:00,19.1653323,72.922099,OZONE,26,82,48
India,Maharashtra,Mumbai,"Malad West, Mumbai - IITM",26-01-2026 08:00:00,19.19709,72.82204,SO2,4,26,13
India,Maharashtra,Mumbai,"Mindspace-Malad West, Mumbai - MPCB",26-01-2026 08:00:00,19.1878657,72.8304069,CO,24,96,88
India,Maharashtra,Nashik,"MIDC Ambad, Nashik - MPCB",26-01-2026 08:00:00,19.950220,73.731480,PM2.5,NA,NA,NA
India,Maharashtra,Navi Mumbai,"Sanpada, Navi Mumbai - MPCB",26-01-2026 08:00:00,19.0575752,73.0151367,PM10,83,203,133
India,Maharashtra,Navi Mumbai,"Sanpada, Navi Mumbai - MPCB",26-01-2026 08:00:00,19.0575752,73.0151367,NH3,13,13,13
India,Odisha,Angul,"Hakimapada, Angul - OSPCB",26-01-2026 08:00:00,20.832874,85.104082,CO,52,111,78
India,Odisha,Balasore,"Kalidaspur, Balasore - OSPCB",26-01-2026 08:00:00,21.51161,86.89088,PM10,115,389,208
India,Odisha,Balasore,"Kalidaspur, Balasore - OSPCB",26-01-2026 08:00:00,21.51161,86.89088,NO2,13,59,28
India,Odisha,Balasore,"Kalidaspur, Balasore - OSPCB",26-01-2026 08:00:00,21.51161,86.89088,NH3,2,7,3
India,Odisha,Balasore,"Kalidaspur, Balasore - OSPCB",26-01-2026 08:00:00,21.51161,86.89088,OZONE,53,164,69
India,Odisha,Barbil,"Forest Office, Barbil - OSPCB",26-01-2026 08:00:00,22.1166054,85.3945546,SO2,12,104,27
India,Odisha,Barbil,"Forest Office, Barbil - OSPCB",26-01-2026 08:00:00,22.1166054,85.3945546,OZONE,2,96,6
India,Odisha,Baripada,"Meher Colony, Baripada - OSPCB",26-01-2026 08:00:00,21.941841,86.728318,NO2,NA,NA,NA
India,Odisha,Baripada,"Meher Colony, Baripada - OSPCB",26-01-2026 08:00:00,21.941841,86.728318,SO2,NA,NA,NA
India,Odisha,Bhubaneswar,"Lingraj Mandir, Bhubaneswar - OSPCB",26-01-2026 08:00:00,20.240790,85.836784,NO2,23,119,49
India,Odisha,Bhubaneswar,"Lingraj Mandir, Bhubaneswar - OSPCB",26-01-2026 08:00:00,20.240790,85.836784,OZONE,11,253,36
India,Odisha,Bhubaneswar,"Patia, Bhubaneswar - OSPCB",26-01-2026 08:00:00,20.34652,85.81630,NO2,16,92,34
India,Odisha,Bhubaneswar,"Patia, Bhubaneswar - OSPCB",26-01-2026 08:00:00,20.34652,85.81630,CO,106,133,110
India,Odisha,Bileipada,"Tata Township, Bileipada - OSPCB",26-01-2026 08:00:00,22.06156703,85.47409613,PM2.5,187,329,270
India,Punjab,Rupnagar,"Ratanpura, Rupnagar - Ambuja Cements",26-01-2026 08:00:00,31.0325454,76.5623046,PM10,10,62,37
India,Punjab,Rupnagar,"Ratanpura, Rupnagar - Ambuja Cements",26-01-2026 08:00:00,31.0325454,76.5623046,NO2,4,5,5
India,Rajasthan,Ajmer,"Civil Lines,  Ajmer - RSPCB",26-01-2026 08:00:00,26.470859,74.646594,PM2.5,59,123,80
India,Rajasthan,Ajmer,"Civil Lines,  Ajmer - RSPCB",26-01-2026 08:00:00,26.470859,74.646594,NH3,4,4,4
India,Rajasthan,Alwar,"Moti Doongri, Alwar - RSPCB",26-01-2026 08:00:00,27.554793,76.611536,PM2.5,72,139,83
India,Rajasthan,Alwar,"Moti Doongri, Alwar - RSPCB",26-01-2026 08:00:00,27.554793,76.611536,NH3,7,14,12
India,Rajasthan,Alwar,"Moti Doongri, Alwar - RSPCB",26-01-2026 08:00:00,27.554793,76.611536,SO2,8,46,26
India,Rajasthan,Banswara,"Rati Talai, Banswara - RSPCB",26-01-2026 08:00:00,23.555190,74.440010,CO,16,38,21
India,Rajasthan,Baran,"Bamboliya, Baran - RSPCB",26-01-2026 08:00:00,25.106006,76.469948,OZONE,3,89,34
India,Rajasthan,Barmer,"Railway Colony, Barmer - RSPCB",26-01-2026 08:00:00,25.747299,71.393989,PM2.5,43,78,59
India,Rajasthan,Barmer,"Railway Colony, Barmer - RSPCB",26-01-2026 08:00:00,25.747299,71.393989,CO,48,66,50
India,Odisha,Rairangpur,"Divisional Forest Office, Rairangpur - OSPCB",26-01-2026 08:00:00,22.265816,86.174829,SO2,10,102,45
India,Odisha,Rourkela,"Fertilizer Township, Rourkela - OSPCB",26-01-2026 08:00:00,22.18972222,84.86277778,NO2,11,11,11
India,Odisha,Rourkela,"Sector-2, Rourkela - OSPCB",26-01-2026 08:00:00,22.24500000,84.88111111,CO,32,54,38
India,Odisha,Suakati,"OMC Colony, Suakati - OSPCB",26-01-2026 08:00:00,21.606865,85.510538,NO2,8,8,8
India,Puducherry,Puducherry,"Jawahar Nagar, Puducherry - PPCC",26-01-2026 08:00:00,11.9309,79.8027,PM2.5,8,44,19
India,Puducherry,Puducherry,"Jawahar Nagar, Puducherry - PPCC",26-01-2026 08:00:00,11.9309,79.8027,PM10,5,47,16
India,Puducherry,Puducherry,"Jawahar Nagar, Puducherry - PPCC",26-01-2026 08:00:00,11.9309,79.8027,OZONE,23,48,29
India,Punjab,Amritsar,"Golden Temple, Amritsar - PPCB",26-01-2026 08:00:00,31.620000,74.876512,PM2.5,47,118,77
India,Punjab,Amritsar,"Golden Temple, Amritsar - PPCB",26-01-2026 08:00:00,31.620000,74.876512,PM10,63,129,97
India,Maharashtra,Thane,"Upvan Fort, Thane - MPCB",26-01-2026 08:00:00,19.222279,72.957979,NO2,47,51,49
India,Maharashtra,Thane,"Upvan Fort, Thane - MPCB",26-01-2026 08:00:00,19.222279,72.957979,NH3,3,3,3
India,Maharashtra,Thane,"Upvan Fort, Thane - MPCB",26-01-2026 08:00:00,19.222279,72.957979,CO,32,64,47
India,Maharashtra,Virar,"Bolinj, Virar - MPCB",26-01-2026 08:00:00,19.4458210,72.7988231,NO2,16,72,34
India,Maharashtra,Virar,"Bolinj, Virar - MPCB",26-01-2026 08:00:00,19.4458210,72.7988231,SO2,6,19,12
India,Maharashtra,Virar,"Bolinj, Virar - MPCB",26-01-2026 08:00:00,19.4458210,72.7988231,CO,28,127,78
India,Meghalaya,Shillong,"Lumpyngngad, Shillong - Meghalaya PCB",26-01-2026 08:00:00,25.5586,91.8985,PM2.5,5,97,33
India,Mizoram,Aizawl,"Sikulpuikawn, Aizawl - Mizoram PCB",26-01-2026 08:00:00,23.7176342,92.7192841,PM2.5,52,62,57
India,Nagaland,Kohima,"PWD Junction, Kohima - NPCB",26-01-2026 08:00:00,25.6635413,94.0989878,SO2,75,79,77
India,Maharashtra,Pune,"Savitribai Phule Pune University, Pune - MPCB",26-01-2026 08:00:00,18.547056,73.826908,PM2.5,55,101,83
India,Maharashtra,Pune,"Savitribai Phule Pune University, Pune - MPCB",26-01-2026 08:00:00,18.547056,73.826908,PM10,67,119,99
India,Maharashtra,Pune,"Savitribai Phule Pune University, Pune - MPCB",26-01-2026 08:00:00,18.547056,73.826908,OZONE,NA,NA,NA
India,Maharashtra,Pune,"Transport Nagar-Nigdi, Pune - IITM",26-01-2026 08:00:00,18.664282,73.763966,PM2.5,76,188,114
India,Maharashtra,Pune,"Transport Nagar-Nigdi, Pune - IITM",26-01-2026 08:00:00,18.664282,73.763966,PM10,128,214,160
India,Maharashtra,Solapur,"Ratandeep Housing Society, Solapur - MPCB",26-01-2026 08:00:00,17.65439,75.90649,PM10,83,162,118
India,Maharashtra,Solapur,"Ratandeep Housing Society, Solapur - MPCB",26-01-2026 08:00:00,17.65439,75.90649,CO,18,111,28
India,Maharashtra,Thane,"Kasarvadavali, Thane - MPCB",26-01-2026 08:00:00,19.26777,72.97182,NO2,30,99,56
India,Maharashtra,Thane,"Kasarvadavali, Thane - MPCB",26-01-2026 08:00:00,19.26777,72.97182,CO,16,64,38
India,Punjab,Amritsar,"Golden Temple, Amritsar - PPCB",26-01-2026 08:00:00,31.620000,74.876512,NO2,54,144,99
India,Punjab,Amritsar,"Golden Temple, Amritsar - PPCB",26-01-2026 08:00:00,31.620000,74.876512,SO2,16,25,20
India,Punjab,Bathinda,"Hardev Nagar, Bathinda - PPCB",26-01-2026 08:00:00,30.233011,74.907758,PM2.5,17,57,39
India,Punjab,Jalandhar,"Civil Line, Jalandhar - PPCB",26-01-2026 08:00:00,31.321907,75.578914,PM10,72,195,111
India,Punjab,Khanna,"Kalal Majra, Khanna - PPCB",26-01-2026 08:00:00,30.736056 ,76.209694,NO2,26,30,28
India,Punjab,Khanna,"Kalal Majra, Khanna - PPCB",26-01-2026 08:00:00,30.736056 ,76.209694,SO2,NA,NA,NA
India,Punjab,Khanna,"Kalal Majra, Khanna - PPCB",26-01-2026 08:00:00,30.736056 ,76.209694,CO,66,77,72
India,Punjab,Ludhiana,"Punjab Agricultural University, Ludhiana - PPCB",26-01-2026 08:00:00,30.9028,75.8086,CO,20,66,30
India,Maharashtra,Pimpri-Chinchwad,"Thergaon, Pimpri Chinchwad - MPCB",26-01-2026 08:00:00,18.616318,73.765797,NO2,37,106,69
India,Maharashtra,Pune,"Bhumkar Nagar, Pune - IITM",26-01-2026 08:00:00,18.605770,73.749976,PM2.5,145,312,224
India,Maharashtra,Pune,"Bhumkar Nagar, Pune - IITM",26-01-2026 08:00:00,18.605770,73.749976,PM10,119,216,158
India,Maharashtra,Pune,"Dhankawadi, Pune - IITM",26-01-2026 08:00:00,18.459883,73.852193,PM10,73,197,132
India,Maharashtra,Pune,"Panchawati_Pashan, Pune - IITM",26-01-2026 08:00:00,18.536457,73.805454,NO2,6,32,12
India,Maharashtra,Pune,"Panchawati_Pashan, Pune - IITM",26-01-2026 08:00:00,18.536457,73.805454,CO,22,44,27
India,Maharashtra,Pune,"Revenue Colony-Shivajinagar, Pune - IITM",26-01-2026 08:00:00,18.530085,73.849598,PM10,38,410,187
India,Maharashtra,Pune,"Revenue Colony-Shivajinagar, Pune - IITM",26-01-2026 08:00:00,18.530085,73.849598,NO2,41,107,64
India,Odisha,Byasanagar,"Ferro Chrome Colony, Byasanagar - OSPCB",26-01-2026 08:00:00,20.94185,86.11510,OZONE,49,213,55
India,Odisha,Keonjhar,"Jagamohanpur, Keonjhar - OSPCB",26-01-2026 08:00:00,21.643900,85.599355,SO2,4,47,14
India,Odisha,Rairangpur,"Divisional Forest Office, Rairangpur - OSPCB",26-01-2026 08:00:00,22.265816,86.174829,PM2.5,58,118,81
India,Odisha,Rairangpur,"Divisional Forest Office, Rairangpur - OSPCB",26-01-2026 08:00:00,22.265816,86.174829,NO2,11,12,11
India,Odisha,Rairangpur,"Divisional Forest Office, Rairangpur - OSPCB",26-01-2026 08:00:00,22.265816,86.174829,NH3,1,1,1
India,Odisha,Brajrajnagar,"GM Office, Brajrajnagar - OSPCB",26-01-2026 08:00:00,21.8004996,83.8396977,NH3,10,10,10
India,Odisha,Brajrajnagar,"GM Office, Brajrajnagar - OSPCB",26-01-2026 08:00:00,21.8004996,83.8396977,CO,2,56,30
India,Odisha,Brajrajnagar,"GM Office, Brajrajnagar - OSPCB",26-01-2026 08:00:00,21.8004996,83.8396977,OZONE,29,32,30
India,Rajasthan,Jaipur,"Adarsh Nagar, Jaipur - RSPCB",26-01-2026 08:00:00,26.902909,75.836858,NH3,12,29,16
India,Rajasthan,Jaipur,"Adarsh Nagar, Jaipur - RSPCB",26-01-2026 08:00:00,26.902909,75.836858,CO,38,112,45
India,Rajasthan,Jaipur,"Mansarovar Sector-12, Jaipur - RSPCB",26-01-2026 08:00:00,26.843698,75.766894,PM10,84,341,152
India,Rajasthan,Jaipur,"Mansarovar Sector-12, Jaipur - RSPCB",26-01-2026 08:00:00,26.843698,75.766894,NO2,16,135,56
India,Rajasthan,Jaipur,"Mansarovar Sector-12, Jaipur - RSPCB",26-01-2026 08:00:00,26.843698,75.766894,NH3,7,13,10
India,Rajasthan,Jaipur,"Mansarovar Sector-12, Jaipur - RSPCB",26-01-2026 08:00:00,26.843698,75.766894,OZONE,2,241,54
India,Rajasthan,Jaipur,"Police Commissionerate, Jaipur - RSPCB",26-01-2026 08:00:00,26.9164092,75.7994901,NH3,5,17,10
India,Rajasthan,Jaipur,"Police Commissionerate, Jaipur - RSPCB",26-01-2026 08:00:00,26.9164092,75.7994901,SO2,23,33,27
India,Rajasthan,Jaipur,"Police Commissionerate, Jaipur - RSPCB",26-01-2026 08:00:00,26.9164092,75.7994901,OZONE,16,60,30
India,Rajasthan,Jaipur,"RIICO Sitapura, Jaipur - RSPCB",26-01-2026 08:00:00,26.786682,75.827928,PM2.5,40,359,168
India,Rajasthan,Jaipur,"RIICO Sitapura, Jaipur - RSPCB",26-01-2026 08:00:00,26.786682,75.827928,PM10,84,282,145
India,Rajasthan,Jaipur,"RIICO Sitapura, Jaipur - RSPCB",26-01-2026 08:00:00,26.786682,75.827928,SO2,7,11,8
India,Rajasthan,Jaipur,"Sector-2 Murlipura, Jaipur - RSPCB",26-01-2026 08:00:00,26.960669,75.771817,PM10,51,238,118
India,Rajasthan,Jaipur,"Sector-2 Murlipura, Jaipur - RSPCB",26-01-2026 08:00:00,26.960669,75.771817,CO,38,105,61
India,Rajasthan,Jaipur,"Shastri Nagar, Jaipur - RSPCB",26-01-2026 08:00:00,26.9502929,75.730943,PM10,94,152,118
India,Rajasthan,Jaipur,"Shastri Nagar, Jaipur - RSPCB",26-01-2026 08:00:00,26.9502929,75.730943,NH3,9,20,13
India,Rajasthan,Sawai Madhopur,"Sahu Nagar, Sawai Madhopur - RSPCB",26-01-2026 08:00:00,26.031443,76.359327,PM2.5,22,322,98
India,Rajasthan,Sikar,"Radhakishan Pura, Sikar - RSPCB",26-01-2026 08:00:00,27.608912,75.153302,PM2.5,42,308,159
India,Rajasthan,Sikar,"Radhakishan Pura, Sikar - RSPCB",26-01-2026 08:00:00,27.608912,75.153302,SO2,2,10,5
India,Rajasthan,Sirohi,"Vedhaynath Colony, Sirohi - RSPCB",26-01-2026 08:00:00,24.885261,72.857549,PM2.5,30,98,58
India,Rajasthan,Sri Ganganagar,"Old City, Sri Ganganagar - RSPCB",26-01-2026 08:00:00,29.931624,73.864511,PM2.5,73,389,221
India,Rajasthan,Sri Ganganagar,"Old City, Sri Ganganagar - RSPCB",26-01-2026 08:00:00,29.931624,73.864511,PM10,86,409,178
India,Rajasthan,Sri Ganganagar,"Old City, Sri Ganganagar - RSPCB",26-01-2026 08:00:00,29.931624,73.864511,SO2,3,9,5
India,Rajasthan,Tonk,"Shastri Nagar, Tonk - RSPCB",26-01-2026 08:00:00,26.159933,75.780517,NO2,15,99,27
India,Rajasthan,Tonk,"Shastri Nagar, Tonk - RSPCB",26-01-2026 08:00:00,26.159933,75.780517,SO2,1,5,3
India,Rajasthan,Udaipur,"Ashok Nagar, Udaipur - RSPCB",26-01-2026 08:00:00,24.5886166,73.6321397,NO2,2,35,12
India,Rajasthan,Udaipur,"Ashok Nagar, Udaipur - RSPCB",26-01-2026 08:00:00,24.5886166,73.6321397,NH3,4,7,5
India,Rajasthan,Udaipur,"Ashok Nagar, Udaipur - RSPCB",26-01-2026 08:00:00,24.5886166,73.6321397,CO,5,122,30
India,Rajasthan,Bharatpur,"Krishna Nagar, Bharatpur - RSPCB",26-01-2026 08:00:00,27.215415,77.50873,PM10,55,215,128
India,Rajasthan,Bharatpur,"Krishna Nagar, Bharatpur - RSPCB",26-01-2026 08:00:00,27.215415,77.50873,NH3,7,18,11
India,Rajasthan,Bhilwara,"Pratap Nagar, Bhilwara - RSPCB",26-01-2026 08:00:00,25.339605,74.618883,PM10,64,144,97
India,Rajasthan,Bhilwara,"Pratap Nagar, Bhilwara - RSPCB",26-01-2026 08:00:00,25.339605,74.618883,OZONE,22,60,31
India,Rajasthan,Bhiwadi,"RIICO Ind. Area III, Bhiwadi - RSPCB",26-01-2026 08:00:00,28.194909,76.862296,PM10,142,220,176
India,Rajasthan,Bhiwadi,"RIICO Ind. Area III, Bhiwadi - RSPCB",26-01-2026 08:00:00,28.194909,76.862296,NH3,3,12,7
India,Rajasthan,Bhiwadi,"RIICO Ind. Area III, Bhiwadi - RSPCB",26-01-2026 08:00:00,28.194909,76.862296,OZONE,6,50,9
India,Rajasthan,Bhiwadi,"Vasundhara Nagar_UIT, Bhiwadi - RSPCB",26-01-2026 08:00:00,28.207266,76.829265,PM10,123,302,194
India,Rajasthan,Bhiwadi,"Vasundhara Nagar_UIT, Bhiwadi - RSPCB",26-01-2026 08:00:00,28.207266,76.829265,NH3,5,6,5
India,Rajasthan,Bikaner,"MM Ground, Bikaner - RSPCB",26-01-2026 08:00:00,28.018792,73.292658,CO,23,104,40
India,Rajasthan,Bundi,"New Colony, Bundi - RSPCB",26-01-2026 08:00:00,25.435774,75.644272,PM10,43,121,75
India,Rajasthan,Bundi,"New Colony, Bundi - RSPCB",26-01-2026 08:00:00,25.435774,75.644272,CO,16,62,20
India,TamilNadu,Chennai,"Royapuram, Chennai - TNPCB",26-01-2026 08:00:00,13.1036,80.2909,CO,46,58,52
India,TamilNadu,Coimbatore,"PSG College of Arts and Science, Coimbatore - TNPCB",26-01-2026 08:00:00,11.0328,77.0349,PM2.5,43,127,74
India,TamilNadu,Coimbatore,"PSG College of Arts and Science, Coimbatore - TNPCB",26-01-2026 08:00:00,11.0328,77.0349,NO2,10,11,11
India,TamilNadu,Coimbatore,"PSG College of Arts and Science, Coimbatore - TNPCB",26-01-2026 08:00:00,11.0328,77.0349,SO2,3,13,4
India,TamilNadu,Coimbatore,"PSG College of Arts and Science, Coimbatore - TNPCB",26-01-2026 08:00:00,11.0328,77.0349,OZONE,2,6,5
India,TamilNadu,Coimbatore,"SIDCO Kurichi, Coimbatore - TNPCB",26-01-2026 08:00:00,10.942451,76.978996,PM10,16,49,35
India,TamilNadu,Coimbatore,"SIDCO Kurichi, Coimbatore - TNPCB",26-01-2026 08:00:00,10.942451,76.978996,OZONE,10,10,10
India,TamilNadu,Cuddalore,"Kudikadu, Cuddalore - TNPCB",26-01-2026 08:00:00,11.6829898,79.7532099,NO2,19,20,19
India,TamilNadu,Madurai,"Uchapatti, Madurai - TNPCB",26-01-2026 08:00:00,9.865935,78.022669,PM10,7,37,24
India,TamilNadu,Madurai,"Uchapatti, Madurai - TNPCB",26-01-2026 08:00:00,9.865935,78.022669,OZONE,1,5,1
India,Rajasthan,Jodhpur,"Jhalamand, Jodhpur - RSPCB",26-01-2026 08:00:00,26.215415,73.070156,SO2,4,8,6
India,Rajasthan,Jodhpur,"Jhalamand, Jodhpur - RSPCB",26-01-2026 08:00:00,26.215415,73.070156,OZONE,31,84,43
India,Rajasthan,Jodhpur,"Mandor, Jodhpur - RSPCB",26-01-2026 08:00:00,26.358805,73.047444,PM2.5,47,163,73
India,Rajasthan,Jodhpur,"Mandor, Jodhpur - RSPCB",26-01-2026 08:00:00,26.358805,73.047444,PM10,56,123,83
India,Rajasthan,Jodhpur,"Mandor, Jodhpur - RSPCB",26-01-2026 08:00:00,26.358805,73.047444,NH3,2,4,3
India,Rajasthan,Jodhpur,"Mandor, Jodhpur - RSPCB",26-01-2026 08:00:00,26.358805,73.047444,CO,23,38,32
India,Rajasthan,Jodhpur,"Samrat Ashok Udhyan, Jodhpur - RSPCB",26-01-2026 08:00:00,26.253384,72.976571,PM2.5,20,117,47
India,Rajasthan,Jodhpur,"Samrat Ashok Udhyan, Jodhpur - RSPCB",26-01-2026 08:00:00,26.253384,72.976571,PM10,48,125,71
India,Rajasthan,Karauli,"Satyawati Vihar, Karauli - RSPCB",26-01-2026 08:00:00,26.506177,77.025989,CO,34,102,42
India,Rajasthan,Kota,"Dhanmandi, Kota - RSPCB",26-01-2026 08:00:00,25.164090,75.858137,PM10,97,212,134
India,Rajasthan,Jalore,"Mudtra Sili, Jalore - RSPCB",26-01-2026 08:00:00,25.344694,72.626208,PM2.5,40,127,65
India,Rajasthan,Jhalawar,"Rajlaxmi Nagar, Jhalawar - RSPCB",26-01-2026 08:00:00,24.588397,76.172782,PM10,105,159,125
India,Rajasthan,Jhalawar,"Rajlaxmi Nagar, Jhalawar - RSPCB",26-01-2026 08:00:00,24.588397,76.172782,OZONE,8,68,16
India,Rajasthan,Jhunjhunu,"Indra Nagar, Jhunjhunu - RSPCB",26-01-2026 08:00:00,28.108988,75.386577,NO2,17,128,54
India,Rajasthan,Jodhpur,"Collectorate, Jodhpur - RSPCB",26-01-2026 08:00:00,26.268249,73.0193853,PM10,38,117,59
India,Rajasthan,Jodhpur,"Digari Kalan, Jodhpur - RSPCB",26-01-2026 08:00:00,26.295810,73.082283,PM10,26,76,49
India,Sikkim,Gangtok,"Zero Point GICI, Gangtok - SSPCB",26-01-2026 08:00:00,27.338530,88.614099,PM2.5,32,62,48
India,Sikkim,Gangtok,"Zero Point GICI, Gangtok - SSPCB",26-01-2026 08:00:00,27.338530,88.614099,SO2,1,1,1
India,Sikkim,Gangtok,"Zero Point GICI, Gangtok - SSPCB",26-01-2026 08:00:00,27.338530,88.614099,CO,8,30,11
India,TamilNadu,Chennai,"Manali Village, Chennai - TNPCB",26-01-2026 08:00:00,13.1662,80.2584,SO2,14,16,15
India,TamilNadu,Chennai,"Manali, Chennai - CPCB",26-01-2026 08:00:00,13.164544,80.26285,OZONE,10,11,10
India,TamilNadu,Chennai,"Perungudi, Chennai - TNPCB",26-01-2026 08:00:00,12.9533,80.2357,PM10,11,314,42
India,TamilNadu,Chennai,"Perungudi, Chennai - TNPCB",26-01-2026 08:00:00,12.9533,80.2357,CO,38,60,44
India,Rajasthan,Chittorgarh,"Shastri Nagar, Chittorgarh - RSPCB",26-01-2026 08:00:00,24.892047,74.623527,NH3,3,4,4
India,Rajasthan,Dausa,"Khatikan Mohalla, Dausa - RSPCB",26-01-2026 08:00:00,26.895552,76.334753,PM2.5,23,107,53
India,Rajasthan,Dausa,"Khatikan Mohalla, Dausa - RSPCB",26-01-2026 08:00:00,26.895552,76.334753,SO2,2,8,5
India,Rajasthan,Dholpur,"Raja Ganj, Dholpur - RSPCB",26-01-2026 08:00:00,26.699557,77.898881,PM2.5,30,163,87
India,Rajasthan,Dungarpur,"Bhoiwada, Dungarpur - RSPCB",26-01-2026 08:00:00,23.837789,73.714926,SO2,7,14,10
India,Rajasthan,Kota,"Nayapura, Kota - RSPCB",26-01-2026 08:00:00,25.196024,75.855668,PM2.5,63,213,98
India,Rajasthan,Kota,"Nayapura, Kota - RSPCB",26-01-2026 08:00:00,25.196024,75.855668,CO,23,108,28
India,Rajasthan,Kota,"Shrinath Puram, Kota - RSPCB",26-01-2026 08:00:00,25.14389,75.821256,NO2,6,13,10
India,Rajasthan,Nagaur,"Karni Colony, Nagaur - RSPCB",26-01-2026 08:00:00,27.213494,73.734444,CO,15,41,29
India,Rajasthan,Pratapgarh,"Pragati Nagar, Pratapgarh - RSPCB",26-01-2026 08:00:00,24.041198,74.780702,PM2.5,72,223,106
India,Uttar_Pradesh,Kanpur,"FTI Kidwai Nagar, Kanpur - UPPCB",26-01-2026 08:00:00,26.428282,80.327067,NO2,27,27,27
India,Uttar_Pradesh,Kanpur,"FTI Kidwai Nagar, Kanpur - UPPCB",26-01-2026 08:00:00,26.428282,80.327067,CO,34,42,36
India,Uttar_Pradesh,Kanpur,"NSI Kalyanpur, Kanpur - UPPCB",26-01-2026 08:00:00,26.509954,80.249612,SO2,20,41,23
India,Uttar_Pradesh,Kanpur,"Nehru Nagar, Kanpur - UPPCB",26-01-2026 08:00:00,26.4703136,80.3229863,CO,58,67,64
India,Uttar_Pradesh,Khurja,"Kalindi Kunj, Khurja - UPPCB",26-01-2026 08:00:00,28.2348927,77.8683002,PM2.5,4,108,55
India,Uttar_Pradesh,Khurja,"Kalindi Kunj, Khurja - UPPCB",26-01-2026 08:00:00,28.2348927,77.8683002,NO2,8,10,9
India,Uttar_Pradesh,Khurja,"Kalindi Kunj, Khurja - UPPCB",26-01-2026 08:00:00,28.2348927,77.8683002,CO,31,46,43
India,Uttar_Pradesh,Lucknow,"B R Ambedkar University, Lucknow - UPPCB",26-01-2026 08:00:00,26.766433,80.927299,PM10,40,83,59
India,Uttar_Pradesh,Lucknow,"B R Ambedkar University, Lucknow - UPPCB",26-01-2026 08:00:00,26.766433,80.927299,SO2,24,30,25
India,Uttar_Pradesh,Lucknow,"B R Ambedkar University, Lucknow - UPPCB",26-01-2026 08:00:00,26.766433,80.927299,CO,7,20,17
India,Uttar_Pradesh,Lucknow,"B R Ambedkar University, Lucknow - UPPCB",26-01-2026 08:00:00,26.766433,80.927299,OZONE,24,82,42
India,Uttar_Pradesh,Lucknow,"Gomti Nagar, Lucknow - UPPCB",26-01-2026 08:00:00,26.868120,81.005119,PM2.5,30,83,50
India,Uttar_Pradesh,Lucknow,"Gomti Nagar, Lucknow - UPPCB",26-01-2026 08:00:00,26.868120,81.005119,PM10,30,73,46
India,Uttar_Pradesh,Lucknow,"Gomti Nagar, Lucknow - UPPCB",26-01-2026 08:00:00,26.868120,81.005119,NO2,6,8,7
India,Uttar_Pradesh,Lucknow,"Gomti Nagar, Lucknow - UPPCB",26-01-2026 08:00:00,26.868120,81.005119,SO2,9,11,10
India,Uttar_Pradesh,Lucknow,"Kendriya Vidyalaya, Lucknow - CPCB",26-01-2026 08:00:00,26.906111,80.948222,PM2.5,46,144,98
India,Uttar_Pradesh,Lucknow,"Kendriya Vidyalaya, Lucknow - CPCB",26-01-2026 08:00:00,26.906111,80.948222,NH3,12,17,15
India,Uttar_Pradesh,Moradabad,"Buddhi Vihar, Moradabad - UPPCB",26-01-2026 08:00:00,28.83526,78.74460,SO2,NA,NA,NA
India,Uttar_Pradesh,Moradabad,"Buddhi Vihar, Moradabad - UPPCB",26-01-2026 08:00:00,28.83526,78.74460,CO,NA,NA,NA
India,Uttar_Pradesh,Moradabad,"Buddhi Vihar, Moradabad - UPPCB",26-01-2026 08:00:00,28.83526,78.74460,OZONE,NA,NA,NA
India,Uttar_Pradesh,Moradabad,"Eco Herbal Park, Moradabad - UPPCB",26-01-2026 08:00:00,28.840739,78.697531,NO2,25,50,34
India,Uttar_Pradesh,Moradabad,"Eco Herbal Park, Moradabad - UPPCB",26-01-2026 08:00:00,28.840739,78.697531,NH3,4,7,5
India,Uttar_Pradesh,Moradabad,"Eco Herbal Park, Moradabad - UPPCB",26-01-2026 08:00:00,28.840739,78.697531,SO2,10,24,15
India,Uttar_Pradesh,Moradabad,"Employment Office, Moradabad - UPPCB",26-01-2026 08:00:00,28.88528,78.73880,NH3,4,4,4
India,Uttar_Pradesh,Moradabad,"Jigar Colony, Moradabad - UPPCB",26-01-2026 08:00:00,28.856664,78.772638,PM10,74,107,92
India,Uttar_Pradesh,Moradabad,"Jigar Colony, Moradabad - UPPCB",26-01-2026 08:00:00,28.856664,78.772638,OZONE,16,25,17
India,Uttar_Pradesh,Moradabad,"Kashiram Nagar, Moradabad - UPPCB",26-01-2026 08:00:00,28.849399,78.742362,PM10,62,104,79
India,Uttar_Pradesh,Moradabad,"Kashiram Nagar, Moradabad - UPPCB",26-01-2026 08:00:00,28.849399,78.742362,NO2,25,25,25
India,Uttar_Pradesh,Moradabad,"Kashiram Nagar, Moradabad - UPPCB",26-01-2026 08:00:00,28.849399,78.742362,SO2,NA,NA,NA
India,Uttar_Pradesh,Moradabad,"Transport Nagar, Moradabad - UPPCB",26-01-2026 08:00:00,28.802625,78.753728,PM2.5,26,69,49
India,Uttar_Pradesh,Moradabad,"Transport Nagar, Moradabad - UPPCB",26-01-2026 08:00:00,28.802625,78.753728,PM10,46,86,66
India,Uttar_Pradesh,Moradabad,"Transport Nagar, Moradabad - UPPCB",26-01-2026 08:00:00,28.802625,78.753728,NH3,5,6,6
India,Uttar_Pradesh,Agra,"Shahjahan Garden, Agra - UPPCB",26-01-2026 08:00:00,27.169338,78.03582,NH3,6,6,6
India,Uttar_Pradesh,Agra,"Shahjahan Garden, Agra - UPPCB",26-01-2026 08:00:00,27.169338,78.03582,SO2,18,26,22
India,Uttar_Pradesh,Agra,"Shastripuram, Agra - UPPCB",26-01-2026 08:00:00,27.19862,77.92066,NH3,3,3,3
India,Uttar_Pradesh,Baghpat,"Sardar Patel Inter College, Baghpat - UPPCB",26-01-2026 08:00:00,28.964949,77.278761,PM2.5,47,260,118
India,Uttar_Pradesh,Baghpat,"Sardar Patel Inter College, Baghpat - UPPCB",26-01-2026 08:00:00,28.964949,77.278761,SO2,3,16,10
India,Uttar_Pradesh,Bareilly,"Civil Lines, Bareilly - UPPCB",26-01-2026 08:00:00,28.359581,79.414455,NO2,2,3,2
India,Uttar_Pradesh,Bareilly,"Civil Lines, Bareilly - UPPCB",26-01-2026 08:00:00,28.359581,79.414455,SO2,31,45,38
India,Uttar_Pradesh,Bulandshahr,"Yamunapuram, Bulandshahr - UPPCB",26-01-2026 08:00:00,28.406963,77.849831,NO2,27,78,50
India,Uttar_Pradesh,Bulandshahr,"Yamunapuram, Bulandshahr - UPPCB",26-01-2026 08:00:00,28.406963,77.849831,OZONE,2,67,3
India,Uttar_Pradesh,Firozabad,"Nagla Bhau, Firozabad - UPPCB",26-01-2026 08:00:00,27.168897,78.376960,PM2.5,17,51,33
India,Uttar_Pradesh,Firozabad,"Nagla Bhau, Firozabad - UPPCB",26-01-2026 08:00:00,27.168897,78.376960,NO2,17,17,17
India,Uttar_Pradesh,Lucknow,"Kendriya Vidyalaya, Lucknow - CPCB",26-01-2026 08:00:00,26.906111,80.948222,CO,40,101,72
India,Uttar_Pradesh,Lucknow,"Kendriya Vidyalaya, Lucknow - CPCB",26-01-2026 08:00:00,26.906111,80.948222,OZONE,10,79,14
India,Uttar_Pradesh,Lucknow,"Kukrail Picnic Spot-1, Lucknow - UPPCB",26-01-2026 08:00:00,26.90723,80.98579,PM10,33,55,44
India,Uttar_Pradesh,Lucknow,"Kukrail Picnic Spot-1, Lucknow - UPPCB",26-01-2026 08:00:00,26.90723,80.98579,NO2,31,32,32
India,Uttar_Pradesh,Lucknow,"Kukrail Picnic Spot-1, Lucknow - UPPCB",26-01-2026 08:00:00,26.90723,80.98579,CO,10,14,12
India,Uttar_Pradesh,Lucknow,"Talkatora District Industries Center, Lucknow - CPCB",26-01-2026 08:00:00,26.83399722,80.8917361,SO2,3,12,8
India,Uttar_Pradesh,Meerut,"Ganga Nagar, Meerut - UPPCB",26-01-2026 08:00:00,28.999264,77.7590354,NO2,27,62,42
India,Uttar_Pradesh,Meerut,"Ganga Nagar, Meerut - UPPCB",26-01-2026 08:00:00,28.999264,77.7590354,NH3,11,13,12
India,Uttar_Pradesh,Meerut,"Ganga Nagar, Meerut - UPPCB",26-01-2026 08:00:00,28.999264,77.7590354,SO2,20,29,23
India,Telangana,Hyderabad,"IITH Kandi, Hyderabad - TSPCB",26-01-2026 08:00:00,17.585705,78.126199,PM2.5,39,71,56
India,Telangana,Hyderabad,"IITH Kandi, Hyderabad - TSPCB",26-01-2026 08:00:00,17.585705,78.126199,NO2,15,16,16
India,Telangana,Hyderabad,"Kokapet, Hyderabad - TSPCB",26-01-2026 08:00:00,17.393559,78.339194,OZONE,16,29,17
India,Telangana,Hyderabad,"Kompally Municipal Office, Hyderabad - TSPCB",26-01-2026 08:00:00,17.544899,78.486949,SO2,6,11,8
India,Telangana,Hyderabad,"Nacharam_TSIIC IALA, Hyderabad - TSPCB",26-01-2026 08:00:00,17.429398,78.569354,CO,NA,NA,NA
India,Telangana,Hyderabad,"New Malakpet, Hyderabad - TSPCB",26-01-2026 08:00:00,17.37206,78.50864,CO,23,41,24
India,Telangana,Hyderabad,"Ramachandrapuram, Hyderabad - TSPCB",26-01-2026 08:00:00,17.528544,78.286195,NH3,3,5,3
India,Telangana,Hyderabad,"Ramachandrapuram, Hyderabad - TSPCB",26-01-2026 08:00:00,17.528544,78.286195,OZONE,24,31,30
India,Telangana,Hyderabad,"Somajiguda, Hyderabad - TSPCB",26-01-2026 08:00:00,17.417094,78.457437,OZONE,21,31,25
India,Telangana,Hyderabad,"Zoo Park, Hyderabad - TSPCB",26-01-2026 08:00:00,17.349694,78.451437,OZONE,22,28,24
India,Uttar_Pradesh,Agra,"Manoharpur, Agra - UPPCB",26-01-2026 08:00:00,27.23711,78.01936,SO2,3,6,4
India,Uttar_Pradesh,Agra,"Rohta, Agra - UPPCB",26-01-2026 08:00:00,27.106972,78.000111,OZONE,12,13,13
India,Uttar_Pradesh,Agra,"Sanjay Palace, Agra - UPPCB",26-01-2026 08:00:00,27.19865833,78.00598056,PM2.5,58,317,169
India,Uttar_Pradesh,Agra,"Sector-3B Avas Vikas Colony, Agra - UPPCB",26-01-2026 08:00:00,27.19412,77.96237,NO2,30,34,32
India,TamilNadu,Perundurai,"SIPCOT Industrial Park, Perundurai - TNPCB",26-01-2026 08:00:00,11.258242,77.552761,CO,26,28,27
India,Telangana,Hyderabad,"Central University, Hyderabad - TSPCB",26-01-2026 08:00:00,17.460103,78.334361,OZONE,14,15,14
India,Telangana,Hyderabad,"ECIL Kapra, Hyderabad - TSPCB",26-01-2026 08:00:00,17.470431,78.566959,PM2.5,41,44,43
India,Telangana,Hyderabad,"ECIL Kapra, Hyderabad - TSPCB",26-01-2026 08:00:00,17.470431,78.566959,CO,13,26,23
India,Telangana,Hyderabad,"ECIL Kapra, Hyderabad - TSPCB",26-01-2026 08:00:00,17.470431,78.566959,OZONE,7,38,12
India,Telangana,Hyderabad,"ICRISAT Patancheru, Hyderabad - TSPCB",26-01-2026 08:00:00,17.518400,78.278777,SO2,4,16,8
India,Telangana,Hyderabad,"ICRISAT Patancheru, Hyderabad - TSPCB",26-01-2026 08:00:00,17.518400,78.278777,OZONE,12,64,46
India,Uttar_Pradesh,Greater Noida,"Knowledge Park - III, Greater Noida - UPPCB",26-01-2026 08:00:00,28.47272,77.482000,PM10,122,310,169
India,Uttar_Pradesh,Greater Noida,"Knowledge Park - III, Greater Noida - UPPCB",26-01-2026 08:00:00,28.47272,77.482000,SO2,7,10,9
India,Uttar_Pradesh,Hapur,"Anand Vihar, Hapur - UPPCB",26-01-2026 08:00:00,28.725645,77.749675,NH3,8,14,10
India,Uttar_Pradesh,Jhansi,"Shivaji Nagar, Jhansi - UPPCB",26-01-2026 08:00:00,25.4547,78.6039,PM2.5,26,85,49
India,Uttar_Pradesh,Jhansi,"Shivaji Nagar, Jhansi - UPPCB",26-01-2026 08:00:00,25.4547,78.6039,NO2,6,6,6
India,Uttar_Pradesh,Jhansi,"Shivaji Nagar, Jhansi - UPPCB",26-01-2026 08:00:00,25.4547,78.6039,CO,9,50,25
India,Uttar_Pradesh,Jhansi,"Shivaji Nagar, Jhansi - UPPCB",26-01-2026 08:00:00,25.4547,78.6039,OZONE,1,6,1
India,Uttar_Pradesh,Firozabad,"Vibhab Nagar, Firozabad - UPPCB",26-01-2026 08:00:00,27.1594,78.3953,NH3,2,2,2
India,Uttar_Pradesh,Ghaziabad,"Sanjay Nagar, Ghaziabad - UPPCB",26-01-2026 08:00:00,28.685382,77.453839,PM2.5,NA,NA,NA
India,Uttar_Pradesh,Ghaziabad,"Sanjay Nagar, Ghaziabad - UPPCB",26-01-2026 08:00:00,28.685382,77.453839,NH3,NA,NA,NA
India,Uttar_Pradesh,Ghaziabad,"Vasundhara, Ghaziabad - UPPCB",26-01-2026 08:00:00,28.6603346,77.3572563,NH3,7,13,9
India,Uttar_Pradesh,Noida,"Sector - 125, Noida - UPPCB",26-01-2026 08:00:00,28.5447608,77.3231257,CO,23,100,38
India,Uttar_Pradesh,Noida,"Sector-1, Noida - UPPCB",26-01-2026 08:00:00,28.5898,77.3101,PM2.5,80,333,193
India,Uttar_Pradesh,Noida,"Sector-1, Noida - UPPCB",26-01-2026 08:00:00,28.5898,77.3101,OZONE,3,36,4
India,Uttar_Pradesh,Noida,"Sector-116, Noida - UPPCB",26-01-2026 08:00:00,28.569230,77.393848,NH3,11,15,13
India,Uttar_Pradesh,Noida,"Sector-116, Noida - UPPCB",26-01-2026 08:00:00,28.569230,77.393848,OZONE,6,132,8
India,Uttar_Pradesh,Prayagraj,"Jhunsi, Prayagraj - UPPCB",26-01-2026 08:00:00,25.425602,81.917152,NO2,6,6,6
India,Uttar_Pradesh,Prayagraj,"Jhunsi, Prayagraj - UPPCB",26-01-2026 08:00:00,25.425602,81.917152,NH3,5,5,5
India,Uttar_Pradesh,Varanasi,"Bhelupur, Varanasi - UPPCB",26-01-2026 08:00:00,25.301778,82.996789,PM10,53,101,72
India,Uttar_Pradesh,Varanasi,"IESD Banaras Hindu University, Varanasi - UPPCB",26-01-2026 08:00:00,25.262326,82.995408,SO2,31,34,33
India,Uttar_Pradesh,Varanasi,"IESD Banaras Hindu University, Varanasi - UPPCB",26-01-2026 08:00:00,25.262326,82.995408,CO,10,22,13
India,Uttar_Pradesh,Varanasi,"Maldahiya, Varanasi - UPPCB",26-01-2026 08:00:00,25.32393,82.99687,OZONE,1,5,1
India,Uttarakhand,Kashipur,"Govt. Girls Inter College, Kashipur - UKPCB",26-01-2026 08:00:00,29.2124114,78.9611753,NH3,NA,NA,NA
India,Uttarakhand,Kashipur,"Govt. Girls Inter College, Kashipur - UKPCB",26-01-2026 08:00:00,29.2124114,78.9611753,CO,18,26,22
India,West_Bengal,Asansol,"Asansol Court Area, Asansol - WBPCB",26-01-2026 08:00:00,23.685297,86.945968,NO2,15,28,23
India,West_Bengal,Asansol,"Evelyn Lodge, Asansol - WBPCB",26-01-2026 08:00:00,23.6979360,86.9443950,OZONE,3,53,4
India,West_Bengal,Asansol,"Mahabir Colliery, Asansol - WBPCB",26-01-2026 08:00:00,23.6181830,87.1057180,NO2,7,27,15
India,West_Bengal,Asansol,"Mahabir Colliery, Asansol - WBPCB",26-01-2026 08:00:00,23.6181830,87.1057180,NH3,1,2,1
India,West_Bengal,Asansol,"Mahabir Colliery, Asansol - WBPCB",26-01-2026 08:00:00,23.6181830,87.1057180,SO2,4,13,8
India,West_Bengal,Asansol,"Mahabir Colliery, Asansol - WBPCB",26-01-2026 08:00:00,23.6181830,87.1057180,OZONE,6,34,6
India,West_Bengal,Asansol,"Trivenidevi Bhalotia College, Asansol - WBPCB",26-01-2026 08:00:00,23.616515,87.119133,NH3,6,8,7
India,West_Bengal,Asansol,"Trivenidevi Bhalotia College, Asansol - WBPCB",26-01-2026 08:00:00,23.616515,87.119133,SO2,7,13,11
India,West_Bengal,Durgapur,"Mahishkapur Road_B-Zone, Durgapur - WBPCB",26-01-2026 08:00:00,23.567923,87.306843,PM2.5,67,227,141
India,West_Bengal,Durgapur,"Mahishkapur Road_B-Zone, Durgapur - WBPCB",26-01-2026 08:00:00,23.567923,87.306843,PM10,68,140,111
India,West_Bengal,Durgapur,"Mahishkapur Road_B-Zone, Durgapur - WBPCB",26-01-2026 08:00:00,23.567923,87.306843,SO2,6,78,18
India,West_Bengal,Durgapur,"Mahishkapur Road_B-Zone, Durgapur - WBPCB",26-01-2026 08:00:00,23.567923,87.306843,OZONE,NA,NA,NA
India,West_Bengal,Durgapur,"PCBL Residential Complex, Durgapur - WBPCB",26-01-2026 08:00:00,23.5087640,87.3544400,CO,42,121,108
India,West_Bengal,Durgapur,"PCBL Residential Complex, Durgapur - WBPCB",26-01-2026 08:00:00,23.5087640,87.3544400,OZONE,1,47,3
India,West_Bengal,Howrah,"Belur Math, Howrah - WBPCB",26-01-2026 08:00:00,22.629801,88.352017,PM2.5,76,356,212
India,West_Bengal,Howrah,"Belur Math, Howrah - WBPCB",26-01-2026 08:00:00,22.629801,88.352017,PM10,121,392,217
India,West_Bengal,Howrah,"Botanical Garden, Howrah - WBPCB",26-01-2026 08:00:00,22.554954,88.292568,PM2.5,47,204,124
India,West_Bengal,Howrah,"Ghusuri, Howrah - WBPCB",26-01-2026 08:00:00,22.611968,88.347422,NO2,16,38,25
India,West_Bengal,Howrah,"Padmapukur, Howrah - WBPCB",26-01-2026 08:00:00,22.5687319,88.2797276,SO2,1,19,6
India,West_Bengal,Howrah,"Padmapukur, Howrah - WBPCB",26-01-2026 08:00:00,22.5687319,88.2797276,OZONE,1,64,1
India,West_Bengal,Kolkata,"Ballygunge, Kolkata - WBPCB",26-01-2026 08:00:00,22.5367507,88.3638022,NH3,6,16,10
India,West_Bengal,Kolkata,"Ballygunge, Kolkata - WBPCB",26-01-2026 08:00:00,22.5367507,88.3638022,CO,10,115,82
India,West_Bengal,Kolkata,"Fort William, Kolkata - WBPCB",26-01-2026 08:00:00,22.556640,88.342674,NH3,9,10,9
India,West_Bengal,Kolkata,"Fort William, Kolkata - WBPCB",26-01-2026 08:00:00,22.556640,88.342674,SO2,6,54,15
India,West_Bengal,Kolkata,"Fort William, Kolkata - WBPCB",26-01-2026 08:00:00,22.556640,88.342674,CO,NA,NA,NA
India,West_Bengal,Kolkata,"Fort William, Kolkata - WBPCB",26-01-2026 08:00:00,22.556640,88.342674,OZONE,32,78,42
India,West_Bengal,Kolkata,"Rabindra Bharati University, Kolkata - WBPCB",26-01-2026 08:00:00,22.627847,88.380669,NH3,12,13,12
India,West_Bengal,Kolkata,"Rabindra Bharati University, Kolkata - WBPCB",26-01-2026 08:00:00,22.627847,88.380669,SO2,6,9,7
India,West_Bengal,Kolkata,"Rabindra Sarobar, Kolkata - WBPCB",26-01-2026 08:00:00,22.51106,88.35142,SO2,10,63,23
India,West_Bengal,Siliguri,"Ward-32 Bapupara, Siliguri - WBPCB",26-01-2026 08:00:00,26.6879226,88.4152495,PM10,74,378,145
India,West_Bengal,Siliguri,"Ward-32 Bapupara, Siliguri - WBPCB",26-01-2026 08:00:00,26.6879226,88.4152495,NH3,10,10,10
India,Andhra_Pradesh,Vijayawada,"Rajiv Gandhi Park, Vijayawada - APPCB",26-01-2026 08:00:00,16.509717,80.612222,CO,34,34,34
India,Andhra_Pradesh,Vijayawada,"Rajiv Nagar, Vijayawada - APPCB",26-01-2026 08:00:00,16.554731,80.649110,PM2.5,NA,NA,NA
India,Andhra_Pradesh,Vijayawada,"Rajiv Nagar, Vijayawada - APPCB",26-01-2026 08:00:00,16.554731,80.649110,NO2,NA,NA,NA
India,Andhra_Pradesh,Vijayawada,"Rajiv Nagar, Vijayawada - APPCB",26-01-2026 08:00:00,16.554731,80.649110,NH3,NA,NA,NA
India,Andhra_Pradesh,Visakhapatnam,"GVM Corporation, Visakhapatnam - APPCB",26-01-2026 08:00:00,17.72,83.3,PM2.5,48,268,134
India,Andhra_Pradesh,Visakhapatnam,"GVM Corporation, Visakhapatnam - APPCB",26-01-2026 08:00:00,17.72,83.3,NO2,12,148,60
India,Arunachal_Pradesh,Naharlagun,"Naharlagun, Naharlagun - APSPCB",26-01-2026 08:00:00,27.103358,93.679645,PM2.5,27,500,179
India,Arunachal_Pradesh,Naharlagun,"Naharlagun, Naharlagun - APSPCB",26-01-2026 08:00:00,27.103358,93.679645,PM10,32,500,161
India,Arunachal_Pradesh,Naharlagun,"Naharlagun, Naharlagun - APSPCB",26-01-2026 08:00:00,27.103358,93.679645,CO,11,69,18
India,Assam,Byrnihat,"Central Academy for SFS, Byrnihat - PCBA",26-01-2026 08:00:00,26.071318,91.87488,SO2,32,32,32
India,Assam,Guwahati,"LGBI Airport, Guwahati - PCBA",26-01-2026 08:00:00,26.10887,91.589544,PM2.5,32,137,81
India,Assam,Guwahati,"Pan Bazaar, Guwahati - PCBA",26-01-2026 08:00:00,26.187500,91.744194,PM2.5,64,310,158
India,Andhra_Pradesh,Kadapa,"Yerramukkapalli, Kadapa - APPCB",26-01-2026 08:00:00,14.465052,78.824187,OZONE,20,23,21
India,Andhra_Pradesh,Rajamahendravaram,"Anand Kala Kshetram, Rajamahendravaram - APPCB",26-01-2026 08:00:00,16.9872867,81.7363176,PM2.5,80,183,102
India,Andhra_Pradesh,Rajamahendravaram,"Anand Kala Kshetram, Rajamahendravaram - APPCB",26-01-2026 08:00:00,16.9872867,81.7363176,PM10,83,160,108
India,Andhra_Pradesh,Rajamahendravaram,"Anand Kala Kshetram, Rajamahendravaram - APPCB",26-01-2026 08:00:00,16.9872867,81.7363176,SO2,6,35,14
India,Andhra_Pradesh,Tirupati,"Vaikuntapuram, Tirupati - APPCB",26-01-2026 08:00:00,13.615387,79.409230,NO2,29,33,32
India,Andhra_Pradesh,Tirupati,"Vaikuntapuram, Tirupati - APPCB",26-01-2026 08:00:00,13.615387,79.409230,CO,15,23,16
India,Andhra_Pradesh,Tirupati,"Vaikuntapuram, Tirupati - APPCB",26-01-2026 08:00:00,13.615387,79.409230,OZONE,13,14,14
India,Andhra_Pradesh,Vijayawada,"HB Colony, Vijayawada - APPCB",26-01-2026 08:00:00,16.536107,80.594233,NH3,4,4,4
India,Andhra_Pradesh,Vijayawada,"HB Colony, Vijayawada - APPCB",26-01-2026 08:00:00,16.536107,80.594233,SO2,16,16,16
India,Andhra_Pradesh,Vijayawada,"HB Colony, Vijayawada - APPCB",26-01-2026 08:00:00,16.536107,80.594233,CO,32,32,32
India,Andhra_Pradesh,Vijayawada,"Kanuru, Vijayawada - APPCB",26-01-2026 08:00:00,16.486692,80.699436,PM2.5,51,54,53
India,Andhra_Pradesh,Vijayawada,"Rajiv Gandhi Park, Vijayawada - APPCB",26-01-2026 08:00:00,16.509717,80.612222,PM2.5,77,172,98
India,Bihar,Bhagalpur,"Mayaganj, Bhagalpur - BSPCB",26-01-2026 08:00:00,25.265194,87.012947,OZONE,13,30,17
India,Bihar,Bihar Sharif,"D M Colony, Bihar Sharif - BSPCB",26-01-2026 08:00:00,25.204762,85.514960,SO2,10,10,10
India,Bihar,Bihar Sharif,"D M Colony, Bihar Sharif - BSPCB",26-01-2026 08:00:00,25.204762,85.514960,OZONE,NA,NA,NA
India,Bihar,Buxar,"Charitra Van, Buxar - BSPCB",26-01-2026 08:00:00,25.567520,83.966379,PM10,81,117,97
India,Bihar,Buxar,"Charitra Van, Buxar - BSPCB",26-01-2026 08:00:00,25.567520,83.966379,NH3,3,3,3
India,Bihar,Chhapra,"Darshan Nagar, Chhapra - BSPCB",26-01-2026 08:00:00,25.7808257,84.7446768,NO2,1,1,1
India,Bihar,Chhapra,"Darshan Nagar, Chhapra - BSPCB",26-01-2026 08:00:00,25.7808257,84.7446768,NH3,6,11,9
India,Bihar,Chhapra,"Darshan Nagar, Chhapra - BSPCB",26-01-2026 08:00:00,25.7808257,84.7446768,CO,20,60,54
India,Bihar,Gaya,"Kareemganj, Gaya - BSPCB",26-01-2026 08:00:00,24.792403,84.992416,SO2,11,16,13
India,Bihar,Gaya,"SFTI Kusdihra, Gaya - BSPCB",26-01-2026 08:00:00,24.762518,84.982348,CO,NA,NA,NA
India,Bihar,Hajipur,"Industrial Area, Hajipur - BSPCB",26-01-2026 08:00:00,25.697189,85.245900,PM2.5,97,241,138
India,Bihar,Sasaram,"Dada Peer, Sasaram - BSPCB",26-01-2026 08:00:00,24.952822,84.002396,PM2.5,27,68,40
India,Bihar,Siwan,"Chitragupta Nagar, Siwan - BSPCB",26-01-2026 08:00:00,26.2271665,84.3570427,NO2,1,5,2
India,Bihar,Siwan,"Chitragupta Nagar, Siwan - BSPCB",26-01-2026 08:00:00,26.2271665,84.3570427,CO,46,115,70
India,Chandigarh,Chandigarh,"Sector 22, Chandigarh - CPCC",26-01-2026 08:00:00,30.735567,76.775714,PM2.5,58,328,125
India,Chandigarh,Chandigarh,"Sector 22, Chandigarh - CPCC",26-01-2026 08:00:00,30.735567,76.775714,NO2,27,109,48
India,Chandigarh,Chandigarh,"Sector 22, Chandigarh - CPCC",26-01-2026 08:00:00,30.735567,76.775714,NH3,5,21,14
India,Chandigarh,Chandigarh,"Sector-25, Chandigarh - CPCC",26-01-2026 08:00:00,30.751462,76.762879,NO2,NA,NA,NA
India,Chandigarh,Chandigarh,"Sector-25, Chandigarh - CPCC",26-01-2026 08:00:00,30.751462,76.762879,OZONE,NA,NA,NA
India,Chhattisgarh,Bhilai,"32Bungalows, Bhilai - CECB",26-01-2026 08:00:00,21.194815,81.314770,PM10,54,106,80
India,Chhattisgarh,Bhilai,"Civic Center, Bhilai - Bhilai Steel Plant",26-01-2026 08:00:00,21.185571,81.343175,PM10,32,166,74
India,Assam,Guwahati,"Railway Colony, Guwahati - PCBA",26-01-2026 08:00:00,26.181742,91.78063,PM10,83,309,160
India,Assam,Guwahati,"Railway Colony, Guwahati - PCBA",26-01-2026 08:00:00,26.181742,91.78063,SO2,35,38,37
India,Assam,Nagaon,"Christianpatty, Nagaon - PCBA",26-01-2026 08:00:00,26.349082,92.68449,PM10,98,146,116
India,Assam,Nalbari,"Bata Chowk, Nalbari - PCBA",26-01-2026 08:00:00,26.446912,91.439057,PM2.5,103,184,148
India,Assam,Silchar,"Tarapur, Silchar - PCBA",26-01-2026 08:00:00,24.82827,92.79525,PM10,60,79,69
India,Assam,Silchar,"Tarapur, Silchar - PCBA",26-01-2026 08:00:00,24.82827,92.79525,NO2,21,30,24
India,Bihar,Araria,"Kharahiya Basti, Araria - BSPCB",26-01-2026 08:00:00,26.146529,87.454184,PM2.5,43,304,116
India,Bihar,Araria,"Kharahiya Basti, Araria - BSPCB",26-01-2026 08:00:00,26.146529,87.454184,SO2,NA,NA,NA
India,Bihar,Muzaffarpur,"MIT-Daudpur Kothi, Muzaffarpur - BSPCB",26-01-2026 08:00:00,26.1403345,85.3650192,PM2.5,83,93,88
India,Bihar,Muzaffarpur,"Muzaffarpur Collectorate, Muzaffarpur - BSPCB",26-01-2026 08:00:00,26.1209,85.3647,OZONE,7,22,7
India,Bihar,Patna,"Govt. High School Shikarpur, Patna - BSPCB",26-01-2026 08:00:00,25.592539,85.227158,SO2,13,17,15
India,Bihar,Patna,"IGSC Planetarium Complex, Patna - BSPCB",26-01-2026 08:00:00,25.610369,85.132568,SO2,1,37,27
India,Bihar,Patna,"IGSC Planetarium Complex, Patna - BSPCB",26-01-2026 08:00:00,25.610369,85.132568,CO,34,78,77
India,Bihar,Arrah,"New DM Office, Arrah - BSPCB",26-01-2026 08:00:00,25.5626095,84.663264,NH3,1,1,1
India,Bihar,Aurangabad,"Gurdeo Nagar, Aurangabad - BSPCB",26-01-2026 08:00:00,24.75746,84.366208,OZONE,2,39,4
India,Bihar,Bettiah,"Kamalnath Nagar, Bettiah - BSPCB",26-01-2026 08:00:00,26.80365,84.51954,SO2,NA,NA,NA
India,Bihar,Bhagalpur,"DM Office_Kachari Chowk, Bhagalpur - BSPCB",26-01-2026 08:00:00,25.251013,86.989001,PM10,68,140,109
India,Bihar,Bhagalpur,"DM Office_Kachari Chowk, Bhagalpur - BSPCB",26-01-2026 08:00:00,25.251013,86.989001,NO2,4,13,9
India,Bihar,Patna,"Rajbansi Nagar, Patna - BSPCB",26-01-2026 08:00:00,25.599486,85.113666,NH3,6,7,6
India,Bihar,Patna,"Samanpura, Patna - BSPCB",26-01-2026 08:00:00,25.596727,85.085624,NO2,21,23,22
India,Bihar,Rajgir,"Dangi Tola, Rajgir - BSPCB",26-01-2026 08:00:00,25.03280,85.41948,NO2,8,11,9
India,Bihar,Rajgir,"Dangi Tola, Rajgir - BSPCB",26-01-2026 08:00:00,25.03280,85.41948,SO2,14,24,20
India,Bihar,Saharsa,"Police Line, Saharsa - BSPCB",26-01-2026 08:00:00,25.892357,86.590325,NO2,5,9,7
India,Andhra_Pradesh,Amaravati,"Secretariat, Amaravati - APPCB",26-01-2026 08:00:00,16.5150833,80.5181667,PM10,35,284,150
India,Andhra_Pradesh,Amaravati,"Secretariat, Amaravati - APPCB",26-01-2026 08:00:00,16.5150833,80.5181667,CO,1,34,13
India,Andhra_Pradesh,Amaravati,"Secretariat, Amaravati - APPCB",26-01-2026 08:00:00,16.5150833,80.5181667,OZONE,27,68,40
India,Andhra_Pradesh,Chittoor,"Gangineni Cheruvu, Chittoor - APPCB",26-01-2026 08:00:00,13.204880,79.097889,PM2.5,64,94,77
India,Andhra_Pradesh,Chittoor,"Gangineni Cheruvu, Chittoor - APPCB",26-01-2026 08:00:00,13.204880,79.097889,OZONE,47,55,49
India,Bihar,Katihar,"Mirchaibari, Katihar - BSPCB",26-01-2026 08:00:00,25.560083,87.553265,PM2.5,57,147,93
India,Bihar,Katihar,"Mirchaibari, Katihar - BSPCB",26-01-2026 08:00:00,25.560083,87.553265,OZONE,22,27,23
India,Bihar,Manguraha,"Forest Rest House, Manguraha - BSPCB",26-01-2026 08:00:00,27.308328,84.531742,SO2,16,17,17
India,Bihar,Munger,"Town Hall, Munger - BSPCB",26-01-2026 08:00:00,25.376776,86.471523,SO2,20,30,26
India,Bihar,Munger,"Town Hall, Munger - BSPCB",26-01-2026 08:00:00,25.376776,86.471523,CO,32,114,36
India,Chhattisgarh,Raipur,"AIIMS, Raipur - CECB",26-01-2026 08:00:00,21.258815,81.578979,PM2.5,47,159,98
India,Chhattisgarh,Raipur,"AIIMS, Raipur - CECB",26-01-2026 08:00:00,21.258815,81.578979,SO2,4,6,5
India,Chhattisgarh,Raipur,"Krishak Nagar, Raipur - CECB",26-01-2026 08:00:00,21.237755,81.705301,NO2,22,34,28
India,Chhattisgarh,Raipur,"Krishak Nagar, Raipur - CECB",26-01-2026 08:00:00,21.237755,81.705301,CO,20,40,38
India,Chhattisgarh,Raipur,"Siltara Phase-II, Raipur - CECB",26-01-2026 08:00:00,21.371751,81.664929,PM2.5,43,253,116
India,Chhattisgarh,Raipur,"Siltara Phase-II, Raipur - CECB",26-01-2026 08:00:00,21.371751,81.664929,PM10,71,136,105
India,Chhattisgarh,Raipur,"Siltara Phase-II, Raipur - CECB",26-01-2026 08:00:00,21.371751,81.664929,NO2,52,65,56
India,Chhattisgarh,Raipur,"Siltara Phase-II, Raipur - CECB",26-01-2026 08:00:00,21.371751,81.664929,NH3,2,2,2
India,Chhattisgarh,Raipur,"Siltara Phase-II, Raipur - CECB",26-01-2026 08:00:00,21.371751,81.664929,SO2,2,12,5
India,Chhattisgarh,Raipur,"Siltara Phase-II, Raipur - CECB",26-01-2026 08:00:00,21.371751,81.664929,OZONE,3,4,3
India,Chhattisgarh,Tumidih,"OP Jindal Industrial Park, Tumidih - CECB",26-01-2026 08:00:00,22.06631475,83.33820077,CO,NA,NA,NA
India,Delhi,Delhi,"Alipur, Delhi - DPCC",26-01-2026 08:00:00,28.815329,77.153010,PM2.5,70,409,222
India,Delhi,Delhi,"Anand Vihar, Delhi - DPCC",26-01-2026 08:00:00,28.647622,77.3158090,CO,40,117,98
India,Gujarat,Ahmedabad,"Chandkheda, Ahmedabad - IITM",26-01-2026 08:00:00,23.107969,72.574648,CO,28,75,40
India,Gujarat,Ahmedabad,"Gyaspur, Ahmedabad - IITM",26-01-2026 08:00:00,22.977134,72.553024,NO2,52,119,77
India,Gujarat,Ahmedabad,"Maninagar, Ahmedabad - GPCB",26-01-2026 08:00:00,23.002657,72.591912,PM10,76,145,108
India,Gujarat,Ahmedabad,"Raikhad, Ahmedabad - IITM",26-01-2026 08:00:00,23.020509,72.579261,NO2,20,84,35
India,Gujarat,Ahmedabad,"Raikhad, Ahmedabad - IITM",26-01-2026 08:00:00,23.020509,72.579261,OZONE,4,73,40
India,Gujarat,Ahmedabad,"Rakhial, Ahmedabad - IITM",26-01-2026 08:00:00,23.016834,72.625775,PM10,90,167,132
India,Gujarat,Ahmedabad,"SAC ISRO Bopal, Ahmedabad - IITM",26-01-2026 08:00:00,23.041137,72.456691,PM10,102,190,137
India,Gujarat,Ahmedabad,"SAC ISRO Bopal, Ahmedabad - IITM",26-01-2026 08:00:00,23.041137,72.456691,SO2,2,12,4
India,Gujarat,Ahmedabad,"SAC ISRO Satellite, Ahmedabad - IITM",26-01-2026 08:00:00,23.023389,72.515201,PM2.5,61,145,84
India,Gujarat,Ahmedabad,"SAC ISRO Satellite, Ahmedabad - IITM",26-01-2026 08:00:00,23.023389,72.515201,NH3,3,8,5
India,Gujarat,Ahmedabad,"SAC ISRO Satellite, Ahmedabad - IITM",26-01-2026 08:00:00,23.023389,72.515201,CO,22,79,39
India,Gujarat,Ahmedabad,"SVPI Airport Hansol, Ahmedabad - IITM",26-01-2026 08:00:00,23.076793,72.627874,PM2.5,27,116,71
India,Delhi,Delhi,"Sirifort, Delhi - CPCB",26-01-2026 08:00:00,28.5504249,77.2159377,PM10,134,374,179
India,Delhi,Delhi,"Sonia Vihar, Delhi - DPCC",26-01-2026 08:00:00,28.710508,77.249485,PM10,105,374,199
India,Delhi,Delhi,"Sonia Vihar, Delhi - DPCC",26-01-2026 08:00:00,28.710508,77.249485,SO2,7,14,10
India,Delhi,Delhi,"Sonia Vihar, Delhi - DPCC",26-01-2026 08:00:00,28.710508,77.249485,CO,76,124,108
India,Delhi,Delhi,"Sri Aurobindo Marg, Delhi - DPCC",26-01-2026 08:00:00,28.531346,77.190156,PM2.5,83,233,142
India,Delhi,Delhi,"Sri Aurobindo Marg, Delhi - DPCC",26-01-2026 08:00:00,28.531346,77.190156,CO,23,56,42
India,Delhi,Delhi,"Sri Aurobindo Marg, Delhi - DPCC",26-01-2026 08:00:00,28.531346,77.190156,OZONE,2,84,5
India,Delhi,Delhi,"Vivek Vihar, Delhi - DPCC",26-01-2026 08:00:00,28.672342,77.315260,OZONE,1,81,1
India,Delhi,Delhi,"Wazirpur, Delhi - DPCC",26-01-2026 08:00:00,28.699793,77.165453,PM2.5,92,388,258
India,Gujarat,Ahmedabad,"Chandkheda, Ahmedabad - IITM",26-01-2026 08:00:00,23.107969,72.574648,PM10,103,180,138
India,Gujarat,Ahmedabad,"Chandkheda, Ahmedabad - IITM",26-01-2026 08:00:00,23.107969,72.574648,NH3,3,6,4
India,Gujarat,Ahmedabad,"Chandkheda, Ahmedabad - IITM",26-01-2026 08:00:00,23.107969,72.574648,SO2,5,15,8
India,Delhi,Delhi,"Jahangirpuri, Delhi - DPCC",26-01-2026 08:00:00,28.732820,77.170633,PM10,123,366,195
India,Delhi,Delhi,"Jahangirpuri, Delhi - DPCC",26-01-2026 08:00:00,28.732820,77.170633,NO2,93,162,118
India,Delhi,Delhi,"Jawaharlal Nehru Stadium, Delhi - DPCC",26-01-2026 08:00:00,28.580280,77.233829,PM2.5,78,358,204
India,Delhi,Delhi,"Jawaharlal Nehru Stadium, Delhi - DPCC",26-01-2026 08:00:00,28.580280,77.233829,NH3,13,16,14
India,Delhi,Delhi,"Lodhi Road, Delhi - IMD",26-01-2026 08:00:00,28.5918245,77.2273074,OZONE,13,110,15
India,Delhi,Delhi,"Major Dhyan Chand National Stadium, Delhi - DPCC",26-01-2026 08:00:00,28.611281,77.237738,NO2,29,113,66
India,Delhi,Delhi,"Major Dhyan Chand National Stadium, Delhi - DPCC",26-01-2026 08:00:00,28.611281,77.237738,CO,14,108,38
India,Delhi,Delhi,"Major Dhyan Chand National Stadium, Delhi - DPCC",26-01-2026 08:00:00,28.611281,77.237738,OZONE,1,106,3
India,Delhi,Delhi,"Mandir Marg, Delhi - DPCC",26-01-2026 08:00:00,28.636429,77.201067,NO2,45,84,65
India,Delhi,Delhi,"Dwarka-Sector 8, Delhi - DPCC ",26-01-2026 08:00:00,28.5710274,77.0719006,SO2,21,34,28
India,Delhi,Delhi,"IGI Airport (T3), Delhi - IMD",26-01-2026 08:00:00,28.5627763,77.1180053,PM10,112,171,146
India,Delhi,Delhi,"IHBAS, Dilshad Garden, Delhi - CPCB",26-01-2026 08:00:00,28.6811736,77.3025234,NO2,37,100,59
India,Delhi,Delhi,"IIT Delhi, Delhi - IITM",26-01-2026 08:00:00,28.542460,77.191651,PM10,109,185,142
India,Delhi,Delhi,"IIT Delhi, Delhi - IITM",26-01-2026 08:00:00,28.542460,77.191651,CO,27,96,51
India,Delhi,Delhi,"ITO, Delhi - CPCB",26-01-2026 08:00:00,28.628624,77.241060,PM2.5,84,372,225
India,Delhi,Delhi,"ITO, Delhi - CPCB",26-01-2026 08:00:00,28.628624,77.241060,NH3,2,3,2
India,Delhi,Delhi,"NSIT Dwarka, Delhi - CPCB",26-01-2026 08:00:00,28.60909,77.0325413,OZONE,22,37,23
India,Delhi,Delhi,"Najafgarh, Delhi - DPCC",26-01-2026 08:00:00,28.570173,76.933762,NO2,77,105,93
India,Delhi,Delhi,"Narela, Delhi - DPCC",26-01-2026 08:00:00,28.822836,77.101981,NO2,5,37,17
India,Delhi,Delhi,"Nehru Nagar, Delhi - DPCC",26-01-2026 08:00:00,28.567890,77.250515,PM2.5,197,411,291
India,Delhi,Delhi,"North Campus, DU, Delhi - IMD",26-01-2026 08:00:00,28.6573814,77.1585447,OZONE,7,177,10
India,Delhi,Delhi,"Okhla Phase-2, Delhi - DPCC",26-01-2026 08:00:00,28.530785,77.271255,SO2,8,62,12
India,Delhi,Delhi,"Ashok Vihar, Delhi - DPCC",26-01-2026 08:00:00,28.695381,77.181665,NH3,8,8,8
India,Delhi,Delhi,"Ashok Vihar, Delhi - DPCC",26-01-2026 08:00:00,28.695381,77.181665,CO,6,104,41
India,Delhi,Delhi,"Ashok Vihar, Delhi - DPCC",26-01-2026 08:00:00,28.695381,77.181665,OZONE,2,81,8
India,Delhi,Delhi,"Bawana, Delhi - DPCC",26-01-2026 08:00:00,28.776200,77.051074,OZONE,2,82,3
India,Delhi,Delhi,"Burari Crossing, Delhi - IMD",26-01-2026 08:00:00,28.7256504,77.2011573,PM2.5,56,350,211
India,Delhi,Delhi,"CRRI Mathura Road, Delhi - IMD",26-01-2026 08:00:00,28.5512005,77.2735737,NO2,17,42,27
India,Delhi,Delhi,"CRRI Mathura Road, Delhi - IMD",26-01-2026 08:00:00,28.5512005,77.2735737,CO,28,90,64
India,Delhi,Delhi,"Patparganj, Delhi - DPCC",26-01-2026 08:00:00,28.623763,77.287209,PM10,111,283,166
India,Delhi,Delhi,"Patparganj, Delhi - DPCC",26-01-2026 08:00:00,28.623763,77.287209,NH3,7,11,9
India,Delhi,Delhi,"Patparganj, Delhi - DPCC",26-01-2026 08:00:00,28.623763,77.287209,SO2,15,23,19
India,Delhi,Delhi,"Patparganj, Delhi - DPCC",26-01-2026 08:00:00,28.623763,77.287209,OZONE,2,125,4
India,Delhi,Delhi,"R K Puram, Delhi - DPCC",26-01-2026 08:00:00,28.563262,77.186937,CO,30,105,72
India,Delhi,Delhi,"Rohini, Delhi - DPCC",26-01-2026 08:00:00,28.732528,77.119920,NH3,22,25,23
India,Delhi,Delhi,"Rohini, Delhi - DPCC",26-01-2026 08:00:00,28.732528,77.119920,SO2,8,26,13
India,Delhi,Delhi,"Rohini, Delhi - DPCC",26-01-2026 08:00:00,28.732528,77.119920,OZONE,3,104,6
India,Chhattisgarh,Bhilai,"Hathkhoj, Bhilai - CECB",26-01-2026 08:00:00,21.224231,81.408350,CO,15,55,38
India,Chhattisgarh,Korba,"Rampur, Korba - CECB",26-01-2026 08:00:00,22.368195,82.746431,CO,20,31,26
India,Chhattisgarh,Korba,"Urja Nagar, Korba - CECB",26-01-2026 08:00:00,22.348441,82.549611,SO2,1,17,9
India,Haryana,Gurugram,"Sector-51, Gurugram - HSPCB",26-01-2026 08:00:00,28.4227,77.0667,NH3,9,14,12
India,Haryana,Gurugram,"Sector-51, Gurugram - HSPCB",26-01-2026 08:00:00,28.4227,77.0667,OZONE,3,16,3
India,Haryana,Gurugram,"Vikas Sadan, Gurugram - HSPCB",26-01-2026 08:00:00,28.4501238,77.0263051,PM2.5,151,325,280
India,Haryana,Gurugram,"Vikas Sadan, Gurugram - HSPCB",26-01-2026 08:00:00,28.4501238,77.0263051,SO2,2,8,5
India,Haryana,Gurugram,"Vikas Sadan, Gurugram - HSPCB",26-01-2026 08:00:00,28.4501238,77.0263051,CO,64,114,97
India,Haryana,Hisar,"Urban Estate-II, Hisar - HSPCB",26-01-2026 08:00:00,29.140560,75.744941,PM2.5,29,126,64
India,Haryana,Jind,"Police Lines, Jind - HSPCB",26-01-2026 08:00:00,29.307814,76.337619,PM2.5,74,171,120
India,Haryana,Jind,"Police Lines, Jind - HSPCB",26-01-2026 08:00:00,29.307814,76.337619,SO2,1,4,3
India,Haryana,Jind,"Police Lines, Jind - HSPCB",26-01-2026 08:00:00,29.307814,76.337619,CO,1,68,24
India,Haryana,Kaithal,"Rishi Nagar, Kaithal - HSPCB",26-01-2026 08:00:00,29.8006,76.4155,PM2.5,45,110,76
India,Haryana,Kaithal,"Rishi Nagar, Kaithal - HSPCB",26-01-2026 08:00:00,29.8006,76.4155,SO2,28,34,31
India,Haryana,Kaithal,"Rishi Nagar, Kaithal - HSPCB",26-01-2026 08:00:00,29.8006,76.4155,OZONE,4,18,8
India,Haryana,Karnal,"Sector-12, Karnal - HSPCB",26-01-2026 08:00:00,29.695300,77.002700,PM2.5,71,128,100
India,Haryana,Karnal,"Sector-12, Karnal - HSPCB",26-01-2026 08:00:00,29.695300,77.002700,SO2,6,6,6
India,Haryana,Karnal,"Sector-12, Karnal - HSPCB",26-01-2026 08:00:00,29.695300,77.002700,OZONE,32,32,32
India,Haryana,Kurukshetra,"Sector-7, Kurukshetra - HSPCB",26-01-2026 08:00:00,29.966942,76.875879,PM2.5,86,135,101
India,Karnataka,Bengaluru,"Hebbal, Bengaluru - KSPCB",26-01-2026 08:00:00,13.029152,77.585901,OZONE,5,18,6
India,Karnataka,Bengaluru,"Hombegowda Nagar, Bengaluru - KSPCB",26-01-2026 08:00:00,12.938539,77.590100,PM2.5,15,54,32
India,Karnataka,Bengaluru,"Jayanagar 5th Block, Bengaluru - KSPCB",26-01-2026 08:00:00,12.920984,77.584908,OZONE,44,69,60
India,Karnataka,Bengaluru,"Jigani, Bengaluru - KSPCB",26-01-2026 08:00:00,12.7816279,77.6299145,SO2,18,19,18
India,Karnataka,Bengaluru,"Jigani, Bengaluru - KSPCB",26-01-2026 08:00:00,12.7816279,77.6299145,CO,32,34,32
India,Karnataka,Bengaluru,"Jigani, Bengaluru - KSPCB",26-01-2026 08:00:00,12.7816279,77.6299145,OZONE,22,24,23
India,Karnataka,Bengaluru,"Kasturi Nagar, Bengaluru - KSPCB",26-01-2026 08:00:00,13.003872,77.664217,PM10,58,66,66
India,Karnataka,Bengaluru,"Peenya, Bengaluru - CPCB",26-01-2026 08:00:00,13.0270199,77.494094,PM2.5,19,39,26
India,Karnataka,Bengaluru,"Peenya, Bengaluru - CPCB",26-01-2026 08:00:00,13.0270199,77.494094,NO2,23,29,26
India,Karnataka,Bengaluru,"Peenya, Bengaluru - CPCB",26-01-2026 08:00:00,13.0270199,77.494094,NH3,4,4,4
India,Karnataka,Bengaluru,"Peenya, Bengaluru - CPCB",26-01-2026 08:00:00,13.0270199,77.494094,SO2,7,13,10
India,Karnataka,Bengaluru,"Peenya, Bengaluru - CPCB",26-01-2026 08:00:00,13.0270199,77.494094,OZONE,20,21,21
India,Karnataka,Bengaluru,"RVCE-Mailasandra, Bengaluru - KSPCB",26-01-2026 08:00:00,12.921418,77.502466,PM2.5,27,301,84
India,Gujarat,Vatva,"Phase-4 GIDC, Vatva - GPCB",26-01-2026 08:00:00,22.969611,72.643500,PM10,82,176,130
India,Gujarat,Vatva,"Phase-4 GIDC, Vatva - GPCB",26-01-2026 08:00:00,22.969611,72.643500,NH3,5,6,6
India,Gujarat,Vatva,"Phase-4 GIDC, Vatva - GPCB",26-01-2026 08:00:00,22.969611,72.643500,SO2,29,34,31
India,Haryana,Ambala,"Patti Mehar, Ambala - HSPCB",26-01-2026 08:00:00,30.379589,76.778328,PM2.5,49,76,63
India,Haryana,Ambala,"Patti Mehar, Ambala - HSPCB",26-01-2026 08:00:00,30.379589,76.778328,NO2,20,23,22
India,Haryana,Ambala,"Patti Mehar, Ambala - HSPCB",26-01-2026 08:00:00,30.379589,76.778328,NH3,8,11,10
India,Haryana,Ambala,"Patti Mehar, Ambala - HSPCB",26-01-2026 08:00:00,30.379589,76.778328,SO2,15,32,22
India,Haryana,Bahadurgarh,"Arya Nagar, Bahadurgarh - HSPCB",26-01-2026 08:00:00,28.6701,76.9254,OZONE,15,20,18
India,Haryana,Ballabgarh,"Nathu Colony, Ballabgarh - HSPCB",26-01-2026 08:00:00,28.3419248,77.319699,PM2.5,78,329,192
India,Haryana,Ballabgarh,"Nathu Colony, Ballabgarh - HSPCB",26-01-2026 08:00:00,28.3419248,77.319699,PM10,158,418,283
India,Haryana,Ballabgarh,"Nathu Colony, Ballabgarh - HSPCB",26-01-2026 08:00:00,28.3419248,77.319699,SO2,2,6,4
India,Haryana,Bhiwani,"H.B. Colony, Bhiwani - HSPCB",26-01-2026 08:00:00,28.806223,76.141105,PM2.5,44,449,153
India,Haryana,Rohtak,"MD University, Rohtak - HSPCB",26-01-2026 08:00:00,28.52123,76.37138,SO2,10,13,12
India,Haryana,Sirsa,"F-Block, Sirsa - HSPCB",26-01-2026 08:00:00,29.536400,75.015800,NO2,16,28,20
India,Haryana,Sirsa,"F-Block, Sirsa - HSPCB",26-01-2026 08:00:00,29.536400,75.015800,SO2,2,17,11
India,Haryana,Sirsa,"F-Block, Sirsa - HSPCB",26-01-2026 08:00:00,29.536400,75.015800,OZONE,33,46,40
India,Haryana,Sonipat,"Murthal, Sonipat - HSPCB",26-01-2026 08:00:00,29.027200,77.062100,NO2,22,40,33
India,Haryana,Yamuna Nagar,"Gobind Pura, Yamuna Nagar - HSPCB",26-01-2026 08:00:00,30.1480566,77.2893471,CO,29,51,35
India,Himachal Pradesh,Baddi,"HIMUDA Complex Phase-1, Baddi - HPPCB",26-01-2026 08:00:00,30.943887,76.801991,PM2.5,55,417,207
India,Himachal Pradesh,Baddi,"HIMUDA Complex Phase-1, Baddi - HPPCB",26-01-2026 08:00:00,30.943887,76.801991,NH3,2,4,2
India,Jammu_and_Kashmir,Srinagar,"Rajbagh, Srinagar - JKPCC",26-01-2026 08:00:00,34.066206,74.819820,CO,10,20,18
India,Haryana,Kurukshetra,"Sector-7, Kurukshetra - HSPCB",26-01-2026 08:00:00,29.966942,76.875879,CO,16,36,18
India,Haryana,Kurukshetra,"Sector-7, Kurukshetra - HSPCB",26-01-2026 08:00:00,29.966942,76.875879,OZONE,6,47,13
India,Haryana,Mandikhera,"General Hospital, Mandikhera(Nuh) - HSPCB",26-01-2026 08:00:00,27.9002,76.9938,NO2,17,24,21
India,Haryana,Manesar,"Sector-2 IMT, Manesar - HSPCB",26-01-2026 08:00:00,28.360699,76.936090,NO2,33,42,39
India,Haryana,Manesar,"Sector-2 IMT, Manesar - HSPCB",26-01-2026 08:00:00,28.360699,76.936090,NH3,10,12,11
India,Haryana,Manesar,"Sector-2 IMT, Manesar - HSPCB",26-01-2026 08:00:00,28.360699,76.936090,CO,12,40,27
India,Haryana,Narnaul,"Shastri Nagar, Narnaul - HSPCB",26-01-2026 08:00:00,28.060249,76.113115,SO2,6,8,7
India,Haryana,Narnaul,"Shastri Nagar, Narnaul - HSPCB",26-01-2026 08:00:00,28.060249,76.113115,OZONE,8,39,8
India,Haryana,Palwal,"Shyam Nagar, Palwal - HSPCB",26-01-2026 08:00:00,28.1485564,77.3320667,SO2,14,14,14
India,Haryana,Panipat,"Sector-18, Panipat - HSPCB",26-01-2026 08:00:00,29.432304,76.972765,SO2,18,19,19
India,Karnataka,Bagalkot,"Vidayagiri, Bagalkot - KSPCB",26-01-2026 08:00:00,16.172806,75.659694,NO2,11,12,12
India,Karnataka,Bagalkot,"Vidayagiri, Bagalkot - KSPCB",26-01-2026 08:00:00,16.172806,75.659694,NH3,1,2,1
India,Karnataka,Bagalkot,"Vidayagiri, Bagalkot - KSPCB",26-01-2026 08:00:00,16.172806,75.659694,SO2,7,7,7
India,Karnataka,Bagalkot,"Vidayagiri, Bagalkot - KSPCB",26-01-2026 08:00:00,16.172806,75.659694,OZONE,12,12,12
India,Karnataka,Belgaum,"Ramteerth Nagar, Belgaum - KSPCB",26-01-2026 08:00:00,15.888653,74.541751,OZONE,19,20,19
India,Karnataka,Bengaluru,"BWSSB Kadabesanahalli, Bengaluru - CPCB",26-01-2026 08:00:00,12.9352049,77.6814488,SO2,4,6,5
India,Karnataka,Bengaluru,"Bapuji Nagar, Bengaluru - KSPCB",26-01-2026 08:00:00,12.951913,77.539784,PM10,28,137,74
India,Karnataka,Bengaluru,"Bapuji Nagar, Bengaluru - KSPCB",26-01-2026 08:00:00,12.951913,77.539784,NO2,4,18,9
India,Karnataka,Bengaluru,"Bapuji Nagar, Bengaluru - KSPCB",26-01-2026 08:00:00,12.951913,77.539784,SO2,6,27,19
India,Karnataka,Bengaluru,"Hebbal, Bengaluru - KSPCB",26-01-2026 08:00:00,13.029152,77.585901,NO2,19,41,35
India,Karnataka,Bengaluru,"Hebbal, Bengaluru - KSPCB",26-01-2026 08:00:00,13.029152,77.585901,NH3,1,1,1
