country,state,city,station,last_update,latitude,longitude,pollutant_id,min_value,max_value,avg_value
India,Andhra_Pradesh,Vijayawada,"HB Colony, Vijayawada - APPCB",14-11-2025 07:00:00,16.536107,80.594233,PM10,47,110,69
India,Andhra_Pradesh,Vijayawada,"HB Colony, Vijayawada - APPCB",14-11-2025 07:00:00,16.536107,80.594233,NO2,16,18,17
India,Andhra_Pradesh,Vijayawada,"HB Colony, Vijayawada - APPCB",14-11-2025 07:00:00,16.536107,80.594233,SO2,14,18,17
India,Andhra_Pradesh,Vijayawada,"Rajiv Gandhi Park, Vijayawada - APPCB",14-11-2025 07:00:00,16.509717,80.612222,NO2,40,81,58
India,Andhra_Pradesh,Vijayawada,"Rajiv Nagar, Vijayawada - APPCB",14-11-2025 07:00:00,16.554731,80.649110,CO,26,48,30
India,Andhra_Pradesh,Visakhapatnam,"GVM Corporation, Visakhapatnam - APPCB",14-11-2025 07:00:00,17.72,83.3,PM2.5,137,319,205
India,Andhra_Pradesh,Visakhapatnam,"GVM Corporation, Visakhapatnam - APPCB",14-11-2025 07:00:00,17.72,83.3,PM10,124,367,176
India,Andhra_Pradesh,Visakhapatnam,"GVM Corporation, Visakhapatnam - APPCB",14-11-2025 07:00:00,17.72,83.3,NO2,16,176,76
India,Andhra_Pradesh,Visakhapatnam,"GVM Corporation, Visakhapatnam - APPCB",14-11-2025 07:00:00,17.72,83.3,SO2,17,62,35
India,Arunachal_Pradesh,Naharlagun,"Naharlagun, Naharlagun - APSPCB",14-11-2025 07:00:00,27.103358,93.679645,PM2.5,21,228,63
India,Arunachal_Pradesh,Naharlagun,"Naharlagun, Naharlagun - APSPCB",14-11-2025 07:00:00,27.103358,93.679645,NO2,5,6,6
India,Assam,Sivasagar,"Girls College, Sivasagar - PCBA",14-11-2025 07:00:00,26.987634,94.636574,PM10,24,94,48
India,Assam,Sivasagar,"Girls College, Sivasagar - PCBA",14-11-2025 07:00:00,26.987634,94.636574,SO2,7,14,10
India,Bihar,Araria,"Kharahiya Basti, Araria - BSPCB",14-11-2025 07:00:00,26.146529,87.454184,NO2,2,49,19
India,Bihar,Arrah,"New DM Office, Arrah - BSPCB",14-11-2025 07:00:00,25.5626095,84.663264,CO,34,70,53
India,Bihar,Aurangabad,"Gurdeo Nagar, Aurangabad - BSPCB",14-11-2025 07:00:00,24.75746,84.366208,CO,18,102,32
India,Bihar,Begusarai,"Lohiyanagar, Begusarai - BSPCB",14-11-2025 07:00:00,25.42742023,86.13886079,NH3,4,5,5
India,Andhra_Pradesh,Chittoor,"Gangineni Cheruvu, Chittoor - APPCB",14-11-2025 07:00:00,13.204880,79.097889,SO2,7,34,15
India,Andhra_Pradesh,Rajamahendravaram,"Anand Kala Kshetram, Rajamahendravaram - APPCB",14-11-2025 07:00:00,16.9872867,81.7363176,NH3,2,12,4
India,Andhra_Pradesh,Rajamahendravaram,"Anand Kala Kshetram, Rajamahendravaram - APPCB",14-11-2025 07:00:00,16.9872867,81.7363176,SO2,8,35,20
India,Andhra_Pradesh,Rajamahendravaram,"Anand Kala Kshetram, Rajamahendravaram - APPCB",14-11-2025 07:00:00,16.9872867,81.7363176,OZONE,8,48,20
India,Andhra_Pradesh,Tirumala,"Toll Gate, Tirumala - APPCB",14-11-2025 07:00:00,13.67,79.35,PM2.5,118,191,151
India,Bihar,Gaya,"SFTI Kusdihra, Gaya - BSPCB",14-11-2025 07:00:00,24.762518,84.982348,CO,22,53,36
India,Bihar,Hajipur,"Industrial Area, Hajipur - BSPCB",14-11-2025 07:00:00,25.697189,85.245900,NO2,32,70,46
India,Bihar,Hajipur,"Industrial Area, Hajipur - BSPCB",14-11-2025 07:00:00,25.697189,85.245900,SO2,2,6,4
India,Bihar,Katihar,"Mirchaibari, Katihar - BSPCB",14-11-2025 07:00:00,25.560083,87.553265,PM10,46,116,78
India,Bihar,Katihar,"Mirchaibari, Katihar - BSPCB",14-11-2025 07:00:00,25.560083,87.553265,SO2,16,28,23
India,Andaman and Nicobar,Sri Vijaya Puram,"Police Line, Sri Vijaya Puram - ANPCC",14-11-2025 07:00:00,11.654054,92.734055,NH3,NA,NA,NA
India,Andaman and Nicobar,Sri Vijaya Puram,"Police Line, Sri Vijaya Puram - ANPCC",14-11-2025 07:00:00,11.654054,92.734055,SO2,NA,NA,NA
India,Andaman and Nicobar,Sri Vijaya Puram,"Police Line, Sri Vijaya Puram - ANPCC",14-11-2025 07:00:00,11.654054,92.734055,CO,NA,NA,NA
India,Andhra_Pradesh,Amaravati,"Secretariat, Amaravati - APPCB",14-11-2025 07:00:00,16.5150833,80.5181667,PM10,102,175,132
India,Bihar,Bettiah,"Kamalnath Nagar, Bettiah - BSPCB",14-11-2025 07:00:00,26.80365,84.51954,NO2,6,10,8
India,Bihar,Bhagalpur,"Mayaganj, Bhagalpur - BSPCB",14-11-2025 07:00:00,25.265194,87.012947,NH3,6,11,7
India,Bihar,Bhagalpur,"Mayaganj, Bhagalpur - BSPCB",14-11-2025 07:00:00,25.265194,87.012947,SO2,30,54,38
India,Bihar,Bihar Sharif,"D M Colony, Bihar Sharif - BSPCB",14-11-2025 07:00:00,25.204762,85.514960,NH3,NA,NA,NA
India,Assam,Guwahati,"IITG, Guwahati - PCBA",14-11-2025 07:00:00,26.2028636,91.70046436,NH3,NA,NA,NA
India,Assam,Guwahati,"LGBI Airport, Guwahati - PCBA",14-11-2025 07:00:00,26.10887,91.589544,NO2,13,94,18
India,Assam,Guwahati,"LGBI Airport, Guwahati - PCBA",14-11-2025 07:00:00,26.10887,91.589544,NH3,6,6,6
India,Assam,Guwahati,"Railway Colony, Guwahati - PCBA",14-11-2025 07:00:00,26.181742,91.78063,PM2.5,59,304,162
India,Bihar,Bihar Sharif,"D M Colony, Bihar Sharif - BSPCB",14-11-2025 07:00:00,25.204762,85.514960,CO,2,13,3
India,Bihar,Buxar,"Charitra Van, Buxar - BSPCB",14-11-2025 07:00:00,25.567520,83.966379,CO,22,28,24
India,Bihar,Chhapra,"Darshan Nagar, Chhapra - BSPCB",14-11-2025 07:00:00,25.7808257,84.7446768,PM2.5,27,339,175
India,Assam,Guwahati,"Railway Colony, Guwahati - PCBA",14-11-2025 07:00:00,26.181742,91.78063,PM10,61,166,112
India,Assam,Nagaon,"Christianpatty, Nagaon - PCBA",14-11-2025 07:00:00,26.349082,92.68449,PM2.5,28,29,28
India,Assam,Nagaon,"Christianpatty, Nagaon - PCBA",14-11-2025 07:00:00,26.349082,92.68449,PM10,32,33,32
India,Assam,Nagaon,"Christianpatty, Nagaon - PCBA",14-11-2025 07:00:00,26.349082,92.68449,NH3,4,4,4
India,Andhra_Pradesh,Anantapur,"Gulzarpet, Anantapur - APPCB",14-11-2025 07:00:00,14.675886,77.593027,OZONE,28,60,42
India,Bihar,Muzaffarpur,"MIT-Daudpur Kothi, Muzaffarpur - BSPCB",14-11-2025 07:00:00,26.1403345,85.3650192,SO2,13,19,15
India,Bihar,Muzaffarpur,"MIT-Daudpur Kothi, Muzaffarpur - BSPCB",14-11-2025 07:00:00,26.1403345,85.3650192,OZONE,8,59,22
India,Bihar,Muzaffarpur,"Muzaffarpur Collectorate, Muzaffarpur - BSPCB",14-11-2025 07:00:00,26.1209,85.3647,NO2,6,13,9
India,Bihar,Patna,"DRM Office Danapur, Patna - BSPCB",14-11-2025 07:00:00,25.586562,85.043586,PM2.5,66,216,129
India,Bihar,Patna,"Govt. High School Shikarpur, Patna - BSPCB",14-11-2025 07:00:00,25.592539,85.227158,PM2.5,80,92,85
India,Bihar,Patna,"Govt. High School Shikarpur, Patna - BSPCB",14-11-2025 07:00:00,25.592539,85.227158,PM10,85,166,128
India,Bihar,Patna,"Govt. High School Shikarpur, Patna - BSPCB",14-11-2025 07:00:00,25.592539,85.227158,NO2,8,32,17
India,Bihar,Patna,"IGSC Planetarium Complex, Patna - BSPCB",14-11-2025 07:00:00,25.610369,85.132568,PM2.5,35,314,213
India,Bihar,Patna,"IGSC Planetarium Complex, Patna - BSPCB",14-11-2025 07:00:00,25.610369,85.132568,SO2,1,29,20
India,Bihar,Patna,"IGSC Planetarium Complex, Patna - BSPCB",14-11-2025 07:00:00,25.610369,85.132568,CO,34,68,68
India,Chhattisgarh,Tumidih,"OP Jindal Industrial Park, Tumidih - CECB",14-11-2025 07:00:00,22.06631475,83.33820077,NO2,48,86,66
India,Delhi,Delhi,"Alipur, Delhi - DPCC",14-11-2025 07:00:00,28.815329,77.153010,PM2.5,272,500,398
India,Delhi,Delhi,"Alipur, Delhi - DPCC",14-11-2025 07:00:00,28.815329,77.153010,NH3,4,4,4
India,Delhi,Delhi,"Alipur, Delhi - DPCC",14-11-2025 07:00:00,28.815329,77.153010,OZONE,2,82,8
India,Delhi,Delhi,"Anand Vihar, Delhi - DPCC",14-11-2025 07:00:00,28.647622,77.3158090,SO2,NA,NA,NA
India,Delhi,Delhi,"Ashok Vihar, Delhi - DPCC",14-11-2025 07:00:00,28.695381,77.181665,PM10,263,468,385
India,Delhi,Delhi,"Ashok Vihar, Delhi - DPCC",14-11-2025 07:00:00,28.695381,77.181665,NO2,55,195,116
India,Bihar,Saharsa,"Police Line, Saharsa - BSPCB",14-11-2025 07:00:00,25.892357,86.590325,SO2,16,20,18
India,Bihar,Saharsa,"Police Line, Saharsa - BSPCB",14-11-2025 07:00:00,25.892357,86.590325,OZONE,3,22,11
India,Bihar,Samastipur,"DM Office_Kasipur, Samastipur - BSPCB",14-11-2025 07:00:00,25.859655,85.77944,PM2.5,NA,NA,NA
India,Bihar,Samastipur,"DM Office_Kasipur, Samastipur - BSPCB",14-11-2025 07:00:00,25.859655,85.77944,PM10,NA,NA,NA
India,Bihar,Samastipur,"DM Office_Kasipur, Samastipur - BSPCB",14-11-2025 07:00:00,25.859655,85.77944,NO2,NA,NA,NA
India,Bihar,Samastipur,"DM Office_Kasipur, Samastipur - BSPCB",14-11-2025 07:00:00,25.859655,85.77944,OZONE,NA,NA,NA
India,Bihar,Sasaram,"Dada Peer, Sasaram - BSPCB",14-11-2025 07:00:00,24.952822,84.002396,OZONE,16,17,17
India,Chandigarh,Chandigarh,"Sector 22, Chandigarh - CPCC",14-11-2025 07:00:00,30.735567,76.775714,NO2,3,42,16
India,Delhi,Delhi,"Bawana, Delhi - DPCC",14-11-2025 07:00:00,28.776200,77.051074,OZONE,6,169,17
India,Delhi,Delhi,"Burari Crossing, Delhi - IMD",14-11-2025 07:00:00,28.7256504,77.2011573,PM2.5,337,500,415
India,Delhi,Delhi,"CRRI Mathura Road, Delhi - IMD",14-11-2025 07:00:00,28.5512005,77.2735737,NO2,20,115,62
India,Delhi,Delhi,"Chandni Chowk, Delhi - IITM",14-11-2025 07:00:00,28.656756,77.227234,PM2.5,349,500,415
India,Delhi,Delhi,"Chandni Chowk, Delhi - IITM",14-11-2025 07:00:00,28.656756,77.227234,SO2,18,36,27
India,Delhi,Delhi,"Chandni Chowk, Delhi - IITM",14-11-2025 07:00:00,28.656756,77.227234,OZONE,1,98,11
India,Delhi,Delhi,"DTU, Delhi - CPCB",14-11-2025 07:00:00,28.7500499,77.1112615,NO2,47,105,74
India,Chandigarh,Chandigarh,"Sector-53, Chandigarh - CPCC",14-11-2025 07:00:00,30.719859,76.738637,NO2,17,138,73
India,Chandigarh,Chandigarh,"Sector-53, Chandigarh - CPCC",14-11-2025 07:00:00,30.719859,76.738637,SO2,8,30,12
India,Chhattisgarh,Bhilai,"32Bungalows, Bhilai - CECB",14-11-2025 07:00:00,21.194815,81.314770,CO,18,103,50
India,Chhattisgarh,Bhilai,"Civic Center, Bhilai - Bhilai Steel Plant",14-11-2025 07:00:00,21.185571,81.343175,PM2.5,27,98,56
India,Chhattisgarh,Bhilai,"Civic Center, Bhilai - Bhilai Steel Plant",14-11-2025 07:00:00,21.185571,81.343175,PM10,57,135,85
India,Chhattisgarh,Bhilai,"Civic Center, Bhilai - Bhilai Steel Plant",14-11-2025 07:00:00,21.185571,81.343175,OZONE,8,15,9
India,Bihar,Patna,"Muradpur, Patna - BSPCB",14-11-2025 07:00:00,25.619651,85.147382,CO,38,80,51
India,Bihar,Patna,"Rajbansi Nagar, Patna - BSPCB",14-11-2025 07:00:00,25.599486,85.113666,NH3,3,10,7
India,Bihar,Patna,"Rajbansi Nagar, Patna - BSPCB",14-11-2025 07:00:00,25.599486,85.113666,OZONE,7,57,12
India,Bihar,Patna,"Samanpura, Patna - BSPCB",14-11-2025 07:00:00,25.596727,85.085624,SO2,1,3,2
India,Bihar,Rajgir,"Dangi Tola, Rajgir - BSPCB",14-11-2025 07:00:00,25.03280,85.41948,CO,77,101,90
India,Chhattisgarh,Raipur,"AIIMS, Raipur - CECB",14-11-2025 07:00:00,21.258815,81.578979,SO2,11,26,14
India,Chhattisgarh,Raipur,"Bhatagaon New ISBT, Raipur - CECB",14-11-2025 07:00:00,21.219665,81.630094,NH3,2,2,2
India,Chhattisgarh,Raipur,"Bhatagaon New ISBT, Raipur - CECB",14-11-2025 07:00:00,21.219665,81.630094,OZONE,3,22,3
India,Chhattisgarh,Raipur,"Siltara Phase-II, Raipur - CECB",14-11-2025 07:00:00,21.371751,81.664929,NH3,3,3,3
India,Chhattisgarh,Raipur,"Siltara Phase-II, Raipur - CECB",14-11-2025 07:00:00,21.371751,81.664929,SO2,3,4,4
India,Chhattisgarh,Chhal,"Nawapara SECL Colony, Chhal - CECB",14-11-2025 07:00:00,22.118125,83.140608,PM2.5,54,311,92
India,Chhattisgarh,Chhal,"Nawapara SECL Colony, Chhal - CECB",14-11-2025 07:00:00,22.118125,83.140608,PM10,44,267,94
India,Chhattisgarh,Chhal,"Nawapara SECL Colony, Chhal - CECB",14-11-2025 07:00:00,22.118125,83.140608,CO,26,47,38
India,Chhattisgarh,Korba,"Rampur, Korba - CECB",14-11-2025 07:00:00,22.368195,82.746431,NH3,2,2,2
India,Chhattisgarh,Korba,"Rampur, Korba - CECB",14-11-2025 07:00:00,22.368195,82.746431,OZONE,2,6,4
India,Bihar,Motihari,"Gandak Colony, Motihari - BSPCB",14-11-2025 07:00:00,26.63086,84.90051,NH3,3,3,3
India,Bihar,Motihari,"Gandak Colony, Motihari - BSPCB",14-11-2025 07:00:00,26.63086,84.90051,SO2,2,3,3
India,Bihar,Muzaffarpur,"Buddha Colony, Muzaffarpur - BSPCB",14-11-2025 07:00:00,26.11442,85.39813,NO2,21,64,38
India,Bihar,Muzaffarpur,"Buddha Colony, Muzaffarpur - BSPCB",14-11-2025 07:00:00,26.11442,85.39813,NH3,5,10,8
India,Bihar,Muzaffarpur,"Buddha Colony, Muzaffarpur - BSPCB",14-11-2025 07:00:00,26.11442,85.39813,OZONE,22,178,42
India,Delhi,Delhi,"Dwarka-Sector 8, Delhi - DPCC ",14-11-2025 07:00:00,28.5710274,77.0719006,NH3,16,21,19
India,Delhi,Delhi,"Dwarka-Sector 8, Delhi - DPCC ",14-11-2025 07:00:00,28.5710274,77.0719006,CO,59,135,80
India,Delhi,Delhi,"Dwarka-Sector 8, Delhi - DPCC ",14-11-2025 07:00:00,28.5710274,77.0719006,OZONE,8,172,15
India,Delhi,Delhi,"IGI Airport (T3), Delhi - IMD",14-11-2025 07:00:00,28.5627763,77.1180053,PM10,284,428,359
India,Delhi,Delhi,"IGI Airport (T3), Delhi - IMD",14-11-2025 07:00:00,28.5627763,77.1180053,OZONE,1,3,3
India,Delhi,Delhi,"IHBAS, Dilshad Garden, Delhi - CPCB",14-11-2025 07:00:00,28.6811736,77.3025234,PM10,195,380,297
India,Delhi,Delhi,"IHBAS, Dilshad Garden, Delhi - CPCB",14-11-2025 07:00:00,28.6811736,77.3025234,NO2,52,55,53
India,Delhi,Delhi,"ITO, Delhi - CPCB",14-11-2025 07:00:00,28.628624,77.241060,PM2.5,363,500,431
India,Delhi,Delhi,"ITO, Delhi - CPCB",14-11-2025 07:00:00,28.628624,77.241060,NO2,26,100,65
India,Delhi,Delhi,"ITO, Delhi - CPCB",14-11-2025 07:00:00,28.628624,77.241060,CO,56,110,87
India,Delhi,Delhi,"Narela, Delhi - DPCC",14-11-2025 07:00:00,28.822836,77.101981,OZONE,6,224,25
India,Delhi,Delhi,"Nehru Nagar, Delhi - DPCC",14-11-2025 07:00:00,28.567890,77.250515,NH3,8,18,12
India,Delhi,Delhi,"North Campus, DU, Delhi - IMD",14-11-2025 07:00:00,28.6573814,77.1585447,PM2.5,335,499,401
India,Delhi,Delhi,"North Campus, DU, Delhi - IMD",14-11-2025 07:00:00,28.6573814,77.1585447,OZONE,17,327,20
India,Delhi,Delhi,"Okhla Phase-2, Delhi - DPCC",14-11-2025 07:00:00,28.530785,77.271255,PM10,298,454,359
India,Delhi,Delhi,"Patparganj, Delhi - DPCC",14-11-2025 07:00:00,28.623763,77.287209,PM10,300,475,390
India,Delhi,Delhi,"Patparganj, Delhi - DPCC",14-11-2025 07:00:00,28.623763,77.287209,SO2,7,10,8
India,Delhi,Delhi,"Punjabi Bagh, Delhi - DPCC",14-11-2025 07:00:00,28.674045,77.131023,PM10,263,484,383
India,Delhi,Delhi,"Sirifort, Delhi - CPCB",14-11-2025 07:00:00,28.5504249,77.2159377,OZONE,8,22,8
India,Delhi,Delhi,"Sonia Vihar, Delhi - DPCC",14-11-2025 07:00:00,28.710508,77.249485,PM2.5,329,500,420
India,Delhi,Delhi,"Sonia Vihar, Delhi - DPCC",14-11-2025 07:00:00,28.710508,77.249485,NO2,32,124,72
India,Delhi,Delhi,"Sonia Vihar, Delhi - DPCC",14-11-2025 07:00:00,28.710508,77.249485,OZONE,2,248,6
India,Delhi,Delhi,"Sri Aurobindo Marg, Delhi - DPCC",14-11-2025 07:00:00,28.531346,77.190156,PM10,207,443,300
India,Delhi,Delhi,"Sri Aurobindo Marg, Delhi - DPCC",14-11-2025 07:00:00,28.531346,77.190156,CO,46,84,63
India,Delhi,Delhi,"Wazirpur, Delhi - DPCC",14-11-2025 07:00:00,28.699793,77.165453,NO2,59,149,93
India,Gujarat,Ahmedabad,"SVPI Airport Hansol, Ahmedabad - IITM",14-11-2025 07:00:00,23.076793,72.627874,SO2,6,10,8
India,Gujarat,Ahmedabad,"SVPI Airport Hansol, Ahmedabad - IITM",14-11-2025 07:00:00,23.076793,72.627874,CO,2,108,61
India,Gujarat,Ankleshwar,"GIDC, Ankleshwar - GPCB",14-11-2025 07:00:00,21.613267,73.010555,OZONE,34,75,35
India,Gujarat,Gandhinagar,"GIFT City, Gandhinagar - IITM",14-11-2025 07:00:00,23.163798,72.677768,SO2,4,18,10
India,Gujarat,Gandhinagar,"IIPHG Lekawada, Gandhinagar - IITM",14-11-2025 07:00:00,23.243639,72.68994,CO,16,106,54
India,Gujarat,Gandhinagar,"IIPHG Lekawada, Gandhinagar - IITM",14-11-2025 07:00:00,23.243639,72.68994,OZONE,5,49,6
India,Delhi,Delhi,"Jahangirpuri, Delhi - DPCC",14-11-2025 07:00:00,28.732820,77.170633,CO,60,131,94
India,Delhi,Delhi,"Lodhi Road, Delhi - IITM",14-11-2025 07:00:00,28.588333,77.221667,SO2,9,42,20
India,Delhi,Delhi,"Lodhi Road, Delhi - IMD",14-11-2025 07:00:00,28.5918245,77.2273074,PM2.5,352,441,382
India,Delhi,Delhi,"Lodhi Road, Delhi - IMD",14-11-2025 07:00:00,28.5918245,77.2273074,NO2,25,73,46
India,Delhi,Delhi,"Major Dhyan Chand National Stadium, Delhi - DPCC",14-11-2025 07:00:00,28.611281,77.237738,CO,37,106,79
India,Delhi,Delhi,"Pusa, Delhi - DPCC",14-11-2025 07:00:00,28.639652,77.146275,PM10,257,500,362
India,Delhi,Delhi,"Pusa, Delhi - DPCC",14-11-2025 07:00:00,28.639652,77.146275,NO2,65,199,123
India,Delhi,Delhi,"Pusa, Delhi - DPCC",14-11-2025 07:00:00,28.639652,77.146275,SO2,7,40,20
India,Delhi,Delhi,"R K Puram, Delhi - DPCC",14-11-2025 07:00:00,28.563262,77.186937,SO2,32,61,48
India,Delhi,Delhi,"R K Puram, Delhi - DPCC",14-11-2025 07:00:00,28.563262,77.186937,CO,50,126,91
India,Delhi,Delhi,"Shadipur, Delhi - CPCB",14-11-2025 07:00:00,28.6514781,77.1473105,CO,44,114,70
India,Delhi,Delhi,"Mundka, Delhi - DPCC",14-11-2025 07:00:00,28.684678,77.076574,SO2,6,53,34
India,Delhi,Delhi,"NSIT Dwarka, Delhi - CPCB",14-11-2025 07:00:00,28.60909,77.0325413,PM10,186,482,315
India,Delhi,Delhi,"Najafgarh, Delhi - DPCC",14-11-2025 07:00:00,28.570173,76.933762,PM2.5,329,460,402
India,Delhi,Delhi,"Narela, Delhi - DPCC",14-11-2025 07:00:00,28.822836,77.101981,PM10,197,479,354
India,Delhi,Delhi,"Narela, Delhi - DPCC",14-11-2025 07:00:00,28.822836,77.101981,NO2,16,83,44
India,Delhi,Delhi,"Wazirpur, Delhi - DPCC",14-11-2025 07:00:00,28.699793,77.165453,CO,69,112,70
India,Gujarat,Ahmedabad,"Chandkheda, Ahmedabad - IITM",14-11-2025 07:00:00,23.107969,72.574648,PM10,107,335,159
India,Gujarat,Ahmedabad,"Chandkheda, Ahmedabad - IITM",14-11-2025 07:00:00,23.107969,72.574648,NH3,6,35,16
India,Gujarat,Ahmedabad,"Chandkheda, Ahmedabad - IITM",14-11-2025 07:00:00,23.107969,72.574648,CO,8,116,59
India,Gujarat,Ahmedabad,"Maninagar, Ahmedabad - GPCB",14-11-2025 07:00:00,23.002657,72.591912,SO2,27,54,45
India,Gujarat,Ahmedabad,"Rakhial, Ahmedabad - IITM",14-11-2025 07:00:00,23.016834,72.625775,NH3,2,45,6
India,Gujarat,Ahmedabad,"SAC ISRO Bopal, Ahmedabad - IITM",14-11-2025 07:00:00,23.041137,72.456691,NH3,NA,NA,NA
India,Gujarat,Ahmedabad,"SAC ISRO Satellite, Ahmedabad - IITM",14-11-2025 07:00:00,23.023389,72.515201,OZONE,1,61,5
India,Gujarat,Ahmedabad,"SVPI Airport Hansol, Ahmedabad - IITM",14-11-2025 07:00:00,23.076793,72.627874,NH3,1,6,4
India,Haryana,Yamuna Nagar,"Gobind Pura, Yamuna Nagar - HSPCB",14-11-2025 07:00:00,30.1480566,77.2893471,SO2,10,15,11
India,Himachal Pradesh,Baddi,"HIMUDA Complex Phase-1, Baddi - HPPCB",14-11-2025 07:00:00,30.943887,76.801991,PM2.5,38,361,163
India,Himachal Pradesh,Baddi,"HIMUDA Complex Phase-1, Baddi - HPPCB",14-11-2025 07:00:00,30.943887,76.801991,NH3,4,7,6
India,Jammu_and_Kashmir,Srinagar,"Rajbagh, Srinagar - JKSPCB",14-11-2025 07:00:00,34.066206,74.819820,PM2.5,29,461,121
India,Karnataka,Bagalkot,"Vidayagiri, Bagalkot - KSPCB",14-11-2025 07:00:00,16.172806,75.659694,NH3,1,2,1
India,Karnataka,Belgaum,"Ramteerth Nagar, Belgaum - KSPCB",14-11-2025 07:00:00,15.888653,74.541751,PM2.5,38,154,78
India,Haryana,Mandikhera,"General Hospital, Mandikhera - HSPCB",14-11-2025 07:00:00,27.9002,76.9938,NH3,13,14,13
India,Haryana,Mandikhera,"General Hospital, Mandikhera - HSPCB",14-11-2025 07:00:00,27.9002,76.9938,CO,88,122,92
India,Haryana,Manesar,"Sector-2 IMT, Manesar - HSPCB",14-11-2025 07:00:00,28.360699,76.936090,OZONE,7,37,9
India,Haryana,Narnaul,"Shastri Nagar, Narnaul - HSPCB",14-11-2025 07:00:00,28.060249,76.113115,PM10,111,185,156
India,Haryana,Palwal,"Shyam Nagar, Palwal - HSPCB",14-11-2025 07:00:00,28.1485564,77.3320667,PM10,75,127,99
India,Haryana,Palwal,"Shyam Nagar, Palwal - HSPCB",14-11-2025 07:00:00,28.1485564,77.3320667,NH3,8,9,9
India,Haryana,Panchgaon,"Amity University, Panchgaon - IITM",14-11-2025 07:00:00,28.3153,76.9143,NH3,11,24,16
India,Haryana,Dharuhera,"Municipal Corporation Office, Dharuhera -  HSPCB",14-11-2025 07:00:00,28.206800,76.799700,OZONE,10,73,13
India,Haryana,Faridabad,"New Industrial Town, Faridabad - HSPCB",14-11-2025 07:00:00,28.39072,77.30059,CO,10,13,11
India,Haryana,Faridabad,"New Industrial Town, Faridabad - HSPCB",14-11-2025 07:00:00,28.39072,77.30059,OZONE,26,35,29
India,Haryana,Fatehabad,"Huda Sector, Fatehabad - HSPCB",14-11-2025 07:00:00,29.503664,75.467934,PM10,110,446,300
India,Haryana,Fatehabad,"Huda Sector, Fatehabad - HSPCB",14-11-2025 07:00:00,29.503664,75.467934,NO2,18,20,19
India,Haryana,Fatehabad,"Huda Sector, Fatehabad - HSPCB",14-11-2025 07:00:00,29.503664,75.467934,CO,25,44,29
India,Haryana,Gurugram,"NISE Gwal Pahari, Gurugram - IMD",14-11-2025 07:00:00,28.422681,77.148944,PM10,206,488,343
India,Haryana,Bahadurgarh,"Arya Nagar, Bahadurgarh - HSPCB",14-11-2025 07:00:00,28.6701,76.9254,OZONE,14,19,17
India,Haryana,Ballabgarh,"Nathu Colony, Ballabgarh - HSPCB",14-11-2025 07:00:00,28.3419248,77.319699,NO2,20,21,20
India,Haryana,Ballabgarh,"Nathu Colony, Ballabgarh - HSPCB",14-11-2025 07:00:00,28.3419248,77.319699,OZONE,15,15,15
India,Haryana,Bhiwani,"H.B. Colony, Bhiwani - HSPCB",14-11-2025 07:00:00,28.806223,76.141105,SO2,12,13,12
India,Haryana,Charkhi Dadri,"Mini Secretariat, Charkhi Dadri - HSPCB",14-11-2025 07:00:00,28.593883,76.270653,SO2,10,12,11
India,Haryana,Dharuhera,"Municipal Corporation Office, Dharuhera -  HSPCB",14-11-2025 07:00:00,28.206800,76.799700,NH3,7,22,16
India,Gujarat,Gandhinagar,"Sector-10, Gandhinagar - GPCB",14-11-2025 07:00:00,23.221714,72.654328,OZONE,9,130,14
India,Gujarat,Surat,"Science Center, Surat - SMC",14-11-2025 07:00:00,21.170046,72.795405,PM2.5,45,163,94
India,Gujarat,Surat,"Science Center, Surat - SMC",14-11-2025 07:00:00,21.170046,72.795405,NO2,4,20,10
India,Gujarat,Vapi,"Phase-1 GIDC, Vapi - GPCB",14-11-2025 07:00:00,20.362421,72.918013,PM10,49,299,133
India,Gujarat,Vatva,"Phase-4 GIDC, Vatva - GPCB",14-11-2025 07:00:00,22.969611,72.643500,PM10,97,199,142
India,Gujarat,Vatva,"Phase-4 GIDC, Vatva - GPCB",14-11-2025 07:00:00,22.969611,72.643500,SO2,32,50,37
India,Haryana,Panchkula,"Sector-6, Panchkula - HSPCB ",14-11-2025 07:00:00,30.7057778,76.8531805555555,CO,16,22,22
India,Haryana,Panipat,"Sector-18, Panipat - HSPCB",14-11-2025 07:00:00,29.432304,76.972765,CO,24,26,25
India,Haryana,Rohtak,"MD University, Rohtak - HSPCB",14-11-2025 07:00:00,28.52123,76.37138,NO2,4,7,6
India,Haryana,Rohtak,"MD University, Rohtak - HSPCB",14-11-2025 07:00:00,28.52123,76.37138,OZONE,12,13,13
India,Haryana,Gurugram,"Sector-51, Gurugram - HSPCB",14-11-2025 07:00:00,28.4227,77.0667,NH3,6,10,8
India,Haryana,Gurugram,"Sector-51, Gurugram - HSPCB",14-11-2025 07:00:00,28.4227,77.0667,OZONE,5,18,6
India,Haryana,Gurugram,"Teri Gram, Gurugram - HSPCB",14-11-2025 07:00:00,28.4275,77.1465,SO2,NA,NA,NA
India,Haryana,Gurugram,"Vikas Sadan, Gurugram - HSPCB",14-11-2025 07:00:00,28.4501238,77.0263051,PM10,76,165,122
India,Haryana,Karnal,"Sector-12, Karnal - HSPCB",14-11-2025 07:00:00,29.695300,77.002700,CO,41,62,53
India,Haryana,Kurukshetra,"Sector-7, Kurukshetra - HSPCB",14-11-2025 07:00:00,29.966942,76.875879,NH3,5,5,5
India,Haryana,Kurukshetra,"Sector-7, Kurukshetra - HSPCB",14-11-2025 07:00:00,29.966942,76.875879,CO,18,57,45
India,Haryana,Panchgaon,"Amity University, Panchgaon - IITM",14-11-2025 07:00:00,28.3153,76.9143,SO2,1,9,4
India,Haryana,Panchgaon,"Amity University, Panchgaon - IITM",14-11-2025 07:00:00,28.3153,76.9143,OZONE,1,87,4
India,Karnataka,Koppal,"Diwator Nagar, Koppal - KSPCB",14-11-2025 07:00:00,15.347630,76.181767,NO2,31,41,36
India,Karnataka,Madikeri,"Stuart Hill, Madikeri - KSPCB",14-11-2025 07:00:00,12.415911,75.735050,PM10,27,41,34
India,Karnataka,Madikeri,"Stuart Hill, Madikeri - KSPCB",14-11-2025 07:00:00,12.415911,75.735050,OZONE,3,8,5
India,Karnataka,Mangalore,"Kadri, Mangalore - KSPCB",14-11-2025 07:00:00,12.889250,74.853000,PM10,24,75,56
India,Karnataka,Mangalore,"Kadri, Mangalore - KSPCB",14-11-2025 07:00:00,12.889250,74.853000,OZONE,9,38,26
India,Karnataka,Mysuru,"Hebbal 1st Stage, Mysuru - KSPCB",14-11-2025 07:00:00,12.21041,76.37376,CO,10,54,19
India,Karnataka,Shivamogga,"Vinoba Nagara, Shivamogga - KSPCB",14-11-2025 07:00:00,13.940000,75.555917,SO2,3,7,4
India,Karnataka,Shivamogga,"Vinoba Nagara, Shivamogga - KSPCB",14-11-2025 07:00:00,13.940000,75.555917,CO,13,37,23
India,Karnataka,Bengaluru,"Peenya, Bengaluru - CPCB",14-11-2025 07:00:00,13.0270199,77.494094,NO2,20,45,29
India,Karnataka,Bengaluru,"Peenya, Bengaluru - CPCB",14-11-2025 07:00:00,13.0270199,77.494094,SO2,4,15,9
India,Karnataka,Bengaluru,"Sanegurava Halli, Bengaluru - KSPCB",14-11-2025 07:00:00,12.990328,77.5431385,SO2,7,7,7
India,Karnataka,Bengaluru,"Shivapura_Peenya, Bengaluru - KSPCB",14-11-2025 07:00:00,13.0246342,77.5080115,SO2,9,13,10
India,Karnataka,Bengaluru,"Shivapura_Peenya, Bengaluru - KSPCB",14-11-2025 07:00:00,13.0246342,77.5080115,CO,48,67,54
India,Karnataka,Bengaluru,"Silk Board, Bengaluru - KSPCB",14-11-2025 07:00:00,12.917348,77.622813,SO2,7,12,9
India,Karnataka,Hubballi,"Lingaraj Nagar, Hubballi - KSPCB",14-11-2025 07:00:00,15.3714823,75.1160168,SO2,1,1,1
India,Karnataka,Hubballi,"Lingaraj Nagar, Hubballi - KSPCB",14-11-2025 07:00:00,15.3714823,75.1160168,CO,12,24,14
India,Karnataka,Kalaburagi,"Lal Bahadur Shastri Nagar, Kalaburagi - KSPCB",14-11-2025 07:00:00,17.321993,76.822628,PM10,40,83,65
India,Karnataka,Kalaburagi,"Lal Bahadur Shastri Nagar, Kalaburagi - KSPCB",14-11-2025 07:00:00,17.321993,76.822628,SO2,61,69,65
India,Karnataka,Koppal,"Diwator Nagar, Koppal - KSPCB",14-11-2025 07:00:00,15.347630,76.181767,PM10,42,72,53
India,Karnataka,Chamarajanagar,"Urban, Chamarajanagar - KSPCB",14-11-2025 07:00:00,11.55358,76.55521,PM10,31,55,46
India,Karnataka,Chamarajanagar,"Urban, Chamarajanagar - KSPCB",14-11-2025 07:00:00,11.55358,76.55521,NH3,2,3,2
India,Karnataka,Chamarajanagar,"Urban, Chamarajanagar - KSPCB",14-11-2025 07:00:00,11.55358,76.55521,OZONE,15,38,24
India,Karnataka,Chikkamagaluru,"Kalyana Nagara, Chikkamagaluru - KSPCB",14-11-2025 07:00:00,13.328028,75.797056,PM10,51,80,61
India,Karnataka,Chikkamagaluru,"Kalyana Nagara, Chikkamagaluru - KSPCB",14-11-2025 07:00:00,13.328028,75.797056,NO2,18,27,22
India,Karnataka,Bengaluru,"Jigani, Bengaluru - KSPCB",14-11-2025 07:00:00,12.7816279,77.6299145,SO2,18,19,18
India,Karnataka,Bengaluru,"Kasturi Nagar, Bengaluru - KSPCB",14-11-2025 07:00:00,13.003872,77.664217,OZONE,20,21,20
India,Karnataka,Bengaluru,"Peenya, Bengaluru - CPCB",14-11-2025 07:00:00,13.0270199,77.494094,PM2.5,21,63,40
India,Karnataka,Bengaluru,"City Railway Station, Bengaluru - KSPCB",14-11-2025 07:00:00,12.9756843,77.5660749,NO2,45,52,48
India,Karnataka,Bengaluru,"Hombegowda Nagar, Bengaluru - KSPCB",14-11-2025 07:00:00,12.938539,77.590100,PM2.5,NA,NA,NA
India,Karnataka,Bengaluru,"Hombegowda Nagar, Bengaluru - KSPCB",14-11-2025 07:00:00,12.938539,77.590100,NO2,NA,NA,NA
India,Karnataka,Dharwad,"Kalabhavan, Dharwad - KSPCB",14-11-2025 07:00:00,15.459706,75.008381,OZONE,19,24,24
India,Karnataka,Bengaluru,"BTM Layout, Bengaluru - CPCB",14-11-2025 07:00:00,12.9135218,77.5950804,NH3,3,3,3
India,Karnataka,Gadag,"Panchal Nagar, Gadag - KSPCB",14-11-2025 07:00:00,15.411456,75.638133,NO2,NA,NA,NA
India,Madhya Pradesh,Mandideep,"Sector-D Industrial Area, Mandideep - MPPCB",14-11-2025 07:00:00,23.108440,77.511428,NH3,1,6,3
India,Madhya Pradesh,Mandideep,"Sector-D Industrial Area, Mandideep - MPPCB",14-11-2025 07:00:00,23.108440,77.511428,OZONE,4,134,6
India,Madhya Pradesh,Ratlam,"Shasthri Nagar, Ratlam - IPCA Lab",14-11-2025 07:00:00,23.331731,75.045981,PM2.5,8,175,72
India,Madhya Pradesh,Ratlam,"Shasthri Nagar, Ratlam - IPCA Lab",14-11-2025 07:00:00,23.331731,75.045981,SO2,1,6,3
India,Madhya Pradesh,Satna,"Bandhavgar Colony, Satna - Birla Cement",14-11-2025 07:00:00,24.58434363,80.8549414,SO2,20,27,22
India,Madhya Pradesh,Singrauli,"Suryakiran Bhawan NCL, Singrauli - MPPCB",14-11-2025 07:00:00,24.108970,82.645580,PM2.5,42,346,208
India,Madhya Pradesh,Singrauli,"Suryakiran Bhawan NCL, Singrauli - MPPCB",14-11-2025 07:00:00,24.108970,82.645580,NO2,31,88,52
India,Maharashtra,Ahmednagar,"Tarakpur, Ahmednagar - MPCB",14-11-2025 07:00:00,19.10122,74.73339,PM2.5,65,141,88
India,Maharashtra,Aurangabad,"MIDC Chilkalthana, Aurangabad - MPCB",14-11-2025 07:00:00,19.875620,75.387310,PM2.5,39,189,78
India,Maharashtra,Aurangabad,"MIDC Chilkalthana, Aurangabad - MPCB",14-11-2025 07:00:00,19.875620,75.387310,NO2,NA,NA,NA
India,Maharashtra,Aurangabad,"MIDC Chilkalthana, Aurangabad - MPCB",14-11-2025 07:00:00,19.875620,75.387310,CO,11,61,21
India,Maharashtra,Aurangabad,"More Chowk Waluj, Aurangabad - MPCB",14-11-2025 07:00:00,19.8389439,75.244448,PM2.5,NA,NA,NA
India,Maharashtra,Aurangabad,"More Chowk Waluj, Aurangabad - MPCB",14-11-2025 07:00:00,19.8389439,75.244448,NH3,NA,NA,NA
India,Maharashtra,Aurangabad,"Rachnakar Colony, Aurangabad - MPCB",14-11-2025 07:00:00,19.863756,75.321188,PM2.5,55,171,81
India,Maharashtra,Aurangabad,"Rachnakar Colony, Aurangabad - MPCB",14-11-2025 07:00:00,19.863756,75.321188,PM10,39,110,86
India,Maharashtra,Badlapur,"Katrap, Badlapur - MPCB",14-11-2025 07:00:00,19.16485,73.23409,PM10,78,187,126
India,Madhya Pradesh,Jabalpur,"Gupteshwar, Jabalpur - JMC",14-11-2025 07:00:00,23.142888,79.916147,OZONE,3,107,17
India,Madhya Pradesh,Jabalpur,"Suhagi, Jabalpur - JMC",14-11-2025 07:00:00,23.218135,79.957770,CO,4,109,35
India,Madhya Pradesh,Katni,"Gole Bazar, Katni - MPPCB",14-11-2025 07:00:00,23.50016,80.23284,PM2.5,58,359,224
India,Madhya Pradesh,Katni,"Gole Bazar, Katni - MPPCB",14-11-2025 07:00:00,23.50016,80.23284,NO2,19,82,55
India,Madhya Pradesh,Katni,"Gole Bazar, Katni - MPPCB",14-11-2025 07:00:00,23.50016,80.23284,SO2,26,130,56
India,Madhya Pradesh,Mandideep,"Sector-D Industrial Area, Mandideep - MPPCB",14-11-2025 07:00:00,23.108440,77.511428,PM10,122,329,195
India,Maharashtra,Ahmednagar,"Tarakpur, Ahmednagar - MPCB",14-11-2025 07:00:00,19.10122,74.73339,NO2,18,26,22
India,Maharashtra,Akola,"Ramdaspeth, Akola - MPCB",14-11-2025 07:00:00,20.719516,77.000253,NH3,5,18,8
India,Maharashtra,Amravati,"Shivneri Colony, Amravati - MPCB",14-11-2025 07:00:00,20.9402359,77.7895248,PM2.5,68,174,100
India,Maharashtra,Amravati,"Shivneri Colony, Amravati - MPCB",14-11-2025 07:00:00,20.9402359,77.7895248,OZONE,5,146,43
India,Maharashtra,Amravati,"Shri Shivaji Science College, Amravati - MPCB",14-11-2025 07:00:00,20.939198,77.765701,PM10,84,395,137
India,Maharashtra,Amravati,"Shri Shivaji Science College, Amravati - MPCB",14-11-2025 07:00:00,20.939198,77.765701,OZONE,3,122,36
India,Madhya Pradesh,Dewas,"Bhopal Chauraha, Dewas - MPPCB",14-11-2025 07:00:00,22.9682591,76.064118,SO2,3,59,33
India,Madhya Pradesh,Gwalior,"City Center, Gwalior - MPPCB",14-11-2025 07:00:00,26.203442,78.193251,PM10,75,206,135
India,Madhya Pradesh,Gwalior,"City Center, Gwalior - MPPCB",14-11-2025 07:00:00,26.203442,78.193251,NH3,2,3,2
India,Madhya Pradesh,Gwalior,"Deen Dayal Nagar, Gwalior - MPPCB",14-11-2025 07:00:00,26.259242,78.216432,NO2,NA,NA,NA
India,Madhya Pradesh,Gwalior,"Deen Dayal Nagar, Gwalior - MPPCB",14-11-2025 07:00:00,26.259242,78.216432,CO,12,140,54
India,Madhya Pradesh,Gwalior,"Maharaj Bada, Gwalior - MPPCB",14-11-2025 07:00:00,26.200388,78.147714,OZONE,1,97,14
India,Kerala,Eloor,"Udyogamandal, Eloor - Kerala PCB",14-11-2025 07:00:00,10.073232,76.302765,NO2,6,8,7
India,Kerala,Kannur,"Thavakkara, Kannur - Kerala PCB",14-11-2025 07:00:00,11.875000,75.373200,CO,16,18,16
India,Kerala,Kollam,"Polayathode, Kollam - Kerala PCB",14-11-2025 07:00:00,8.8787,76.6073,PM2.5,34,191,128
India,Kerala,Kollam,"Polayathode, Kollam - Kerala PCB",14-11-2025 07:00:00,8.8787,76.6073,NH3,1,1,1
India,Kerala,Kollam,"Polayathode, Kollam - Kerala PCB",14-11-2025 07:00:00,8.8787,76.6073,SO2,2,3,3
India,Kerala,Kollam,"Polayathode, Kollam - Kerala PCB",14-11-2025 07:00:00,8.8787,76.6073,OZONE,29,36,30
India,Karnataka,Tumakuru,"Thimmalapura, Tumakuru - KSPCB",14-11-2025 07:00:00,13.377516,77.099072,PM10,NA,NA,NA
India,Karnataka,Udupi,"Brahmagiri, Udupi - KSPCB",14-11-2025 07:00:00,13.34194444,74.74694444,NH3,1,2,1
India,Karnataka,Vijayapura,"Ibrahimpur, Vijayapura - KSPCB",14-11-2025 07:00:00,16.802639,75.722694,OZONE,14,17,16
India,Madhya Pradesh,Bhopal,"Idgah Hills, Bhopal - MPPCB",14-11-2025 07:00:00,23.264759,77.381568,PM2.5,87,329,193
India,Madhya Pradesh,Bhopal,"Paryavaran Parisar, Bhopal - MPPCB",14-11-2025 07:00:00,23.210494,77.425409,PM10,112,410,230
India,Madhya Pradesh,Bhopal,"Paryavaran Parisar, Bhopal - MPPCB",14-11-2025 07:00:00,23.210494,77.425409,NO2,32,139,73
India,Madhya Pradesh,Bhopal,"Paryavaran Parisar, Bhopal - MPPCB",14-11-2025 07:00:00,23.210494,77.425409,OZONE,9,87,31
India,Madhya Pradesh,Jabalpur,"Govindh Bhavan Colony, Jabalpur - JMC",14-11-2025 07:00:00,23.163174,79.973061,SO2,15,16,16
India,Madhya Pradesh,Jabalpur,"Gupteshwar, Jabalpur - JMC",14-11-2025 07:00:00,23.142888,79.916147,PM10,80,220,135
India,Maharashtra,Mumbai,"Chakala-Andheri East, Mumbai - IITM",14-11-2025 07:00:00,19.11074,72.86084,PM2.5,86,216,136
India,Maharashtra,Mumbai,"Chakala-Andheri East, Mumbai - IITM",14-11-2025 07:00:00,19.11074,72.86084,PM10,90,229,143
India,Maharashtra,Mumbai,"Chakala-Andheri East, Mumbai - IITM",14-11-2025 07:00:00,19.11074,72.86084,NO2,36,165,89
India,Maharashtra,Mumbai,"Chakala-Andheri East, Mumbai - IITM",14-11-2025 07:00:00,19.11074,72.86084,NH3,7,44,17
India,Maharashtra,Mumbai,"Chakala-Andheri East, Mumbai - IITM",14-11-2025 07:00:00,19.11074,72.86084,SO2,2,20,9
India,Maharashtra,Mumbai,"Chembur, Mumbai - MPCB",14-11-2025 07:00:00,19.0364585,72.8954371,NH3,2,3,2
India,Maharashtra,Mumbai,"Chembur, Mumbai - MPCB",14-11-2025 07:00:00,19.0364585,72.8954371,SO2,3,13,7
India,Maharashtra,Mumbai,"Chembur, Mumbai - MPCB",14-11-2025 07:00:00,19.0364585,72.8954371,OZONE,1,153,25
India,Maharashtra,Mumbai,"Chhatrapati Shivaji Intl. Airport (T2), Mumbai - MPCB",14-11-2025 07:00:00,19.10078,72.87462,PM10,93,169,127
India,Maharashtra,Mumbai,"Chhatrapati Shivaji Intl. Airport (T2), Mumbai - MPCB",14-11-2025 07:00:00,19.10078,72.87462,CO,14,22,18
India,Maharashtra,Mumbai,"Malad West, Mumbai - IITM",14-11-2025 07:00:00,19.19709,72.82204,PM2.5,65,232,129
India,Maharashtra,Mumbai,"Malad West, Mumbai - IITM",14-11-2025 07:00:00,19.19709,72.82204,NH3,5,16,10
India,Maharashtra,Mumbai,"Malad West, Mumbai - IITM",14-11-2025 07:00:00,19.19709,72.82204,CO,30,106,74
India,Maharashtra,Mumbai,"Mazgaon, Mumbai - IITM",14-11-2025 07:00:00,18.96702,72.84214,PM2.5,149,248,193
India,Maharashtra,Mumbai,"Mazgaon, Mumbai - IITM",14-11-2025 07:00:00,18.96702,72.84214,OZONE,17,203,28
India,Maharashtra,Mumbai,"Mindspace-Malad West, Mumbai - MPCB",14-11-2025 07:00:00,19.1878657,72.8304069,PM10,66,189,114
India,Maharashtra,Mumbai,"Mindspace-Malad West, Mumbai - MPCB",14-11-2025 07:00:00,19.1878657,72.8304069,NO2,17,106,61
India,Maharashtra,Mumbai,"Mindspace-Malad West, Mumbai - MPCB",14-11-2025 07:00:00,19.1878657,72.8304069,NH3,6,39,22
India,Maharashtra,Mumbai,"Mindspace-Malad West, Mumbai - MPCB",14-11-2025 07:00:00,19.1878657,72.8304069,CO,36,96,80
India,Maharashtra,Badlapur,"Katrap, Badlapur - MPCB",14-11-2025 07:00:00,19.16485,73.23409,OZONE,12,106,13
India,Maharashtra,Bhiwandi,"Gokul Nagar, Bhiwandi - MPCB",14-11-2025 07:00:00,19.309073,73.057223,PM2.5,72,204,132
India,Maharashtra,Bhiwandi,"Gokul Nagar, Bhiwandi - MPCB",14-11-2025 07:00:00,19.309073,73.057223,SO2,6,23,16
India,Maharashtra,Bhiwandi,"Gokul Nagar, Bhiwandi - MPCB",14-11-2025 07:00:00,19.309073,73.057223,CO,24,49,45
India,Maharashtra,Bhiwandi,"Gokul Nagar, Bhiwandi - MPCB",14-11-2025 07:00:00,19.309073,73.057223,OZONE,15,112,17
India,Maharashtra,Boisar,"Khaira, Boisar - MPCB",14-11-2025 07:00:00,19.786089,72.757971,NO2,12,26,16
India,Maharashtra,Chandrapur,"Chauhan Colony, Chandrapur - MPCB",14-11-2025 07:00:00,19.962900,79.298714,NO2,30,33,32
India,Maharashtra,Mira-Bhayandar,"Bhayandar West, Mira-Bhayandar - MPCB",14-11-2025 07:00:00,19.296481,72.840923,OZONE,1,119,41
India,Maharashtra,Mumbai,"Bandra Kurla Complex, Mumbai - IITM",14-11-2025 07:00:00,19.053536,72.84643,PM10,199,352,261
India,Maharashtra,Mumbai,"Bandra Kurla Complex, Mumbai - IITM",14-11-2025 07:00:00,19.053536,72.84643,SO2,5,9,6
India,Maharashtra,Mumbai,"Bandra Kurla Complex, Mumbai - MPCB",14-11-2025 07:00:00,19.065931,72.862131,SO2,4,9,6
India,Maharashtra,Mumbai,"Bandra Kurla Complex, Mumbai - MPCB",14-11-2025 07:00:00,19.065931,72.862131,OZONE,1,92,11
India,Maharashtra,Mumbai,"Borivali East, Mumbai - IITM",14-11-2025 07:00:00,19.23241,72.86895,PM2.5,65,166,111
India,Maharashtra,Mumbai,"Borivali East, Mumbai - IITM",14-11-2025 07:00:00,19.23241,72.86895,CO,21,66,32
India,Maharashtra,Chandrapur,"MIDC Khutala, Chandrapur - MPCB",14-11-2025 07:00:00,19.9775302,79.2337086,PM10,NA,NA,NA
India,Maharashtra,Chandrapur,"MIDC Khutala, Chandrapur - MPCB",14-11-2025 07:00:00,19.9775302,79.2337086,CO,36,42,41
India,Maharashtra,Dhule,"Deopur, Dhule - MPCB",14-11-2025 07:00:00,20.918946,74.776388,NO2,10,104,37
India,Maharashtra,Dhule,"Deopur, Dhule - MPCB",14-11-2025 07:00:00,20.918946,74.776388,SO2,7,17,11
India,Maharashtra,Dhule,"Deopur, Dhule - MPCB",14-11-2025 07:00:00,20.918946,74.776388,CO,20,108,32
India,Maharashtra,Dhule,"Deopur, Dhule - MPCB",14-11-2025 07:00:00,20.918946,74.776388,OZONE,16,53,18
India,Maharashtra,Jalna,"Old MIDC, Jalna - MPCB",14-11-2025 07:00:00,19.854616,75.905894,PM10,64,147,100
India,Maharashtra,Jalna,"Old MIDC, Jalna - MPCB",14-11-2025 07:00:00,19.854616,75.905894,SO2,1,4,1
India,Maharashtra,Mumbai,"Colaba, Mumbai - MPCB",14-11-2025 07:00:00,18.910000,72.820000,NH3,3,3,3
India,Maharashtra,Mumbai,"Colaba, Mumbai - MPCB",14-11-2025 07:00:00,18.910000,72.820000,OZONE,11,11,11
India,Maharashtra,Mumbai,"Deonar, Mumbai - IITM",14-11-2025 07:00:00,19.04946,72.9230,PM2.5,63,235,166
India,Maharashtra,Mumbai,"Deonar, Mumbai - IITM",14-11-2025 07:00:00,19.04946,72.9230,PM10,158,401,244
India,Maharashtra,Mumbai,"Deonar, Mumbai - IITM",14-11-2025 07:00:00,19.04946,72.9230,NH3,7,13,9
India,Maharashtra,Mumbai,"Ghatkopar, Mumbai - BMC",14-11-2025 07:00:00,19.083694,72.920967,OZONE,3,175,4
India,Maharashtra,Mumbai,"Kandivali East, Mumbai - MPCB",14-11-2025 07:00:00,19.205800,72.868200,PM10,78,177,123
India,Maharashtra,Latur,"Sawe Wadi, Latur - MPCB",14-11-2025 07:00:00,18.39963,76.57452,NO2,8,50,25
India,Maharashtra,Latur,"Sawe Wadi, Latur - MPCB",14-11-2025 07:00:00,18.39963,76.57452,OZONE,74,165,115
India,Maharashtra,Mahad,"Kamble Tarf Birwadi, Mahad - MPCB",14-11-2025 07:00:00,18.1023399,73.4783687,NO2,8,40,20
India,Maharashtra,Malegaon,"Mahesh Nagar, Malegaon - MPCB",14-11-2025 07:00:00,20.555712,74.529236,OZONE,22,43,39
India,Maharashtra,Mira-Bhayandar,"Bhayandar West, Mira-Bhayandar - MPCB",14-11-2025 07:00:00,19.296481,72.840923,PM10,90,137,114
India,Maharashtra,Kalyan,"Khadakpada, Kalyan - MPCB",14-11-2025 07:00:00,19.25292,73.142019,PM2.5,26,214,77
India,Maharashtra,Kalyan,"Khadakpada, Kalyan - MPCB",14-11-2025 07:00:00,19.25292,73.142019,CO,62,101,85
India,Maharashtra,Kalyan,"Pimpleshwar Mandir, Kalyan - MPCB",14-11-2025 07:00:00,19.192056,72.9585188,SO2,8,12,9
India,Maharashtra,Kolhapur,"Shivaji University, Kolhapur - MPCB",14-11-2025 07:00:00,16.6870449,74.2505872,SO2,2,6,5
India,Maharashtra,Kolhapur,"Sinchan Bhavan, Kolhapur - MPCB",14-11-2025 07:00:00,16.7143745,74.2426398,PM10,97,286,151
India,Maharashtra,Mumbai,"Kandivali East, Mumbai - MPCB",14-11-2025 07:00:00,19.205800,72.868200,NO2,6,11,8
India,Maharashtra,Mumbai,"Kherwadi_Bandra East, Mumbai - MPCB",14-11-2025 07:00:00,19.0632143,72.8456324,PM10,114,425,183
India,Maharashtra,Mumbai,"Kherwadi_Bandra East, Mumbai - MPCB",14-11-2025 07:00:00,19.0632143,72.8456324,CO,20,58,47
India,Maharashtra,Mumbai,"Khindipada-Bhandup West, Mumbai - IITM",14-11-2025 07:00:00,19.1653323,72.922099,SO2,NA,NA,NA
India,Maharashtra,Mumbai,"Khindipada-Bhandup West, Mumbai - IITM",14-11-2025 07:00:00,19.1653323,72.922099,CO,28,46,33
India,Maharashtra,Mumbai,"Khindipada-Bhandup West, Mumbai - IITM",14-11-2025 07:00:00,19.1653323,72.922099,OZONE,14,74,50
India,Maharashtra,Nagpur,"Opp GPO Civil Lines, Nagpur - MPCB",14-11-2025 07:00:00,21.152875,79.0517531,NH3,1,5,2
India,Maharashtra,Nagpur,"Ram Nagar, Nagpur - MPCB",14-11-2025 07:00:00,21.143383,79.048912,PM2.5,105,268,179
India,Maharashtra,Nagpur,"Ram Nagar, Nagpur - MPCB",14-11-2025 07:00:00,21.143383,79.048912,NH3,1,13,4
India,Maharashtra,Nanded,"Sneh Nagar, Nanded - MPCB",14-11-2025 07:00:00,19.173852,77.296291,PM2.5,78,220,113
India,Maharashtra,Nanded,"Sneh Nagar, Nanded - MPCB",14-11-2025 07:00:00,19.173852,77.296291,NO2,10,49,24
India,Maharashtra,Nanded,"Sneh Nagar, Nanded - MPCB",14-11-2025 07:00:00,19.173852,77.296291,SO2,2,2,2
India,Maharashtra,Nanded,"Sneh Nagar, Nanded - MPCB",14-11-2025 07:00:00,19.173852,77.296291,CO,16,28,23
India,Maharashtra,Nanded,"Sneh Nagar, Nanded - MPCB",14-11-2025 07:00:00,19.173852,77.296291,OZONE,19,102,32
India,Maharashtra,Nashik,"Gangapur Road, Nashik - MPCB",14-11-2025 07:00:00,20.0073285,73.7762427,NH3,4,4,4
India,Maharashtra,Nashik,"Gangapur Road, Nashik - MPCB",14-11-2025 07:00:00,20.0073285,73.7762427,SO2,2,21,7
India,Maharashtra,Pimpri-Chinchwad,"Gavalinagar, Pimpri Chinchwad - MPCB",14-11-2025 07:00:00,18.63673,73.82487,NH3,8,26,14
India,Maharashtra,Pimpri-Chinchwad,"Gavalinagar, Pimpri Chinchwad - MPCB",14-11-2025 07:00:00,18.63673,73.82487,OZONE,1,124,1
India,Maharashtra,Pimpri-Chinchwad,"Savta Mali Nagar, Pimpri-Chinchwad - IITM",14-11-2025 07:00:00,18.614767,73.799516,OZONE,2,72,3
India,Maharashtra,Pimpri-Chinchwad,"Thergaon, Pimpri Chinchwad - MPCB",14-11-2025 07:00:00,18.616318,73.765797,PM10,152,234,190
India,Maharashtra,Pune,"Dhankawadi, Pune - IITM",14-11-2025 07:00:00,18.459883,73.852193,NO2,1,4,2
India,Maharashtra,Pune,"Dhankawadi, Pune - IITM",14-11-2025 07:00:00,18.459883,73.852193,OZONE,1,2,1
India,Maharashtra,Navi Mumbai,"Sector-2E Kalamboli, Navi Mumbai - MPCB",14-11-2025 07:00:00,19.02579,73.10297,SO2,1,8,4
India,Maharashtra,Navi Mumbai,"Tondare-Taloja, Navi Mumbai - MPCB",14-11-2025 07:00:00,19.0630,73.1209,PM2.5,41,231,141
India,Maharashtra,Navi Mumbai,"Tondare-Taloja, Navi Mumbai - MPCB",14-11-2025 07:00:00,19.0630,73.1209,CO,30,48,41
India,Maharashtra,Parbhani,"Masoom Colony, Parbhani - MPCB",14-11-2025 07:00:00,19.265594,76.761463,PM2.5,58,320,176
India,Maharashtra,Parbhani,"Masoom Colony, Parbhani - MPCB",14-11-2025 07:00:00,19.265594,76.761463,SO2,3,29,15
India,Maharashtra,Parbhani,"Masoom Colony, Parbhani - MPCB",14-11-2025 07:00:00,19.265594,76.761463,OZONE,10,10,10
India,Maharashtra,Navi Mumbai,"Kopripada-Vashi, Navi Mumbai - MPCB",14-11-2025 07:00:00,19.090337,73.014232,CO,18,58,30
India,Maharashtra,Navi Mumbai,"Mahape, Navi Mumbai - MPCB",14-11-2025 07:00:00,19.1135051,73.008978,PM2.5,14,28,19
India,Maharashtra,Navi Mumbai,"Mahape, Navi Mumbai - MPCB",14-11-2025 07:00:00,19.1135051,73.008978,PM10,104,161,128
India,Maharashtra,Navi Mumbai,"Mahape, Navi Mumbai - MPCB",14-11-2025 07:00:00,19.1135051,73.008978,NH3,3,3,3
India,Maharashtra,Navi Mumbai,"Nerul, Navi Mumbai - MPCB",14-11-2025 07:00:00,19.008751,73.016620,PM2.5,89,307,193
India,Maharashtra,Navi Mumbai,"Nerul, Navi Mumbai - MPCB",14-11-2025 07:00:00,19.008751,73.016620,CO,32,34,34
India,Maharashtra,Mumbai,"Vile Parle West, Mumbai - MPCB",14-11-2025 07:00:00,19.10861,72.83622,NH3,1,5,4
India,Maharashtra,Mumbai,"Worli, Mumbai - MPCB",14-11-2025 07:00:00,18.9936162,72.8128113,PM2.5,69,97,75
India,Maharashtra,Mumbai,"Worli, Mumbai - MPCB",14-11-2025 07:00:00,18.9936162,72.8128113,PM10,93,174,114
India,Maharashtra,Mumbai,"Worli, Mumbai - MPCB",14-11-2025 07:00:00,18.9936162,72.8128113,NH3,1,2,1
India,Maharashtra,Nagpur,"Mahal, Nagpur - MPCB",14-11-2025 07:00:00,21.14472,79.107595,SO2,3,97,40
India,Maharashtra,Mumbai,"Navy Nagar-Colaba, Mumbai - IITM",14-11-2025 07:00:00,18.897756,72.813320,NH3,3,25,6
India,Maharashtra,Mumbai,"Navy Nagar-Colaba, Mumbai - IITM",14-11-2025 07:00:00,18.897756,72.813320,SO2,13,30,20
India,Maharashtra,Mumbai,"Navy Nagar-Colaba, Mumbai - IITM",14-11-2025 07:00:00,18.897756,72.813320,CO,20,49,37
India,Maharashtra,Mumbai,"Powai, Mumbai - MPCB",14-11-2025 07:00:00,19.137500,72.915056,SO2,25,29,28
India,Maharashtra,Mumbai,"Powai, Mumbai - MPCB",14-11-2025 07:00:00,19.137500,72.915056,OZONE,9,9,9
India,Maharashtra,Mumbai,"Siddharth Nagar-Worli, Mumbai - IITM",14-11-2025 07:00:00,19.000083,72.813993,CO,17,78,57
India,Maharashtra,Mumbai,"Sion, Mumbai - MPCB",14-11-2025 07:00:00,19.047000,72.874600,PM10,12,454,184
India,Maharashtra,Mumbai,"Vasai West, Mumbai - MPCB",14-11-2025 07:00:00,19.383200,72.820400,PM10,65,256,121
India,Maharashtra,Nashik,"Hirawadi, Nashik - MPCB",14-11-2025 07:00:00,20.021503,73.813844,OZONE,8,75,33
India,Maharashtra,Nashik,"MIDC Ambad, Nashik - MPCB",14-11-2025 07:00:00,19.950220,73.731480,OZONE,NA,NA,NA
India,Maharashtra,Mumbai,"Sewri, Mumbai - BMC",14-11-2025 07:00:00,19.000084,72.856730,NH3,10,34,22
India,Maharashtra,Mumbai,"Sewri, Mumbai - BMC",14-11-2025 07:00:00,19.000084,72.856730,OZONE,191,322,319
India,Maharashtra,Pune,"Transport Nagar-Nigdi, Pune - IITM",14-11-2025 07:00:00,18.664282,73.763966,CO,2,105,96
India,Maharashtra,Sangli,"Vijay Nagar, Sangli - MPCB",14-11-2025 07:00:00, 16.5038,74.3623,PM2.5,122,301,214
India,Maharashtra,Sangli,"Vijay Nagar, Sangli - MPCB",14-11-2025 07:00:00, 16.5038,74.3623,NO2,14,67,35
India,Maharashtra,Sangli,"Vijay Nagar, Sangli - MPCB",14-11-2025 07:00:00, 16.5038,74.3623,SO2,1,7,5
India,Maharashtra,Sangli,"Vijay Nagar, Sangli - MPCB",14-11-2025 07:00:00, 16.5038,74.3623,OZONE,7,66,27
India,Maharashtra,Solapur,"Dnyaneshwar Nagar, Solapur - MPCB",14-11-2025 07:00:00,17.6336264,75.9132495,PM2.5,50,85,66
India,Maharashtra,Solapur,"Dnyaneshwar Nagar, Solapur - MPCB",14-11-2025 07:00:00,17.6336264,75.9132495,OZONE,45,95,67
India,Maharashtra,Solapur,"Ratandeep Housing Society, Solapur - MPCB",14-11-2025 07:00:00,17.65439,75.90649,PM2.5,71,132,96
India,Maharashtra,Pune,"Hadapsar, Pune - IITM",14-11-2025 07:00:00,18.501793,73.927532,PM10,115,374,197
India,Maharashtra,Pune,"Katraj Dairy, Pune - MPCB",14-11-2025 07:00:00,18.454450,73.854155,PM2.5,36,105,65
India,Maharashtra,Pune,"Katraj Dairy, Pune - MPCB",14-11-2025 07:00:00,18.454450,73.854155,PM10,90,128,111
India,Maharashtra,Pune,"Katraj Dairy, Pune - MPCB",14-11-2025 07:00:00,18.454450,73.854155,CO,20,113,55
India,Maharashtra,Pune,"Katraj Dairy, Pune - MPCB",14-11-2025 07:00:00,18.454450,73.854155,OZONE,1,148,10
India,Maharashtra,Pune,"Panchawati_Pashan, Pune - IITM",14-11-2025 07:00:00,18.536457,73.805454,NO2,22,109,50
India,Maharashtra,Pune,"Panchawati_Pashan, Pune - IITM",14-11-2025 07:00:00,18.536457,73.805454,CO,4,54,42
India,Maharashtra,Pune,"Revenue Colony-Shivajinagar, Pune - IITM",14-11-2025 07:00:00,18.530085,73.849598,OZONE,1,67,2
India,Maharashtra,Thane,"Kasarvadavali, Thane - MPCB",14-11-2025 07:00:00,19.26777,72.97182,NO2,15,100,45
India,Maharashtra,Thane,"Upvan Fort, Thane - MPCB",14-11-2025 07:00:00,19.222279,72.957979,PM2.5,27,118,60
India,Maharashtra,Thane,"Upvan Fort, Thane - MPCB",14-11-2025 07:00:00,19.222279,72.957979,PM10,47,113,76
India,Maharashtra,Thane,"Upvan Fort, Thane - MPCB",14-11-2025 07:00:00,19.222279,72.957979,NH3,NA,NA,NA
India,Maharashtra,Ulhasnagar,"Sidhi Vinayak Nagar, Ulhasnagar - MPCB",14-11-2025 07:00:00,19.235581,73.159121,CO,28,48,42
India,Maharashtra,Virar,"Bolinj, Virar - MPCB",14-11-2025 07:00:00,19.4458210,72.7988231,PM2.5,61,126,74
India,Maharashtra,Virar,"Bolinj, Virar - MPCB",14-11-2025 07:00:00,19.4458210,72.7988231,NH3,1,3,2
India,Odisha,Talcher,"Talcher Coalfields,Talcher - OSPCB",14-11-2025 07:00:00,20.9360711,85.1707021,SO2,42,84,63
India,Odisha,Tensa,"Barsua Iron Ore Mines, Tensa - OSPCB",14-11-2025 07:00:00,21.869985,85.167016,PM10,34,139,114
India,Punjab,Amritsar,"Golden Temple, Amritsar - PPCB",14-11-2025 07:00:00,31.620000,74.876512,NH3,5,7,6
India,Punjab,Bathinda,"Hardev Nagar, Bathinda - PPCB",14-11-2025 07:00:00,30.233011,74.907758,PM2.5,45,249,88
India,Punjab,Bathinda,"Hardev Nagar, Bathinda - PPCB",14-11-2025 07:00:00,30.233011,74.907758,SO2,NA,NA,NA
India,Meghalaya,Shillong,"JN Stadium, Shillong - Meghalaya PCB",14-11-2025 07:00:00,25.5803419,91.8942571,NO2,6,27,16
India,Meghalaya,Shillong,"Lumpyngngad, Shillong - Meghalaya PCB",14-11-2025 07:00:00,25.5586,91.8985,SO2,5,7,6
India,Nagaland,Kohima,"PWD Junction, Kohima - NPCB",14-11-2025 07:00:00,25.6635413,94.0989878,SO2,71,74,72
India,Odisha,Balasore,"Kalidaspur, Balasore - OSPCB",14-11-2025 07:00:00,21.51161,86.89088,NH3,2,3,2
India,Odisha,Balasore,"Kalidaspur, Balasore - OSPCB",14-11-2025 07:00:00,21.51161,86.89088,SO2,6,20,11
India,Odisha,Bileipada,"Tata Township, Bileipada - OSPCB",14-11-2025 07:00:00,22.06156703,85.47409613,CO,30,38,34
India,Odisha,Byasanagar,"Ferro Chrome Colony, Byasanagar - OSPCB",14-11-2025 07:00:00,20.94185,86.11510,NO2,7,39,16
India,Odisha,Byasanagar,"Ferro Chrome Colony, Byasanagar - OSPCB",14-11-2025 07:00:00,20.94185,86.11510,NH3,2,4,3
India,Odisha,Cuttack,"CDA Area, Cuttack - OSPCB",14-11-2025 07:00:00,20.48891     ,85.84768     ,CO,40,122,56
India,Odisha,Cuttack,"CDA Area, Cuttack - OSPCB",14-11-2025 07:00:00,20.48891     ,85.84768     ,OZONE,4,230,27
India,Punjab,Khanna,"Kalal Majra, Khanna - PPCB",14-11-2025 07:00:00,30.736056 ,76.209694,NO2,26,31,28
India,Punjab,Khanna,"Kalal Majra, Khanna - PPCB",14-11-2025 07:00:00,30.736056 ,76.209694,NH3,7,7,7
India,Punjab,Khanna,"Kalal Majra, Khanna - PPCB",14-11-2025 07:00:00,30.736056 ,76.209694,SO2,11,57,27
India,Punjab,Mandi Gobindgarh,"RIMT University, Mandi Gobindgarh - PPCB",14-11-2025 07:00:00,30.649961,76.331442,PM10,147,290,197
India,Punjab,Mandi Gobindgarh,"RIMT University, Mandi Gobindgarh - PPCB",14-11-2025 07:00:00,30.649961,76.331442,CO,14,105,36
India,Odisha,Nayagarh,"Dabuna, Nayagarh - OSPCB",14-11-2025 07:00:00,21.847279,85.416905,PM2.5,54,84,67
India,Odisha,Nayagarh,"Dabuna, Nayagarh - OSPCB",14-11-2025 07:00:00,21.847279,85.416905,SO2,6,17,10
India,Odisha,Rourkela,"Fertilizer Township, Rourkela - OSPCB",14-11-2025 07:00:00,22.18972222,84.86277778,NO2,11,11,11
India,Odisha,Talcher,"Talcher Coalfields,Talcher - OSPCB",14-11-2025 07:00:00,20.9360711,85.1707021,NO2,61,127,94
India,Odisha,Barbil,"Forest Office, Barbil - OSPCB",14-11-2025 07:00:00,22.1166054,85.3945546,SO2,7,25,12
India,Odisha,Bhubaneswar,"Patia, Bhubaneswar - OSPCB",14-11-2025 07:00:00,20.34652,85.81630,NO2,12,105,39
India,Odisha,Bhubaneswar,"Patia, Bhubaneswar - OSPCB",14-11-2025 07:00:00,20.34652,85.81630,CO,20,107,42
India,Odisha,Bhubaneswar,"Patia, Bhubaneswar - OSPCB",14-11-2025 07:00:00,20.34652,85.81630,OZONE,3,201,39
India,Punjab,Rupnagar,"Ratanpura, Rupnagar - Ambuja Cements",14-11-2025 07:00:00,31.0325454,76.5623046,PM2.5,18,442,79
India,Punjab,Rupnagar,"Ratanpura, Rupnagar - Ambuja Cements",14-11-2025 07:00:00,31.0325454,76.5623046,PM10,20,456,83
India,Punjab,Rupnagar,"Ratanpura, Rupnagar - Ambuja Cements",14-11-2025 07:00:00,31.0325454,76.5623046,SO2,8,16,14
India,Rajasthan,Ajmer,"Civil Lines,  Ajmer - RSPCB",14-11-2025 07:00:00,26.470859,74.646594,PM2.5,60,103,76
India,Rajasthan,Ajmer,"Civil Lines,  Ajmer - RSPCB",14-11-2025 07:00:00,26.470859,74.646594,CO,6,36,18
India,Rajasthan,Ajmer,"Civil Lines,  Ajmer - RSPCB",14-11-2025 07:00:00,26.470859,74.646594,OZONE,12,113,64
India,Rajasthan,Alwar,"Moti Doongri, Alwar - RSPCB",14-11-2025 07:00:00,27.554793,76.611536,PM2.5,61,133,93
India,Rajasthan,Alwar,"Moti Doongri, Alwar - RSPCB",14-11-2025 07:00:00,27.554793,76.611536,PM10,72,128,106
India,Rajasthan,Alwar,"Moti Doongri, Alwar - RSPCB",14-11-2025 07:00:00,27.554793,76.611536,SO2,12,56,24
India,Rajasthan,Banswara,"Rati Talai, Banswara - RSPCB",14-11-2025 07:00:00,23.555190,74.440010,PM10,78,202,124
India,Rajasthan,Jhunjhunu,"Indra Nagar, Jhunjhunu - RSPCB",14-11-2025 07:00:00,28.108988,75.386577,NO2,4,137,52
India,Rajasthan,Jhunjhunu,"Indra Nagar, Jhunjhunu - RSPCB",14-11-2025 07:00:00,28.108988,75.386577,NH3,2,18,10
India,Rajasthan,Jhunjhunu,"Indra Nagar, Jhunjhunu - RSPCB",14-11-2025 07:00:00,28.108988,75.386577,SO2,3,25,8
India,Rajasthan,Jodhpur,"Collectorate, Jodhpur - RSPCB",14-11-2025 07:00:00,26.268249,73.0193853,NH3,8,25,15
India,Rajasthan,Jodhpur,"Digari Kalan, Jodhpur - RSPCB",14-11-2025 07:00:00,26.295810,73.082283,NO2,5,113,44
India,Rajasthan,Jodhpur,"Digari Kalan, Jodhpur - RSPCB",14-11-2025 07:00:00,26.295810,73.082283,CO,16,85,33
India,Rajasthan,Jodhpur,"Digari Kalan, Jodhpur - RSPCB",14-11-2025 07:00:00,26.295810,73.082283,OZONE,1,111,17
India,Rajasthan,Jodhpur,"Jhalamand, Jodhpur - RSPCB",14-11-2025 07:00:00,26.215415,73.070156,NO2,7,82,37
India,Rajasthan,Jodhpur,"Jhalamand, Jodhpur - RSPCB",14-11-2025 07:00:00,26.215415,73.070156,CO,12,70,29
India,Rajasthan,Jodhpur,"Mandor, Jodhpur - RSPCB",14-11-2025 07:00:00,26.358805,73.047444,PM2.5,22,82,48
India,Rajasthan,Chittorgarh,"Shastri Nagar, Chittorgarh - RSPCB",14-11-2025 07:00:00,24.892047,74.623527,NH3,2,5,3
India,Rajasthan,Chittorgarh,"Shastri Nagar, Chittorgarh - RSPCB",14-11-2025 07:00:00,24.892047,74.623527,CO,2,104,4
India,Rajasthan,Churu,"Subash Chowk, Churu - RSPCB",14-11-2025 07:00:00,28.296139,74.961696,PM10,105,500,268
India,Rajasthan,Churu,"Subash Chowk, Churu - RSPCB",14-11-2025 07:00:00,28.296139,74.961696,NH3,4,9,6
India,Rajasthan,Dausa,"Khatikan Mohalla, Dausa - RSPCB",14-11-2025 07:00:00,26.895552,76.334753,PM2.5,43,367,131
India,Rajasthan,Dholpur,"Raja Ganj, Dholpur - RSPCB",14-11-2025 07:00:00,26.699557,77.898881,PM2.5,42,287,164
India,Rajasthan,Dholpur,"Raja Ganj, Dholpur - RSPCB",14-11-2025 07:00:00,26.699557,77.898881,PM10,41,161,116
India,Rajasthan,Dholpur,"Raja Ganj, Dholpur - RSPCB",14-11-2025 07:00:00,26.699557,77.898881,NO2,16,84,37
India,Rajasthan,Dholpur,"Raja Ganj, Dholpur - RSPCB",14-11-2025 07:00:00,26.699557,77.898881,NH3,7,12,10
India,Rajasthan,Dholpur,"Raja Ganj, Dholpur - RSPCB",14-11-2025 07:00:00,26.699557,77.898881,SO2,1,64,48
India,Rajasthan,Bhiwadi,"RIICO Ind. Area III, Bhiwadi - RSPCB",14-11-2025 07:00:00,28.194909,76.862296,PM10,170,402,232
India,Rajasthan,Bhiwadi,"RIICO Ind. Area III, Bhiwadi - RSPCB",14-11-2025 07:00:00,28.194909,76.862296,NH3,11,39,22
India,Rajasthan,Bhiwadi,"RIICO Ind. Area III, Bhiwadi - RSPCB",14-11-2025 07:00:00,28.194909,76.862296,OZONE,11,69,13
India,Rajasthan,Bhiwadi,"Vasundhara Nagar_UIT, Bhiwadi - RSPCB",14-11-2025 07:00:00,28.207266,76.829265,PM2.5,217,378,331
India,Rajasthan,Bhiwadi,"Vasundhara Nagar_UIT, Bhiwadi - RSPCB",14-11-2025 07:00:00,28.207266,76.829265,OZONE,2,106,7
India,Rajasthan,Bikaner,"MM Ground, Bikaner - RSPCB",14-11-2025 07:00:00,28.018792,73.292658,PM2.5,43,345,198
India,Rajasthan,Bundi,"New Colony, Bundi - RSPCB",14-11-2025 07:00:00,25.435774,75.644272,NO2,9,86,26
India,Rajasthan,Dungarpur,"Bhoiwada, Dungarpur - RSPCB",14-11-2025 07:00:00,23.837789,73.714926,NO2,10,62,24
India,Rajasthan,Dungarpur,"Bhoiwada, Dungarpur - RSPCB",14-11-2025 07:00:00,23.837789,73.714926,OZONE,3,141,9
India,Rajasthan,Jaipur,"Adarsh Nagar, Jaipur - RSPCB",14-11-2025 07:00:00,26.902909,75.836858,NH3,11,39,22
India,Rajasthan,Jaipur,"Adarsh Nagar, Jaipur - RSPCB",14-11-2025 07:00:00,26.902909,75.836858,OZONE,19,69,22
India,Rajasthan,Jaipur,"Mansarovar Sector-12, Jaipur - RSPCB",14-11-2025 07:00:00,26.843698,75.766894,NO2,11,125,70
India,Rajasthan,Jaipur,"Mansarovar Sector-12, Jaipur - RSPCB",14-11-2025 07:00:00,26.843698,75.766894,NH3,5,11,8
India,Rajasthan,Jaipur,"Mansarovar Sector-12, Jaipur - RSPCB",14-11-2025 07:00:00,26.843698,75.766894,CO,25,113,104
India,Rajasthan,Jaipur,"Police Commissionerate, Jaipur - RSPCB",14-11-2025 07:00:00,26.9164092,75.7994901,PM10,71,171,125
India,Rajasthan,Jaipur,"Police Commissionerate, Jaipur - RSPCB",14-11-2025 07:00:00,26.9164092,75.7994901,SO2,6,9,8
India,Rajasthan,Jaipur,"Police Commissionerate, Jaipur - RSPCB",14-11-2025 07:00:00,26.9164092,75.7994901,CO,39,82,55
India,Rajasthan,Jaipur,"RIICO Sitapura, Jaipur - RSPCB",14-11-2025 07:00:00,26.786682,75.827928,NO2,12,135,62
India,Rajasthan,Jaipur,"RIICO Sitapura, Jaipur - RSPCB",14-11-2025 07:00:00,26.786682,75.827928,CO,14,105,38
India,Rajasthan,Jaipur,"Shastri Nagar, Jaipur - RSPCB",14-11-2025 07:00:00,26.9502929,75.730943,NH3,3,24,12
India,Rajasthan,Jalore,"Mudtra Sili, Jalore - RSPCB",14-11-2025 07:00:00,25.344694,72.626208,PM2.5,25,230,74
India,Rajasthan,Jalore,"Mudtra Sili, Jalore - RSPCB",14-11-2025 07:00:00,25.344694,72.626208,NH3,3,8,5
India,Rajasthan,Jhalawar,"Rajlaxmi Nagar, Jhalawar - RSPCB",14-11-2025 07:00:00,24.588397,76.172782,NH3,3,5,4
India,Rajasthan,Barmer,"Railway Colony, Barmer - RSPCB",14-11-2025 07:00:00,25.747299,71.393989,NH3,2,17,6
India,Rajasthan,Barmer,"Railway Colony, Barmer - RSPCB",14-11-2025 07:00:00,25.747299,71.393989,SO2,7,15,9
India,Rajasthan,Bhilwara,"Pratap Nagar, Bhilwara - RSPCB",14-11-2025 07:00:00,25.339605,74.618883,PM10,67,282,138
India,Rajasthan,Bhilwara,"Pratap Nagar, Bhilwara - RSPCB",14-11-2025 07:00:00,25.339605,74.618883,NH3,2,5,3
India,Rajasthan,Jaipur,"Shastri Nagar, Jaipur - RSPCB",14-11-2025 07:00:00,26.9502929,75.730943,NO2,45,88,68
India,TamilNadu,Dindigul,"Mendonsa Colony, Dindigul - TNPCB",14-11-2025 07:00:00,10.358535,77.984321,NH3,2,3,2
India,TamilNadu,Gummidipoondi,"Anthoni Pillai Nagar, Gummidipoondi - TNPCB",14-11-2025 07:00:00,13.4127,80.1081,PM2.5,110,413,230
India,TamilNadu,Hosur,"SIPCOT Phase-1, Hosur - TNPCB",14-11-2025 07:00:00,12.746998,77.813811,OZONE,9,11,10
India,TamilNadu,Kanchipuram,"Kilambi, Kanchipuram - TNPCB",14-11-2025 07:00:00,12.864618,79.659968,OZONE,8,9,8
India,TamilNadu,Karur,"Kamadenu Nagar, Karur - TNPCB",14-11-2025 07:00:00,10.967820,78.080882,NH3,3,4,3
India,TamilNadu,Karur,"Kamadenu Nagar, Karur - TNPCB",14-11-2025 07:00:00,10.967820,78.080882,SO2,14,16,15
India,Sikkim,Gangtok,"Zero Point GICI, Gangtok - SSPCB",14-11-2025 07:00:00,27.338530,88.614099,SO2,1,1,1
India,Sikkim,Gangtok,"Zero Point GICI, Gangtok - SSPCB",14-11-2025 07:00:00,27.338530,88.614099,OZONE,33,100,52
India,TamilNadu,Chennai,"Arumbakkam, Chennai - TNPCB",14-11-2025 07:00:00,13.0664,80.2112 ,PM10,81,500,128
India,TamilNadu,Chennai,"Gandhi Nagar_Ennore, Chennai - TNPCB",14-11-2025 07:00:00,13.218341,80.32027,NH3,1,1,1
India,TamilNadu,Chennai,"Gandhi Nagar_Ennore, Chennai - TNPCB",14-11-2025 07:00:00,13.218341,80.32027,CO,8,9,9
India,TamilNadu,Chennai,"Kodungaiyur, Chennai - TNPCB",14-11-2025 07:00:00,13.1278,80.2642,PM2.5,79,253,147
India,Rajasthan,Jodhpur,"Samrat Ashok Udhyan, Jodhpur - RSPCB",14-11-2025 07:00:00,26.253384,72.976571,NH3,4,7,5
India,Rajasthan,Karauli,"Satyawati Vihar, Karauli - RSPCB",14-11-2025 07:00:00,26.506177,77.025989,OZONE,6,93,7
India,Rajasthan,Kota,"Dhanmandi, Kota - RSPCB",14-11-2025 07:00:00,25.164090,75.858137,NO2,24,119,64
India,Rajasthan,Kota,"Dhanmandi, Kota - RSPCB",14-11-2025 07:00:00,25.164090,75.858137,SO2,2,45,12
India,Rajasthan,Kota,"Dhanmandi, Kota - RSPCB",14-11-2025 07:00:00,25.164090,75.858137,CO,12,108,53
India,Rajasthan,Kota,"Dhanmandi, Kota - RSPCB",14-11-2025 07:00:00,25.164090,75.858137,OZONE,1,125,4
India,TamilNadu,Chennai,"Velachery Res. Area, Chennai - CPCB",14-11-2025 07:00:00,13.0052189,80.2398125,OZONE,5,9,6
India,TamilNadu,Coimbatore,"PSG College of Arts and Science, Coimbatore - TNPCB",14-11-2025 07:00:00,11.0328,77.0349,NO2,10,11,10
India,TamilNadu,Coimbatore,"PSG College of Arts and Science, Coimbatore - TNPCB",14-11-2025 07:00:00,11.0328,77.0349,NH3,1,1,1
India,TamilNadu,Coimbatore,"PSG College of Arts and Science, Coimbatore - TNPCB",14-11-2025 07:00:00,11.0328,77.0349,SO2,1,12,2
India,TamilNadu,Cuddalore,"Kudikadu, Cuddalore - TNPCB",14-11-2025 07:00:00,11.6829898,79.7532099,PM2.5,NA,NA,NA
India,TamilNadu,Chennai,"Manali Village, Chennai - TNPCB",14-11-2025 07:00:00,13.1662,80.2584,PM2.5,50,300,161
India,TamilNadu,Chennai,"Manali Village, Chennai - TNPCB",14-11-2025 07:00:00,13.1662,80.2584,PM10,80,122,99
India,TamilNadu,Chennai,"Manali Village, Chennai - TNPCB",14-11-2025 07:00:00,13.1662,80.2584,SO2,15,18,16
India,TamilNadu,Chennai,"Manali, Chennai - CPCB",14-11-2025 07:00:00,13.164544,80.26285,PM2.5,15,237,122
India,TamilNadu,Chennai,"Velachery Res. Area, Chennai - CPCB",14-11-2025 07:00:00,13.0052189,80.2398125,NH3,3,3,3
India,TamilNadu,Chennai,"Velachery Res. Area, Chennai - CPCB",14-11-2025 07:00:00,13.0052189,80.2398125,SO2,12,15,13
India,TamilNadu,Nagapattinam,"Velippalayam, Nagapattinam - TNPCB",14-11-2025 07:00:00,10.798548,79.838212,SO2,NA,NA,NA
India,TamilNadu,Ooty,"Bombay Castel, Ooty - TNPCB",14-11-2025 07:00:00,11.4068288,76.7138973,NH3,NA,NA,NA
India,TamilNadu,Perundurai,"SIPCOT Industrial Park, Perundurai - TNPCB",14-11-2025 07:00:00,11.258242,77.552761,PM10,45,129,85
India,TamilNadu,Pudukottai,"SIPCOT Nathampannai, Pudukottai - TNPCB",14-11-2025 07:00:00,10.423417,78.784889,NH3,3,3,3
India,Rajasthan,Sirohi,"Vedhaynath Colony, Sirohi - RSPCB",14-11-2025 07:00:00,24.885261,72.857549,SO2,1,12,4
India,Rajasthan,Tonk,"Shastri Nagar, Tonk - RSPCB",14-11-2025 07:00:00,26.159933,75.780517,SO2,1,3,2
India,Rajasthan,Udaipur,"Ashok Nagar, Udaipur - RSPCB",14-11-2025 07:00:00,24.5886166,73.6321397,NH3,1,7,5
India,Sikkim,Gangtok,"Zero Point GICI, Gangtok - SSPCB",14-11-2025 07:00:00,27.338530,88.614099,PM10,8,44,23
India,Rajasthan,Pratapgarh,"Pragati Nagar, Pratapgarh - RSPCB",14-11-2025 07:00:00,24.041198,74.780702,NO2,9,48,21
India,Rajasthan,Pratapgarh,"Pragati Nagar, Pratapgarh - RSPCB",14-11-2025 07:00:00,24.041198,74.780702,SO2,3,8,4
India,Rajasthan,Pratapgarh,"Pragati Nagar, Pratapgarh - RSPCB",14-11-2025 07:00:00,24.041198,74.780702,OZONE,24,116,45
India,Rajasthan,Rajsamand,"Dhoinda, Rajsamand - RSPCB",14-11-2025 07:00:00,25.036360,73.883502,NO2,8,66,25
India,Rajasthan,Sikar,"Radhakishan Pura, Sikar - RSPCB",14-11-2025 07:00:00,27.608912,75.153302,NH3,8,24,16
India,Rajasthan,Kota,"Nayapura, Kota - RSPCB",14-11-2025 07:00:00,25.196024,75.855668,SO2,1,10,6
India,Rajasthan,Nagaur,"Karni Colony, Nagaur - RSPCB",14-11-2025 07:00:00,27.213494,73.734444,PM10,69,284,137
India,Rajasthan,Nagaur,"Karni Colony, Nagaur - RSPCB",14-11-2025 07:00:00,27.213494,73.734444,SO2,4,14,6
India,Rajasthan,Pali,"Indira Colony Vistar, Pali - RSPCB",14-11-2025 07:00:00,25.771061, 73.340227,NO2,25,66,37
India,Uttar_Pradesh,Bareilly,"Civil Lines, Bareilly - UPPCB",14-11-2025 07:00:00,28.359581,79.414455,PM2.5,11,99,47
India,Uttar_Pradesh,Bareilly,"Civil Lines, Bareilly - UPPCB",14-11-2025 07:00:00,28.359581,79.414455,PM10,48,111,75
India,Uttar_Pradesh,Bareilly,"Civil Lines, Bareilly - UPPCB",14-11-2025 07:00:00,28.359581,79.414455,NO2,2,3,2
India,Uttar_Pradesh,Bareilly,"Civil Lines, Bareilly - UPPCB",14-11-2025 07:00:00,28.359581,79.414455,SO2,8,23,16
India,Uttar_Pradesh,Bulandshahr,"Yamunapuram, Bulandshahr - UPPCB",14-11-2025 07:00:00,28.406963,77.849831,SO2,8,107,32
India,Uttar_Pradesh,Bulandshahr,"Yamunapuram, Bulandshahr - UPPCB",14-11-2025 07:00:00,28.406963,77.849831,CO,43,114,88
India,Uttar_Pradesh,Firozabad,"Nagla Bhau, Firozabad - UPPCB",14-11-2025 07:00:00,27.168897,78.376960,PM2.5,60,171,98
India,Uttar_Pradesh,Firozabad,"Nagla Bhau, Firozabad - UPPCB",14-11-2025 07:00:00,27.168897,78.376960,PM10,92,167,132
India,Uttar_Pradesh,Firozabad,"Nagla Bhau, Firozabad - UPPCB",14-11-2025 07:00:00,27.168897,78.376960,NO2,17,17,17
India,Uttar_Pradesh,Firozabad,"Nagla Bhau, Firozabad - UPPCB",14-11-2025 07:00:00,27.168897,78.376960,CO,9,18,18
India,Uttar_Pradesh,Ghaziabad,"Indirapuram, Ghaziabad - UPPCB",14-11-2025 07:00:00,28.646233,77.358075,PM2.5,NA,NA,NA
India,Uttar_Pradesh,Ghaziabad,"Indirapuram, Ghaziabad - UPPCB",14-11-2025 07:00:00,28.646233,77.358075,OZONE,1,309,3
India,Uttar_Pradesh,Ghaziabad,"Loni, Ghaziabad - UPPCB",14-11-2025 07:00:00,28.757294,77.278792,PM2.5,321,500,422
India,Uttar_Pradesh,Ghaziabad,"Loni, Ghaziabad - UPPCB",14-11-2025 07:00:00,28.757294,77.278792,SO2,14,36,28
India,Uttar_Pradesh,Ghaziabad,"Vasundhara, Ghaziabad - UPPCB",14-11-2025 07:00:00,28.6603346,77.3572563,PM10,59,471,280
India,Uttar_Pradesh,Ghaziabad,"Vasundhara, Ghaziabad - UPPCB",14-11-2025 07:00:00,28.6603346,77.3572563,CO,30,136,84
India,Uttar_Pradesh,Gorakhpur,"Madan Mohan Malaviya University of Technology, Gorakhpur - UPPCB",14-11-2025 07:00:00,26.730136,83.433859,PM2.5,42,327,103
India,Uttar_Pradesh,Gorakhpur,"Madan Mohan Malaviya University of Technology, Gorakhpur - UPPCB",14-11-2025 07:00:00,26.730136,83.433859,CO,5,9,8
India,Telangana,Hyderabad,"Kompally Municipal Office, Hyderabad - TSPCB",14-11-2025 07:00:00,17.544899,78.486949,SO2,9,11,10
India,Telangana,Hyderabad,"Nacharam_TSIIC IALA, Hyderabad - TSPCB",14-11-2025 07:00:00,17.429398,78.569354,PM10,78,140,102
India,Telangana,Hyderabad,"New Malakpet, Hyderabad - TSPCB",14-11-2025 07:00:00,17.37206,78.50864,PM2.5,47,66,58
India,Telangana,Hyderabad,"New Malakpet, Hyderabad - TSPCB",14-11-2025 07:00:00,17.37206,78.50864,CO,24,37,25
India,Telangana,Hyderabad,"New Malakpet, Hyderabad - TSPCB",14-11-2025 07:00:00,17.37206,78.50864,OZONE,10,35,16
India,Telangana,Hyderabad,"Ramachandrapuram, Hyderabad - TSPCB",14-11-2025 07:00:00,17.528544,78.286195,CO,18,42,28
India,Telangana,Hyderabad,"Sanathnagar, Hyderabad - TSPCB",14-11-2025 07:00:00,17.4559458,78.4332152,OZONE,13,16,14
India,Telangana,Hyderabad,"Zoo Park, Hyderabad - TSPCB",14-11-2025 07:00:00,17.349694,78.451437,NH3,3,3,3
India,Telangana,Hyderabad,"Zoo Park, Hyderabad - TSPCB",14-11-2025 07:00:00,17.349694,78.451437,CO,2,82,12
India,Tripura,Agartala,"Bardowali, Agartala - Tripura SPCB",14-11-2025 07:00:00,23.8175497,91.2726974,PM2.5,18,337,56
India,Uttar_Pradesh,Gorakhpur,"Madan Mohan Malaviya University of Technology, Gorakhpur - UPPCB",14-11-2025 07:00:00,26.730136,83.433859,OZONE,NA,NA,NA
India,Uttar_Pradesh,Jhansi,"Shivaji Nagar, Jhansi - UPPCB",14-11-2025 07:00:00,25.4547,78.6039,NO2,6,6,6
India,Uttar_Pradesh,Jhansi,"Shivaji Nagar, Jhansi - UPPCB",14-11-2025 07:00:00,25.4547,78.6039,CO,10,101,58
India,Uttar_Pradesh,Jhansi,"Shivaji Nagar, Jhansi - UPPCB",14-11-2025 07:00:00,25.4547,78.6039,OZONE,1,10,1
India,TamilNadu,Thoothukudi,"Meelavittan, Thoothukudi - TNPCB",14-11-2025 07:00:00,8.816428 ,78.099039,NO2,8,52,17
India,TamilNadu,Tiruchirappalli,"St Joseph College, Tiruchirappalli - TNPCB",14-11-2025 07:00:00,10.830158,78.691849,PM2.5,NA,NA,NA
India,TamilNadu,Tirunelveli,"Municipal Corporation Office, Tirunelveli - TNPCB",14-11-2025 07:00:00,8.728442,77.6962,NH3,1,2,1
India,Uttar_Pradesh,Agra,"Sanjay Palace, Agra - UPPCB",14-11-2025 07:00:00,27.19865833,78.00598056,PM10,116,308,227
India,Uttar_Pradesh,Agra,"Shahjahan Garden, Agra - UPPCB",14-11-2025 07:00:00,27.169338,78.03582,NO2,NA,NA,NA
India,Uttar_Pradesh,Agra,"Shahjahan Garden, Agra - UPPCB",14-11-2025 07:00:00,27.169338,78.03582,CO,NA,NA,NA
India,Uttar_Pradesh,Agra,"Shastripuram, Agra - UPPCB",14-11-2025 07:00:00,27.19862,77.92066,NH3,3,3,3
India,TamilNadu,Virudhunagar,"Collectorate Office, Virudhunagar - TNPCB",14-11-2025 07:00:00,9.559382,77.948828,NO2,NA,NA,NA
India,Telangana,Hyderabad,"Bollaram Industrial Area, Hyderabad - TSPCB",14-11-2025 07:00:00,17.540891,78.358528,NO2,6,48,33
India,Telangana,Hyderabad,"ECIL Kapra, Hyderabad - TSPCB",14-11-2025 07:00:00,17.470431,78.566959,PM2.5,46,47,46
India,Telangana,Hyderabad,"IDA Pashamylaram, Hyderabad - TSPCB",14-11-2025 07:00:00,17.5316895,78.218939,PM10,NA,NA,NA
India,Telangana,Hyderabad,"IDA Pashamylaram, Hyderabad - TSPCB",14-11-2025 07:00:00,17.5316895,78.218939,NH3,NA,NA,NA
India,Telangana,Hyderabad,"Kokapet, Hyderabad - TSPCB",14-11-2025 07:00:00,17.393559,78.339194,CO,18,41,19
India,West_Bengal,Asansol,"Trivenidevi Bhalotia College, Asansol - WBPCB",14-11-2025 07:00:00,23.616515,87.119133,NH3,6,7,7
India,West_Bengal,Asansol,"Trivenidevi Bhalotia College, Asansol - WBPCB",14-11-2025 07:00:00,23.616515,87.119133,SO2,1,15,7
India,West_Bengal,Barrackpore,"SVSPA Campus, Barrackpore - WBPCB",14-11-2025 07:00:00,22.7605581,88.3617589,CO,39,78,56
India,West_Bengal,Durgapur,"Mahishkapur Road_B-Zone, Durgapur - WBPCB",14-11-2025 07:00:00,23.567923,87.306843,PM2.5,52,204,106
India,West_Bengal,Durgapur,"Mahishkapur Road_B-Zone, Durgapur - WBPCB",14-11-2025 07:00:00,23.567923,87.306843,SO2,12,54,20
India,West_Bengal,Durgapur,"PCBL Residential Complex, Durgapur - WBPCB",14-11-2025 07:00:00,23.5087640,87.3544400,PM2.5,NA,NA,NA
India,West_Bengal,Durgapur,"Womens College_City Center, Durgapur - WBPCB (Formerly known as Sidhu Kanhu Indoor Stadium)",14-11-2025 07:00:00,23.549395,87.300496,NO2,27,41,30
India,West_Bengal,Durgapur,"Womens College_City Center, Durgapur - WBPCB (Formerly known as Sidhu Kanhu Indoor Stadium)",14-11-2025 07:00:00,23.549395,87.300496,CO,26,70,43
India,Uttar_Pradesh,Varanasi,"IESD Banaras Hindu University, Varanasi - UPPCB",14-11-2025 07:00:00,25.262326,82.995408,NH3,1,5,2
India,Uttar_Pradesh,Varanasi,"Maldahiya, Varanasi - UPPCB",14-11-2025 07:00:00,25.32393,82.99687,PM2.5,46,296,120
India,Uttar_Pradesh,Vrindavan,"Omex Eternity, Vrindavan - UPPCB",14-11-2025 07:00:00,27.5714090,77.6557570,NO2,12,12,12
India,Uttar_Pradesh,Vrindavan,"Omex Eternity, Vrindavan - UPPCB",14-11-2025 07:00:00,27.5714090,77.6557570,SO2,11,19,14
India,Uttarakhand,Dehradun,"Doon University, Dehradun - UKPCB",14-11-2025 07:00:00,30.269444,78.044167,PM10,12,55,38
India,Uttarakhand,Dehradun,"Doon University, Dehradun - UKPCB",14-11-2025 07:00:00,30.269444,78.044167,NO2,1,4,2
India,Uttarakhand,Dehradun,"Doon University, Dehradun - UKPCB",14-11-2025 07:00:00,30.269444,78.044167,SO2,2,2,2
India,Uttarakhand,Dehradun,"Doon University, Dehradun - UKPCB",14-11-2025 07:00:00,30.269444,78.044167,OZONE,28,68,35
India,Uttar_Pradesh,Moradabad,"Eco Herbal Park, Moradabad - UPPCB",14-11-2025 07:00:00,28.840739,78.697531,NH3,1,4,2
India,Uttar_Pradesh,Moradabad,"Employment Office, Moradabad - UPPCB",14-11-2025 07:00:00,28.88528,78.73880,PM10,78,180,133
India,Uttar_Pradesh,Moradabad,"Employment Office, Moradabad - UPPCB",14-11-2025 07:00:00,28.88528,78.73880,NO2,15,16,16
India,Uttar_Pradesh,Moradabad,"Jigar Colony, Moradabad - UPPCB",14-11-2025 07:00:00,28.856664,78.772638,PM2.5,62,289,137
India,Uttar_Pradesh,Moradabad,"Jigar Colony, Moradabad - UPPCB",14-11-2025 07:00:00,28.856664,78.772638,PM10,93,193,139
India,Uttar_Pradesh,Moradabad,"Jigar Colony, Moradabad - UPPCB",14-11-2025 07:00:00,28.856664,78.772638,NH3,6,6,6
India,Uttar_Pradesh,Muzaffarnagar,"New Mandi, Muzaffarnagar - UPPCB",14-11-2025 07:00:00,29.4723508,77.7194031,PM10,156,375,256
India,Uttar_Pradesh,Lucknow,"B R Ambedkar University, Lucknow - UPPCB",14-11-2025 07:00:00,26.766433,80.927299,NO2,21,22,22
India,Uttar_Pradesh,Lucknow,"Gomti Nagar, Lucknow - UPPCB",14-11-2025 07:00:00,26.868120,81.005119,PM10,59,124,97
India,Uttar_Pradesh,Lucknow,"Gomti Nagar, Lucknow - UPPCB",14-11-2025 07:00:00,26.868120,81.005119,SO2,9,12,10
India,Uttar_Pradesh,Lucknow,"Gomti Nagar, Lucknow - UPPCB",14-11-2025 07:00:00,26.868120,81.005119,CO,31,38,32
India,Uttar_Pradesh,Lucknow,"Kendriya Vidyalaya, Lucknow - CPCB",14-11-2025 07:00:00,26.906111,80.948222,NH3,12,17,15
India,Uttar_Pradesh,Lucknow,"Kukrail Picnic Spot-1, Lucknow - UPPCB",14-11-2025 07:00:00,26.90723,80.98579,PM10,112,165,147
India,Uttar_Pradesh,Lucknow,"Kukrail Picnic Spot-1, Lucknow - UPPCB",14-11-2025 07:00:00,26.90723,80.98579,NH3,5,5,5
India,Uttar_Pradesh,Lucknow,"Talkatora District Industries Center, Lucknow - CPCB",14-11-2025 07:00:00,26.83399722,80.8917361,CO,1,81,27
India,Uttar_Pradesh,Meerut,"Ganga Nagar, Meerut - UPPCB",14-11-2025 07:00:00,28.999264,77.7590354,PM2.5,116,345,275
India,Uttar_Pradesh,Meerut,"Ganga Nagar, Meerut - UPPCB",14-11-2025 07:00:00,28.999264,77.7590354,PM10,135,383,259
India,Uttar_Pradesh,Meerut,"Jai Bhim Nagar, Meerut - UPPCB",14-11-2025 07:00:00,28.9535882,77.7622941,PM10,180,462,366
India,Uttar_Pradesh,Meerut,"Jai Bhim Nagar, Meerut - UPPCB",14-11-2025 07:00:00,28.9535882,77.7622941,OZONE,5,281,29
India,Uttar_Pradesh,Meerut,"Pallavpuram Phase 2, Meerut - UPPCB",14-11-2025 07:00:00,29.063510,77.709723,OZONE,8,173,16
India,Uttar_Pradesh,Muzaffarnagar,"New Mandi, Muzaffarnagar - UPPCB",14-11-2025 07:00:00,29.4723508,77.7194031,OZONE,9,101,32
India,Uttar_Pradesh,Noida,"Sector - 125, Noida - UPPCB",14-11-2025 07:00:00,28.5447608,77.3231257,CO,18,78,57
India,Uttar_Pradesh,Noida,"Sector - 125, Noida - UPPCB",14-11-2025 07:00:00,28.5447608,77.3231257,OZONE,11,11,11
India,Uttar_Pradesh,Noida,"Sector - 62, Noida - IMD",14-11-2025 07:00:00,28.6245479,77.3577104,PM2.5,318,422,361
India,Uttar_Pradesh,Noida,"Sector-116, Noida - UPPCB",14-11-2025 07:00:00,28.569230,77.393848,NH3,10,15,11
India,Uttar_Pradesh,Prayagraj,"Jhunsi, Prayagraj - UPPCB",14-11-2025 07:00:00,25.425602,81.917152,PM2.5,45,199,118
India,Uttar_Pradesh,Prayagraj,"Motilal Nehru NIT, Prayagraj - UPPCB",14-11-2025 07:00:00,25.494,81.863,PM2.5,102,332,244
India,Uttar_Pradesh,Prayagraj,"Motilal Nehru NIT, Prayagraj - UPPCB",14-11-2025 07:00:00,25.494,81.863,NO2,12,12,12
India,Uttar_Pradesh,Prayagraj,"Motilal Nehru NIT, Prayagraj - UPPCB",14-11-2025 07:00:00,25.494,81.863,NH3,8,8,8
India,Uttar_Pradesh,Prayagraj,"Motilal Nehru NIT, Prayagraj - UPPCB",14-11-2025 07:00:00,25.494,81.863,CO,25,52,50
India,Uttar_Pradesh,Varanasi,"Bhelupur, Varanasi - UPPCB",14-11-2025 07:00:00,25.301778,82.996789,PM2.5,64,336,160
India,Uttar_Pradesh,Varanasi,"Bhelupur, Varanasi - UPPCB",14-11-2025 07:00:00,25.301778,82.996789,CO,20,100,56
India,Uttar_Pradesh,Varanasi,"IESD Banaras Hindu University, Varanasi - UPPCB",14-11-2025 07:00:00,25.262326,82.995408,PM2.5,39,179,88
India,Uttarakhand,Rishikesh,"Shivaji Nagar, Rishikesh - UKPCB",14-11-2025 07:00:00,30.075911,78.2859547,PM10,49,94,64
India,West_Bengal,Asansol,"Asansol Court Area, Asansol - WBPCB",14-11-2025 07:00:00,23.685297,86.945968,NH3,2,9,5
India,West_Bengal,Asansol,"Evelyn Lodge, Asansol - WBPCB",14-11-2025 07:00:00,23.6979360,86.9443950,NH3,3,4,3
India,West_Bengal,Asansol,"Trivenidevi Bhalotia College, Asansol - WBPCB",14-11-2025 07:00:00,23.616515,87.119133,NO2,18,59,32
India,Uttar_Pradesh,Kanpur,"Nehru Nagar, Kanpur - UPPCB",14-11-2025 07:00:00,26.4703136,80.3229863,PM10,54,192,114
India,Uttar_Pradesh,Khurja,"Kalindi Kunj, Khurja - UPPCB",14-11-2025 07:00:00,28.2348927,77.8683002,PM10,102,294,230
India,Uttar_Pradesh,Khurja,"Kalindi Kunj, Khurja - UPPCB",14-11-2025 07:00:00,28.2348927,77.8683002,OZONE,4,56,8
India,West_Bengal,Haldia,"Priyambada Housing Estate, Haldia - WBPCB",14-11-2025 07:00:00,22.06047,88.109737,NO2,17,48,24
India,West_Bengal,Howrah,"Botanical Garden, Howrah - WBPCB",14-11-2025 07:00:00,22.554954,88.292568,PM10,58,135,97
India,West_Bengal,Howrah,"Botanical Garden, Howrah - WBPCB",14-11-2025 07:00:00,22.554954,88.292568,SO2,8,10,9
India,West_Bengal,Howrah,"Botanical Garden, Howrah - WBPCB",14-11-2025 07:00:00,22.554954,88.292568,OZONE,5,19,5
India,West_Bengal,Howrah,"Dasnagar, Howrah - WBPCB",14-11-2025 07:00:00,22.6025571,88.3105664,PM2.5,NA,NA,NA
India,West_Bengal,Howrah,"Dasnagar, Howrah - WBPCB",14-11-2025 07:00:00,22.6025571,88.3105664,PM10,NA,NA,NA
India,West_Bengal,Howrah,"Dasnagar, Howrah - WBPCB",14-11-2025 07:00:00,22.6025571,88.3105664,NH3,1,3,2
India,West_Bengal,Howrah,"Ghusuri, Howrah - WBPCB",14-11-2025 07:00:00,22.611968,88.347422,PM10,116,348,158
India,West_Bengal,Howrah,"Ghusuri, Howrah - WBPCB",14-11-2025 07:00:00,22.611968,88.347422,NO2,21,37,26
India,West_Bengal,Howrah,"Padmapukur, Howrah - WBPCB",14-11-2025 07:00:00,22.5687319,88.2797276,PM10,110,219,162
India,West_Bengal,Kolkata,"Ballygunge, Kolkata - WBPCB",14-11-2025 07:00:00,22.5367507,88.3638022,SO2,11,19,15
India,West_Bengal,Kolkata,"Ballygunge, Kolkata - WBPCB",14-11-2025 07:00:00,22.5367507,88.3638022,CO,18,110,74
India,West_Bengal,Kolkata,"Bidhannagar, Kolkata - WBPCB",14-11-2025 07:00:00,22.58157048,88.41002457,PM10,81,176,125
India,West_Bengal,Kolkata,"Jadavpur, Kolkata - WBPCB",14-11-2025 07:00:00,22.49929,88.36917,NO2,37,89,59
India,West_Bengal,Kolkata,"Rabindra Sarobar, Kolkata - WBPCB",14-11-2025 07:00:00,22.51106,88.35142,PM2.5,69,226,138
India,West_Bengal,Kolkata,"Rabindra Sarobar, Kolkata - WBPCB",14-11-2025 07:00:00,22.51106,88.35142,OZONE,2,155,2
India,West_Bengal,Kolkata,"Victoria, Kolkata - WBPCB",14-11-2025 07:00:00,22.5448082,88.3403691,PM10,106,192,143
India,West_Bengal,Kolkata,"Victoria, Kolkata - WBPCB",14-11-2025 07:00:00,22.5448082,88.3403691,NH3,4,5,4
India,West_Bengal,Kolkata,"Victoria, Kolkata - WBPCB",14-11-2025 07:00:00,22.5448082,88.3403691,SO2,3,24,13
India,West_Bengal,Siliguri,"Ward-32 Bapupara, Siliguri - WBPCB",14-11-2025 07:00:00,26.6879226,88.4152495,PM2.5,41,87,62
India,West_Bengal,Siliguri,"Ward-32 Bapupara, Siliguri - WBPCB",14-11-2025 07:00:00,26.6879226,88.4152495,PM10,57,130,89
India,West_Bengal,Siliguri,"Ward-32 Bapupara, Siliguri - WBPCB",14-11-2025 07:00:00,26.6879226,88.4152495,CO,28,94,51
India,Bihar,Aurangabad,"Gurdeo Nagar, Aurangabad - BSPCB",14-11-2025 07:00:00,24.75746,84.366208,OZONE,13,97,19
India,Bihar,Begusarai,"Lohiyanagar, Begusarai - BSPCB",14-11-2025 07:00:00,25.42742023,86.13886079,PM10,43,105,79
India,Bihar,Bettiah,"Kamalnath Nagar, Bettiah - BSPCB",14-11-2025 07:00:00,26.80365,84.51954,PM2.5,53,293,167
India,Bihar,Bettiah,"Kamalnath Nagar, Bettiah - BSPCB",14-11-2025 07:00:00,26.80365,84.51954,SO2,5,34,18
India,Bihar,Bhagalpur,"DM Office_Kachari Chowk, Bhagalpur - BSPCB",14-11-2025 07:00:00,25.251013,86.989001,SO2,NA,NA,NA
India,Bihar,Bhagalpur,"DM Office_Kachari Chowk, Bhagalpur - BSPCB",14-11-2025 07:00:00,25.251013,86.989001,OZONE,NA,NA,NA
India,Bihar,Bhagalpur,"Mayaganj, Bhagalpur - BSPCB",14-11-2025 07:00:00,25.265194,87.012947,PM2.5,45,127,68
India,Andhra_Pradesh,Chittoor,"Gangineni Cheruvu, Chittoor - APPCB",14-11-2025 07:00:00,13.204880,79.097889,CO,22,36,32
India,Andhra_Pradesh,Chittoor,"Gangineni Cheruvu, Chittoor - APPCB",14-11-2025 07:00:00,13.204880,79.097889,OZONE,52,57,54
India,Andhra_Pradesh,Kadapa,"Yerramukkapalli, Kadapa - APPCB",14-11-2025 07:00:00,14.465052,78.824187,PM2.5,56,61,57
India,Andhra_Pradesh,Kadapa,"Yerramukkapalli, Kadapa - APPCB",14-11-2025 07:00:00,14.465052,78.824187,PM10,62,71,64
India,Andhra_Pradesh,Kadapa,"Yerramukkapalli, Kadapa - APPCB",14-11-2025 07:00:00,14.465052,78.824187,NH3,3,5,4
India,Andhra_Pradesh,Rajamahendravaram,"Anand Kala Kshetram, Rajamahendravaram - APPCB",14-11-2025 07:00:00,16.9872867,81.7363176,PM10,84,143,115
India,Andhra_Pradesh,Tirumala,"Toll Gate, Tirumala - APPCB",14-11-2025 07:00:00,13.67,79.35,PM10,76,96,87
India,Assam,Silchar,"Tarapur, Silchar - PCBA",14-11-2025 07:00:00,24.82827,92.79525,NH3,1,1,1
India,Assam,Sivasagar,"Girls College, Sivasagar - PCBA",14-11-2025 07:00:00,26.987634,94.636574,NO2,21,49,29
India,Assam,Sivasagar,"Girls College, Sivasagar - PCBA",14-11-2025 07:00:00,26.987634,94.636574,NH3,2,8,5
India,Bihar,Araria,"Kharahiya Basti, Araria - BSPCB",14-11-2025 07:00:00,26.146529,87.454184,NH3,11,12,11
India,Bihar,Arrah,"New DM Office, Arrah - BSPCB",14-11-2025 07:00:00,25.5626095,84.663264,PM2.5,26,89,50
India,Bihar,Aurangabad,"Gurdeo Nagar, Aurangabad - BSPCB",14-11-2025 07:00:00,24.75746,84.366208,NO2,7,8,8
India,Andhra_Pradesh,Vijayawada,"HB Colony, Vijayawada - APPCB",14-11-2025 07:00:00,16.536107,80.594233,PM2.5,43,110,64
India,Andhra_Pradesh,Vijayawada,"HB Colony, Vijayawada - APPCB",14-11-2025 07:00:00,16.536107,80.594233,NH3,3,5,5
India,Andhra_Pradesh,Vijayawada,"Rajiv Gandhi Park, Vijayawada - APPCB",14-11-2025 07:00:00,16.509717,80.612222,NH3,3,4,4
India,Andhra_Pradesh,Vijayawada,"Rajiv Nagar, Vijayawada - APPCB",14-11-2025 07:00:00,16.554731,80.649110,PM10,30,125,37
India,Andhra_Pradesh,Vijayawada,"Rajiv Nagar, Vijayawada - APPCB",14-11-2025 07:00:00,16.554731,80.649110,OZONE,57,315,90
India,Andhra_Pradesh,Visakhapatnam,"GVM Corporation, Visakhapatnam - APPCB",14-11-2025 07:00:00,17.72,83.3,CO,2,50,24
India,Bihar,Gaya,"Collectorate, Gaya - BSPCB",14-11-2025 07:00:00,24.7955,84.9994,PM2.5,58,254,132
India,Bihar,Gaya,"Kareemganj, Gaya - BSPCB",14-11-2025 07:00:00,24.792403,84.992416,PM2.5,63,317,176
India,Bihar,Gaya,"Kareemganj, Gaya - BSPCB",14-11-2025 07:00:00,24.792403,84.992416,NH3,4,6,5
India,Bihar,Gaya,"SFTI Kusdihra, Gaya - BSPCB",14-11-2025 07:00:00,24.762518,84.982348,NO2,18,26,21
India,Bihar,Gaya,"SFTI Kusdihra, Gaya - BSPCB",14-11-2025 07:00:00,24.762518,84.982348,NH3,3,4,3
India,Bihar,Hajipur,"Industrial Area, Hajipur - BSPCB",14-11-2025 07:00:00,25.697189,85.245900,NH3,4,11,7
India,Arunachal_Pradesh,Naharlagun,"Naharlagun, Naharlagun - APSPCB",14-11-2025 07:00:00,27.103358,93.679645,CO,6,32,10
India,Assam,Byrnihat,"Central Academy for SFS, Byrnihat - PCBA",14-11-2025 07:00:00,26.071318,91.87488,PM2.5,NA,NA,NA
India,Assam,Byrnihat,"Central Academy for SFS, Byrnihat - PCBA",14-11-2025 07:00:00,26.071318,91.87488,PM10,NA,NA,NA
India,Assam,Byrnihat,"Central Academy for SFS, Byrnihat - PCBA",14-11-2025 07:00:00,26.071318,91.87488,NO2,NA,NA,NA
India,Assam,Guwahati,"IITG, Guwahati - PCBA",14-11-2025 07:00:00,26.2028636,91.70046436,CO,12,20,17
India,Andaman and Nicobar,Sri Vijaya Puram,"Police Line, Sri Vijaya Puram - ANPCC",14-11-2025 07:00:00,11.654054,92.734055,PM2.5,NA,NA,NA
India,Andaman and Nicobar,Sri Vijaya Puram,"Police Line, Sri Vijaya Puram - ANPCC",14-11-2025 07:00:00,11.654054,92.734055,NO2,NA,NA,NA
India,Andhra_Pradesh,Amaravati,"Secretariat, Amaravati - APPCB",14-11-2025 07:00:00,16.5150833,80.5181667,NO2,19,70,29
India,Bihar,Bihar Sharif,"D M Colony, Bihar Sharif - BSPCB",14-11-2025 07:00:00,25.204762,85.514960,SO2,10,10,10
India,Bihar,Chhapra,"Darshan Nagar, Chhapra - BSPCB",14-11-2025 07:00:00,25.7808257,84.7446768,PM10,44,416,199
India,Bihar,Chhapra,"Darshan Nagar, Chhapra - BSPCB",14-11-2025 07:00:00,25.7808257,84.7446768,NH3,2,6,4
India,Assam,Guwahati,"Pan Bazaar, Guwahati - PCBA",14-11-2025 07:00:00,26.187500,91.744194,PM10,42,95,70
India,Assam,Nalbari,"Bata Chowk, Nalbari - PCBA",14-11-2025 07:00:00,26.446912,91.439057,OZONE,2,31,7
India,Andhra_Pradesh,Anantapur,"Gulzarpet, Anantapur - APPCB",14-11-2025 07:00:00,14.675886,77.593027,NO2,14,20,16
India,Andhra_Pradesh,Anantapur,"Gulzarpet, Anantapur - APPCB",14-11-2025 07:00:00,14.675886,77.593027,SO2,12,17,16
India,Andhra_Pradesh,Anantapur,"Gulzarpet, Anantapur - APPCB",14-11-2025 07:00:00,14.675886,77.593027,CO,30,52,39
India,Chhattisgarh,Bilaspur,"Mangala, Bilaspur - NTPC",14-11-2025 07:00:00,22.08815,82.13737,PM2.5,55,139,88
India,Chhattisgarh,Chhal,"Nawapara SECL Colony, Chhal - CECB",14-11-2025 07:00:00,22.118125,83.140608,NO2,11,27,17
India,Chhattisgarh,Korba,"Rampur, Korba - CECB",14-11-2025 07:00:00,22.368195,82.746431,PM2.5,37,58,49
India,Chhattisgarh,Korba,"Rampur, Korba - CECB",14-11-2025 07:00:00,22.368195,82.746431,SO2,9,12,10
India,Chhattisgarh,Korba,"Rampur, Korba - CECB",14-11-2025 07:00:00,22.368195,82.746431,CO,24,39,32
India,Chhattisgarh,Korba,"Urja Nagar, Korba - CECB",14-11-2025 07:00:00,22.348441,82.549611,PM2.5,54,72,55
India,Chhattisgarh,Korba,"Urja Nagar, Korba - CECB",14-11-2025 07:00:00,22.348441,82.549611,NH3,1,2,2
India,Chhattisgarh,Kunjemura,"OP Jindal School, Kunjemura - CECB",14-11-2025 07:00:00,22.126650,83.483212,PM10,46,110,79
India,Chhattisgarh,Kunjemura,"OP Jindal School, Kunjemura - CECB",14-11-2025 07:00:00,22.126650,83.483212,NO2,3,4,3
India,Chhattisgarh,Milupara,"Govt. Higher Secondary School, Milupara - CECB",14-11-2025 07:00:00,22.1910172,83.5197009,PM10,56,182,100
India,Chhattisgarh,Milupara,"Govt. Higher Secondary School, Milupara - CECB",14-11-2025 07:00:00,22.1910172,83.5197009,NO2,20,69,31
India,Chhattisgarh,Milupara,"Govt. Higher Secondary School, Milupara - CECB",14-11-2025 07:00:00,22.1910172,83.5197009,CO,8,36,19
India,Chhattisgarh,Raipur,"AIIMS, Raipur - CECB",14-11-2025 07:00:00,21.258815,81.578979,PM2.5,16,175,108
India,Chhattisgarh,Raipur,"AIIMS, Raipur - CECB",14-11-2025 07:00:00,21.258815,81.578979,NH3,3,5,4
India,Chhattisgarh,Raipur,"Bhatagaon New ISBT, Raipur - CECB",14-11-2025 07:00:00,21.219665,81.630094,PM2.5,28,91,64
India,Chhattisgarh,Raipur,"Bhatagaon New ISBT, Raipur - CECB",14-11-2025 07:00:00,21.219665,81.630094,PM10,37,137,96
India,Chhattisgarh,Raipur,"Bhatagaon New ISBT, Raipur - CECB",14-11-2025 07:00:00,21.219665,81.630094,NO2,NA,NA,NA
India,Chhattisgarh,Raipur,"Krishak Nagar, Raipur - CECB",14-11-2025 07:00:00,21.237755,81.705301,SO2,7,10,8
India,Delhi,Delhi,"Ashok Vihar, Delhi - DPCC",14-11-2025 07:00:00,28.695381,77.181665,OZONE,1,142,9
India,Delhi,Delhi,"Aya Nagar, Delhi - IMD",14-11-2025 07:00:00,28.4706914,77.1099364,NO2,24,85,51
India,Delhi,Delhi,"Bawana, Delhi - DPCC",14-11-2025 07:00:00,28.776200,77.051074,PM2.5,335,500,442
India,Delhi,Delhi,"Burari Crossing, Delhi - IMD",14-11-2025 07:00:00,28.7256504,77.2011573,OZONE,12,250,14
India,Delhi,Delhi,"CRRI Mathura Road, Delhi - IMD",14-11-2025 07:00:00,28.5512005,77.2735737,OZONE,12,165,13
India,Delhi,Delhi,"Chandni Chowk, Delhi - IITM",14-11-2025 07:00:00,28.656756,77.227234,PM10,328,500,445
India,Delhi,Delhi,"Chandni Chowk, Delhi - IITM",14-11-2025 07:00:00,28.656756,77.227234,NO2,34,84,50
India,Delhi,Delhi,"Chandni Chowk, Delhi - IITM",14-11-2025 07:00:00,28.656756,77.227234,NH3,9,20,15
India,Chhattisgarh,Raipur,"Siltara Phase-II, Raipur - CECB",14-11-2025 07:00:00,21.371751,81.664929,PM10,91,163,123
India,Chhattisgarh,Tumidih,"OP Jindal Industrial Park, Tumidih - CECB",14-11-2025 07:00:00,22.06631475,83.33820077,PM2.5,65,200,104
India,Chhattisgarh,Tumidih,"OP Jindal Industrial Park, Tumidih - CECB",14-11-2025 07:00:00,22.06631475,83.33820077,NH3,1,2,1
India,Chhattisgarh,Tumidih,"OP Jindal Industrial Park, Tumidih - CECB",14-11-2025 07:00:00,22.06631475,83.33820077,CO,24,74,41
India,Delhi,Delhi,"Alipur, Delhi - DPCC",14-11-2025 07:00:00,28.815329,77.153010,PM10,211,500,393
India,Delhi,Delhi,"Alipur, Delhi - DPCC",14-11-2025 07:00:00,28.815329,77.153010,SO2,6,26,15
India,Chandigarh,Chandigarh,"Sector 22, Chandigarh - CPCC",14-11-2025 07:00:00,30.735567,76.775714,CO,57,88,70
India,Chandigarh,Chandigarh,"Sector 22, Chandigarh - CPCC",14-11-2025 07:00:00,30.735567,76.775714,OZONE,5,64,7
India,Chandigarh,Chandigarh,"Sector-25, Chandigarh - CPCC",14-11-2025 07:00:00,30.751462,76.762879,NH3,7,14,9
India,Chhattisgarh,Bhilai,"32Bungalows, Bhilai - CECB",14-11-2025 07:00:00,21.194815,81.314770,NH3,5,5,5
India,Chhattisgarh,Bhilai,"32Bungalows, Bhilai - CECB",14-11-2025 07:00:00,21.194815,81.314770,OZONE,1,77,2
India,Chhattisgarh,Bhilai,"Civic Center, Bhilai - Bhilai Steel Plant",14-11-2025 07:00:00,21.185571,81.343175,NH3,2,9,3
India,Bihar,Rajgir,"Dangi Tola, Rajgir - BSPCB",14-11-2025 07:00:00,25.03280,85.41948,PM10,50,103,79
India,Bihar,Sasaram,"Dada Peer, Sasaram - BSPCB",14-11-2025 07:00:00,24.952822,84.002396,PM2.5,40,88,54
India,Bihar,Sasaram,"Dada Peer, Sasaram - BSPCB",14-11-2025 07:00:00,24.952822,84.002396,CO,46,58,50
India,Bihar,Siwan,"Chitragupta Nagar, Siwan - BSPCB",14-11-2025 07:00:00,26.2271665,84.3570427,PM2.5,NA,NA,NA
India,Bihar,Siwan,"Chitragupta Nagar, Siwan - BSPCB",14-11-2025 07:00:00,26.2271665,84.3570427,NO2,1,5,2
India,Bihar,Siwan,"Chitragupta Nagar, Siwan - BSPCB",14-11-2025 07:00:00,26.2271665,84.3570427,CO,11,128,90
India,Bihar,Muzaffarpur,"Muzaffarpur Collectorate, Muzaffarpur - BSPCB",14-11-2025 07:00:00,26.1209,85.3647,PM2.5,80,130,110
India,Bihar,Muzaffarpur,"Muzaffarpur Collectorate, Muzaffarpur - BSPCB",14-11-2025 07:00:00,26.1209,85.3647,SO2,4,5,4
India,Bihar,Patna,"DRM Office Danapur, Patna - BSPCB",14-11-2025 07:00:00,25.586562,85.043586,SO2,6,12,9
India,Bihar,Patna,"Govt. High School Shikarpur, Patna - BSPCB",14-11-2025 07:00:00,25.592539,85.227158,SO2,9,11,10
India,Bihar,Patna,"Govt. High School Shikarpur, Patna - BSPCB",14-11-2025 07:00:00,25.592539,85.227158,CO,32,110,79
India,Bihar,Katihar,"Mirchaibari, Katihar - BSPCB",14-11-2025 07:00:00,25.560083,87.553265,CO,64,103,84
India,Bihar,Motihari,"Gandak Colony, Motihari - BSPCB",14-11-2025 07:00:00,26.63086,84.90051,CO,36,47,38
India,Bihar,Munger,"Town Hall, Munger - BSPCB",14-11-2025 07:00:00,25.376776,86.471523,NH3,4,7,6
India,Bihar,Munger,"Town Hall, Munger - BSPCB",14-11-2025 07:00:00,25.376776,86.471523,CO,22,46,25
India,Bihar,Patna,"Muradpur, Patna - BSPCB",14-11-2025 07:00:00,25.619651,85.147382,OZONE,4,41,5
India,Bihar,Patna,"Samanpura, Patna - BSPCB",14-11-2025 07:00:00,25.596727,85.085624,PM2.5,71,428,285
India,Delhi,Delhi,"Dr. Karni Singh Shooting Range, Delhi - DPCC",14-11-2025 07:00:00,28.498571,77.264840,PM2.5,367,490,411
India,Delhi,Delhi,"Dr. Karni Singh Shooting Range, Delhi - DPCC",14-11-2025 07:00:00,28.498571,77.264840,SO2,23,43,32
India,Delhi,Delhi,"Dr. Karni Singh Shooting Range, Delhi - DPCC",14-11-2025 07:00:00,28.498571,77.264840,OZONE,8,141,30
India,Delhi,Delhi,"Dwarka-Sector 8, Delhi - DPCC ",14-11-2025 07:00:00,28.5710274,77.0719006,NO2,72,174,112
India,Delhi,Delhi,"Dwarka-Sector 8, Delhi - DPCC ",14-11-2025 07:00:00,28.5710274,77.0719006,SO2,2,36,19
India,Delhi,Delhi,"IGI Airport (T3), Delhi - IMD",14-11-2025 07:00:00,28.5627763,77.1180053,NO2,89,251,157
India,Delhi,Delhi,"IHBAS, Dilshad Garden, Delhi - CPCB",14-11-2025 07:00:00,28.6811736,77.3025234,PM2.5,110,438,248
India,Delhi,Delhi,"IHBAS, Dilshad Garden, Delhi - CPCB",14-11-2025 07:00:00,28.6811736,77.3025234,NH3,5,6,5
India,Delhi,Delhi,"IHBAS, Dilshad Garden, Delhi - CPCB",14-11-2025 07:00:00,28.6811736,77.3025234,OZONE,23,78,23
India,Delhi,Delhi,"Rohini, Delhi - DPCC",14-11-2025 07:00:00,28.732528,77.119920,NH3,5,5,5
India,Delhi,Delhi,"Rohini, Delhi - DPCC",14-11-2025 07:00:00,28.732528,77.119920,CO,34,111,84
India,Delhi,Delhi,"Sirifort, Delhi - CPCB",14-11-2025 07:00:00,28.5504249,77.2159377,NO2,44,64,52
India,Delhi,Delhi,"Sirifort, Delhi - CPCB",14-11-2025 07:00:00,28.5504249,77.2159377,NH3,6,14,10
India,Delhi,Delhi,"Sonia Vihar, Delhi - DPCC",14-11-2025 07:00:00,28.710508,77.249485,NH3,6,27,10
India,Delhi,Delhi,"Sonia Vihar, Delhi - DPCC",14-11-2025 07:00:00,28.710508,77.249485,SO2,9,35,19
India,Delhi,Delhi,"Sri Aurobindo Marg, Delhi - DPCC",14-11-2025 07:00:00,28.531346,77.190156,NH3,4,6,5
India,Delhi,Delhi,"Sri Aurobindo Marg, Delhi - DPCC",14-11-2025 07:00:00,28.531346,77.190156,OZONE,1,159,5
India,Delhi,Delhi,"Vivek Vihar, Delhi - DPCC",14-11-2025 07:00:00,28.672342,77.315260,PM2.5,346,500,430
India,Delhi,Delhi,"Narela, Delhi - DPCC",14-11-2025 07:00:00,28.822836,77.101981,SO2,20,49,31
India,Delhi,Delhi,"Nehru Nagar, Delhi - DPCC",14-11-2025 07:00:00,28.567890,77.250515,PM10,298,472,387
India,Delhi,Delhi,"Nehru Nagar, Delhi - DPCC",14-11-2025 07:00:00,28.567890,77.250515,NO2,37,146,84
India,Delhi,Delhi,"Nehru Nagar, Delhi - DPCC",14-11-2025 07:00:00,28.567890,77.250515,SO2,18,46,31
India,Delhi,Delhi,"North Campus, DU, Delhi - IMD",14-11-2025 07:00:00,28.6573814,77.1585447,PM10,249,447,361
India,Delhi,Delhi,"North Campus, DU, Delhi - IMD",14-11-2025 07:00:00,28.6573814,77.1585447,NO2,65,223,136
India,Delhi,Delhi,"North Campus, DU, Delhi - IMD",14-11-2025 07:00:00,28.6573814,77.1585447,CO,48,134,99
India,Delhi,Delhi,"Patparganj, Delhi - DPCC",14-11-2025 07:00:00,28.623763,77.287209,PM2.5,356,487,414
India,Delhi,Delhi,"Mandir Marg, Delhi - DPCC",14-11-2025 07:00:00,28.636429,77.201067,NO2,44,90,67
India,Delhi,Delhi,"Mandir Marg, Delhi - DPCC",14-11-2025 07:00:00,28.636429,77.201067,NH3,12,33,21
India,Delhi,Delhi,"Mandir Marg, Delhi - DPCC",14-11-2025 07:00:00,28.636429,77.201067,OZONE,6,157,7
India,Delhi,Delhi,"Mundka, Delhi - DPCC",14-11-2025 07:00:00,28.684678,77.076574,PM10,197,426,332
India,Delhi,Delhi,"Mundka, Delhi - DPCC",14-11-2025 07:00:00,28.684678,77.076574,NO2,77,184,123
India,Delhi,Delhi,"NSIT Dwarka, Delhi - CPCB",14-11-2025 07:00:00,28.60909,77.0325413,OZONE,12,95,12
India,Delhi,Delhi,"Najafgarh, Delhi - DPCC",14-11-2025 07:00:00,28.570173,76.933762,PM10,189,407,287
India,Delhi,Delhi,"ITO, Delhi - CPCB",14-11-2025 07:00:00,28.628624,77.241060,NH3,3,5,4
India,Delhi,Delhi,"Jahangirpuri, Delhi - DPCC",14-11-2025 07:00:00,28.732820,77.170633,PM2.5,338,500,424
India,Delhi,Delhi,"Jahangirpuri, Delhi - DPCC",14-11-2025 07:00:00,28.732820,77.170633,OZONE,5,65,7
India,Delhi,Delhi,"Jawaharlal Nehru Stadium, Delhi - DPCC",14-11-2025 07:00:00,28.580280,77.233829,PM10,320,470,403
India,Delhi,Delhi,"Jawaharlal Nehru Stadium, Delhi - DPCC",14-11-2025 07:00:00,28.580280,77.233829,SO2,14,38,26
India,Delhi,Delhi,"Lodhi Road, Delhi - IMD",14-11-2025 07:00:00,28.5918245,77.2273074,PM10,237,436,306
India,Gujarat,Ahmedabad,"SAC ISRO Satellite, Ahmedabad - IITM",14-11-2025 07:00:00,23.023389,72.515201,NO2,21,161,85
India,Gujarat,Ahmedabad,"SAC ISRO Satellite, Ahmedabad - IITM",14-11-2025 07:00:00,23.023389,72.515201,CO,3,156,109
India,Gujarat,Ankleshwar,"GIDC, Ankleshwar - GPCB",14-11-2025 07:00:00,21.613267,73.010555,PM10,46,176,136
India,Gujarat,Ankleshwar,"GIDC, Ankleshwar - GPCB",14-11-2025 07:00:00,21.613267,73.010555,NH3,5,7,6
India,Gujarat,Gandhinagar,"GIFT City, Gandhinagar - IITM",14-11-2025 07:00:00,23.163798,72.677768,PM10,121,264,171
India,Gujarat,Gandhinagar,"GIFT City, Gandhinagar - IITM",14-11-2025 07:00:00,23.163798,72.677768,OZONE,2,88,11
India,Delhi,Delhi,"Punjabi Bagh, Delhi - DPCC",14-11-2025 07:00:00,28.674045,77.131023,OZONE,3,122,9
India,Delhi,Delhi,"Pusa, Delhi - DPCC",14-11-2025 07:00:00,28.639652,77.146275,NH3,4,20,12
India,Delhi,Delhi,"Pusa, Delhi - DPCC",14-11-2025 07:00:00,28.639652,77.146275,CO,74,109,91
India,Delhi,Delhi,"Pusa, Delhi - DPCC",14-11-2025 07:00:00,28.639652,77.146275,OZONE,1,59,1
India,Delhi,Delhi,"Pusa, Delhi - IMD",14-11-2025 07:00:00,28.636110,77.173332,PM2.5,346,461,391
India,Delhi,Delhi,"Pusa, Delhi - IMD",14-11-2025 07:00:00,28.636110,77.173332,NO2,17,135,77
India,Delhi,Delhi,"Pusa, Delhi - IMD",14-11-2025 07:00:00,28.636110,77.173332,OZONE,2,144,5
India,Delhi,Delhi,"Vivek Vihar, Delhi - DPCC",14-11-2025 07:00:00,28.672342,77.315260,PM10,258,456,389
India,Delhi,Delhi,"Vivek Vihar, Delhi - DPCC",14-11-2025 07:00:00,28.672342,77.315260,OZONE,4,27,4
India,Gujarat,Ahmedabad,"Chandkheda, Ahmedabad - IITM",14-11-2025 07:00:00,23.107969,72.574648,NO2,10,120,53
India,Gujarat,Ahmedabad,"Chandkheda, Ahmedabad - IITM",14-11-2025 07:00:00,23.107969,72.574648,OZONE,2,77,11
India,Gujarat,Ahmedabad,"Gyaspur, Ahmedabad - IITM",14-11-2025 07:00:00,22.977134,72.553024,NH3,4,54,22
India,Gujarat,Ahmedabad,"Gyaspur, Ahmedabad - IITM",14-11-2025 07:00:00,22.977134,72.553024,CO,56,130,120
India,Gujarat,Ahmedabad,"Raikhad, Ahmedabad - IITM",14-11-2025 07:00:00,23.020509,72.579261,OZONE,3,87,6
India,Gujarat,Ahmedabad,"Rakhial, Ahmedabad - IITM",14-11-2025 07:00:00,23.016834,72.625775,NO2,10,344,58
India,Gujarat,Ahmedabad,"SAC ISRO Bopal, Ahmedabad - IITM",14-11-2025 07:00:00,23.041137,72.456691,PM2.5,NA,NA,NA
India,Gujarat,Ahmedabad,"SAC ISRO Bopal, Ahmedabad - IITM",14-11-2025 07:00:00,23.041137,72.456691,OZONE,NA,NA,NA
India,Haryana,Charkhi Dadri,"Mini Secretariat, Charkhi Dadri - HSPCB",14-11-2025 07:00:00,28.593883,76.270653,PM10,151,412,230
India,Haryana,Charkhi Dadri,"Mini Secretariat, Charkhi Dadri - HSPCB",14-11-2025 07:00:00,28.593883,76.270653,NH3,5,8,6
India,Haryana,Dharuhera,"Municipal Corporation Office, Dharuhera -  HSPCB",14-11-2025 07:00:00,28.206800,76.799700,PM2.5,234,358,312
India,Haryana,Dharuhera,"Municipal Corporation Office, Dharuhera -  HSPCB",14-11-2025 07:00:00,28.206800,76.799700,CO,57,74,69
India,Haryana,Faridabad,"New Industrial Town, Faridabad - HSPCB",14-11-2025 07:00:00,28.39072,77.30059,SO2,8,9,8
India,Haryana,Faridabad,"Sector 11, Faridabad - HSPCB",14-11-2025 07:00:00,28.376058,77.315741,PM2.5,196,319,265
India,Haryana,Faridabad,"Sector 11, Faridabad - HSPCB",14-11-2025 07:00:00,28.376058,77.315741,PM10,120,202,156
India,Haryana,Faridabad,"Sector 11, Faridabad - HSPCB",14-11-2025 07:00:00,28.376058,77.315741,CO,14,83,35
India,Haryana,Sonipat,"Murthal, Sonipat - HSPCB",14-11-2025 07:00:00,29.027200,77.062100,NH3,7,21,16
India,Haryana,Yamuna Nagar,"Gobind Pura, Yamuna Nagar - HSPCB",14-11-2025 07:00:00,30.1480566,77.2893471,PM10,109,168,143
India,Haryana,Yamuna Nagar,"Gobind Pura, Yamuna Nagar - HSPCB",14-11-2025 07:00:00,30.1480566,77.2893471,NH3,10,10,10
India,Haryana,Yamuna Nagar,"Gobind Pura, Yamuna Nagar - HSPCB",14-11-2025 07:00:00,30.1480566,77.2893471,OZONE,38,38,38
India,Himachal Pradesh,Baddi,"HIMUDA Complex Phase-1, Baddi - HPPCB",14-11-2025 07:00:00,30.943887,76.801991,PM10,100,336,164
India,Himachal Pradesh,Baddi,"HIMUDA Complex Phase-1, Baddi - HPPCB",14-11-2025 07:00:00,30.943887,76.801991,NO2,20,120,60
India,Jharkhand,Dhanbad,"Sardar Patel Nagar, Dhanbad - JSPCB",14-11-2025 07:00:00,23.80569,86.44268,PM10,64,152,108
India,Haryana,Karnal,"Sector-12, Karnal - HSPCB",14-11-2025 07:00:00,29.695300,77.002700,NH3,6,7,6
India,Haryana,Kurukshetra,"Sector-7, Kurukshetra - HSPCB",14-11-2025 07:00:00,29.966942,76.875879,NO2,16,21,19
India,Haryana,Mandikhera,"General Hospital, Mandikhera - HSPCB",14-11-2025 07:00:00,27.9002,76.9938,OZONE,22,31,27
India,Haryana,Manesar,"Sector-2 IMT, Manesar - HSPCB",14-11-2025 07:00:00,28.360699,76.936090,PM2.5,135,327,242
India,Haryana,Manesar,"Sector-2 IMT, Manesar - HSPCB",14-11-2025 07:00:00,28.360699,76.936090,SO2,12,27,20
India,Haryana,Narnaul,"Shastri Nagar, Narnaul - HSPCB",14-11-2025 07:00:00,28.060249,76.113115,CO,26,48,37
India,Karnataka,Bagalkot,"Vidayagiri, Bagalkot - KSPCB",14-11-2025 07:00:00,16.172806,75.659694,PM10,52,54,53
India,Karnataka,Bagalkot,"Vidayagiri, Bagalkot - KSPCB",14-11-2025 07:00:00,16.172806,75.659694,NO2,11,12,12
India,Karnataka,Belgaum,"Ramteerth Nagar, Belgaum - KSPCB",14-11-2025 07:00:00,15.888653,74.541751,NH3,7,10,9
India,Karnataka,Belgaum,"Ramteerth Nagar, Belgaum - KSPCB",14-11-2025 07:00:00,15.888653,74.541751,SO2,20,21,20
India,Karnataka,Belgaum,"Ramteerth Nagar, Belgaum - KSPCB",14-11-2025 07:00:00,15.888653,74.541751,CO,11,16,14
India,Karnataka,Bengaluru,"BTM Layout, Bengaluru - CPCB",14-11-2025 07:00:00,12.9135218,77.5950804,SO2,19,20,19
India,Karnataka,Bengaluru,"BTM Layout, Bengaluru - CPCB",14-11-2025 07:00:00,12.9135218,77.5950804,CO,42,56,52
India,Haryana,Ambala,"Patti Mehar, Ambala - HSPCB",14-11-2025 07:00:00,30.379589,76.778328,SO2,30,32,31
India,Haryana,Bahadurgarh,"Arya Nagar, Bahadurgarh - HSPCB",14-11-2025 07:00:00,28.6701,76.9254,NO2,12,14,13
India,Haryana,Bahadurgarh,"Arya Nagar, Bahadurgarh - HSPCB",14-11-2025 07:00:00,28.6701,76.9254,CO,35,50,48
India,Haryana,Bhiwani,"H.B. Colony, Bhiwani - HSPCB",14-11-2025 07:00:00,28.806223,76.141105,PM2.5,325,409,364
India,Haryana,Bhiwani,"H.B. Colony, Bhiwani - HSPCB",14-11-2025 07:00:00,28.806223,76.141105,OZONE,9,19,14
India,Haryana,Gurugram,"Teri Gram, Gurugram - HSPCB",14-11-2025 07:00:00,28.4275,77.1465,OZONE,NA,NA,NA
India,Haryana,Kaithal,"Rishi Nagar, Kaithal - HSPCB",14-11-2025 07:00:00,29.8006,76.4155,NH3,5,6,6
India,Haryana,Karnal,"Sector-12, Karnal - HSPCB",14-11-2025 07:00:00,29.695300,77.002700,PM2.5,6,317,182
India,Haryana,Karnal,"Sector-12, Karnal - HSPCB",14-11-2025 07:00:00,29.695300,77.002700,PM10,6,181,113
India,Haryana,Panchkula,"Sector-6, Panchkula - HSPCB ",14-11-2025 07:00:00,30.7057778,76.8531805555555,SO2,8,9,9
India,Haryana,Panchkula,"Sector-6, Panchkula - HSPCB ",14-11-2025 07:00:00,30.7057778,76.8531805555555,OZONE,17,36,29
India,Haryana,Panipat,"Sector-18, Panipat - HSPCB",14-11-2025 07:00:00,29.432304,76.972765,PM10,44,292,152
India,Haryana,Gurugram,"Sector-51, Gurugram - HSPCB",14-11-2025 07:00:00,28.4227,77.0667,SO2,3,30,14
India,Haryana,Gurugram,"Teri Gram, Gurugram - HSPCB",14-11-2025 07:00:00,28.4275,77.1465,PM2.5,121,317,254
India,Haryana,Gurugram,"Teri Gram, Gurugram - HSPCB",14-11-2025 07:00:00,28.4275,77.1465,PM10,110,225,159
India,Haryana,Panchgaon,"Amity University, Panchgaon - IITM",14-11-2025 07:00:00,28.3153,76.9143,NO2,33,103,69
India,Karnataka,Bengaluru,"Shivapura_Peenya, Bengaluru - KSPCB",14-11-2025 07:00:00,13.0246342,77.5080115,PM10,97,121,110
India,Karnataka,Bengaluru,"Shivapura_Peenya, Bengaluru - KSPCB",14-11-2025 07:00:00,13.0246342,77.5080115,NO2,34,36,35
India,Karnataka,Chikkamagaluru,"Kalyana Nagara, Chikkamagaluru - KSPCB",14-11-2025 07:00:00,13.328028,75.797056,CO,11,128,11
India,Karnataka,Davanagere,"Devaraj Urs Badavane, Davanagere - KSPCB",14-11-2025 07:00:00,14.475800,75.905200,PM2.5,71,224,97
India,Karnataka,Davanagere,"Devaraj Urs Badavane, Davanagere - KSPCB",14-11-2025 07:00:00,14.475800,75.905200,PM10,82,131,104
India,Karnataka,Dharwad,"Kalabhavan, Dharwad - KSPCB",14-11-2025 07:00:00,15.459706,75.008381,NO2,22,26,25
India,Karnataka,Dharwad,"Kalabhavan, Dharwad - KSPCB",14-11-2025 07:00:00,15.459706,75.008381,SO2,2,5,4
India,Karnataka,Gadag,"Panchal Nagar, Gadag - KSPCB",14-11-2025 07:00:00,15.411456,75.638133,CO,8,15,13
India,Karnataka,Hubballi,"Lingaraj Nagar, Hubballi - KSPCB",14-11-2025 07:00:00,15.3714823,75.1160168,PM2.5,28,43,40
India,Karnataka,Hubballi,"Lingaraj Nagar, Hubballi - KSPCB",14-11-2025 07:00:00,15.3714823,75.1160168,PM10,46,59,57
India,Karnataka,Bengaluru,"Hombegowda Nagar, Bengaluru - KSPCB",14-11-2025 07:00:00,12.938539,77.590100,PM10,NA,NA,NA
India,Karnataka,Bengaluru,"Hombegowda Nagar, Bengaluru - KSPCB",14-11-2025 07:00:00,12.938539,77.590100,CO,NA,NA,NA
