country,state,city,station,last_update,latitude,longitude,pollutant_id,min_value,max_value,avg_value
India,Andhra_Pradesh,Anantapur,"Gulzarpet, Anantapur - APPCB",29-08-2025 13:00:00,14.675886,77.593027,CO,23,30,26
India,Andhra_Pradesh,Chittoor,"Gangineni Cheruvu, Chittoor - APPCB",29-08-2025 13:00:00,13.204880,79.097889,SO2,21,22,22
India,Andhra_Pradesh,Chittoor,"Gangineni Cheruvu, Chittoor - APPCB",29-08-2025 13:00:00,13.204880,79.097889,CO,48,105,58
India,Andhra_Pradesh,Rajamahendravaram,"Anand Kala Kshetram, Rajamahendravaram - APPCB",29-08-2025 13:00:00,16.9872867,81.7363176,PM10,13,37,22
India,Andhra_Pradesh,Tirumala,"Toll Gate, Tirumala - APPCB",29-08-2025 13:00:00,13.67,79.35,CO,1,44,18
India,Andhra_Pradesh,Vijayawada,"HB Colony, Vijayawada - APPCB",29-08-2025 13:00:00,16.536107,80.594233,PM2.5,55,80,67
India,Andhra_Pradesh,Vijayawada,"HB Colony, Vijayawada - APPCB",29-08-2025 13:00:00,16.536107,80.594233,PM10,56,77,64
India,Arunachal_Pradesh,Naharlagun,"Naharlagun, Naharlagun - APSPCB",29-08-2025 13:00:00,27.103358,93.679645,CO,4,30,7
India,Assam,Byrnihat,"Central Academy for SFS, Byrnihat - PCBA",29-08-2025 13:00:00,26.071318,91.87488,NO2,NA,NA,NA
India,Assam,Byrnihat,"Central Academy for SFS, Byrnihat - PCBA",29-08-2025 13:00:00,26.071318,91.87488,CO,32,54,47
India,Assam,Guwahati,"IITG, Guwahati - PCBA",29-08-2025 13:00:00,26.2028636,91.70046436,NH3,5,5,5
India,Assam,Guwahati,"IITG, Guwahati - PCBA",29-08-2025 13:00:00,26.2028636,91.70046436,OZONE,1,26,12
India,Assam,Guwahati,"LGBI Airport, Guwahati - PCBA",29-08-2025 13:00:00,26.10887,91.589544,OZONE,11,18,15
India,Bihar,Arrah,"New DM Office, Arrah - BSPCB",29-08-2025 13:00:00,25.5626095,84.663264,CO,15,68,48
India,Bihar,Aurangabad,"Gurdeo Nagar, Aurangabad - BSPCB",29-08-2025 13:00:00,24.75746,84.366208,CO,14,44,15
India,Bihar,Begusarai,"Lohiyanagar, Begusarai - BSPCB",29-08-2025 13:00:00,25.42742023,86.13886079,CO,24,68,51
India,Bihar,Begusarai,"Lohiyanagar, Begusarai - BSPCB",29-08-2025 13:00:00,25.42742023,86.13886079,OZONE,29,66,44
India,Bihar,Bettiah,"Kamalnath Nagar, Bettiah - BSPCB",29-08-2025 13:00:00,26.80365,84.51954,PM2.5,3,27,14
India,Andhra_Pradesh,Vijayawada,"HB Colony, Vijayawada - APPCB",29-08-2025 13:00:00,16.536107,80.594233,CO,34,44,39
India,Andhra_Pradesh,Vijayawada,"Rajiv Gandhi Park, Vijayawada - APPCB",29-08-2025 13:00:00,16.509717,80.612222,NO2,4,48,26
India,Andhra_Pradesh,Visakhapatnam,"GVM Corporation, Visakhapatnam - APPCB",29-08-2025 13:00:00,17.72,83.3,PM2.5,31,99,58
India,Andhra_Pradesh,Visakhapatnam,"GVM Corporation, Visakhapatnam - APPCB",29-08-2025 13:00:00,17.72,83.3,OZONE,10,16,12
India,Assam,Guwahati,"Pan Bazaar, Guwahati - PCBA",29-08-2025 13:00:00,26.187500,91.744194,OZONE,18,18,18
India,Assam,Nagaon,"Christianpatty, Nagaon - PCBA",29-08-2025 13:00:00,26.349082,92.68449,OZONE,8,9,9
India,Assam,Nalbari,"Bata Chowk, Nalbari - PCBA",29-08-2025 13:00:00,26.446912,91.439057,PM2.5,49,51,50
India,Assam,Nalbari,"Bata Chowk, Nalbari - PCBA",29-08-2025 13:00:00,26.446912,91.439057,OZONE,4,27,12
India,Bihar,Bettiah,"Kamalnath Nagar, Bettiah - BSPCB",29-08-2025 13:00:00,26.80365,84.51954,OZONE,23,26,24
India,Bihar,Bhagalpur,"DM Office_Kachari Chowk, Bhagalpur - BSPCB",29-08-2025 13:00:00,25.251013,86.989001,OZONE,12,22,17
India,Bihar,Bhagalpur,"Mayaganj, Bhagalpur - BSPCB",29-08-2025 13:00:00,25.265194,87.012947,CO,2,68,38
India,Bihar,Bihar Sharif,"D M Colony, Bihar Sharif - BSPCB",29-08-2025 13:00:00,25.204762,85.514960,SO2,8,10,10
India,Bihar,Gaya,"Collectorate, Gaya - BSPCB",29-08-2025 13:00:00,24.7955,84.9994,PM2.5,2,87,39
India,Bihar,Gaya,"Kareemganj, Gaya - BSPCB",29-08-2025 13:00:00,24.792403,84.992416,PM10,22,83,55
India,Bihar,Hajipur,"Industrial Area, Hajipur - BSPCB",29-08-2025 13:00:00,25.697189,85.245900,PM10,25,50,37
India,Bihar,Hajipur,"Industrial Area, Hajipur - BSPCB",29-08-2025 13:00:00,25.697189,85.245900,NO2,9,18,12
India,Bihar,Hajipur,"Industrial Area, Hajipur - BSPCB",29-08-2025 13:00:00,25.697189,85.245900,CO,8,18,13
India,Andhra_Pradesh,Amaravati,"Secretariat, Amaravati - APPCB",29-08-2025 13:00:00,16.5150833,80.5181667,PM2.5,NA,NA,NA
India,Assam,Sivasagar,"Girls College, Sivasagar - PCBA",29-08-2025 13:00:00,26.987634,94.636574,NH3,3,4,3
India,Bihar,Rajgir,"Dangi Tola, Rajgir - BSPCB",29-08-2025 13:00:00,25.03280,85.41948,NH3,5,8,6
India,Bihar,Saharsa,"Police Line, Saharsa - BSPCB",29-08-2025 13:00:00,25.892357,86.590325,OZONE,6,17,12
India,Bihar,Samastipur,"DM Office_Kasipur, Samastipur - BSPCB",29-08-2025 13:00:00,25.859655,85.77944,PM10,78,155,114
India,Bihar,Sasaram,"Dada Peer, Sasaram - BSPCB",29-08-2025 13:00:00,24.952822,84.002396,PM2.5,8,20,14
India,Bihar,Siwan,"Chitragupta Nagar, Siwan - BSPCB",29-08-2025 13:00:00,26.2271665,84.3570427,PM2.5,24,29,27
India,Bihar,Siwan,"Chitragupta Nagar, Siwan - BSPCB",29-08-2025 13:00:00,26.2271665,84.3570427,PM10,20,26,24
India,Bihar,Siwan,"Chitragupta Nagar, Siwan - BSPCB",29-08-2025 13:00:00,26.2271665,84.3570427,SO2,2,9,5
India,Bihar,Siwan,"Chitragupta Nagar, Siwan - BSPCB",29-08-2025 13:00:00,26.2271665,84.3570427,CO,44,47,46
India,Bihar,Muzaffarpur,"Buddha Colony, Muzaffarpur - BSPCB",29-08-2025 13:00:00,26.11442,85.39813,SO2,2,5,3
India,Bihar,Muzaffarpur,"MIT-Daudpur Kothi, Muzaffarpur - BSPCB",29-08-2025 13:00:00,26.1403345,85.3650192,NO2,9,14,11
India,Bihar,Muzaffarpur,"MIT-Daudpur Kothi, Muzaffarpur - BSPCB",29-08-2025 13:00:00,26.1403345,85.3650192,NH3,2,4,2
India,Bihar,Muzaffarpur,"MIT-Daudpur Kothi, Muzaffarpur - BSPCB",29-08-2025 13:00:00,26.1403345,85.3650192,CO,42,88,60
India,Bihar,Muzaffarpur,"Muzaffarpur Collectorate, Muzaffarpur - BSPCB",29-08-2025 13:00:00,26.1209,85.3647,PM2.5,32,72,47
India,Bihar,Patna,"DRM Office Danapur, Patna - BSPCB",29-08-2025 13:00:00,25.586562,85.043586,PM2.5,10,22,16
India,Bihar,Patna,"Govt. High School Shikarpur, Patna - BSPCB",29-08-2025 13:00:00,25.592539,85.227158,OZONE,9,12,10
India,Bihar,Patna,"IGSC Planetarium Complex, Patna - BSPCB",29-08-2025 13:00:00,25.610369,85.132568,CO,68,89,84
India,Bihar,Patna,"Muradpur, Patna - BSPCB",29-08-2025 13:00:00,25.619651,85.147382,SO2,2,12,6
India,Bihar,Patna,"Muradpur, Patna - BSPCB",29-08-2025 13:00:00,25.619651,85.147382,CO,30,67,49
India,Bihar,Patna,"Rajbansi Nagar, Patna - BSPCB",29-08-2025 13:00:00,25.599486,85.113666,PM2.5,16,63,50
India,Bihar,Patna,"Rajbansi Nagar, Patna - BSPCB",29-08-2025 13:00:00,25.599486,85.113666,NO2,22,27,24
India,Bihar,Patna,"Rajbansi Nagar, Patna - BSPCB",29-08-2025 13:00:00,25.599486,85.113666,CO,13,32,18
India,Bihar,Rajgir,"Dangi Tola, Rajgir - BSPCB",29-08-2025 13:00:00,25.03280,85.41948,PM10,32,57,44
India,Bihar,Kishanganj,"SDM Office_Khagra, Kishanganj - BSPCB",29-08-2025 13:00:00,26.0881305,87.93840336,NH3,3,3,3
India,Bihar,Kishanganj,"SDM Office_Khagra, Kishanganj - BSPCB",29-08-2025 13:00:00,26.0881305,87.93840336,SO2,4,10,8
India,Bihar,Kishanganj,"SDM Office_Khagra, Kishanganj - BSPCB",29-08-2025 13:00:00,26.0881305,87.93840336,CO,21,56,32
India,Bihar,Manguraha,"Forest Rest House, Manguraha - BSPCB",29-08-2025 13:00:00,27.308328,84.531742,NH3,1,1,1
India,Bihar,Manguraha,"Forest Rest House, Manguraha - BSPCB",29-08-2025 13:00:00,27.308328,84.531742,CO,4,36,23
India,Bihar,Muzaffarpur,"Buddha Colony, Muzaffarpur - BSPCB",29-08-2025 13:00:00,26.11442,85.39813,PM2.5,19,36,27
India,Chhattisgarh,Bhilai,"Hathkhoj, Bhilai - CECB",29-08-2025 13:00:00,21.224231,81.408350,SO2,7,11,8
India,Chhattisgarh,Bilaspur,"Mangala, Bilaspur - NTPC",29-08-2025 13:00:00,22.08815,82.13737,PM2.5,13,39,24
India,Chhattisgarh,Chhal,"Nawapara SECL Colony, Chhal - CECB",29-08-2025 13:00:00,22.118125,83.140608,NO2,27,68,45
India,Chhattisgarh,Chhal,"Nawapara SECL Colony, Chhal - CECB",29-08-2025 13:00:00,22.118125,83.140608,CO,10,32,29
India,Chhattisgarh,Kunjemura,"OP Jindal School, Kunjemura - CECB",29-08-2025 13:00:00,22.126650,83.483212,SO2,1,6,4
India,Chhattisgarh,Kunjemura,"OP Jindal School, Kunjemura - CECB",29-08-2025 13:00:00,22.126650,83.483212,OZONE,3,7,5
India,Chhattisgarh,Milupara,"Govt. Higher Secondary School, Milupara - CECB",29-08-2025 13:00:00,22.1910172,83.5197009,NO2,7,25,15
India,Chhattisgarh,Milupara,"Govt. Higher Secondary School, Milupara - CECB",29-08-2025 13:00:00,22.1910172,83.5197009,NH3,NA,NA,NA
India,Chhattisgarh,Raipur,"Krishak Nagar, Raipur - CECB",29-08-2025 13:00:00,21.237755,81.705301,PM2.5,3,22,10
India,Chhattisgarh,Raipur,"Krishak Nagar, Raipur - CECB",29-08-2025 13:00:00,21.237755,81.705301,PM10,6,30,13
India,Chhattisgarh,Raipur,"Krishak Nagar, Raipur - CECB",29-08-2025 13:00:00,21.237755,81.705301,OZONE,8,13,10
India,Chhattisgarh,Raipur,"Siltara Phase-II, Raipur - CECB",29-08-2025 13:00:00,21.371751,81.664929,PM2.5,4,44,15
India,Delhi,Delhi,"Alipur, Delhi - DPCC",29-08-2025 13:00:00,28.815329,77.153010,PM10,31,115,87
India,Delhi,Delhi,"Alipur, Delhi - DPCC",29-08-2025 13:00:00,28.815329,77.153010,NH3,11,13,11
India,Delhi,Delhi,"Anand Vihar, Delhi - DPCC",29-08-2025 13:00:00,28.647622,77.3158090,NO2,14,66,29
India,Chandigarh,Chandigarh,"Sector-25, Chandigarh - CPCC",29-08-2025 13:00:00,30.751462,76.762879,OZONE,25,314,25
India,Chandigarh,Chandigarh,"Sector-53, Chandigarh - CPCC",29-08-2025 13:00:00,30.719859,76.738637,PM2.5,3,65,28
India,Chhattisgarh,Bhilai,"32Bungalows, Bhilai - CECB",29-08-2025 13:00:00,21.194815,81.314770,NH3,3,4,3
India,Chhattisgarh,Bhilai,"Hathkhoj, Bhilai - CECB",29-08-2025 13:00:00,21.224231,81.408350,PM2.5,4,30,16
India,Delhi,Delhi,"Anand Vihar, Delhi - DPCC",29-08-2025 13:00:00,28.647622,77.3158090,OZONE,6,33,12
India,Delhi,Delhi,"Bawana, Delhi - DPCC",29-08-2025 13:00:00,28.776200,77.051074,PM2.5,40,143,93
India,Delhi,Delhi,"Burari Crossing, Delhi - IMD",29-08-2025 13:00:00,28.7256504,77.2011573,CO,4,34,11
India,Delhi,Delhi,"Sirifort, Delhi - CPCB",29-08-2025 13:00:00,28.5504249,77.2159377,NH3,8,11,10
India,Delhi,Delhi,"Sonia Vihar, Delhi - DPCC",29-08-2025 13:00:00,28.710508,77.249485,NH3,7,10,8
India,Delhi,Delhi,"Sri Aurobindo Marg, Delhi - DPCC",29-08-2025 13:00:00,28.531346,77.190156,PM2.5,20,65,46
India,Delhi,Delhi,"Sri Aurobindo Marg, Delhi - DPCC",29-08-2025 13:00:00,28.531346,77.190156,NO2,11,42,24
India,Delhi,Delhi,"Sri Aurobindo Marg, Delhi - DPCC",29-08-2025 13:00:00,28.531346,77.190156,NH3,5,8,7
India,Delhi,Delhi,"Sri Aurobindo Marg, Delhi - DPCC",29-08-2025 13:00:00,28.531346,77.190156,CO,26,80,43
India,Delhi,Delhi,"Sri Aurobindo Marg, Delhi - DPCC",29-08-2025 13:00:00,28.531346,77.190156,OZONE,6,25,11
India,Delhi,Delhi,"Vivek Vihar, Delhi - DPCC",29-08-2025 13:00:00,28.672342,77.315260,PM10,47,112,94
India,Delhi,Delhi,"Vivek Vihar, Delhi - DPCC",29-08-2025 13:00:00,28.672342,77.315260,CO,22,50,31
India,Delhi,Delhi,"Wazirpur, Delhi - DPCC",29-08-2025 13:00:00,28.699793,77.165453,PM2.5,58,257,135
India,Delhi,Delhi,"Dwarka-Sector 8, Delhi - DPCC ",29-08-2025 13:00:00,28.5710274,77.0719006,OZONE,24,77,25
India,Delhi,Delhi,"IGI Airport (T3), Delhi - IMD",29-08-2025 13:00:00,28.5627763,77.1180053,NO2,39,78,59
India,Delhi,Delhi,"IHBAS, Dilshad Garden, Delhi - CPCB",29-08-2025 13:00:00,28.6811736,77.3025234,PM2.5,32,96,45
India,Delhi,Delhi,"IHBAS, Dilshad Garden, Delhi - CPCB",29-08-2025 13:00:00,28.6811736,77.3025234,NH3,3,12,6
India,Delhi,Delhi,"IHBAS, Dilshad Garden, Delhi - CPCB",29-08-2025 13:00:00,28.6811736,77.3025234,CO,12,100,74
India,Delhi,Delhi,"ITO, Delhi - CPCB",29-08-2025 13:00:00,28.628624,77.241060,CO,36,80,53
India,Delhi,Delhi,"Jahangirpuri, Delhi - DPCC",29-08-2025 13:00:00,28.732820,77.170633,PM10,47,411,165
India,Delhi,Delhi,"Jawaharlal Nehru Stadium, Delhi - DPCC",29-08-2025 13:00:00,28.580280,77.233829,SO2,3,13,8
India,Delhi,Delhi,"Lodhi Road, Delhi - IITM",29-08-2025 13:00:00,28.588333,77.221667,NO2,76,125,94
India,Delhi,Delhi,"Lodhi Road, Delhi - IITM",29-08-2025 13:00:00,28.588333,77.221667,SO2,6,14,10
India,Delhi,Delhi,"Major Dhyan Chand National Stadium, Delhi - DPCC",29-08-2025 13:00:00,28.611281,77.237738,OZONE,1,53,8
India,Delhi,Delhi,"Mandir Marg, Delhi - DPCC",29-08-2025 13:00:00,28.636429,77.201067,NH3,3,4,3
India,Delhi,Delhi,"Mandir Marg, Delhi - DPCC",29-08-2025 13:00:00,28.636429,77.201067,SO2,8,23,14
India,Delhi,Delhi,"Mundka, Delhi - DPCC",29-08-2025 13:00:00,28.684678,77.076574,NO2,14,66,42
India,Delhi,Delhi,"Mundka, Delhi - DPCC",29-08-2025 13:00:00,28.684678,77.076574,SO2,8,11,8
India,Gujarat,Ahmedabad,"Chandkheda, Ahmedabad - IITM",29-08-2025 13:00:00,23.107969,72.574648,CO,20,47,31
India,Gujarat,Ahmedabad,"Gyaspur, Ahmedabad - IITM",29-08-2025 13:00:00,22.977134,72.553024,NO2,42,65,56
India,Gujarat,Ahmedabad,"Gyaspur, Ahmedabad - IITM",29-08-2025 13:00:00,22.977134,72.553024,OZONE,16,21,17
India,Gujarat,Ahmedabad,"Maninagar, Ahmedabad - GPCB",29-08-2025 13:00:00,23.002657,72.591912,PM10,27,122,79
India,Gujarat,Ahmedabad,"Maninagar, Ahmedabad - GPCB",29-08-2025 13:00:00,23.002657,72.591912,OZONE,19,47,30
India,Gujarat,Ahmedabad,"Raikhad, Ahmedabad - IITM",29-08-2025 13:00:00,23.020509,72.579261,OZONE,2,11,6
India,Delhi,Delhi,"CRRI Mathura Road, Delhi - IMD",29-08-2025 13:00:00,28.5512005,77.2735737,CO,16,50,27
India,Delhi,Delhi,"Chandni Chowk, Delhi - IITM",29-08-2025 13:00:00,28.656756,77.227234,PM2.5,37,78,56
India,Delhi,Delhi,"Chandni Chowk, Delhi - IITM",29-08-2025 13:00:00,28.656756,77.227234,OZONE,4,51,9
India,Delhi,Delhi,"DTU, Delhi - CPCB",29-08-2025 13:00:00,28.7500499,77.1112615,PM10,42,115,88
India,Delhi,Delhi,"DTU, Delhi - CPCB",29-08-2025 13:00:00,28.7500499,77.1112615,NO2,49,71,70
India,Delhi,Delhi,"DTU, Delhi - CPCB",29-08-2025 13:00:00,28.7500499,77.1112615,NH3,9,10,9
India,Delhi,Delhi,"NSIT Dwarka, Delhi - CPCB",29-08-2025 13:00:00,28.60909,77.0325413,NO2,6,47,28
India,Delhi,Delhi,"NSIT Dwarka, Delhi - CPCB",29-08-2025 13:00:00,28.60909,77.0325413,SO2,2,21,10
India,Delhi,Delhi,"Nehru Nagar, Delhi - DPCC",29-08-2025 13:00:00,28.567890,77.250515,NH3,3,7,4
India,Delhi,Delhi,"Nehru Nagar, Delhi - DPCC",29-08-2025 13:00:00,28.567890,77.250515,SO2,3,17,12
India,Delhi,Delhi,"Nehru Nagar, Delhi - DPCC",29-08-2025 13:00:00,28.567890,77.250515,OZONE,27,88,39
India,Delhi,Delhi,"Pusa, Delhi - DPCC",29-08-2025 13:00:00,28.639652,77.146275,SO2,11,21,16
India,Delhi,Delhi,"Pusa, Delhi - IMD",29-08-2025 13:00:00,28.636110,77.173332,PM2.5,16,160,65
India,Delhi,Delhi,"R K Puram, Delhi - DPCC",29-08-2025 13:00:00,28.563262,77.186937,PM2.5,52,305,167
India,Delhi,Delhi,"Rohini, Delhi - DPCC",29-08-2025 13:00:00,28.732528,77.119920,CO,8,34,13
India,Delhi,Delhi,"North Campus, DU, Delhi - IMD",29-08-2025 13:00:00,28.6573814,77.1585447,OZONE,3,95,10
India,Delhi,Delhi,"Okhla Phase-2, Delhi - DPCC",29-08-2025 13:00:00,28.530785,77.271255,NH3,6,8,7
India,Delhi,Delhi,"Wazirpur, Delhi - DPCC",29-08-2025 13:00:00,28.699793,77.165453,CO,8,46,22
India,Delhi,Delhi,"Wazirpur, Delhi - DPCC",29-08-2025 13:00:00,28.699793,77.165453,OZONE,1,21,10
India,Karnataka,Bengaluru,"Jayanagar 5th Block, Bengaluru - KSPCB",29-08-2025 13:00:00,12.920984,77.584908,PM2.5,NA,NA,NA
India,Karnataka,Bengaluru,"Jayanagar 5th Block, Bengaluru - KSPCB",29-08-2025 13:00:00,12.920984,77.584908,NH3,1,1,1
India,Karnataka,Bengaluru,"Jayanagar 5th Block, Bengaluru - KSPCB",29-08-2025 13:00:00,12.920984,77.584908,OZONE,20,60,30
India,Karnataka,Bengaluru,"Jigani, Bengaluru - KSPCB",29-08-2025 13:00:00,12.7816279,77.6299145,CO,32,33,32
India,Karnataka,Bengaluru,"Jigani, Bengaluru - KSPCB",29-08-2025 13:00:00,12.7816279,77.6299145,OZONE,20,22,21
India,Karnataka,Bengaluru,"Peenya, Bengaluru - CPCB",29-08-2025 13:00:00,13.0270199,77.494094,OZONE,24,26,25
India,Karnataka,Bengaluru,"RVCE-Mailasandra, Bengaluru - KSPCB",29-08-2025 13:00:00,12.921418,77.502466,PM10,NA,NA,NA
India,Karnataka,Bengaluru,"RVCE-Mailasandra, Bengaluru - KSPCB",29-08-2025 13:00:00,12.921418,77.502466,NO2,NA,NA,NA
India,Karnataka,Bengaluru,"RVCE-Mailasandra, Bengaluru - KSPCB",29-08-2025 13:00:00,12.921418,77.502466,NH3,NA,NA,NA
India,Karnataka,Bengaluru,"RVCE-Mailasandra, Bengaluru - KSPCB",29-08-2025 13:00:00,12.921418,77.502466,SO2,NA,NA,NA
India,Karnataka,Bengaluru,"Sanegurava Halli, Bengaluru - KSPCB",29-08-2025 13:00:00,12.990328,77.5431385,NO2,NA,NA,NA
India,Karnataka,Koppal,"Diwator Nagar, Koppal - KSPCB",29-08-2025 13:00:00,15.347630,76.181767,CO,54,61,55
India,Karnataka,Madikeri,"Stuart Hill, Madikeri - KSPCB",29-08-2025 13:00:00,12.415911,75.735050,NH3,NA,NA,NA
India,Karnataka,Madikeri,"Stuart Hill, Madikeri - KSPCB",29-08-2025 13:00:00,12.415911,75.735050,OZONE,4,6,5
India,Karnataka,Mangalore,"Kadri, Mangalore - KSPCB",29-08-2025 13:00:00,12.889250,74.853000,NO2,13,18,16
India,Karnataka,Mangalore,"Kadri, Mangalore - KSPCB",29-08-2025 13:00:00,12.889250,74.853000,OZONE,5,37,22
India,Karnataka,Mysuru,"Hebbal 1st Stage, Mysuru - KSPCB",29-08-2025 13:00:00,12.21041,76.37376,NH3,2,7,5
India,Karnataka,Mysuru,"Hebbal 1st Stage, Mysuru - KSPCB",29-08-2025 13:00:00,12.21041,76.37376,SO2,3,30,9
India,Karnataka,Ramanagara,"Vijay Nagar, Ramanagara - KSPCB",29-08-2025 13:00:00,12.733409,77.298051,PM2.5,9,20,14
India,Karnataka,Bengaluru,"Shivapura_Peenya, Bengaluru - KSPCB",29-08-2025 13:00:00,13.0246342,77.5080115,SO2,6,9,7
India,Karnataka,Bengaluru,"Silk Board, Bengaluru - KSPCB",29-08-2025 13:00:00,12.917348,77.622813,NO2,4,15,10
India,Karnataka,Chikkaballapur,"Chikkaballapur Rural, Chikkaballapur - KSPCB",29-08-2025 13:00:00,13.428828,77.731418,PM2.5,2,20,12
India,Karnataka,Chikkaballapur,"Chikkaballapur Rural, Chikkaballapur - KSPCB",29-08-2025 13:00:00,13.428828,77.731418,NO2,11,22,15
India,Karnataka,Chikkaballapur,"Chikkaballapur Rural, Chikkaballapur - KSPCB",29-08-2025 13:00:00,13.428828,77.731418,NH3,1,2,2
India,Karnataka,Chikkamagaluru,"Kalyana Nagara, Chikkamagaluru - KSPCB",29-08-2025 13:00:00,13.328028,75.797056,SO2,1,4,2
India,Karnataka,Chikkamagaluru,"Kalyana Nagara, Chikkamagaluru - KSPCB",29-08-2025 13:00:00,13.328028,75.797056,OZONE,10,41,32
India,Gujarat,Ahmedabad,"Sardar Vallabhbhai Patel Stadium, Ahmedabad - IITM",29-08-2025 13:00:00,23.043070,72.562968,CO,30,68,42
India,Gujarat,Ankleshwar,"GIDC, Ankleshwar - GPCB",29-08-2025 13:00:00,21.613267,73.010555,NH3,7,8,7
India,Gujarat,Ankleshwar,"GIDC, Ankleshwar - GPCB",29-08-2025 13:00:00,21.613267,73.010555,OZONE,45,51,47
India,Gujarat,Gandhinagar,"GIFT City, Gandhinagar - IITM",29-08-2025 13:00:00,23.163798,72.677768,PM2.5,6,55,23
India,Gujarat,Gandhinagar,"GIFT City, Gandhinagar - IITM",29-08-2025 13:00:00,23.163798,72.677768,OZONE,4,16,10
India,Gujarat,Surat,"Science Center, Surat - SMC",29-08-2025 13:00:00,21.170046,72.795405,PM2.5,12,48,25
India,Jharkhand,Dhanbad,"Sardar Patel Nagar, Dhanbad - JSPCB",29-08-2025 13:00:00,23.80569,86.44268,CO,4,76,35
India,Karnataka,Bagalkot,"Vidayagiri, Bagalkot - KSPCB",29-08-2025 13:00:00,16.172806,75.659694,NO2,9,10,9
India,Karnataka,Bagalkot,"Vidayagiri, Bagalkot - KSPCB",29-08-2025 13:00:00,16.172806,75.659694,NH3,1,2,1
India,Karnataka,Bagalkot,"Vidayagiri, Bagalkot - KSPCB",29-08-2025 13:00:00,16.172806,75.659694,SO2,7,7,7
India,Karnataka,Belgaum,"Ramteerth Nagar, Belgaum - KSPCB",29-08-2025 13:00:00,15.888653,74.541751,NO2,1,83,17
India,Karnataka,Belgaum,"Ramteerth Nagar, Belgaum - KSPCB",29-08-2025 13:00:00,15.888653,74.541751,NH3,1,13,5
India,Karnataka,Belgaum,"Ramteerth Nagar, Belgaum - KSPCB",29-08-2025 13:00:00,15.888653,74.541751,CO,12,19,18
India,Karnataka,Bengaluru,"BTM Layout, Bengaluru - CPCB",29-08-2025 13:00:00,12.9135218,77.5950804,PM10,67,69,68
India,Karnataka,Bengaluru,"BTM Layout, Bengaluru - CPCB",29-08-2025 13:00:00,12.9135218,77.5950804,NO2,23,24,23
India,Karnataka,Bengaluru,"Bapuji Nagar, Bengaluru - KSPCB",29-08-2025 13:00:00,12.951913,77.539784,PM10,3,48,21
India,Karnataka,Bengaluru,"Bapuji Nagar, Bengaluru - KSPCB",29-08-2025 13:00:00,12.951913,77.539784,NH3,1,1,1
India,Karnataka,Bengaluru,"Hombegowda Nagar, Bengaluru - KSPCB",29-08-2025 13:00:00,12.938539,77.590100,NO2,5,29,12
India,Karnataka,Bengaluru,"Hombegowda Nagar, Bengaluru - KSPCB",29-08-2025 13:00:00,12.938539,77.590100,NH3,1,2,1
India,Karnataka,Bengaluru,"Hombegowda Nagar, Bengaluru - KSPCB",29-08-2025 13:00:00,12.938539,77.590100,OZONE,2,27,16
India,Gujarat,Ahmedabad,"Rakhial, Ahmedabad - IITM",29-08-2025 13:00:00,23.016834,72.625775,SO2,12,24,16
India,Gujarat,Ahmedabad,"SAC ISRO Bopal, Ahmedabad - IITM",29-08-2025 13:00:00,23.041137,72.456691,PM10,11,131,55
India,Gujarat,Ahmedabad,"SAC ISRO Bopal, Ahmedabad - IITM",29-08-2025 13:00:00,23.041137,72.456691,NO2,23,31,26
India,Gujarat,Ahmedabad,"SVPI Airport Hansol, Ahmedabad - IITM",29-08-2025 13:00:00,23.076793,72.627874,PM2.5,7,31,17
India,Gujarat,Ahmedabad,"Sardar Vallabhbhai Patel Stadium, Ahmedabad - IITM",29-08-2025 13:00:00,23.043070,72.562968,PM2.5,14,48,27
India,Karnataka,Dharwad,"Kalabhavan, Dharwad - KSPCB",29-08-2025 13:00:00,15.459706,75.008381,CO,18,44,22
India,Karnataka,Kalaburagi,"Lal Bahadur Shastri Nagar, Kalaburagi - KSPCB",29-08-2025 13:00:00,17.321993,76.822628,NH3,1,1,1
India,Karnataka,Kalaburagi,"Mahatma Basaveswar Colony, Kalaburgi - KSPCB",29-08-2025 13:00:00,17.336318,76.847397,NO2,10,16,13
India,Karnataka,Karwar,"KHB Colony, Karwar - KSPCB",29-08-2025 13:00:00,14.816666,74.141003,PM2.5,3,163,20
India,Gujarat,Vapi,"Phase-1 GIDC, Vapi - GPCB",29-08-2025 13:00:00,20.362421,72.918013,PM10,42,130,78
India,Gujarat,Vapi,"Phase-1 GIDC, Vapi - GPCB",29-08-2025 13:00:00,20.362421,72.918013,NH3,10,10,10
India,Gujarat,Vatva,"Phase-4 GIDC, Vatva - GPCB",29-08-2025 13:00:00,22.969611,72.643500,PM10,52,114,83
India,Haryana,Panchgaon,"Amity University, Panchgaon - IITM",29-08-2025 13:00:00,28.3153,76.9143,PM10,16,188,74
India,Haryana,Panchgaon,"Amity University, Panchgaon - IITM",29-08-2025 13:00:00,28.3153,76.9143,NO2,7,23,14
India,Kerala,Thiruvananthapuram,"Plammoodu, Thiruvananthapuram - Kerala PCB",29-08-2025 13:00:00,8.5149093,76.9435879,CO,5,34,10
India,Kerala,Thrissur,"Corporation Ground, Thrissur - Kerala PCB",29-08-2025 13:00:00,10.532400,76.215900,OZONE,28,29,28
India,Madhya Pradesh,Bhopal,"Idgah Hills, Bhopal - MPPCB",29-08-2025 13:00:00,23.264759,77.381568,PM2.5,15,37,26
India,Madhya Pradesh,Bhopal,"Idgah Hills, Bhopal - MPPCB",29-08-2025 13:00:00,23.264759,77.381568,NO2,10,36,18
India,Madhya Pradesh,Bhopal,"T T Nagar, Bhopal - MPPCB",29-08-2025 13:00:00,23.233584,77.400574,CO,10,109,24
India,Madhya Pradesh,Damoh,"Shrivastav Colony, Damoh - MPPCB",29-08-2025 13:00:00,23.81748678,79.446246,PM2.5,NA,NA,NA
India,Madhya Pradesh,Damoh,"Shrivastav Colony, Damoh - MPPCB",29-08-2025 13:00:00,23.81748678,79.446246,PM10,NA,NA,NA
India,Madhya Pradesh,Indore,"Airport Area, Indore - IMC",29-08-2025 13:00:00,22.7289,75.8076,CO,5,6,5
India,Madhya Pradesh,Indore,"Chhoti Gwaltoli, Indore - MPPCB",29-08-2025 13:00:00,22.4310,75.5213,PM2.5,28,67,48
India,Madhya Pradesh,Indore,"Maguda Nagar, Indore - IMC",29-08-2025 13:00:00,22.7524,75.8872,CO,15,27,23
India,Madhya Pradesh,Indore,"Regional Park, Indore - IMC",29-08-2025 13:00:00,22.6780,75.8559,OZONE,6,7,6
India,Madhya Pradesh,Indore,"Residency Area, Indore - IMC",29-08-2025 13:00:00,22.7084,75.8815,PM2.5,8,27,17
India,Madhya Pradesh,Indore,"Residency Area, Indore - IMC",29-08-2025 13:00:00,22.7084,75.8815,NO2,12,18,15
India,Madhya Pradesh,Indore,"Residency Area, Indore - IMC",29-08-2025 13:00:00,22.7084,75.8815,SO2,35,39,37
India,Madhya Pradesh,Indore,"Residency Area, Indore - IMC",29-08-2025 13:00:00,22.7084,75.8815,OZONE,10,12,11
India,Maharashtra,Amravati,"Shri Shivaji Science College, Amravati - MPCB",29-08-2025 13:00:00,20.939198,77.765701,CO,30,40,34
India,Maharashtra,Aurangabad,"MIDC Chilkalthana, Aurangabad - MPCB",29-08-2025 13:00:00,19.875620,75.387310,PM10,26,42,32
India,Maharashtra,Aurangabad,"More Chowk Waluj, Aurangabad - MPCB",29-08-2025 13:00:00,19.8389439,75.244448,NO2,14,23,18
India,Maharashtra,Aurangabad,"More Chowk Waluj, Aurangabad - MPCB",29-08-2025 13:00:00,19.8389439,75.244448,CO,6,113,19
India,Maharashtra,Aurangabad,"Rachnakar Colony, Aurangabad - MPCB",29-08-2025 13:00:00,19.863756,75.321188,CO,14,27,18
India,Maharashtra,Badlapur,"Katrap, Badlapur - MPCB",29-08-2025 13:00:00,19.16485,73.23409,OZONE,13,39,15
India,Karnataka,Shivamogga,"Vinoba Nagara, Shivamogga - KSPCB",29-08-2025 13:00:00,13.940000,75.555917,CO,20,46,38
India,Karnataka,Tumakuru,"Thimmalapura, Tumakuru - KSPCB",29-08-2025 13:00:00,13.377516,77.099072,NH3,NA,NA,NA
India,Karnataka,Tumakuru,"Thimmalapura, Tumakuru - KSPCB",29-08-2025 13:00:00,13.377516,77.099072,CO,19,30,26
India,Karnataka,Tumakuru,"Thimmalapura, Tumakuru - KSPCB",29-08-2025 13:00:00,13.377516,77.099072,OZONE,14,15,15
India,Karnataka,Vijayapura,"Ibrahimpur, Vijayapura - KSPCB",29-08-2025 13:00:00,16.802639,75.722694,PM10,43,44,44
India,Karnataka,Vijayapura,"Ibrahimpur, Vijayapura - KSPCB",29-08-2025 13:00:00,16.802639,75.722694,NH3,1,2,1
India,Karnataka,Yadgir,"Collector Office, Yadgir - KSPCB",29-08-2025 13:00:00,16.7602,77.1428,PM10,8,38,23
India,Madhya Pradesh,Jabalpur,"Govindh Bhavan Colony, Jabalpur - JMC",29-08-2025 13:00:00,23.163174,79.973061,SO2,23,103,37
India,Madhya Pradesh,Jabalpur,"Marhatal, Jabalpur - MPPCB",29-08-2025 13:00:00,23.168606,79.932247,NO2,20,44,28
India,Madhya Pradesh,Jabalpur,"Marhatal, Jabalpur - MPPCB",29-08-2025 13:00:00,23.168606,79.932247,CO,6,63,33
India,Madhya Pradesh,Jabalpur,"Suhagi, Jabalpur - JMC",29-08-2025 13:00:00,23.218135,79.957770,NO2,16,40,25
India,Madhya Pradesh,Jabalpur,"Suhagi, Jabalpur - JMC",29-08-2025 13:00:00,23.218135,79.957770,CO,8,40,13
India,Madhya Pradesh,Katni,"Gole Bazar, Katni - MPPCB",29-08-2025 13:00:00,23.50016,80.23284,NH3,2,3,3
India,Madhya Pradesh,Katni,"Gole Bazar, Katni - MPPCB",29-08-2025 13:00:00,23.50016,80.23284,CO,4,37,29
India,Madhya Pradesh,Dewas,"Bhopal Chauraha, Dewas - MPPCB",29-08-2025 13:00:00,22.9682591,76.064118,SO2,14,89,49
India,Madhya Pradesh,Dewas,"Bhopal Chauraha, Dewas - MPPCB",29-08-2025 13:00:00,22.9682591,76.064118,CO,8,28,16
India,Madhya Pradesh,Gwalior,"Deen Dayal Nagar, Gwalior - MPPCB",29-08-2025 13:00:00,26.259242,78.216432,PM10,46,143,98
India,Madhya Pradesh,Gwalior,"Maharaj Bada, Gwalior - MPPCB",29-08-2025 13:00:00,26.200388,78.147714,PM10,23,57,39
India,Madhya Pradesh,Gwalior,"Maharaj Bada, Gwalior - MPPCB",29-08-2025 13:00:00,26.200388,78.147714,NH3,1,2,2
India,Madhya Pradesh,Indore,"Airport Area, Indore - IMC",29-08-2025 13:00:00,22.7289,75.8076,PM2.5,5,18,10
India,Madhya Pradesh,Singrauli,"Suryakiran Bhawan NCL, Singrauli - MPPCB",29-08-2025 13:00:00,24.108970,82.645580,SO2,11,35,23
India,Maharashtra,Akola,"Ramdaspeth, Akola - MPCB",29-08-2025 13:00:00,20.719516,77.000253,PM2.5,12,33,23
India,Maharashtra,Akola,"Ramdaspeth, Akola - MPCB",29-08-2025 13:00:00,20.719516,77.000253,NO2,16,25,21
India,Maharashtra,Amravati,"Shivneri Colony, Amravati - MPCB",29-08-2025 13:00:00,20.9402359,77.7895248,PM10,16,54,32
India,Maharashtra,Amravati,"Shivneri Colony, Amravati - MPCB",29-08-2025 13:00:00,20.9402359,77.7895248,NO2,3,13,6
India,Kerala,Kannur,"Thavakkara, Kannur - Kerala PCB",29-08-2025 13:00:00,11.875000,75.373200,PM2.5,NA,NA,NA
India,Kerala,Kollam,"Polayathode, Kollam - Kerala PCB",29-08-2025 13:00:00,8.8787,76.6073,SO2,2,3,2
India,Kerala,Thiruvananthapuram,"Kariavattom, Thiruvananthapuram - Kerala PCB",29-08-2025 13:00:00,8.563700,76.886500,NO2,6,7,7
India,Kerala,Thiruvananthapuram,"Kariavattom, Thiruvananthapuram - Kerala PCB",29-08-2025 13:00:00,8.563700,76.886500,CO,28,60,40
India,Kerala,Thiruvananthapuram,"Kariavattom, Thiruvananthapuram - Kerala PCB",29-08-2025 13:00:00,8.563700,76.886500,OZONE,36,36,36
India,Madhya Pradesh,Mandideep,"Sector-D Industrial Area, Mandideep - MPPCB",29-08-2025 13:00:00,23.108440,77.511428,NO2,16,64,35
India,Madhya Pradesh,Sagar,"Civil Lines, Sagar - MPPCB",29-08-2025 13:00:00,23.838586,78.759431,NH3,1,1,1
India,Maharashtra,Mumbai,"Kherwadi_Bandra East, Mumbai - MPCB",29-08-2025 13:00:00,19.0632143,72.8456324,PM2.5,16,98,43
India,Maharashtra,Mumbai,"Kherwadi_Bandra East, Mumbai - MPCB",29-08-2025 13:00:00,19.0632143,72.8456324,NO2,NA,NA,NA
India,Maharashtra,Mumbai,"Kherwadi_Bandra East, Mumbai - MPCB",29-08-2025 13:00:00,19.0632143,72.8456324,SO2,3,4,3
India,Maharashtra,Mumbai,"Kherwadi_Bandra East, Mumbai - MPCB",29-08-2025 13:00:00,19.0632143,72.8456324,CO,2,32,15
India,Maharashtra,Mumbai,"Khindipada-Bhandup West, Mumbai - IITM",29-08-2025 13:00:00,19.1653323,72.922099,OZONE,4,25,11
India,Maharashtra,Mumbai,"Kurla, Mumbai - MPCB",29-08-2025 13:00:00,19.0863,72.8888,PM2.5,43,67,53
India,Maharashtra,Mumbai,"Kurla, Mumbai - MPCB",29-08-2025 13:00:00,19.0863,72.8888,NH3,1,1,1
India,Maharashtra,Mumbai,"Mazgaon, Mumbai - IITM",29-08-2025 13:00:00,18.96702,72.84214,NO2,17,47,33
India,Maharashtra,Bhiwandi,"Gokul Nagar, Bhiwandi - MPCB",29-08-2025 13:00:00,19.309073,73.057223,PM2.5,19,61,40
India,Maharashtra,Boisar,"Khaira, Boisar - MPCB",29-08-2025 13:00:00,19.786089,72.757971,PM10,24,104,51
India,Maharashtra,Boisar,"Khaira, Boisar - MPCB",29-08-2025 13:00:00,19.786089,72.757971,CO,12,72,40
India,Maharashtra,Boisar,"Khaira, Boisar - MPCB",29-08-2025 13:00:00,19.786089,72.757971,OZONE,30,32,31
India,Maharashtra,Chandrapur,"Chauhan Colony, Chandrapur - MPCB",29-08-2025 13:00:00,19.962900,79.298714,NH3,2,2,2
India,Maharashtra,Chandrapur,"MIDC Khutala, Chandrapur - MPCB",29-08-2025 13:00:00,19.9775302,79.2337086,PM2.5,25,86,46
India,Maharashtra,Kolhapur,"Sinchan Bhavan, Kolhapur - MPCB",29-08-2025 13:00:00,16.7143745,74.2426398,PM2.5,10,24,16
India,Maharashtra,Latur,"Sawe Wadi, Latur - MPCB",29-08-2025 13:00:00,18.39963,76.57452,PM10,9,21,14
India,Maharashtra,Mahad,"Kamble Tarf Birwadi, Mahad - MPCB",29-08-2025 13:00:00,18.1023399,73.4783687,CO,14,34,28
India,Maharashtra,Malegaon,"Mahesh Nagar, Malegaon - MPCB",29-08-2025 13:00:00,20.555712,74.529236,NO2,3,14,9
India,Maharashtra,Malegaon,"Mahesh Nagar, Malegaon - MPCB",29-08-2025 13:00:00,20.555712,74.529236,NH3,4,6,5
India,Maharashtra,Mumbai,"Powai, Mumbai - MPCB",29-08-2025 13:00:00,19.137500,72.915056,SO2,15,15,15
India,Maharashtra,Mumbai,"Powai, Mumbai - MPCB",29-08-2025 13:00:00,19.137500,72.915056,OZONE,9,9,9
India,Maharashtra,Mumbai,"Sewri, Mumbai - BMC",29-08-2025 13:00:00,19.000084,72.856730,PM10,NA,NA,NA
India,Maharashtra,Mumbai,"Sewri, Mumbai - BMC",29-08-2025 13:00:00,19.000084,72.856730,NH3,NA,NA,NA
India,Maharashtra,Mumbai,"Sewri, Mumbai - BMC",29-08-2025 13:00:00,19.000084,72.856730,OZONE,3,3,3
India,Maharashtra,Mumbai,"Shivaji Nagar, Mumbai - BMC",29-08-2025 13:00:00,19.060498,72.923356,PM10,NA,NA,NA
India,Maharashtra,Mira-Bhayandar,"Bhayandar West, Mira-Bhayandar - MPCB",29-08-2025 13:00:00,19.296481,72.840923,PM2.5,13,39,26
India,Maharashtra,Mumbai,"Bandra Kurla Complex, Mumbai - IITM",29-08-2025 13:00:00,19.053536,72.84643,PM2.5,11,97,37
India,Maharashtra,Mumbai,"Bandra Kurla Complex, Mumbai - IITM",29-08-2025 13:00:00,19.053536,72.84643,NO2,2,127,13
India,Maharashtra,Mumbai,"Bandra Kurla Complex, Mumbai - MPCB",29-08-2025 13:00:00,19.065931,72.862131,NO2,13,28,20
India,Maharashtra,Mumbai,"Byculla, Mumbai - BMC",29-08-2025 13:00:00,18.9767,72.8380,NH3,1,12,6
India,Maharashtra,Mumbai,"Chakala-Andheri East, Mumbai - IITM",29-08-2025 13:00:00,19.11074,72.86084,NH3,1,2,1
India,Maharashtra,Mumbai,"Chhatrapati Shivaji Intl. Airport (T2), Mumbai - MPCB",29-08-2025 13:00:00,19.10078,72.87462,NH3,1,2,1
India,Maharashtra,Mumbai,"Chhatrapati Shivaji Intl. Airport (T2), Mumbai - MPCB",29-08-2025 13:00:00,19.10078,72.87462,SO2,20,21,20
India,Maharashtra,Dhule,"Deopur, Dhule - MPCB",29-08-2025 13:00:00,20.918946,74.776388,NO2,NA,NA,NA
India,Maharashtra,Jalgaon,"Prabhat Colony, Jalgaon - MPCB",29-08-2025 13:00:00,21.001264,75.565602,OZONE,17,43,21
India,Maharashtra,Jalna,"Old MIDC, Jalna - MPCB",29-08-2025 13:00:00,19.854616,75.905894,NH3,3,4,3
India,Maharashtra,Mumbai,"Ghatkopar, Mumbai - BMC",29-08-2025 13:00:00,19.083694,72.920967,CO,7,38,11
India,Maharashtra,Mumbai,"Kandivali East, Mumbai - MPCB",29-08-2025 13:00:00,19.205800,72.868200,SO2,NA,NA,NA
India,Maharashtra,Mumbai,"Kandivali East, Mumbai - MPCB",29-08-2025 13:00:00,19.205800,72.868200,CO,12,14,13
India,Maharashtra,Mumbai,"Mulund West, Mumbai - MPCB",29-08-2025 13:00:00,19.1750,72.9419,PM2.5,28,64,41
India,Maharashtra,Mumbai,"Mulund West, Mumbai - MPCB",29-08-2025 13:00:00,19.1750,72.9419,NO2,11,12,12
India,Maharashtra,Nagpur,"Mahal, Nagpur - MPCB",29-08-2025 13:00:00,21.14472,79.107595,OZONE,8,14,9
India,Maharashtra,Nagpur,"Opp GPO Civil Lines, Nagpur - MPCB",29-08-2025 13:00:00,21.152875,79.0517531,SO2,1,11,4
India,Maharashtra,Nagpur,"Opp GPO Civil Lines, Nagpur - MPCB",29-08-2025 13:00:00,21.152875,79.0517531,OZONE,3,9,4
India,Maharashtra,Nagpur,"Ram Nagar, Nagpur - MPCB",29-08-2025 13:00:00,21.143383,79.048912,PM2.5,14,75,43
India,Maharashtra,Nagpur,"Ram Nagar, Nagpur - MPCB",29-08-2025 13:00:00,21.143383,79.048912,NH3,1,5,2
India,Maharashtra,Nanded,"Sneh Nagar, Nanded - MPCB",29-08-2025 13:00:00,19.173852,77.296291,CO,NA,NA,NA
India,Maharashtra,Nashik,"Gangapur Road, Nashik - MPCB",29-08-2025 13:00:00,20.0073285,73.7762427,NO2,5,5,5
India,Maharashtra,Nashik,"Gangapur Road, Nashik - MPCB",29-08-2025 13:00:00,20.0073285,73.7762427,NH3,2,2,2
India,Maharashtra,Nashik,"Hirawadi, Nashik - MPCB",29-08-2025 13:00:00,20.021503,73.813844,PM10,27,67,40
India,Maharashtra,Navi Mumbai,"Sanpada, Navi Mumbai - MPCB",29-08-2025 13:00:00,19.0575752,73.0151367,NO2,5,16,10
India,Maharashtra,Navi Mumbai,"Sanpada, Navi Mumbai - MPCB",29-08-2025 13:00:00,19.0575752,73.0151367,CO,14,78,20
India,Maharashtra,Navi Mumbai,"Sector-2E Kalamboli, Navi Mumbai - MPCB",29-08-2025 13:00:00,19.02579,73.10297,NO2,37,181,68
India,Maharashtra,Navi Mumbai,"Sector-2E Kalamboli, Navi Mumbai - MPCB",29-08-2025 13:00:00,19.02579,73.10297,SO2,6,10,8
India,Maharashtra,Navi Mumbai,"Sector-2E Kalamboli, Navi Mumbai - MPCB",29-08-2025 13:00:00,19.02579,73.10297,OZONE,1,24,4
India,Maharashtra,Navi Mumbai,"Tondare-Taloja, Navi Mumbai - MPCB",29-08-2025 13:00:00,19.0630,73.1209,PM10,26,41,32
India,Maharashtra,Navi Mumbai,"Tondare-Taloja, Navi Mumbai - MPCB",29-08-2025 13:00:00,19.0630,73.1209,NH3,4,6,5
India,Maharashtra,Parbhani,"Masoom Colony, Parbhani - MPCB",29-08-2025 13:00:00,19.265594,76.761463,PM10,19,56,30
India,Maharashtra,Parbhani,"Masoom Colony, Parbhani - MPCB",29-08-2025 13:00:00,19.265594,76.761463,CO,9,15,12
India,Nagaland,Kohima,"PWD Junction, Kohima - NPCB",29-08-2025 13:00:00,25.6635413,94.0989878,NO2,3,4,3
India,Nagaland,Kohima,"PWD Junction, Kohima - NPCB",29-08-2025 13:00:00,25.6635413,94.0989878,OZONE,6,14,6
India,Odisha,Angul,"Hakimapada, Angul - OSPCB",29-08-2025 13:00:00,20.832874,85.104082,SO2,5,103,16
India,Odisha,Angul,"Hakimapada, Angul - OSPCB",29-08-2025 13:00:00,20.832874,85.104082,OZONE,4,8,6
India,Odisha,Balasore,"Kalidaspur, Balasore - OSPCB",29-08-2025 13:00:00,21.51161,86.89088,NO2,1,24,9
India,Odisha,Balasore,"Kalidaspur, Balasore - OSPCB",29-08-2025 13:00:00,21.51161,86.89088,CO,24,32,30
India,Odisha,Barbil,"Forest Office, Barbil - OSPCB",29-08-2025 13:00:00,22.1166054,85.3945546,SO2,10,34,14
India,Maharashtra,Mumbai,"Vasai West, Mumbai - MPCB",29-08-2025 13:00:00,19.383200,72.820400,PM2.5,13,59,29
India,Maharashtra,Mumbai,"Worli, Mumbai - MPCB",29-08-2025 13:00:00,18.9936162,72.8128113,PM2.5,58,66,61
India,Maharashtra,Nagpur,"Ambazari, Nagpur - MPCB",29-08-2025 13:00:00,21.121801,79.04952,CO,11,67,31
India,Maharashtra,Nagpur,"Mahal, Nagpur - MPCB",29-08-2025 13:00:00,21.14472,79.107595,PM10,31,55,42
India,Maharashtra,Nagpur,"Mahal, Nagpur - MPCB",29-08-2025 13:00:00,21.14472,79.107595,NH3,4,5,4
India,Maharashtra,Nagpur,"Mahal, Nagpur - MPCB",29-08-2025 13:00:00,21.14472,79.107595,SO2,9,47,23
India,Maharashtra,Nagpur,"Mahal, Nagpur - MPCB",29-08-2025 13:00:00,21.14472,79.107595,CO,28,112,53
India,Maharashtra,Nashik,"Hirawadi, Nashik - MPCB",29-08-2025 13:00:00,20.021503,73.813844,OZONE,8,20,13
India,Maharashtra,Nashik,"MIDC Ambad, Nashik - MPCB",29-08-2025 13:00:00,19.950220,73.731480,PM10,37,80,54
India,Maharashtra,Nashik,"MIDC Ambad, Nashik - MPCB",29-08-2025 13:00:00,19.950220,73.731480,CO,12,16,15
India,Maharashtra,Navi Mumbai,"Kopripada-Vashi, Navi Mumbai - MPCB",29-08-2025 13:00:00,19.090337,73.014232,NH3,1,5,2
India,Maharashtra,Navi Mumbai,"Mahape, Navi Mumbai - MPCB",29-08-2025 13:00:00,19.1135051,73.008978,PM10,NA,NA,NA
India,Maharashtra,Solapur,"Dnyaneshwar Nagar, Solapur - MPCB",29-08-2025 13:00:00,17.6336264,75.9132495,PM10,19,39,26
India,Maharashtra,Solapur,"Dnyaneshwar Nagar, Solapur - MPCB",29-08-2025 13:00:00,17.6336264,75.9132495,OZONE,4,9,6
India,Maharashtra,Solapur,"Ratandeep Housing Society, Solapur - MPCB",29-08-2025 13:00:00,17.65439,75.90649,CO,11,88,31
India,Maharashtra,Thane,"Kasarvadavali, Thane - MPCB",29-08-2025 13:00:00,19.26777,72.97182,PM2.5,8,33,20
India,Maharashtra,Thane,"Kasarvadavali, Thane - MPCB",29-08-2025 13:00:00,19.26777,72.97182,SO2,1,2,1
India,Maharashtra,Pune,"Katraj Dairy, Pune - MPCB",29-08-2025 13:00:00,18.454450,73.854155,NO2,3,13,8
India,Maharashtra,Pune,"Mhada Colony, Pune - IITM",29-08-2025 13:00:00,18.573040,73.927715,NO2,18,32,28
India,Maharashtra,Pune,"Mhada Colony, Pune - IITM",29-08-2025 13:00:00,18.573040,73.927715,OZONE,5,29,13
India,Maharashtra,Pune,"Panchawati_Pashan, Pune - IITM",29-08-2025 13:00:00,18.536457,73.805454,NO2,17,53,28
India,Maharashtra,Pune,"Savitribai Phule Pune University, Pune - MPCB",29-08-2025 13:00:00,18.547056,73.826908,NH3,1,1,1
India,Maharashtra,Ulhasnagar,"Sidhi Vinayak Nagar, Ulhasnagar - MPCB",29-08-2025 13:00:00,19.235581,73.159121,NH3,3,6,4
India,Maharashtra,Ulhasnagar,"Sidhi Vinayak Nagar, Ulhasnagar - MPCB",29-08-2025 13:00:00,19.235581,73.159121,CO,26,67,28
India,Maharashtra,Virar,"Bolinj, Virar - MPCB",29-08-2025 13:00:00,19.4458210,72.7988231,PM2.5,16,42,28
India,Meghalaya,Shillong,"Lumpyngngad, Shillong - Meghalaya PCB",29-08-2025 13:00:00,25.5586,91.8985,CO,2,13,6
India,Maharashtra,Pimpri-Chinchwad,"Gavalinagar, Pimpri Chinchwad - MPCB",29-08-2025 13:00:00,18.63673,73.82487,PM10,43,75,54
India,Maharashtra,Pimpri-Chinchwad,"Gavalinagar, Pimpri Chinchwad - MPCB",29-08-2025 13:00:00,18.63673,73.82487,NO2,NA,NA,NA
India,Maharashtra,Pimpri-Chinchwad,"Park Street Wakad, Pimpri Chinchwad - MPCB",29-08-2025 13:00:00,18.59051,73.77946,PM10,27,57,42
India,Maharashtra,Pimpri-Chinchwad,"Thergaon, Pimpri Chinchwad - MPCB",29-08-2025 13:00:00,18.616318,73.765797,OZONE,6,13,7
India,Odisha,Brajrajnagar,"GM Office, Brajrajnagar - OSPCB",29-08-2025 13:00:00,21.8004996,83.8396977,SO2,16,17,16
India,Odisha,Byasanagar,"Ferro Chrome Colony, Byasanagar - OSPCB",29-08-2025 13:00:00,20.94185,86.11510,PM2.5,2,18,10
India,Odisha,Byasanagar,"Ferro Chrome Colony, Byasanagar - OSPCB",29-08-2025 13:00:00,20.94185,86.11510,PM10,3,35,19
India,Odisha,Byasanagar,"Ferro Chrome Colony, Byasanagar - OSPCB",29-08-2025 13:00:00,20.94185,86.11510,NH3,1,1,1
India,Odisha,Byasanagar,"Ferro Chrome Colony, Byasanagar - OSPCB",29-08-2025 13:00:00,20.94185,86.11510,CO,4,22,17
India,Odisha,Keonjhar,"Jagamohanpur, Keonjhar - OSPCB",29-08-2025 13:00:00,21.643900,85.599355,PM10,45,66,55
India,Odisha,Keonjhar,"Jagamohanpur, Keonjhar - OSPCB",29-08-2025 13:00:00,21.643900,85.599355,CO,2,108,31
India,Odisha,Nayagarh,"Dabuna, Nayagarh - OSPCB",29-08-2025 13:00:00,21.847279,85.416905,PM2.5,14,24,17
India,Odisha,Baripada,"Meher Colony, Baripada - OSPCB",29-08-2025 13:00:00,21.941841,86.728318,NO2,2,27,6
India,Odisha,Baripada,"Meher Colony, Baripada - OSPCB",29-08-2025 13:00:00,21.941841,86.728318,NH3,1,2,1
India,Odisha,Baripada,"Meher Colony, Baripada - OSPCB",29-08-2025 13:00:00,21.941841,86.728318,OZONE,11,21,14
India,Odisha,Bhubaneswar,"Lingraj Mandir, Bhubaneswar - OSPCB",29-08-2025 13:00:00,20.240790,85.836784,NO2,3,12,8
India,Odisha,Bhubaneswar,"Patia, Bhubaneswar - OSPCB",29-08-2025 13:00:00,20.34652,85.81630,NO2,13,25,17
India,Odisha,Bhubaneswar,"Patia, Bhubaneswar - OSPCB",29-08-2025 13:00:00,20.34652,85.81630,CO,29,33,31
India,Odisha,Bileipada,"Tata Township, Bileipada - OSPCB",29-08-2025 13:00:00,22.06156703,85.47409613,NO2,6,7,6
India,Odisha,Bileipada,"Tata Township, Bileipada - OSPCB",29-08-2025 13:00:00,22.06156703,85.47409613,CO,34,39,37
India,Odisha,Tensa,"Barsua Iron Ore Mines, Tensa - OSPCB",29-08-2025 13:00:00,21.869985,85.167016,NO2,10,10,10
India,Puducherry,Puducherry,"Jawahar Nagar, Puducherry - PPCC",29-08-2025 13:00:00,11.9309,79.8027,PM2.5,9,38,19
India,Puducherry,Puducherry,"Jawahar Nagar, Puducherry - PPCC",29-08-2025 13:00:00,11.9309,79.8027,CO,12,28,17
India,Punjab,Amritsar,"Golden Temple, Amritsar - PPCB",29-08-2025 13:00:00,31.620000,74.876512,NH3,5,10,7
India,Punjab,Bathinda,"Hardev Nagar, Bathinda - PPCB",29-08-2025 13:00:00,30.233011,74.907758,NO2,40,45,44
India,Punjab,Jalandhar,"Civil Line, Jalandhar - PPCB",29-08-2025 13:00:00,31.321907,75.578914,NO2,NA,NA,NA
India,Rajasthan,Baran,"Bamboliya, Baran - RSPCB",29-08-2025 13:00:00,25.106006,76.469948,SO2,2,7,6
India,Rajasthan,Barmer,"Railway Colony, Barmer - RSPCB",29-08-2025 13:00:00,25.747299,71.393989,CO,10,46,16
India,Rajasthan,Bharatpur,"Krishna Nagar, Bharatpur - RSPCB",29-08-2025 13:00:00,27.215415,77.50873,OZONE,11,31,19
India,Rajasthan,Bhilwara,"Pratap Nagar, Bhilwara - RSPCB",29-08-2025 13:00:00,25.339605,74.618883,PM10,20,111,84
India,Rajasthan,Bhiwadi,"RIICO Ind. Area III, Bhiwadi - RSPCB",29-08-2025 13:00:00,28.194909,76.862296,PM2.5,66,142,99
India,Odisha,Nayagarh,"Dabuna, Nayagarh - OSPCB",29-08-2025 13:00:00,21.847279,85.416905,NH3,7,9,8
India,Odisha,Rourkela,"Fertilizer Township, Rourkela - OSPCB",29-08-2025 13:00:00,22.18972222,84.86277778,PM10,56,65,59
India,Odisha,Talcher,"Talcher Coalfields,Talcher - OSPCB",29-08-2025 13:00:00,20.9360711,85.1707021,PM2.5,NA,NA,NA
India,Rajasthan,Ajmer,"Civil Lines,  Ajmer - RSPCB",29-08-2025 13:00:00,26.470859,74.646594,NO2,7,20,14
India,Rajasthan,Alwar,"Moti Doongri, Alwar - RSPCB",29-08-2025 13:00:00,27.554793,76.611536,OZONE,17,40,30
India,Rajasthan,Banswara,"Rati Talai, Banswara - RSPCB",29-08-2025 13:00:00,23.555190,74.440010,SO2,6,10,8
India,Rajasthan,Bhiwadi,"RIICO Ind. Area III, Bhiwadi - RSPCB",29-08-2025 13:00:00,28.194909,76.862296,NO2,9,105,25
India,Rajasthan,Bikaner,"MM Ground, Bikaner - RSPCB",29-08-2025 13:00:00,28.018792,73.292658,NO2,6,36,13
India,Rajasthan,Bundi,"New Colony, Bundi - RSPCB",29-08-2025 13:00:00,25.435774,75.644272,OZONE,4,44,24
India,Punjab,Khanna,"Kalal Majra, Khanna - PPCB",29-08-2025 13:00:00,30.736056 ,76.209694,OZONE,30,33,31
India,Punjab,Mandi Gobindgarh,"RIMT University, Mandi Gobindgarh - PPCB",29-08-2025 13:00:00,30.649961,76.331442,NH3,6,6,6
India,Rajasthan,Chittorgarh,"Shastri Nagar, Chittorgarh - RSPCB",29-08-2025 13:00:00,24.892047,74.623527,NH3,4,5,4
India,Rajasthan,Dausa,"Khatikan Mohalla, Dausa - RSPCB",29-08-2025 13:00:00,26.895552,76.334753,SO2,4,8,5
India,Rajasthan,Udaipur,"Ashok Nagar, Udaipur - RSPCB",29-08-2025 13:00:00,24.5886166,73.6321397,CO,16,77,29
India,Sikkim,Gangtok,"Zero Point GICI, Gangtok - SSPCB",29-08-2025 13:00:00,27.338530,88.614099,PM2.5,5,25,14
India,Sikkim,Gangtok,"Zero Point GICI, Gangtok - SSPCB",29-08-2025 13:00:00,27.338530,88.614099,SO2,1,1,1
India,Sikkim,Gangtok,"Zero Point GICI, Gangtok - SSPCB",29-08-2025 13:00:00,27.338530,88.614099,CO,1,11,3
India,Sikkim,Gangtok,"Zero Point GICI, Gangtok - SSPCB",29-08-2025 13:00:00,27.338530,88.614099,OZONE,24,40,29
India,TamilNadu,Ariyalur,"Keelapalur, Ariyalur - TNPCB",29-08-2025 13:00:00,11.06825,79.07033,PM10,7,27,19
India,TamilNadu,Chengalpattu,"Crescent University, Chengalpattu - TNPCB",29-08-2025 13:00:00,12.8777316,80.0834807,NO2,5,16,10
India,TamilNadu,Chengalpattu,"Crescent University, Chengalpattu - TNPCB",29-08-2025 13:00:00,12.8777316,80.0834807,NH3,1,4,2
India,TamilNadu,Chengalpattu,"Crescent University, Chengalpattu - TNPCB",29-08-2025 13:00:00,12.8777316,80.0834807,SO2,4,11,9
India,TamilNadu,Chengalpattu,"Crescent University, Chengalpattu - TNPCB",29-08-2025 13:00:00,12.8777316,80.0834807,CO,6,10,8
India,TamilNadu,Chennai,"Arumbakkam, Chennai - TNPCB",29-08-2025 13:00:00,13.0664,80.2112 ,NO2,12,24,19
India,TamilNadu,Chennai,"Arumbakkam, Chennai - TNPCB",29-08-2025 13:00:00,13.0664,80.2112 ,NH3,2,3,3
India,Rajasthan,Kota,"Dhanmandi, Kota - RSPCB",29-08-2025 13:00:00,25.164090,75.858137,PM2.5,15,48,28
India,Rajasthan,Kota,"Dhanmandi, Kota - RSPCB",29-08-2025 13:00:00,25.164090,75.858137,SO2,2,3,2
India,Rajasthan,Kota,"Dhanmandi, Kota - RSPCB",29-08-2025 13:00:00,25.164090,75.858137,CO,19,86,39
India,Rajasthan,Kota,"Dhanmandi, Kota - RSPCB",29-08-2025 13:00:00,25.164090,75.858137,OZONE,3,43,26
India,Rajasthan,Kota,"Nayapura, Kota - RSPCB",29-08-2025 13:00:00,25.196024,75.855668,PM2.5,7,55,32
India,Rajasthan,Kota,"Nayapura, Kota - RSPCB",29-08-2025 13:00:00,25.196024,75.855668,PM10,30,85,56
India,Rajasthan,Kota,"Nayapura, Kota - RSPCB",29-08-2025 13:00:00,25.196024,75.855668,SO2,1,12,5
India,Rajasthan,Kota,"Shrinath Puram, Kota - RSPCB",29-08-2025 13:00:00,25.14389,75.821256,PM10,28,81,53
India,Rajasthan,Nagaur,"Karni Colony, Nagaur - RSPCB",29-08-2025 13:00:00,27.213494,73.734444,PM10,35,113,82
India,Rajasthan,Nagaur,"Karni Colony, Nagaur - RSPCB",29-08-2025 13:00:00,27.213494,73.734444,NH3,2,12,5
India,Rajasthan,Jalore,"Mudtra Sili, Jalore - RSPCB",29-08-2025 13:00:00,25.344694,72.626208,PM10,98,158,123
India,Rajasthan,Jalore,"Mudtra Sili, Jalore - RSPCB",29-08-2025 13:00:00,25.344694,72.626208,CO,8,48,15
India,Rajasthan,Jhalawar,"Rajlaxmi Nagar, Jhalawar - RSPCB",29-08-2025 13:00:00,24.588397,76.172782,SO2,6,10,7
India,Rajasthan,Jhunjhunu,"Indra Nagar, Jhunjhunu - RSPCB",29-08-2025 13:00:00,28.108988,75.386577,OZONE,7,45,20
India,Rajasthan,Jodhpur,"Collectorate, Jodhpur - RSPCB",29-08-2025 13:00:00,26.268249,73.0193853,NO2,15,21,18
India,Rajasthan,Jodhpur,"Digari Kalan, Jodhpur - RSPCB",29-08-2025 13:00:00,26.295810,73.082283,PM10,66,109,85
India,Rajasthan,Jaipur,"Adarsh Nagar, Jaipur - RSPCB",29-08-2025 13:00:00,26.902909,75.836858,PM10,55,85,68
India,Rajasthan,Jaipur,"Adarsh Nagar, Jaipur - RSPCB",29-08-2025 13:00:00,26.902909,75.836858,SO2,10,31,22
India,Rajasthan,Jaipur,"Adarsh Nagar, Jaipur - RSPCB",29-08-2025 13:00:00,26.902909,75.836858,OZONE,16,43,24
India,Rajasthan,Jaipur,"Mansarovar Sector-12, Jaipur - RSPCB",29-08-2025 13:00:00,26.843698,75.766894,PM2.5,13,42,24
India,Rajasthan,Jaipur,"Police Commissionerate, Jaipur - RSPCB",29-08-2025 13:00:00,26.9164092,75.7994901,PM10,28,84,61
India,Rajasthan,Jaipur,"Police Commissionerate, Jaipur - RSPCB",29-08-2025 13:00:00,26.9164092,75.7994901,NH3,7,11,9
India,Rajasthan,Sikar,"Radhakishan Pura, Sikar - RSPCB",29-08-2025 13:00:00,27.608912,75.153302,OZONE,8,58,33
India,Rajasthan,Sri Ganganagar,"Old City, Sri Ganganagar - RSPCB",29-08-2025 13:00:00,29.931624,73.864511,PM2.5,13,173,53
India,Rajasthan,Sri Ganganagar,"Old City, Sri Ganganagar - RSPCB",29-08-2025 13:00:00,29.931624,73.864511,NO2,33,57,47
India,Rajasthan,Tonk,"Shastri Nagar, Tonk - RSPCB",29-08-2025 13:00:00,26.159933,75.780517,NH3,NA,NA,NA
India,Rajasthan,Tonk,"Shastri Nagar, Tonk - RSPCB",29-08-2025 13:00:00,26.159933,75.780517,CO,2,46,7
India,Rajasthan,Tonk,"Shastri Nagar, Tonk - RSPCB",29-08-2025 13:00:00,26.159933,75.780517,OZONE,2,43,11
India,Rajasthan,Jodhpur,"Digari Kalan, Jodhpur - RSPCB",29-08-2025 13:00:00,26.295810,73.082283,NO2,3,23,11
India,Rajasthan,Jodhpur,"Digari Kalan, Jodhpur - RSPCB",29-08-2025 13:00:00,26.295810,73.082283,CO,14,38,31
India,Rajasthan,Jodhpur,"Jhalamand, Jodhpur - RSPCB",29-08-2025 13:00:00,26.215415,73.070156,PM10,56,152,91
India,Rajasthan,Jodhpur,"Jhalamand, Jodhpur - RSPCB",29-08-2025 13:00:00,26.215415,73.070156,CO,7,20,11
India,Rajasthan,Jodhpur,"Samrat Ashok Udhyan, Jodhpur - RSPCB",29-08-2025 13:00:00,26.253384,72.976571,NH3,2,2,2
India,Rajasthan,Jaipur,"RIICO Sitapura, Jaipur - RSPCB",29-08-2025 13:00:00,26.786682,75.827928,NO2,13,74,26
India,Rajasthan,Jaipur,"RIICO Sitapura, Jaipur - RSPCB",29-08-2025 13:00:00,26.786682,75.827928,SO2,1,5,2
India,Rajasthan,Jaipur,"Sector-2 Murlipura, Jaipur - RSPCB",29-08-2025 13:00:00,26.960669,75.771817,NO2,10,38,22
India,Rajasthan,Jaisalmer,"Sadar Bazar, Jaisalmer - RSPCB",29-08-2025 13:00:00,26.912329,70.909168,PM2.5,27,50,41
India,Rajasthan,Pali,"Indira Colony Vistar, Pali - RSPCB",29-08-2025 13:00:00,25.771061, 73.340227,PM2.5,54,142,95
India,Rajasthan,Pali,"Indira Colony Vistar, Pali - RSPCB",29-08-2025 13:00:00,25.771061, 73.340227,NH3,7,12,9
India,Rajasthan,Pali,"Indira Colony Vistar, Pali - RSPCB",29-08-2025 13:00:00,25.771061, 73.340227,CO,21,66,46
India,Rajasthan,Sawai Madhopur,"Sahu Nagar, Sawai Madhopur - RSPCB",29-08-2025 13:00:00,26.031443,76.359327,SO2,1,13,3
India,TamilNadu,Chennai,"Kodungaiyur, Chennai - TNPCB",29-08-2025 13:00:00,13.1278,80.2642,NO2,8,19,12
India,TamilNadu,Chennai,"Kodungaiyur, Chennai - TNPCB",29-08-2025 13:00:00,13.1278,80.2642,NH3,6,8,7
India,TamilNadu,Tiruchirappalli,"St Joseph College, Tiruchirappalli - TNPCB",29-08-2025 13:00:00,10.830158,78.691849,PM2.5,44,60,52
India,TamilNadu,Tiruchirappalli,"St Joseph College, Tiruchirappalli - TNPCB",29-08-2025 13:00:00,10.830158,78.691849,CO,5,6,6
India,TamilNadu,Tiruchirappalli,"St Joseph College, Tiruchirappalli - TNPCB",29-08-2025 13:00:00,10.830158,78.691849,OZONE,7,37,20
India,TamilNadu,Tirunelveli,"Municipal Corporation Office, Tirunelveli - TNPCB",29-08-2025 13:00:00,8.728442,77.6962,PM2.5,10,25,19
India,TamilNadu,Tirunelveli,"Municipal Corporation Office, Tirunelveli - TNPCB",29-08-2025 13:00:00,8.728442,77.6962,PM10,16,31,22
India,TamilNadu,Tirupur,"Kumaran College, Tirupur - TNPCB",29-08-2025 13:00:00,11.0973603,77.3228673,PM2.5,1,11,4
India,TamilNadu,Vellore,"Vasanthapuram, Vellore - TNPCB",29-08-2025 13:00:00,12.909494,79.131861,SO2,18,31,20
India,TamilNadu,Vellore,"Vasanthapuram, Vellore - TNPCB",29-08-2025 13:00:00,12.909494,79.131861,OZONE,1,23,12
India,TamilNadu,Namakkal,"Ponnusamy Nagar, Namakkal - TNPCB",29-08-2025 13:00:00,11.273992,78.163545,NO2,8,8,8
India,TamilNadu,Ooty,"Bombay Castel, Ooty - TNPCB",29-08-2025 13:00:00,11.4068288,76.7138973,PM2.5,NA,NA,NA
India,TamilNadu,Ooty,"Bombay Castel, Ooty - TNPCB",29-08-2025 13:00:00,11.4068288,76.7138973,PM10,NA,NA,NA
India,TamilNadu,Ooty,"Bombay Castel, Ooty - TNPCB",29-08-2025 13:00:00,11.4068288,76.7138973,CO,26,26,26
India,TamilNadu,Palkalaiperur,"Bharathidasan University, Palkalaiperur - TNPCB",29-08-2025 13:00:00,10.681158,78.741746,NO2,7,7,7
India,TamilNadu,Palkalaiperur,"Bharathidasan University, Palkalaiperur - TNPCB",29-08-2025 13:00:00,10.681158,78.741746,OZONE,12,12,12
India,TamilNadu,Perundurai,"SIPCOT Industrial Park, Perundurai - TNPCB",29-08-2025 13:00:00,11.258242,77.552761,PM2.5,7,40,16
India,TamilNadu,Perundurai,"SIPCOT Industrial Park, Perundurai - TNPCB",29-08-2025 13:00:00,11.258242,77.552761,NO2,7,8,7
India,TamilNadu,Cuddalore,"Kudikadu, Cuddalore - TNPCB",29-08-2025 13:00:00,11.6829898,79.7532099,NO2,20,20,20
India,TamilNadu,Cuddalore,"Semmandalam, Cuddalore - TNPCB",29-08-2025 13:00:00,11.7637683,79.7499835,PM10,3,28,13
India,TamilNadu,Cuddalore,"Semmandalam, Cuddalore - TNPCB",29-08-2025 13:00:00,11.7637683,79.7499835,NH3,2,3,3
India,TamilNadu,Dindigul,"Mendonsa Colony, Dindigul - TNPCB",29-08-2025 13:00:00,10.358535,77.984321,PM2.5,7,28,16
India,TamilNadu,Gummidipoondi,"Anthoni Pillai Nagar, Gummidipoondi - TNPCB",29-08-2025 13:00:00,13.4127,80.1081,NO2,1,15,5
India,TamilNadu,Gummidipoondi,"Anthoni Pillai Nagar, Gummidipoondi - TNPCB",29-08-2025 13:00:00,13.4127,80.1081,NH3,2,4,3
India,TamilNadu,Hosur,"SIPCOT Phase-1, Hosur - TNPCB",29-08-2025 13:00:00,12.746998,77.813811,PM2.5,29,77,41
India,TamilNadu,Kanchipuram,"Kilambi, Kanchipuram - TNPCB",29-08-2025 13:00:00,12.864618,79.659968,PM10,13,500,67
India,TamilNadu,Kanchipuram,"Kilambi, Kanchipuram - TNPCB",29-08-2025 13:00:00,12.864618,79.659968,NH3,4,4,4
India,TamilNadu,Kanchipuram,"Kilambi, Kanchipuram - TNPCB",29-08-2025 13:00:00,12.864618,79.659968,SO2,NA,NA,NA
India,TamilNadu,Kanchipuram,"Kilambi, Kanchipuram - TNPCB",29-08-2025 13:00:00,12.864618,79.659968,OZONE,2,4,3
India,TamilNadu,Karur,"Kamadenu Nagar, Karur - TNPCB",29-08-2025 13:00:00,10.967820,78.080882,PM2.5,34,67,46
India,TamilNadu,Karur,"Kamadenu Nagar, Karur - TNPCB",29-08-2025 13:00:00,10.967820,78.080882,PM10,47,105,65
India,TamilNadu,Karur,"Kamadenu Nagar, Karur - TNPCB",29-08-2025 13:00:00,10.967820,78.080882,NH3,3,3,3
India,TamilNadu,Karur,"Kamadenu Nagar, Karur - TNPCB",29-08-2025 13:00:00,10.967820,78.080882,SO2,12,16,15
India,TamilNadu,Madurai,"Uchapatti, Madurai - TNPCB",29-08-2025 13:00:00,9.865935,78.022669,PM10,8,47,27
India,TamilNadu,Pudukottai,"SIPCOT Nathampannai, Pudukottai - TNPCB",29-08-2025 13:00:00,10.423417,78.784889,NO2,11,14,12
India,TamilNadu,Ranipet,"VOC Nagar_SIPCOT, Ranipet - TNPCB",29-08-2025 13:00:00,12.952707,79.30394,NO2,1,3,1
India,TamilNadu,Salem,"Sona College of Technology, Salem - TNPCB",29-08-2025 13:00:00,11.679111,78.125052,OZONE,20,20,20
India,TamilNadu,Thanjavur,"Parisutham Nagar, Thanjavur - TNPCB",29-08-2025 13:00:00,10.7654824,79.1389968,CO,7,9,8
India,TamilNadu,Thoothukudi,"Meelavittan, Thoothukudi - TNPCB",29-08-2025 13:00:00,8.816428 ,78.099039,PM10,12,62,34
India,TamilNadu,Chennai,"Perungudi, Chennai - TNPCB",29-08-2025 13:00:00,12.9533,80.2357,OZONE,1,14,6
India,TamilNadu,Chennai,"Velachery Res. Area, Chennai - CPCB",29-08-2025 13:00:00,13.0052189,80.2398125,OZONE,8,13,10
India,TamilNadu,Coimbatore,"PSG College of Arts and Science, Coimbatore - TNPCB",29-08-2025 13:00:00,11.0328,77.0349,OZONE,3,6,5
India,TamilNadu,Coimbatore,"SIDCO Kurichi, Coimbatore - TNPCB",29-08-2025 13:00:00,10.942451,76.978996,NH3,1,1,1
India,TamilNadu,Chennai,"Manali, Chennai - CPCB",29-08-2025 13:00:00,13.164544,80.26285,PM2.5,3,55,30
India,TamilNadu,Chennai,"Manali, Chennai - CPCB",29-08-2025 13:00:00,13.164544,80.26285,PM10,65,66,66
India,TamilNadu,Chennai,"Manali, Chennai - CPCB",29-08-2025 13:00:00,13.164544,80.26285,NH3,6,6,6
India,TamilNadu,Chennai,"Manali, Chennai - CPCB",29-08-2025 13:00:00,13.164544,80.26285,SO2,15,19,17
India,TamilNadu,Chennai,"Manali, Chennai - CPCB",29-08-2025 13:00:00,13.164544,80.26285,CO,11,86,37
India,TamilNadu,Chennai,"Manali, Chennai - CPCB",29-08-2025 13:00:00,13.164544,80.26285,OZONE,28,29,28
India,Telangana,Hyderabad,"IDA Pashamylaram, Hyderabad - TSPCB",29-08-2025 13:00:00,17.5316895,78.218939,PM10,20,78,47
India,Telangana,Hyderabad,"IITH Kandi, Hyderabad - TSPCB",29-08-2025 13:00:00,17.585705,78.126199,SO2,NA,NA,NA
India,Telangana,Hyderabad,"Kompally Municipal Office, Hyderabad - TSPCB",29-08-2025 13:00:00,17.544899,78.486949,NH3,4,5,4
India,Telangana,Hyderabad,"ECIL Kapra, Hyderabad - TSPCB",29-08-2025 13:00:00,17.470431,78.566959,OZONE,12,52,38
India,Telangana,Hyderabad,"ICRISAT Patancheru, Hyderabad - TSPCB",29-08-2025 13:00:00,17.518400,78.278777,PM2.5,39,66,52
India,Telangana,Hyderabad,"Zoo Park, Hyderabad - TSPCB",29-08-2025 13:00:00,17.349694,78.451437,SO2,1,7,5
India,Telangana,Hyderabad,"Zoo Park, Hyderabad - TSPCB",29-08-2025 13:00:00,17.349694,78.451437,CO,1,26,19
India,Tripura,Agartala,"Bardowali, Agartala - Tripura SPCB",29-08-2025 13:00:00,23.8175497,91.2726974,PM10,9,17,13
India,Uttar_Pradesh,Agra,"Manoharpur, Agra - UPPCB",29-08-2025 13:00:00,27.23711,78.01936,PM10,10,81,49
India,Uttar_Pradesh,Agra,"Rohta, Agra - UPPCB",29-08-2025 13:00:00,27.106972,78.000111,OZONE,11,13,11
India,Uttar_Pradesh,Firozabad,"Nagla Bhau, Firozabad - UPPCB",29-08-2025 13:00:00,27.168897,78.376960,OZONE,13,20,17
India,Uttar_Pradesh,Firozabad,"Vibhab Nagar, Firozabad - UPPCB",29-08-2025 13:00:00,27.1594,78.3953,PM2.5,37,78,55
India,Uttar_Pradesh,Firozabad,"Vibhab Nagar, Firozabad - UPPCB",29-08-2025 13:00:00,27.1594,78.3953,NO2,14,15,15
India,Uttar_Pradesh,Ghaziabad,"Loni, Ghaziabad - UPPCB",29-08-2025 13:00:00,28.757294,77.278792,PM2.5,62,299,128
India,Uttar_Pradesh,Ghaziabad,"Loni, Ghaziabad - UPPCB",29-08-2025 13:00:00,28.757294,77.278792,SO2,4,25,14
India,Uttar_Pradesh,Baghpat,"Sardar Patel Inter College, Baghpat - UPPCB",29-08-2025 13:00:00,28.964949,77.278761,CO,34,66,43
India,Uttar_Pradesh,Bareilly,"Rajendra Nagar, Bareilly - UPPCB",29-08-2025 13:00:00,28.38910936,79.42963708,PM10,20,78,49
India,Uttar_Pradesh,Bulandshahr,"Yamunapuram, Bulandshahr - UPPCB",29-08-2025 13:00:00,28.406963,77.849831,NO2,3,13,10
India,Uttar_Pradesh,Bulandshahr,"Yamunapuram, Bulandshahr - UPPCB",29-08-2025 13:00:00,28.406963,77.849831,OZONE,4,17,8
India,Uttar_Pradesh,Ghaziabad,"Vasundhara, Ghaziabad - UPPCB",29-08-2025 13:00:00,28.6603346,77.3572563,SO2,13,21,18
India,Uttar_Pradesh,Gorakhpur,"Madan Mohan Malaviya University of Technology, Gorakhpur - UPPCB",29-08-2025 13:00:00,26.730136,83.433859,OZONE,22,82,36
India,Uttar_Pradesh,Greater Noida,"Knowledge Park - III, Greater Noida - UPPCB",29-08-2025 13:00:00,28.47272,77.482000,PM10,65,140,105
India,Uttar_Pradesh,Agra,"Shahjahan Garden, Agra - UPPCB",29-08-2025 13:00:00,27.169338,78.03582,PM2.5,35,100,67
India,Uttar_Pradesh,Agra,"Shahjahan Garden, Agra - UPPCB",29-08-2025 13:00:00,27.169338,78.03582,NH3,1,1,1
India,Uttar_Pradesh,Agra,"Shastripuram, Agra - UPPCB",29-08-2025 13:00:00,27.19862,77.92066,CO,12,21,13
India,Uttar_Pradesh,Jhansi,"Shivaji Nagar, Jhansi - UPPCB",29-08-2025 13:00:00,25.4547,78.6039,NO2,6,6,6
India,Uttar_Pradesh,Kanpur,"NSI Kalyanpur, Kanpur - UPPCB",29-08-2025 13:00:00,26.509954,80.249612,OZONE,17,21,19
India,Telangana,Hyderabad,"New Malakpet, Hyderabad - TSPCB",29-08-2025 13:00:00,17.37206,78.50864,NO2,NA,NA,NA
India,Telangana,Hyderabad,"Zoo Park, Hyderabad - TSPCB",29-08-2025 13:00:00,17.349694,78.451437,PM10,57,78,68
India,Uttar_Pradesh,Ghaziabad,"Sanjay Nagar, Ghaziabad - UPPCB",29-08-2025 13:00:00,28.685382,77.453839,CO,19,51,34
India,Uttar_Pradesh,Ghaziabad,"Sanjay Nagar, Ghaziabad - UPPCB",29-08-2025 13:00:00,28.685382,77.453839,OZONE,15,40,21
India,Uttar_Pradesh,Greater Noida,"Knowledge Park - V, Greater Noida - UPPCB",29-08-2025 13:00:00,28.557054,77.453663,PM10,79,159,121
India,Uttarakhand,Dehradun,"Doon University, Dehradun - UKPCB",29-08-2025 13:00:00,30.269444,78.044167,PM2.5,9,51,25
India,Uttarakhand,Kashipur,"Govt. Girls Inter College, Kashipur - UKPCB",29-08-2025 13:00:00,29.2124114,78.9611753,NO2,5,12,9
India,Uttarakhand,Kashipur,"Govt. Girls Inter College, Kashipur - UKPCB",29-08-2025 13:00:00,29.2124114,78.9611753,OZONE,3,55,22
India,Uttarakhand,Rishikesh,"Shivaji Nagar, Rishikesh - UKPCB",29-08-2025 13:00:00,30.075911,78.2859547,PM2.5,11,18,13
India,Uttarakhand,Rishikesh,"Shivaji Nagar, Rishikesh - UKPCB",29-08-2025 13:00:00,30.075911,78.2859547,NH3,11,11,11
India,Uttarakhand,Rishikesh,"Shivaji Nagar, Rishikesh - UKPCB",29-08-2025 13:00:00,30.075911,78.2859547,SO2,3,5,4
India,Uttarakhand,Rishikesh,"Shivaji Nagar, Rishikesh - UKPCB",29-08-2025 13:00:00,30.075911,78.2859547,CO,26,44,30
India,Uttarakhand,Rishikesh,"Shivaji Nagar, Rishikesh - UKPCB",29-08-2025 13:00:00,30.075911,78.2859547,OZONE,6,9,7
India,West_Bengal,Asansol,"Asansol Court Area, Asansol - WBPCB",29-08-2025 13:00:00,23.685297,86.945968,PM10,19,41,31
India,West_Bengal,Asansol,"Asansol Court Area, Asansol - WBPCB",29-08-2025 13:00:00,23.685297,86.945968,NH3,5,20,10
India,West_Bengal,Asansol,"Evelyn Lodge, Asansol - WBPCB",29-08-2025 13:00:00,23.6979360,86.9443950,PM2.5,9,32,20
India,West_Bengal,Asansol,"Evelyn Lodge, Asansol - WBPCB",29-08-2025 13:00:00,23.6979360,86.9443950,PM10,19,50,36
India,Uttar_Pradesh,Noida,"Sector - 62, Noida - IMD",29-08-2025 13:00:00,28.6245479,77.3577104,PM10,44,117,78
India,Uttar_Pradesh,Noida,"Sector-1, Noida - UPPCB",29-08-2025 13:00:00,28.5898,77.3101,NO2,17,78,33
India,Uttar_Pradesh,Noida,"Sector-116, Noida - UPPCB",29-08-2025 13:00:00,28.569230,77.393848,PM10,60,146,100
India,Uttar_Pradesh,Noida,"Sector-116, Noida - UPPCB",29-08-2025 13:00:00,28.569230,77.393848,NO2,NA,NA,NA
India,Uttar_Pradesh,Noida,"Sector-116, Noida - UPPCB",29-08-2025 13:00:00,28.569230,77.393848,NH3,NA,NA,NA
India,Uttar_Pradesh,Noida,"Sector-116, Noida - UPPCB",29-08-2025 13:00:00,28.569230,77.393848,OZONE,12,53,16
India,Uttar_Pradesh,Prayagraj,"Jhunsi, Prayagraj - UPPCB",29-08-2025 13:00:00,25.425602,81.917152,PM2.5,15,33,23
India,Uttar_Pradesh,Prayagraj,"Jhunsi, Prayagraj - UPPCB",29-08-2025 13:00:00,25.425602,81.917152,SO2,28,30,28
India,Uttar_Pradesh,Prayagraj,"Motilal Nehru NIT, Prayagraj - UPPCB",29-08-2025 13:00:00,25.494,81.863,PM10,20,38,28
India,Uttar_Pradesh,Prayagraj,"Motilal Nehru NIT, Prayagraj - UPPCB",29-08-2025 13:00:00,25.494,81.863,NH3,8,8,8
India,Uttar_Pradesh,Moradabad,"Jigar Colony, Moradabad - UPPCB",29-08-2025 13:00:00,28.856664,78.772638,NO2,20,25,24
India,Uttar_Pradesh,Moradabad,"Jigar Colony, Moradabad - UPPCB",29-08-2025 13:00:00,28.856664,78.772638,CO,38,40,40
India,Uttar_Pradesh,Moradabad,"Kashiram Nagar, Moradabad - UPPCB",29-08-2025 13:00:00,28.849399,78.742362,NH3,4,4,4
India,Uttar_Pradesh,Moradabad,"Transport Nagar, Moradabad - UPPCB",29-08-2025 13:00:00,28.802625,78.753728,NH3,5,5,5
India,Uttar_Pradesh,Moradabad,"Transport Nagar, Moradabad - UPPCB",29-08-2025 13:00:00,28.802625,78.753728,CO,30,42,37
India,Uttar_Pradesh,Moradabad,"Transport Nagar, Moradabad - UPPCB",29-08-2025 13:00:00,28.802625,78.753728,OZONE,29,39,32
India,Uttar_Pradesh,Muzaffarnagar,"New Mandi, Muzaffarnagar - UPPCB",29-08-2025 13:00:00,29.4723508,77.7194031,PM10,22,85,54
India,Uttar_Pradesh,Noida,"Sector - 125, Noida - UPPCB",29-08-2025 13:00:00,28.5447608,77.3231257,PM10,51,300,153
India,Uttar_Pradesh,Noida,"Sector - 125, Noida - UPPCB",29-08-2025 13:00:00,28.5447608,77.3231257,NH3,7,7,7
India,Uttar_Pradesh,Prayagraj,"Motilal Nehru NIT, Prayagraj - UPPCB",29-08-2025 13:00:00,25.494,81.863,OZONE,13,35,16
India,Uttar_Pradesh,Prayagraj,"Nagar Nigam, Prayagraj - UPPCB",29-08-2025 13:00:00,25.44919916 ,81.82735986 ,PM10,29,53,42
India,Uttar_Pradesh,Prayagraj,"Nagar Nigam, Prayagraj - UPPCB",29-08-2025 13:00:00,25.44919916 ,81.82735986 ,NH3,2,4,3
India,Uttar_Pradesh,Prayagraj,"Nagar Nigam, Prayagraj - UPPCB",29-08-2025 13:00:00,25.44919916 ,81.82735986 ,SO2,22,63,41
India,Uttar_Pradesh,Prayagraj,"Nagar Nigam, Prayagraj - UPPCB",29-08-2025 13:00:00,25.44919916 ,81.82735986 ,OZONE,12,31,22
India,Uttar_Pradesh,Varanasi,"Ardhali Bazar, Varanasi - UPPCB",29-08-2025 13:00:00,25.3505986,82.9083074,NO2,27,44,41
India,Uttar_Pradesh,Varanasi,"IESD Banaras Hindu University, Varanasi - UPPCB",29-08-2025 13:00:00,25.262326,82.995408,PM10,31,77,51
India,Uttar_Pradesh,Varanasi,"IESD Banaras Hindu University, Varanasi - UPPCB",29-08-2025 13:00:00,25.262326,82.995408,SO2,24,26,25
India,Uttar_Pradesh,Khurja,"Kalindi Kunj, Khurja - UPPCB",29-08-2025 13:00:00,28.2348927,77.8683002,CO,43,64,52
India,Uttar_Pradesh,Lucknow,"B R Ambedkar University, Lucknow - UPPCB",29-08-2025 13:00:00,26.766433,80.927299,PM2.5,8,32,22
India,Uttar_Pradesh,Lucknow,"B R Ambedkar University, Lucknow - UPPCB",29-08-2025 13:00:00,26.766433,80.927299,PM10,25,41,33
India,Uttar_Pradesh,Lucknow,"Gomti Nagar, Lucknow - UPPCB",29-08-2025 13:00:00,26.868120,81.005119,CO,38,42,39
India,Uttar_Pradesh,Lucknow,"Kendriya Vidyalaya, Lucknow - CPCB",29-08-2025 13:00:00,26.906111,80.948222,NH3,12,17,15
India,Uttar_Pradesh,Lucknow,"Kukrail Picnic Spot-1, Lucknow - UPPCB",29-08-2025 13:00:00,26.90723,80.98579,NO2,23,23,23
India,West_Bengal,Asansol,"Evelyn Lodge, Asansol - WBPCB",29-08-2025 13:00:00,23.6979360,86.9443950,SO2,4,7,4
India,West_Bengal,Asansol,"Mahabir Colliery, Asansol - WBPCB",29-08-2025 13:00:00,23.6181830,87.1057180,NH3,9,14,11
India,West_Bengal,Asansol,"Mahabir Colliery, Asansol - WBPCB",29-08-2025 13:00:00,23.6181830,87.1057180,SO2,6,7,6
India,West_Bengal,Asansol,"Mahabir Colliery, Asansol - WBPCB",29-08-2025 13:00:00,23.6181830,87.1057180,CO,4,35,9
India,West_Bengal,Asansol,"Trivenidevi Bhalotia College, Asansol - WBPCB",29-08-2025 13:00:00,23.616515,87.119133,OZONE,15,50,31
India,West_Bengal,Barrackpore,"SVSPA Campus, Barrackpore - WBPCB",29-08-2025 13:00:00,22.7605581,88.3617589,OZONE,4,10,7
India,Uttar_Pradesh,Moradabad,"Buddhi Vihar, Moradabad - UPPCB",29-08-2025 13:00:00,28.83526,78.74460,PM10,43,89,64
India,Uttar_Pradesh,Moradabad,"Eco Herbal Park, Moradabad - UPPCB",29-08-2025 13:00:00,28.840739,78.697531,PM10,16,70,38
India,Uttar_Pradesh,Moradabad,"Eco Herbal Park, Moradabad - UPPCB",29-08-2025 13:00:00,28.840739,78.697531,NH3,3,6,4
India,Uttar_Pradesh,Moradabad,"Employment Office, Moradabad - UPPCB",29-08-2025 13:00:00,28.88528,78.73880,NO2,16,16,16
India,Uttar_Pradesh,Moradabad,"Employment Office, Moradabad - UPPCB",29-08-2025 13:00:00,28.88528,78.73880,SO2,37,39,38
India,Uttar_Pradesh,Varanasi,"Maldahiya, Varanasi - UPPCB",29-08-2025 13:00:00,25.32393,82.99687,NO2,1,2,2
India,Uttar_Pradesh,Vrindavan,"Omex Eternity, Vrindavan - UPPCB",29-08-2025 13:00:00,27.5714090,77.6557570,NH3,1,2,2
India,Uttar_Pradesh,Vrindavan,"Omex Eternity, Vrindavan - UPPCB",29-08-2025 13:00:00,27.5714090,77.6557570,SO2,9,19,11
India,Uttar_Pradesh,Meerut,"Ganga Nagar, Meerut - UPPCB",29-08-2025 13:00:00,28.999264,77.7590354,PM10,20,83,51
India,Uttar_Pradesh,Meerut,"Jai Bhim Nagar, Meerut - UPPCB",29-08-2025 13:00:00,28.9535882,77.7622941,PM10,32,83,54
India,Uttar_Pradesh,Meerut,"Jai Bhim Nagar, Meerut - UPPCB",29-08-2025 13:00:00,28.9535882,77.7622941,OZONE,23,78,31
India,West_Bengal,Durgapur,"PCBL Residential Complex, Durgapur - WBPCB",29-08-2025 13:00:00,23.5087640,87.3544400,PM2.5,12,53,32
India,West_Bengal,Durgapur,"PCBL Residential Complex, Durgapur - WBPCB",29-08-2025 13:00:00,23.5087640,87.3544400,NO2,5,11,8
India,West_Bengal,Durgapur,"Womens College_City Center, Durgapur - WBPCB (Formerly known as Sidhu Kanhu Indoor Stadium)",29-08-2025 13:00:00,23.549395,87.300496,PM10,21,84,58
India,West_Bengal,Haldia,"Priyambada Housing Estate, Haldia - WBPCB",29-08-2025 13:00:00,22.06047,88.109737,NH3,4,5,4
India,West_Bengal,Howrah,"Belur Math, Howrah - WBPCB",29-08-2025 13:00:00,22.629801,88.352017,NO2,21,27,23
India,West_Bengal,Howrah,"Belur Math, Howrah - WBPCB",29-08-2025 13:00:00,22.629801,88.352017,CO,7,32,22
India,West_Bengal,Howrah,"Botanical Garden, Howrah - WBPCB",29-08-2025 13:00:00,22.554954,88.292568,NO2,9,34,20
India,West_Bengal,Howrah,"Dasnagar, Howrah - WBPCB",29-08-2025 13:00:00,22.6025571,88.3105664,PM10,14,42,28
India,West_Bengal,Howrah,"Dasnagar, Howrah - WBPCB",29-08-2025 13:00:00,22.6025571,88.3105664,SO2,9,10,10
India,West_Bengal,Howrah,"Dasnagar, Howrah - WBPCB",29-08-2025 13:00:00,22.6025571,88.3105664,CO,22,42,28
India,West_Bengal,Howrah,"Ghusuri, Howrah - WBPCB",29-08-2025 13:00:00,22.611968,88.347422,PM10,19,173,56
India,West_Bengal,Howrah,"Ghusuri, Howrah - WBPCB",29-08-2025 13:00:00,22.611968,88.347422,CO,9,24,11
India,West_Bengal,Howrah,"Ghusuri, Howrah - WBPCB",29-08-2025 13:00:00,22.611968,88.347422,OZONE,19,31,26
India,West_Bengal,Kolkata,"Ballygunge, Kolkata - WBPCB",29-08-2025 13:00:00,22.5367507,88.3638022,PM2.5,26,37,30
India,West_Bengal,Kolkata,"Ballygunge, Kolkata - WBPCB",29-08-2025 13:00:00,22.5367507,88.3638022,NO2,26,64,46
India,West_Bengal,Kolkata,"Bidhannagar, Kolkata - WBPCB",29-08-2025 13:00:00,22.58157048,88.41002457,PM10,26,39,30
India,West_Bengal,Kolkata,"Fort William, Kolkata - WBPCB",29-08-2025 13:00:00,22.556640,88.342674,CO,20,24,23
India,West_Bengal,Kolkata,"Fort William, Kolkata - WBPCB",29-08-2025 13:00:00,22.556640,88.342674,OZONE,31,40,36
India,West_Bengal,Kolkata,"Jadavpur, Kolkata - WBPCB",29-08-2025 13:00:00,22.49929,88.36917,NH3,20,28,24
India,West_Bengal,Kolkata,"Rabindra Sarobar, Kolkata - WBPCB",29-08-2025 13:00:00,22.51106,88.35142,PM2.5,10,13,12
India,West_Bengal,Kolkata,"Rabindra Sarobar, Kolkata - WBPCB",29-08-2025 13:00:00,22.51106,88.35142,PM10,24,25,24
India,West_Bengal,Kolkata,"Victoria, Kolkata - WBPCB",29-08-2025 13:00:00,22.5448082,88.3403691,OZONE,15,32,20
India,West_Bengal,Siliguri,"Ward-32 Bapupara, Siliguri - WBPCB",29-08-2025 13:00:00,26.6879226,88.4152495,PM2.5,23,36,28
India,West_Bengal,Siliguri,"Ward-32 Bapupara, Siliguri - WBPCB",29-08-2025 13:00:00,26.6879226,88.4152495,NO2,22,26,25
India,West_Bengal,Siliguri,"Ward-32 Bapupara, Siliguri - WBPCB",29-08-2025 13:00:00,26.6879226,88.4152495,CO,18,72,51
India,Arunachal_Pradesh,Naharlagun,"Naharlagun, Naharlagun - APSPCB",29-08-2025 13:00:00,27.103358,93.679645,PM2.5,1,29,13
India,Arunachal_Pradesh,Naharlagun,"Naharlagun, Naharlagun - APSPCB",29-08-2025 13:00:00,27.103358,93.679645,PM10,1,31,15
India,Assam,Byrnihat,"Central Academy for SFS, Byrnihat - PCBA",29-08-2025 13:00:00,26.071318,91.87488,NH3,NA,NA,NA
India,Assam,Byrnihat,"Central Academy for SFS, Byrnihat - PCBA",29-08-2025 13:00:00,26.071318,91.87488,SO2,NA,NA,NA
India,Assam,Guwahati,"IITG, Guwahati - PCBA",29-08-2025 13:00:00,26.2028636,91.70046436,SO2,21,24,22
India,Assam,Guwahati,"LGBI Airport, Guwahati - PCBA",29-08-2025 13:00:00,26.10887,91.589544,PM10,46,54,49
India,Assam,Guwahati,"LGBI Airport, Guwahati - PCBA",29-08-2025 13:00:00,26.10887,91.589544,NH3,3,17,10
India,Assam,Guwahati,"LGBI Airport, Guwahati - PCBA",29-08-2025 13:00:00,26.10887,91.589544,CO,12,58,33
India,Bihar,Araria,"Kharahiya Basti, Araria - BSPCB",29-08-2025 13:00:00,26.146529,87.454184,PM2.5,42,53,45
India,Bihar,Araria,"Kharahiya Basti, Araria - BSPCB",29-08-2025 13:00:00,26.146529,87.454184,OZONE,9,11,10
India,Bihar,Arrah,"New DM Office, Arrah - BSPCB",29-08-2025 13:00:00,25.5626095,84.663264,PM10,26,28,27
India,Bihar,Arrah,"New DM Office, Arrah - BSPCB",29-08-2025 13:00:00,25.5626095,84.663264,NO2,4,9,7
India,Bihar,Aurangabad,"Gurdeo Nagar, Aurangabad - BSPCB",29-08-2025 13:00:00,24.75746,84.366208,PM2.5,13,62,34
India,Bihar,Begusarai,"Lohiyanagar, Begusarai - BSPCB",29-08-2025 13:00:00,25.42742023,86.13886079,NO2,5,45,15
India,Bihar,Hajipur,"Industrial Area, Hajipur - BSPCB",29-08-2025 13:00:00,25.697189,85.245900,OZONE,18,68,32
India,Bihar,Katihar,"Mirchaibari, Katihar - BSPCB",29-08-2025 13:00:00,25.560083,87.553265,PM10,30,33,32
India,Bihar,Katihar,"Mirchaibari, Katihar - BSPCB",29-08-2025 13:00:00,25.560083,87.553265,NO2,9,16,14
India,Bihar,Katihar,"Mirchaibari, Katihar - BSPCB",29-08-2025 13:00:00,25.560083,87.553265,NH3,1,1,1
India,Bihar,Katihar,"Mirchaibari, Katihar - BSPCB",29-08-2025 13:00:00,25.560083,87.553265,CO,34,103,63
India,Bihar,Katihar,"Mirchaibari, Katihar - BSPCB",29-08-2025 13:00:00,25.560083,87.553265,OZONE,4,23,12
India,Bihar,Kishanganj,"SDM Office_Khagra, Kishanganj - BSPCB",29-08-2025 13:00:00,26.0881305,87.93840336,PM10,NA,NA,NA
India,Andhra_Pradesh,Anantapur,"Gulzarpet, Anantapur - APPCB",29-08-2025 13:00:00,14.675886,77.593027,NH3,5,6,5
India,Andhra_Pradesh,Anantapur,"Gulzarpet, Anantapur - APPCB",29-08-2025 13:00:00,14.675886,77.593027,OZONE,12,20,14
India,Andhra_Pradesh,Chittoor,"Gangineni Cheruvu, Chittoor - APPCB",29-08-2025 13:00:00,13.204880,79.097889,OZONE,54,65,59
India,Andhra_Pradesh,Tirupati,"Vaikuntapuram, Tirupati - APPCB",29-08-2025 13:00:00,13.615387,79.409230,NH3,6,8,6
India,Andhra_Pradesh,Tirupati,"Vaikuntapuram, Tirupati - APPCB",29-08-2025 13:00:00,13.615387,79.409230,CO,10,14,11
India,Andhra_Pradesh,Vijayawada,"HB Colony, Vijayawada - APPCB",29-08-2025 13:00:00,16.536107,80.594233,NO2,20,20,20
India,Andhra_Pradesh,Vijayawada,"HB Colony, Vijayawada - APPCB",29-08-2025 13:00:00,16.536107,80.594233,NH3,3,3,3
India,Andhra_Pradesh,Vijayawada,"HB Colony, Vijayawada - APPCB",29-08-2025 13:00:00,16.536107,80.594233,SO2,7,14,8
India,Andhra_Pradesh,Vijayawada,"Rajiv Nagar, Vijayawada - APPCB",29-08-2025 13:00:00,16.554731,80.649110,PM10,61,156,72
India,Bihar,Buxar,"Charitra Van, Buxar - BSPCB",29-08-2025 13:00:00,25.567520,83.966379,PM10,59,72,70
India,Bihar,Buxar,"Charitra Van, Buxar - BSPCB",29-08-2025 13:00:00,25.567520,83.966379,NO2,5,10,9
India,Bihar,Gaya,"Kareemganj, Gaya - BSPCB",29-08-2025 13:00:00,24.792403,84.992416,NO2,3,7,5
India,Bihar,Gaya,"Kareemganj, Gaya - BSPCB",29-08-2025 13:00:00,24.792403,84.992416,NH3,4,6,5
India,Assam,Silchar,"Tarapur, Silchar - PCBA",29-08-2025 13:00:00,24.82827,92.79525,OZONE,1,12,6
India,Assam,Sivasagar,"Girls College, Sivasagar - PCBA",29-08-2025 13:00:00,26.987634,94.636574,NO2,10,15,12
India,Assam,Nagaon,"Christianpatty, Nagaon - PCBA",29-08-2025 13:00:00,26.349082,92.68449,NH3,4,4,4
India,Assam,Nagaon,"Christianpatty, Nagaon - PCBA",29-08-2025 13:00:00,26.349082,92.68449,SO2,6,14,13
India,Assam,Nagaon,"Christianpatty, Nagaon - PCBA",29-08-2025 13:00:00,26.349082,92.68449,CO,25,88,37
India,Bihar,Bhagalpur,"Mayaganj, Bhagalpur - BSPCB",29-08-2025 13:00:00,25.265194,87.012947,PM2.5,2,22,10
India,Bihar,Bhagalpur,"Mayaganj, Bhagalpur - BSPCB",29-08-2025 13:00:00,25.265194,87.012947,PM10,39,50,44
India,Andhra_Pradesh,Amaravati,"Secretariat, Amaravati - APPCB",29-08-2025 13:00:00,16.5150833,80.5181667,PM10,NA,NA,NA
India,Andhra_Pradesh,Amaravati,"Secretariat, Amaravati - APPCB",29-08-2025 13:00:00,16.5150833,80.5181667,NH3,NA,NA,NA
India,Chhattisgarh,Raipur,"Siltara Phase-II, Raipur - CECB",29-08-2025 13:00:00,21.371751,81.664929,NO2,3,23,6
India,Chhattisgarh,Raipur,"Siltara Phase-II, Raipur - CECB",29-08-2025 13:00:00,21.371751,81.664929,SO2,5,9,6
India,Chhattisgarh,Raipur,"Siltara Phase-II, Raipur - CECB",29-08-2025 13:00:00,21.371751,81.664929,OZONE,4,6,5
India,Chhattisgarh,Tumidih,"OP Jindal Industrial Park, Tumidih - CECB",29-08-2025 13:00:00,22.06631475,83.33820077,NO2,13,51,30
India,Chhattisgarh,Tumidih,"OP Jindal Industrial Park, Tumidih - CECB",29-08-2025 13:00:00,22.06631475,83.33820077,NH3,1,3,2
India,Chhattisgarh,Tumidih,"OP Jindal Industrial Park, Tumidih - CECB",29-08-2025 13:00:00,22.06631475,83.33820077,CO,19,56,40
India,Delhi,Delhi,"Alipur, Delhi - DPCC",29-08-2025 13:00:00,28.815329,77.153010,PM2.5,22,98,77
India,Delhi,Delhi,"Alipur, Delhi - DPCC",29-08-2025 13:00:00,28.815329,77.153010,SO2,6,10,7
India,Delhi,Delhi,"Alipur, Delhi - DPCC",29-08-2025 13:00:00,28.815329,77.153010,OZONE,6,58,14
India,Delhi,Delhi,"Anand Vihar, Delhi - DPCC",29-08-2025 13:00:00,28.647622,77.3158090,SO2,27,47,36
India,Delhi,Delhi,"Ashok Vihar, Delhi - DPCC",29-08-2025 13:00:00,28.695381,77.181665,PM2.5,18,260,107
India,Bihar,Muzaffarpur,"Buddha Colony, Muzaffarpur - BSPCB",29-08-2025 13:00:00,26.11442,85.39813,CO,18,32,21
India,Bihar,Muzaffarpur,"MIT-Daudpur Kothi, Muzaffarpur - BSPCB",29-08-2025 13:00:00,26.1403345,85.3650192,PM10,32,57,43
India,Bihar,Muzaffarpur,"Muzaffarpur Collectorate, Muzaffarpur - BSPCB",29-08-2025 13:00:00,26.1209,85.3647,NO2,10,18,12
India,Bihar,Patna,"DRM Office Danapur, Patna - BSPCB",29-08-2025 13:00:00,25.586562,85.043586,NO2,28,36,32
India,Bihar,Patna,"Govt. High School Shikarpur, Patna - BSPCB",29-08-2025 13:00:00,25.592539,85.227158,PM2.5,NA,NA,NA
India,Bihar,Patna,"Govt. High School Shikarpur, Patna - BSPCB",29-08-2025 13:00:00,25.592539,85.227158,SO2,NA,NA,NA
India,Bihar,Patna,"IGSC Planetarium Complex, Patna - BSPCB",29-08-2025 13:00:00,25.610369,85.132568,NO2,NA,NA,NA
India,Bihar,Patna,"IGSC Planetarium Complex, Patna - BSPCB",29-08-2025 13:00:00,25.610369,85.132568,OZONE,41,43,42
India,Chhattisgarh,Bhilai,"Hathkhoj, Bhilai - CECB",29-08-2025 13:00:00,21.224231,81.408350,OZONE,9,22,13
India,Chhattisgarh,Bilaspur,"Mangala, Bilaspur - NTPC",29-08-2025 13:00:00,22.08815,82.13737,CO,34,46,39
India,Chhattisgarh,Chhal,"Nawapara SECL Colony, Chhal - CECB",29-08-2025 13:00:00,22.118125,83.140608,NH3,6,6,6
India,Chhattisgarh,Chhal,"Nawapara SECL Colony, Chhal - CECB",29-08-2025 13:00:00,22.118125,83.140608,OZONE,8,21,16
India,Chhattisgarh,Korba,"Rampur, Korba - CECB",29-08-2025 13:00:00,22.368195,82.746431,OZONE,NA,NA,NA
India,Chhattisgarh,Kunjemura,"OP Jindal School, Kunjemura - CECB",29-08-2025 13:00:00,22.126650,83.483212,PM2.5,4,20,13
India,Chhattisgarh,Kunjemura,"OP Jindal School, Kunjemura - CECB",29-08-2025 13:00:00,22.126650,83.483212,NO2,2,3,3
India,Bihar,Patna,"Muradpur, Patna - BSPCB",29-08-2025 13:00:00,25.619651,85.147382,PM2.5,5,76,35
India,Bihar,Patna,"Samanpura, Patna - BSPCB",29-08-2025 13:00:00,25.596727,85.085624,PM2.5,31,66,46
India,Bihar,Patna,"Samanpura, Patna - BSPCB",29-08-2025 13:00:00,25.596727,85.085624,SO2,1,1,1
India,Bihar,Patna,"Samanpura, Patna - BSPCB",29-08-2025 13:00:00,25.596727,85.085624,CO,29,44,40
India,Bihar,Purnia,"Mariam Nagar, Purnia - BSPCB",29-08-2025 13:00:00,25.366336,87.117468,PM2.5,8,62,22
India,Bihar,Purnia,"Mariam Nagar, Purnia - BSPCB",29-08-2025 13:00:00,25.366336,87.117468,NO2,5,6,6
India,Bihar,Purnia,"Mariam Nagar, Purnia - BSPCB",29-08-2025 13:00:00,25.366336,87.117468,SO2,NA,NA,NA
India,Bihar,Purnia,"Mariam Nagar, Purnia - BSPCB",29-08-2025 13:00:00,25.366336,87.117468,CO,1,125,60
India,Bihar,Purnia,"Mariam Nagar, Purnia - BSPCB",29-08-2025 13:00:00,25.366336,87.117468,OZONE,16,32,22
India,Bihar,Saharsa,"Police Line, Saharsa - BSPCB",29-08-2025 13:00:00,25.892357,86.590325,PM10,27,113,63
India,Bihar,Samastipur,"DM Office_Kasipur, Samastipur - BSPCB",29-08-2025 13:00:00,25.859655,85.77944,NO2,1,2,1
India,Bihar,Samastipur,"DM Office_Kasipur, Samastipur - BSPCB",29-08-2025 13:00:00,25.859655,85.77944,NH3,2,2,2
India,Bihar,Samastipur,"DM Office_Kasipur, Samastipur - BSPCB",29-08-2025 13:00:00,25.859655,85.77944,SO2,8,30,23
India,Bihar,Sasaram,"Dada Peer, Sasaram - BSPCB",29-08-2025 13:00:00,24.952822,84.002396,SO2,1,6,4
India,Bihar,Siwan,"Chitragupta Nagar, Siwan - BSPCB",29-08-2025 13:00:00,26.2271665,84.3570427,NH3,1,1,1
India,Bihar,Siwan,"Chitragupta Nagar, Siwan - BSPCB",29-08-2025 13:00:00,26.2271665,84.3570427,OZONE,4,15,5
India,Chhattisgarh,Milupara,"Govt. Higher Secondary School, Milupara - CECB",29-08-2025 13:00:00,22.1910172,83.5197009,PM2.5,10,32,21
India,Chhattisgarh,Milupara,"Govt. Higher Secondary School, Milupara - CECB",29-08-2025 13:00:00,22.1910172,83.5197009,SO2,1,25,6
India,Chhattisgarh,Raipur,"AIIMS, Raipur - CECB",29-08-2025 13:00:00,21.258815,81.578979,PM10,4,39,15
India,Chhattisgarh,Raipur,"Bhatagaon New ISBT, Raipur - CECB",29-08-2025 13:00:00,21.219665,81.630094,PM2.5,2,20,8
India,Chhattisgarh,Raipur,"Bhatagaon New ISBT, Raipur - CECB",29-08-2025 13:00:00,21.219665,81.630094,SO2,5,6,5
India,Chhattisgarh,Raipur,"Krishak Nagar, Raipur - CECB",29-08-2025 13:00:00,21.237755,81.705301,SO2,3,9,7
India,Bihar,Manguraha,"Forest Rest House, Manguraha - BSPCB",29-08-2025 13:00:00,27.308328,84.531742,PM2.5,2,22,13
India,Bihar,Manguraha,"Forest Rest House, Manguraha - BSPCB",29-08-2025 13:00:00,27.308328,84.531742,PM10,14,125,28
India,Bihar,Manguraha,"Forest Rest House, Manguraha - BSPCB",29-08-2025 13:00:00,27.308328,84.531742,NO2,3,6,4
India,Bihar,Munger,"Town Hall, Munger - BSPCB",29-08-2025 13:00:00,25.376776,86.471523,CO,36,40,38
India,Bihar,Muzaffarpur,"Buddha Colony, Muzaffarpur - BSPCB",29-08-2025 13:00:00,26.11442,85.39813,NH3,2,4,3
India,Chhattisgarh,Bhilai,"32Bungalows, Bhilai - CECB",29-08-2025 13:00:00,21.194815,81.314770,SO2,5,8,7
India,Chandigarh,Chandigarh,"Sector 22, Chandigarh - CPCC",29-08-2025 13:00:00,30.735567,76.775714,SO2,1,6,3
India,Delhi,Delhi,"Okhla Phase-2, Delhi - DPCC",29-08-2025 13:00:00,28.530785,77.271255,PM10,31,131,95
India,Delhi,Delhi,"Okhla Phase-2, Delhi - DPCC",29-08-2025 13:00:00,28.530785,77.271255,SO2,4,7,5
India,Delhi,Delhi,"Okhla Phase-2, Delhi - DPCC",29-08-2025 13:00:00,28.530785,77.271255,CO,4,55,21
India,Delhi,Delhi,"Patparganj, Delhi - DPCC",29-08-2025 13:00:00,28.623763,77.287209,PM10,35,131,106
India,Delhi,Delhi,"Patparganj, Delhi - DPCC",29-08-2025 13:00:00,28.623763,77.287209,NO2,15,38,26
India,Delhi,Delhi,"Patparganj, Delhi - DPCC",29-08-2025 13:00:00,28.623763,77.287209,OZONE,12,37,13
India,Delhi,Delhi,"Punjabi Bagh, Delhi - DPCC",29-08-2025 13:00:00,28.674045,77.131023,PM2.5,18,200,80
India,Delhi,Delhi,"Punjabi Bagh, Delhi - DPCC",29-08-2025 13:00:00,28.674045,77.131023,PM10,41,133,98
India,Delhi,Delhi,"Punjabi Bagh, Delhi - DPCC",29-08-2025 13:00:00,28.674045,77.131023,SO2,43,83,65
India,Delhi,Delhi,"Punjabi Bagh, Delhi - DPCC",29-08-2025 13:00:00,28.674045,77.131023,CO,42,75,50
India,Delhi,Delhi,"Punjabi Bagh, Delhi - DPCC",29-08-2025 13:00:00,28.674045,77.131023,OZONE,2,35,11
India,Delhi,Delhi,"Pusa, Delhi - DPCC",29-08-2025 13:00:00,28.639652,77.146275,PM2.5,13,107,67
India,Delhi,Delhi,"Pusa, Delhi - DPCC",29-08-2025 13:00:00,28.639652,77.146275,OZONE,7,61,12
India,Delhi,Delhi,"IGI Airport (T3), Delhi - IMD",29-08-2025 13:00:00,28.5627763,77.1180053,OZONE,1,1,1
India,Delhi,Delhi,"IHBAS, Dilshad Garden, Delhi - CPCB",29-08-2025 13:00:00,28.6811736,77.3025234,PM10,59,90,78
India,Delhi,Delhi,"IHBAS, Dilshad Garden, Delhi - CPCB",29-08-2025 13:00:00,28.6811736,77.3025234,NO2,1,80,40
India,Delhi,Delhi,"ITO, Delhi - CPCB",29-08-2025 13:00:00,28.628624,77.241060,PM2.5,41,96,80
India,Delhi,Delhi,"ITO, Delhi - CPCB",29-08-2025 13:00:00,28.628624,77.241060,OZONE,12,14,13
India,Delhi,Delhi,"Jahangirpuri, Delhi - DPCC",29-08-2025 13:00:00,28.732820,77.170633,NH3,3,7,6
India,Delhi,Delhi,"Jahangirpuri, Delhi - DPCC",29-08-2025 13:00:00,28.732820,77.170633,CO,6,75,39
India,Delhi,Delhi,"Jahangirpuri, Delhi - DPCC",29-08-2025 13:00:00,28.732820,77.170633,OZONE,2,102,102
India,Delhi,Delhi,"Ashok Vihar, Delhi - DPCC",29-08-2025 13:00:00,28.695381,77.181665,OZONE,4,53,9
India,Delhi,Delhi,"Aya Nagar, Delhi - IMD",29-08-2025 13:00:00,28.4706914,77.1099364,PM2.5,22,86,57
India,Delhi,Delhi,"Aya Nagar, Delhi - IMD",29-08-2025 13:00:00,28.4706914,77.1099364,OZONE,2,60,27
India,Delhi,Delhi,"Bawana, Delhi - DPCC",29-08-2025 13:00:00,28.776200,77.051074,NH3,4,5,5
India,Delhi,Delhi,"Bawana, Delhi - DPCC",29-08-2025 13:00:00,28.776200,77.051074,SO2,3,5,4
India,Delhi,Delhi,"Burari Crossing, Delhi - IMD",29-08-2025 13:00:00,28.7256504,77.2011573,NO2,21,37,27
India,Delhi,Delhi,"CRRI Mathura Road, Delhi - IMD",29-08-2025 13:00:00,28.5512005,77.2735737,OZONE,14,51,17
India,Delhi,Delhi,"Major Dhyan Chand National Stadium, Delhi - DPCC",29-08-2025 13:00:00,28.611281,77.237738,PM2.5,65,140,97
India,Delhi,Delhi,"Major Dhyan Chand National Stadium, Delhi - DPCC",29-08-2025 13:00:00,28.611281,77.237738,PM10,58,103,83
India,Delhi,Delhi,"Mandir Marg, Delhi - DPCC",29-08-2025 13:00:00,28.636429,77.201067,PM2.5,45,180,98
India,Delhi,Delhi,"Mandir Marg, Delhi - DPCC",29-08-2025 13:00:00,28.636429,77.201067,PM10,24,129,90
India,Delhi,Delhi,"Mundka, Delhi - DPCC",29-08-2025 13:00:00,28.684678,77.076574,PM10,95,163,129
India,Delhi,Delhi,"NSIT Dwarka, Delhi - CPCB",29-08-2025 13:00:00,28.60909,77.0325413,PM10,54,98,87
India,Delhi,Delhi,"Pusa, Delhi - IMD",29-08-2025 13:00:00,28.636110,77.173332,PM10,14,433,82
India,Delhi,Delhi,"R K Puram, Delhi - DPCC",29-08-2025 13:00:00,28.563262,77.186937,NO2,16,45,26
India,Delhi,Delhi,"Rohini, Delhi - DPCC",29-08-2025 13:00:00,28.732528,77.119920,SO2,2,4,3
India,Delhi,Delhi,"Shadipur, Delhi - CPCB",29-08-2025 13:00:00,28.6514781,77.1473105,NO2,53,116,73
India,Delhi,Delhi,"Sirifort, Delhi - CPCB",29-08-2025 13:00:00,28.5504249,77.2159377,CO,8,40,17
India,Delhi,Delhi,"Sirifort, Delhi - CPCB",29-08-2025 13:00:00,28.5504249,77.2159377,OZONE,21,33,26
India,Delhi,Delhi,"Sonia Vihar, Delhi - DPCC",29-08-2025 13:00:00,28.710508,77.249485,SO2,14,18,16
India,Delhi,Delhi,"Vivek Vihar, Delhi - DPCC",29-08-2025 13:00:00,28.672342,77.315260,NH3,1,11,2
India,Delhi,Delhi,"Wazirpur, Delhi - DPCC",29-08-2025 13:00:00,28.699793,77.165453,PM10,109,252,140
India,Delhi,Delhi,"Wazirpur, Delhi - DPCC",29-08-2025 13:00:00,28.699793,77.165453,SO2,6,15,11
India,Delhi,Delhi,"Najafgarh, Delhi - DPCC",29-08-2025 13:00:00,28.570173,76.933762,SO2,5,7,6
India,Delhi,Delhi,"Narela, Delhi - DPCC",29-08-2025 13:00:00,28.822836,77.101981,NO2,8,40,20
India,Delhi,Delhi,"Narela, Delhi - DPCC",29-08-2025 13:00:00,28.822836,77.101981,NH3,2,13,5
India,Delhi,Delhi,"Narela, Delhi - DPCC",29-08-2025 13:00:00,28.822836,77.101981,SO2,2,8,6
India,Delhi,Delhi,"North Campus, DU, Delhi - IMD",29-08-2025 13:00:00,28.6573814,77.1585447,NO2,16,53,33
India,Delhi,Delhi,"North Campus, DU, Delhi - IMD",29-08-2025 13:00:00,28.6573814,77.1585447,CO,28,80,42
India,Delhi,Delhi,"Chandni Chowk, Delhi - IITM",29-08-2025 13:00:00,28.656756,77.227234,NO2,NA,NA,NA
India,Delhi,Delhi,"DTU, Delhi - CPCB",29-08-2025 13:00:00,28.7500499,77.1112615,CO,16,25,19
India,Delhi,Delhi,"DTU, Delhi - CPCB",29-08-2025 13:00:00,28.7500499,77.1112615,OZONE,26,35,27
India,Delhi,Delhi,"Dwarka-Sector 8, Delhi - DPCC ",29-08-2025 13:00:00,28.5710274,77.0719006,NH3,NA,NA,NA
India,Gujarat,Ahmedabad,"Chandkheda, Ahmedabad - IITM",29-08-2025 13:00:00,23.107969,72.574648,NH3,1,3,2
India,Jharkhand,Dhanbad,"Sardar Patel Nagar, Dhanbad - JSPCB",29-08-2025 13:00:00,23.80569,86.44268,PM2.5,NA,NA,NA
India,Jharkhand,Jorapokhar,"Tata Stadium, Jorapokhar - JSPCB",29-08-2025 13:00:00,23.707909,86.414670,CO,37,101,60
India,Jharkhand,Jorapokhar,"Tata Stadium, Jorapokhar - JSPCB",29-08-2025 13:00:00,23.707909,86.414670,OZONE,2,24,11
India,Karnataka,Bagalkot,"Vidayagiri, Bagalkot - KSPCB",29-08-2025 13:00:00,16.172806,75.659694,PM10,42,43,42
India,Karnataka,Belgaum,"Ramteerth Nagar, Belgaum - KSPCB",29-08-2025 13:00:00,15.888653,74.541751,OZONE,19,20,19
India,Karnataka,Bengaluru,"BTM Layout, Bengaluru - CPCB",29-08-2025 13:00:00,12.9135218,77.5950804,NH3,4,4,4
India,Karnataka,Bengaluru,"BTM Layout, Bengaluru - CPCB",29-08-2025 13:00:00,12.9135218,77.5950804,CO,12,24,22
India,Karnataka,Bengaluru,"Jigani, Bengaluru - KSPCB",29-08-2025 13:00:00,12.7816279,77.6299145,SO2,14,15,14
India,Karnataka,Bengaluru,"Peenya, Bengaluru - CPCB",29-08-2025 13:00:00,13.0270199,77.494094,NO2,18,23,21
India,Karnataka,Bengaluru,"Peenya, Bengaluru - CPCB",29-08-2025 13:00:00,13.0270199,77.494094,SO2,2,14,6
India,Karnataka,Bengaluru,"Shivapura_Peenya, Bengaluru - KSPCB",29-08-2025 13:00:00,13.0246342,77.5080115,PM2.5,36,56,47
India,Karnataka,Bengaluru,"Shivapura_Peenya, Bengaluru - KSPCB",29-08-2025 13:00:00,13.0246342,77.5080115,PM10,47,75,63
India,Karnataka,Bengaluru,"Shivapura_Peenya, Bengaluru - KSPCB",29-08-2025 13:00:00,13.0246342,77.5080115,NH3,4,4,4
India,Karnataka,Bengaluru,"Shivapura_Peenya, Bengaluru - KSPCB",29-08-2025 13:00:00,13.0246342,77.5080115,CO,26,33,30
India,Karnataka,Bengaluru,"Silk Board, Bengaluru - KSPCB",29-08-2025 13:00:00,12.917348,77.622813,PM10,12,159,62
India,Gujarat,Ahmedabad,"Chandkheda, Ahmedabad - IITM",29-08-2025 13:00:00,23.107969,72.574648,OZONE,2,31,5
India,Gujarat,Ahmedabad,"Gyaspur, Ahmedabad - IITM",29-08-2025 13:00:00,22.977134,72.553024,SO2,5,10,8
India,Gujarat,Ahmedabad,"Maninagar, Ahmedabad - GPCB",29-08-2025 13:00:00,23.002657,72.591912,PM2.5,18,192,59
India,Gujarat,Ahmedabad,"Raikhad, Ahmedabad - IITM",29-08-2025 13:00:00,23.020509,72.579261,NH3,2,3,2
India,Gujarat,Ahmedabad,"Rakhial, Ahmedabad - IITM",29-08-2025 13:00:00,23.016834,72.625775,NO2,18,39,24
India,Gujarat,Ahmedabad,"Rakhial, Ahmedabad - IITM",29-08-2025 13:00:00,23.016834,72.625775,CO,8,80,29
India,Karnataka,Dharwad,"Kalabhavan, Dharwad - KSPCB",29-08-2025 13:00:00,15.459706,75.008381,OZONE,14,22,18
India,Karnataka,Hubballi,"Lingaraj Nagar, Hubballi - KSPCB",29-08-2025 13:00:00,15.3714823,75.1160168,PM10,41,44,42
India,Karnataka,Kalaburagi,"Mahatma Basaveswar Colony, Kalaburgi - KSPCB",29-08-2025 13:00:00,17.336318,76.847397,PM10,16,45,25
India,Karnataka,Kalaburagi,"Mahatma Basaveswar Colony, Kalaburgi - KSPCB",29-08-2025 13:00:00,17.336318,76.847397,OZONE,10,13,13
India,Karnataka,Karwar,"KHB Colony, Karwar - KSPCB",29-08-2025 13:00:00,14.816666,74.141003,CO,7,9,8
India,Gujarat,Ahmedabad,"SAC ISRO Satellite, Ahmedabad - IITM",29-08-2025 13:00:00,23.023389,72.515201,PM10,21,90,54
India,Gujarat,Ahmedabad,"SAC ISRO Satellite, Ahmedabad - IITM",29-08-2025 13:00:00,23.023389,72.515201,SO2,3,6,4
India,Gujarat,Ahmedabad,"SVPI Airport Hansol, Ahmedabad - IITM",29-08-2025 13:00:00,23.076793,72.627874,OZONE,2,28,7
India,Gujarat,Ahmedabad,"Sardar Vallabhbhai Patel Stadium, Ahmedabad - IITM",29-08-2025 13:00:00,23.043070,72.562968,NH3,11,13,11
India,Gujarat,Ankleshwar,"GIDC, Ankleshwar - GPCB",29-08-2025 13:00:00,21.613267,73.010555,NO2,23,28,24
India,Gujarat,Vatva,"Phase-4 GIDC, Vatva - GPCB",29-08-2025 13:00:00,22.969611,72.643500,SO2,3,23,11
India,Haryana,Gurugram,"NISE Gwal Pahari, Gurugram - IMD",29-08-2025 13:00:00,28.422681,77.148944,PM2.5,39,114,68
India,Haryana,Panchgaon,"Amity University, Panchgaon - IITM",29-08-2025 13:00:00,28.3153,76.9143,PM2.5,16,329,90
India,Himachal Pradesh,Baddi,"HIMUDA Complex Phase-1, Baddi - HPPCB",29-08-2025 13:00:00,30.943887,76.801991,SO2,20,124,57
India,Gujarat,Gandhinagar,"GIFT City, Gandhinagar - IITM",29-08-2025 13:00:00,23.163798,72.677768,SO2,1,13,5
India,Gujarat,Gandhinagar,"IIPHG Lekawada, Gandhinagar - IITM",29-08-2025 13:00:00,23.243639,72.68994,PM2.5,10,62,36
India,Gujarat,Gandhinagar,"IIPHG Lekawada, Gandhinagar - IITM",29-08-2025 13:00:00,23.243639,72.68994,PM10,14,95,55
India,Gujarat,Surat,"Science Center, Surat - SMC",29-08-2025 13:00:00,21.170046,72.795405,CO,33,48,37
India,Gujarat,Vapi,"Phase-1 GIDC, Vapi - GPCB",29-08-2025 13:00:00,20.362421,72.918013,PM2.5,27,68,44
India,Karnataka,Bengaluru,"Silk Board, Bengaluru - KSPCB",29-08-2025 13:00:00,12.917348,77.622813,CO,26,44,35
India,Karnataka,Bengaluru,"Silk Board, Bengaluru - KSPCB",29-08-2025 13:00:00,12.917348,77.622813,OZONE,21,40,27
India,Karnataka,Bidar,"Naubad, Bidar - KSPCB",29-08-2025 13:00:00,17.930306,77.482194,CO,24,28,26
India,Karnataka,Davanagere,"Devaraj Urs Badavane, Davanagere - KSPCB",29-08-2025 13:00:00,14.475800,75.905200,SO2,3,7,4
India,Karnataka,Bengaluru,"Bapuji Nagar, Bengaluru - KSPCB",29-08-2025 13:00:00,12.951913,77.539784,OZONE,2,34,10
India,Karnataka,Bengaluru,"Hombegowda Nagar, Bengaluru - KSPCB",29-08-2025 13:00:00,12.938539,77.590100,SO2,6,13,9
India,Karnataka,Bengaluru,"Jigani, Bengaluru - KSPCB",29-08-2025 13:00:00,12.7816279,77.6299145,PM2.5,32,36,33
India,Karnataka,Madikeri,"Stuart Hill, Madikeri - KSPCB",29-08-2025 13:00:00,12.415911,75.735050,PM10,9,27,17
India,Karnataka,Madikeri,"Stuart Hill, Madikeri - KSPCB",29-08-2025 13:00:00,12.415911,75.735050,SO2,7,7,7
India,Karnataka,Mangalore,"Kadri, Mangalore - KSPCB",29-08-2025 13:00:00,12.889250,74.853000,NH3,2,3,2
India,Karnataka,Mangalore,"Kadri, Mangalore - KSPCB",29-08-2025 13:00:00,12.889250,74.853000,SO2,6,7,7
India,Karnataka,Mysuru,"Hebbal 1st Stage, Mysuru - KSPCB",29-08-2025 13:00:00,12.21041,76.37376,PM2.5,7,23,14
India,Karnataka,Mysuru,"Hebbal 1st Stage, Mysuru - KSPCB",29-08-2025 13:00:00,12.21041,76.37376,OZONE,6,46,21
India,Karnataka,Ramanagara,"Vijay Nagar, Ramanagara - KSPCB",29-08-2025 13:00:00,12.733409,77.298051,PM10,8,26,15
India,Karnataka,Ramanagara,"Vijay Nagar, Ramanagara - KSPCB",29-08-2025 13:00:00,12.733409,77.298051,NH3,1,2,2
India,Karnataka,Ramanagara,"Vijay Nagar, Ramanagara - KSPCB",29-08-2025 13:00:00,12.733409,77.298051,CO,14,35,20
India,Karnataka,Shivamogga,"Vinoba Nagara, Shivamogga - KSPCB",29-08-2025 13:00:00,13.940000,75.555917,PM10,48,51,49
India,Karnataka,Shivamogga,"Vinoba Nagara, Shivamogga - KSPCB",29-08-2025 13:00:00,13.940000,75.555917,OZONE,37,51,47
India,Karnataka,Tumakuru,"Thimmalapura, Tumakuru - KSPCB",29-08-2025 13:00:00,13.377516,77.099072,PM10,NA,NA,NA
India,Karnataka,Vijayapura,"Ibrahimpur, Vijayapura - KSPCB",29-08-2025 13:00:00,16.802639,75.722694,NO2,9,10,9
India,Karnataka,Vijayapura,"Ibrahimpur, Vijayapura - KSPCB",29-08-2025 13:00:00,16.802639,75.722694,OZONE,14,17,16
India,Karnataka,Yadgir,"Collector Office, Yadgir - KSPCB",29-08-2025 13:00:00,16.7602,77.1428,PM2.5,5,22,12
India,Karnataka,Yadgir,"Collector Office, Yadgir - KSPCB",29-08-2025 13:00:00,16.7602,77.1428,OZONE,NA,NA,NA
India,Kerala,Eloor,"Udyogamandal, Eloor - Kerala PCB",29-08-2025 13:00:00,10.073232,76.302765,CO,20,138,107
India,Madhya Pradesh,Bhopal,"Idgah Hills, Bhopal - MPPCB",29-08-2025 13:00:00,23.264759,77.381568,CO,14,76,19
India,Madhya Pradesh,Bhopal,"Paryavaran Parisar, Bhopal - MPPCB",29-08-2025 13:00:00,23.210494,77.425409,PM2.5,23,68,40
India,Madhya Pradesh,Bhopal,"Paryavaran Parisar, Bhopal - MPPCB",29-08-2025 13:00:00,23.210494,77.425409,PM10,24,75,44
India,Madhya Pradesh,Bhopal,"Paryavaran Parisar, Bhopal - MPPCB",29-08-2025 13:00:00,23.210494,77.425409,NH3,3,4,3
India,Madhya Pradesh,Bhopal,"Paryavaran Parisar, Bhopal - MPPCB",29-08-2025 13:00:00,23.210494,77.425409,CO,2,56,21
India,Madhya Pradesh,Bhopal,"T T Nagar, Bhopal - MPPCB",29-08-2025 13:00:00,23.233584,77.400574,PM2.5,21,65,39
India,Madhya Pradesh,Bhopal,"T T Nagar, Bhopal - MPPCB",29-08-2025 13:00:00,23.233584,77.400574,NH3,5,6,6
India,Madhya Pradesh,Bhopal,"T T Nagar, Bhopal - MPPCB",29-08-2025 13:00:00,23.233584,77.400574,SO2,17,36,26
India,Madhya Pradesh,Dewas,"Bhopal Chauraha, Dewas - MPPCB",29-08-2025 13:00:00,22.9682591,76.064118,NH3,2,3,2
India,Maharashtra,Ahmednagar,"Tarakpur, Ahmednagar - MPCB",29-08-2025 13:00:00,19.10122,74.73339,CO,14,55,35
India,Maharashtra,Akola,"Ramdaspeth, Akola - MPCB",29-08-2025 13:00:00,20.719516,77.000253,PM10,15,34,23
India,Maharashtra,Akola,"Ramdaspeth, Akola - MPCB",29-08-2025 13:00:00,20.719516,77.000253,NH3,6,8,7
India,Maharashtra,Akola,"Ramdaspeth, Akola - MPCB",29-08-2025 13:00:00,20.719516,77.000253,OZONE,6,36,11
India,Maharashtra,Amravati,"Shivneri Colony, Amravati - MPCB",29-08-2025 13:00:00,20.9402359,77.7895248,CO,10,28,16
India,Maharashtra,Amravati,"Shri Shivaji Science College, Amravati - MPCB",29-08-2025 13:00:00,20.939198,77.765701,PM10,13,41,23
India,Maharashtra,Aurangabad,"MIDC Chilkalthana, Aurangabad - MPCB",29-08-2025 13:00:00,19.875620,75.387310,CO,6,14,10
India,Kerala,Kannur,"Thavakkara, Kannur - Kerala PCB",29-08-2025 13:00:00,11.875000,75.373200,PM10,NA,NA,NA
India,Kerala,Kannur,"Thavakkara, Kannur - Kerala PCB",29-08-2025 13:00:00,11.875000,75.373200,NH3,NA,NA,NA
India,Kerala,Kollam,"Polayathode, Kollam - Kerala PCB",29-08-2025 13:00:00,8.8787,76.6073,NO2,8,9,9
India,Kerala,Kollam,"Polayathode, Kollam - Kerala PCB",29-08-2025 13:00:00,8.8787,76.6073,OZONE,29,33,30
India,Kerala,Thiruvananthapuram,"Plammoodu, Thiruvananthapuram - Kerala PCB",29-08-2025 13:00:00,8.5149093,76.9435879,PM2.5,2,58,15
India,Kerala,Thiruvananthapuram,"Plammoodu, Thiruvananthapuram - Kerala PCB",29-08-2025 13:00:00,8.5149093,76.9435879,NO2,54,93,73
India,Kerala,Thiruvananthapuram,"Plammoodu, Thiruvananthapuram - Kerala PCB",29-08-2025 13:00:00,8.5149093,76.9435879,SO2,11,23,16
India,Kerala,Thrissur,"Corporation Ground, Thrissur - Kerala PCB",29-08-2025 13:00:00,10.532400,76.215900,NO2,7,10,8
India,Madhya Pradesh,Indore,"Maguda Nagar, Indore - IMC",29-08-2025 13:00:00,22.7524,75.8872,NO2,1,2,2
India,Madhya Pradesh,Indore,"Maguda Nagar, Indore - IMC",29-08-2025 13:00:00,22.7524,75.8872,OZONE,7,10,8
India,Madhya Pradesh,Indore,"Regional Park, Indore - IMC",29-08-2025 13:00:00,22.6780,75.8559,PM10,8,33,19
India,Madhya Pradesh,Indore,"Regional Park, Indore - IMC",29-08-2025 13:00:00,22.6780,75.8559,NH3,NA,NA,NA
India,Madhya Pradesh,Indore,"Regional Park, Indore - IMC",29-08-2025 13:00:00,22.6780,75.8559,CO,19,24,20
India,Madhya Pradesh,Jabalpur,"Govindh Bhavan Colony, Jabalpur - JMC",29-08-2025 13:00:00,23.163174,79.973061,PM2.5,20,45,29
India,Madhya Pradesh,Jabalpur,"Gupteshwar, Jabalpur - JMC",29-08-2025 13:00:00,23.142888,79.916147,CO,7,30,11
India,Madhya Pradesh,Sagar,"Civil Lines, Sagar - MPPCB",29-08-2025 13:00:00,23.838586,78.759431,PM10,76,199,118
India,Madhya Pradesh,Sagar,"Civil Lines, Sagar - MPPCB",29-08-2025 13:00:00,23.838586,78.759431,SO2,10,16,12
India,Madhya Pradesh,Singrauli,"Suryakiran Bhawan NCL, Singrauli - MPPCB",29-08-2025 13:00:00,24.108970,82.645580,PM2.5,52,116,73
India,Madhya Pradesh,Singrauli,"Suryakiran Bhawan NCL, Singrauli - MPPCB",29-08-2025 13:00:00,24.108970,82.645580,NO2,21,37,28
India,Madhya Pradesh,Singrauli,"Suryakiran Bhawan NCL, Singrauli - MPPCB",29-08-2025 13:00:00,24.108970,82.645580,OZONE,13,36,22
India,Maharashtra,Ahmednagar,"Tarakpur, Ahmednagar - MPCB",29-08-2025 13:00:00,19.10122,74.73339,PM10,7,54,25
India,Madhya Pradesh,Jabalpur,"Suhagi, Jabalpur - JMC",29-08-2025 13:00:00,23.218135,79.957770,PM2.5,27,143,59
India,Madhya Pradesh,Jabalpur,"Suhagi, Jabalpur - JMC",29-08-2025 13:00:00,23.218135,79.957770,PM10,38,117,65
India,Madhya Pradesh,Katni,"Gole Bazar, Katni - MPPCB",29-08-2025 13:00:00,23.50016,80.23284,PM2.5,20,55,33
India,Madhya Pradesh,Katni,"Gole Bazar, Katni - MPPCB",29-08-2025 13:00:00,23.50016,80.23284,OZONE,17,79,31
India,Madhya Pradesh,Mandideep,"Sector-D Industrial Area, Mandideep - MPPCB",29-08-2025 13:00:00,23.108440,77.511428,PM10,71,153,104
India,Madhya Pradesh,Mandideep,"Sector-D Industrial Area, Mandideep - MPPCB",29-08-2025 13:00:00,23.108440,77.511428,NH3,2,3,3
India,Madhya Pradesh,Gwalior,"City Center, Gwalior - MPPCB",29-08-2025 13:00:00,26.203442,78.193251,NO2,7,7,7
India,Madhya Pradesh,Gwalior,"Deen Dayal Nagar, Gwalior - MPPCB",29-08-2025 13:00:00,26.259242,78.216432,CO,10,45,15
India,Madhya Pradesh,Indore,"Chhoti Gwaltoli, Indore - MPPCB",29-08-2025 13:00:00,22.4310,75.5213,SO2,8,12,10
India,Maharashtra,Mumbai,"Bandra Kurla Complex, Mumbai - MPCB",29-08-2025 13:00:00,19.065931,72.862131,SO2,2,5,4
India,Maharashtra,Mumbai,"Borivali East, Mumbai - IITM",29-08-2025 13:00:00,19.23241,72.86895,PM2.5,20,52,30
India,Maharashtra,Mumbai,"Borivali East, Mumbai - IITM",29-08-2025 13:00:00,19.23241,72.86895,OZONE,2,13,6
India,Maharashtra,Mumbai,"Borivali East, Mumbai - MPCB",29-08-2025 13:00:00,19.2243333,72.8658113,PM10,18,39,30
India,Maharashtra,Mumbai,"Borivali East, Mumbai - MPCB",29-08-2025 13:00:00,19.2243333,72.8658113,NO2,1,10,3
India,Maharashtra,Mumbai,"Byculla, Mumbai - BMC",29-08-2025 13:00:00,18.9767,72.8380,CO,12,30,14
India,Maharashtra,Mumbai,"Chakala-Andheri East, Mumbai - IITM",29-08-2025 13:00:00,19.11074,72.86084,PM10,34,75,57
India,Maharashtra,Mumbai,"Chakala-Andheri East, Mumbai - IITM",29-08-2025 13:00:00,19.11074,72.86084,NO2,6,11,8
India,Maharashtra,Bhiwandi,"Gokul Nagar, Bhiwandi - MPCB",29-08-2025 13:00:00,19.309073,73.057223,OZONE,14,36,16
India,Maharashtra,Boisar,"Khaira, Boisar - MPCB",29-08-2025 13:00:00,19.786089,72.757971,SO2,15,16,15
India,Maharashtra,Chandrapur,"Chauhan Colony, Chandrapur - MPCB",29-08-2025 13:00:00,19.962900,79.298714,PM2.5,7,68,33
India,Maharashtra,Chandrapur,"MIDC Khutala, Chandrapur - MPCB",29-08-2025 13:00:00,19.9775302,79.2337086,NO2,2,16,10
India,Maharashtra,Chandrapur,"MIDC Khutala, Chandrapur - MPCB",29-08-2025 13:00:00,19.9775302,79.2337086,OZONE,8,50,25
India,Maharashtra,Dhule,"Deopur, Dhule - MPCB",29-08-2025 13:00:00,20.918946,74.776388,NH3,NA,NA,NA
India,Maharashtra,Dhule,"Deopur, Dhule - MPCB",29-08-2025 13:00:00,20.918946,74.776388,SO2,NA,NA,NA
India,Maharashtra,Mumbai,"Chembur, Mumbai - MPCB",29-08-2025 13:00:00,19.0364585,72.8954371,PM2.5,7,48,24
India,Maharashtra,Mumbai,"Chembur, Mumbai - MPCB",29-08-2025 13:00:00,19.0364585,72.8954371,CO,24,52,30
India,Maharashtra,Mumbai,"Chhatrapati Shivaji Intl. Airport (T2), Mumbai - MPCB",29-08-2025 13:00:00,19.10078,72.87462,NO2,29,37,33
India,Maharashtra,Mumbai,"Colaba, Mumbai - MPCB",29-08-2025 13:00:00,18.910000,72.820000,CO,22,23,22
India,Maharashtra,Mumbai,"Deonar, Mumbai - IITM",29-08-2025 13:00:00,19.04946,72.9230,PM2.5,12,66,28
India,Maharashtra,Mumbai,"Deonar, Mumbai - IITM",29-08-2025 13:00:00,19.04946,72.9230,NO2,9,20,14
India,Maharashtra,Mumbai,"Deonar, Mumbai - IITM",29-08-2025 13:00:00,19.04946,72.9230,NH3,6,8,7
India,Maharashtra,Mumbai,"Kurla, Mumbai - MPCB",29-08-2025 13:00:00,19.0863,72.8888,CO,2,9,6
India,Maharashtra,Mumbai,"Malad West, Mumbai - IITM",29-08-2025 13:00:00,19.19709,72.82204,PM2.5,6,64,35
India,Maharashtra,Mumbai,"Mazgaon, Mumbai - IITM",29-08-2025 13:00:00,18.96702,72.84214,PM10,29,101,58
India,Maharashtra,Mumbai,"Mazgaon, Mumbai - IITM",29-08-2025 13:00:00,18.96702,72.84214,NH3,8,14,10
India,Maharashtra,Mumbai,"Mazgaon, Mumbai - IITM",29-08-2025 13:00:00,18.96702,72.84214,SO2,1,6,2
India,Maharashtra,Mumbai,"Mindspace-Malad West, Mumbai - MPCB",29-08-2025 13:00:00,19.1878657,72.8304069,NO2,15,16,15
India,Maharashtra,Mumbai,"Mindspace-Malad West, Mumbai - MPCB",29-08-2025 13:00:00,19.1878657,72.8304069,NH3,5,6,5
India,Maharashtra,Jalgaon,"Prabhat Colony, Jalgaon - MPCB",29-08-2025 13:00:00,21.001264,75.565602,CO,6,30,8
India,Maharashtra,Jalna,"Old MIDC, Jalna - MPCB",29-08-2025 13:00:00,19.854616,75.905894,OZONE,8,34,12
India,Maharashtra,Kolhapur,"Shivaji University, Kolhapur - MPCB",29-08-2025 13:00:00,16.6870449,74.2505872,PM10,28,34,30
India,Maharashtra,Kolhapur,"Sinchan Bhavan, Kolhapur - MPCB",29-08-2025 13:00:00,16.7143745,74.2426398,NH3,5,6,5
