country,state,city,station,last_update,latitude,longitude,pollutant_id,min_value,max_value,avg_value
India,Andhra_Pradesh,Vijayawada,"HB Colony, Vijayawada - APPCB",23-12-2025 08:00:00,16.536107,80.594233,OZONE,11,39,14
India,Andhra_Pradesh,Vijayawada,"Kanuru, Vijayawada - APPCB",23-12-2025 08:00:00,16.486692,80.699436,NH3,2,3,3
India,Andhra_Pradesh,Vijayawada,"Rajiv Gandhi Park, Vijayawada - APPCB",23-12-2025 08:00:00,16.509717,80.612222,CO,24,32,24
India,Andhra_Pradesh,Vijayawada,"Rajiv Nagar, Vijayawada - APPCB",23-12-2025 08:00:00,16.554731,80.649110,PM10,48,67,55
India,Andhra_Pradesh,Vijayawada,"Rajiv Nagar, Vijayawada - APPCB",23-12-2025 08:00:00,16.554731,80.649110,CO,24,32,27
India,Andhra_Pradesh,Visakhapatnam,"GVM Corporation, Visakhapatnam - APPCB",23-12-2025 08:00:00,17.72,83.3,PM2.5,238,348,303
India,Andhra_Pradesh,Visakhapatnam,"GVM Corporation, Visakhapatnam - APPCB",23-12-2025 08:00:00,17.72,83.3,PM10,159,407,241
India,Andhra_Pradesh,Rajamahendravaram,"Anand Kala Kshetram, Rajamahendravaram - APPCB",23-12-2025 08:00:00,16.9872867,81.7363176,PM2.5,162,305,231
India,Andhra_Pradesh,Rajamahendravaram,"Anand Kala Kshetram, Rajamahendravaram - APPCB",23-12-2025 08:00:00,16.9872867,81.7363176,PM10,122,179,151
India,Andhra_Pradesh,Rajamahendravaram,"Anand Kala Kshetram, Rajamahendravaram - APPCB",23-12-2025 08:00:00,16.9872867,81.7363176,NH3,3,6,4
India,Andhra_Pradesh,Tirumala,"Toll Gate, Tirumala - APPCB",23-12-2025 08:00:00,13.67,79.35,PM10,76,127,97
India,Andhra_Pradesh,Tirumala,"Toll Gate, Tirumala - APPCB",23-12-2025 08:00:00,13.67,79.35,SO2,6,9,7
India,Andhra_Pradesh,Tirumala,"Toll Gate, Tirumala - APPCB",23-12-2025 08:00:00,13.67,79.35,OZONE,16,137,26
India,Andhra_Pradesh,Chittoor,"Gangineni Cheruvu, Chittoor - APPCB",23-12-2025 08:00:00,13.204880,79.097889,PM10,3,139,92
India,Andhra_Pradesh,Chittoor,"Gangineni Cheruvu, Chittoor - APPCB",23-12-2025 08:00:00,13.204880,79.097889,NO2,40,43,41
India,Andhra_Pradesh,Chittoor,"Gangineni Cheruvu, Chittoor - APPCB",23-12-2025 08:00:00,13.204880,79.097889,SO2,6,33,15
India,Andhra_Pradesh,Kadapa,"Yerramukkapalli, Kadapa - APPCB",23-12-2025 08:00:00,14.465052,78.824187,NH3,3,3,3
India,Andhra_Pradesh,Kadapa,"Yerramukkapalli, Kadapa - APPCB",23-12-2025 08:00:00,14.465052,78.824187,SO2,11,14,14
India,Andhra_Pradesh,Kadapa,"Yerramukkapalli, Kadapa - APPCB",23-12-2025 08:00:00,14.465052,78.824187,CO,32,41,34
India,Andaman and Nicobar,Sri Vijaya Puram,"Police Line, Sri Vijaya Puram - ANPCC",23-12-2025 08:00:00,11.654054,92.734055,NH3,NA,NA,NA
India,Andaman and Nicobar,Sri Vijaya Puram,"Police Line, Sri Vijaya Puram - ANPCC",23-12-2025 08:00:00,11.654054,92.734055,SO2,NA,NA,NA
India,Andhra_Pradesh,Chittoor,"Gangineni Cheruvu, Chittoor - APPCB",23-12-2025 08:00:00,13.204880,79.097889,OZONE,47,56,52
India,Andhra_Pradesh,Vijayawada,"HB Colony, Vijayawada - APPCB",23-12-2025 08:00:00,16.536107,80.594233,PM10,51,121,77
India,Andhra_Pradesh,Tirupati,"Vaikuntapuram, Tirupati - APPCB",23-12-2025 08:00:00,13.615387,79.409230,NH3,4,4,4
India,Andhra_Pradesh,Anantapur,"Gulzarpet, Anantapur - APPCB",23-12-2025 08:00:00,14.675886,77.593027,SO2,16,16,16
India,Andhra_Pradesh,Anantapur,"Gulzarpet, Anantapur - APPCB",23-12-2025 08:00:00,14.675886,77.593027,NH3,6,6,6
India,Bihar,Aurangabad,"Gurdeo Nagar, Aurangabad - BSPCB",23-12-2025 08:00:00,24.75746,84.366208,PM10,125,217,165
India,Bihar,Aurangabad,"Gurdeo Nagar, Aurangabad - BSPCB",23-12-2025 08:00:00,24.75746,84.366208,CO,101,103,102
India,Bihar,Begusarai,"Lohiyanagar, Begusarai - BSPCB",23-12-2025 08:00:00,25.42742023,86.13886079,NO2,10,18,13
India,Bihar,Begusarai,"Lohiyanagar, Begusarai - BSPCB",23-12-2025 08:00:00,25.42742023,86.13886079,SO2,53,66,60
India,Bihar,Bettiah,"Kamalnath Nagar, Bettiah - BSPCB",23-12-2025 08:00:00,26.80365,84.51954,PM2.5,12,358,137
India,Bihar,Bettiah,"Kamalnath Nagar, Bettiah - BSPCB",23-12-2025 08:00:00,26.80365,84.51954,NO2,8,9,8
India,Bihar,Bettiah,"Kamalnath Nagar, Bettiah - BSPCB",23-12-2025 08:00:00,26.80365,84.51954,CO,51,115,78
India,Bihar,Bhagalpur,"DM Office_Kachari Chowk, Bhagalpur - BSPCB",23-12-2025 08:00:00,25.251013,86.989001,NO2,6,13,9
India,Bihar,Bhagalpur,"Mayaganj, Bhagalpur - BSPCB",23-12-2025 08:00:00,25.265194,87.012947,NO2,7,8,7
India,Bihar,Bihar Sharif,"D M Colony, Bihar Sharif - BSPCB",23-12-2025 08:00:00,25.204762,85.514960,NO2,9,10,10
India,Bihar,Bihar Sharif,"D M Colony, Bihar Sharif - BSPCB",23-12-2025 08:00:00,25.204762,85.514960,CO,NA,NA,NA
India,Bihar,Bihar Sharif,"D M Colony, Bihar Sharif - BSPCB",23-12-2025 08:00:00,25.204762,85.514960,OZONE,1,33,4
India,Bihar,Buxar,"Charitra Van, Buxar - BSPCB",23-12-2025 08:00:00,25.567520,83.966379,NH3,3,3,3
India,Bihar,Chhapra,"Darshan Nagar, Chhapra - BSPCB",23-12-2025 08:00:00,25.7808257,84.7446768,PM2.5,NA,NA,NA
India,Bihar,Chhapra,"Darshan Nagar, Chhapra - BSPCB",23-12-2025 08:00:00,25.7808257,84.7446768,NH3,NA,NA,NA
India,Bihar,Gaya,"Collectorate, Gaya - BSPCB",23-12-2025 08:00:00,24.7955,84.9994,PM2.5,102,323,202
India,Bihar,Patna,"Govt. High School Shikarpur, Patna - BSPCB",23-12-2025 08:00:00,25.592539,85.227158,PM2.5,144,313,238
India,Bihar,Patna,"IGSC Planetarium Complex, Patna - BSPCB",23-12-2025 08:00:00,25.610369,85.132568,OZONE,28,30,29
India,Bihar,Patna,"Muradpur, Patna - BSPCB",23-12-2025 08:00:00,25.619651,85.147382,NH3,4,5,4
India,Bihar,Patna,"Muradpur, Patna - BSPCB",23-12-2025 08:00:00,25.619651,85.147382,CO,33,76,50
India,Bihar,Patna,"Rajbansi Nagar, Patna - BSPCB",23-12-2025 08:00:00,25.599486,85.113666,NH3,2,10,7
India,Bihar,Patna,"Rajbansi Nagar, Patna - BSPCB",23-12-2025 08:00:00,25.599486,85.113666,SO2,5,7,6
India,Arunachal_Pradesh,Naharlagun,"Naharlagun, Naharlagun - APSPCB",23-12-2025 08:00:00,27.103358,93.679645,NH3,1,1,1
India,Assam,Guwahati,"LGBI Airport, Guwahati - PCBA",23-12-2025 08:00:00,26.10887,91.589544,PM2.5,64,149,96
India,Assam,Guwahati,"LGBI Airport, Guwahati - PCBA",23-12-2025 08:00:00,26.10887,91.589544,PM10,87,151,118
India,Assam,Guwahati,"LGBI Airport, Guwahati - PCBA",23-12-2025 08:00:00,26.10887,91.589544,NO2,12,19,15
India,Assam,Guwahati,"Pan Bazaar, Guwahati - PCBA",23-12-2025 08:00:00,26.187500,91.744194,PM2.5,1,1,1
India,Assam,Nagaon,"Christianpatty, Nagaon - PCBA",23-12-2025 08:00:00,26.349082,92.68449,SO2,9,14,13
India,Assam,Nagaon,"Christianpatty, Nagaon - PCBA",23-12-2025 08:00:00,26.349082,92.68449,CO,10,24,24
India,Assam,Nalbari,"Bata Chowk, Nalbari - PCBA",23-12-2025 08:00:00,26.446912,91.439057,PM10,93,124,113
India,Assam,Nalbari,"Bata Chowk, Nalbari - PCBA",23-12-2025 08:00:00,26.446912,91.439057,NH3,6,7,6
India,Assam,Silchar,"Tarapur, Silchar - PCBA",23-12-2025 08:00:00,24.82827,92.79525,PM2.5,31,82,55
India,Bihar,Gaya,"Collectorate, Gaya - BSPCB",23-12-2025 08:00:00,24.7955,84.9994,NO2,9,9,9
India,Bihar,Gaya,"Kareemganj, Gaya - BSPCB",23-12-2025 08:00:00,24.792403,84.992416,PM2.5,58,283,125
India,Bihar,Gaya,"Kareemganj, Gaya - BSPCB",23-12-2025 08:00:00,24.792403,84.992416,OZONE,1,13,2
India,Bihar,Gaya,"SFTI Kusdihra, Gaya - BSPCB",23-12-2025 08:00:00,24.762518,84.982348,PM10,79,118,103
India,Bihar,Gaya,"SFTI Kusdihra, Gaya - BSPCB",23-12-2025 08:00:00,24.762518,84.982348,OZONE,10,35,13
India,Bihar,Katihar,"Mirchaibari, Katihar - BSPCB",23-12-2025 08:00:00,25.560083,87.553265,CO,62,87,81
India,Bihar,Manguraha,"Forest Rest House, Manguraha - BSPCB",23-12-2025 08:00:00,27.308328,84.531742,NH3,1,1,1
India,Bihar,Manguraha,"Forest Rest House, Manguraha - BSPCB",23-12-2025 08:00:00,27.308328,84.531742,SO2,16,17,17
India,Bihar,Manguraha,"Forest Rest House, Manguraha - BSPCB",23-12-2025 08:00:00,27.308328,84.531742,CO,32,34,32
India,Bihar,Araria,"Kharahiya Basti, Araria - BSPCB",23-12-2025 08:00:00,26.146529,87.454184,SO2,17,40,31
India,Bihar,Arrah,"New DM Office, Arrah - BSPCB",23-12-2025 08:00:00,25.5626095,84.663264,NH3,1,1,1
India,Bihar,Arrah,"New DM Office, Arrah - BSPCB",23-12-2025 08:00:00,25.5626095,84.663264,OZONE,7,8,8
India,Bihar,Muzaffarpur,"Buddha Colony, Muzaffarpur - BSPCB",23-12-2025 08:00:00,26.11442,85.39813,CO,40,103,60
India,Bihar,Muzaffarpur,"MIT-Daudpur Kothi, Muzaffarpur - BSPCB",23-12-2025 08:00:00,26.1403345,85.3650192,CO,40,66,40
India,Bihar,Muzaffarpur,"MIT-Daudpur Kothi, Muzaffarpur - BSPCB",23-12-2025 08:00:00,26.1403345,85.3650192,OZONE,9,59,11
India,Bihar,Samastipur,"DM Office_Kasipur, Samastipur - BSPCB",23-12-2025 08:00:00,25.859655,85.77944,SO2,NA,NA,NA
India,Bihar,Sasaram,"Dada Peer, Sasaram - BSPCB",23-12-2025 08:00:00,24.952822,84.002396,PM10,92,196,135
India,Bihar,Siwan,"Chitragupta Nagar, Siwan - BSPCB",23-12-2025 08:00:00,26.2271665,84.3570427,PM10,94,118,109
India,Chandigarh,Chandigarh,"Sector 22, Chandigarh - CPCC",23-12-2025 08:00:00,30.735567,76.775714,NO2,32,145,70
India,Chandigarh,Chandigarh,"Sector 22, Chandigarh - CPCC",23-12-2025 08:00:00,30.735567,76.775714,CO,48,122,66
India,Chandigarh,Chandigarh,"Sector-25, Chandigarh - CPCC",23-12-2025 08:00:00,30.751462,76.762879,PM10,95,158,131
India,Delhi,Delhi,"Dr. Karni Singh Shooting Range, Delhi - DPCC",23-12-2025 08:00:00,28.498571,77.264840,NO2,17,86,50
India,Delhi,Delhi,"Dwarka-Sector 8, Delhi - DPCC ",23-12-2025 08:00:00,28.5710274,77.0719006,NO2,44,186,87
India,Delhi,Delhi,"IGI Airport (T3), Delhi - IMD",23-12-2025 08:00:00,28.5627763,77.1180053,PM2.5,300,491,378
India,Delhi,Delhi,"IHBAS, Dilshad Garden, Delhi - CPCB",23-12-2025 08:00:00,28.6811736,77.3025234,NO2,67,122,95
India,Delhi,Delhi,"IIT Delhi, Delhi - IITM",23-12-2025 08:00:00,28.542460,77.191651,PM10,194,416,343
India,Delhi,Delhi,"IIT Delhi, Delhi - IITM",23-12-2025 08:00:00,28.542460,77.191651,OZONE,1,46,1
India,Chhattisgarh,Raipur,"Krishak Nagar, Raipur - CECB",23-12-2025 08:00:00,21.237755,81.705301,NO2,24,29,27
India,Chhattisgarh,Raipur,"Krishak Nagar, Raipur - CECB",23-12-2025 08:00:00,21.237755,81.705301,NH3,2,2,2
India,Chhattisgarh,Raipur,"Siltara Phase-II, Raipur - CECB",23-12-2025 08:00:00,21.371751,81.664929,OZONE,3,9,3
India,Chhattisgarh,Tumidih,"OP Jindal Industrial Park, Tumidih - CECB",23-12-2025 08:00:00,22.06631475,83.33820077,NO2,52,99,70
India,Delhi,Delhi,"Alipur, Delhi - DPCC",23-12-2025 08:00:00,28.815329,77.153010,PM10,141,490,386
India,Delhi,Delhi,"Alipur, Delhi - DPCC",23-12-2025 08:00:00,28.815329,77.153010,SO2,6,11,8
India,Delhi,Delhi,"Bawana, Delhi - DPCC",23-12-2025 08:00:00,28.776200,77.051074,OZONE,2,97,3
India,Delhi,Delhi,"Burari Crossing, Delhi - IMD",23-12-2025 08:00:00,28.7256504,77.2011573,OZONE,11,96,12
India,Delhi,Delhi,"CRRI Mathura Road, Delhi - IMD",23-12-2025 08:00:00,28.5512005,77.2735737,PM10,172,462,342
India,Delhi,Delhi,"CRRI Mathura Road, Delhi - IMD",23-12-2025 08:00:00,28.5512005,77.2735737,OZONE,10,86,13
India,Delhi,Delhi,"Chandni Chowk, Delhi - IITM",23-12-2025 08:00:00,28.656756,77.227234,NH3,8,21,14
India,Delhi,Delhi,"Chandni Chowk, Delhi - IITM",23-12-2025 08:00:00,28.656756,77.227234,SO2,11,46,26
India,Chandigarh,Chandigarh,"Sector-53, Chandigarh - CPCC",23-12-2025 08:00:00,30.719859,76.738637,SO2,7,26,13
India,Chandigarh,Chandigarh,"Sector-53, Chandigarh - CPCC",23-12-2025 08:00:00,30.719859,76.738637,OZONE,1,98,40
India,Chhattisgarh,Bhilai,"32Bungalows, Bhilai - CECB",23-12-2025 08:00:00,21.194815,81.314770,CO,24,108,63
India,Chhattisgarh,Bhilai,"Civic Center, Bhilai - Bhilai Steel Plant",23-12-2025 08:00:00,21.185571,81.343175,NO2,18,20,18
India,Chhattisgarh,Bhilai,"Civic Center, Bhilai - Bhilai Steel Plant",23-12-2025 08:00:00,21.185571,81.343175,CO,21,22,22
India,Chhattisgarh,Bilaspur,"Mangala, Bilaspur - NTPC",23-12-2025 08:00:00,22.08815,82.13737,PM10,77,151,115
India,Chhattisgarh,Chhal,"Nawapara SECL Colony, Chhal - CECB",23-12-2025 08:00:00,22.118125,83.140608,PM10,50,144,103
India,Chhattisgarh,Korba,"Rampur, Korba - CECB",23-12-2025 08:00:00,22.368195,82.746431,PM2.5,63,245,155
India,Chhattisgarh,Korba,"Rampur, Korba - CECB",23-12-2025 08:00:00,22.368195,82.746431,PM10,70,161,123
India,Chhattisgarh,Korba,"Rampur, Korba - CECB",23-12-2025 08:00:00,22.368195,82.746431,CO,32,57,46
India,Bihar,Patna,"Samanpura, Patna - BSPCB",23-12-2025 08:00:00,25.596727,85.085624,OZONE,3,71,6
India,Bihar,Purnia,"Mariam Nagar, Purnia - BSPCB",23-12-2025 08:00:00,25.366336,87.117468,NH3,3,3,3
India,Bihar,Saharsa,"Police Line, Saharsa - BSPCB",23-12-2025 08:00:00,25.892357,86.590325,OZONE,8,15,11
India,Bihar,Samastipur,"DM Office_Kasipur, Samastipur - BSPCB",23-12-2025 08:00:00,25.859655,85.77944,PM2.5,NA,NA,NA
India,Chhattisgarh,Kunjemura,"OP Jindal School, Kunjemura - CECB",23-12-2025 08:00:00,22.126650,83.483212,PM10,43,137,103
India,Chhattisgarh,Milupara,"Govt. Higher Secondary School, Milupara - CECB",23-12-2025 08:00:00,22.1910172,83.5197009,SO2,14,41,20
India,Chhattisgarh,Milupara,"Govt. Higher Secondary School, Milupara - CECB",23-12-2025 08:00:00,22.1910172,83.5197009,CO,40,70,49
India,Chhattisgarh,Raipur,"AIIMS, Raipur - CECB",23-12-2025 08:00:00,21.258815,81.578979,PM2.5,85,308,164
India,Delhi,Delhi,"Anand Vihar, Delhi - DPCC",23-12-2025 08:00:00,28.647622,77.3158090,PM10,309,500,442
India,Delhi,Delhi,"Anand Vihar, Delhi - DPCC",23-12-2025 08:00:00,28.647622,77.3158090,CO,103,169,131
India,Delhi,Delhi,"Anand Vihar, Delhi - DPCC",23-12-2025 08:00:00,28.647622,77.3158090,OZONE,2,18,12
India,Delhi,Delhi,"Aya Nagar, Delhi - IMD",23-12-2025 08:00:00,28.4706914,77.1099364,PM2.5,264,424,352
India,Delhi,Delhi,"Bawana, Delhi - DPCC",23-12-2025 08:00:00,28.776200,77.051074,NH3,10,15,12
India,Delhi,Delhi,"R K Puram, Delhi - DPCC",23-12-2025 08:00:00,28.563262,77.186937,PM2.5,358,500,446
India,Delhi,Delhi,"Rohini, Delhi - DPCC",23-12-2025 08:00:00,28.732528,77.119920,NH3,14,22,17
India,Delhi,Delhi,"Shadipur, Delhi - CPCB",23-12-2025 08:00:00,28.6514781,77.1473105,PM2.5,299,325,308
India,Delhi,Delhi,"Shadipur, Delhi - CPCB",23-12-2025 08:00:00,28.6514781,77.1473105,NH3,11,19,14
India,Delhi,Delhi,"Sirifort, Delhi - CPCB",23-12-2025 08:00:00,28.5504249,77.2159377,PM2.5,361,500,448
India,Delhi,Delhi,"Sirifort, Delhi - CPCB",23-12-2025 08:00:00,28.5504249,77.2159377,PM10,310,477,423
India,Delhi,Delhi,"Sirifort, Delhi - CPCB",23-12-2025 08:00:00,28.5504249,77.2159377,NH3,6,12,9
India,Delhi,Delhi,"Sirifort, Delhi - CPCB",23-12-2025 08:00:00,28.5504249,77.2159377,SO2,20,36,30
India,Delhi,Delhi,"Sonia Vihar, Delhi - DPCC",23-12-2025 08:00:00,28.710508,77.249485,PM10,167,446,359
India,Delhi,Delhi,"Sonia Vihar, Delhi - DPCC",23-12-2025 08:00:00,28.710508,77.249485,SO2,8,15,11
India,Delhi,Delhi,"Sri Aurobindo Marg, Delhi - DPCC",23-12-2025 08:00:00,28.531346,77.190156,NO2,21,80,38
India,Delhi,Delhi,"Vivek Vihar, Delhi - DPCC",23-12-2025 08:00:00,28.672342,77.315260,CO,57,143,76
India,Delhi,Delhi,"Wazirpur, Delhi - DPCC",23-12-2025 08:00:00,28.699793,77.165453,PM2.5,388,500,440
India,Delhi,Delhi,"Wazirpur, Delhi - DPCC",23-12-2025 08:00:00,28.699793,77.165453,PM10,299,500,418
India,Delhi,Delhi,"Wazirpur, Delhi - DPCC",23-12-2025 08:00:00,28.699793,77.165453,NO2,44,136,80
India,Delhi,Delhi,"Okhla Phase-2, Delhi - DPCC",23-12-2025 08:00:00,28.530785,77.271255,SO2,4,26,13
India,Delhi,Delhi,"Patparganj, Delhi - DPCC",23-12-2025 08:00:00,28.623763,77.287209,PM10,206,462,366
India,Delhi,Delhi,"Patparganj, Delhi - DPCC",23-12-2025 08:00:00,28.623763,77.287209,OZONE,4,223,5
India,Delhi,Delhi,"Punjabi Bagh, Delhi - DPCC",23-12-2025 08:00:00,28.674045,77.131023,NO2,30,84,50
India,Delhi,Delhi,"Punjabi Bagh, Delhi - DPCC",23-12-2025 08:00:00,28.674045,77.131023,NH3,6,8,7
India,Delhi,Delhi,"Punjabi Bagh, Delhi - DPCC",23-12-2025 08:00:00,28.674045,77.131023,CO,38,107,64
India,Delhi,Delhi,"Pusa, Delhi - IMD",23-12-2025 08:00:00,28.636110,77.173332,NO2,13,136,53
India,Gujarat,Ahmedabad,"Raikhad, Ahmedabad - IITM",23-12-2025 08:00:00,23.020509,72.579261,OZONE,7,73,14
India,Gujarat,Ahmedabad,"Rakhial, Ahmedabad - IITM",23-12-2025 08:00:00,23.016834,72.625775,SO2,28,101,43
India,Gujarat,Ahmedabad,"SAC ISRO Bopal, Ahmedabad - IITM",23-12-2025 08:00:00,23.041137,72.456691,SO2,1,24,7
India,Gujarat,Ahmedabad,"SAC ISRO Bopal, Ahmedabad - IITM",23-12-2025 08:00:00,23.041137,72.456691,OZONE,1,62,2
India,Gujarat,Ahmedabad,"SAC ISRO Satellite, Ahmedabad - IITM",23-12-2025 08:00:00,23.023389,72.515201,PM10,63,95,81
India,Gujarat,Ahmedabad,"SAC ISRO Satellite, Ahmedabad - IITM",23-12-2025 08:00:00,23.023389,72.515201,OZONE,1,64,7
India,Gujarat,Ahmedabad,"Maninagar, Ahmedabad - GPCB",23-12-2025 08:00:00,23.002657,72.591912,PM2.5,70,311,183
India,Gujarat,Ahmedabad,"Maninagar, Ahmedabad - GPCB",23-12-2025 08:00:00,23.002657,72.591912,PM10,92,275,154
India,Gujarat,Ahmedabad,"Maninagar, Ahmedabad - GPCB",23-12-2025 08:00:00,23.002657,72.591912,CO,18,32,24
India,Gujarat,Ahmedabad,"Raikhad, Ahmedabad - IITM",23-12-2025 08:00:00,23.020509,72.579261,NO2,20,106,56
India,Gujarat,Ahmedabad,"Raikhad, Ahmedabad - IITM",23-12-2025 08:00:00,23.020509,72.579261,SO2,11,105,27
India,Delhi,Delhi,"Major Dhyan Chand National Stadium, Delhi - DPCC",23-12-2025 08:00:00,28.611281,77.237738,PM2.5,325,449,410
India,Delhi,Delhi,"Major Dhyan Chand National Stadium, Delhi - DPCC",23-12-2025 08:00:00,28.611281,77.237738,NH3,27,34,32
India,Delhi,Delhi,"NSIT Dwarka, Delhi - CPCB",23-12-2025 08:00:00,28.60909,77.0325413,PM2.5,77,500,364
India,Delhi,Delhi,"NSIT Dwarka, Delhi - CPCB",23-12-2025 08:00:00,28.60909,77.0325413,NH3,29,39,34
India,Delhi,Delhi,"Najafgarh, Delhi - DPCC",23-12-2025 08:00:00,28.570173,76.933762,NH3,12,17,14
India,Delhi,Delhi,"Narela, Delhi - DPCC",23-12-2025 08:00:00,28.822836,77.101981,NO2,24,71,40
India,Delhi,Delhi,"Nehru Nagar, Delhi - DPCC",23-12-2025 08:00:00,28.567890,77.250515,PM10,248,500,402
India,Delhi,Delhi,"Jahangirpuri, Delhi - DPCC",23-12-2025 08:00:00,28.732820,77.170633,NO2,88,136,109
India,Delhi,Delhi,"Jawaharlal Nehru Stadium, Delhi - DPCC",23-12-2025 08:00:00,28.580280,77.233829,NO2,49,144,82
India,Delhi,Delhi,"Jawaharlal Nehru Stadium, Delhi - DPCC",23-12-2025 08:00:00,28.580280,77.233829,NH3,20,25,22
India,Gujarat,Ahmedabad,"SVPI Airport Hansol, Ahmedabad - IITM",23-12-2025 08:00:00,23.076793,72.627874,NH3,5,13,8
India,Gujarat,Ahmedabad,"SVPI Airport Hansol, Ahmedabad - IITM",23-12-2025 08:00:00,23.076793,72.627874,OZONE,2,51,4
India,Haryana,Fatehabad,"Huda Sector, Fatehabad - HSPCB",23-12-2025 08:00:00,29.503664,75.467934,CO,25,36,26
India,Haryana,Gurugram,"NISE Gwal Pahari, Gurugram - IMD",23-12-2025 08:00:00,28.422681,77.148944,PM2.5,240,458,353
India,Haryana,Gurugram,"NISE Gwal Pahari, Gurugram - IMD",23-12-2025 08:00:00,28.422681,77.148944,NO2,22,237,128
India,Haryana,Gurugram,"NISE Gwal Pahari, Gurugram - IMD",23-12-2025 08:00:00,28.422681,77.148944,OZONE,5,38,7
India,Haryana,Gurugram,"Sector-51, Gurugram - HSPCB",23-12-2025 08:00:00,28.4227,77.0667,OZONE,10,45,11
India,Haryana,Gurugram,"Teri Gram, Gurugram - HSPCB",23-12-2025 08:00:00,28.4275,77.1465,CO,48,85,72
India,Haryana,Gurugram,"Vikas Sadan, Gurugram - HSPCB",23-12-2025 08:00:00,28.4501238,77.0263051,NO2,9,46,25
India,Haryana,Gurugram,"Vikas Sadan, Gurugram - HSPCB",23-12-2025 08:00:00,28.4501238,77.0263051,SO2,2,7,5
India,Haryana,Gurugram,"Vikas Sadan, Gurugram - HSPCB",23-12-2025 08:00:00,28.4501238,77.0263051,CO,63,115,97
India,Haryana,Bahadurgarh,"Arya Nagar, Bahadurgarh - HSPCB",23-12-2025 08:00:00,28.6701,76.9254,OZONE,15,19,17
India,Haryana,Bhiwani,"H.B. Colony, Bhiwani - HSPCB",23-12-2025 08:00:00,28.806223,76.141105,PM2.5,124,209,146
India,Haryana,Bhiwani,"H.B. Colony, Bhiwani - HSPCB",23-12-2025 08:00:00,28.806223,76.141105,PM10,91,113,102
India,Haryana,Bhiwani,"H.B. Colony, Bhiwani - HSPCB",23-12-2025 08:00:00,28.806223,76.141105,NO2,2,34,31
India,Haryana,Charkhi Dadri,"Mini Secretariat, Charkhi Dadri - HSPCB",23-12-2025 08:00:00,28.593883,76.270653,NH3,5,8,6
India,Haryana,Charkhi Dadri,"Mini Secretariat, Charkhi Dadri - HSPCB",23-12-2025 08:00:00,28.593883,76.270653,SO2,10,11,11
India,Haryana,Faridabad,"New Industrial Town, Faridabad - HSPCB",23-12-2025 08:00:00,28.39072,77.30059,PM10,169,177,173
India,Haryana,Faridabad,"New Industrial Town, Faridabad - HSPCB",23-12-2025 08:00:00,28.39072,77.30059,NH3,11,12,11
India,Haryana,Faridabad,"New Industrial Town, Faridabad - HSPCB",23-12-2025 08:00:00,28.39072,77.30059,SO2,8,8,8
India,Haryana,Faridabad,"Sector 11, Faridabad - HSPCB",23-12-2025 08:00:00,28.376058,77.315741,SO2,4,6,5
India,Haryana,Faridabad,"Sector 30, Faridabad - HSPCB",23-12-2025 08:00:00,28.4417,77.3217,PM2.5,222,235,225
India,Haryana,Fatehabad,"Huda Sector, Fatehabad - HSPCB",23-12-2025 08:00:00,29.503664,75.467934,PM2.5,137,302,219
India,Haryana,Jind,"Police Lines, Jind - HSPCB",23-12-2025 08:00:00,29.307814,76.337619,NH3,NA,NA,NA
India,Haryana,Jind,"Police Lines, Jind - HSPCB",23-12-2025 08:00:00,29.307814,76.337619,OZONE,NA,NA,NA
India,Haryana,Kaithal,"Rishi Nagar, Kaithal - HSPCB",23-12-2025 08:00:00,29.8006,76.4155,PM10,86,329,153
India,Haryana,Kaithal,"Rishi Nagar, Kaithal - HSPCB",23-12-2025 08:00:00,29.8006,76.4155,CO,16,115,50
India,Haryana,Kaithal,"Rishi Nagar, Kaithal - HSPCB",23-12-2025 08:00:00,29.8006,76.4155,OZONE,2,24,3
India,Haryana,Kurukshetra,"Sector-7, Kurukshetra - HSPCB",23-12-2025 08:00:00,29.966942,76.875879,PM2.5,171,321,251
India,Haryana,Kurukshetra,"Sector-7, Kurukshetra - HSPCB",23-12-2025 08:00:00,29.966942,76.875879,NO2,14,21,18
India,Haryana,Mandikhera,"General Hospital, Mandikhera(Nuh) - HSPCB",23-12-2025 08:00:00,27.9002,76.9938,PM2.5,NA,NA,NA
India,Haryana,Mandikhera,"General Hospital, Mandikhera(Nuh) - HSPCB",23-12-2025 08:00:00,27.9002,76.9938,SO2,31,36,34
India,Haryana,Narnaul,"Shastri Nagar, Narnaul - HSPCB",23-12-2025 08:00:00,28.060249,76.113115,PM2.5,171,307,218
India,Haryana,Narnaul,"Shastri Nagar, Narnaul - HSPCB",23-12-2025 08:00:00,28.060249,76.113115,PM10,153,243,197
India,Gujarat,Gandhinagar,"IIPHG Lekawada, Gandhinagar - IITM",23-12-2025 08:00:00,23.243639,72.68994,NH3,2,3,2
India,Gujarat,Gandhinagar,"Sector-10, Gandhinagar - GPCB",23-12-2025 08:00:00,23.221714,72.654328,PM2.5,26,116,64
India,Gujarat,Gandhinagar,"Sector-10, Gandhinagar - GPCB",23-12-2025 08:00:00,23.221714,72.654328,NO2,16,32,21
India,Gujarat,Gandhinagar,"Sector-10, Gandhinagar - GPCB",23-12-2025 08:00:00,23.221714,72.654328,NH3,2,4,3
India,Gujarat,Surat,"Science Center, Surat - SMC",23-12-2025 08:00:00,21.170046,72.795405,PM2.5,27,158,98
India,Gujarat,Surat,"Science Center, Surat - SMC",23-12-2025 08:00:00,21.170046,72.795405,NO2,7,9,8
India,Gujarat,Vapi,"Phase-1 GIDC, Vapi - GPCB",23-12-2025 08:00:00,20.362421,72.918013,NH3,4,6,5
India,Gujarat,Vapi,"Phase-1 GIDC, Vapi - GPCB",23-12-2025 08:00:00,20.362421,72.918013,OZONE,6,17,7
India,Haryana,Bahadurgarh,"Arya Nagar, Bahadurgarh - HSPCB",23-12-2025 08:00:00,28.6701,76.9254,PM2.5,1,500,300
India,Haryana,Panchkula,"Sector-6, Panchkula - HSPCB ",23-12-2025 08:00:00,30.7057778,76.8531805555555,SO2,9,10,9
India,Haryana,Panipat,"Sector-18, Panipat - HSPCB",23-12-2025 08:00:00,29.432304,76.972765,NO2,31,32,31
India,Haryana,Rohtak,"MD University, Rohtak - HSPCB",23-12-2025 08:00:00,28.52123,76.37138,NO2,NA,NA,NA
India,Karnataka,Bengaluru,"BTM Layout, Bengaluru - CPCB",23-12-2025 08:00:00,12.9135218,77.5950804,NH3,6,7,6
India,Karnataka,Bengaluru,"BTM Layout, Bengaluru - CPCB",23-12-2025 08:00:00,12.9135218,77.5950804,SO2,19,20,19
India,Karnataka,Bengaluru,"BWSSB Kadabesanahalli, Bengaluru - CPCB",23-12-2025 08:00:00,12.9352049,77.6814488,NO2,9,25,17
India,Haryana,Sirsa,"F-Block, Sirsa - HSPCB",23-12-2025 08:00:00,29.536400,75.015800,SO2,NA,NA,NA
India,Haryana,Sonipat,"Murthal, Sonipat - HSPCB",23-12-2025 08:00:00,29.027200,77.062100,PM2.5,140,392,289
India,Karnataka,Bengaluru,"BWSSB Kadabesanahalli, Bengaluru - CPCB",23-12-2025 08:00:00,12.9352049,77.6814488,OZONE,12,50,26
India,Karnataka,Bengaluru,"City Railway Station, Bengaluru - KSPCB",23-12-2025 08:00:00,12.9756843,77.5660749,PM10,91,93,92
India,Jammu_and_Kashmir,Srinagar,"Khunmoh, Srinagar - JKPCC",23-12-2025 08:00:00,34.06313,74.96017,PM2.5,16,30,23
India,Jammu_and_Kashmir,Srinagar,"Khunmoh, Srinagar - JKPCC",23-12-2025 08:00:00,34.06313,74.96017,PM10,17,39,29
India,Haryana,Rohtak,"MD University, Rohtak - HSPCB",23-12-2025 08:00:00,28.52123,76.37138,CO,NA,NA,NA
India,Haryana,Rohtak,"MD University, Rohtak - HSPCB",23-12-2025 08:00:00,28.52123,76.37138,OZONE,NA,NA,NA
India,Himachal Pradesh,Baddi,"HIMUDA Complex Phase-1, Baddi - HPPCB",23-12-2025 08:00:00,30.943887,76.801991,PM2.5,97,420,282
India,Karnataka,Bengaluru,"City Railway Station, Bengaluru - KSPCB",23-12-2025 08:00:00,12.9756843,77.5660749,SO2,21,22,22
India,Karnataka,Bagalkot,"Vidayagiri, Bagalkot - KSPCB",23-12-2025 08:00:00,16.172806,75.659694,PM10,NA,NA,NA
India,Haryana,Sirsa,"F-Block, Sirsa - HSPCB",23-12-2025 08:00:00,29.536400,75.015800,PM2.5,NA,NA,NA
India,Karnataka,Bengaluru,"Silk Board, Bengaluru - KSPCB",23-12-2025 08:00:00,12.917348,77.622813,SO2,NA,NA,NA
India,Karnataka,Bengaluru,"Silk Board, Bengaluru - KSPCB",23-12-2025 08:00:00,12.917348,77.622813,CO,NA,NA,NA
India,Karnataka,Chamarajanagar,"Urban, Chamarajanagar - KSPCB",23-12-2025 08:00:00,11.55358,76.55521,NO2,14,40,24
India,Karnataka,Bengaluru,"Hebbal, Bengaluru - KSPCB",23-12-2025 08:00:00,13.029152,77.585901,NH3,1,2,1
India,Karnataka,Bengaluru,"Hebbal, Bengaluru - KSPCB",23-12-2025 08:00:00,13.029152,77.585901,CO,4,68,18
India,Karnataka,Bengaluru,"Hebbal, Bengaluru - KSPCB",23-12-2025 08:00:00,13.029152,77.585901,OZONE,7,9,8
India,Karnataka,Bengaluru,"Hombegowda Nagar, Bengaluru - KSPCB",23-12-2025 08:00:00,12.938539,77.590100,SO2,6,25,14
India,Karnataka,Bengaluru,"Hombegowda Nagar, Bengaluru - KSPCB",23-12-2025 08:00:00,12.938539,77.590100,CO,12,41,19
India,Karnataka,Bengaluru,"Peenya, Bengaluru - CPCB",23-12-2025 08:00:00,13.0270199,77.494094,NH3,3,4,4
India,Karnataka,Bengaluru,"Peenya, Bengaluru - CPCB",23-12-2025 08:00:00,13.0270199,77.494094,CO,30,60,35
India,Karnataka,Bengaluru,"Jayanagar 5th Block, Bengaluru - KSPCB",23-12-2025 08:00:00,12.920984,77.584908,PM10,80,127,96
India,Karnataka,Davanagere,"Devaraj Urs Badavane, Davanagere - KSPCB",23-12-2025 08:00:00,14.475800,75.905200,PM2.5,NA,NA,NA
India,Karnataka,Bengaluru,"Sanegurava Halli, Bengaluru - KSPCB",23-12-2025 08:00:00,12.990328,77.5431385,NO2,17,21,18
India,Karnataka,Hubballi,"Lingaraj Nagar, Hubballi - KSPCB",23-12-2025 08:00:00,15.3714823,75.1160168,PM10,59,70,60
India,Karnataka,Hubballi,"Lingaraj Nagar, Hubballi - KSPCB",23-12-2025 08:00:00,15.3714823,75.1160168,PM2.5,43,53,43
India,Karnataka,Kalaburagi,"Lal Bahadur Shastri Nagar, Kalaburagi - KSPCB",23-12-2025 08:00:00,17.321993,76.822628,NO2,NA,NA,NA
India,Karnataka,Kalaburagi,"Lal Bahadur Shastri Nagar, Kalaburagi - KSPCB",23-12-2025 08:00:00,17.321993,76.822628,NH3,NA,NA,NA
India,Karnataka,Kalaburagi,"Lal Bahadur Shastri Nagar, Kalaburagi - KSPCB",23-12-2025 08:00:00,17.321993,76.822628,OZONE,20,21,20
India,Karnataka,Kalaburagi,"Mahatma Basaveswar Colony, Kalaburgi - KSPCB",23-12-2025 08:00:00,17.336318,76.847397,PM10,35,75,56
India,Karnataka,Madikeri,"Stuart Hill, Madikeri - KSPCB",23-12-2025 08:00:00,12.415911,75.735050,SO2,6,7,7
India,Karnataka,Mysuru,"Hebbal 1st Stage, Mysuru - KSPCB",23-12-2025 08:00:00,12.21041,76.37376,PM2.5,37,69,52
India,Karnataka,Mysuru,"Hebbal 1st Stage, Mysuru - KSPCB",23-12-2025 08:00:00,12.21041,76.37376,PM10,55,101,74
India,Karnataka,Tumakuru,"Thimmalapura, Tumakuru - KSPCB",23-12-2025 08:00:00,13.377516,77.099072,CO,53,54,54
India,Karnataka,Yadgir,"Collector Office, Yadgir - KSPCB",23-12-2025 08:00:00,16.7602,77.1428,PM2.5,93,234,146
India,Karnataka,Shivamogga,"Vinoba Nagara, Shivamogga - KSPCB",23-12-2025 08:00:00,13.940000,75.555917,PM10,42,73,52
India,Karnataka,Shivamogga,"Vinoba Nagara, Shivamogga - KSPCB",23-12-2025 08:00:00,13.940000,75.555917,SO2,2,6,4
India,Karnataka,Kalaburagi,"Mahatma Basaveswar Colony, Kalaburgi - KSPCB",23-12-2025 08:00:00,17.336318,76.847397,OZONE,14,20,15
India,Karnataka,Hubballi,"Lingaraj Nagar, Hubballi - KSPCB",23-12-2025 08:00:00,15.3714823,75.1160168,SO2,1,4,2
India,Karnataka,Mysuru,"Hebbal 1st Stage, Mysuru - KSPCB",23-12-2025 08:00:00,12.21041,76.37376,CO,16,61,25
India,Karnataka,Hubballi,"Lingaraj Nagar, Hubballi - KSPCB",23-12-2025 08:00:00,15.3714823,75.1160168,NH3,2,2,2
India,Karnataka,Koppal,"Diwator Nagar, Koppal - KSPCB",23-12-2025 08:00:00,15.347630,76.181767,NH3,7,8,8
India,Madhya Pradesh,Ratlam,"Shasthri Nagar, Ratlam - IPCA Lab",23-12-2025 08:00:00,23.331731,75.045981,PM10,95,194,136
India,Madhya Pradesh,Sagar,"Civil Lines, Sagar - MPPCB",23-12-2025 08:00:00,23.838586,78.759431,PM2.5,78,306,207
India,Madhya Pradesh,Sagar,"Civil Lines, Sagar - MPPCB",23-12-2025 08:00:00,23.838586,78.759431,NO2,11,61,25
India,Madhya Pradesh,Sagar,"Civil Lines, Sagar - MPPCB",23-12-2025 08:00:00,23.838586,78.759431,SO2,2,5,4
India,Madhya Pradesh,Sagar,"Deen Dayal Nagar, Sagar - MPPCB",23-12-2025 08:00:00,23.8640158,78.80289321,PM2.5,60,166,106
India,Madhya Pradesh,Sagar,"Deen Dayal Nagar, Sagar - MPPCB",23-12-2025 08:00:00,23.8640158,78.80289321,PM10,76,132,105
India,Madhya Pradesh,Sagar,"Deen Dayal Nagar, Sagar - MPPCB",23-12-2025 08:00:00,23.8640158,78.80289321,NO2,9,67,32
India,Madhya Pradesh,Singrauli,"Suryakiran Bhawan NCL, Singrauli - MPPCB",23-12-2025 08:00:00,24.108970,82.645580,SO2,12,38,22
India,Maharashtra,Ahmednagar,"Tarakpur, Ahmednagar - MPCB",23-12-2025 08:00:00,19.10122,74.73339,PM2.5,42,96,70
India,Madhya Pradesh,Dewas,"Bhopal Chauraha, Dewas - MPPCB",23-12-2025 08:00:00,22.9682591,76.064118,PM10,60,241,121
India,Madhya Pradesh,Gwalior,"City Center, Gwalior - MPPCB",23-12-2025 08:00:00,26.203442,78.193251,PM2.5,89,361,203
India,Madhya Pradesh,Gwalior,"City Center, Gwalior - MPPCB",23-12-2025 08:00:00,26.203442,78.193251,NO2,18,114,47
India,Madhya Pradesh,Gwalior,"City Center, Gwalior - MPPCB",23-12-2025 08:00:00,26.203442,78.193251,NH3,3,7,4
India,Madhya Pradesh,Gwalior,"City Center, Gwalior - MPPCB",23-12-2025 08:00:00,26.203442,78.193251,SO2,11,22,13
India,Madhya Pradesh,Gwalior,"Deen Dayal Nagar, Gwalior - MPPCB",23-12-2025 08:00:00,26.259242,78.216432,PM10,90,297,174
India,Madhya Pradesh,Gwalior,"Deen Dayal Nagar, Gwalior - MPPCB",23-12-2025 08:00:00,26.259242,78.216432,NH3,7,13,8
India,Madhya Pradesh,Gwalior,"Deen Dayal Nagar, Gwalior - MPPCB",23-12-2025 08:00:00,26.259242,78.216432,CO,1,125,26
India,Madhya Pradesh,Gwalior,"Deen Dayal Nagar, Gwalior - MPPCB",23-12-2025 08:00:00,26.259242,78.216432,OZONE,3,115,4
India,Kerala,Thrissur,"Corporation Ground, Thrissur - Kerala PCB",23-12-2025 08:00:00,10.532400,76.215900,NO2,9,12,10
India,Madhya Pradesh,Bhopal,"Idgah Hills, Bhopal - MPPCB",23-12-2025 08:00:00,23.264759,77.381568,SO2,11,15,12
India,Madhya Pradesh,Bhopal,"Paryavaran Parisar, Bhopal - MPPCB",23-12-2025 08:00:00,23.210494,77.425409,NO2,33,108,63
India,Madhya Pradesh,Bhopal,"Paryavaran Parisar, Bhopal - MPPCB",23-12-2025 08:00:00,23.210494,77.425409,SO2,6,19,12
India,Madhya Pradesh,Bhopal,"Paryavaran Parisar, Bhopal - MPPCB",23-12-2025 08:00:00,23.210494,77.425409,CO,11,111,26
India,Madhya Pradesh,Bhopal,"T T Nagar, Bhopal - MPPCB",23-12-2025 08:00:00,23.233584,77.400574,PM10,NA,NA,NA
India,Madhya Pradesh,Indore,"Residency Area, Indore - IMC",23-12-2025 08:00:00,22.7084,75.8815,OZONE,11,20,16
India,Madhya Pradesh,Jabalpur,"Gupteshwar, Jabalpur - JMC",23-12-2025 08:00:00,23.142888,79.916147,PM2.5,45,239,110
India,Madhya Pradesh,Jabalpur,"Gupteshwar, Jabalpur - JMC",23-12-2025 08:00:00,23.142888,79.916147,NO2,21,85,41
India,Madhya Pradesh,Jabalpur,"Marhatal, Jabalpur - MPPCB",23-12-2025 08:00:00,23.168606,79.932247,PM2.5,101,394,230
India,Madhya Pradesh,Indore,"Airport Area, Indore - IMC",23-12-2025 08:00:00,22.7289,75.8076,PM2.5,20,255,88
India,Madhya Pradesh,Indore,"Airport Area, Indore - IMC",23-12-2025 08:00:00,22.7289,75.8076,SO2,18,20,19
India,Madhya Pradesh,Indore,"Regional Park, Indore - IMC",23-12-2025 08:00:00,22.6780,75.8559,NO2,7,16,12
India,Madhya Pradesh,Indore,"Regional Park, Indore - IMC",23-12-2025 08:00:00,22.6780,75.8559,SO2,26,35,31
India,Madhya Pradesh,Indore,"Residency Area, Indore - IMC",23-12-2025 08:00:00,22.7084,75.8815,PM2.5,18,217,80
India,Madhya Pradesh,Katni,"Gole Bazar, Katni - MPPCB",23-12-2025 08:00:00,23.50016,80.23284,NH3,4,5,4
India,Madhya Pradesh,Katni,"Gole Bazar, Katni - MPPCB",23-12-2025 08:00:00,23.50016,80.23284,OZONE,16,54,19
India,Madhya Pradesh,Mandideep,"Sector-D Industrial Area, Mandideep - MPPCB",23-12-2025 08:00:00,23.108440,77.511428,PM2.5,48,374,220
India,Madhya Pradesh,Mandideep,"Sector-D Industrial Area, Mandideep - MPPCB",23-12-2025 08:00:00,23.108440,77.511428,CO,7,44,16
India,Karnataka,Yadgir,"Collector Office, Yadgir - KSPCB",23-12-2025 08:00:00,16.7602,77.1428,NH3,1,1,1
India,Karnataka,Yadgir,"Collector Office, Yadgir - KSPCB",23-12-2025 08:00:00,16.7602,77.1428,OZONE,17,20,18
India,Kerala,Kannur,"Thavakkara, Kannur - Kerala PCB",23-12-2025 08:00:00,11.875000,75.373200,PM2.5,43,50,47
India,Kerala,Kannur,"Thavakkara, Kannur - Kerala PCB",23-12-2025 08:00:00,11.875000,75.373200,NO2,15,16,15
India,Kerala,Kollam,"Polayathode, Kollam - Kerala PCB",23-12-2025 08:00:00,8.8787,76.6073,NO2,8,10,9
India,Kerala,Kollam,"Polayathode, Kollam - Kerala PCB",23-12-2025 08:00:00,8.8787,76.6073,SO2,2,2,2
India,Kerala,Thiruvananthapuram,"Kariavattom, Thiruvananthapuram - Kerala PCB",23-12-2025 08:00:00,8.563700,76.886500,OZONE,36,37,36
India,Maharashtra,Ahmednagar,"Tarakpur, Ahmednagar - MPCB",23-12-2025 08:00:00,19.10122,74.73339,OZONE,2,83,13
India,Maharashtra,Mumbai,"Byculla, Mumbai - BMC",23-12-2025 08:00:00,18.9767,72.8380,PM2.5,50,152,99
India,Maharashtra,Mumbai,"Chakala-Andheri East, Mumbai - IITM",23-12-2025 08:00:00,19.11074,72.86084,NO2,39,92,65
India,Maharashtra,Mumbai,"Chakala-Andheri East, Mumbai - IITM",23-12-2025 08:00:00,19.11074,72.86084,NH3,7,32,15
India,Maharashtra,Mumbai,"Chakala-Andheri East, Mumbai - IITM",23-12-2025 08:00:00,19.11074,72.86084,SO2,1,24,11
India,Maharashtra,Mumbai,"Chembur, Mumbai - MPCB",23-12-2025 08:00:00,19.0364585,72.8954371,CO,34,64,48
India,Maharashtra,Mumbai,"Chembur, Mumbai - MPCB",23-12-2025 08:00:00,19.0364585,72.8954371,OZONE,10,160,34
India,Maharashtra,Mumbai,"Chhatrapati Shivaji Intl. Airport (T2), Mumbai - MPCB",23-12-2025 08:00:00,19.10078,72.87462,OZONE,7,8,7
India,Maharashtra,Mumbai,"Deonar, Mumbai - IITM",23-12-2025 08:00:00,19.04946,72.9230,NO2,18,106,53
India,Maharashtra,Mumbai,"Deonar, Mumbai - IITM",23-12-2025 08:00:00,19.04946,72.9230,SO2,8,17,10
India,Maharashtra,Kolhapur,"Shivaji University, Kolhapur - MPCB",23-12-2025 08:00:00,16.6870449,74.2505872,PM10,68,140,90
India,Maharashtra,Kolhapur,"Sinchan Bhavan, Kolhapur - MPCB",23-12-2025 08:00:00,16.7143745,74.2426398,NO2,16,55,31
India,Maharashtra,Kolhapur,"Sinchan Bhavan, Kolhapur - MPCB",23-12-2025 08:00:00,16.7143745,74.2426398,OZONE,1,41,11
India,Maharashtra,Latur,"Sawe Wadi, Latur - MPCB",23-12-2025 08:00:00,18.39963,76.57452,NO2,21,153,52
India,Maharashtra,Latur,"Sawe Wadi, Latur - MPCB",23-12-2025 08:00:00,18.39963,76.57452,OZONE,2,91,29
India,Maharashtra,Mahad,"Kamble Tarf Birwadi, Mahad - MPCB",23-12-2025 08:00:00,18.1023399,73.4783687,PM2.5,73,197,110
India,Maharashtra,Mahad,"Kamble Tarf Birwadi, Mahad - MPCB",23-12-2025 08:00:00,18.1023399,73.4783687,SO2,12,112,36
India,Maharashtra,Mahad,"Kamble Tarf Birwadi, Mahad - MPCB",23-12-2025 08:00:00,18.1023399,73.4783687,CO,12,70,21
India,Maharashtra,Mumbai,"Mulund West, Mumbai - MPCB",23-12-2025 08:00:00,19.1750,72.9419,SO2,NA,NA,NA
India,Maharashtra,Mumbai,"Navy Nagar-Colaba, Mumbai - IITM",23-12-2025 08:00:00,18.897756,72.813320,PM2.5,71,181,118
India,Maharashtra,Mumbai,"Navy Nagar-Colaba, Mumbai - IITM",23-12-2025 08:00:00,18.897756,72.813320,SO2,12,74,35
India,Maharashtra,Mumbai,"Navy Nagar-Colaba, Mumbai - IITM",23-12-2025 08:00:00,18.897756,72.813320,OZONE,5,76,9
India,Maharashtra,Mumbai,"Sewri, Mumbai - BMC",23-12-2025 08:00:00,19.000084,72.856730,SO2,1,34,11
India,Maharashtra,Mumbai,"Shivaji Nagar, Mumbai - BMC",23-12-2025 08:00:00,19.060498,72.923356,PM10,102,151,129
India,Maharashtra,Mumbai,"Shivaji Nagar, Mumbai - BMC",23-12-2025 08:00:00,19.060498,72.923356,NH3,3,9,4
India,Maharashtra,Mumbai,"Siddharth Nagar-Worli, Mumbai - IITM",23-12-2025 08:00:00,19.000083,72.813993,PM10,NA,NA,NA
India,Maharashtra,Mumbai,"Malad West, Mumbai - IITM",23-12-2025 08:00:00,19.19709,72.82204,OZONE,3,81,8
India,Maharashtra,Mumbai,"Mazgaon, Mumbai - IITM",23-12-2025 08:00:00,18.96702,72.84214,PM2.5,31,125,74
India,Maharashtra,Mumbai,"Mazgaon, Mumbai - IITM",23-12-2025 08:00:00,18.96702,72.84214,NO2,35,113,90
India,Maharashtra,Mumbai,"Mazgaon, Mumbai - IITM",23-12-2025 08:00:00,18.96702,72.84214,SO2,13,32,21
India,Maharashtra,Mumbai,"Mindspace-Malad West, Mumbai - MPCB",23-12-2025 08:00:00,19.1878657,72.8304069,PM2.5,34,223,78
India,Maharashtra,Mumbai,"Mindspace-Malad West, Mumbai - MPCB",23-12-2025 08:00:00,19.1878657,72.8304069,PM10,45,176,87
India,Maharashtra,Mumbai,"Mulund West, Mumbai - MPCB",23-12-2025 08:00:00,19.1750,72.9419,PM10,NA,NA,NA
India,Maharashtra,Mumbai,"Mulund West, Mumbai - MPCB",23-12-2025 08:00:00,19.1750,72.9419,NH3,NA,NA,NA
India,Maharashtra,Jalgaon,"Prabhat Colony, Jalgaon - MPCB",23-12-2025 08:00:00,21.001264,75.565602,PM2.5,NA,NA,NA
India,Maharashtra,Jalna,"Old MIDC, Jalna - MPCB",23-12-2025 08:00:00,19.854616,75.905894,PM10,37,117,70
India,Maharashtra,Jalna,"Old MIDC, Jalna - MPCB",23-12-2025 08:00:00,19.854616,75.905894,SO2,1,19,7
India,Maharashtra,Kalyan,"Khadakpada, Kalyan - MPCB",23-12-2025 08:00:00,19.25292,73.142019,PM10,50,181,107
India,Maharashtra,Kalyan,"Khadakpada, Kalyan - MPCB",23-12-2025 08:00:00,19.25292,73.142019,NH3,1,1,1
India,Maharashtra,Kalyan,"Pimpleshwar Mandir, Kalyan - MPCB",23-12-2025 08:00:00,19.192056,72.9585188,PM10,171,197,174
India,Maharashtra,Kalyan,"Pimpleshwar Mandir, Kalyan - MPCB",23-12-2025 08:00:00,19.192056,72.9585188,OZONE,4,114,15
India,Maharashtra,Mumbai,"Deonar, Mumbai - IITM",23-12-2025 08:00:00,19.04946,72.9230,OZONE,1,30,1
India,Maharashtra,Mumbai,"Ghatkopar, Mumbai - BMC",23-12-2025 08:00:00,19.083694,72.920967,NO2,33,100,62
India,Maharashtra,Mumbai,"Kandivali West, Mumbai - BMC",23-12-2025 08:00:00,19.215859,72.831718,SO2,3,9,6
India,Maharashtra,Mumbai,"Kherwadi_Bandra East, Mumbai - MPCB",23-12-2025 08:00:00,19.0632143,72.8456324,NH3,10,21,16
India,Maharashtra,Mira-Bhayandar,"Bhayandar West, Mira-Bhayandar - MPCB",23-12-2025 08:00:00,19.296481,72.840923,NO2,18,77,49
India,Maharashtra,Mumbai,"Borivali East, Mumbai - IITM",23-12-2025 08:00:00,19.23241,72.86895,PM2.5,48,80,63
India,Maharashtra,Mumbai,"Borivali East, Mumbai - MPCB",23-12-2025 08:00:00,19.2243333,72.8658113,PM2.5,52,100,74
India,Maharashtra,Mumbai,"Borivali East, Mumbai - MPCB",23-12-2025 08:00:00,19.2243333,72.8658113,SO2,16,20,18
India,Maharashtra,Boisar,"Khaira, Boisar - MPCB",23-12-2025 08:00:00,19.786089,72.757971,PM2.5,59,181,90
India,Maharashtra,Chandrapur,"Chauhan Colony, Chandrapur - MPCB",23-12-2025 08:00:00,19.962900,79.298714,CO,30,74,59
India,Maharashtra,Chandrapur,"MIDC Khutala, Chandrapur - MPCB",23-12-2025 08:00:00,19.9775302,79.2337086,NO2,11,59,26
India,Maharashtra,Chandrapur,"MIDC Khutala, Chandrapur - MPCB",23-12-2025 08:00:00,19.9775302,79.2337086,CO,35,42,39
India,Maharashtra,Badlapur,"Katrap, Badlapur - MPCB",23-12-2025 08:00:00,19.16485,73.23409,SO2,5,13,9
India,Maharashtra,Belapur,"CBD Belapur, Belapur - MPCB",23-12-2025 08:00:00,19.0243902,73.0406721,CO,8,56,39
India,Maharashtra,Navi Mumbai,"Tondare-Taloja, Navi Mumbai - MPCB",23-12-2025 08:00:00,19.0630,73.1209,SO2,5,5,5
India,Maharashtra,Parbhani,"Masoom Colony, Parbhani - MPCB",23-12-2025 08:00:00,19.265594,76.761463,NO2,25,94,51
India,Maharashtra,Pimpri-Chinchwad,"Gavalinagar, Pimpri Chinchwad - MPCB",23-12-2025 08:00:00,18.63673,73.82487,NO2,NA,NA,NA
India,Maharashtra,Pimpri-Chinchwad,"Park Street Wakad, Pimpri Chinchwad - MPCB",23-12-2025 08:00:00,18.59051,73.77946,NO2,37,116,66
India,Maharashtra,Pimpri-Chinchwad,"Park Street Wakad, Pimpri Chinchwad - MPCB",23-12-2025 08:00:00,18.59051,73.77946,CO,23,151,102
India,Maharashtra,Pimpri-Chinchwad,"Park Street Wakad, Pimpri Chinchwad - MPCB",23-12-2025 08:00:00,18.59051,73.77946,OZONE,2,94,4
India,Maharashtra,Pimpri-Chinchwad,"Savta Mali Nagar, Pimpri-Chinchwad - IITM",23-12-2025 08:00:00,18.614767,73.799516,NO2,18,132,70
India,Maharashtra,Pimpri-Chinchwad,"Savta Mali Nagar, Pimpri-Chinchwad - IITM",23-12-2025 08:00:00,18.614767,73.799516,CO,76,139,90
India,Maharashtra,Pimpri-Chinchwad,"Savta Mali Nagar, Pimpri-Chinchwad - IITM",23-12-2025 08:00:00,18.614767,73.799516,OZONE,2,50,3
India,Maharashtra,Pimpri-Chinchwad,"Thergaon, Pimpri Chinchwad - MPCB",23-12-2025 08:00:00,18.616318,73.765797,PM2.5,25,237,129
India,Maharashtra,Pune,"Bhumkar Nagar, Pune - IITM",23-12-2025 08:00:00,18.605770,73.749976,PM2.5,198,354,287
India,Maharashtra,Pune,"Bhumkar Nagar, Pune - IITM",23-12-2025 08:00:00,18.605770,73.749976,CO,20,119,85
India,Maharashtra,Sangli,"Vijay Nagar, Sangli - MPCB",23-12-2025 08:00:00, 16.5038,74.3623,PM10,NA,NA,NA
India,Maharashtra,Sangli,"Vijay Nagar, Sangli - MPCB",23-12-2025 08:00:00, 16.5038,74.3623,OZONE,NA,NA,NA
India,Maharashtra,Solapur,"Dnyaneshwar Nagar, Solapur - MPCB",23-12-2025 08:00:00,17.6336264,75.9132495,PM10,66,125,100
India,Maharashtra,Solapur,"Dnyaneshwar Nagar, Solapur - MPCB",23-12-2025 08:00:00,17.6336264,75.9132495,CO,18,69,36
India,Maharashtra,Solapur,"Ratandeep Housing Society, Solapur - MPCB",23-12-2025 08:00:00,17.65439,75.90649,NO2,18,107,51
India,Maharashtra,Solapur,"Ratandeep Housing Society, Solapur - MPCB",23-12-2025 08:00:00,17.65439,75.90649,OZONE,1,155,22
India,Maharashtra,Nagpur,"Opp GPO Civil Lines, Nagpur - MPCB",23-12-2025 08:00:00,21.152875,79.0517531,OZONE,3,73,5
India,Maharashtra,Nagpur,"Ram Nagar, Nagpur - MPCB",23-12-2025 08:00:00,21.143383,79.048912,PM2.5,78,207,106
India,Maharashtra,Nagpur,"Ram Nagar, Nagpur - MPCB",23-12-2025 08:00:00,21.143383,79.048912,NH3,6,9,7
India,Maharashtra,Nanded,"Sneh Nagar, Nanded - MPCB",23-12-2025 08:00:00,19.173852,77.296291,PM10,97,205,130
India,Maharashtra,Nashik,"Gangapur Road, Nashik - MPCB",23-12-2025 08:00:00,20.0073285,73.7762427,NH3,3,3,3
India,Maharashtra,Navi Mumbai,"Nerul, Navi Mumbai - MPCB",23-12-2025 08:00:00,19.008751,73.016620,NO2,37,38,38
India,Maharashtra,Navi Mumbai,"Nerul, Navi Mumbai - MPCB",23-12-2025 08:00:00,19.008751,73.016620,SO2,NA,NA,NA
India,Maharashtra,Navi Mumbai,"Sanpada, Navi Mumbai - MPCB",23-12-2025 08:00:00,19.0575752,73.0151367,PM2.5,65,322,147
India,Maharashtra,Navi Mumbai,"Sanpada, Navi Mumbai - MPCB",23-12-2025 08:00:00,19.0575752,73.0151367,OZONE,41,41,41
India,Maharashtra,Navi Mumbai,"Sector-2E Kalamboli, Navi Mumbai - MPCB",23-12-2025 08:00:00,19.02579,73.10297,SO2,1,6,4
India,Maharashtra,Pune,"Katraj Dairy, Pune - MPCB",23-12-2025 08:00:00,18.454450,73.854155,NO2,25,84,50
India,Maharashtra,Pune,"Panchawati_Pashan, Pune - IITM",23-12-2025 08:00:00,18.536457,73.805454,CO,4,39,27
India,Maharashtra,Pune,"Revenue Colony-Shivajinagar, Pune - IITM",23-12-2025 08:00:00,18.530085,73.849598,OZONE,4,73,7
India,Maharashtra,Nashik,"Hirawadi, Nashik - MPCB",23-12-2025 08:00:00,20.021503,73.813844,OZONE,2,70,9
India,Maharashtra,Nashik,"MIDC Ambad, Nashik - MPCB",23-12-2025 08:00:00,19.950220,73.731480,SO2,16,31,21
India,Maharashtra,Nashik,"Pandav Nagari, Nashik - MPCB",23-12-2025 08:00:00,19.9591346,73.7788008,SO2,1,15,8
India,Maharashtra,Mumbai,"Sion, Mumbai - MPCB",23-12-2025 08:00:00,19.047000,72.874600,CO,6,14,13
India,Maharashtra,Mumbai,"Vile Parle West, Mumbai - MPCB",23-12-2025 08:00:00,19.10861,72.83622,CO,34,68,38
India,Maharashtra,Nagpur,"Mahal, Nagpur - MPCB",23-12-2025 08:00:00,21.14472,79.107595,NO2,23,109,57
India,Maharashtra,Nashik,"Hirawadi, Nashik - MPCB",23-12-2025 08:00:00,20.021503,73.813844,NO2,6,44,18
India,Odisha,Angul,"Hakimapada, Angul - OSPCB",23-12-2025 08:00:00,20.832874,85.104082,SO2,10,59,26
India,Odisha,Angul,"Hakimapada, Angul - OSPCB",23-12-2025 08:00:00,20.832874,85.104082,CO,35,102,54
India,Odisha,Balasore,"Kalidaspur, Balasore - OSPCB",23-12-2025 08:00:00,21.51161,86.89088,PM10,104,268,164
India,Odisha,Balasore,"Kalidaspur, Balasore - OSPCB",23-12-2025 08:00:00,21.51161,86.89088,OZONE,12,67,20
India,Odisha,Barbil,"Forest Office, Barbil - OSPCB",23-12-2025 08:00:00,22.1166054,85.3945546,NH3,1,11,2
India,Odisha,Barbil,"Forest Office, Barbil - OSPCB",23-12-2025 08:00:00,22.1166054,85.3945546,SO2,7,83,19
India,Meghalaya,Shillong,"Lumpyngngad, Shillong - Meghalaya PCB",23-12-2025 08:00:00,25.5586,91.8985,NO2,NA,NA,NA
India,Meghalaya,Shillong,"Lumpyngngad, Shillong - Meghalaya PCB",23-12-2025 08:00:00,25.5586,91.8985,SO2,6,9,7
India,Mizoram,Aizawl,"Sikulpuikawn, Aizawl - Mizoram PCB",23-12-2025 08:00:00,23.7176342,92.7192841,PM2.5,35,41,38
India,Nagaland,Kohima,"PWD Junction, Kohima - NPCB",23-12-2025 08:00:00,25.6635413,94.0989878,PM10,12,80,29
India,Nagaland,Kohima,"PWD Junction, Kohima - NPCB",23-12-2025 08:00:00,25.6635413,94.0989878,NH3,1,1,1
India,Maharashtra,Thane,"Kasarvadavali, Thane - MPCB",23-12-2025 08:00:00,19.26777,72.97182,SO2,6,38,14
India,Maharashtra,Thane,"Upvan Fort, Thane - MPCB",23-12-2025 08:00:00,19.222279,72.957979,OZONE,4,113,21
India,Maharashtra,Ulhasnagar,"Sidhi Vinayak Nagar, Ulhasnagar - MPCB",23-12-2025 08:00:00,19.235581,73.159121,CO,11,101,20
India,Maharashtra,Virar,"Bolinj, Virar - MPCB",23-12-2025 08:00:00,19.4458210,72.7988231,NH3,1,3,3
India,Odisha,Bhubaneswar,"Lingraj Mandir, Bhubaneswar - OSPCB",23-12-2025 08:00:00,20.240790,85.836784,PM10,113,416,183
India,Odisha,Bhubaneswar,"Lingraj Mandir, Bhubaneswar - OSPCB",23-12-2025 08:00:00,20.240790,85.836784,OZONE,3,264,14
India,Odisha,Bhubaneswar,"Lingraj Mandir, Bhubaneswar - OSPCB",23-12-2025 08:00:00,20.240790,85.836784,NO2,19,147,68
India,Odisha,Keonjhar,"Jagamohanpur, Keonjhar - OSPCB",23-12-2025 08:00:00,21.643900,85.599355,OZONE,17,19,17
India,Odisha,Bhubaneswar,"Patia, Bhubaneswar - OSPCB",23-12-2025 08:00:00,20.34652,85.81630,PM10,122,291,173
India,Odisha,Angul,"Hakimapada, Angul - OSPCB",23-12-2025 08:00:00,20.832874,85.104082,PM10,137,276,190
India,Odisha,Nayagarh,"Dabuna, Nayagarh - OSPCB",23-12-2025 08:00:00,21.847279,85.416905,NH3,6,7,6
India,Odisha,Nayagarh,"Dabuna, Nayagarh - OSPCB",23-12-2025 08:00:00,21.847279,85.416905,SO2,5,16,8
India,Odisha,Rairangpur,"Divisional Forest Office, Rairangpur - OSPCB",23-12-2025 08:00:00,22.265816,86.174829,SO2,NA,NA,NA
India,Odisha,Rourkela,"Fertilizer Township, Rourkela - OSPCB",23-12-2025 08:00:00,22.18972222,84.86277778,PM10,101,106,103
India,Odisha,Rourkela,"Fertilizer Township, Rourkela - OSPCB",23-12-2025 08:00:00,22.18972222,84.86277778,NO2,11,11,11
India,Odisha,Talcher,"Talcher Coalfields,Talcher - OSPCB",23-12-2025 08:00:00,20.9360711,85.1707021,SO2,29,73,44
India,Assam,Silchar,"Tarapur, Silchar - PCBA",23-12-2025 08:00:00,24.82827,92.79525,NH3,1,1,1
India,Assam,Silchar,"Tarapur, Silchar - PCBA",23-12-2025 08:00:00,24.82827,92.79525,SO2,2,6,4
India,Assam,Sivasagar,"Girls College, Sivasagar - PCBA",23-12-2025 08:00:00,26.987634,94.636574,PM2.5,12,97,55
India,Assam,Sivasagar,"Girls College, Sivasagar - PCBA",23-12-2025 08:00:00,26.987634,94.636574,NO2,28,48,35
India,Bihar,Araria,"Kharahiya Basti, Araria - BSPCB",23-12-2025 08:00:00,26.146529,87.454184,NO2,NA,NA,NA
India,Bihar,Araria,"Kharahiya Basti, Araria - BSPCB",23-12-2025 08:00:00,26.146529,87.454184,OZONE,9,10,10
India,Bihar,Arrah,"New DM Office, Arrah - BSPCB",23-12-2025 08:00:00,25.5626095,84.663264,PM2.5,113,308,225
India,Bihar,Arrah,"New DM Office, Arrah - BSPCB",23-12-2025 08:00:00,25.5626095,84.663264,NO2,5,9,7
India,Andhra_Pradesh,Vijayawada,"HB Colony, Vijayawada - APPCB",23-12-2025 08:00:00,16.536107,80.594233,NH3,3,3,3
India,Andhra_Pradesh,Vijayawada,"HB Colony, Vijayawada - APPCB",23-12-2025 08:00:00,16.536107,80.594233,CO,33,35,33
India,Andhra_Pradesh,Vijayawada,"Kanuru, Vijayawada - APPCB",23-12-2025 08:00:00,16.486692,80.699436,PM2.5,56,131,80
India,Andhra_Pradesh,Vijayawada,"Kanuru, Vijayawada - APPCB",23-12-2025 08:00:00,16.486692,80.699436,PM10,52,117,80
India,Andhra_Pradesh,Vijayawada,"Kanuru, Vijayawada - APPCB",23-12-2025 08:00:00,16.486692,80.699436,NO2,31,150,38
India,Andhra_Pradesh,Vijayawada,"Kanuru, Vijayawada - APPCB",23-12-2025 08:00:00,16.486692,80.699436,SO2,15,20,17
India,Andhra_Pradesh,Vijayawada,"Rajiv Nagar, Vijayawada - APPCB",23-12-2025 08:00:00,16.554731,80.649110,SO2,13,17,14
India,Andhra_Pradesh,Vijayawada,"Rajiv Nagar, Vijayawada - APPCB",23-12-2025 08:00:00,16.554731,80.649110,OZONE,77,117,95
India,Assam,Guwahati,"Pan Bazaar, Guwahati - PCBA",23-12-2025 08:00:00,26.187500,91.744194,CO,14,101,43
India,Assam,Guwahati,"Pan Bazaar, Guwahati - PCBA",23-12-2025 08:00:00,26.187500,91.744194,OZONE,17,18,17
India,Assam,Guwahati,"Railway Colony, Guwahati - PCBA",23-12-2025 08:00:00,26.181742,91.78063,CO,32,104,92
India,Assam,Nagaon,"Christianpatty, Nagaon - PCBA",23-12-2025 08:00:00,26.349082,92.68449,NO2,1,1,1
India,Assam,Nalbari,"Bata Chowk, Nalbari - PCBA",23-12-2025 08:00:00,26.446912,91.439057,NO2,14,15,15
India,Assam,Nalbari,"Bata Chowk, Nalbari - PCBA",23-12-2025 08:00:00,26.446912,91.439057,OZONE,14,51,16
India,Andhra_Pradesh,Visakhapatnam,"GVM Corporation, Visakhapatnam - APPCB",23-12-2025 08:00:00,17.72,83.3,NH3,4,4,4
India,Arunachal_Pradesh,Naharlagun,"Naharlagun, Naharlagun - APSPCB",23-12-2025 08:00:00,27.103358,93.679645,CO,10,86,22
India,Assam,Byrnihat,"Central Academy for SFS, Byrnihat - PCBA",23-12-2025 08:00:00,26.071318,91.87488,NO2,NA,NA,NA
India,Assam,Byrnihat,"Central Academy for SFS, Byrnihat - PCBA",23-12-2025 08:00:00,26.071318,91.87488,CO,NA,NA,NA
India,Andhra_Pradesh,Kadapa,"Yerramukkapalli, Kadapa - APPCB",23-12-2025 08:00:00,14.465052,78.824187,OZONE,17,20,18
India,Andhra_Pradesh,Rajamahendravaram,"Anand Kala Kshetram, Rajamahendravaram - APPCB",23-12-2025 08:00:00,16.9872867,81.7363176,CO,33,70,49
India,Andhra_Pradesh,Tirumala,"Toll Gate, Tirumala - APPCB",23-12-2025 08:00:00,13.67,79.35,PM2.5,87,242,150
India,Andhra_Pradesh,Tirumala,"Toll Gate, Tirumala - APPCB",23-12-2025 08:00:00,13.67,79.35,NH3,1,2,1
India,Andaman and Nicobar,Sri Vijaya Puram,"Police Line, Sri Vijaya Puram - ANPCC",23-12-2025 08:00:00,11.654054,92.734055,NO2,NA,NA,NA
India,Andaman and Nicobar,Sri Vijaya Puram,"Police Line, Sri Vijaya Puram - ANPCC",23-12-2025 08:00:00,11.654054,92.734055,CO,14,45,35
India,Andaman and Nicobar,Sri Vijaya Puram,"Police Line, Sri Vijaya Puram - ANPCC",23-12-2025 08:00:00,11.654054,92.734055,OZONE,11,15,12
India,Andaman and Nicobar,Sri Vijaya Puram,"Police Line, Sri Vijaya Puram - ANPCC",23-12-2025 08:00:00,11.654054,92.734055,PM10,NA,NA,NA
India,Andhra_Pradesh,Chittoor,"Gangineni Cheruvu, Chittoor - APPCB",23-12-2025 08:00:00,13.204880,79.097889,CO,18,38,22
India,Andhra_Pradesh,Tirupati,"Vaikuntapuram, Tirupati - APPCB",23-12-2025 08:00:00,13.615387,79.409230,SO2,18,22,21
India,Andhra_Pradesh,Anantapur,"Gulzarpet, Anantapur - APPCB",23-12-2025 08:00:00,14.675886,77.593027,NO2,29,29,29
India,Bihar,Patna,"Samanpura, Patna - BSPCB",23-12-2025 08:00:00,25.596727,85.085624,NO2,19,23,22
India,Bihar,Patna,"Samanpura, Patna - BSPCB",23-12-2025 08:00:00,25.596727,85.085624,CO,6,144,56
India,Bihar,Purnia,"Mariam Nagar, Purnia - BSPCB",23-12-2025 08:00:00,25.366336,87.117468,OZONE,20,27,25
India,Bihar,Rajgir,"Dangi Tola, Rajgir - BSPCB",23-12-2025 08:00:00,25.03280,85.41948,PM2.5,43,287,156
India,Bihar,Rajgir,"Dangi Tola, Rajgir - BSPCB",23-12-2025 08:00:00,25.03280,85.41948,PM10,47,171,118
India,Bihar,Rajgir,"Dangi Tola, Rajgir - BSPCB",23-12-2025 08:00:00,25.03280,85.41948,NO2,8,10,9
India,Bihar,Rajgir,"Dangi Tola, Rajgir - BSPCB",23-12-2025 08:00:00,25.03280,85.41948,CO,82,100,90
India,Bihar,Rajgir,"Dangi Tola, Rajgir - BSPCB",23-12-2025 08:00:00,25.03280,85.41948,OZONE,31,33,32
India,Bihar,Saharsa,"Police Line, Saharsa - BSPCB",23-12-2025 08:00:00,25.892357,86.590325,NH3,4,4,4
India,Chandigarh,Chandigarh,"Sector-25, Chandigarh - CPCC",23-12-2025 08:00:00,30.751462,76.762879,PM2.5,134,300,217
India,Chandigarh,Chandigarh,"Sector-25, Chandigarh - CPCC",23-12-2025 08:00:00,30.751462,76.762879,CO,26,64,37
India,Chandigarh,Chandigarh,"Sector-53, Chandigarh - CPCC",23-12-2025 08:00:00,30.719859,76.738637,PM10,64,192,123
India,Chandigarh,Chandigarh,"Sector-53, Chandigarh - CPCC",23-12-2025 08:00:00,30.719859,76.738637,CO,15,123,42
India,Chhattisgarh,Bhilai,"32Bungalows, Bhilai - CECB",23-12-2025 08:00:00,21.194815,81.314770,PM2.5,13,34,21
India,Chhattisgarh,Bhilai,"32Bungalows, Bhilai - CECB",23-12-2025 08:00:00,21.194815,81.314770,NO2,25,112,62
India,Chhattisgarh,Bhilai,"Civic Center, Bhilai - Bhilai Steel Plant",23-12-2025 08:00:00,21.185571,81.343175,PM10,41,148,70
India,Chhattisgarh,Bhilai,"Civic Center, Bhilai - Bhilai Steel Plant",23-12-2025 08:00:00,21.185571,81.343175,OZONE,5,16,8
India,Bihar,Munger,"Town Hall, Munger - BSPCB",23-12-2025 08:00:00,25.376776,86.471523,SO2,35,63,48
India,Bihar,Muzaffarpur,"Buddha Colony, Muzaffarpur - BSPCB",23-12-2025 08:00:00,26.11442,85.39813,PM2.5,142,313,236
India,Bihar,Muzaffarpur,"Buddha Colony, Muzaffarpur - BSPCB",23-12-2025 08:00:00,26.11442,85.39813,NH3,5,7,6
India,Bihar,Muzaffarpur,"Buddha Colony, Muzaffarpur - BSPCB",23-12-2025 08:00:00,26.11442,85.39813,OZONE,13,54,17
India,Bihar,Muzaffarpur,"MIT-Daudpur Kothi, Muzaffarpur - BSPCB",23-12-2025 08:00:00,26.1403345,85.3650192,NO2,NA,NA,NA
India,Bihar,Muzaffarpur,"MIT-Daudpur Kothi, Muzaffarpur - BSPCB",23-12-2025 08:00:00,26.1403345,85.3650192,NH3,1,2,1
India,Bihar,Muzaffarpur,"Muzaffarpur Collectorate, Muzaffarpur - BSPCB",23-12-2025 08:00:00,26.1209,85.3647,PM2.5,95,160,137
India,Bihar,Katihar,"Mirchaibari, Katihar - BSPCB",23-12-2025 08:00:00,25.560083,87.553265,NH3,1,1,1
India,Bihar,Katihar,"Mirchaibari, Katihar - BSPCB",23-12-2025 08:00:00,25.560083,87.553265,OZONE,6,8,6
India,Bihar,Kishanganj,"SDM Office_Khagra, Kishanganj - BSPCB",23-12-2025 08:00:00,26.0881305,87.93840336,CO,14,20,15
India,Bihar,Motihari,"Gandak Colony, Motihari - BSPCB",23-12-2025 08:00:00,26.63086,84.90051,PM2.5,173,366,241
India,Bihar,Motihari,"Gandak Colony, Motihari - BSPCB",23-12-2025 08:00:00,26.63086,84.90051,CO,16,26,20
India,Bihar,Motihari,"Gandak Colony, Motihari - BSPCB",23-12-2025 08:00:00,26.63086,84.90051,OZONE,2,4,3
India,Bihar,Samastipur,"DM Office_Kasipur, Samastipur - BSPCB",23-12-2025 08:00:00,25.859655,85.77944,NO2,NA,NA,NA
India,Bihar,Sasaram,"Dada Peer, Sasaram - BSPCB",23-12-2025 08:00:00,24.952822,84.002396,NH3,3,3,3
India,Bihar,Sasaram,"Dada Peer, Sasaram - BSPCB",23-12-2025 08:00:00,24.952822,84.002396,CO,48,56,52
India,Bihar,Siwan,"Chitragupta Nagar, Siwan - BSPCB",23-12-2025 08:00:00,26.2271665,84.3570427,NO2,1,4,3
India,Bihar,Siwan,"Chitragupta Nagar, Siwan - BSPCB",23-12-2025 08:00:00,26.2271665,84.3570427,CO,83,86,86
India,Bihar,Bhagalpur,"DM Office_Kachari Chowk, Bhagalpur - BSPCB",23-12-2025 08:00:00,25.251013,86.989001,CO,12,16,14
India,Bihar,Bhagalpur,"Mayaganj, Bhagalpur - BSPCB",23-12-2025 08:00:00,25.265194,87.012947,SO2,48,56,51
India,Bihar,Chhapra,"Darshan Nagar, Chhapra - BSPCB",23-12-2025 08:00:00,25.7808257,84.7446768,PM10,NA,NA,NA
India,Bihar,Chhapra,"Darshan Nagar, Chhapra - BSPCB",23-12-2025 08:00:00,25.7808257,84.7446768,SO2,NA,NA,NA
India,Bihar,Chhapra,"Darshan Nagar, Chhapra - BSPCB",23-12-2025 08:00:00,25.7808257,84.7446768,CO,NA,NA,NA
India,Bihar,Patna,"DRM Office Danapur, Patna - BSPCB",23-12-2025 08:00:00,25.586562,85.043586,NH3,5,14,8
India,Bihar,Patna,"DRM Office Danapur, Patna - BSPCB",23-12-2025 08:00:00,25.586562,85.043586,CO,46,118,70
India,Bihar,Patna,"Govt. High School Shikarpur, Patna - BSPCB",23-12-2025 08:00:00,25.592539,85.227158,OZONE,8,14,11
India,Bihar,Patna,"IGSC Planetarium Complex, Patna - BSPCB",23-12-2025 08:00:00,25.610369,85.132568,NO2,14,16,15
India,Bihar,Gaya,"SFTI Kusdihra, Gaya - BSPCB",23-12-2025 08:00:00,24.762518,84.982348,PM2.5,76,109,97
India,Bihar,Hajipur,"Industrial Area, Hajipur - BSPCB",23-12-2025 08:00:00,25.697189,85.245900,NO2,12,50,28
India,Bihar,Hajipur,"Industrial Area, Hajipur - BSPCB",23-12-2025 08:00:00,25.697189,85.245900,NH3,2,6,4
India,Bihar,Hajipur,"Industrial Area, Hajipur - BSPCB",23-12-2025 08:00:00,25.697189,85.245900,OZONE,8,75,11
India,Bihar,Aurangabad,"Gurdeo Nagar, Aurangabad - BSPCB",23-12-2025 08:00:00,24.75746,84.366208,OZONE,1,50,4
India,Bihar,Bettiah,"Kamalnath Nagar, Bettiah - BSPCB",23-12-2025 08:00:00,26.80365,84.51954,PM10,14,345,113
India,Bihar,Bettiah,"Kamalnath Nagar, Bettiah - BSPCB",23-12-2025 08:00:00,26.80365,84.51954,OZONE,22,24,23
India,Chhattisgarh,Korba,"Urja Nagar, Korba - CECB",23-12-2025 08:00:00,22.348441,82.549611,SO2,2,94,22
India,Chhattisgarh,Kunjemura,"OP Jindal School, Kunjemura - CECB",23-12-2025 08:00:00,22.126650,83.483212,PM2.5,45,112,88
India,Chhattisgarh,Kunjemura,"OP Jindal School, Kunjemura - CECB",23-12-2025 08:00:00,22.126650,83.483212,NO2,31,97,59
India,Chhattisgarh,Kunjemura,"OP Jindal School, Kunjemura - CECB",23-12-2025 08:00:00,22.126650,83.483212,SO2,NA,NA,NA
India,Chhattisgarh,Milupara,"Govt. Higher Secondary School, Milupara - CECB",23-12-2025 08:00:00,22.1910172,83.5197009,PM10,107,211,146
India,Chhattisgarh,Milupara,"Govt. Higher Secondary School, Milupara - CECB",23-12-2025 08:00:00,22.1910172,83.5197009,NH3,1,2,2
India,Chhattisgarh,Milupara,"Govt. Higher Secondary School, Milupara - CECB",23-12-2025 08:00:00,22.1910172,83.5197009,OZONE,4,199,12
India,Chhattisgarh,Raipur,"AIIMS, Raipur - CECB",23-12-2025 08:00:00,21.258815,81.578979,NH3,3,4,4
India,Chhattisgarh,Raipur,"Bhatagaon New ISBT, Raipur - CECB",23-12-2025 08:00:00,21.219665,81.630094,PM10,30,446,90
India,Chhattisgarh,Raipur,"Bhatagaon New ISBT, Raipur - CECB",23-12-2025 08:00:00,21.219665,81.630094,NO2,NA,NA,NA
India,Delhi,Delhi,"Lodhi Road, Delhi - IMD",23-12-2025 08:00:00,28.5918245,77.2273074,PM2.5,319,409,375
India,Delhi,Delhi,"Lodhi Road, Delhi - IMD",23-12-2025 08:00:00,28.5918245,77.2273074,PM10,244,409,349
India,Delhi,Delhi,"Lodhi Road, Delhi - IMD",23-12-2025 08:00:00,28.5918245,77.2273074,NO2,13,62,30
India,Delhi,Delhi,"Lodhi Road, Delhi - IMD",23-12-2025 08:00:00,28.5918245,77.2273074,OZONE,4,63,7
India,Delhi,Delhi,"Major Dhyan Chand National Stadium, Delhi - DPCC",23-12-2025 08:00:00,28.611281,77.237738,PM10,226,448,386
India,Delhi,Delhi,"Major Dhyan Chand National Stadium, Delhi - DPCC",23-12-2025 08:00:00,28.611281,77.237738,NO2,44,180,86
India,Delhi,Delhi,"Mandir Marg, Delhi - DPCC",23-12-2025 08:00:00,28.636429,77.201067,PM2.5,290,460,392
India,Delhi,Delhi,"Mandir Marg, Delhi - DPCC",23-12-2025 08:00:00,28.636429,77.201067,NO2,14,139,89
India,Delhi,Delhi,"ITO, Delhi - CPCB",23-12-2025 08:00:00,28.628624,77.241060,NO2,62,226,134
India,Delhi,Delhi,"ITO, Delhi - CPCB",23-12-2025 08:00:00,28.628624,77.241060,SO2,11,47,31
India,Delhi,Delhi,"ITO, Delhi - CPCB",23-12-2025 08:00:00,28.628624,77.241060,CO,15,144,91
India,Delhi,Delhi,"ITO, Delhi - CPCB",23-12-2025 08:00:00,28.628624,77.241060,OZONE,29,42,29
India,Delhi,Delhi,"Jahangirpuri, Delhi - DPCC",23-12-2025 08:00:00,28.732820,77.170633,NH3,4,7,6
India,Delhi,Delhi,"Jahangirpuri, Delhi - DPCC",23-12-2025 08:00:00,28.732820,77.170633,SO2,27,41,33
India,Delhi,Delhi,"Jahangirpuri, Delhi - DPCC",23-12-2025 08:00:00,28.732820,77.170633,CO,96,131,111
India,Delhi,Delhi,"Jawaharlal Nehru Stadium, Delhi - DPCC",23-12-2025 08:00:00,28.580280,77.233829,SO2,10,49,21
India,Chhattisgarh,Raipur,"Krishak Nagar, Raipur - CECB",23-12-2025 08:00:00,21.237755,81.705301,PM10,25,104,69
India,Chhattisgarh,Raipur,"Krishak Nagar, Raipur - CECB",23-12-2025 08:00:00,21.237755,81.705301,OZONE,1,3,1
India,Chhattisgarh,Tumidih,"OP Jindal Industrial Park, Tumidih - CECB",23-12-2025 08:00:00,22.06631475,83.33820077,PM2.5,83,215,139
India,Delhi,Delhi,"Alipur, Delhi - DPCC",23-12-2025 08:00:00,28.815329,77.153010,PM2.5,306,487,407
India,Delhi,Delhi,"Alipur, Delhi - DPCC",23-12-2025 08:00:00,28.815329,77.153010,NO2,35,80,53
India,Delhi,Delhi,"Najafgarh, Delhi - DPCC",23-12-2025 08:00:00,28.570173,76.933762,PM10,126,348,244
India,Delhi,Delhi,"Narela, Delhi - DPCC",23-12-2025 08:00:00,28.822836,77.101981,SO2,5,26,12
India,Delhi,Delhi,"Narela, Delhi - DPCC",23-12-2025 08:00:00,28.822836,77.101981,OZONE,6,76,6
India,Delhi,Delhi,"Nehru Nagar, Delhi - DPCC",23-12-2025 08:00:00,28.567890,77.250515,PM2.5,354,500,457
India,Delhi,Delhi,"North Campus, DU, Delhi - IMD",23-12-2025 08:00:00,28.6573814,77.1585447,OZONE,15,275,18
India,Delhi,Delhi,"Bawana, Delhi - DPCC",23-12-2025 08:00:00,28.776200,77.051074,NO2,21,64,35
India,Delhi,Delhi,"Chandni Chowk, Delhi - IITM",23-12-2025 08:00:00,28.656756,77.227234,PM2.5,350,495,428
India,Delhi,Delhi,"Chandni Chowk, Delhi - IITM",23-12-2025 08:00:00,28.656756,77.227234,NO2,56,161,97
India,Delhi,Delhi,"DTU, Delhi - CPCB",23-12-2025 08:00:00,28.7500499,77.1112615,PM2.5,345,479,420
India,Delhi,Delhi,"DTU, Delhi - CPCB",23-12-2025 08:00:00,28.7500499,77.1112615,SO2,30,39,36
India,Delhi,Delhi,"Dr. Karni Singh Shooting Range, Delhi - DPCC",23-12-2025 08:00:00,28.498571,77.264840,PM2.5,328,460,414
India,Delhi,Delhi,"Dr. Karni Singh Shooting Range, Delhi - DPCC",23-12-2025 08:00:00,28.498571,77.264840,OZONE,3,15,12
India,Delhi,Delhi,"Dwarka-Sector 8, Delhi - DPCC ",23-12-2025 08:00:00,28.5710274,77.0719006,CO,36,178,100
India,Delhi,Delhi,"IIT Delhi, Delhi - IITM",23-12-2025 08:00:00,28.542460,77.191651,PM2.5,306,453,390
India,Chhattisgarh,Bilaspur,"Mangala, Bilaspur - NTPC",23-12-2025 08:00:00,22.08815,82.13737,SO2,10,33,17
India,Chhattisgarh,Chhal,"Nawapara SECL Colony, Chhal - CECB",23-12-2025 08:00:00,22.118125,83.140608,SO2,9,89,40
India,Chhattisgarh,Korba,"Urja Nagar, Korba - CECB",23-12-2025 08:00:00,22.348441,82.549611,PM2.5,57,380,111
India,Delhi,Delhi,"Anand Vihar, Delhi - DPCC",23-12-2025 08:00:00,28.647622,77.3158090,NO2,44,157,82
India,Delhi,Delhi,"Ashok Vihar, Delhi - DPCC",23-12-2025 08:00:00,28.695381,77.181665,OZONE,5,103,5
India,Delhi,Delhi,"Aya Nagar, Delhi - IMD",23-12-2025 08:00:00,28.4706914,77.1099364,CO,57,124,106
India,Gujarat,Ahmedabad,"Raikhad, Ahmedabad - IITM",23-12-2025 08:00:00,23.020509,72.579261,CO,10,52,23
India,Gujarat,Ahmedabad,"Rakhial, Ahmedabad - IITM",23-12-2025 08:00:00,23.016834,72.625775,NO2,13,53,27
India,Gujarat,Ahmedabad,"Rakhial, Ahmedabad - IITM",23-12-2025 08:00:00,23.016834,72.625775,OZONE,4,65,15
India,Gujarat,Ahmedabad,"SAC ISRO Bopal, Ahmedabad - IITM",23-12-2025 08:00:00,23.041137,72.456691,PM2.5,79,189,150
India,Gujarat,Ahmedabad,"SAC ISRO Satellite, Ahmedabad - IITM",23-12-2025 08:00:00,23.023389,72.515201,PM2.5,53,76,67
India,Gujarat,Ahmedabad,"SVPI Airport Hansol, Ahmedabad - IITM",23-12-2025 08:00:00,23.076793,72.627874,PM2.5,38,87,61
India,Gujarat,Ahmedabad,"SVPI Airport Hansol, Ahmedabad - IITM",23-12-2025 08:00:00,23.076793,72.627874,PM10,88,181,126
India,Delhi,Delhi,"Wazirpur, Delhi - DPCC",23-12-2025 08:00:00,28.699793,77.165453,SO2,8,13,10
India,Gujarat,Ahmedabad,"Chandkheda, Ahmedabad - IITM",23-12-2025 08:00:00,23.107969,72.574648,PM10,85,173,119
India,Gujarat,Ahmedabad,"Chandkheda, Ahmedabad - IITM",23-12-2025 08:00:00,23.107969,72.574648,NO2,19,122,54
India,Gujarat,Ahmedabad,"Chandkheda, Ahmedabad - IITM",23-12-2025 08:00:00,23.107969,72.574648,NH3,5,13,8
India,Gujarat,Ahmedabad,"Gyaspur, Ahmedabad - IITM",23-12-2025 08:00:00,22.977134,72.553024,PM2.5,86,315,191
India,Gujarat,Ahmedabad,"Gyaspur, Ahmedabad - IITM",23-12-2025 08:00:00,22.977134,72.553024,NH3,6,51,15
India,Gujarat,Ahmedabad,"Maninagar, Ahmedabad - GPCB",23-12-2025 08:00:00,23.002657,72.591912,OZONE,38,95,46
India,Gujarat,Ahmedabad,"SVPI Airport Hansol, Ahmedabad - IITM",23-12-2025 08:00:00,23.076793,72.627874,CO,18,108,74
India,Gujarat,Ankleshwar,"GIDC, Ankleshwar - GPCB",23-12-2025 08:00:00,21.613267,73.010555,PM2.5,62,134,94
India,Gujarat,Ankleshwar,"GIDC, Ankleshwar - GPCB",23-12-2025 08:00:00,21.613267,73.010555,NO2,15,18,16
India,Gujarat,Ankleshwar,"GIDC, Ankleshwar - GPCB",23-12-2025 08:00:00,21.613267,73.010555,OZONE,35,40,36
India,Gujarat,Gandhinagar,"GIFT City, Gandhinagar - IITM",23-12-2025 08:00:00,23.163798,72.677768,PM2.5,43,86,60
India,Gujarat,Gandhinagar,"GIFT City, Gandhinagar - IITM",23-12-2025 08:00:00,23.163798,72.677768,SO2,7,15,11
India,Gujarat,Gandhinagar,"GIFT City, Gandhinagar - IITM",23-12-2025 08:00:00,23.163798,72.677768,CO,57,95,71
India,Haryana,Ballabgarh,"Nathu Colony, Ballabgarh - HSPCB",23-12-2025 08:00:00,28.3419248,77.319699,SO2,6,9,7
India,Haryana,Bhiwani,"H.B. Colony, Bhiwani - HSPCB",23-12-2025 08:00:00,28.806223,76.141105,OZONE,8,18,13
India,Haryana,Charkhi Dadri,"Mini Secretariat, Charkhi Dadri - HSPCB",23-12-2025 08:00:00,28.593883,76.270653,NO2,9,24,15
India,Haryana,Charkhi Dadri,"Mini Secretariat, Charkhi Dadri - HSPCB",23-12-2025 08:00:00,28.593883,76.270653,OZONE,13,17,15
India,Haryana,Dharuhera,"Municipal Corporation Office, Dharuhera -  HSPCB",23-12-2025 08:00:00,28.206800,76.799700,NO2,NA,NA,NA
India,Haryana,Faridabad,"New Industrial Town, Faridabad - HSPCB",23-12-2025 08:00:00,28.39072,77.30059,PM2.5,205,221,213
India,Haryana,Faridabad,"New Industrial Town, Faridabad - HSPCB",23-12-2025 08:00:00,28.39072,77.30059,NO2,24,27,25
India,Haryana,Faridabad,"Sector 11, Faridabad - HSPCB",23-12-2025 08:00:00,28.376058,77.315741,CO,30,104,51
India,Haryana,Faridabad,"Sector 30, Faridabad - HSPCB",23-12-2025 08:00:00,28.4417,77.3217,PM10,162,167,163
India,Haryana,Faridabad,"Sector 30, Faridabad - HSPCB",23-12-2025 08:00:00,28.4417,77.3217,NH3,10,12,11
India,Gujarat,Vapi,"Phase-1 GIDC, Vapi - GPCB",23-12-2025 08:00:00,20.362421,72.918013,PM2.5,16,193,93
India,Gujarat,Vapi,"Phase-1 GIDC, Vapi - GPCB",23-12-2025 08:00:00,20.362421,72.918013,SO2,15,32,27
India,Gujarat,Vatva,"Phase-4 GIDC, Vatva - GPCB",23-12-2025 08:00:00,22.969611,72.643500,CO,10,26,15
India,Haryana,Ambala,"Patti Mehar, Ambala - HSPCB",23-12-2025 08:00:00,30.379589,76.778328,NH3,9,11,10
India,Delhi,Delhi,"Okhla Phase-2, Delhi - DPCC",23-12-2025 08:00:00,28.530785,77.271255,PM10,238,497,417
India,Delhi,Delhi,"Patparganj, Delhi - DPCC",23-12-2025 08:00:00,28.623763,77.287209,NH3,13,22,17
India,Delhi,Delhi,"Patparganj, Delhi - DPCC",23-12-2025 08:00:00,28.623763,77.287209,CO,106,191,143
India,Delhi,Delhi,"Shadipur, Delhi - CPCB",23-12-2025 08:00:00,28.6514781,77.1473105,CO,48,128,82
India,Delhi,Delhi,"Shadipur, Delhi - CPCB",23-12-2025 08:00:00,28.6514781,77.1473105,OZONE,10,44,12
India,Delhi,Delhi,"Vivek Vihar, Delhi - DPCC",23-12-2025 08:00:00,28.672342,77.315260,OZONE,1,54,2
India,Haryana,Kurukshetra,"Sector-7, Kurukshetra - HSPCB",23-12-2025 08:00:00,29.966942,76.875879,PM10,155,300,211
India,Haryana,Kurukshetra,"Sector-7, Kurukshetra - HSPCB",23-12-2025 08:00:00,29.966942,76.875879,OZONE,1,30,2
India,Haryana,Mandikhera,"General Hospital, Mandikhera(Nuh) - HSPCB",23-12-2025 08:00:00,27.9002,76.9938,NO2,20,23,21
India,Haryana,Mandikhera,"General Hospital, Mandikhera(Nuh) - HSPCB",23-12-2025 08:00:00,27.9002,76.9938,NH3,13,14,13
India,Haryana,Manesar,"Sector-2 IMT, Manesar - HSPCB",23-12-2025 08:00:00,28.360699,76.936090,PM2.5,175,500,325
India,Haryana,Narnaul,"Shastri Nagar, Narnaul - HSPCB",23-12-2025 08:00:00,28.060249,76.113115,CO,40,78,53
India,Haryana,Hisar,"Urban Estate-II, Hisar - HSPCB",23-12-2025 08:00:00,29.140560,75.744941,NO2,NA,NA,NA
India,Haryana,Hisar,"Urban Estate-II, Hisar - HSPCB",23-12-2025 08:00:00,29.140560,75.744941,CO,14,56,55
India,Haryana,Jind,"Police Lines, Jind - HSPCB",23-12-2025 08:00:00,29.307814,76.337619,NO2,NA,NA,NA
India,Haryana,Jind,"Police Lines, Jind - HSPCB",23-12-2025 08:00:00,29.307814,76.337619,SO2,NA,NA,NA
India,Haryana,Jind,"Police Lines, Jind - HSPCB",23-12-2025 08:00:00,29.307814,76.337619,CO,NA,NA,NA
India,Haryana,Kaithal,"Rishi Nagar, Kaithal - HSPCB",23-12-2025 08:00:00,29.8006,76.4155,PM2.5,64,337,154
India,Haryana,Gurugram,"NISE Gwal Pahari, Gurugram - IMD",23-12-2025 08:00:00,28.422681,77.148944,CO,57,114,102
India,Haryana,Gurugram,"Sector-51, Gurugram - HSPCB",23-12-2025 08:00:00,28.4227,77.0667,PM2.5,338,500,412
India,Haryana,Gurugram,"Sector-51, Gurugram - HSPCB",23-12-2025 08:00:00,28.4227,77.0667,SO2,13,31,19
India,Haryana,Gurugram,"Sector-51, Gurugram - HSPCB",23-12-2025 08:00:00,28.4227,77.0667,CO,14,27,22
India,Haryana,Gurugram,"Teri Gram, Gurugram - HSPCB",23-12-2025 08:00:00,28.4275,77.1465,NH3,11,21,15
India,Himachal Pradesh,Baddi,"HIMUDA Complex Phase-1, Baddi - HPPCB",23-12-2025 08:00:00,30.943887,76.801991,SO2,36,105,61
India,Himachal Pradesh,Baddi,"HIMUDA Complex Phase-1, Baddi - HPPCB",23-12-2025 08:00:00,30.943887,76.801991,CO,56,117,86
India,Himachal Pradesh,Baddi,"HIMUDA Complex Phase-1, Baddi - HPPCB",23-12-2025 08:00:00,30.943887,76.801991,OZONE,6,108,21
India,Jammu_and_Kashmir,Pampore,"Khrew, Pampore - JKPCC",23-12-2025 08:00:00,34.031606,75.009712,PM2.5,12,42,24
India,Haryana,Panchkula,"Sector-6, Panchkula - HSPCB ",23-12-2025 08:00:00,30.7057778,76.8531805555555,PM2.5,84,384,299
India,Haryana,Panchkula,"Sector-6, Panchkula - HSPCB ",23-12-2025 08:00:00,30.7057778,76.8531805555555,CO,14,28,19
India,Haryana,Panchkula,"Sector-6, Panchkula - HSPCB ",23-12-2025 08:00:00,30.7057778,76.8531805555555,OZONE,34,42,39
India,Haryana,Panipat,"Sector-18, Panipat - HSPCB",23-12-2025 08:00:00,29.432304,76.972765,SO2,18,19,19
India,Haryana,Narnaul,"Shastri Nagar, Narnaul - HSPCB",23-12-2025 08:00:00,28.060249,76.113115,OZONE,16,81,17
India,Haryana,Palwal,"Shyam Nagar, Palwal - HSPCB",23-12-2025 08:00:00,28.1485564,77.3320667,PM2.5,42,66,58
India,Haryana,Palwal,"Shyam Nagar, Palwal - HSPCB",23-12-2025 08:00:00,28.1485564,77.3320667,NO2,23,24,24
India,Haryana,Palwal,"Shyam Nagar, Palwal - HSPCB",23-12-2025 08:00:00,28.1485564,77.3320667,SO2,3,15,10
India,Himachal Pradesh,Baddi,"HIMUDA Complex Phase-1, Baddi - HPPCB",23-12-2025 08:00:00,30.943887,76.801991,NO2,13,86,43
India,Haryana,Sonipat,"Murthal, Sonipat - HSPCB",23-12-2025 08:00:00,29.027200,77.062100,PM10,126,230,176
India,Haryana,Sonipat,"Murthal, Sonipat - HSPCB",23-12-2025 08:00:00,29.027200,77.062100,NH3,14,24,18
India,Karnataka,Bengaluru,"Hombegowda Nagar, Bengaluru - KSPCB",23-12-2025 08:00:00,12.938539,77.590100,OZONE,2,46,17
India,Karnataka,Bengaluru,"Jayanagar 5th Block, Bengaluru - KSPCB",23-12-2025 08:00:00,12.920984,77.584908,OZONE,10,45,26
India,Karnataka,Bengaluru,"Jigani, Bengaluru - KSPCB",23-12-2025 08:00:00,12.7816279,77.6299145,NO2,24,30,26
India,Karnataka,Bagalkot,"Vidayagiri, Bagalkot - KSPCB",23-12-2025 08:00:00,16.172806,75.659694,SO2,NA,NA,NA
India,Karnataka,Bagalkot,"Vidayagiri, Bagalkot - KSPCB",23-12-2025 08:00:00,16.172806,75.659694,OZONE,NA,NA,NA
India,Karnataka,Belgaum,"Ramteerth Nagar, Belgaum - KSPCB",23-12-2025 08:00:00,15.888653,74.541751,NH3,8,11,10
India,Karnataka,Belgaum,"Ramteerth Nagar, Belgaum - KSPCB",23-12-2025 08:00:00,15.888653,74.541751,SO2,22,23,23
India,Karnataka,Bengaluru,"Kasturi Nagar, Bengaluru - KSPCB",23-12-2025 08:00:00,13.003872,77.664217,NO2,NA,NA,NA
India,Karnataka,Bengaluru,"Kasturi Nagar, Bengaluru - KSPCB",23-12-2025 08:00:00,13.003872,77.664217,NH3,NA,NA,NA
India,Karnataka,Bengaluru,"Peenya, Bengaluru - CPCB",23-12-2025 08:00:00,13.0270199,77.494094,PM10,97,148,119
India,Jharkhand,Dhanbad,"Sardar Patel Nagar, Dhanbad - JSPCB",23-12-2025 08:00:00,23.80569,86.44268,NO2,53,56,54
India,Jharkhand,Dhanbad,"Sardar Patel Nagar, Dhanbad - JSPCB",23-12-2025 08:00:00,23.80569,86.44268,CO,8,84,58
India,Karnataka,Bengaluru,"BWSSB Kadabesanahalli, Bengaluru - CPCB",23-12-2025 08:00:00,12.9352049,77.6814488,CO,23,25,24
India,Karnataka,Bengaluru,"Hombegowda Nagar, Bengaluru - KSPCB",23-12-2025 08:00:00,12.938539,77.590100,PM10,57,86,71
India,Karnataka,Bengaluru,"BTM Layout, Bengaluru - CPCB",23-12-2025 08:00:00,12.9135218,77.5950804,CO,40,52,44
India,Karnataka,Bengaluru,"Peenya, Bengaluru - CPCB",23-12-2025 08:00:00,13.0270199,77.494094,SO2,5,14,8
India,Karnataka,Bengaluru,"Hebbal, Bengaluru - KSPCB",23-12-2025 08:00:00,13.029152,77.585901,NO2,6,8,7
India,Karnataka,Kalaburagi,"Lal Bahadur Shastri Nagar, Kalaburagi - KSPCB",23-12-2025 08:00:00,17.321993,76.822628,PM2.5,NA,NA,NA
India,Karnataka,Kalaburagi,"Lal Bahadur Shastri Nagar, Kalaburagi - KSPCB",23-12-2025 08:00:00,17.321993,76.822628,PM10,NA,NA,NA
India,Karnataka,Kalaburagi,"Mahatma Basaveswar Colony, Kalaburgi - KSPCB",23-12-2025 08:00:00,17.336318,76.847397,PM2.5,27,59,44
India,Karnataka,Bengaluru,"Shivapura_Peenya, Bengaluru - KSPCB",23-12-2025 08:00:00,13.0246342,77.5080115,PM10,105,131,115
India,Karnataka,Bengaluru,"Silk Board, Bengaluru - KSPCB",23-12-2025 08:00:00,12.917348,77.622813,NO2,NA,NA,NA
India,Karnataka,Chikkamagaluru,"Kalyana Nagara, Chikkamagaluru - KSPCB",23-12-2025 08:00:00,13.328028,75.797056,SO2,1,10,3
India,Karnataka,Chikkamagaluru,"Kalyana Nagara, Chikkamagaluru - KSPCB",23-12-2025 08:00:00,13.328028,75.797056,CO,11,12,11
India,Karnataka,Chikkamagaluru,"Kalyana Nagara, Chikkamagaluru - KSPCB",23-12-2025 08:00:00,13.328028,75.797056,OZONE,20,37,37
India,Karnataka,Kalaburagi,"Mahatma Basaveswar Colony, Kalaburgi - KSPCB",23-12-2025 08:00:00,17.336318,76.847397,NO2,12,18,15
India,Karnataka,Kalaburagi,"Mahatma Basaveswar Colony, Kalaburgi - KSPCB",23-12-2025 08:00:00,17.336318,76.847397,NH3,2,3,3
India,Karnataka,Chikkamagaluru,"Kalyana Nagara, Chikkamagaluru - KSPCB",23-12-2025 08:00:00,13.328028,75.797056,PM2.5,2,92,32
India,Karnataka,Chikkamagaluru,"Kalyana Nagara, Chikkamagaluru - KSPCB",23-12-2025 08:00:00,13.328028,75.797056,PM10,27,72,45
India,Karnataka,Koppal,"Diwator Nagar, Koppal - KSPCB",23-12-2025 08:00:00,15.347630,76.181767,CO,16,24,21
India,Karnataka,Koppal,"Diwator Nagar, Koppal - KSPCB",23-12-2025 08:00:00,15.347630,76.181767,OZONE,2,18,6
India,Karnataka,Davanagere,"Devaraj Urs Badavane, Davanagere - KSPCB",23-12-2025 08:00:00,14.475800,75.905200,NO2,NA,NA,NA
India,Karnataka,Davanagere,"Devaraj Urs Badavane, Davanagere - KSPCB",23-12-2025 08:00:00,14.475800,75.905200,NH3,NA,NA,NA
India,Karnataka,Bengaluru,"Sanegurava Halli, Bengaluru - KSPCB",23-12-2025 08:00:00,12.990328,77.5431385,PM10,6,53,43
India,Karnataka,Chamarajanagar,"Urban, Chamarajanagar - KSPCB",23-12-2025 08:00:00,11.55358,76.55521,PM2.5,17,54,34
India,Kerala,Thiruvananthapuram,"Plammoodu, Thiruvananthapuram - Kerala PCB",23-12-2025 08:00:00,8.5149093,76.9435879,CO,10,26,17
India,Kerala,Thrissur,"Corporation Ground, Thrissur - Kerala PCB",23-12-2025 08:00:00,10.532400,76.215900,PM2.5,43,64,51
India,Kerala,Thrissur,"Corporation Ground, Thrissur - Kerala PCB",23-12-2025 08:00:00,10.532400,76.215900,PM10,56,69,61
India,Kerala,Thrissur,"Corporation Ground, Thrissur - Kerala PCB",23-12-2025 08:00:00,10.532400,76.215900,SO2,1,1,1
India,Kerala,Thrissur,"Corporation Ground, Thrissur - Kerala PCB",23-12-2025 08:00:00,10.532400,76.215900,CO,18,34,20
India,Kerala,Thrissur,"Corporation Ground, Thrissur - Kerala PCB",23-12-2025 08:00:00,10.532400,76.215900,OZONE,29,30,29
India,Madhya Pradesh,Bhopal,"Idgah Hills, Bhopal - MPPCB",23-12-2025 08:00:00,23.264759,77.381568,PM10,89,203,141
India,Madhya Pradesh,Bhopal,"Idgah Hills, Bhopal - MPPCB",23-12-2025 08:00:00,23.264759,77.381568,CO,24,77,37
India,Madhya Pradesh,Bhopal,"Paryavaran Parisar, Bhopal - MPPCB",23-12-2025 08:00:00,23.210494,77.425409,PM2.5,37,404,167
India,Karnataka,Yadgir,"Collector Office, Yadgir - KSPCB",23-12-2025 08:00:00,16.7602,77.1428,SO2,4,16,11
India,Karnataka,Yadgir,"Collector Office, Yadgir - KSPCB",23-12-2025 08:00:00,16.7602,77.1428,CO,22,46,29
India,Kerala,Kannur,"Thavakkara, Kannur - Kerala PCB",23-12-2025 08:00:00,11.875000,75.373200,SO2,5,6,6
India,Kerala,Kannur,"Thavakkara, Kannur - Kerala PCB",23-12-2025 08:00:00,11.875000,75.373200,CO,16,18,18
India,Kerala,Kannur,"Thavakkara, Kannur - Kerala PCB",23-12-2025 08:00:00,11.875000,75.373200,OZONE,28,32,28
India,Kerala,Kollam,"Polayathode, Kollam - Kerala PCB",23-12-2025 08:00:00,8.8787,76.6073,PM2.5,189,347,278
India,Kerala,Thiruvananthapuram,"Kariavattom, Thiruvananthapuram - Kerala PCB",23-12-2025 08:00:00,8.563700,76.886500,NH3,1,1,1
India,Kerala,Thiruvananthapuram,"Plammoodu, Thiruvananthapuram - Kerala PCB",23-12-2025 08:00:00,8.5149093,76.9435879,PM2.5,55,98,70
India,Madhya Pradesh,Indore,"Chhoti Gwaltoli, Indore - MPPCB",23-12-2025 08:00:00,22.4310,75.5213,SO2,1,17,6
India,Madhya Pradesh,Indore,"Chhoti Gwaltoli, Indore - MPPCB",23-12-2025 08:00:00,22.4310,75.5213,OZONE,3,55,4
India,Madhya Pradesh,Indore,"Regional Park, Indore - IMC",23-12-2025 08:00:00,22.6780,75.8559,PM10,20,108,55
India,Madhya Pradesh,Indore,"Regional Park, Indore - IMC",23-12-2025 08:00:00,22.6780,75.8559,CO,26,63,56
India,Madhya Pradesh,Indore,"Regional Park, Indore - IMC",23-12-2025 08:00:00,22.6780,75.8559,OZONE,7,19,16
India,Madhya Pradesh,Indore,"Residency Area, Indore - IMC",23-12-2025 08:00:00,22.7084,75.8815,PM10,25,144,73
India,Madhya Pradesh,Indore,"Residency Area, Indore - IMC",23-12-2025 08:00:00,22.7084,75.8815,CO,18,40,32
India,Madhya Pradesh,Jabalpur,"Govindh Bhavan Colony, Jabalpur - JMC",23-12-2025 08:00:00,23.163174,79.973061,PM2.5,53,130,86
India,Madhya Pradesh,Maihar,"Sahilara, Maihar - KJS Cements",23-12-2025 08:00:00,24.2613009,80.7231783,SO2,17,17,17
India,Madhya Pradesh,Mandideep,"Sector-D Industrial Area, Mandideep - MPPCB",23-12-2025 08:00:00,23.108440,77.511428,NH3,NA,NA,NA
India,Madhya Pradesh,Mandideep,"Sector-D Industrial Area, Mandideep - MPPCB",23-12-2025 08:00:00,23.108440,77.511428,OZONE,9,92,18
India,Madhya Pradesh,Pithampur,"Sector-2 Industrial Area, Pithampur - MPPCB",23-12-2025 08:00:00,22.624758,75.675238,PM2.5,62,324,180
India,Madhya Pradesh,Pithampur,"Sector-2 Industrial Area, Pithampur - MPPCB",23-12-2025 08:00:00,22.624758,75.675238,NH3,2,3,3
India,Madhya Pradesh,Ratlam,"Shasthri Nagar, Ratlam - IPCA Lab",23-12-2025 08:00:00,23.331731,75.045981,PM2.5,11,100,72
India,Madhya Pradesh,Ratlam,"Shasthri Nagar, Ratlam - IPCA Lab",23-12-2025 08:00:00,23.331731,75.045981,NO2,5,19,10
India,Madhya Pradesh,Dewas,"Bhopal Chauraha, Dewas - MPPCB",23-12-2025 08:00:00,22.9682591,76.064118,OZONE,24,27,26
India,Madhya Pradesh,Gwalior,"City Center, Gwalior - MPPCB",23-12-2025 08:00:00,26.203442,78.193251,PM10,90,224,132
India,Madhya Pradesh,Gwalior,"Deen Dayal Nagar, Gwalior - MPPCB",23-12-2025 08:00:00,26.259242,78.216432,PM2.5,103,369,264
India,Madhya Pradesh,Gwalior,"Deen Dayal Nagar, Gwalior - MPPCB",23-12-2025 08:00:00,26.259242,78.216432,NO2,NA,NA,NA
India,Madhya Pradesh,Gwalior,"Maharaj Bada, Gwalior - MPPCB",23-12-2025 08:00:00,26.200388,78.147714,PM10,120,403,192
India,Madhya Pradesh,Gwalior,"Maharaj Bada, Gwalior - MPPCB",23-12-2025 08:00:00,26.200388,78.147714,NH3,6,6,6
India,Madhya Pradesh,Jabalpur,"Govindh Bhavan Colony, Jabalpur - JMC",23-12-2025 08:00:00,23.163174,79.973061,SO2,9,14,11
India,Madhya Pradesh,Jabalpur,"Govindh Bhavan Colony, Jabalpur - JMC",23-12-2025 08:00:00,23.163174,79.973061,CO,48,69,60
India,Madhya Pradesh,Jabalpur,"Marhatal, Jabalpur - MPPCB",23-12-2025 08:00:00,23.168606,79.932247,CO,14,128,62
India,Madhya Pradesh,Jabalpur,"Suhagi, Jabalpur - JMC",23-12-2025 08:00:00,23.218135,79.957770,PM10,44,160,89
India,Madhya Pradesh,Jabalpur,"Suhagi, Jabalpur - JMC",23-12-2025 08:00:00,23.218135,79.957770,OZONE,24,25,24
India,Madhya Pradesh,Bhopal,"T T Nagar, Bhopal - MPPCB",23-12-2025 08:00:00,23.233584,77.400574,OZONE,5,190,24
India,Madhya Pradesh,Dewas,"Bhopal Chauraha, Dewas - MPPCB",23-12-2025 08:00:00,22.9682591,76.064118,NO2,7,8,8
India,Karnataka,Shivamogga,"Vinoba Nagara, Shivamogga - KSPCB",23-12-2025 08:00:00,13.940000,75.555917,NO2,15,23,17
India,Karnataka,Mysuru,"Hebbal 1st Stage, Mysuru - KSPCB",23-12-2025 08:00:00,12.21041,76.37376,SO2,3,9,6
India,Maharashtra,Akola,"Ramdaspeth, Akola - MPCB",23-12-2025 08:00:00,20.719516,77.000253,PM10,54,208,111
India,Maharashtra,Akola,"Ramdaspeth, Akola - MPCB",23-12-2025 08:00:00,20.719516,77.000253,NH3,4,6,5
India,Maharashtra,Amravati,"Shivneri Colony, Amravati - MPCB",23-12-2025 08:00:00,20.9402359,77.7895248,PM2.5,42,134,84
India,Maharashtra,Amravati,"Shivneri Colony, Amravati - MPCB",23-12-2025 08:00:00,20.9402359,77.7895248,PM10,62,156,104
India,Maharashtra,Amravati,"Shivneri Colony, Amravati - MPCB",23-12-2025 08:00:00,20.9402359,77.7895248,SO2,18,40,25
India,Maharashtra,Amravati,"Shri Shivaji Science College, Amravati - MPCB",23-12-2025 08:00:00,20.939198,77.765701,PM2.5,59,159,91
India,Maharashtra,Amravati,"Shri Shivaji Science College, Amravati - MPCB",23-12-2025 08:00:00,20.939198,77.765701,PM10,60,236,114
India,Maharashtra,Aurangabad,"MIDC Chilkalthana, Aurangabad - MPCB",23-12-2025 08:00:00,19.875620,75.387310,SO2,1,2,1
India,Maharashtra,Aurangabad,"Rachnakar Colony, Aurangabad - MPCB",23-12-2025 08:00:00,19.863756,75.321188,PM2.5,67,314,172
India,Maharashtra,Mumbai,"Ghatkopar, Mumbai - BMC",23-12-2025 08:00:00,19.083694,72.920967,NH3,1,6,3
India,Maharashtra,Mumbai,"Kandivali West, Mumbai - BMC",23-12-2025 08:00:00,19.215859,72.831718,CO,21,115,66
India,Maharashtra,Mumbai,"Kherwadi_Bandra East, Mumbai - MPCB",23-12-2025 08:00:00,19.0632143,72.8456324,NO2,1,62,28
India,Maharashtra,Mumbai,"Kherwadi_Bandra East, Mumbai - MPCB",23-12-2025 08:00:00,19.0632143,72.8456324,CO,6,44,25
India,Maharashtra,Mumbai,"Khindipada-Bhandup West, Mumbai - IITM",23-12-2025 08:00:00,19.1653323,72.922099,NO2,28,85,47
India,Maharashtra,Mumbai,"Khindipada-Bhandup West, Mumbai - IITM",23-12-2025 08:00:00,19.1653323,72.922099,SO2,7,25,15
India,Maharashtra,Mumbai,"Malad West, Mumbai - IITM",23-12-2025 08:00:00,19.19709,72.82204,PM2.5,40,146,84
India,Maharashtra,Jalna,"Old MIDC, Jalna - MPCB",23-12-2025 08:00:00,19.854616,75.905894,CO,18,66,32
India,Maharashtra,Kalyan,"Khadakpada, Kalyan - MPCB",23-12-2025 08:00:00,19.25292,73.142019,PM2.5,42,257,89
India,Maharashtra,Kalyan,"Khadakpada, Kalyan - MPCB",23-12-2025 08:00:00,19.25292,73.142019,CO,75,102,91
India,Maharashtra,Kalyan,"Pimpleshwar Mandir, Kalyan - MPCB",23-12-2025 08:00:00,19.192056,72.9585188,CO,3,36,28
India,Maharashtra,Kolhapur,"Shivaji University, Kolhapur - MPCB",23-12-2025 08:00:00,16.6870449,74.2505872,PM2.5,59,180,114
India,Maharashtra,Kolhapur,"Shivaji University, Kolhapur - MPCB",23-12-2025 08:00:00,16.6870449,74.2505872,NO2,10,60,26
India,Maharashtra,Kolhapur,"Shivaji University, Kolhapur - MPCB",23-12-2025 08:00:00,16.6870449,74.2505872,SO2,2,4,3
India,Maharashtra,Mira-Bhayandar,"Bhayandar West, Mira-Bhayandar - MPCB",23-12-2025 08:00:00,19.296481,72.840923,CO,19,62,41
India,Maharashtra,Mumbai,"Borivali East, Mumbai - IITM",23-12-2025 08:00:00,19.23241,72.86895,PM10,56,120,94
India,Maharashtra,Mumbai,"Borivali East, Mumbai - MPCB",23-12-2025 08:00:00,19.2243333,72.8658113,NO2,NA,NA,NA
India,Maharashtra,Mumbai,"Byculla, Mumbai - BMC",23-12-2025 08:00:00,18.9767,72.8380,PM10,94,175,131
India,Maharashtra,Mumbai,"Byculla, Mumbai - BMC",23-12-2025 08:00:00,18.9767,72.8380,NO2,56,160,111
India,Maharashtra,Mumbai,"Byculla, Mumbai - BMC",23-12-2025 08:00:00,18.9767,72.8380,NH3,11,58,27
India,Maharashtra,Mumbai,"Byculla, Mumbai - BMC",23-12-2025 08:00:00,18.9767,72.8380,CO,2,110,35
India,Maharashtra,Aurangabad,"Rachnakar Colony, Aurangabad - MPCB",23-12-2025 08:00:00,19.863756,75.321188,PM10,46,425,131
India,Maharashtra,Aurangabad,"Rachnakar Colony, Aurangabad - MPCB",23-12-2025 08:00:00,19.863756,75.321188,NO2,13,19,16
India,Maharashtra,Badlapur,"Katrap, Badlapur - MPCB",23-12-2025 08:00:00,19.16485,73.23409,PM2.5,42,301,137
India,Maharashtra,Badlapur,"Katrap, Badlapur - MPCB",23-12-2025 08:00:00,19.16485,73.23409,NH3,3,7,5
India,Maharashtra,Belapur,"CBD Belapur, Belapur - MPCB",23-12-2025 08:00:00,19.0243902,73.0406721,NH3,1,2,1
India,Maharashtra,Bhiwandi,"Gokul Nagar, Bhiwandi - MPCB",23-12-2025 08:00:00,19.309073,73.057223,NO2,19,34,27
India,Maharashtra,Kolhapur,"Sinchan Bhavan, Kolhapur - MPCB",23-12-2025 08:00:00,16.7143745,74.2426398,PM2.5,NA,NA,NA
India,Maharashtra,Mahad,"Kamble Tarf Birwadi, Mahad - MPCB",23-12-2025 08:00:00,18.1023399,73.4783687,NH3,3,8,5
India,Maharashtra,Malegaon,"Mahesh Nagar, Malegaon - MPCB",23-12-2025 08:00:00,20.555712,74.529236,PM2.5,68,170,97
India,Maharashtra,Malegaon,"Mahesh Nagar, Malegaon - MPCB",23-12-2025 08:00:00,20.555712,74.529236,PM10,58,227,126
India,Maharashtra,Malegaon,"Mahesh Nagar, Malegaon - MPCB",23-12-2025 08:00:00,20.555712,74.529236,SO2,7,63,19
India,Maharashtra,Malegaon,"Mahesh Nagar, Malegaon - MPCB",23-12-2025 08:00:00,20.555712,74.529236,OZONE,1,52,13
India,Madhya Pradesh,Sagar,"Civil Lines, Sagar - MPPCB",23-12-2025 08:00:00,23.838586,78.759431,NH3,1,4,1
India,Madhya Pradesh,Sagar,"Deen Dayal Nagar, Sagar - MPPCB",23-12-2025 08:00:00,23.8640158,78.80289321,CO,62,84,82
India,Madhya Pradesh,Satna,"Bandhavgar Colony, Satna - Birla Cement",23-12-2025 08:00:00,24.58434363,80.8549414,SO2,19,23,20
India,Madhya Pradesh,Singrauli,"Suryakiran Bhawan NCL, Singrauli - MPPCB",23-12-2025 08:00:00,24.108970,82.645580,OZONE,1,12,1
India,Maharashtra,Dhule,"Deopur, Dhule - MPCB",23-12-2025 08:00:00,20.918946,74.776388,NO2,9,58,23
India,Maharashtra,Dhule,"Deopur, Dhule - MPCB",23-12-2025 08:00:00,20.918946,74.776388,OZONE,15,57,18
India,Maharashtra,Mumbai,"Byculla, Mumbai - BMC",23-12-2025 08:00:00,18.9767,72.8380,OZONE,1,53,2
India,Maharashtra,Parbhani,"Masoom Colony, Parbhani - MPCB",23-12-2025 08:00:00,19.265594,76.761463,PM10,71,368,138
India,Maharashtra,Parbhani,"Masoom Colony, Parbhani - MPCB",23-12-2025 08:00:00,19.265594,76.761463,NH3,3,5,4
India,Maharashtra,Parbhani,"Masoom Colony, Parbhani - MPCB",23-12-2025 08:00:00,19.265594,76.761463,OZONE,10,10,10
India,Maharashtra,Pimpri-Chinchwad,"Gavalinagar, Pimpri Chinchwad - MPCB",23-12-2025 08:00:00,18.63673,73.82487,PM10,NA,NA,NA
India,Maharashtra,Pimpri-Chinchwad,"Gavalinagar, Pimpri Chinchwad - MPCB",23-12-2025 08:00:00,18.63673,73.82487,NH3,NA,NA,NA
India,Maharashtra,Pimpri-Chinchwad,"Park Street Wakad, Pimpri Chinchwad - MPCB",23-12-2025 08:00:00,18.59051,73.77946,PM2.5,35,313,159
India,Maharashtra,Pimpri-Chinchwad,"Savta Mali Nagar, Pimpri-Chinchwad - IITM",23-12-2025 08:00:00,18.614767,73.799516,PM2.5,68,294,173
India,Maharashtra,Pimpri-Chinchwad,"Savta Mali Nagar, Pimpri-Chinchwad - IITM",23-12-2025 08:00:00,18.614767,73.799516,PM10,79,186,125
India,Maharashtra,Pimpri-Chinchwad,"Thergaon, Pimpri Chinchwad - MPCB",23-12-2025 08:00:00,18.616318,73.765797,NO2,30,102,70
India,Maharashtra,Pimpri-Chinchwad,"Thergaon, Pimpri Chinchwad - MPCB",23-12-2025 08:00:00,18.616318,73.765797,SO2,3,9,5
India,Maharashtra,Pune,"Bhumkar Nagar, Pune - IITM",23-12-2025 08:00:00,18.605770,73.749976,NO2,24,60,39
India,Maharashtra,Pune,"Dhankawadi, Pune - IITM",23-12-2025 08:00:00,18.459883,73.852193,PM2.5,87,290,163
India,Maharashtra,Pune,"Dhankawadi, Pune - IITM",23-12-2025 08:00:00,18.459883,73.852193,NO2,NA,NA,NA
India,Maharashtra,Pune,"Hadapsar, Pune - IITM",23-12-2025 08:00:00,18.501793,73.927532,PM10,98,334,190
India,Maharashtra,Pune,"Katraj Dairy, Pune - MPCB",23-12-2025 08:00:00,18.454450,73.854155,SO2,4,6,4
India,Maharashtra,Pune,"Katraj Dairy, Pune - MPCB",23-12-2025 08:00:00,18.454450,73.854155,CO,32,114,55
India,Maharashtra,Pune,"Katraj Dairy, Pune - MPCB",23-12-2025 08:00:00,18.454450,73.854155,OZONE,5,59,10
India,Maharashtra,Mumbai,"Powai, Mumbai - MPCB",23-12-2025 08:00:00,19.137500,72.915056,PM2.5,NA,NA,NA
India,Maharashtra,Mumbai,"Powai, Mumbai - MPCB",23-12-2025 08:00:00,19.137500,72.915056,NH3,1,2,2
India,Maharashtra,Mumbai,"Powai, Mumbai - MPCB",23-12-2025 08:00:00,19.137500,72.915056,OZONE,9,9,9
India,Maharashtra,Mumbai,"Sewri, Mumbai - BMC",23-12-2025 08:00:00,19.000084,72.856730,PM10,30,77,52
India,Maharashtra,Mumbai,"Sewri, Mumbai - BMC",23-12-2025 08:00:00,19.000084,72.856730,NH3,11,38,25
India,Maharashtra,Mumbai,"Shivaji Nagar, Mumbai - BMC",23-12-2025 08:00:00,19.060498,72.923356,OZONE,2,68,8
India,Maharashtra,Mumbai,"Siddharth Nagar-Worli, Mumbai - IITM",23-12-2025 08:00:00,19.000083,72.813993,PM2.5,NA,NA,NA
India,Maharashtra,Mumbai,"Siddharth Nagar-Worli, Mumbai - IITM",23-12-2025 08:00:00,19.000083,72.813993,CO,NA,NA,NA
India,Maharashtra,Mumbai,"Sion, Mumbai - MPCB",23-12-2025 08:00:00,19.047000,72.874600,PM10,11,38,25
India,Maharashtra,Mumbai,"Sion, Mumbai - MPCB",23-12-2025 08:00:00,19.047000,72.874600,OZONE,5,11,10
India,Maharashtra,Mumbai,"Vile Parle West, Mumbai - MPCB",23-12-2025 08:00:00,19.10861,72.83622,PM2.5,30,76,47
India,Maharashtra,Nagpur,"Ambazari, Nagpur - MPCB",23-12-2025 08:00:00,21.121801,79.04952,OZONE,1,58,15
India,Maharashtra,Nagpur,"Mahal, Nagpur - MPCB",23-12-2025 08:00:00,21.14472,79.107595,PM2.5,65,281,128
India,Maharashtra,Nagpur,"Opp GPO Civil Lines, Nagpur - MPCB",23-12-2025 08:00:00,21.152875,79.0517531,PM10,83,234,140
India,Maharashtra,Pune,"Revenue Colony-Shivajinagar, Pune - IITM",23-12-2025 08:00:00,18.530085,73.849598,PM2.5,72,355,252
India,Maharashtra,Pune,"Revenue Colony-Shivajinagar, Pune - IITM",23-12-2025 08:00:00,18.530085,73.849598,PM10,117,294,213
India,Maharashtra,Pune,"Revenue Colony-Shivajinagar, Pune - IITM",23-12-2025 08:00:00,18.530085,73.849598,CO,65,178,132
India,Maharashtra,Pune,"Savitribai Phule Pune University, Pune - MPCB",23-12-2025 08:00:00,18.547056,73.826908,SO2,1,7,3
India,Maharashtra,Pune,"Savitribai Phule Pune University, Pune - MPCB",23-12-2025 08:00:00,18.547056,73.826908,OZONE,NA,NA,NA
India,Maharashtra,Navi Mumbai,"Nerul, Navi Mumbai - MPCB",23-12-2025 08:00:00,19.008751,73.016620,PM10,NA,NA,NA
India,Maharashtra,Navi Mumbai,"Nerul, Navi Mumbai - MPCB",23-12-2025 08:00:00,19.008751,73.016620,NH3,4,5,4
India,Maharashtra,Navi Mumbai,"Sanpada, Navi Mumbai - MPCB",23-12-2025 08:00:00,19.0575752,73.0151367,SO2,9,23,13
India,Maharashtra,Navi Mumbai,"Sector-2E Kalamboli, Navi Mumbai - MPCB",23-12-2025 08:00:00,19.02579,73.10297,PM2.5,42,158,89
India,Maharashtra,Mumbai,"Mazgaon, Mumbai - IITM",23-12-2025 08:00:00,18.96702,72.84214,OZONE,8,80,26
India,Maharashtra,Mumbai,"Mindspace-Malad West, Mumbai - MPCB",23-12-2025 08:00:00,19.1878657,72.8304069,NH3,1,13,4
India,Maharashtra,Mumbai,"Mindspace-Malad West, Mumbai - MPCB",23-12-2025 08:00:00,19.1878657,72.8304069,OZONE,1,54,1
India,Maharashtra,Nagpur,"Ram Nagar, Nagpur - MPCB",23-12-2025 08:00:00,21.143383,79.048912,SO2,30,138,61
India,Maharashtra,Nashik,"Hirawadi, Nashik - MPCB",23-12-2025 08:00:00,20.021503,73.813844,PM10,77,134,106
India,Maharashtra,Nashik,"Pandav Nagari, Nashik - MPCB",23-12-2025 08:00:00,19.9591346,73.7788008,NO2,10,55,23
India,Maharashtra,Sangli,"Vijay Nagar, Sangli - MPCB",23-12-2025 08:00:00, 16.5038,74.3623,NO2,NA,NA,NA
India,Maharashtra,Solapur,"Dnyaneshwar Nagar, Solapur - MPCB",23-12-2025 08:00:00,17.6336264,75.9132495,NO2,10,80,27
India,Maharashtra,Solapur,"Dnyaneshwar Nagar, Solapur - MPCB",23-12-2025 08:00:00,17.6336264,75.9132495,SO2,1,10,5
India,Maharashtra,Solapur,"Ratandeep Housing Society, Solapur - MPCB",23-12-2025 08:00:00,17.65439,75.90649,PM2.5,87,188,115
India,Maharashtra,Solapur,"Ratandeep Housing Society, Solapur - MPCB",23-12-2025 08:00:00,17.65439,75.90649,PM10,74,132,105
India,Maharashtra,Solapur,"Ratandeep Housing Society, Solapur - MPCB",23-12-2025 08:00:00,17.65439,75.90649,SO2,5,21,13
India,Maharashtra,Thane,"Kasarvadavali, Thane - MPCB",23-12-2025 08:00:00,19.26777,72.97182,PM2.5,90,276,168
India,Maharashtra,Thane,"Kasarvadavali, Thane - MPCB",23-12-2025 08:00:00,19.26777,72.97182,PM10,102,184,140
India,Maharashtra,Thane,"Kasarvadavali, Thane - MPCB",23-12-2025 08:00:00,19.26777,72.97182,NO2,24,86,49
India,Odisha,Bileipada,"Tata Township, Bileipada - OSPCB",23-12-2025 08:00:00,22.06156703,85.47409613,NH3,4,4,4
India,Odisha,Bileipada,"Tata Township, Bileipada - OSPCB",23-12-2025 08:00:00,22.06156703,85.47409613,SO2,7,11,9
India,Odisha,Brajrajnagar,"GM Office, Brajrajnagar - OSPCB",23-12-2025 08:00:00,21.8004996,83.8396977,PM2.5,79,311,140
India,Odisha,Brajrajnagar,"GM Office, Brajrajnagar - OSPCB",23-12-2025 08:00:00,21.8004996,83.8396977,SO2,19,25,21
India,Odisha,Brajrajnagar,"GM Office, Brajrajnagar - OSPCB",23-12-2025 08:00:00,21.8004996,83.8396977,OZONE,27,34,29
India,Maharashtra,Ulhasnagar,"Sidhi Vinayak Nagar, Ulhasnagar - MPCB",23-12-2025 08:00:00,19.235581,73.159121,PM2.5,54,166,101
India,Maharashtra,Ulhasnagar,"Sidhi Vinayak Nagar, Ulhasnagar - MPCB",23-12-2025 08:00:00,19.235581,73.159121,SO2,6,21,11
India,Meghalaya,Shillong,"JN Stadium, Shillong - Meghalaya PCB",23-12-2025 08:00:00,25.5803419,91.8942571,PM10,NA,NA,NA
India,Meghalaya,Shillong,"JN Stadium, Shillong - Meghalaya PCB",23-12-2025 08:00:00,25.5803419,91.8942571,OZONE,NA,NA,NA
India,Odisha,Angul,"Hakimapada, Angul - OSPCB",23-12-2025 08:00:00,20.832874,85.104082,PM2.5,241,363,313
India,Odisha,Angul,"Hakimapada, Angul - OSPCB",23-12-2025 08:00:00,20.832874,85.104082,NH3,7,13,11
India,Odisha,Barbil,"Forest Office, Barbil - OSPCB",23-12-2025 08:00:00,22.1166054,85.3945546,PM2.5,68,318,143
India,Odisha,Byasanagar,"Ferro Chrome Colony, Byasanagar - OSPCB",23-12-2025 08:00:00,20.94185,86.11510,PM10,72,204,124
India,Odisha,Barbil,"Forest Office, Barbil - OSPCB",23-12-2025 08:00:00,22.1166054,85.3945546,CO,45,135,100
India,Mizoram,Aizawl,"Sikulpuikawn, Aizawl - Mizoram PCB",23-12-2025 08:00:00,23.7176342,92.7192841,CO,3,3,3
India,Odisha,Baripada,"Meher Colony, Baripada - OSPCB",23-12-2025 08:00:00,21.941841,86.728318,NH3,NA,NA,NA
India,Odisha,Bhubaneswar,"Patia, Bhubaneswar - OSPCB",23-12-2025 08:00:00,20.34652,85.81630,NO2,27,126,60
India,Odisha,Cuttack,"CDA Area, Cuttack - OSPCB",23-12-2025 08:00:00,20.48891     ,85.84768     ,PM2.5,173,395,251
India,Odisha,Keonjhar,"Jagamohanpur, Keonjhar - OSPCB",23-12-2025 08:00:00,21.643900,85.599355,CO,1,84,50
India,Odisha,Nayagarh,"Dabuna, Nayagarh - OSPCB",23-12-2025 08:00:00,21.847279,85.416905,NO2,9,10,9
India,Odisha,Nayagarh,"Dabuna, Nayagarh - OSPCB",23-12-2025 08:00:00,21.847279,85.416905,CO,24,61,31
India,Odisha,Rairangpur,"Divisional Forest Office, Rairangpur - OSPCB",23-12-2025 08:00:00,22.265816,86.174829,PM10,69,131,102
India,Odisha,Rairangpur,"Divisional Forest Office, Rairangpur - OSPCB",23-12-2025 08:00:00,22.265816,86.174829,NO2,11,11,11
India,Odisha,Rourkela,"Raghunathpali, Rourkela - OSPCB",23-12-2025 08:00:00,22.220833,84.809444,PM2.5,163,320,257
India,Odisha,Rourkela,"Raghunathpali, Rourkela - OSPCB",23-12-2025 08:00:00,22.220833,84.809444,SO2,4,7,5
India,Odisha,Suakati,"OMC Colony, Suakati - OSPCB",23-12-2025 08:00:00,21.606865,85.510538,OZONE,18,20,19
India,Odisha,Talcher,"Talcher Coalfields,Talcher - OSPCB",23-12-2025 08:00:00,20.9360711,85.1707021,PM2.5,136,403,301
India,Odisha,Talcher,"Talcher Coalfields,Talcher - OSPCB",23-12-2025 08:00:00,20.9360711,85.1707021,NO2,40,105,76
India,Andhra_Pradesh,Visakhapatnam,"GVM Corporation, Visakhapatnam - APPCB",23-12-2025 08:00:00,17.72,83.3,OZONE,4,82,5
India,Arunachal_Pradesh,Naharlagun,"Naharlagun, Naharlagun - APSPCB",23-12-2025 08:00:00,27.103358,93.679645,PM10,NA,NA,NA
India,Arunachal_Pradesh,Naharlagun,"Naharlagun, Naharlagun - APSPCB",23-12-2025 08:00:00,27.103358,93.679645,OZONE,5,6,6
India,Assam,Byrnihat,"Central Academy for SFS, Byrnihat - PCBA",23-12-2025 08:00:00,26.071318,91.87488,PM2.5,NA,NA,NA
India,Assam,Byrnihat,"Central Academy for SFS, Byrnihat - PCBA",23-12-2025 08:00:00,26.071318,91.87488,SO2,NA,NA,NA
India,Assam,Byrnihat,"Central Academy for SFS, Byrnihat - PCBA",23-12-2025 08:00:00,26.071318,91.87488,OZONE,NA,NA,NA
India,Assam,Guwahati,"LGBI Airport, Guwahati - PCBA",23-12-2025 08:00:00,26.10887,91.589544,SO2,5,57,19
India,Assam,Guwahati,"LGBI Airport, Guwahati - PCBA",23-12-2025 08:00:00,26.10887,91.589544,OZONE,8,14,12
India,Assam,Sivasagar,"Girls College, Sivasagar - PCBA",23-12-2025 08:00:00,26.987634,94.636574,PM10,10,100,57
India,Assam,Sivasagar,"Girls College, Sivasagar - PCBA",23-12-2025 08:00:00,26.987634,94.636574,OZONE,4,77,4
India,Bihar,Araria,"Kharahiya Basti, Araria - BSPCB",23-12-2025 08:00:00,26.146529,87.454184,PM2.5,23,220,131
India,Bihar,Araria,"Kharahiya Basti, Araria - BSPCB",23-12-2025 08:00:00,26.146529,87.454184,PM10,23,139,102
India,Assam,Guwahati,"Railway Colony, Guwahati - PCBA",23-12-2025 08:00:00,26.181742,91.78063,PM10,NA,NA,NA
India,Assam,Guwahati,"Railway Colony, Guwahati - PCBA",23-12-2025 08:00:00,26.181742,91.78063,SO2,34,37,35
India,Assam,Silchar,"Tarapur, Silchar - PCBA",23-12-2025 08:00:00,24.82827,92.79525,PM10,46,88,66
India,Assam,Silchar,"Tarapur, Silchar - PCBA",23-12-2025 08:00:00,24.82827,92.79525,NO2,17,23,22
India,Andhra_Pradesh,Vijayawada,"Rajiv Gandhi Park, Vijayawada - APPCB",23-12-2025 08:00:00,16.509717,80.612222,PM2.5,68,154,108
India,Andhra_Pradesh,Visakhapatnam,"GVM Corporation, Visakhapatnam - APPCB",23-12-2025 08:00:00,17.72,83.3,NO2,21,148,80
India,Andhra_Pradesh,Amaravati,"Secretariat, Amaravati - APPCB",23-12-2025 08:00:00,16.5150833,80.5181667,NO2,28,157,69
India,Andhra_Pradesh,Amaravati,"Secretariat, Amaravati - APPCB",23-12-2025 08:00:00,16.5150833,80.5181667,SO2,1,21,6
India,Andhra_Pradesh,Vijayawada,"HB Colony, Vijayawada - APPCB",23-12-2025 08:00:00,16.536107,80.594233,PM2.5,43,114,70
India,Andhra_Pradesh,Vijayawada,"HB Colony, Vijayawada - APPCB",23-12-2025 08:00:00,16.536107,80.594233,NO2,18,18,18
India,Andhra_Pradesh,Rajamahendravaram,"Anand Kala Kshetram, Rajamahendravaram - APPCB",23-12-2025 08:00:00,16.9872867,81.7363176,NO2,21,56,35
India,Andhra_Pradesh,Kadapa,"Yerramukkapalli, Kadapa - APPCB",23-12-2025 08:00:00,14.465052,78.824187,PM2.5,31,318,109
India,Andhra_Pradesh,Anantapur,"Gulzarpet, Anantapur - APPCB",23-12-2025 08:00:00,14.675886,77.593027,PM2.5,32,313,174
India,Andhra_Pradesh,Anantapur,"Gulzarpet, Anantapur - APPCB",23-12-2025 08:00:00,14.675886,77.593027,CO,31,63,44
India,Bihar,Aurangabad,"Gurdeo Nagar, Aurangabad - BSPCB",23-12-2025 08:00:00,24.75746,84.366208,NH3,1,2,1
India,Bihar,Begusarai,"Lohiyanagar, Begusarai - BSPCB",23-12-2025 08:00:00,25.42742023,86.13886079,PM2.5,96,286,150
India,Bihar,Begusarai,"Lohiyanagar, Begusarai - BSPCB",23-12-2025 08:00:00,25.42742023,86.13886079,CO,32,73,57
India,Bihar,Begusarai,"Lohiyanagar, Begusarai - BSPCB",23-12-2025 08:00:00,25.42742023,86.13886079,OZONE,9,18,10
India,Bihar,Bettiah,"Kamalnath Nagar, Bettiah - BSPCB",23-12-2025 08:00:00,26.80365,84.51954,NH3,1,1,1
India,Bihar,Bhagalpur,"DM Office_Kachari Chowk, Bhagalpur - BSPCB",23-12-2025 08:00:00,25.251013,86.989001,PM10,78,145,122
India,Bihar,Bhagalpur,"DM Office_Kachari Chowk, Bhagalpur - BSPCB",23-12-2025 08:00:00,25.251013,86.989001,NH3,1,1,1
India,Bihar,Bhagalpur,"DM Office_Kachari Chowk, Bhagalpur - BSPCB",23-12-2025 08:00:00,25.251013,86.989001,SO2,30,53,41
India,Bihar,Bhagalpur,"Mayaganj, Bhagalpur - BSPCB",23-12-2025 08:00:00,25.265194,87.012947,PM2.5,77,257,147
India,Bihar,Samastipur,"DM Office_Kasipur, Samastipur - BSPCB",23-12-2025 08:00:00,25.859655,85.77944,CO,54,66,54
India,Bihar,Samastipur,"DM Office_Kasipur, Samastipur - BSPCB",23-12-2025 08:00:00,25.859655,85.77944,OZONE,8,9,8
India,Bihar,Sasaram,"Dada Peer, Sasaram - BSPCB",23-12-2025 08:00:00,24.952822,84.002396,SO2,4,5,5
India,Bihar,Sasaram,"Dada Peer, Sasaram - BSPCB",23-12-2025 08:00:00,24.952822,84.002396,OZONE,16,18,17
India,Bihar,Siwan,"Chitragupta Nagar, Siwan - BSPCB",23-12-2025 08:00:00,26.2271665,84.3570427,NH3,1,3,1
India,Bihar,Siwan,"Chitragupta Nagar, Siwan - BSPCB",23-12-2025 08:00:00,26.2271665,84.3570427,SO2,10,10,10
India,Chandigarh,Chandigarh,"Sector 22, Chandigarh - CPCC",23-12-2025 08:00:00,30.735567,76.775714,PM2.5,63,297,156
India,Chandigarh,Chandigarh,"Sector 22, Chandigarh - CPCC",23-12-2025 08:00:00,30.735567,76.775714,OZONE,5,185,10
India,Bihar,Patna,"Govt. High School Shikarpur, Patna - BSPCB",23-12-2025 08:00:00,25.592539,85.227158,PM10,118,500,164
India,Bihar,Patna,"Govt. High School Shikarpur, Patna - BSPCB",23-12-2025 08:00:00,25.592539,85.227158,NH3,4,5,5
India,Bihar,Patna,"IGSC Planetarium Complex, Patna - BSPCB",23-12-2025 08:00:00,25.610369,85.132568,PM2.5,111,349,193
India,Bihar,Patna,"IGSC Planetarium Complex, Patna - BSPCB",23-12-2025 08:00:00,25.610369,85.132568,SO2,23,25,24
India,Bihar,Patna,"Muradpur, Patna - BSPCB",23-12-2025 08:00:00,25.619651,85.147382,PM10,102,170,128
India,Bihar,Patna,"Rajbansi Nagar, Patna - BSPCB",23-12-2025 08:00:00,25.599486,85.113666,PM2.5,95,256,162
India,Bihar,Patna,"Rajbansi Nagar, Patna - BSPCB",23-12-2025 08:00:00,25.599486,85.113666,CO,40,112,70
India,Bihar,Patna,"Samanpura, Patna - BSPCB",23-12-2025 08:00:00,25.596727,85.085624,PM2.5,39,354,212
