country,state,city,station,last_update,latitude,longitude,pollutant_id,min_value,max_value,avg_value
India,Bihar,Gaya,"Collectorate, Gaya - BSPCB",30-11-2025 08:00:00,24.7955,84.9994,CO,23,69,42
India,Bihar,Gaya,"Kareemganj, Gaya - BSPCB",30-11-2025 08:00:00,24.792403,84.992416,SO2,14,17,16
India,Bihar,Gaya,"SFTI Kusdihra, Gaya - BSPCB",30-11-2025 08:00:00,24.762518,84.982348,NO2,20,25,22
India,Bihar,Gaya,"SFTI Kusdihra, Gaya - BSPCB",30-11-2025 08:00:00,24.762518,84.982348,CO,21,42,33
India,Bihar,Hajipur,"Industrial Area, Hajipur - BSPCB",30-11-2025 08:00:00,25.697189,85.245900,OZONE,8,105,50
India,Bihar,Katihar,"Mirchaibari, Katihar - BSPCB",30-11-2025 08:00:00,25.560083,87.553265,PM10,42,103,76
India,Bihar,Katihar,"Mirchaibari, Katihar - BSPCB",30-11-2025 08:00:00,25.560083,87.553265,NO2,12,20,16
India,Andhra_Pradesh,Rajamahendravaram,"Anand Kala Kshetram, Rajamahendravaram - APPCB",30-11-2025 08:00:00,16.9872867,81.7363176,CO,13,38,17
India,Andhra_Pradesh,Rajamahendravaram,"Anand Kala Kshetram, Rajamahendravaram - APPCB",30-11-2025 08:00:00,16.9872867,81.7363176,OZONE,7,22,10
India,Andhra_Pradesh,Tirumala,"Toll Gate, Tirumala - APPCB",30-11-2025 08:00:00,13.67,79.35,NO2,11,18,14
India,Andhra_Pradesh,Tirumala,"Toll Gate, Tirumala - APPCB",30-11-2025 08:00:00,13.67,79.35,SO2,5,7,6
India,Andhra_Pradesh,Tirumala,"Toll Gate, Tirumala - APPCB",30-11-2025 08:00:00,13.67,79.35,CO,16,42,22
India,Andhra_Pradesh,Tirumala,"Toll Gate, Tirumala - APPCB",30-11-2025 08:00:00,13.67,79.35,OZONE,2,348,348
India,Andhra_Pradesh,Tirupati,"Vaikuntapuram, Tirupati - APPCB",30-11-2025 08:00:00,13.615387,79.409230,PM2.5,NA,NA,NA
India,Andhra_Pradesh,Tirupati,"Vaikuntapuram, Tirupati - APPCB",30-11-2025 08:00:00,13.615387,79.409230,OZONE,NA,NA,NA
India,Andhra_Pradesh,Vijayawada,"HB Colony, Vijayawada - APPCB",30-11-2025 08:00:00,16.536107,80.594233,PM10,47,60,53
India,Andhra_Pradesh,Vijayawada,"HB Colony, Vijayawada - APPCB",30-11-2025 08:00:00,16.536107,80.594233,NH3,4,4,4
India,Andhra_Pradesh,Vijayawada,"Rajiv Nagar, Vijayawada - APPCB",30-11-2025 08:00:00,16.554731,80.649110,SO2,15,23,19
India,Andhra_Pradesh,Vijayawada,"Rajiv Nagar, Vijayawada - APPCB",30-11-2025 08:00:00,16.554731,80.649110,OZONE,71,102,94
India,Andhra_Pradesh,Visakhapatnam,"GVM Corporation, Visakhapatnam - APPCB",30-11-2025 08:00:00,17.72,83.3,PM2.5,34,95,53
India,Bihar,Buxar,"Charitra Van, Buxar - BSPCB",30-11-2025 08:00:00,25.567520,83.966379,PM10,64,121,106
India,Bihar,Buxar,"Charitra Van, Buxar - BSPCB",30-11-2025 08:00:00,25.567520,83.966379,SO2,4,16,9
India,Bihar,Buxar,"Charitra Van, Buxar - BSPCB",30-11-2025 08:00:00,25.567520,83.966379,CO,20,28,24
India,Bihar,Buxar,"Charitra Van, Buxar - BSPCB",30-11-2025 08:00:00,25.567520,83.966379,OZONE,10,126,37
India,Bihar,Chhapra,"Darshan Nagar, Chhapra - BSPCB",30-11-2025 08:00:00,25.7808257,84.7446768,PM10,NA,NA,NA
India,Bihar,Chhapra,"Darshan Nagar, Chhapra - BSPCB",30-11-2025 08:00:00,25.7808257,84.7446768,NO2,2,3,3
India,Bihar,Gaya,"Collectorate, Gaya - BSPCB",30-11-2025 08:00:00,24.7955,84.9994,PM2.5,60,192,111
India,Assam,Guwahati,"Pan Bazaar, Guwahati - PCBA",30-11-2025 08:00:00,26.187500,91.744194,PM10,36,113,67
India,Assam,Guwahati,"Railway Colony, Guwahati - PCBA",30-11-2025 08:00:00,26.181742,91.78063,CO,31,96,56
India,Assam,Nagaon,"Christianpatty, Nagaon - PCBA",30-11-2025 08:00:00,26.349082,92.68449,NO2,1,1,1
India,Assam,Nalbari,"Bata Chowk, Nalbari - PCBA",30-11-2025 08:00:00,26.446912,91.439057,PM2.5,42,335,158
India,Assam,Nalbari,"Bata Chowk, Nalbari - PCBA",30-11-2025 08:00:00,26.446912,91.439057,NH3,6,6,6
India,Assam,Nalbari,"Bata Chowk, Nalbari - PCBA",30-11-2025 08:00:00,26.446912,91.439057,SO2,7,8,8
India,Assam,Sivasagar,"Girls College, Sivasagar - PCBA",30-11-2025 08:00:00,26.987634,94.636574,PM10,36,85,56
India,Assam,Sivasagar,"Girls College, Sivasagar - PCBA",30-11-2025 08:00:00,26.987634,94.636574,NH3,4,12,9
India,Assam,Sivasagar,"Girls College, Sivasagar - PCBA",30-11-2025 08:00:00,26.987634,94.636574,OZONE,4,98,5
India,Bihar,Araria,"Kharahiya Basti, Araria - BSPCB",30-11-2025 08:00:00,26.146529,87.454184,PM10,45,149,104
India,Bihar,Araria,"Kharahiya Basti, Araria - BSPCB",30-11-2025 08:00:00,26.146529,87.454184,NO2,1,28,6
India,Bihar,Arrah,"New DM Office, Arrah - BSPCB",30-11-2025 08:00:00,25.5626095,84.663264,OZONE,7,8,8
India,Andhra_Pradesh,Amaravati,"Secretariat, Amaravati - APPCB",30-11-2025 08:00:00,16.5150833,80.5181667,OZONE,18,49,23
India,Andhra_Pradesh,Kadapa,"Yerramukkapalli, Kadapa - APPCB",30-11-2025 08:00:00,14.465052,78.824187,PM2.5,65,313,206
India,Andhra_Pradesh,Kadapa,"Yerramukkapalli, Kadapa - APPCB",30-11-2025 08:00:00,14.465052,78.824187,NH3,5,6,5
India,Andhra_Pradesh,Kadapa,"Yerramukkapalli, Kadapa - APPCB",30-11-2025 08:00:00,14.465052,78.824187,OZONE,21,23,22
India,Andhra_Pradesh,Rajamahendravaram,"Anand Kala Kshetram, Rajamahendravaram - APPCB",30-11-2025 08:00:00,16.9872867,81.7363176,PM2.5,12,79,43
India,Bihar,Begusarai,"Lohiyanagar, Begusarai - BSPCB",30-11-2025 08:00:00,25.42742023,86.13886079,PM10,51,177,71
India,Bihar,Bhagalpur,"DM Office_Kachari Chowk, Bhagalpur - BSPCB",30-11-2025 08:00:00,25.251013,86.989001,SO2,38,58,48
India,Bihar,Bhagalpur,"Mayaganj, Bhagalpur - BSPCB",30-11-2025 08:00:00,25.265194,87.012947,PM10,62,119,91
India,Andaman and Nicobar,Sri Vijaya Puram,"Police Line, Sri Vijaya Puram - ANPCC",30-11-2025 08:00:00,11.654054,92.734055,PM2.5,NA,NA,NA
India,Andaman and Nicobar,Sri Vijaya Puram,"Police Line, Sri Vijaya Puram - ANPCC",30-11-2025 08:00:00,11.654054,92.734055,OZONE,NA,NA,NA
India,Andhra_Pradesh,Amaravati,"Secretariat, Amaravati - APPCB",30-11-2025 08:00:00,16.5150833,80.5181667,NO2,17,59,24
India,Arunachal_Pradesh,Naharlagun,"Naharlagun, Naharlagun - APSPCB",30-11-2025 08:00:00,27.103358,93.679645,NO2,6,6,6
India,Assam,Guwahati,"IITG, Guwahati - PCBA",30-11-2025 08:00:00,26.2028636,91.70046436,SO2,23,26,24
India,Assam,Guwahati,"IITG, Guwahati - PCBA",30-11-2025 08:00:00,26.2028636,91.70046436,OZONE,NA,NA,NA
India,Chhattisgarh,Raipur,"Siltara Phase-II, Raipur - CECB",30-11-2025 08:00:00,21.371751,81.664929,PM10,NA,NA,NA
India,Chhattisgarh,Raipur,"Siltara Phase-II, Raipur - CECB",30-11-2025 08:00:00,21.371751,81.664929,SO2,4,9,5
India,Chhattisgarh,Tumidih,"OP Jindal Industrial Park, Tumidih - CECB",30-11-2025 08:00:00,22.06631475,83.33820077,PM2.5,1,372,59
India,Chhattisgarh,Tumidih,"OP Jindal Industrial Park, Tumidih - CECB",30-11-2025 08:00:00,22.06631475,83.33820077,NO2,30,92,54
India,Chhattisgarh,Tumidih,"OP Jindal Industrial Park, Tumidih - CECB",30-11-2025 08:00:00,22.06631475,83.33820077,SO2,5,19,9
India,Chhattisgarh,Tumidih,"OP Jindal Industrial Park, Tumidih - CECB",30-11-2025 08:00:00,22.06631475,83.33820077,CO,16,60,36
India,Delhi,Delhi,"Alipur, Delhi - DPCC",30-11-2025 08:00:00,28.815329,77.153010,PM2.5,80,324,248
India,Delhi,Delhi,"Alipur, Delhi - DPCC",30-11-2025 08:00:00,28.815329,77.153010,NO2,39,108,68
India,Delhi,Delhi,"Alipur, Delhi - DPCC",30-11-2025 08:00:00,28.815329,77.153010,CO,94,113,105
India,Delhi,Delhi,"Anand Vihar, Delhi - DPCC",30-11-2025 08:00:00,28.647622,77.3158090,OZONE,18,27,19
India,Bihar,Patna,"Govt. High School Shikarpur, Patna - BSPCB",30-11-2025 08:00:00,25.592539,85.227158,PM2.5,59,70,64
India,Bihar,Patna,"Govt. High School Shikarpur, Patna - BSPCB",30-11-2025 08:00:00,25.592539,85.227158,PM10,64,82,73
India,Bihar,Patna,"Govt. High School Shikarpur, Patna - BSPCB",30-11-2025 08:00:00,25.592539,85.227158,CO,32,82,64
India,Bihar,Patna,"IGSC Planetarium Complex, Patna - BSPCB",30-11-2025 08:00:00,25.610369,85.132568,PM2.5,15,160,91
India,Bihar,Patna,"Muradpur, Patna - BSPCB",30-11-2025 08:00:00,25.619651,85.147382,PM2.5,48,198,119
India,Bihar,Patna,"Muradpur, Patna - BSPCB",30-11-2025 08:00:00,25.619651,85.147382,PM10,75,162,111
India,Bihar,Patna,"Muradpur, Patna - BSPCB",30-11-2025 08:00:00,25.619651,85.147382,NH3,NA,NA,NA
India,Bihar,Patna,"Muradpur, Patna - BSPCB",30-11-2025 08:00:00,25.619651,85.147382,OZONE,5,40,5
India,Bihar,Patna,"Rajbansi Nagar, Patna - BSPCB",30-11-2025 08:00:00,25.599486,85.113666,PM2.5,37,92,62
India,Bihar,Patna,"Rajbansi Nagar, Patna - BSPCB",30-11-2025 08:00:00,25.599486,85.113666,CO,36,83,43
India,Chhattisgarh,Chhal,"Nawapara SECL Colony, Chhal - CECB",30-11-2025 08:00:00,22.118125,83.140608,PM2.5,46,75,59
India,Chhattisgarh,Chhal,"Nawapara SECL Colony, Chhal - CECB",30-11-2025 08:00:00,22.118125,83.140608,PM10,43,108,70
India,Chhattisgarh,Chhal,"Nawapara SECL Colony, Chhal - CECB",30-11-2025 08:00:00,22.118125,83.140608,OZONE,2,129,10
India,Chhattisgarh,Korba,"Rampur, Korba - CECB",30-11-2025 08:00:00,22.368195,82.746431,NO2,13,19,16
India,Chhattisgarh,Korba,"Rampur, Korba - CECB",30-11-2025 08:00:00,22.368195,82.746431,NH3,2,2,2
India,Chhattisgarh,Korba,"Urja Nagar, Korba - CECB",30-11-2025 08:00:00,22.348441,82.549611,PM10,92,93,93
India,Chhattisgarh,Kunjemura,"OP Jindal School, Kunjemura - CECB",30-11-2025 08:00:00,22.126650,83.483212,PM2.5,31,71,42
India,Chandigarh,Chandigarh,"Sector 22, Chandigarh - CPCC",30-11-2025 08:00:00,30.735567,76.775714,CO,58,69,63
India,Chandigarh,Chandigarh,"Sector-25, Chandigarh - CPCC",30-11-2025 08:00:00,30.751462,76.762879,SO2,5,10,8
India,Chandigarh,Chandigarh,"Sector-25, Chandigarh - CPCC",30-11-2025 08:00:00,30.751462,76.762879,CO,20,60,40
India,Chandigarh,Chandigarh,"Sector-25, Chandigarh - CPCC",30-11-2025 08:00:00,30.751462,76.762879,OZONE,1,66,5
India,Chhattisgarh,Bhilai,"32Bungalows, Bhilai - CECB",30-11-2025 08:00:00,21.194815,81.314770,PM10,47,87,62
India,Chhattisgarh,Bilaspur,"Mangala, Bilaspur - NTPC",30-11-2025 08:00:00,22.08815,82.13737,PM2.5,40,100,67
India,Chhattisgarh,Milupara,"Govt. Higher Secondary School, Milupara - CECB",30-11-2025 08:00:00,22.1910172,83.5197009,PM2.5,42,96,65
India,Chhattisgarh,Milupara,"Govt. Higher Secondary School, Milupara - CECB",30-11-2025 08:00:00,22.1910172,83.5197009,OZONE,1,153,13
India,Chhattisgarh,Raipur,"Bhatagaon New ISBT, Raipur - CECB",30-11-2025 08:00:00,21.219665,81.630094,NO2,14,40,24
India,Chhattisgarh,Raipur,"Bhatagaon New ISBT, Raipur - CECB",30-11-2025 08:00:00,21.219665,81.630094,CO,34,100,83
India,Chhattisgarh,Raipur,"Krishak Nagar, Raipur - CECB",30-11-2025 08:00:00,21.237755,81.705301,NO2,17,24,21
India,Bihar,Purnia,"Mariam Nagar, Purnia - BSPCB",30-11-2025 08:00:00,25.366336,87.117468,PM10,22,95,63
India,Bihar,Purnia,"Mariam Nagar, Purnia - BSPCB",30-11-2025 08:00:00,25.366336,87.117468,NO2,5,6,6
India,Bihar,Purnia,"Mariam Nagar, Purnia - BSPCB",30-11-2025 08:00:00,25.366336,87.117468,CO,56,91,64
India,Bihar,Rajgir,"Dangi Tola, Rajgir - BSPCB",30-11-2025 08:00:00,25.03280,85.41948,CO,81,98,89
India,Bihar,Rajgir,"Dangi Tola, Rajgir - BSPCB",30-11-2025 08:00:00,25.03280,85.41948,OZONE,31,34,32
India,Bihar,Kishanganj,"SDM Office_Khagra, Kishanganj - BSPCB",30-11-2025 08:00:00,26.0881305,87.93840336,OZONE,16,19,17
India,Bihar,Motihari,"Gandak Colony, Motihari - BSPCB",30-11-2025 08:00:00,26.63086,84.90051,CO,43,64,48
India,Bihar,Motihari,"Gandak Colony, Motihari - BSPCB",30-11-2025 08:00:00,26.63086,84.90051,OZONE,2,4,3
India,Bihar,Sasaram,"Dada Peer, Sasaram - BSPCB",30-11-2025 08:00:00,24.952822,84.002396,OZONE,3,370,16
India,Bihar,Siwan,"Chitragupta Nagar, Siwan - BSPCB",30-11-2025 08:00:00,26.2271665,84.3570427,NH3,NA,NA,NA
India,Bihar,Siwan,"Chitragupta Nagar, Siwan - BSPCB",30-11-2025 08:00:00,26.2271665,84.3570427,OZONE,6,7,6
India,Bihar,Munger,"Town Hall, Munger - BSPCB",30-11-2025 08:00:00,25.376776,86.471523,OZONE,12,25,17
India,Bihar,Muzaffarpur,"Muzaffarpur Collectorate, Muzaffarpur - BSPCB",30-11-2025 08:00:00,26.1209,85.3647,CO,8,31,11
India,Bihar,Muzaffarpur,"Muzaffarpur Collectorate, Muzaffarpur - BSPCB",30-11-2025 08:00:00,26.1209,85.3647,OZONE,12,50,16
India,Delhi,Delhi,"Mandir Marg, Delhi - DPCC",30-11-2025 08:00:00,28.636429,77.201067,OZONE,4,94,4
India,Delhi,Delhi,"NSIT Dwarka, Delhi - CPCB",30-11-2025 08:00:00,28.60909,77.0325413,PM2.5,94,354,220
India,Delhi,Delhi,"NSIT Dwarka, Delhi - CPCB",30-11-2025 08:00:00,28.60909,77.0325413,SO2,7,42,25
India,Delhi,Delhi,"Najafgarh, Delhi - DPCC",30-11-2025 08:00:00,28.570173,76.933762,PM10,69,194,138
India,Delhi,Delhi,"Najafgarh, Delhi - DPCC",30-11-2025 08:00:00,28.570173,76.933762,NH3,9,10,9
India,Delhi,Delhi,"Najafgarh, Delhi - DPCC",30-11-2025 08:00:00,28.570173,76.933762,OZONE,3,37,4
India,Delhi,Delhi,"Narela, Delhi - DPCC",30-11-2025 08:00:00,28.822836,77.101981,PM2.5,98,395,271
India,Delhi,Delhi,"Narela, Delhi - DPCC",30-11-2025 08:00:00,28.822836,77.101981,PM10,140,294,182
India,Delhi,Delhi,"CRRI Mathura Road, Delhi - IMD",30-11-2025 08:00:00,28.5512005,77.2735737,PM10,130,311,206
India,Delhi,Delhi,"Chandni Chowk, Delhi - IITM",30-11-2025 08:00:00,28.656756,77.227234,CO,65,113,106
India,Delhi,Delhi,"DTU, Delhi - CPCB",30-11-2025 08:00:00,28.7500499,77.1112615,PM10,98,292,178
India,Delhi,Delhi,"DTU, Delhi - CPCB",30-11-2025 08:00:00,28.7500499,77.1112615,NH3,9,10,10
India,Delhi,Delhi,"Dr. Karni Singh Shooting Range, Delhi - DPCC",30-11-2025 08:00:00,28.498571,77.264840,NH3,8,10,9
India,Delhi,Delhi,"Dr. Karni Singh Shooting Range, Delhi - DPCC",30-11-2025 08:00:00,28.498571,77.264840,SO2,9,20,12
India,Delhi,Delhi,"Dr. Karni Singh Shooting Range, Delhi - DPCC",30-11-2025 08:00:00,28.498571,77.264840,CO,18,101,58
India,Delhi,Delhi,"R K Puram, Delhi - DPCC",30-11-2025 08:00:00,28.563262,77.186937,NH3,6,7,7
India,Delhi,Delhi,"R K Puram, Delhi - DPCC",30-11-2025 08:00:00,28.563262,77.186937,SO2,1,20,13
India,Delhi,Delhi,"Rohini, Delhi - DPCC",30-11-2025 08:00:00,28.732528,77.119920,PM2.5,103,370,290
India,Delhi,Delhi,"Rohini, Delhi - DPCC",30-11-2025 08:00:00,28.732528,77.119920,NH3,11,22,15
India,Delhi,Delhi,"Rohini, Delhi - DPCC",30-11-2025 08:00:00,28.732528,77.119920,CO,31,109,68
India,Delhi,Delhi,"Shadipur, Delhi - CPCB",30-11-2025 08:00:00,28.6514781,77.1473105,PM2.5,319,387,334
India,Delhi,Delhi,"Sirifort, Delhi - CPCB",30-11-2025 08:00:00,28.5504249,77.2159377,PM10,127,443,246
India,Delhi,Delhi,"Dwarka-Sector 8, Delhi - DPCC ",30-11-2025 08:00:00,28.5710274,77.0719006,OZONE,1,117,1
India,Delhi,Delhi,"IGI Airport (T3), Delhi - IMD",30-11-2025 08:00:00,28.5627763,77.1180053,CO,4,92,51
India,Delhi,Delhi,"IHBAS, Dilshad Garden, Delhi - CPCB",30-11-2025 08:00:00,28.6811736,77.3025234,PM10,149,188,171
India,Delhi,Delhi,"IHBAS, Dilshad Garden, Delhi - CPCB",30-11-2025 08:00:00,28.6811736,77.3025234,NH3,4,13,10
India,Delhi,Delhi,"ITO, Delhi - CPCB",30-11-2025 08:00:00,28.628624,77.241060,SO2,11,30,19
India,Delhi,Delhi,"Nehru Nagar, Delhi - DPCC",30-11-2025 08:00:00,28.567890,77.250515,OZONE,2,153,2
India,Delhi,Delhi,"North Campus, DU, Delhi - IMD",30-11-2025 08:00:00,28.6573814,77.1585447,PM10,124,207,162
India,Delhi,Delhi,"Okhla Phase-2, Delhi - DPCC",30-11-2025 08:00:00,28.530785,77.271255,PM2.5,NA,NA,NA
India,Delhi,Delhi,"Okhla Phase-2, Delhi - DPCC",30-11-2025 08:00:00,28.530785,77.271255,PM10,NA,NA,NA
India,Delhi,Delhi,"Okhla Phase-2, Delhi - DPCC",30-11-2025 08:00:00,28.530785,77.271255,CO,NA,NA,NA
India,Delhi,Delhi,"Okhla Phase-2, Delhi - DPCC",30-11-2025 08:00:00,28.530785,77.271255,OZONE,NA,NA,NA
India,Delhi,Delhi,"Sirifort, Delhi - CPCB",30-11-2025 08:00:00,28.5504249,77.2159377,CO,22,106,86
India,Delhi,Delhi,"Sonia Vihar, Delhi - DPCC",30-11-2025 08:00:00,28.710508,77.249485,NH3,6,9,7
India,Delhi,Delhi,"Sonia Vihar, Delhi - DPCC",30-11-2025 08:00:00,28.710508,77.249485,CO,40,128,108
India,Delhi,Delhi,"Vivek Vihar, Delhi - DPCC",30-11-2025 08:00:00,28.672342,77.315260,PM2.5,158,348,289
India,Delhi,Delhi,"Vivek Vihar, Delhi - DPCC",30-11-2025 08:00:00,28.672342,77.315260,SO2,7,55,19
India,Delhi,Delhi,"Patparganj, Delhi - DPCC",30-11-2025 08:00:00,28.623763,77.287209,NH3,12,16,14
India,Delhi,Delhi,"Patparganj, Delhi - DPCC",30-11-2025 08:00:00,28.623763,77.287209,CO,23,130,76
India,Delhi,Delhi,"Punjabi Bagh, Delhi - DPCC",30-11-2025 08:00:00,28.674045,77.131023,SO2,NA,NA,NA
India,Delhi,Delhi,"Punjabi Bagh, Delhi - DPCC",30-11-2025 08:00:00,28.674045,77.131023,OZONE,4,197,6
India,Delhi,Delhi,"Pusa, Delhi - DPCC",30-11-2025 08:00:00,28.639652,77.146275,OZONE,10,15,14
India,Delhi,Delhi,"Jawaharlal Nehru Stadium, Delhi - DPCC",30-11-2025 08:00:00,28.580280,77.233829,PM2.5,95,362,267
India,Delhi,Delhi,"Lodhi Road, Delhi - IITM",30-11-2025 08:00:00,28.588333,77.221667,NO2,2,122,48
India,Delhi,Delhi,"Lodhi Road, Delhi - IMD",30-11-2025 08:00:00,28.5918245,77.2273074,CO,11,54,42
India,Delhi,Delhi,"Aya Nagar, Delhi - IMD",30-11-2025 08:00:00,28.4706914,77.1099364,OZONE,9,106,20
India,Delhi,Delhi,"Bawana, Delhi - DPCC",30-11-2025 08:00:00,28.776200,77.051074,NO2,11,69,40
India,Delhi,Delhi,"Burari Crossing, Delhi - IMD",30-11-2025 08:00:00,28.7256504,77.2011573,PM10,130,345,214
India,Gujarat,Ahmedabad,"Maninagar, Ahmedabad - GPCB",30-11-2025 08:00:00,23.002657,72.591912,OZONE,14,81,27
India,Gujarat,Ahmedabad,"Raikhad, Ahmedabad - IITM",30-11-2025 08:00:00,23.020509,72.579261,PM10,125,234,174
India,Gujarat,Ahmedabad,"Raikhad, Ahmedabad - IITM",30-11-2025 08:00:00,23.020509,72.579261,OZONE,2,78,8
India,Gujarat,Ahmedabad,"Rakhial, Ahmedabad - IITM",30-11-2025 08:00:00,23.016834,72.625775,PM10,109,197,144
India,Gujarat,Ahmedabad,"Rakhial, Ahmedabad - IITM",30-11-2025 08:00:00,23.016834,72.625775,NH3,4,16,7
India,Gujarat,Ahmedabad,"SAC ISRO Bopal, Ahmedabad - IITM",30-11-2025 08:00:00,23.041137,72.456691,PM2.5,92,315,209
India,Gujarat,Ahmedabad,"SAC ISRO Bopal, Ahmedabad - IITM",30-11-2025 08:00:00,23.041137,72.456691,NH3,11,21,15
India,Gujarat,Ahmedabad,"SAC ISRO Bopal, Ahmedabad - IITM",30-11-2025 08:00:00,23.041137,72.456691,CO,12,52,41
India,Haryana,Bahadurgarh,"Arya Nagar, Bahadurgarh - HSPCB",30-11-2025 08:00:00,28.6701,76.9254,CO,46,52,48
India,Haryana,Ballabgarh,"Nathu Colony, Ballabgarh - HSPCB",30-11-2025 08:00:00,28.3419248,77.319699,PM10,153,279,195
India,Haryana,Ballabgarh,"Nathu Colony, Ballabgarh - HSPCB",30-11-2025 08:00:00,28.3419248,77.319699,NH3,3,4,3
India,Haryana,Ballabgarh,"Nathu Colony, Ballabgarh - HSPCB",30-11-2025 08:00:00,28.3419248,77.319699,SO2,5,11,7
India,Haryana,Ballabgarh,"Nathu Colony, Ballabgarh - HSPCB",30-11-2025 08:00:00,28.3419248,77.319699,OZONE,15,15,15
India,Haryana,Bhiwani,"H.B. Colony, Bhiwani - HSPCB",30-11-2025 08:00:00,28.806223,76.141105,NO2,1,35,31
India,Haryana,Bhiwani,"H.B. Colony, Bhiwani - HSPCB",30-11-2025 08:00:00,28.806223,76.141105,NH3,1,9,8
India,Haryana,Faridabad,"Sector 11, Faridabad - HSPCB",30-11-2025 08:00:00,28.376058,77.315741,NH3,10,10,10
India,Haryana,Faridabad,"Sector 30, Faridabad - HSPCB",30-11-2025 08:00:00,28.4417,77.3217,NH3,11,12,11
India,Haryana,Faridabad,"Sector 30, Faridabad - HSPCB",30-11-2025 08:00:00,28.4417,77.3217,CO,59,66,62
India,Haryana,Gurugram,"NISE Gwal Pahari, Gurugram - IMD",30-11-2025 08:00:00,28.422681,77.148944,OZONE,6,69,8
India,Haryana,Gurugram,"Sector-51, Gurugram - HSPCB",30-11-2025 08:00:00,28.4227,77.0667,PM2.5,52,354,201
India,Gujarat,Gandhinagar,"Sector-10, Gandhinagar - GPCB",30-11-2025 08:00:00,23.221714,72.654328,PM10,63,99,77
India,Gujarat,Gandhinagar,"Sector-10, Gandhinagar - GPCB",30-11-2025 08:00:00,23.221714,72.654328,NO2,16,28,19
India,Gujarat,Gandhinagar,"Sector-10, Gandhinagar - GPCB",30-11-2025 08:00:00,23.221714,72.654328,CO,22,34,31
India,Gujarat,Nandesari,"GIDC, Nandesari - Nandesari Ind. Association",30-11-2025 08:00:00,22.410802,73.097923,PM2.5,118,238,173
India,Gujarat,Surat,"Science Center, Surat - SMC",30-11-2025 08:00:00,21.170046,72.795405,NO2,2,19,11
India,Haryana,Charkhi Dadri,"Mini Secretariat, Charkhi Dadri - HSPCB",30-11-2025 08:00:00,28.593883,76.270653,SO2,10,12,11
India,Haryana,Dharuhera,"Municipal Corporation Office, Dharuhera -  HSPCB",30-11-2025 08:00:00,28.206800,76.799700,PM2.5,121,364,267
India,Haryana,Dharuhera,"Municipal Corporation Office, Dharuhera -  HSPCB",30-11-2025 08:00:00,28.206800,76.799700,OZONE,6,47,8
India,Haryana,Faridabad,"New Industrial Town, Faridabad - HSPCB",30-11-2025 08:00:00,28.39072,77.30059,CO,NA,NA,NA
India,Gujarat,Ahmedabad,"SAC ISRO Satellite, Ahmedabad - IITM",30-11-2025 08:00:00,23.023389,72.515201,PM10,85,121,106
India,Gujarat,Ahmedabad,"SAC ISRO Satellite, Ahmedabad - IITM",30-11-2025 08:00:00,23.023389,72.515201,OZONE,2,46,5
India,Gujarat,Ahmedabad,"SVPI Airport Hansol, Ahmedabad - IITM",30-11-2025 08:00:00,23.076793,72.627874,CO,2,65,15
India,Gujarat,Gandhinagar,"IIPHG Lekawada, Gandhinagar - IITM",30-11-2025 08:00:00,23.243639,72.68994,PM2.5,3,129,30
India,Delhi,Delhi,"Vivek Vihar, Delhi - DPCC",30-11-2025 08:00:00,28.672342,77.315260,OZONE,5,127,16
India,Delhi,Delhi,"Wazirpur, Delhi - DPCC",30-11-2025 08:00:00,28.699793,77.165453,OZONE,3,101,14
India,Gujarat,Ahmedabad,"Chandkheda, Ahmedabad - IITM",30-11-2025 08:00:00,23.107969,72.574648,SO2,7,14,11
India,Gujarat,Ahmedabad,"Chandkheda, Ahmedabad - IITM",30-11-2025 08:00:00,23.107969,72.574648,CO,8,94,54
India,Haryana,Gurugram,"Vikas Sadan, Gurugram - HSPCB",30-11-2025 08:00:00,28.4501238,77.0263051,OZONE,6,44,14
India,Haryana,Hisar,"Urban Estate-II, Hisar - HSPCB",30-11-2025 08:00:00,29.140560,75.744941,NH3,8,8,8
India,Gujarat,Vapi,"Phase-1 GIDC, Vapi - GPCB",30-11-2025 08:00:00,20.362421,72.918013,SO2,15,40,28
India,Gujarat,Vatva,"Phase-4 GIDC, Vatva - GPCB",30-11-2025 08:00:00,22.969611,72.643500,NO2,43,66,58
India,Karnataka,Bagalkot,"Vidayagiri, Bagalkot - KSPCB",30-11-2025 08:00:00,16.172806,75.659694,NH3,1,2,1
India,Karnataka,Bagalkot,"Vidayagiri, Bagalkot - KSPCB",30-11-2025 08:00:00,16.172806,75.659694,SO2,7,7,7
India,Karnataka,Belgaum,"Ramteerth Nagar, Belgaum - KSPCB",30-11-2025 08:00:00,15.888653,74.541751,NO2,53,116,82
India,Karnataka,Belgaum,"Ramteerth Nagar, Belgaum - KSPCB",30-11-2025 08:00:00,15.888653,74.541751,NH3,8,11,10
India,Karnataka,Bengaluru,"BTM Layout, Bengaluru - CPCB",30-11-2025 08:00:00,12.9135218,77.5950804,PM10,96,98,97
India,Karnataka,Bengaluru,"BTM Layout, Bengaluru - CPCB",30-11-2025 08:00:00,12.9135218,77.5950804,SO2,23,24,23
India,Karnataka,Bengaluru,"BTM Layout, Bengaluru - CPCB",30-11-2025 08:00:00,12.9135218,77.5950804,OZONE,24,25,24
India,Karnataka,Bengaluru,"BWSSB Kadabesanahalli, Bengaluru - CPCB",30-11-2025 08:00:00,12.9352049,77.6814488,PM10,89,158,134
India,Karnataka,Bengaluru,"BWSSB Kadabesanahalli, Bengaluru - CPCB",30-11-2025 08:00:00,12.9352049,77.6814488,NH3,NA,NA,NA
India,Haryana,Palwal,"Shyam Nagar, Palwal - HSPCB",30-11-2025 08:00:00,28.1485564,77.3320667,NH3,9,9,9
India,Haryana,Palwal,"Shyam Nagar, Palwal - HSPCB",30-11-2025 08:00:00,28.1485564,77.3320667,SO2,12,13,12
India,Haryana,Palwal,"Shyam Nagar, Palwal - HSPCB",30-11-2025 08:00:00,28.1485564,77.3320667,OZONE,23,25,24
India,Haryana,Panchgaon,"Amity University, Panchgaon - IITM",30-11-2025 08:00:00,28.3153,76.9143,PM10,56,117,77
India,Haryana,Panchgaon,"Amity University, Panchgaon - IITM",30-11-2025 08:00:00,28.3153,76.9143,SO2,1,31,9
India,Haryana,Panipat,"Sector-18, Panipat - HSPCB",30-11-2025 08:00:00,29.432304,76.972765,CO,18,48,48
India,Haryana,Panipat,"Sector-18, Panipat - HSPCB",30-11-2025 08:00:00,29.432304,76.972765,OZONE,30,30,30
India,Haryana,Kurukshetra,"Sector-7, Kurukshetra - HSPCB",30-11-2025 08:00:00,29.966942,76.875879,OZONE,29,68,47
India,Haryana,Mandikhera,"General Hospital, Mandikhera(Nuh) - HSPCB",30-11-2025 08:00:00,27.9002,76.9938,NH3,13,14,13
India,Haryana,Manesar,"Sector-2 IMT, Manesar - HSPCB",30-11-2025 08:00:00,28.360699,76.936090,NH3,16,19,17
India,Haryana,Narnaul,"Shastri Nagar, Narnaul - HSPCB",30-11-2025 08:00:00,28.060249,76.113115,NO2,67,110,83
India,Karnataka,Bengaluru,"Hebbal, Bengaluru - KSPCB",30-11-2025 08:00:00,13.029152,77.585901,PM2.5,40,180,74
India,Karnataka,Bengaluru,"Hombegowda Nagar, Bengaluru - KSPCB",30-11-2025 08:00:00,12.938539,77.590100,PM2.5,20,83,47
India,Karnataka,Bengaluru,"Hombegowda Nagar, Bengaluru - KSPCB",30-11-2025 08:00:00,12.938539,77.590100,CO,12,32,16
India,Karnataka,Bengaluru,"Jayanagar 5th Block, Bengaluru - KSPCB",30-11-2025 08:00:00,12.920984,77.584908,NO2,13,65,45
India,Karnataka,Bengaluru,"Jigani, Bengaluru - KSPCB",30-11-2025 08:00:00,12.7816279,77.6299145,PM2.5,NA,NA,NA
India,Haryana,Jind,"Police Lines, Jind - HSPCB",30-11-2025 08:00:00,29.307814,76.337619,SO2,NA,NA,NA
India,Haryana,Karnal,"Sector-12, Karnal - HSPCB",30-11-2025 08:00:00,29.695300,77.002700,NO2,6,7,6
India,Haryana,Karnal,"Sector-12, Karnal - HSPCB",30-11-2025 08:00:00,29.695300,77.002700,OZONE,41,41,41
India,Haryana,Kurukshetra,"Sector-7, Kurukshetra - HSPCB",30-11-2025 08:00:00,29.966942,76.875879,PM2.5,61,117,90
India,Haryana,Kurukshetra,"Sector-7, Kurukshetra - HSPCB",30-11-2025 08:00:00,29.966942,76.875879,NH3,5,5,5
India,Haryana,Sonipat,"Murthal, Sonipat - HSPCB",30-11-2025 08:00:00,29.027200,77.062100,NH3,17,59,23
India,Haryana,Sonipat,"Murthal, Sonipat - HSPCB",30-11-2025 08:00:00,29.027200,77.062100,CO,21,34,28
India,Haryana,Yamuna Nagar,"Gobind Pura, Yamuna Nagar - HSPCB",30-11-2025 08:00:00,30.1480566,77.2893471,NH3,NA,NA,NA
India,Karnataka,Bagalkot,"Vidayagiri, Bagalkot - KSPCB",30-11-2025 08:00:00,16.172806,75.659694,PM2.5,35,36,35
India,Karnataka,Bagalkot,"Vidayagiri, Bagalkot - KSPCB",30-11-2025 08:00:00,16.172806,75.659694,PM10,53,54,54
India,Haryana,Yamuna Nagar,"Gobind Pura, Yamuna Nagar - HSPCB",30-11-2025 08:00:00,30.1480566,77.2893471,SO2,NA,NA,NA
India,Haryana,Rohtak,"MD University, Rohtak - HSPCB",30-11-2025 08:00:00,28.52123,76.37138,NO2,NA,NA,NA
India,Kerala,Eloor,"Udyogamandal, Eloor - Kerala PCB",30-11-2025 08:00:00,10.073232,76.302765,PM10,NA,NA,NA
India,Kerala,Eloor,"Udyogamandal, Eloor - Kerala PCB",30-11-2025 08:00:00,10.073232,76.302765,NO2,NA,NA,NA
India,Kerala,Kannur,"Thavakkara, Kannur - Kerala PCB",30-11-2025 08:00:00,11.875000,75.373200,PM2.5,42,52,47
India,Kerala,Kannur,"Thavakkara, Kannur - Kerala PCB",30-11-2025 08:00:00,11.875000,75.373200,SO2,3,6,4
India,Kerala,Kannur,"Thavakkara, Kannur - Kerala PCB",30-11-2025 08:00:00,11.875000,75.373200,CO,14,18,14
India,Kerala,Kollam,"Polayathode, Kollam - Kerala PCB",30-11-2025 08:00:00,8.8787,76.6073,PM10,29,199,117
India,Kerala,Kollam,"Polayathode, Kollam - Kerala PCB",30-11-2025 08:00:00,8.8787,76.6073,NH3,1,1,1
India,Kerala,Thiruvananthapuram,"Kariavattom, Thiruvananthapuram - Kerala PCB",30-11-2025 08:00:00,8.563700,76.886500,PM10,NA,NA,NA
India,Kerala,Thiruvananthapuram,"Kariavattom, Thiruvananthapuram - Kerala PCB",30-11-2025 08:00:00,8.563700,76.886500,NO2,NA,NA,NA
India,Kerala,Thiruvananthapuram,"Kariavattom, Thiruvananthapuram - Kerala PCB",30-11-2025 08:00:00,8.563700,76.886500,NH3,NA,NA,NA
India,Madhya Pradesh,Dewas,"Bhopal Chauraha, Dewas - MPPCB",30-11-2025 08:00:00,22.9682591,76.064118,CO,17,52,21
India,Madhya Pradesh,Gwalior,"City Center, Gwalior - MPPCB",30-11-2025 08:00:00,26.203442,78.193251,PM2.5,NA,NA,NA
India,Madhya Pradesh,Gwalior,"City Center, Gwalior - MPPCB",30-11-2025 08:00:00,26.203442,78.193251,CO,10,116,28
India,Madhya Pradesh,Gwalior,"Deen Dayal Nagar, Gwalior - MPPCB",30-11-2025 08:00:00,26.259242,78.216432,NH3,9,12,10
India,Madhya Pradesh,Gwalior,"Deen Dayal Nagar, Gwalior - MPPCB",30-11-2025 08:00:00,26.259242,78.216432,SO2,1,23,12
India,Madhya Pradesh,Gwalior,"Deen Dayal Nagar, Gwalior - MPPCB",30-11-2025 08:00:00,26.259242,78.216432,CO,6,107,63
India,Madhya Pradesh,Indore,"Airport Area, Indore - IMC",30-11-2025 08:00:00,22.7289,75.8076,PM2.5,47,270,109
India,Karnataka,Kalaburagi,"Mahatma Basaveswar Colony, Kalaburgi - KSPCB",30-11-2025 08:00:00,17.336318,76.847397,OZONE,14,35,14
India,Karnataka,Koppal,"Diwator Nagar, Koppal - KSPCB",30-11-2025 08:00:00,15.347630,76.181767,CO,39,78,54
India,Karnataka,Madikeri,"Stuart Hill, Madikeri - KSPCB",30-11-2025 08:00:00,12.415911,75.735050,PM2.5,14,500,96
India,Karnataka,Madikeri,"Stuart Hill, Madikeri - KSPCB",30-11-2025 08:00:00,12.415911,75.735050,PM10,16,500,90
India,Karnataka,Mangalore,"Kadri, Mangalore - KSPCB",30-11-2025 08:00:00,12.889250,74.853000,OZONE,4,41,24
India,Karnataka,Haveri,"Ashwini Nagar, Haveri - KSPCB",30-11-2025 08:00:00,14.791800,75.389600,CO,28,36,30
India,Karnataka,Hubballi,"Lingaraj Nagar, Hubballi - KSPCB",30-11-2025 08:00:00,15.3714823,75.1160168,NH3,1,2,2
India,Karnataka,Kalaburagi,"Lal Bahadur Shastri Nagar, Kalaburagi - KSPCB",30-11-2025 08:00:00,17.321993,76.822628,PM2.5,NA,NA,NA
India,Karnataka,Kalaburagi,"Mahatma Basaveswar Colony, Kalaburgi - KSPCB",30-11-2025 08:00:00,17.336318,76.847397,NO2,13,18,16
India,Karnataka,Davanagere,"Devaraj Urs Badavane, Davanagere - KSPCB",30-11-2025 08:00:00,14.475800,75.905200,NO2,3,37,29
India,Karnataka,Davanagere,"Devaraj Urs Badavane, Davanagere - KSPCB",30-11-2025 08:00:00,14.475800,75.905200,NH3,1,89,6
India,Karnataka,Dharwad,"Kalabhavan, Dharwad - KSPCB",30-11-2025 08:00:00,15.459706,75.008381,NO2,23,27,25
India,Karnataka,Dharwad,"Kalabhavan, Dharwad - KSPCB",30-11-2025 08:00:00,15.459706,75.008381,SO2,1,5,3
India,Karnataka,Haveri,"Ashwini Nagar, Haveri - KSPCB",30-11-2025 08:00:00,14.791800,75.389600,PM2.5,26,59,38
India,Kerala,Thiruvananthapuram,"Plammoodu, Thiruvananthapuram - Kerala PCB",30-11-2025 08:00:00,8.5149093,76.9435879,NO2,8,54,28
India,Kerala,Thrissur,"Corporation Ground, Thrissur - Kerala PCB",30-11-2025 08:00:00,10.532400,76.215900,SO2,NA,NA,NA
India,Madhya Pradesh,Bhopal,"Paryavaran Parisar, Bhopal - MPPCB",30-11-2025 08:00:00,23.210494,77.425409,PM2.5,77,330,164
India,Karnataka,Mysuru,"Hebbal 1st Stage, Mysuru - KSPCB",30-11-2025 08:00:00,12.21041,76.37376,NO2,NA,NA,NA
India,Karnataka,Mysuru,"Hebbal 1st Stage, Mysuru - KSPCB",30-11-2025 08:00:00,12.21041,76.37376,NH3,NA,NA,NA
India,Karnataka,Mysuru,"Hebbal 1st Stage, Mysuru - KSPCB",30-11-2025 08:00:00,12.21041,76.37376,SO2,NA,NA,NA
India,Karnataka,Mysuru,"Hebbal 1st Stage, Mysuru - KSPCB",30-11-2025 08:00:00,12.21041,76.37376,CO,NA,NA,NA
India,Karnataka,Shivamogga,"Vinoba Nagara, Shivamogga - KSPCB",30-11-2025 08:00:00,13.940000,75.555917,NO2,12,26,16
India,Karnataka,Shivamogga,"Vinoba Nagara, Shivamogga - KSPCB",30-11-2025 08:00:00,13.940000,75.555917,OZONE,18,82,29
India,Karnataka,Bengaluru,"Shivapura_Peenya, Bengaluru - KSPCB",30-11-2025 08:00:00,13.0246342,77.5080115,NO2,33,35,34
India,Karnataka,Bengaluru,"Shivapura_Peenya, Bengaluru - KSPCB",30-11-2025 08:00:00,13.0246342,77.5080115,NH3,5,5,5
India,Karnataka,Bengaluru,"Silk Board, Bengaluru - KSPCB",30-11-2025 08:00:00,12.917348,77.622813,NH3,1,2,2
India,Karnataka,Bengaluru,"Silk Board, Bengaluru - KSPCB",30-11-2025 08:00:00,12.917348,77.622813,OZONE,20,21,20
India,Karnataka,Bengaluru,"Jigani, Bengaluru - KSPCB",30-11-2025 08:00:00,12.7816279,77.6299145,PM10,NA,NA,NA
India,Karnataka,Bengaluru,"Peenya, Bengaluru - CPCB",30-11-2025 08:00:00,13.0270199,77.494094,OZONE,25,26,25
India,Karnataka,Bengaluru,"RVCE-Mailasandra, Bengaluru - KSPCB",30-11-2025 08:00:00,12.921418,77.502466,NO2,18,24,23
India,Madhya Pradesh,Satna,"Bandhavgar Colony, Satna - Birla Cement",30-11-2025 08:00:00,24.58434363,80.8549414,OZONE,1,48,2
India,Madhya Pradesh,Singrauli,"Suryakiran Bhawan NCL, Singrauli - MPPCB",30-11-2025 08:00:00,24.108970,82.645580,NH3,10,16,12
India,Maharashtra,Ahmednagar,"Tarakpur, Ahmednagar - MPCB",30-11-2025 08:00:00,19.10122,74.73339,PM2.5,59,192,94
India,Maharashtra,Ahmednagar,"Tarakpur, Ahmednagar - MPCB",30-11-2025 08:00:00,19.10122,74.73339,NO2,1,21,7
India,Maharashtra,Ahmednagar,"Tarakpur, Ahmednagar - MPCB",30-11-2025 08:00:00,19.10122,74.73339,CO,14,114,51
India,Maharashtra,Akola,"Ramdaspeth, Akola - MPCB",30-11-2025 08:00:00,20.719516,77.000253,PM10,56,141,96
India,Maharashtra,Akola,"Ramdaspeth, Akola - MPCB",30-11-2025 08:00:00,20.719516,77.000253,SO2,3,24,14
India,Maharashtra,Akola,"Ramdaspeth, Akola - MPCB",30-11-2025 08:00:00,20.719516,77.000253,CO,17,99,40
India,Maharashtra,Amravati,"Shivneri Colony, Amravati - MPCB",30-11-2025 08:00:00,20.9402359,77.7895248,NH3,3,3,3
India,Maharashtra,Amravati,"Shivneri Colony, Amravati - MPCB",30-11-2025 08:00:00,20.9402359,77.7895248,CO,12,54,25
India,Maharashtra,Amravati,"Shri Shivaji Science College, Amravati - MPCB",30-11-2025 08:00:00,20.939198,77.765701,PM10,82,177,112
India,Maharashtra,Aurangabad,"MIDC Chilkalthana, Aurangabad - MPCB",30-11-2025 08:00:00,19.875620,75.387310,PM2.5,34,78,53
India,Maharashtra,Aurangabad,"MIDC Chilkalthana, Aurangabad - MPCB",30-11-2025 08:00:00,19.875620,75.387310,SO2,1,2,1
India,Maharashtra,Aurangabad,"More Chowk Waluj, Aurangabad - MPCB",30-11-2025 08:00:00,19.8389439,75.244448,PM2.5,73,241,128
India,Maharashtra,Aurangabad,"More Chowk Waluj, Aurangabad - MPCB",30-11-2025 08:00:00,19.8389439,75.244448,PM10,64,133,94
India,Madhya Pradesh,Indore,"Regional Park, Indore - IMC",30-11-2025 08:00:00,22.6780,75.8559,OZONE,8,56,13
India,Madhya Pradesh,Indore,"Residency Area, Indore - IMC",30-11-2025 08:00:00,22.7084,75.8815,NO2,7,19,14
India,Madhya Pradesh,Jabalpur,"Govindh Bhavan Colony, Jabalpur - JMC",30-11-2025 08:00:00,23.163174,79.973061,PM10,NA,NA,NA
India,Madhya Pradesh,Jabalpur,"Govindh Bhavan Colony, Jabalpur - JMC",30-11-2025 08:00:00,23.163174,79.973061,NO2,10,12,11
India,Madhya Pradesh,Jabalpur,"Gupteshwar, Jabalpur - JMC",30-11-2025 08:00:00,23.142888,79.916147,NO2,23,101,48
India,Madhya Pradesh,Jabalpur,"Marhatal, Jabalpur - MPPCB",30-11-2025 08:00:00,23.168606,79.932247,PM2.5,84,322,199
India,Madhya Pradesh,Katni,"Gole Bazar, Katni - MPPCB",30-11-2025 08:00:00,23.50016,80.23284,OZONE,10,184,12
India,Madhya Pradesh,Mandideep,"Sector-D Industrial Area, Mandideep - MPPCB",30-11-2025 08:00:00,23.108440,77.511428,NO2,44,147,97
India,Madhya Pradesh,Mandideep,"Sector-D Industrial Area, Mandideep - MPPCB",30-11-2025 08:00:00,23.108440,77.511428,OZONE,4,103,10
India,Madhya Pradesh,Pithampur,"Sector-2 Industrial Area, Pithampur - MPPCB",30-11-2025 08:00:00,22.624758,75.675238,NO2,16,22,19
India,Madhya Pradesh,Pithampur,"Sector-2 Industrial Area, Pithampur - MPPCB",30-11-2025 08:00:00,22.624758,75.675238,OZONE,22,49,33
India,Madhya Pradesh,Indore,"Chhoti Gwaltoli, Indore - MPPCB",30-11-2025 08:00:00,22.4310,75.5213,PM2.5,93,252,162
India,Madhya Pradesh,Indore,"Chhoti Gwaltoli, Indore - MPPCB",30-11-2025 08:00:00,22.4310,75.5213,NO2,71,153,113
India,Madhya Pradesh,Indore,"Chhoti Gwaltoli, Indore - MPPCB",30-11-2025 08:00:00,22.4310,75.5213,NH3,1,10,4
India,Madhya Pradesh,Indore,"Regional Park, Indore - IMC",30-11-2025 08:00:00,22.6780,75.8559,PM2.5,56,99,68
India,Madhya Pradesh,Indore,"Regional Park, Indore - IMC",30-11-2025 08:00:00,22.6780,75.8559,SO2,22,26,24
India,Madhya Pradesh,Jabalpur,"Marhatal, Jabalpur - MPPCB",30-11-2025 08:00:00,23.168606,79.932247,NH3,3,4,4
India,Madhya Pradesh,Jabalpur,"Marhatal, Jabalpur - MPPCB",30-11-2025 08:00:00,23.168606,79.932247,SO2,10,38,22
India,Madhya Pradesh,Jabalpur,"Suhagi, Jabalpur - JMC",30-11-2025 08:00:00,23.218135,79.957770,PM2.5,NA,NA,NA
India,Madhya Pradesh,Jabalpur,"Suhagi, Jabalpur - JMC",30-11-2025 08:00:00,23.218135,79.957770,PM10,NA,NA,NA
India,Madhya Pradesh,Jabalpur,"Suhagi, Jabalpur - JMC",30-11-2025 08:00:00,23.218135,79.957770,NO2,NA,NA,NA
India,Maharashtra,Bhiwandi,"Gokul Nagar, Bhiwandi - MPCB",30-11-2025 08:00:00,19.309073,73.057223,NH3,3,5,4
India,Maharashtra,Boisar,"Khaira, Boisar - MPCB",30-11-2025 08:00:00,19.786089,72.757971,CO,12,90,19
India,Maharashtra,Chandrapur,"Chauhan Colony, Chandrapur - MPCB",30-11-2025 08:00:00,19.962900,79.298714,SO2,30,31,30
India,Madhya Pradesh,Sagar,"Civil Lines, Sagar - MPPCB",30-11-2025 08:00:00,23.838586,78.759431,PM10,64,138,111
India,Madhya Pradesh,Satna,"Bandhavgar Colony, Satna - Birla Cement",30-11-2025 08:00:00,24.58434363,80.8549414,PM2.5,45,48,46
India,Maharashtra,Aurangabad,"Rachnakar Colony, Aurangabad - MPCB",30-11-2025 08:00:00,19.863756,75.321188,CO,16,58,29
India,Maharashtra,Badlapur,"Katrap, Badlapur - MPCB",30-11-2025 08:00:00,19.16485,73.23409,SO2,8,24,11
India,Maharashtra,Chandrapur,"Chauhan Colony, Chandrapur - MPCB",30-11-2025 08:00:00,19.962900,79.298714,CO,24,62,52
India,Maharashtra,Dhule,"Deopur, Dhule - MPCB",30-11-2025 08:00:00,20.918946,74.776388,NO2,14,117,39
India,Maharashtra,Dhule,"Deopur, Dhule - MPCB",30-11-2025 08:00:00,20.918946,74.776388,NH3,1,27,4
India,Maharashtra,Dhule,"Deopur, Dhule - MPCB",30-11-2025 08:00:00,20.918946,74.776388,CO,19,106,42
India,Maharashtra,Jalgaon,"Prabhat Colony, Jalgaon - MPCB",30-11-2025 08:00:00,21.001264,75.565602,PM10,102,330,152
India,Maharashtra,Jalgaon,"Prabhat Colony, Jalgaon - MPCB",30-11-2025 08:00:00,21.001264,75.565602,NO2,5,40,13
India,Maharashtra,Jalna,"Old MIDC, Jalna - MPCB",30-11-2025 08:00:00,19.854616,75.905894,SO2,NA,NA,NA
India,Maharashtra,Jalna,"Old MIDC, Jalna - MPCB",30-11-2025 08:00:00,19.854616,75.905894,OZONE,NA,NA,NA
India,Maharashtra,Kalyan,"Khadakpada, Kalyan - MPCB",30-11-2025 08:00:00,19.25292,73.142019,NO2,36,36,36
India,Maharashtra,Kalyan,"Khadakpada, Kalyan - MPCB",30-11-2025 08:00:00,19.25292,73.142019,OZONE,6,9,9
India,Maharashtra,Kalyan,"Pimpleshwar Mandir, Kalyan - MPCB",30-11-2025 08:00:00,19.192056,72.9585188,PM2.5,NA,NA,NA
India,Maharashtra,Kalyan,"Pimpleshwar Mandir, Kalyan - MPCB",30-11-2025 08:00:00,19.192056,72.9585188,PM10,134,413,212
India,Maharashtra,Kalyan,"Pimpleshwar Mandir, Kalyan - MPCB",30-11-2025 08:00:00,19.192056,72.9585188,SO2,16,33,25
India,Maharashtra,Kolhapur,"Shivaji University, Kolhapur - MPCB",30-11-2025 08:00:00,16.6870449,74.2505872,PM2.5,89,183,134
India,Maharashtra,Kolhapur,"Shivaji University, Kolhapur - MPCB",30-11-2025 08:00:00,16.6870449,74.2505872,NH3,3,4,3
India,Maharashtra,Kolhapur,"Sinchan Bhavan, Kolhapur - MPCB",30-11-2025 08:00:00,16.7143745,74.2426398,NO2,25,99,53
India,Maharashtra,Kolhapur,"Sinchan Bhavan, Kolhapur - MPCB",30-11-2025 08:00:00,16.7143745,74.2426398,SO2,2,13,6
India,Maharashtra,Kolhapur,"Sinchan Bhavan, Kolhapur - MPCB",30-11-2025 08:00:00,16.7143745,74.2426398,CO,22,92,35
India,Maharashtra,Mumbai,"Bandra Kurla Complex, Mumbai - MPCB",30-11-2025 08:00:00,19.065931,72.862131,PM2.5,42,210,113
India,Maharashtra,Mumbai,"Bandra Kurla Complex, Mumbai - MPCB",30-11-2025 08:00:00,19.065931,72.862131,NO2,31,95,69
India,Maharashtra,Mumbai,"Bandra Kurla Complex, Mumbai - MPCB",30-11-2025 08:00:00,19.065931,72.862131,SO2,3,8,4
India,Maharashtra,Mumbai,"Bandra Kurla Complex, Mumbai - MPCB",30-11-2025 08:00:00,19.065931,72.862131,CO,1,42,30
India,Maharashtra,Mumbai,"Borivali East, Mumbai - IITM",30-11-2025 08:00:00,19.23241,72.86895,PM2.5,33,106,66
India,Maharashtra,Mumbai,"Borivali East, Mumbai - IITM",30-11-2025 08:00:00,19.23241,72.86895,PM10,75,129,100
India,Maharashtra,Mumbai,"Byculla, Mumbai - BMC",30-11-2025 08:00:00,18.9767,72.8380,PM2.5,64,208,101
India,Maharashtra,Mumbai,"Byculla, Mumbai - BMC",30-11-2025 08:00:00,18.9767,72.8380,NO2,NA,NA,NA
India,Maharashtra,Mumbai,"Deonar, Mumbai - IITM",30-11-2025 08:00:00,19.04946,72.9230,CO,2,97,59
India,Maharashtra,Mumbai,"Kandivali East, Mumbai - MPCB",30-11-2025 08:00:00,19.205800,72.868200,NO2,6,10,8
India,Maharashtra,Mumbai,"Kandivali East, Mumbai - MPCB",30-11-2025 08:00:00,19.205800,72.868200,CO,NA,NA,NA
India,Maharashtra,Mumbai,"Kherwadi_Bandra East, Mumbai - MPCB",30-11-2025 08:00:00,19.0632143,72.8456324,PM2.5,57,136,82
India,Maharashtra,Mumbai,"Kherwadi_Bandra East, Mumbai - MPCB",30-11-2025 08:00:00,19.0632143,72.8456324,PM10,110,155,134
India,Maharashtra,Mumbai,"Kherwadi_Bandra East, Mumbai - MPCB",30-11-2025 08:00:00,19.0632143,72.8456324,OZONE,1,62,1
India,Maharashtra,Mumbai,"Chakala-Andheri East, Mumbai - IITM",30-11-2025 08:00:00,19.11074,72.86084,CO,2,78,14
India,Maharashtra,Mumbai,"Chembur, Mumbai - MPCB",30-11-2025 08:00:00,19.0364585,72.8954371,PM10,66,140,112
India,Maharashtra,Mumbai,"Colaba, Mumbai - MPCB",30-11-2025 08:00:00,18.910000,72.820000,PM2.5,29,74,50
India,Maharashtra,Mumbai,"Colaba, Mumbai - MPCB",30-11-2025 08:00:00,18.910000,72.820000,SO2,NA,NA,NA
India,Maharashtra,Mumbai,"Deonar, Mumbai - IITM",30-11-2025 08:00:00,19.04946,72.9230,PM2.5,4,205,109
India,Maharashtra,Mumbai,"Khindipada-Bhandup West, Mumbai - IITM",30-11-2025 08:00:00,19.1653323,72.922099,NH3,1,2,1
India,Maharashtra,Mumbai,"Khindipada-Bhandup West, Mumbai - IITM",30-11-2025 08:00:00,19.1653323,72.922099,CO,24,36,30
India,Maharashtra,Mumbai,"Kurla, Mumbai - MPCB",30-11-2025 08:00:00,19.0863,72.8888,NO2,7,10,8
India,Maharashtra,Mumbai,"Kurla, Mumbai - MPCB",30-11-2025 08:00:00,19.0863,72.8888,OZONE,28,29,29
India,Maharashtra,Mumbai,"Mazgaon, Mumbai - IITM",30-11-2025 08:00:00,18.96702,72.84214,NO2,33,113,88
India,Maharashtra,Mumbai,"Powai, Mumbai - MPCB",30-11-2025 08:00:00,19.137500,72.915056,OZONE,9,9,9
India,Maharashtra,Mumbai,"Sewri, Mumbai - BMC",30-11-2025 08:00:00,19.000084,72.856730,NO2,1,9,2
India,Maharashtra,Mumbai,"Sewri, Mumbai - BMC",30-11-2025 08:00:00,19.000084,72.856730,NH3,11,31,20
India,Maharashtra,Mumbai,"Sewri, Mumbai - BMC",30-11-2025 08:00:00,19.000084,72.856730,CO,2,104,34
India,Maharashtra,Mumbai,"Siddharth Nagar-Worli, Mumbai - IITM",30-11-2025 08:00:00,19.000083,72.813993,PM10,54,140,110
India,Maharashtra,Mumbai,"Mindspace-Malad West, Mumbai - MPCB",30-11-2025 08:00:00,19.1878657,72.8304069,PM10,27,93,59
India,Maharashtra,Mumbai,"Powai, Mumbai - MPCB",30-11-2025 08:00:00,19.137500,72.915056,PM10,29,76,51
India,Maharashtra,Malegaon,"Mahesh Nagar, Malegaon - MPCB",30-11-2025 08:00:00,20.555712,74.529236,NO2,NA,NA,NA
India,Maharashtra,Pune,"Katraj Dairy, Pune - MPCB",30-11-2025 08:00:00,18.454450,73.854155,NH3,NA,NA,NA
India,Maharashtra,Pune,"Mhada Colony, Pune - IITM",30-11-2025 08:00:00,18.573040,73.927715,PM10,115,190,150
India,Maharashtra,Pune,"Mhada Colony, Pune - IITM",30-11-2025 08:00:00,18.573040,73.927715,CO,24,80,57
India,Maharashtra,Pune,"Panchawati_Pashan, Pune - IITM",30-11-2025 08:00:00,18.536457,73.805454,PM10,66,168,121
India,Maharashtra,Pune,"Panchawati_Pashan, Pune - IITM",30-11-2025 08:00:00,18.536457,73.805454,CO,2,28,9
India,Maharashtra,Pune,"Revenue Colony-Shivajinagar, Pune - IITM",30-11-2025 08:00:00,18.530085,73.849598,CO,65,110,105
India,Maharashtra,Nanded,"Sneh Nagar, Nanded - MPCB",30-11-2025 08:00:00,19.173852,77.296291,SO2,8,9,8
India,Maharashtra,Nashik,"Gangapur Road, Nashik - MPCB",30-11-2025 08:00:00,20.0073285,73.7762427,SO2,NA,NA,NA
India,Maharashtra,Nashik,"Hirawadi, Nashik - MPCB",30-11-2025 08:00:00,20.021503,73.813844,PM2.5,48,107,74
India,Maharashtra,Nashik,"Hirawadi, Nashik - MPCB",30-11-2025 08:00:00,20.021503,73.813844,PM10,85,121,97
India,Maharashtra,Nashik,"Hirawadi, Nashik - MPCB",30-11-2025 08:00:00,20.021503,73.813844,SO2,1,8,4
India,Maharashtra,Nashik,"MIDC Ambad, Nashik - MPCB",30-11-2025 08:00:00,19.950220,73.731480,PM10,73,111,89
India,Maharashtra,Nashik,"MIDC Ambad, Nashik - MPCB",30-11-2025 08:00:00,19.950220,73.731480,OZONE,30,88,48
India,Maharashtra,Nashik,"Pandav Nagari, Nashik - MPCB",30-11-2025 08:00:00,19.9591346,73.7788008,SO2,4,69,15
India,Maharashtra,Navi Mumbai,"Kopripada-Vashi, Navi Mumbai - MPCB",30-11-2025 08:00:00,19.090337,73.014232,NH3,3,10,7
India,Maharashtra,Navi Mumbai,"Kopripada-Vashi, Navi Mumbai - MPCB",30-11-2025 08:00:00,19.090337,73.014232,CO,10,50,30
India,Maharashtra,Navi Mumbai,"Mahape, Navi Mumbai - MPCB",30-11-2025 08:00:00,19.1135051,73.008978,NH3,3,4,3
India,Maharashtra,Parbhani,"Masoom Colony, Parbhani - MPCB",30-11-2025 08:00:00,19.265594,76.761463,NH3,3,5,4
India,Maharashtra,Parbhani,"Masoom Colony, Parbhani - MPCB",30-11-2025 08:00:00,19.265594,76.761463,SO2,1,8,6
India,Maharashtra,Pimpri-Chinchwad,"Gavalinagar, Pimpri Chinchwad - MPCB",30-11-2025 08:00:00,18.63673,73.82487,OZONE,13,93,22
India,Maharashtra,Pimpri-Chinchwad,"Savta Mali Nagar, Pimpri-Chinchwad - IITM",30-11-2025 08:00:00,18.614767,73.799516,PM10,88,165,132
India,Maharashtra,Navi Mumbai,"Sanpada, Navi Mumbai - MPCB",30-11-2025 08:00:00,19.0575752,73.0151367,OZONE,1,71,7
India,Maharashtra,Navi Mumbai,"Sector-2E Kalamboli, Navi Mumbai - MPCB",30-11-2025 08:00:00,19.02579,73.10297,PM2.5,69,273,153
India,Maharashtra,Navi Mumbai,"Sector-2E Kalamboli, Navi Mumbai - MPCB",30-11-2025 08:00:00,19.02579,73.10297,PM10,40,236,122
India,Maharashtra,Navi Mumbai,"Sector-2E Kalamboli, Navi Mumbai - MPCB",30-11-2025 08:00:00,19.02579,73.10297,SO2,1,12,6
India,Maharashtra,Pune,"Bhumkar Nagar, Pune - IITM",30-11-2025 08:00:00,18.605770,73.749976,PM10,84,288,129
India,Maharashtra,Pune,"Dhankawadi, Pune - IITM",30-11-2025 08:00:00,18.459883,73.852193,PM2.5,64,200,106
India,Maharashtra,Pune,"Hadapsar, Pune - IITM",30-11-2025 08:00:00,18.501793,73.927532,CO,64,75,72
India,Maharashtra,Pune,"Hadapsar, Pune - IITM",30-11-2025 08:00:00,18.501793,73.927532,OZONE,2,139,6
India,Maharashtra,Mumbai,"Vile Parle West, Mumbai - MPCB",30-11-2025 08:00:00,19.10861,72.83622,OZONE,15,27,25
India,Maharashtra,Mumbai,"Worli, Mumbai - MPCB",30-11-2025 08:00:00,18.9936162,72.8128113,NH3,1,2,1
India,Maharashtra,Nagpur,"Ambazari, Nagpur - MPCB",30-11-2025 08:00:00,21.121801,79.04952,PM2.5,NA,NA,NA
India,Maharashtra,Nagpur,"Ambazari, Nagpur - MPCB",30-11-2025 08:00:00,21.121801,79.04952,OZONE,NA,NA,NA
India,Maharashtra,Nagpur,"Opp GPO Civil Lines, Nagpur - MPCB",30-11-2025 08:00:00,21.152875,79.0517531,SO2,2,93,23
India,Maharashtra,Nagpur,"Ram Nagar, Nagpur - MPCB",30-11-2025 08:00:00,21.143383,79.048912,NH3,3,19,6
India,Maharashtra,Navi Mumbai,"Sanpada, Navi Mumbai - MPCB",30-11-2025 08:00:00,19.0575752,73.0151367,PM2.5,38,133,91
India,Maharashtra,Pune,"Savitribai Phule Pune University, Pune - MPCB",30-11-2025 08:00:00,18.547056,73.826908,OZONE,1,125,12
India,Maharashtra,Pune,"Transport Nagar-Nigdi, Pune - IITM",30-11-2025 08:00:00,18.664282,73.763966,NO2,53,106,72
India,Maharashtra,Pune,"Transport Nagar-Nigdi, Pune - IITM",30-11-2025 08:00:00,18.664282,73.763966,CO,1,96,76
India,Maharashtra,Solapur,"Dnyaneshwar Nagar, Solapur - MPCB",30-11-2025 08:00:00,17.6336264,75.9132495,NH3,5,29,10
India,Maharashtra,Solapur,"Dnyaneshwar Nagar, Solapur - MPCB",30-11-2025 08:00:00,17.6336264,75.9132495,OZONE,26,116,74
India,Maharashtra,Solapur,"Ratandeep Housing Society, Solapur - MPCB",30-11-2025 08:00:00,17.65439,75.90649,PM2.5,99,192,148
India,Odisha,Bhubaneswar,"Patia, Bhubaneswar - OSPCB",30-11-2025 08:00:00,20.34652,85.81630,SO2,4,8,5
India,Odisha,Bhubaneswar,"Patia, Bhubaneswar - OSPCB",30-11-2025 08:00:00,20.34652,85.81630,CO,11,110,43
India,Odisha,Bhubaneswar,"Patia, Bhubaneswar - OSPCB",30-11-2025 08:00:00,20.34652,85.81630,OZONE,7,127,12
India,Odisha,Bileipada,"Tata Township, Bileipada - OSPCB",30-11-2025 08:00:00,22.06156703,85.47409613,PM2.5,105,105,105
India,Odisha,Bileipada,"Tata Township, Bileipada - OSPCB",30-11-2025 08:00:00,22.06156703,85.47409613,CO,26,73,31
India,Odisha,Bileipada,"Tata Township, Bileipada - OSPCB",30-11-2025 08:00:00,22.06156703,85.47409613,OZONE,8,18,10
India,Odisha,Brajrajnagar,"GM Office, Brajrajnagar - OSPCB",30-11-2025 08:00:00,21.8004996,83.8396977,NH3,8,17,12
India,Maharashtra,Virar,"Bolinj, Virar - MPCB",30-11-2025 08:00:00,19.4458210,72.7988231,PM10,46,112,72
India,Meghalaya,Shillong,"Lumpyngngad, Shillong - Meghalaya PCB",30-11-2025 08:00:00,25.5586,91.8985,NO2,NA,NA,NA
India,Meghalaya,Shillong,"Lumpyngngad, Shillong - Meghalaya PCB",30-11-2025 08:00:00,25.5586,91.8985,SO2,6,7,6
India,Nagaland,Kohima,"PWD Junction, Kohima - NPCB",30-11-2025 08:00:00,25.6635413,94.0989878,PM2.5,16,101,49
India,Nagaland,Kohima,"PWD Junction, Kohima - NPCB",30-11-2025 08:00:00,25.6635413,94.0989878,NO2,3,4,3
India,Nagaland,Kohima,"PWD Junction, Kohima - NPCB",30-11-2025 08:00:00,25.6635413,94.0989878,OZONE,9,20,10
India,Maharashtra,Thane,"Kasarvadavali, Thane - MPCB",30-11-2025 08:00:00,19.26777,72.97182,NO2,15,72,42
India,Maharashtra,Thane,"Kasarvadavali, Thane - MPCB",30-11-2025 08:00:00,19.26777,72.97182,OZONE,1,54,10
India,Maharashtra,Thane,"Upvan Fort, Thane - MPCB",30-11-2025 08:00:00,19.222279,72.957979,PM10,49,122,85
India,Maharashtra,Thane,"Upvan Fort, Thane - MPCB",30-11-2025 08:00:00,19.222279,72.957979,NH3,3,3,3
India,Maharashtra,Ulhasnagar,"Sidhi Vinayak Nagar, Ulhasnagar - MPCB",30-11-2025 08:00:00,19.235581,73.159121,NO2,19,32,26
India,Odisha,Nayagarh,"Dabuna, Nayagarh - OSPCB",30-11-2025 08:00:00,21.847279,85.416905,OZONE,11,24,11
India,Odisha,Rairangpur,"Divisional Forest Office, Rairangpur - OSPCB",30-11-2025 08:00:00,22.265816,86.174829,SO2,2,30,18
India,Odisha,Rourkela,"Raghunathpali, Rourkela - OSPCB",30-11-2025 08:00:00,22.220833,84.809444,OZONE,22,23,22
India,Odisha,Rourkela,"Sector-2, Rourkela - OSPCB",30-11-2025 08:00:00,22.24500000,84.88111111,PM10,61,113,73
India,Odisha,Byasanagar,"Ferro Chrome Colony, Byasanagar - OSPCB",30-11-2025 08:00:00,20.94185,86.11510,SO2,16,27,22
India,Odisha,Cuttack,"CDA Area, Cuttack - OSPCB",30-11-2025 08:00:00,20.48891     ,85.84768     ,PM2.5,82,319,185
India,Odisha,Cuttack,"CDA Area, Cuttack - OSPCB",30-11-2025 08:00:00,20.48891     ,85.84768     ,OZONE,3,131,21
India,Odisha,Keonjhar,"Jagamohanpur, Keonjhar - OSPCB",30-11-2025 08:00:00,21.643900,85.599355,PM2.5,71,104,82
India,Odisha,Angul,"Hakimapada, Angul - OSPCB",30-11-2025 08:00:00,20.832874,85.104082,OZONE,5,187,9
India,Odisha,Balasore,"Kalidaspur, Balasore - OSPCB",30-11-2025 08:00:00,21.51161,86.89088,NO2,7,108,31
India,Odisha,Balasore,"Kalidaspur, Balasore - OSPCB",30-11-2025 08:00:00,21.51161,86.89088,SO2,6,14,9
India,Odisha,Barbil,"Forest Office, Barbil - OSPCB",30-11-2025 08:00:00,22.1166054,85.3945546,OZONE,3,68,5
India,Odisha,Baripada,"Meher Colony, Baripada - OSPCB",30-11-2025 08:00:00,21.941841,86.728318,NO2,1,74,38
India,Odisha,Baripada,"Meher Colony, Baripada - OSPCB",30-11-2025 08:00:00,21.941841,86.728318,OZONE,9,74,24
India,Odisha,Bhubaneswar,"Lingraj Mandir, Bhubaneswar - OSPCB",30-11-2025 08:00:00,20.240790,85.836784,NH3,4,7,6
India,Punjab,Amritsar,"Golden Temple, Amritsar - PPCB",30-11-2025 08:00:00,31.620000,74.876512,OZONE,30,45,36
India,Punjab,Bathinda,"Hardev Nagar, Bathinda - PPCB",30-11-2025 08:00:00,30.233011,74.907758,CO,76,80,78
India,Punjab,Jalandhar,"Civil Line, Jalandhar - PPCB",30-11-2025 08:00:00,31.321907,75.578914,PM2.5,71,172,127
India,Punjab,Jalandhar,"Civil Line, Jalandhar - PPCB",30-11-2025 08:00:00,31.321907,75.578914,NO2,33,37,35
India,Punjab,Khanna,"Kalal Majra, Khanna - PPCB",30-11-2025 08:00:00,30.736056 ,76.209694,PM2.5,48,142,91
India,Punjab,Khanna,"Kalal Majra, Khanna - PPCB",30-11-2025 08:00:00,30.736056 ,76.209694,NH3,7,8,7
India,Punjab,Khanna,"Kalal Majra, Khanna - PPCB",30-11-2025 08:00:00,30.736056 ,76.209694,SO2,11,57,27
India,Punjab,Khanna,"Kalal Majra, Khanna - PPCB",30-11-2025 08:00:00,30.736056 ,76.209694,CO,14,50,39
India,Punjab,Ludhiana,"Punjab Agricultural University, Ludhiana - PPCB",30-11-2025 08:00:00,30.9028,75.8086,PM10,107,123,113
India,Punjab,Ludhiana,"Punjab Agricultural University, Ludhiana - PPCB",30-11-2025 08:00:00,30.9028,75.8086,SO2,15,28,20
India,Punjab,Ludhiana,"Punjab Agricultural University, Ludhiana - PPCB",30-11-2025 08:00:00,30.9028,75.8086,OZONE,13,30,19
India,Punjab,Mandi Gobindgarh,"RIMT University, Mandi Gobindgarh - PPCB",30-11-2025 08:00:00,30.649961,76.331442,PM2.5,85,383,242
India,Punjab,Patiala,"Model Town, Patiala - PPCB",30-11-2025 08:00:00,30.349388,76.366642,PM10,82,129,99
India,Punjab,Patiala,"Model Town, Patiala - PPCB",30-11-2025 08:00:00,30.349388,76.366642,NO2,15,19,17
India,Punjab,Patiala,"Model Town, Patiala - PPCB",30-11-2025 08:00:00,30.349388,76.366642,NH3,6,7,6
India,Punjab,Rupnagar,"Ratanpura, Rupnagar - Ambuja Cements",30-11-2025 08:00:00,31.0325454,76.5623046,SO2,8,16,14
India,Rajasthan,Bhiwadi,"RIICO Ind. Area III, Bhiwadi - RSPCB",30-11-2025 08:00:00,28.194909,76.862296,NO2,21,93,54
India,Rajasthan,Bhiwadi,"RIICO Ind. Area III, Bhiwadi - RSPCB",30-11-2025 08:00:00,28.194909,76.862296,CO,28,87,53
India,Rajasthan,Bhiwadi,"RIICO Ind. Area III, Bhiwadi - RSPCB",30-11-2025 08:00:00,28.194909,76.862296,OZONE,5,47,6
India,Rajasthan,Bhiwadi,"Vasundhara Nagar_UIT, Bhiwadi - RSPCB",30-11-2025 08:00:00,28.207266,76.829265,PM2.5,123,367,283
India,Rajasthan,Bhiwadi,"Vasundhara Nagar_UIT, Bhiwadi - RSPCB",30-11-2025 08:00:00,28.207266,76.829265,NH3,3,9,6
India,Rajasthan,Bhiwadi,"Vasundhara Nagar_UIT, Bhiwadi - RSPCB",30-11-2025 08:00:00,28.207266,76.829265,SO2,4,19,10
India,Rajasthan,Bikaner,"MM Ground, Bikaner - RSPCB",30-11-2025 08:00:00,28.018792,73.292658,PM10,127,407,210
India,Rajasthan,Jaipur,"Adarsh Nagar, Jaipur - RSPCB",30-11-2025 08:00:00,26.902909,75.836858,SO2,14,34,24
India,Rajasthan,Jaipur,"Mansarovar Sector-12, Jaipur - RSPCB",30-11-2025 08:00:00,26.843698,75.766894,NH3,16,19,18
India,Rajasthan,Jaipur,"Police Commissionerate, Jaipur - RSPCB",30-11-2025 08:00:00,26.9164092,75.7994901,OZONE,3,81,18
India,Rajasthan,Jaipur,"RIICO Sitapura, Jaipur - RSPCB",30-11-2025 08:00:00,26.786682,75.827928,NO2,31,155,77
India,Rajasthan,Jaipur,"RIICO Sitapura, Jaipur - RSPCB",30-11-2025 08:00:00,26.786682,75.827928,NH3,5,11,7
India,Rajasthan,Bundi,"New Colony, Bundi - RSPCB",30-11-2025 08:00:00,25.435774,75.644272,NO2,17,50,29
India,Rajasthan,Bundi,"New Colony, Bundi - RSPCB",30-11-2025 08:00:00,25.435774,75.644272,CO,38,65,43
India,Rajasthan,Churu,"Subash Chowk, Churu - RSPCB",30-11-2025 08:00:00,28.296139,74.961696,SO2,5,12,9
India,Rajasthan,Churu,"Subash Chowk, Churu - RSPCB",30-11-2025 08:00:00,28.296139,74.961696,OZONE,1,130,7
India,Rajasthan,Dausa,"Khatikan Mohalla, Dausa - RSPCB",30-11-2025 08:00:00,26.895552,76.334753,SO2,2,10,5
India,Odisha,Talcher,"Talcher Coalfields,Talcher - OSPCB",30-11-2025 08:00:00,20.9360711,85.1707021,NH3,5,8,6
India,Puducherry,Puducherry,"Jawahar Nagar, Puducherry - PPCC",30-11-2025 08:00:00,11.9309,79.8027,NO2,1,26,11
India,Puducherry,Puducherry,"Jawahar Nagar, Puducherry - PPCC",30-11-2025 08:00:00,11.9309,79.8027,NH3,1,2,1
India,Puducherry,Puducherry,"Jawahar Nagar, Puducherry - PPCC",30-11-2025 08:00:00,11.9309,79.8027,OZONE,25,48,43
India,Rajasthan,Dausa,"Khatikan Mohalla, Dausa - RSPCB",30-11-2025 08:00:00,26.895552,76.334753,OZONE,8,159,24
India,Rajasthan,Dholpur,"Raja Ganj, Dholpur - RSPCB",30-11-2025 08:00:00,26.699557,77.898881,PM10,77,147,108
India,Rajasthan,Hanumangarh,"Housing Board, Hanumangarh - RSPCB",30-11-2025 08:00:00,29.610750,74.283608,OZONE,10,108,32
India,Rajasthan,Baran,"Bamboliya, Baran - RSPCB",30-11-2025 08:00:00,25.106006,76.469948,NO2,18,62,32
India,Rajasthan,Barmer,"Railway Colony, Barmer - RSPCB",30-11-2025 08:00:00,25.747299,71.393989,OZONE,5,91,68
India,Rajasthan,Bharatpur,"Krishna Nagar, Bharatpur - RSPCB",30-11-2025 08:00:00,27.215415,77.50873,SO2,5,17,9
India,Rajasthan,Alwar,"Moti Doongri, Alwar - RSPCB",30-11-2025 08:00:00,27.554793,76.611536,NO2,55,75,64
India,Rajasthan,Alwar,"Moti Doongri, Alwar - RSPCB",30-11-2025 08:00:00,27.554793,76.611536,CO,22,88,39
India,Rajasthan,Alwar,"Moti Doongri, Alwar - RSPCB",30-11-2025 08:00:00,27.554793,76.611536,OZONE,15,45,17
India,Rajasthan,Baran,"Bamboliya, Baran - RSPCB",30-11-2025 08:00:00,25.106006,76.469948,PM2.5,88,312,192
India,Rajasthan,Pratapgarh,"Pragati Nagar, Pratapgarh - RSPCB",30-11-2025 08:00:00,24.041198,74.780702,NO2,17,45,27
India,Rajasthan,Pratapgarh,"Pragati Nagar, Pratapgarh - RSPCB",30-11-2025 08:00:00,24.041198,74.780702,NH3,5,7,6
India,Rajasthan,Pratapgarh,"Pragati Nagar, Pratapgarh - RSPCB",30-11-2025 08:00:00,24.041198,74.780702,CO,24,48,31
India,Rajasthan,Pratapgarh,"Pragati Nagar, Pratapgarh - RSPCB",30-11-2025 08:00:00,24.041198,74.780702,OZONE,18,139,23
India,Rajasthan,Rajsamand,"Dhoinda, Rajsamand - RSPCB",30-11-2025 08:00:00,25.036360,73.883502,CO,23,76,38
India,Rajasthan,Sawai Madhopur,"Sahu Nagar, Sawai Madhopur - RSPCB",30-11-2025 08:00:00,26.031443,76.359327,PM2.5,NA,NA,NA
India,Rajasthan,Sawai Madhopur,"Sahu Nagar, Sawai Madhopur - RSPCB",30-11-2025 08:00:00,26.031443,76.359327,NH3,8,10,8
India,Rajasthan,Sawai Madhopur,"Sahu Nagar, Sawai Madhopur - RSPCB",30-11-2025 08:00:00,26.031443,76.359327,SO2,1,8,3
India,Rajasthan,Sikar,"Radhakishan Pura, Sikar - RSPCB",30-11-2025 08:00:00,27.608912,75.153302,NH3,9,15,12
India,Rajasthan,Sikar,"Radhakishan Pura, Sikar - RSPCB",30-11-2025 08:00:00,27.608912,75.153302,CO,30,105,48
India,Rajasthan,Jodhpur,"Collectorate, Jodhpur - RSPCB",30-11-2025 08:00:00,26.268249,73.0193853,NH3,5,9,7
India,Rajasthan,Jodhpur,"Collectorate, Jodhpur - RSPCB",30-11-2025 08:00:00,26.268249,73.0193853,OZONE,77,160,102
India,Rajasthan,Jodhpur,"Digari Kalan, Jodhpur - RSPCB",30-11-2025 08:00:00,26.295810,73.082283,PM10,85,194,138
India,Rajasthan,Jodhpur,"Jhalamand, Jodhpur - RSPCB",30-11-2025 08:00:00,26.215415,73.070156,PM2.5,63,277,136
India,Rajasthan,Jodhpur,"Jhalamand, Jodhpur - RSPCB",30-11-2025 08:00:00,26.215415,73.070156,PM10,71,170,105
India,Rajasthan,Jodhpur,"Jhalamand, Jodhpur - RSPCB",30-11-2025 08:00:00,26.215415,73.070156,SO2,1,8,3
India,Rajasthan,Jodhpur,"Jhalamand, Jodhpur - RSPCB",30-11-2025 08:00:00,26.215415,73.070156,OZONE,6,115,44
India,Rajasthan,Jodhpur,"Mandor, Jodhpur - RSPCB",30-11-2025 08:00:00,26.358805,73.047444,PM10,83,204,124
India,Rajasthan,Sirohi,"Vedhaynath Colony, Sirohi - RSPCB",30-11-2025 08:00:00,24.885261,72.857549,NH3,4,28,8
India,Rajasthan,Sri Ganganagar,"Old City, Sri Ganganagar - RSPCB",30-11-2025 08:00:00,29.931624,73.864511,CO,NA,NA,NA
India,Rajasthan,Tonk,"Shastri Nagar, Tonk - RSPCB",30-11-2025 08:00:00,26.159933,75.780517,PM2.5,158,395,286
India,Rajasthan,Tonk,"Shastri Nagar, Tonk - RSPCB",30-11-2025 08:00:00,26.159933,75.780517,PM10,142,449,255
India,Rajasthan,Udaipur,"Ashok Nagar, Udaipur - RSPCB",30-11-2025 08:00:00,24.5886166,73.6321397,SO2,6,12,9
India,Sikkim,Gangtok,"Zero Point GICI, Gangtok - SSPCB",30-11-2025 08:00:00,27.338530,88.614099,PM10,13,37,25
India,TamilNadu,Chennai,"Arumbakkam, Chennai - TNPCB",30-11-2025 08:00:00,13.0664,80.2112 ,PM10,21,99,52
India,TamilNadu,Chennai,"Arumbakkam, Chennai - TNPCB",30-11-2025 08:00:00,13.0664,80.2112 ,NO2,10,26,15
India,TamilNadu,Chennai,"Gandhi Nagar_Ennore, Chennai - TNPCB",30-11-2025 08:00:00,13.218341,80.32027,NO2,7,7,7
India,Rajasthan,Jodhpur,"Samrat Ashok Udhyan, Jodhpur - RSPCB",30-11-2025 08:00:00,26.253384,72.976571,PM10,79,197,139
India,Rajasthan,Karauli,"Satyawati Vihar, Karauli - RSPCB",30-11-2025 08:00:00,26.506177,77.025989,PM10,64,173,114
India,Rajasthan,Karauli,"Satyawati Vihar, Karauli - RSPCB",30-11-2025 08:00:00,26.506177,77.025989,CO,6,103,60
India,Rajasthan,Kota,"Dhanmandi, Kota - RSPCB",30-11-2025 08:00:00,25.164090,75.858137,PM2.5,187,401,307
India,Rajasthan,Jalore,"Mudtra Sili, Jalore - RSPCB",30-11-2025 08:00:00,25.344694,72.626208,PM2.5,93,318,229
India,Rajasthan,Jalore,"Mudtra Sili, Jalore - RSPCB",30-11-2025 08:00:00,25.344694,72.626208,NO2,29,135,69
India,Rajasthan,Jalore,"Mudtra Sili, Jalore - RSPCB",30-11-2025 08:00:00,25.344694,72.626208,NH3,6,10,8
India,Rajasthan,Jhunjhunu,"Indra Nagar, Jhunjhunu - RSPCB",30-11-2025 08:00:00,28.108988,75.386577,CO,30,82,49
India,TamilNadu,Chennai,"Kodungaiyur, Chennai - TNPCB",30-11-2025 08:00:00,13.1278,80.2642,NO2,1,4,2
India,TamilNadu,Chennai,"Manali Village, Chennai - TNPCB",30-11-2025 08:00:00,13.1662,80.2584,PM10,24,94,53
India,TamilNadu,Chennai,"Manali, Chennai - CPCB",30-11-2025 08:00:00,13.164544,80.26285,PM2.5,5,44,19
India,Rajasthan,Jaipur,"Sector-2 Murlipura, Jaipur - RSPCB",30-11-2025 08:00:00,26.960669,75.771817,PM10,111,222,149
India,Rajasthan,Jaisalmer,"Sadar Bazar, Jaisalmer - RSPCB",30-11-2025 08:00:00,26.912329,70.909168,PM2.5,62,280,114
India,Rajasthan,Jaisalmer,"Sadar Bazar, Jaisalmer - RSPCB",30-11-2025 08:00:00,26.912329,70.909168,SO2,5,16,9
India,Rajasthan,Kota,"Nayapura, Kota - RSPCB",30-11-2025 08:00:00,25.196024,75.855668,SO2,1,8,4
India,TamilNadu,Chennai,"Velachery Res. Area, Chennai - CPCB",30-11-2025 08:00:00,13.0052189,80.2398125,NH3,3,4,3
India,TamilNadu,Chennai,"Velachery Res. Area, Chennai - CPCB",30-11-2025 08:00:00,13.0052189,80.2398125,OZONE,3,7,4
India,TamilNadu,Coimbatore,"PSG College of Arts and Science, Coimbatore - TNPCB",30-11-2025 08:00:00,11.0328,77.0349,OZONE,3,6,5
India,TamilNadu,Coimbatore,"SIDCO Kurichi, Coimbatore - TNPCB",30-11-2025 08:00:00,10.942451,76.978996,PM10,NA,NA,NA
India,TamilNadu,Coimbatore,"SIDCO Kurichi, Coimbatore - TNPCB",30-11-2025 08:00:00,10.942451,76.978996,NO2,12,28,20
India,TamilNadu,Coimbatore,"SIDCO Kurichi, Coimbatore - TNPCB",30-11-2025 08:00:00,10.942451,76.978996,NH3,1,1,1
India,TamilNadu,Cuddalore,"Kudikadu, Cuddalore - TNPCB",30-11-2025 08:00:00,11.6829898,79.7532099,PM2.5,5,56,18
India,TamilNadu,Cuddalore,"Kudikadu, Cuddalore - TNPCB",30-11-2025 08:00:00,11.6829898,79.7532099,NO2,19,19,19
India,TamilNadu,Salem,"Sona College of Technology, Salem - TNPCB",30-11-2025 08:00:00,11.679111,78.125052,CO,12,13,13
India,TamilNadu,Salem,"Sona College of Technology, Salem - TNPCB",30-11-2025 08:00:00,11.679111,78.125052,OZONE,5,5,5
India,TamilNadu,Thanjavur,"Parisutham Nagar, Thanjavur - TNPCB",30-11-2025 08:00:00,10.7654824,79.1389968,NO2,NA,NA,NA
India,TamilNadu,Thanjavur,"Parisutham Nagar, Thanjavur - TNPCB",30-11-2025 08:00:00,10.7654824,79.1389968,SO2,NA,NA,NA
India,TamilNadu,Thoothukudi,"Meelavittan, Thoothukudi - TNPCB",30-11-2025 08:00:00,8.816428 ,78.099039,CO,6,48,17
India,TamilNadu,Thoothukudi,"Meelavittan, Thoothukudi - TNPCB",30-11-2025 08:00:00,8.816428 ,78.099039,OZONE,26,34,31
India,TamilNadu,Tiruchirappalli,"St Joseph College, Tiruchirappalli - TNPCB",30-11-2025 08:00:00,10.830158,78.691849,PM10,NA,NA,NA
India,Telangana,Hyderabad,"ICRISAT Patancheru, Hyderabad - TSPCB",30-11-2025 08:00:00,17.518400,78.278777,OZONE,3,77,13
India,Telangana,Hyderabad,"IDA Pashamylaram, Hyderabad - TSPCB",30-11-2025 08:00:00,17.5316895,78.218939,NH3,NA,NA,NA
India,Telangana,Hyderabad,"IDA Pashamylaram, Hyderabad - TSPCB",30-11-2025 08:00:00,17.5316895,78.218939,CO,NA,NA,NA
India,Telangana,Hyderabad,"IDA Pashamylaram, Hyderabad - TSPCB",30-11-2025 08:00:00,17.5316895,78.218939,OZONE,NA,NA,NA
India,Telangana,Hyderabad,"IITH Kandi, Hyderabad - TSPCB",30-11-2025 08:00:00,17.585705,78.126199,NO2,NA,NA,NA
India,Telangana,Hyderabad,"Kokapet, Hyderabad - TSPCB",30-11-2025 08:00:00,17.393559,78.339194,PM10,62,137,91
India,Telangana,Hyderabad,"Bollaram Industrial Area, Hyderabad - TSPCB",30-11-2025 08:00:00,17.540891,78.358528,CO,18,40,27
India,Telangana,Hyderabad,"Central University, Hyderabad - TSPCB",30-11-2025 08:00:00,17.460103,78.334361,NO2,38,263,78
India,Telangana,Hyderabad,"Central University, Hyderabad - TSPCB",30-11-2025 08:00:00,17.460103,78.334361,SO2,9,70,21
India,Telangana,Hyderabad,"ICRISAT Patancheru, Hyderabad - TSPCB",30-11-2025 08:00:00,17.518400,78.278777,NH3,2,5,4
India,Telangana,Hyderabad,"Nacharam_TSIIC IALA, Hyderabad - TSPCB",30-11-2025 08:00:00,17.429398,78.569354,PM2.5,54,86,68
India,Telangana,Hyderabad,"Nacharam_TSIIC IALA, Hyderabad - TSPCB",30-11-2025 08:00:00,17.429398,78.569354,PM10,74,101,83
India,Telangana,Hyderabad,"Nacharam_TSIIC IALA, Hyderabad - TSPCB",30-11-2025 08:00:00,17.429398,78.569354,CO,NA,NA,NA
India,Telangana,Hyderabad,"Nacharam_TSIIC IALA, Hyderabad - TSPCB",30-11-2025 08:00:00,17.429398,78.569354,OZONE,15,36,16
India,Telangana,Hyderabad,"New Malakpet, Hyderabad - TSPCB",30-11-2025 08:00:00,17.37206,78.50864,PM2.5,35,230,86
India,TamilNadu,Dindigul,"Mendonsa Colony, Dindigul - TNPCB",30-11-2025 08:00:00,10.358535,77.984321,PM10,21,56,36
India,TamilNadu,Dindigul,"Mendonsa Colony, Dindigul - TNPCB",30-11-2025 08:00:00,10.358535,77.984321,CO,19,30,26
India,TamilNadu,Gummidipoondi,"Anthoni Pillai Nagar, Gummidipoondi - TNPCB",30-11-2025 08:00:00,13.4127,80.1081,NO2,1,5,3
India,TamilNadu,Ooty,"Bombay Castel, Ooty - TNPCB",30-11-2025 08:00:00,11.4068288,76.7138973,PM2.5,4,123,36
India,TamilNadu,Ooty,"Bombay Castel, Ooty - TNPCB",30-11-2025 08:00:00,11.4068288,76.7138973,NO2,2,4,3
India,TamilNadu,Ooty,"Bombay Castel, Ooty - TNPCB",30-11-2025 08:00:00,11.4068288,76.7138973,OZONE,4,6,5
India,TamilNadu,Tirunelveli,"Municipal Corporation Office, Tirunelveli - TNPCB",30-11-2025 08:00:00,8.728442,77.6962,NH3,4,8,6
India,TamilNadu,Tirunelveli,"Municipal Corporation Office, Tirunelveli - TNPCB",30-11-2025 08:00:00,8.728442,77.6962,OZONE,6,7,6
India,TamilNadu,Madurai,"Uchapatti, Madurai - TNPCB",30-11-2025 08:00:00,9.865935,78.022669,CO,10,16,12
India,Uttar_Pradesh,Agra,"Sanjay Palace, Agra - UPPCB",30-11-2025 08:00:00,27.19865833,78.00598056,SO2,16,18,17
India,Uttar_Pradesh,Agra,"Sanjay Palace, Agra - UPPCB",30-11-2025 08:00:00,27.19865833,78.00598056,OZONE,7,147,22
India,Uttar_Pradesh,Agra,"Sector-3B Avas Vikas Colony, Agra - UPPCB",30-11-2025 08:00:00,27.19412,77.96237,NO2,32,34,33
India,Uttar_Pradesh,Agra,"Sector-3B Avas Vikas Colony, Agra - UPPCB",30-11-2025 08:00:00,27.19412,77.96237,SO2,8,9,9
India,Uttar_Pradesh,Agra,"Shastripuram, Agra - UPPCB",30-11-2025 08:00:00,27.19862,77.92066,NO2,52,54,53
India,Uttar_Pradesh,Baghpat,"Sardar Patel Inter College, Baghpat - UPPCB",30-11-2025 08:00:00,28.964949,77.278761,PM2.5,100,322,231
India,Uttar_Pradesh,Baghpat,"Sardar Patel Inter College, Baghpat - UPPCB",30-11-2025 08:00:00,28.964949,77.278761,NO2,59,94,74
India,Uttar_Pradesh,Firozabad,"Nagla Bhau, Firozabad - UPPCB",30-11-2025 08:00:00,27.168897,78.376960,PM2.5,33,86,56
India,Uttar_Pradesh,Firozabad,"Vibhab Nagar, Firozabad - UPPCB",30-11-2025 08:00:00,27.1594,78.3953,NH3,2,2,2
India,Uttar_Pradesh,Firozabad,"Vibhab Nagar, Firozabad - UPPCB",30-11-2025 08:00:00,27.1594,78.3953,CO,14,20,18
India,Uttar_Pradesh,Ghaziabad,"Indirapuram, Ghaziabad - UPPCB",30-11-2025 08:00:00,28.646233,77.358075,CO,16,116,49
India,Uttar_Pradesh,Ghaziabad,"Indirapuram, Ghaziabad - UPPCB",30-11-2025 08:00:00,28.646233,77.358075,OZONE,15,105,24
India,Uttar_Pradesh,Ghaziabad,"Loni, Ghaziabad - UPPCB",30-11-2025 08:00:00,28.757294,77.278792,PM10,155,431,264
India,Uttar_Pradesh,Jhansi,"Shivaji Nagar, Jhansi - UPPCB",30-11-2025 08:00:00,25.4547,78.6039,OZONE,1,8,1
India,Uttar_Pradesh,Kanpur,"FTI Kidwai Nagar, Kanpur - UPPCB",30-11-2025 08:00:00,26.428282,80.327067,PM10,49,186,97
India,Uttar_Pradesh,Kanpur,"FTI Kidwai Nagar, Kanpur - UPPCB",30-11-2025 08:00:00,26.428282,80.327067,NH3,2,2,2
India,Uttar_Pradesh,Kanpur,"FTI Kidwai Nagar, Kanpur - UPPCB",30-11-2025 08:00:00,26.428282,80.327067,SO2,10,19,15
India,Uttar_Pradesh,Kanpur,"NSI Kalyanpur, Kanpur - UPPCB",30-11-2025 08:00:00,26.509954,80.249612,NO2,22,22,22
India,Uttar_Pradesh,Kanpur,"Nehru Nagar, Kanpur - UPPCB",30-11-2025 08:00:00,26.4703136,80.3229863,PM10,26,132,73
India,Uttar_Pradesh,Bareilly,"Civil Lines, Bareilly - UPPCB",30-11-2025 08:00:00,28.359581,79.414455,NO2,2,3,2
India,Uttar_Pradesh,Bareilly,"Civil Lines, Bareilly - UPPCB",30-11-2025 08:00:00,28.359581,79.414455,CO,48,86,53
India,Uttar_Pradesh,Bareilly,"Rajendra Nagar, Bareilly - UPPCB",30-11-2025 08:00:00,28.38910936,79.42963708,SO2,34,34,34
India,Uttar_Pradesh,Bareilly,"Rajendra Nagar, Bareilly - UPPCB",30-11-2025 08:00:00,28.38910936,79.42963708,CO,4,18,11
India,Uttar_Pradesh,Bulandshahr,"Yamunapuram, Bulandshahr - UPPCB",30-11-2025 08:00:00,28.406963,77.849831,NO2,20,162,99
India,Uttar_Pradesh,Bulandshahr,"Yamunapuram, Bulandshahr - UPPCB",30-11-2025 08:00:00,28.406963,77.849831,CO,34,106,104
India,Uttar_Pradesh,Greater Noida,"Knowledge Park - III, Greater Noida - UPPCB",30-11-2025 08:00:00,28.47272,77.482000,CO,29,149,85
India,Uttar_Pradesh,Greater Noida,"Knowledge Park - V, Greater Noida - UPPCB",30-11-2025 08:00:00,28.557054,77.453663,PM10,164,492,270
India,Uttar_Pradesh,Greater Noida,"Knowledge Park - V, Greater Noida - UPPCB",30-11-2025 08:00:00,28.557054,77.453663,OZONE,3,126,6
India,Uttar_Pradesh,Hapur,"Anand Vihar, Hapur - UPPCB",30-11-2025 08:00:00,28.725645,77.749675,PM10,104,238,172
India,Uttar_Pradesh,Hapur,"Anand Vihar, Hapur - UPPCB",30-11-2025 08:00:00,28.725645,77.749675,OZONE,7,40,9
India,Uttar_Pradesh,Khurja,"Kalindi Kunj, Khurja - UPPCB",30-11-2025 08:00:00,28.2348927,77.8683002,NO2,6,7,7
India,Uttar_Pradesh,Khurja,"Kalindi Kunj, Khurja - UPPCB",30-11-2025 08:00:00,28.2348927,77.8683002,SO2,14,15,14
India,Uttar_Pradesh,Lucknow,"B R Ambedkar University, Lucknow - UPPCB",30-11-2025 08:00:00,26.766433,80.927299,SO2,24,24,24
India,Uttar_Pradesh,Lucknow,"B R Ambedkar University, Lucknow - UPPCB",30-11-2025 08:00:00,26.766433,80.927299,OZONE,27,27,27
India,Uttar_Pradesh,Lucknow,"Kendriya Vidyalaya, Lucknow - CPCB",30-11-2025 08:00:00,26.906111,80.948222,PM10,53,120,96
India,Telangana,Hyderabad,"Zoo Park, Hyderabad - TSPCB",30-11-2025 08:00:00,17.349694,78.451437,NO2,17,36,27
India,Tripura,Agartala,"Bardowali, Agartala - Tripura SPCB",30-11-2025 08:00:00,23.8175497,91.2726974,NH3,2,3,3
India,Tripura,Agartala,"Bardowali, Agartala - Tripura SPCB",30-11-2025 08:00:00,23.8175497,91.2726974,SO2,28,29,28
India,Uttar_Pradesh,Agra,"Rohta, Agra - UPPCB",30-11-2025 08:00:00,27.106972,78.000111,PM2.5,48,296,99
India,Uttar_Pradesh,Ghaziabad,"Sanjay Nagar, Ghaziabad - UPPCB",30-11-2025 08:00:00,28.685382,77.453839,SO2,14,23,17
India,Uttar_Pradesh,Ghaziabad,"Sanjay Nagar, Ghaziabad - UPPCB",30-11-2025 08:00:00,28.685382,77.453839,OZONE,9,66,22
India,Uttar_Pradesh,Ghaziabad,"Vasundhara, Ghaziabad - UPPCB",30-11-2025 08:00:00,28.6603346,77.3572563,NO2,76,206,138
India,Uttar_Pradesh,Greater Noida,"Knowledge Park - III, Greater Noida - UPPCB",30-11-2025 08:00:00,28.47272,77.482000,PM10,145,429,231
India,Telangana,Hyderabad,"Ramachandrapuram, Hyderabad - TSPCB",30-11-2025 08:00:00,17.528544,78.286195,NO2,10,13,11
India,Telangana,Hyderabad,"Somajiguda, Hyderabad - TSPCB",30-11-2025 08:00:00,17.417094,78.457437,NO2,17,19,18
India,Telangana,Hyderabad,"Somajiguda, Hyderabad - TSPCB",30-11-2025 08:00:00,17.417094,78.457437,NH3,4,5,4
India,Telangana,Hyderabad,"Somajiguda, Hyderabad - TSPCB",30-11-2025 08:00:00,17.417094,78.457437,CO,22,53,26
India,Uttar_Pradesh,Lucknow,"Kendriya Vidyalaya, Lucknow - CPCB",30-11-2025 08:00:00,26.906111,80.948222,SO2,6,13,8
India,Uttar_Pradesh,Lucknow,"Kendriya Vidyalaya, Lucknow - CPCB",30-11-2025 08:00:00,26.906111,80.948222,CO,26,75,50
India,Uttar_Pradesh,Lucknow,"Kukrail Picnic Spot-1, Lucknow - UPPCB",30-11-2025 08:00:00,26.90723,80.98579,PM10,45,114,83
India,Uttar_Pradesh,Lucknow,"Kukrail Picnic Spot-1, Lucknow - UPPCB",30-11-2025 08:00:00,26.90723,80.98579,NH3,5,5,5
India,Uttar_Pradesh,Lucknow,"Lalbagh, Lucknow - CPCB",30-11-2025 08:00:00,26.8458805,80.9365541,NO2,24,29,25
India,Uttar_Pradesh,Lucknow,"Talkatora District Industries Center, Lucknow - CPCB",30-11-2025 08:00:00,26.83399722,80.8917361,PM2.5,64,235,148
India,Uttar_Pradesh,Lucknow,"Talkatora District Industries Center, Lucknow - CPCB",30-11-2025 08:00:00,26.83399722,80.8917361,NH3,7,16,11
India,Uttarakhand,Kashipur,"Govt. Girls Inter College, Kashipur - UKPCB",30-11-2025 08:00:00,29.2124114,78.9611753,CO,33,39,36
India,Uttarakhand,Rishikesh,"Shivaji Nagar, Rishikesh - UKPCB",30-11-2025 08:00:00,30.075911,78.2859547,OZONE,5,5,5
India,West_Bengal,Asansol,"Asansol Court Area, Asansol - WBPCB",30-11-2025 08:00:00,23.685297,86.945968,PM2.5,97,317,222
India,West_Bengal,Asansol,"Asansol Court Area, Asansol - WBPCB",30-11-2025 08:00:00,23.685297,86.945968,PM10,85,167,127
India,West_Bengal,Asansol,"Asansol Court Area, Asansol - WBPCB",30-11-2025 08:00:00,23.685297,86.945968,CO,31,100,64
India,West_Bengal,Asansol,"Evelyn Lodge, Asansol - WBPCB",30-11-2025 08:00:00,23.6979360,86.9443950,PM2.5,71,293,179
India,Uttar_Pradesh,Prayagraj,"Motilal Nehru NIT, Prayagraj - UPPCB",30-11-2025 08:00:00,25.494,81.863,NO2,12,12,12
India,Uttar_Pradesh,Prayagraj,"Motilal Nehru NIT, Prayagraj - UPPCB",30-11-2025 08:00:00,25.494,81.863,NH3,8,8,8
India,Uttar_Pradesh,Prayagraj,"Motilal Nehru NIT, Prayagraj - UPPCB",30-11-2025 08:00:00,25.494,81.863,CO,20,58,39
India,Uttar_Pradesh,Varanasi,"Ardhali Bazar, Varanasi - UPPCB",30-11-2025 08:00:00,25.3505986,82.9083074,CO,4,36,13
India,Uttar_Pradesh,Varanasi,"Bhelupur, Varanasi - UPPCB",30-11-2025 08:00:00,25.301778,82.996789,PM2.5,49,148,77
India,Uttar_Pradesh,Varanasi,"Bhelupur, Varanasi - UPPCB",30-11-2025 08:00:00,25.301778,82.996789,NO2,8,8,8
India,Uttar_Pradesh,Varanasi,"IESD Banaras Hindu University, Varanasi - UPPCB",30-11-2025 08:00:00,25.262326,82.995408,PM2.5,49,123,81
India,Uttar_Pradesh,Moradabad,"Kashiram Nagar, Moradabad - UPPCB",30-11-2025 08:00:00,28.849399,78.742362,OZONE,23,58,26
India,Uttar_Pradesh,Moradabad,"Transport Nagar, Moradabad - UPPCB",30-11-2025 08:00:00,28.802625,78.753728,PM2.5,20,81,48
India,Uttar_Pradesh,Muzaffarnagar,"New Mandi, Muzaffarnagar - UPPCB",30-11-2025 08:00:00,29.4723508,77.7194031,PM10,101,225,134
India,Uttar_Pradesh,Noida,"Sector - 125, Noida - UPPCB",30-11-2025 08:00:00,28.5447608,77.3231257,PM2.5,152,360,299
India,Uttar_Pradesh,Varanasi,"Maldahiya, Varanasi - UPPCB",30-11-2025 08:00:00,25.32393,82.99687,PM2.5,40,149,78
India,Uttar_Pradesh,Vrindavan,"Omex Eternity, Vrindavan - UPPCB",30-11-2025 08:00:00,27.5714090,77.6557570,NO2,12,12,12
India,Uttar_Pradesh,Vrindavan,"Omex Eternity, Vrindavan - UPPCB",30-11-2025 08:00:00,27.5714090,77.6557570,OZONE,15,16,16
India,Uttarakhand,Kashipur,"Govt. Girls Inter College, Kashipur - UKPCB",30-11-2025 08:00:00,29.2124114,78.9611753,PM2.5,NA,NA,NA
India,Uttar_Pradesh,Meerut,"Pallavpuram Phase 2, Meerut - UPPCB",30-11-2025 08:00:00,29.063510,77.709723,SO2,13,32,21
India,Uttar_Pradesh,Meerut,"Pallavpuram Phase 2, Meerut - UPPCB",30-11-2025 08:00:00,29.063510,77.709723,CO,10,105,50
India,Uttar_Pradesh,Meerut,"Pallavpuram Phase 2, Meerut - UPPCB",30-11-2025 08:00:00,29.063510,77.709723,OZONE,14,112,29
India,Uttar_Pradesh,Moradabad,"Buddhi Vihar, Moradabad - UPPCB",30-11-2025 08:00:00,28.83526,78.74460,PM10,49,119,88
India,Uttar_Pradesh,Moradabad,"Buddhi Vihar, Moradabad - UPPCB",30-11-2025 08:00:00,28.83526,78.74460,SO2,77,82,78
India,West_Bengal,Asansol,"Trivenidevi Bhalotia College, Asansol - WBPCB",30-11-2025 08:00:00,23.616515,87.119133,NO2,14,58,34
India,West_Bengal,Asansol,"Trivenidevi Bhalotia College, Asansol - WBPCB",30-11-2025 08:00:00,23.616515,87.119133,NH3,5,8,6
India,West_Bengal,Barrackpore,"SVSPA Campus, Barrackpore - WBPCB",30-11-2025 08:00:00,22.7605581,88.3617589,OZONE,4,38,4
India,Uttar_Pradesh,Moradabad,"Eco Herbal Park, Moradabad - UPPCB",30-11-2025 08:00:00,28.840739,78.697531,PM10,100,209,149
India,Uttar_Pradesh,Moradabad,"Jigar Colony, Moradabad - UPPCB",30-11-2025 08:00:00,28.856664,78.772638,CO,40,40,40
India,Uttar_Pradesh,Moradabad,"Jigar Colony, Moradabad - UPPCB",30-11-2025 08:00:00,28.856664,78.772638,OZONE,18,22,19
India,Uttar_Pradesh,Noida,"Sector - 62, Noida - IMD",30-11-2025 08:00:00,28.6245479,77.3577104,OZONE,12,107,13
India,Uttar_Pradesh,Noida,"Sector-1, Noida - UPPCB",30-11-2025 08:00:00,28.5898,77.3101,PM2.5,142,363,278
India,West_Bengal,Durgapur,"PCBL Residential Complex, Durgapur - WBPCB",30-11-2025 08:00:00,23.5087640,87.3544400,NH3,10,14,12
India,West_Bengal,Durgapur,"PCBL Residential Complex, Durgapur - WBPCB",30-11-2025 08:00:00,23.5087640,87.3544400,CO,36,86,73
India,West_Bengal,Durgapur,"Womens College_City Center, Durgapur - WBPCB (Formerly known as Sidhu Kanhu Indoor Stadium)",30-11-2025 08:00:00,23.549395,87.300496,OZONE,9,67,10
India,West_Bengal,Haldia,"Priyambada Housing Estate, Haldia - WBPCB",30-11-2025 08:00:00,22.06047,88.109737,CO,24,62,51
India,West_Bengal,Howrah,"Belur Math, Howrah - WBPCB",30-11-2025 08:00:00,22.629801,88.352017,OZONE,9,39,10
India,West_Bengal,Howrah,"Botanical Garden, Howrah - WBPCB",30-11-2025 08:00:00,22.554954,88.292568,OZONE,6,43,7
India,West_Bengal,Howrah,"Dasnagar, Howrah - WBPCB",30-11-2025 08:00:00,22.6025571,88.3105664,SO2,5,59,17
India,West_Bengal,Howrah,"Padmapukur, Howrah - WBPCB",30-11-2025 08:00:00,22.5687319,88.2797276,PM10,NA,NA,NA
India,West_Bengal,Kolkata,"Ballygunge, Kolkata - WBPCB",30-11-2025 08:00:00,22.5367507,88.3638022,NH3,7,13,9
India,West_Bengal,Kolkata,"Ballygunge, Kolkata - WBPCB",30-11-2025 08:00:00,22.5367507,88.3638022,OZONE,6,24,7
India,West_Bengal,Kolkata,"Bidhannagar, Kolkata - WBPCB",30-11-2025 08:00:00,22.58157048,88.41002457,NO2,1,29,19
India,West_Bengal,Kolkata,"Fort William, Kolkata - WBPCB",30-11-2025 08:00:00,22.556640,88.342674,PM10,99,224,159
India,West_Bengal,Kolkata,"Fort William, Kolkata - WBPCB",30-11-2025 08:00:00,22.556640,88.342674,NH3,9,11,10
India,West_Bengal,Kolkata,"Jadavpur, Kolkata - WBPCB",30-11-2025 08:00:00,22.49929,88.36917,NO2,35,105,70
India,West_Bengal,Kolkata,"Jadavpur, Kolkata - WBPCB",30-11-2025 08:00:00,22.49929,88.36917,SO2,5,7,6
India,West_Bengal,Kolkata,"Rabindra Bharati University, Kolkata - WBPCB",30-11-2025 08:00:00,22.627847,88.380669,PM2.5,50,246,124
India,West_Bengal,Kolkata,"Rabindra Bharati University, Kolkata - WBPCB",30-11-2025 08:00:00,22.627847,88.380669,CO,28,111,67
India,West_Bengal,Kolkata,"Rabindra Bharati University, Kolkata - WBPCB",30-11-2025 08:00:00,22.627847,88.380669,OZONE,13,105,15
India,West_Bengal,Kolkata,"Rabindra Sarobar, Kolkata - WBPCB",30-11-2025 08:00:00,22.51106,88.35142,PM10,100,160,127
India,West_Bengal,Kolkata,"Rabindra Sarobar, Kolkata - WBPCB",30-11-2025 08:00:00,22.51106,88.35142,OZONE,2,82,2
India,West_Bengal,Siliguri,"Ward-32 Bapupara, Siliguri - WBPCB",30-11-2025 08:00:00,26.6879226,88.4152495,SO2,12,42,20
India,West_Bengal,Siliguri,"Ward-32 Bapupara, Siliguri - WBPCB",30-11-2025 08:00:00,26.6879226,88.4152495,CO,19,105,55
India,West_Bengal,Siliguri,"Ward-32 Bapupara, Siliguri - WBPCB",30-11-2025 08:00:00,26.6879226,88.4152495,OZONE,10,103,12
India,Bihar,Bettiah,"Kamalnath Nagar, Bettiah - BSPCB",30-11-2025 08:00:00,26.80365,84.51954,PM10,41,143,98
India,Bihar,Bettiah,"Kamalnath Nagar, Bettiah - BSPCB",30-11-2025 08:00:00,26.80365,84.51954,SO2,NA,NA,NA
India,Bihar,Bhagalpur,"DM Office_Kachari Chowk, Bhagalpur - BSPCB",30-11-2025 08:00:00,25.251013,86.989001,PM10,93,135,116
India,Bihar,Bhagalpur,"Mayaganj, Bhagalpur - BSPCB",30-11-2025 08:00:00,25.265194,87.012947,PM2.5,50,103,78
India,Bihar,Bhagalpur,"Mayaganj, Bhagalpur - BSPCB",30-11-2025 08:00:00,25.265194,87.012947,NH3,3,18,11
India,Bihar,Bhagalpur,"Mayaganj, Bhagalpur - BSPCB",30-11-2025 08:00:00,25.265194,87.012947,SO2,19,87,51
India,Bihar,Bihar Sharif,"D M Colony, Bihar Sharif - BSPCB",30-11-2025 08:00:00,25.204762,85.514960,NO2,9,10,9
India,Bihar,Buxar,"Charitra Van, Buxar - BSPCB",30-11-2025 08:00:00,25.567520,83.966379,PM2.5,67,153,121
India,Assam,Sivasagar,"Girls College, Sivasagar - PCBA",30-11-2025 08:00:00,26.987634,94.636574,CO,14,58,47
India,Bihar,Araria,"Kharahiya Basti, Araria - BSPCB",30-11-2025 08:00:00,26.146529,87.454184,CO,30,46,36
India,Bihar,Arrah,"New DM Office, Arrah - BSPCB",30-11-2025 08:00:00,25.5626095,84.663264,SO2,9,10,10
India,Bihar,Aurangabad,"Gurdeo Nagar, Aurangabad - BSPCB",30-11-2025 08:00:00,24.75746,84.366208,CO,NA,NA,NA
India,Bihar,Begusarai,"Lohiyanagar, Begusarai - BSPCB",30-11-2025 08:00:00,25.42742023,86.13886079,SO2,4,19,6
India,Bihar,Begusarai,"Lohiyanagar, Begusarai - BSPCB",30-11-2025 08:00:00,25.42742023,86.13886079,OZONE,7,29,8
India,Assam,Nagaon,"Christianpatty, Nagaon - PCBA",30-11-2025 08:00:00,26.349082,92.68449,PM2.5,62,62,62
India,Assam,Nagaon,"Christianpatty, Nagaon - PCBA",30-11-2025 08:00:00,26.349082,92.68449,PM10,57,58,57
India,Assam,Nagaon,"Christianpatty, Nagaon - PCBA",30-11-2025 08:00:00,26.349082,92.68449,OZONE,8,9,9
India,Assam,Nalbari,"Bata Chowk, Nalbari - PCBA",30-11-2025 08:00:00,26.446912,91.439057,NO2,14,15,14
India,Assam,Silchar,"Tarapur, Silchar - PCBA",30-11-2025 08:00:00,24.82827,92.79525,SO2,5,8,7
India,Assam,Silchar,"Tarapur, Silchar - PCBA",30-11-2025 08:00:00,24.82827,92.79525,CO,19,52,31
India,Assam,Sivasagar,"Girls College, Sivasagar - PCBA",30-11-2025 08:00:00,26.987634,94.636574,NO2,22,41,28
India,Bihar,Hajipur,"Industrial Area, Hajipur - BSPCB",30-11-2025 08:00:00,25.697189,85.245900,NH3,3,10,8
India,Bihar,Katihar,"Mirchaibari, Katihar - BSPCB",30-11-2025 08:00:00,25.560083,87.553265,NH3,1,1,1
India,Bihar,Katihar,"Mirchaibari, Katihar - BSPCB",30-11-2025 08:00:00,25.560083,87.553265,CO,37,84,59
India,Bihar,Kishanganj,"SDM Office_Khagra, Kishanganj - BSPCB",30-11-2025 08:00:00,26.0881305,87.93840336,NH3,2,3,3
India,Bihar,Manguraha,"Forest Rest House, Manguraha - BSPCB",30-11-2025 08:00:00,27.308328,84.531742,PM2.5,25,173,50
India,Bihar,Manguraha,"Forest Rest House, Manguraha - BSPCB",30-11-2025 08:00:00,27.308328,84.531742,PM10,27,157,58
India,Andhra_Pradesh,Amaravati,"Secretariat, Amaravati - APPCB",30-11-2025 08:00:00,16.5150833,80.5181667,SO2,2,11,6
India,Andhra_Pradesh,Anantapur,"Gulzarpet, Anantapur - APPCB",30-11-2025 08:00:00,14.675886,77.593027,PM10,25,113,86
India,Andhra_Pradesh,Anantapur,"Gulzarpet, Anantapur - APPCB",30-11-2025 08:00:00,14.675886,77.593027,NO2,20,26,21
India,Andhra_Pradesh,Anantapur,"Gulzarpet, Anantapur - APPCB",30-11-2025 08:00:00,14.675886,77.593027,NH3,4,5,5
India,Andhra_Pradesh,Anantapur,"Gulzarpet, Anantapur - APPCB",30-11-2025 08:00:00,14.675886,77.593027,CO,26,46,35
India,Andhra_Pradesh,Chittoor,"Gangineni Cheruvu, Chittoor - APPCB",30-11-2025 08:00:00,13.204880,79.097889,PM2.5,44,189,92
India,Andhra_Pradesh,Chittoor,"Gangineni Cheruvu, Chittoor - APPCB",30-11-2025 08:00:00,13.204880,79.097889,NO2,21,26,24
India,Andhra_Pradesh,Rajamahendravaram,"Anand Kala Kshetram, Rajamahendravaram - APPCB",30-11-2025 08:00:00,16.9872867,81.7363176,PM10,24,97,69
India,Bihar,Chhapra,"Darshan Nagar, Chhapra - BSPCB",30-11-2025 08:00:00,25.7808257,84.7446768,NH3,NA,NA,NA
India,Bihar,Gaya,"Kareemganj, Gaya - BSPCB",30-11-2025 08:00:00,24.792403,84.992416,PM2.5,60,140,99
India,Bihar,Gaya,"SFTI Kusdihra, Gaya - BSPCB",30-11-2025 08:00:00,24.762518,84.982348,NH3,3,3,3
India,Andhra_Pradesh,Vijayawada,"Rajiv Gandhi Park, Vijayawada - APPCB",30-11-2025 08:00:00,16.509717,80.612222,NH3,6,9,8
India,Andhra_Pradesh,Visakhapatnam,"GVM Corporation, Visakhapatnam - APPCB",30-11-2025 08:00:00,17.72,83.3,OZONE,6,47,27
India,Andhra_Pradesh,Tirupati,"Vaikuntapuram, Tirupati - APPCB",30-11-2025 08:00:00,13.615387,79.409230,NH3,NA,NA,NA
India,Andhra_Pradesh,Vijayawada,"HB Colony, Vijayawada - APPCB",30-11-2025 08:00:00,16.536107,80.594233,SO2,23,23,23
India,Assam,Guwahati,"IITG, Guwahati - PCBA",30-11-2025 08:00:00,26.2028636,91.70046436,NH3,5,5,5
India,Chhattisgarh,Raipur,"Bhatagaon New ISBT, Raipur - CECB",30-11-2025 08:00:00,21.219665,81.630094,PM2.5,31,86,60
India,Chhattisgarh,Raipur,"Bhatagaon New ISBT, Raipur - CECB",30-11-2025 08:00:00,21.219665,81.630094,PM10,33,119,82
India,Chhattisgarh,Raipur,"Bhatagaon New ISBT, Raipur - CECB",30-11-2025 08:00:00,21.219665,81.630094,NH3,2,2,2
India,Chhattisgarh,Raipur,"Krishak Nagar, Raipur - CECB",30-11-2025 08:00:00,21.237755,81.705301,SO2,6,8,7
India,Chhattisgarh,Raipur,"Siltara Phase-II, Raipur - CECB",30-11-2025 08:00:00,21.371751,81.664929,PM2.5,26,118,60
India,Chhattisgarh,Raipur,"Siltara Phase-II, Raipur - CECB",30-11-2025 08:00:00,21.371751,81.664929,CO,34,36,35
India,Chhattisgarh,Tumidih,"OP Jindal Industrial Park, Tumidih - CECB",30-11-2025 08:00:00,22.06631475,83.33820077,OZONE,4,99,6
India,Delhi,Delhi,"Alipur, Delhi - DPCC",30-11-2025 08:00:00,28.815329,77.153010,PM10,115,424,207
India,Bihar,Siwan,"Chitragupta Nagar, Siwan - BSPCB",30-11-2025 08:00:00,26.2271665,84.3570427,PM10,NA,NA,NA
India,Chandigarh,Chandigarh,"Sector 22, Chandigarh - CPCC",30-11-2025 08:00:00,30.735567,76.775714,NO2,NA,NA,NA
India,Chandigarh,Chandigarh,"Sector 22, Chandigarh - CPCC",30-11-2025 08:00:00,30.735567,76.775714,SO2,NA,NA,NA
India,Chandigarh,Chandigarh,"Sector 22, Chandigarh - CPCC",30-11-2025 08:00:00,30.735567,76.775714,OZONE,5,91,17
India,Chandigarh,Chandigarh,"Sector-25, Chandigarh - CPCC",30-11-2025 08:00:00,30.751462,76.762879,PM10,60,128,96
India,Chandigarh,Chandigarh,"Sector-25, Chandigarh - CPCC",30-11-2025 08:00:00,30.751462,76.762879,NO2,13,60,31
India,Chhattisgarh,Bhilai,"32Bungalows, Bhilai - CECB",30-11-2025 08:00:00,21.194815,81.314770,PM2.5,26,50,38
India,Chhattisgarh,Bhilai,"32Bungalows, Bhilai - CECB",30-11-2025 08:00:00,21.194815,81.314770,NH3,1,4,3
India,Bihar,Rajgir,"Dangi Tola, Rajgir - BSPCB",30-11-2025 08:00:00,25.03280,85.41948,PM2.5,43,143,72
India,Bihar,Rajgir,"Dangi Tola, Rajgir - BSPCB",30-11-2025 08:00:00,25.03280,85.41948,NO2,9,10,9
India,Bihar,Rajgir,"Dangi Tola, Rajgir - BSPCB",30-11-2025 08:00:00,25.03280,85.41948,SO2,19,23,21
India,Bihar,Saharsa,"Police Line, Saharsa - BSPCB",30-11-2025 08:00:00,25.892357,86.590325,PM10,63,143,89
India,Bihar,Samastipur,"DM Office_Kasipur, Samastipur - BSPCB",30-11-2025 08:00:00,25.859655,85.77944,NO2,7,10,8
India,Bihar,Samastipur,"DM Office_Kasipur, Samastipur - BSPCB",30-11-2025 08:00:00,25.859655,85.77944,CO,44,63,58
India,Chhattisgarh,Bhilai,"Civic Center, Bhilai - Bhilai Steel Plant",30-11-2025 08:00:00,21.185571,81.343175,OZONE,6,17,12
India,Chhattisgarh,Bilaspur,"Mangala, Bilaspur - NTPC",30-11-2025 08:00:00,22.08815,82.13737,PM10,51,113,81
India,Chhattisgarh,Bilaspur,"Mangala, Bilaspur - NTPC",30-11-2025 08:00:00,22.08815,82.13737,NO2,NA,NA,NA
India,Chhattisgarh,Bilaspur,"Mangala, Bilaspur - NTPC",30-11-2025 08:00:00,22.08815,82.13737,CO,16,80,49
India,Chhattisgarh,Chhal,"Nawapara SECL Colony, Chhal - CECB",30-11-2025 08:00:00,22.118125,83.140608,NO2,8,23,14
India,Bihar,Patna,"Rajbansi Nagar, Patna - BSPCB",30-11-2025 08:00:00,25.599486,85.113666,NO2,9,98,44
India,Bihar,Patna,"Rajbansi Nagar, Patna - BSPCB",30-11-2025 08:00:00,25.599486,85.113666,OZONE,22,28,25
India,Bihar,Patna,"Samanpura, Patna - BSPCB",30-11-2025 08:00:00,25.596727,85.085624,CO,42,105,78
India,Bihar,Patna,"Samanpura, Patna - BSPCB",30-11-2025 08:00:00,25.596727,85.085624,OZONE,50,319,85
India,Bihar,Purnia,"Mariam Nagar, Purnia - BSPCB",30-11-2025 08:00:00,25.366336,87.117468,NH3,3,3,3
India,Bihar,Purnia,"Mariam Nagar, Purnia - BSPCB",30-11-2025 08:00:00,25.366336,87.117468,SO2,16,26,18
India,Chhattisgarh,Korba,"Urja Nagar, Korba - CECB",30-11-2025 08:00:00,22.348441,82.549611,NH3,1,2,2
India,Chhattisgarh,Korba,"Urja Nagar, Korba - CECB",30-11-2025 08:00:00,22.348441,82.549611,CO,22,38,26
India,Chhattisgarh,Milupara,"Govt. Higher Secondary School, Milupara - CECB",30-11-2025 08:00:00,22.1910172,83.5197009,NO2,14,62,29
India,Chhattisgarh,Raipur,"AIIMS, Raipur - CECB",30-11-2025 08:00:00,21.258815,81.578979,NO2,62,78,70
India,Chhattisgarh,Raipur,"AIIMS, Raipur - CECB",30-11-2025 08:00:00,21.258815,81.578979,CO,26,65,54
India,Bihar,Manguraha,"Forest Rest House, Manguraha - BSPCB",30-11-2025 08:00:00,27.308328,84.531742,SO2,10,17,16
India,Bihar,Munger,"Town Hall, Munger - BSPCB",30-11-2025 08:00:00,25.376776,86.471523,PM10,55,319,119
India,Bihar,Munger,"Town Hall, Munger - BSPCB",30-11-2025 08:00:00,25.376776,86.471523,SO2,NA,NA,NA
India,Bihar,Munger,"Town Hall, Munger - BSPCB",30-11-2025 08:00:00,25.376776,86.471523,CO,22,48,35
India,Bihar,Muzaffarpur,"Buddha Colony, Muzaffarpur - BSPCB",30-11-2025 08:00:00,26.11442,85.39813,CO,32,93,55
India,Bihar,Patna,"DRM Office Danapur, Patna - BSPCB",30-11-2025 08:00:00,25.586562,85.043586,PM10,60,130,104
India,Bihar,Patna,"DRM Office Danapur, Patna - BSPCB",30-11-2025 08:00:00,25.586562,85.043586,OZONE,7,47,13
India,Bihar,Patna,"IGSC Planetarium Complex, Patna - BSPCB",30-11-2025 08:00:00,25.610369,85.132568,SO2,1,28,10
India,Bihar,Patna,"IGSC Planetarium Complex, Patna - BSPCB",30-11-2025 08:00:00,25.610369,85.132568,OZONE,25,55,30
India,Delhi,Delhi,"Ashok Vihar, Delhi - DPCC",30-11-2025 08:00:00,28.695381,77.181665,PM2.5,104,351,274
India,Delhi,Delhi,"Ashok Vihar, Delhi - DPCC",30-11-2025 08:00:00,28.695381,77.181665,OZONE,5,104,12
India,Delhi,Delhi,"Aya Nagar, Delhi - IMD",30-11-2025 08:00:00,28.4706914,77.1099364,PM10,115,263,199
India,Delhi,Delhi,"IHBAS, Dilshad Garden, Delhi - CPCB",30-11-2025 08:00:00,28.6811736,77.3025234,OZONE,21,29,26
India,Delhi,Delhi,"ITO, Delhi - CPCB",30-11-2025 08:00:00,28.628624,77.241060,PM10,30,259,176
India,Delhi,Delhi,"ITO, Delhi - CPCB",30-11-2025 08:00:00,28.628624,77.241060,CO,19,129,76
India,Delhi,Delhi,"Jahangirpuri, Delhi - DPCC",30-11-2025 08:00:00,28.732820,77.170633,PM2.5,127,371,324
India,Delhi,Delhi,"Jahangirpuri, Delhi - DPCC",30-11-2025 08:00:00,28.732820,77.170633,PM10,NA,NA,NA
India,Delhi,Delhi,"Jahangirpuri, Delhi - DPCC",30-11-2025 08:00:00,28.732820,77.170633,OZONE,2,110,6
India,Delhi,Delhi,"Jawaharlal Nehru Stadium, Delhi - DPCC",30-11-2025 08:00:00,28.580280,77.233829,PM10,127,401,239
India,Delhi,Delhi,"Jawaharlal Nehru Stadium, Delhi - DPCC",30-11-2025 08:00:00,28.580280,77.233829,CO,25,116,94
India,Delhi,Delhi,"Lodhi Road, Delhi - IMD",30-11-2025 08:00:00,28.5918245,77.2273074,PM2.5,106,337,250
India,Delhi,Delhi,"Major Dhyan Chand National Stadium, Delhi - DPCC",30-11-2025 08:00:00,28.611281,77.237738,PM2.5,65,340,221
India,Delhi,Delhi,"Major Dhyan Chand National Stadium, Delhi - DPCC",30-11-2025 08:00:00,28.611281,77.237738,NH3,10,28,18
India,Delhi,Delhi,"Major Dhyan Chand National Stadium, Delhi - DPCC",30-11-2025 08:00:00,28.611281,77.237738,OZONE,7,89,8
India,Delhi,Delhi,"Mandir Marg, Delhi - DPCC",30-11-2025 08:00:00,28.636429,77.201067,PM10,113,185,158
India,Delhi,Delhi,"Mandir Marg, Delhi - DPCC",30-11-2025 08:00:00,28.636429,77.201067,NO2,54,127,98
India,Delhi,Delhi,"Mandir Marg, Delhi - DPCC",30-11-2025 08:00:00,28.636429,77.201067,CO,60,109,94
India,Delhi,Delhi,"Mundka, Delhi - DPCC",30-11-2025 08:00:00,28.684678,77.076574,PM2.5,75,413,283
India,Delhi,Delhi,"Mundka, Delhi - DPCC",30-11-2025 08:00:00,28.684678,77.076574,NO2,83,150,114
India,Delhi,Delhi,"Mundka, Delhi - DPCC",30-11-2025 08:00:00,28.684678,77.076574,OZONE,2,60,2
India,Delhi,Delhi,"Sri Aurobindo Marg, Delhi - DPCC",30-11-2025 08:00:00,28.531346,77.190156,NO2,20,79,46
India,Delhi,Delhi,"Sri Aurobindo Marg, Delhi - DPCC",30-11-2025 08:00:00,28.531346,77.190156,CO,47,101,78
India,Delhi,Delhi,"Sri Aurobindo Marg, Delhi - DPCC",30-11-2025 08:00:00,28.531346,77.190156,OZONE,1,106,1
India,Delhi,Delhi,"Vivek Vihar, Delhi - DPCC",30-11-2025 08:00:00,28.672342,77.315260,PM10,148,328,204
India,Delhi,Delhi,"Vivek Vihar, Delhi - DPCC",30-11-2025 08:00:00,28.672342,77.315260,CO,4,96,65
India,Delhi,Delhi,"Wazirpur, Delhi - DPCC",30-11-2025 08:00:00,28.699793,77.165453,NO2,43,113,76
India,Gujarat,Ahmedabad,"Chandkheda, Ahmedabad - IITM",30-11-2025 08:00:00,23.107969,72.574648,PM10,107,149,124
India,Delhi,Delhi,"Rohini, Delhi - DPCC",30-11-2025 08:00:00,28.732528,77.119920,OZONE,4,190,6
India,Delhi,Delhi,"Shadipur, Delhi - CPCB",30-11-2025 08:00:00,28.6514781,77.1473105,PM10,145,297,196
India,Delhi,Delhi,"Shadipur, Delhi - CPCB",30-11-2025 08:00:00,28.6514781,77.1473105,NO2,48,109,73
India,Delhi,Delhi,"Shadipur, Delhi - CPCB",30-11-2025 08:00:00,28.6514781,77.1473105,CO,17,104,57
India,Delhi,Delhi,"Sirifort, Delhi - CPCB",30-11-2025 08:00:00,28.5504249,77.2159377,OZONE,12,18,12
India,Delhi,Delhi,"Sonia Vihar, Delhi - DPCC",30-11-2025 08:00:00,28.710508,77.249485,SO2,7,27,14
India,Delhi,Delhi,"Bawana, Delhi - DPCC",30-11-2025 08:00:00,28.776200,77.051074,NH3,6,8,7
India,Delhi,Delhi,"Bawana, Delhi - DPCC",30-11-2025 08:00:00,28.776200,77.051074,OZONE,4,103,8
India,Delhi,Delhi,"CRRI Mathura Road, Delhi - IMD",30-11-2025 08:00:00,28.5512005,77.2735737,PM2.5,82,350,261
India,Delhi,Delhi,"CRRI Mathura Road, Delhi - IMD",30-11-2025 08:00:00,28.5512005,77.2735737,NO2,29,54,40
India,Delhi,Delhi,"Chandni Chowk, Delhi - IITM",30-11-2025 08:00:00,28.656756,77.227234,PM10,158,436,282
India,Delhi,Delhi,"Chandni Chowk, Delhi - IITM",30-11-2025 08:00:00,28.656756,77.227234,NH3,7,17,10
India,Delhi,Delhi,"North Campus, DU, Delhi - IMD",30-11-2025 08:00:00,28.6573814,77.1585447,NO2,19,140,85
India,Delhi,Delhi,"North Campus, DU, Delhi - IMD",30-11-2025 08:00:00,28.6573814,77.1585447,OZONE,16,311,20
India,Delhi,Delhi,"Okhla Phase-2, Delhi - DPCC",30-11-2025 08:00:00,28.530785,77.271255,SO2,NA,NA,NA
India,Delhi,Delhi,"Patparganj, Delhi - DPCC",30-11-2025 08:00:00,28.623763,77.287209,SO2,4,10,6
India,Delhi,Delhi,"Patparganj, Delhi - DPCC",30-11-2025 08:00:00,28.623763,77.287209,OZONE,2,150,2
India,Delhi,Delhi,"Dr. Karni Singh Shooting Range, Delhi - DPCC",30-11-2025 08:00:00,28.498571,77.264840,PM10,113,309,209
India,Delhi,Delhi,"IGI Airport (T3), Delhi - IMD",30-11-2025 08:00:00,28.5627763,77.1180053,NO2,53,132,98
India,Delhi,Delhi,"IHBAS, Dilshad Garden, Delhi - CPCB",30-11-2025 08:00:00,28.6811736,77.3025234,NO2,52,157,93
India,Delhi,Delhi,"IHBAS, Dilshad Garden, Delhi - CPCB",30-11-2025 08:00:00,28.6811736,77.3025234,SO2,10,20,15
India,Delhi,Delhi,"Pusa, Delhi - DPCC",30-11-2025 08:00:00,28.639652,77.146275,PM10,143,432,236
India,Delhi,Delhi,"Pusa, Delhi - IMD",30-11-2025 08:00:00,28.636110,77.173332,PM10,92,308,187
India,Delhi,Delhi,"Pusa, Delhi - IMD",30-11-2025 08:00:00,28.636110,77.173332,NO2,14,104,62
India,Delhi,Delhi,"R K Puram, Delhi - DPCC",30-11-2025 08:00:00,28.563262,77.186937,PM2.5,98,401,305
India,Delhi,Delhi,"R K Puram, Delhi - DPCC",30-11-2025 08:00:00,28.563262,77.186937,OZONE,2,127,6
India,Delhi,Delhi,"Narela, Delhi - DPCC",30-11-2025 08:00:00,28.822836,77.101981,SO2,5,26,13
India,Delhi,Delhi,"Nehru Nagar, Delhi - DPCC",30-11-2025 08:00:00,28.567890,77.250515,PM2.5,98,489,316
India,Delhi,Delhi,"Nehru Nagar, Delhi - DPCC",30-11-2025 08:00:00,28.567890,77.250515,NH3,11,18,15
India,Haryana,Gurugram,"Vikas Sadan, Gurugram - HSPCB",30-11-2025 08:00:00,28.4501238,77.0263051,SO2,3,8,5
India,Haryana,Gurugram,"Vikas Sadan, Gurugram - HSPCB",30-11-2025 08:00:00,28.4501238,77.0263051,CO,80,125,109
India,Haryana,Hisar,"Urban Estate-II, Hisar - HSPCB",30-11-2025 08:00:00,29.140560,75.744941,PM2.5,42,87,64
India,Haryana,Jind,"Police Lines, Jind - HSPCB",30-11-2025 08:00:00,29.307814,76.337619,PM2.5,97,247,181
India,Haryana,Kaithal,"Rishi Nagar, Kaithal - HSPCB",30-11-2025 08:00:00,29.8006,76.4155,PM2.5,38,83,61
India,Haryana,Kaithal,"Rishi Nagar, Kaithal - HSPCB",30-11-2025 08:00:00,29.8006,76.4155,PM10,56,101,76
India,Haryana,Kaithal,"Rishi Nagar, Kaithal - HSPCB",30-11-2025 08:00:00,29.8006,76.4155,NO2,29,33,31
India,Haryana,Kaithal,"Rishi Nagar, Kaithal - HSPCB",30-11-2025 08:00:00,29.8006,76.4155,SO2,29,34,31
India,Haryana,Kaithal,"Rishi Nagar, Kaithal - HSPCB",30-11-2025 08:00:00,29.8006,76.4155,CO,6,34,14
India,Haryana,Fatehabad,"Huda Sector, Fatehabad - HSPCB",30-11-2025 08:00:00,29.503664,75.467934,NH3,13,15,14
India,Haryana,Gurugram,"NISE Gwal Pahari, Gurugram - IMD",30-11-2025 08:00:00,28.422681,77.148944,PM10,121,227,180
India,Haryana,Gurugram,"NISE Gwal Pahari, Gurugram - IMD",30-11-2025 08:00:00,28.422681,77.148944,CO,2,58,34
India,Haryana,Gurugram,"Sector-51, Gurugram - HSPCB",30-11-2025 08:00:00,28.4227,77.0667,OZONE,7,31,8
India,Haryana,Gurugram,"Teri Gram, Gurugram - HSPCB",30-11-2025 08:00:00,28.4275,77.1465,OZONE,10,43,12
India,Gujarat,Ahmedabad,"SAC ISRO Bopal, Ahmedabad - IITM",30-11-2025 08:00:00,23.041137,72.456691,PM10,90,193,141
India,Gujarat,Ahmedabad,"SAC ISRO Bopal, Ahmedabad - IITM",30-11-2025 08:00:00,23.041137,72.456691,NO2,27,61,41
India,Gujarat,Ahmedabad,"SAC ISRO Satellite, Ahmedabad - IITM",30-11-2025 08:00:00,23.023389,72.515201,NO2,11,72,34
India,Gujarat,Ahmedabad,"SAC ISRO Satellite, Ahmedabad - IITM",30-11-2025 08:00:00,23.023389,72.515201,NH3,9,25,15
India,Gujarat,Ahmedabad,"SVPI Airport Hansol, Ahmedabad - IITM",30-11-2025 08:00:00,23.076793,72.627874,PM10,125,248,160
India,Gujarat,Ahmedabad,"SVPI Airport Hansol, Ahmedabad - IITM",30-11-2025 08:00:00,23.076793,72.627874,SO2,6,16,9
India,Gujarat,Nandesari,"GIDC, Nandesari - Nandesari Ind. Association",30-11-2025 08:00:00,22.410802,73.097923,PM10,111,152,130
India,Gujarat,Nandesari,"GIDC, Nandesari - Nandesari Ind. Association",30-11-2025 08:00:00,22.410802,73.097923,SO2,NA,NA,NA
India,Gujarat,Vapi,"Phase-1 GIDC, Vapi - GPCB",30-11-2025 08:00:00,20.362421,72.918013,PM2.5,27,161,66
India,Gujarat,Vatva,"Phase-4 GIDC, Vatva - GPCB",30-11-2025 08:00:00,22.969611,72.643500,SO2,35,42,38
India,Gujarat,Vatva,"Phase-4 GIDC, Vatva - GPCB",30-11-2025 08:00:00,22.969611,72.643500,CO,9,38,11
India,Haryana,Faridabad,"New Industrial Town, Faridabad - HSPCB",30-11-2025 08:00:00,28.39072,77.30059,PM2.5,NA,NA,NA
India,Haryana,Faridabad,"New Industrial Town, Faridabad - HSPCB",30-11-2025 08:00:00,28.39072,77.30059,NO2,NA,NA,NA
India,Haryana,Faridabad,"New Industrial Town, Faridabad - HSPCB",30-11-2025 08:00:00,28.39072,77.30059,OZONE,NA,NA,NA
India,Haryana,Faridabad,"Sector 30, Faridabad - HSPCB",30-11-2025 08:00:00,28.4417,77.3217,PM2.5,158,185,169
India,Haryana,Fatehabad,"Huda Sector, Fatehabad - HSPCB",30-11-2025 08:00:00,29.503664,75.467934,PM2.5,84,303,183
India,Gujarat,Ankleshwar,"GIDC, Ankleshwar - GPCB",30-11-2025 08:00:00,21.613267,73.010555,NO2,27,28,28
India,Gujarat,Ankleshwar,"GIDC, Ankleshwar - GPCB",30-11-2025 08:00:00,21.613267,73.010555,NH3,8,9,9
India,Gujarat,Ankleshwar,"GIDC, Ankleshwar - GPCB",30-11-2025 08:00:00,21.613267,73.010555,SO2,38,39,39
India,Gujarat,Gandhinagar,"IIPHG Lekawada, Gandhinagar - IITM",30-11-2025 08:00:00,23.243639,72.68994,NH3,2,3,2
India,Gujarat,Gandhinagar,"IIPHG Lekawada, Gandhinagar - IITM",30-11-2025 08:00:00,23.243639,72.68994,CO,4,105,43
India,Haryana,Ambala,"Patti Mehar, Ambala - HSPCB",30-11-2025 08:00:00,30.379589,76.778328,NH3,9,11,10
India,Haryana,Ambala,"Patti Mehar, Ambala - HSPCB",30-11-2025 08:00:00,30.379589,76.778328,OZONE,48,52,51
India,Haryana,Bahadurgarh,"Arya Nagar, Bahadurgarh - HSPCB",30-11-2025 08:00:00,28.6701,76.9254,PM2.5,116,406,322
India,Haryana,Bahadurgarh,"Arya Nagar, Bahadurgarh - HSPCB",30-11-2025 08:00:00,28.6701,76.9254,NH3,12,13,13
India,Haryana,Bhiwani,"H.B. Colony, Bhiwani - HSPCB",30-11-2025 08:00:00,28.806223,76.141105,PM10,117,140,128
India,Haryana,Charkhi Dadri,"Mini Secretariat, Charkhi Dadri - HSPCB",30-11-2025 08:00:00,28.593883,76.270653,NH3,5,8,6
India,Gujarat,Ahmedabad,"Raikhad, Ahmedabad - IITM",30-11-2025 08:00:00,23.020509,72.579261,PM2.5,102,309,229
India,Gujarat,Ahmedabad,"Rakhial, Ahmedabad - IITM",30-11-2025 08:00:00,23.016834,72.625775,NO2,13,139,38
India,Jharkhand,Dhanbad,"Sardar Patel Nagar, Dhanbad - JSPCB",30-11-2025 08:00:00,23.80569,86.44268,OZONE,1,18,5
India,Jharkhand,Jorapokhar,"Tata Stadium, Jorapokhar - JSPCB",30-11-2025 08:00:00,23.707909,86.414670,OZONE,1,3,2
India,Karnataka,Bagalkot,"Vidayagiri, Bagalkot - KSPCB",30-11-2025 08:00:00,16.172806,75.659694,OZONE,12,16,16
India,Karnataka,Belgaum,"Ramteerth Nagar, Belgaum - KSPCB",30-11-2025 08:00:00,15.888653,74.541751,PM10,55,142,100
India,Karnataka,Bengaluru,"BTM Layout, Bengaluru - CPCB",30-11-2025 08:00:00,12.9135218,77.5950804,PM2.5,78,150,96
India,Haryana,Sonipat,"Murthal, Sonipat - HSPCB",30-11-2025 08:00:00,29.027200,77.062100,OZONE,25,26,26
India,Haryana,Yamuna Nagar,"Gobind Pura, Yamuna Nagar - HSPCB",30-11-2025 08:00:00,30.1480566,77.2893471,NO2,NA,NA,NA
India,Himachal Pradesh,Baddi,"HIMUDA Complex Phase-1, Baddi - HPPCB",30-11-2025 08:00:00,30.943887,76.801991,PM10,92,230,154
India,Himachal Pradesh,Baddi,"HIMUDA Complex Phase-1, Baddi - HPPCB",30-11-2025 08:00:00,30.943887,76.801991,SO2,22,136,62
India,Jammu_and_Kashmir,Srinagar,"Rajbagh, Srinagar - JKSPCB",30-11-2025 08:00:00,34.066206,74.819820,PM10,122,199,151
India,Haryana,Panipat,"Sector-18, Panipat - HSPCB",30-11-2025 08:00:00,29.432304,76.972765,NH3,2,3,3
India,Haryana,Rohtak,"MD University, Rohtak - HSPCB",30-11-2025 08:00:00,28.52123,76.37138,PM10,NA,NA,NA
India,Haryana,Sirsa,"F-Block, Sirsa - HSPCB",30-11-2025 08:00:00,29.536400,75.015800,NH3,12,16,14
India,Haryana,Sonipat,"Murthal, Sonipat - HSPCB",30-11-2025 08:00:00,29.027200,77.062100,PM2.5,178,436,329
India,Haryana,Sonipat,"Murthal, Sonipat - HSPCB",30-11-2025 08:00:00,29.027200,77.062100,PM10,152,367,252
India,Haryana,Karnal,"Sector-12, Karnal - HSPCB",30-11-2025 08:00:00,29.695300,77.002700,SO2,20,112,46
India,Haryana,Kurukshetra,"Sector-7, Kurukshetra - HSPCB",30-11-2025 08:00:00,29.966942,76.875879,SO2,5,19,11
India,Haryana,Mandikhera,"General Hospital, Mandikhera(Nuh) - HSPCB",30-11-2025 08:00:00,27.9002,76.9938,PM10,75,120,100
India,Haryana,Mandikhera,"General Hospital, Mandikhera(Nuh) - HSPCB",30-11-2025 08:00:00,27.9002,76.9938,NO2,20,23,21
India,Haryana,Mandikhera,"General Hospital, Mandikhera(Nuh) - HSPCB",30-11-2025 08:00:00,27.9002,76.9938,OZONE,25,30,27
India,Karnataka,Bengaluru,"Hombegowda Nagar, Bengaluru - KSPCB",30-11-2025 08:00:00,12.938539,77.590100,OZONE,17,44,28
India,Karnataka,Bengaluru,"Jayanagar 5th Block, Bengaluru - KSPCB",30-11-2025 08:00:00,12.920984,77.584908,SO2,1,45,18
India,Karnataka,Bengaluru,"Jigani, Bengaluru - KSPCB",30-11-2025 08:00:00,12.7816279,77.6299145,CO,47,48,48
