country,state,city,station,last_update,latitude,longitude,pollutant_id,min_value,max_value,avg_value
India,Arunachal_Pradesh,Naharlagun,"Naharlagun, Naharlagun - APSPCB",17-09-2025 07:00:00,27.103358,93.679645,CO,6,26,7
India,Arunachal_Pradesh,Naharlagun,"Naharlagun, Naharlagun - APSPCB",17-09-2025 07:00:00,27.103358,93.679645,OZONE,4,5,4
India,Assam,Byrnihat,"Central Academy for SFS, Byrnihat - PCBA",17-09-2025 07:00:00,26.071318,91.87488,NO2,NA,NA,NA
India,Assam,Guwahati,"IITG, Guwahati - PCBA",17-09-2025 07:00:00,26.2028636,91.70046436,CO,2,20,12
India,Assam,Guwahati,"IITG, Guwahati - PCBA",17-09-2025 07:00:00,26.2028636,91.70046436,OZONE,1,16,2
India,Assam,Guwahati,"LGBI Airport, Guwahati - PCBA",17-09-2025 07:00:00,26.10887,91.589544,PM2.5,38,42,40
India,Assam,Guwahati,"LGBI Airport, Guwahati - PCBA",17-09-2025 07:00:00,26.10887,91.589544,CO,20,74,32
India,Assam,Guwahati,"Pan Bazaar, Guwahati - PCBA",17-09-2025 07:00:00,26.187500,91.744194,PM2.5,NA,NA,NA
India,Bihar,Chhapra,"Darshan Nagar, Chhapra - BSPCB",17-09-2025 07:00:00,25.7808257,84.7446768,OZONE,2,27,6
India,Bihar,Gaya,"Kareemganj, Gaya - BSPCB",17-09-2025 07:00:00,24.792403,84.992416,NH3,1,12,5
India,Bihar,Gaya,"SFTI Kusdihra, Gaya - BSPCB",17-09-2025 07:00:00,24.762518,84.982348,NH3,3,4,3
India,Bihar,Hajipur,"Industrial Area, Hajipur - BSPCB",17-09-2025 07:00:00,25.697189,85.245900,NH3,7,10,8
India,Bihar,Hajipur,"Industrial Area, Hajipur - BSPCB",17-09-2025 07:00:00,25.697189,85.245900,SO2,1,5,4
India,Bihar,Hajipur,"Industrial Area, Hajipur - BSPCB",17-09-2025 07:00:00,25.697189,85.245900,CO,33,47,43
India,Bihar,Katihar,"Mirchaibari, Katihar - BSPCB",17-09-2025 07:00:00,25.560083,87.553265,PM2.5,28,42,34
India,Assam,Nagaon,"Christianpatty, Nagaon - PCBA",17-09-2025 07:00:00,26.349082,92.68449,NO2,NA,NA,NA
India,Assam,Nalbari,"Bata Chowk, Nalbari - PCBA",17-09-2025 07:00:00,26.446912,91.439057,PM10,23,143,52
India,Assam,Nalbari,"Bata Chowk, Nalbari - PCBA",17-09-2025 07:00:00,26.446912,91.439057,NO2,2,8,5
India,Assam,Silchar,"Tarapur, Silchar - PCBA",17-09-2025 07:00:00,24.82827,92.79525,PM10,42,55,48
India,Assam,Sivasagar,"Girls College, Sivasagar - PCBA",17-09-2025 07:00:00,26.987634,94.636574,PM2.5,27,29,28
India,Assam,Sivasagar,"Girls College, Sivasagar - PCBA",17-09-2025 07:00:00,26.987634,94.636574,PM10,26,32,28
India,Assam,Sivasagar,"Girls College, Sivasagar - PCBA",17-09-2025 07:00:00,26.987634,94.636574,NO2,11,17,14
India,Assam,Sivasagar,"Girls College, Sivasagar - PCBA",17-09-2025 07:00:00,26.987634,94.636574,NH3,3,4,4
India,Bihar,Katihar,"Mirchaibari, Katihar - BSPCB",17-09-2025 07:00:00,25.560083,87.553265,SO2,14,20,17
India,Bihar,Kishanganj,"SDM Office_Khagra, Kishanganj - BSPCB",17-09-2025 07:00:00,26.0881305,87.93840336,NO2,NA,NA,NA
India,Bihar,Manguraha,"Forest Rest House, Manguraha - BSPCB",17-09-2025 07:00:00,27.308328,84.531742,PM10,17,256,46
India,Bihar,Manguraha,"Forest Rest House, Manguraha - BSPCB",17-09-2025 07:00:00,27.308328,84.531742,SO2,16,30,18
India,Bihar,Motihari,"Gandak Colony, Motihari - BSPCB",17-09-2025 07:00:00,26.63086,84.90051,PM10,7,62,37
India,Bihar,Motihari,"Gandak Colony, Motihari - BSPCB",17-09-2025 07:00:00,26.63086,84.90051,NO2,NA,NA,NA
India,Bihar,Motihari,"Gandak Colony, Motihari - BSPCB",17-09-2025 07:00:00,26.63086,84.90051,NH3,NA,NA,NA
India,Andhra_Pradesh,Tirumala,"Toll Gate, Tirumala - APPCB",17-09-2025 07:00:00,13.67,79.35,SO2,1,3,2
India,Andhra_Pradesh,Tirupati,"Vaikuntapuram, Tirupati - APPCB",17-09-2025 07:00:00,13.615387,79.409230,SO2,16,16,16
India,Andhra_Pradesh,Vijayawada,"HB Colony, Vijayawada - APPCB",17-09-2025 07:00:00,16.536107,80.594233,OZONE,16,22,16
India,Andhra_Pradesh,Vijayawada,"Rajiv Gandhi Park, Vijayawada - APPCB",17-09-2025 07:00:00,16.509717,80.612222,NO2,22,50,34
India,Andhra_Pradesh,Vijayawada,"Rajiv Gandhi Park, Vijayawada - APPCB",17-09-2025 07:00:00,16.509717,80.612222,SO2,17,20,18
India,Andhra_Pradesh,Vijayawada,"Rajiv Nagar, Vijayawada - APPCB",17-09-2025 07:00:00,16.554731,80.649110,CO,17,35,18
India,Bihar,Bhagalpur,"DM Office_Kachari Chowk, Bhagalpur - BSPCB",17-09-2025 07:00:00,25.251013,86.989001,NO2,14,19,16
India,Bihar,Bhagalpur,"DM Office_Kachari Chowk, Bhagalpur - BSPCB",17-09-2025 07:00:00,25.251013,86.989001,OZONE,6,33,15
India,Bihar,Bihar Sharif,"D M Colony, Bihar Sharif - BSPCB",17-09-2025 07:00:00,25.204762,85.514960,NH3,3,4,3
India,Bihar,Bihar Sharif,"D M Colony, Bihar Sharif - BSPCB",17-09-2025 07:00:00,25.204762,85.514960,OZONE,10,60,26
India,Bihar,Buxar,"Charitra Van, Buxar - BSPCB",17-09-2025 07:00:00,25.567520,83.966379,SO2,1,7,4
India,Bihar,Chhapra,"Darshan Nagar, Chhapra - BSPCB",17-09-2025 07:00:00,25.7808257,84.7446768,SO2,9,9,9
India,Bihar,Araria,"Kharahiya Basti, Araria - BSPCB",17-09-2025 07:00:00,26.146529,87.454184,SO2,NA,NA,NA
India,Bihar,Araria,"Kharahiya Basti, Araria - BSPCB",17-09-2025 07:00:00,26.146529,87.454184,OZONE,8,16,10
India,Bihar,Arrah,"New DM Office, Arrah - BSPCB",17-09-2025 07:00:00,25.5626095,84.663264,SO2,NA,NA,NA
India,Bihar,Aurangabad,"Gurdeo Nagar, Aurangabad - BSPCB",17-09-2025 07:00:00,24.75746,84.366208,OZONE,1,34,23
India,Bihar,Bettiah,"Kamalnath Nagar, Bettiah - BSPCB",17-09-2025 07:00:00,26.80365,84.51954,CO,35,86,45
India,Bihar,Muzaffarpur,"Muzaffarpur Collectorate, Muzaffarpur - BSPCB",17-09-2025 07:00:00,26.1209,85.3647,CO,16,36,24
India,Bihar,Patna,"DRM Office Danapur, Patna - BSPCB",17-09-2025 07:00:00,25.586562,85.043586,NH3,2,3,3
India,Bihar,Patna,"DRM Office Danapur, Patna - BSPCB",17-09-2025 07:00:00,25.586562,85.043586,OZONE,44,62,55
India,Bihar,Patna,"Govt. High School Shikarpur, Patna - BSPCB",17-09-2025 07:00:00,25.592539,85.227158,PM2.5,21,52,35
India,Andhra_Pradesh,Amaravati,"Secretariat, Amaravati - APPCB",17-09-2025 07:00:00,16.5150833,80.5181667,PM10,24,68,43
India,Andhra_Pradesh,Rajamahendravaram,"Anand Kala Kshetram, Rajamahendravaram - APPCB",17-09-2025 07:00:00,16.9872867,81.7363176,NO2,8,73,27
India,Andhra_Pradesh,Rajamahendravaram,"Anand Kala Kshetram, Rajamahendravaram - APPCB",17-09-2025 07:00:00,16.9872867,81.7363176,CO,6,42,11
India,Andaman and Nicobar,Sri Vijaya Puram,"Police Line, Sri Vijaya Puram - ANPCC",17-09-2025 07:00:00,11.654054,92.734055,NO2,NA,NA,NA
India,Andaman and Nicobar,Sri Vijaya Puram,"Police Line, Sri Vijaya Puram - ANPCC",17-09-2025 07:00:00,11.654054,92.734055,NH3,NA,NA,NA
India,Chhattisgarh,Milupara,"Govt. Higher Secondary School, Milupara - CECB",17-09-2025 07:00:00,22.1910172,83.5197009,OZONE,31,46,34
India,Chhattisgarh,Raipur,"AIIMS, Raipur - CECB",17-09-2025 07:00:00,21.258815,81.578979,PM10,NA,NA,NA
India,Chhattisgarh,Raipur,"AIIMS, Raipur - CECB",17-09-2025 07:00:00,21.258815,81.578979,SO2,NA,NA,NA
India,Chhattisgarh,Raipur,"Krishak Nagar, Raipur - CECB",17-09-2025 07:00:00,21.237755,81.705301,PM2.5,2,15,7
India,Chhattisgarh,Raipur,"Krishak Nagar, Raipur - CECB",17-09-2025 07:00:00,21.237755,81.705301,CO,8,14,10
India,Chhattisgarh,Raipur,"Siltara Phase-II, Raipur - CECB",17-09-2025 07:00:00,21.371751,81.664929,NH3,3,3,3
India,Chhattisgarh,Tumidih,"OP Jindal Industrial Park, Tumidih - CECB",17-09-2025 07:00:00,22.06631475,83.33820077,PM10,52,100,79
India,Chhattisgarh,Tumidih,"OP Jindal Industrial Park, Tumidih - CECB",17-09-2025 07:00:00,22.06631475,83.33820077,NO2,14,40,26
India,Bihar,Rajgir,"Dangi Tola, Rajgir - BSPCB",17-09-2025 07:00:00,25.03280,85.41948,PM10,NA,NA,NA
India,Bihar,Rajgir,"Dangi Tola, Rajgir - BSPCB",17-09-2025 07:00:00,25.03280,85.41948,SO2,18,25,21
India,Bihar,Saharsa,"Police Line, Saharsa - BSPCB",17-09-2025 07:00:00,25.892357,86.590325,NO2,NA,NA,NA
India,Bihar,Saharsa,"Police Line, Saharsa - BSPCB",17-09-2025 07:00:00,25.892357,86.590325,OZONE,NA,NA,NA
India,Bihar,Samastipur,"DM Office_Kasipur, Samastipur - BSPCB",17-09-2025 07:00:00,25.859655,85.77944,PM2.5,NA,NA,NA
India,Bihar,Samastipur,"DM Office_Kasipur, Samastipur - BSPCB",17-09-2025 07:00:00,25.859655,85.77944,SO2,10,32,23
India,Bihar,Sasaram,"Dada Peer, Sasaram - BSPCB",17-09-2025 07:00:00,24.952822,84.002396,NH3,3,4,3
India,Bihar,Siwan,"Chitragupta Nagar, Siwan - BSPCB",17-09-2025 07:00:00,26.2271665,84.3570427,SO2,NA,NA,NA
India,Chhattisgarh,Tumidih,"OP Jindal Industrial Park, Tumidih - CECB",17-09-2025 07:00:00,22.06631475,83.33820077,NH3,1,2,2
India,Delhi,Delhi,"Alipur, Delhi - DPCC",17-09-2025 07:00:00,28.815329,77.153010,PM10,67,117,101
India,Delhi,Delhi,"Anand Vihar, Delhi - DPCC",17-09-2025 07:00:00,28.647622,77.3158090,NH3,3,6,5
India,Delhi,Delhi,"Anand Vihar, Delhi - DPCC",17-09-2025 07:00:00,28.647622,77.3158090,SO2,18,30,24
India,Delhi,Delhi,"Anand Vihar, Delhi - DPCC",17-09-2025 07:00:00,28.647622,77.3158090,CO,66,100,77
India,Delhi,Delhi,"Ashok Vihar, Delhi - DPCC",17-09-2025 07:00:00,28.695381,77.181665,OZONE,9,69,19
India,Delhi,Delhi,"Aya Nagar, Delhi - IMD",17-09-2025 07:00:00,28.4706914,77.1099364,PM10,8,105,71
India,Delhi,Delhi,"ITO, Delhi - CPCB",17-09-2025 07:00:00,28.628624,77.241060,NH3,3,5,5
India,Delhi,Delhi,"Jahangirpuri, Delhi - DPCC",17-09-2025 07:00:00,28.732820,77.170633,PM2.5,NA,NA,NA
India,Delhi,Delhi,"Jahangirpuri, Delhi - DPCC",17-09-2025 07:00:00,28.732820,77.170633,SO2,2,14,8
India,Delhi,Delhi,"Jawaharlal Nehru Stadium, Delhi - DPCC",17-09-2025 07:00:00,28.580280,77.233829,CO,16,106,56
India,Delhi,Delhi,"Lodhi Road, Delhi - IITM",17-09-2025 07:00:00,28.588333,77.221667,PM10,58,118,87
India,Delhi,Delhi,"Lodhi Road, Delhi - IITM",17-09-2025 07:00:00,28.588333,77.221667,SO2,5,18,10
India,Delhi,Delhi,"Major Dhyan Chand National Stadium, Delhi - DPCC",17-09-2025 07:00:00,28.611281,77.237738,SO2,3,11,7
India,Chhattisgarh,Chhal,"Nawapara SECL Colony, Chhal - CECB",17-09-2025 07:00:00,22.118125,83.140608,OZONE,17,24,20
India,Chhattisgarh,Korba,"Rampur, Korba - CECB",17-09-2025 07:00:00,22.368195,82.746431,PM2.5,10,25,13
India,Chhattisgarh,Korba,"Rampur, Korba - CECB",17-09-2025 07:00:00,22.368195,82.746431,NH3,1,1,1
India,Chhattisgarh,Korba,"Rampur, Korba - CECB",17-09-2025 07:00:00,22.368195,82.746431,OZONE,NA,NA,NA
India,Chhattisgarh,Kunjemura,"OP Jindal School, Kunjemura - CECB",17-09-2025 07:00:00,22.126650,83.483212,CO,20,26,21
India,Chhattisgarh,Milupara,"Govt. Higher Secondary School, Milupara - CECB",17-09-2025 07:00:00,22.1910172,83.5197009,PM10,31,64,47
India,Delhi,Delhi,"DTU, Delhi - CPCB",17-09-2025 07:00:00,28.7500499,77.1112615,CO,11,40,30
India,Delhi,Delhi,"DTU, Delhi - CPCB",17-09-2025 07:00:00,28.7500499,77.1112615,OZONE,22,32,27
India,Delhi,Delhi,"Dwarka-Sector 8, Delhi - DPCC ",17-09-2025 07:00:00,28.5710274,77.0719006,PM10,78,210,127
India,Delhi,Delhi,"Dwarka-Sector 8, Delhi - DPCC ",17-09-2025 07:00:00,28.5710274,77.0719006,NO2,28,71,47
India,Delhi,Delhi,"Dwarka-Sector 8, Delhi - DPCC ",17-09-2025 07:00:00,28.5710274,77.0719006,CO,24,60,48
India,Delhi,Delhi,"IHBAS, Dilshad Garden, Delhi - CPCB",17-09-2025 07:00:00,28.6811736,77.3025234,NH3,2,3,2
India,Delhi,Delhi,"ITO, Delhi - CPCB",17-09-2025 07:00:00,28.628624,77.241060,PM10,42,95,59
India,Delhi,Delhi,"Bawana, Delhi - DPCC",17-09-2025 07:00:00,28.776200,77.051074,PM10,77,149,107
India,Delhi,Delhi,"Burari Crossing, Delhi - IMD",17-09-2025 07:00:00,28.7256504,77.2011573,PM2.5,NA,NA,NA
India,Delhi,Delhi,"Burari Crossing, Delhi - IMD",17-09-2025 07:00:00,28.7256504,77.2011573,PM10,NA,NA,NA
India,Delhi,Delhi,"Burari Crossing, Delhi - IMD",17-09-2025 07:00:00,28.7256504,77.2011573,OZONE,NA,NA,NA
India,Delhi,Delhi,"Chandni Chowk, Delhi - IITM",17-09-2025 07:00:00,28.656756,77.227234,CO,86,110,102
India,Delhi,Delhi,"DTU, Delhi - CPCB",17-09-2025 07:00:00,28.7500499,77.1112615,PM2.5,15,78,37
India,Delhi,Delhi,"DTU, Delhi - CPCB",17-09-2025 07:00:00,28.7500499,77.1112615,PM10,61,139,94
India,Chandigarh,Chandigarh,"Sector-25, Chandigarh - CPCC",17-09-2025 07:00:00,30.751462,76.762879,PM2.5,27,77,53
India,Chhattisgarh,Bhilai,"Civic Center, Bhilai - Bhilai Steel Plant",17-09-2025 07:00:00,21.185571,81.343175,NH3,3,3,3
India,Chhattisgarh,Bhilai,"Civic Center, Bhilai - Bhilai Steel Plant",17-09-2025 07:00:00,21.185571,81.343175,CO,11,34,22
India,Chhattisgarh,Bhilai,"Civic Center, Bhilai - Bhilai Steel Plant",17-09-2025 07:00:00,21.185571,81.343175,OZONE,8,13,10
India,Chhattisgarh,Bilaspur,"Mangala, Bilaspur - NTPC",17-09-2025 07:00:00,22.08815,82.13737,PM10,20,51,36
India,Bihar,Patna,"IGSC Planetarium Complex, Patna - BSPCB",17-09-2025 07:00:00,25.610369,85.132568,NO2,12,16,15
India,Bihar,Patna,"Muradpur, Patna - BSPCB",17-09-2025 07:00:00,25.619651,85.147382,PM10,33,88,54
India,Bihar,Patna,"Muradpur, Patna - BSPCB",17-09-2025 07:00:00,25.619651,85.147382,CO,26,64,52
India,Bihar,Patna,"Rajbansi Nagar, Patna - BSPCB",17-09-2025 07:00:00,25.599486,85.113666,NO2,22,27,24
India,Bihar,Purnia,"Mariam Nagar, Purnia - BSPCB",17-09-2025 07:00:00,25.366336,87.117468,NO2,4,6,6
India,Delhi,Delhi,"Rohini, Delhi - DPCC",17-09-2025 07:00:00,28.732528,77.119920,SO2,3,4,3
India,Delhi,Delhi,"Rohini, Delhi - DPCC",17-09-2025 07:00:00,28.732528,77.119920,CO,8,32,18
India,Delhi,Delhi,"Shadipur, Delhi - CPCB",17-09-2025 07:00:00,28.6514781,77.1473105,NH3,6,8,7
India,Delhi,Delhi,"Sirifort, Delhi - CPCB",17-09-2025 07:00:00,28.5504249,77.2159377,CO,6,42,25
India,Delhi,Delhi,"Sirifort, Delhi - CPCB",17-09-2025 07:00:00,28.5504249,77.2159377,OZONE,19,37,33
India,Delhi,Delhi,"Sonia Vihar, Delhi - DPCC",17-09-2025 07:00:00,28.710508,77.249485,PM10,68,145,99
India,Delhi,Delhi,"Sonia Vihar, Delhi - DPCC",17-09-2025 07:00:00,28.710508,77.249485,NH3,6,8,7
India,Delhi,Delhi,"Sonia Vihar, Delhi - DPCC",17-09-2025 07:00:00,28.710508,77.249485,CO,44,89,69
India,Delhi,Delhi,"Sri Aurobindo Marg, Delhi - DPCC",17-09-2025 07:00:00,28.531346,77.190156,PM10,55,116,83
India,Delhi,Delhi,"Sri Aurobindo Marg, Delhi - DPCC",17-09-2025 07:00:00,28.531346,77.190156,NO2,4,32,14
India,Delhi,Delhi,"Sri Aurobindo Marg, Delhi - DPCC",17-09-2025 07:00:00,28.531346,77.190156,NH3,4,5,4
India,Delhi,Delhi,"Sri Aurobindo Marg, Delhi - DPCC",17-09-2025 07:00:00,28.531346,77.190156,OZONE,4,61,11
India,Delhi,Delhi,"Vivek Vihar, Delhi - DPCC",17-09-2025 07:00:00,28.672342,77.315260,PM2.5,40,112,63
India,Gujarat,Ahmedabad,"Raikhad, Ahmedabad - IITM",17-09-2025 07:00:00,23.020509,72.579261,PM2.5,21,66,38
India,Gujarat,Ahmedabad,"Raikhad, Ahmedabad - IITM",17-09-2025 07:00:00,23.020509,72.579261,NO2,8,27,14
India,Gujarat,Ahmedabad,"Raikhad, Ahmedabad - IITM",17-09-2025 07:00:00,23.020509,72.579261,CO,10,43,18
India,Gujarat,Ahmedabad,"Rakhial, Ahmedabad - IITM",17-09-2025 07:00:00,23.016834,72.625775,PM2.5,5,17,10
India,Gujarat,Ahmedabad,"SAC ISRO Bopal, Ahmedabad - IITM",17-09-2025 07:00:00,23.041137,72.456691,OZONE,2,39,9
India,Gujarat,Ahmedabad,"SAC ISRO Satellite, Ahmedabad - IITM",17-09-2025 07:00:00,23.023389,72.515201,PM2.5,32,77,48
India,Gujarat,Ahmedabad,"SAC ISRO Satellite, Ahmedabad - IITM",17-09-2025 07:00:00,23.023389,72.515201,PM10,38,92,59
India,Gujarat,Ahmedabad,"SAC ISRO Satellite, Ahmedabad - IITM",17-09-2025 07:00:00,23.023389,72.515201,SO2,2,8,4
India,Gujarat,Ahmedabad,"SVPI Airport Hansol, Ahmedabad - IITM",17-09-2025 07:00:00,23.076793,72.627874,NO2,6,49,21
India,Haryana,Panchgaon,"Amity University, Panchgaon - IITM",17-09-2025 07:00:00,28.3153,76.9143,OZONE,14,73,28
India,Himachal Pradesh,Baddi,"HIMUDA Complex Phase-1, Baddi - HPPCB",17-09-2025 07:00:00,30.943887,76.801991,CO,48,84,59
India,Jharkhand,Jorapokhar,"Tata Stadium, Jorapokhar - JSPCB",17-09-2025 07:00:00,23.707909,86.414670,PM10,NA,NA,NA
India,Karnataka,Bagalkot,"Vidayagiri, Bagalkot - KSPCB",17-09-2025 07:00:00,16.172806,75.659694,PM2.5,33,34,33
India,Karnataka,Bagalkot,"Vidayagiri, Bagalkot - KSPCB",17-09-2025 07:00:00,16.172806,75.659694,SO2,7,7,7
India,Karnataka,Bagalkot,"Vidayagiri, Bagalkot - KSPCB",17-09-2025 07:00:00,16.172806,75.659694,OZONE,10,16,15
India,Gujarat,Ahmedabad,"SVPI Airport Hansol, Ahmedabad - IITM",17-09-2025 07:00:00,23.076793,72.627874,CO,25,56,35
India,Gujarat,Ahmedabad,"SVPI Airport Hansol, Ahmedabad - IITM",17-09-2025 07:00:00,23.076793,72.627874,OZONE,4,26,7
India,Gujarat,Ankleshwar,"GIDC, Ankleshwar - GPCB",17-09-2025 07:00:00,21.613267,73.010555,PM2.5,10,57,39
India,Gujarat,Ankleshwar,"GIDC, Ankleshwar - GPCB",17-09-2025 07:00:00,21.613267,73.010555,OZONE,42,48,43
India,Gujarat,Gandhinagar,"IIPHG Lekawada, Gandhinagar - IITM",17-09-2025 07:00:00,23.243639,72.68994,SO2,1,9,3
India,Gujarat,Gandhinagar,"Sector-10, Gandhinagar - GPCB",17-09-2025 07:00:00,23.221714,72.654328,PM2.5,23,73,39
India,Gujarat,Gandhinagar,"Sector-10, Gandhinagar - GPCB",17-09-2025 07:00:00,23.221714,72.654328,NH3,1,2,1
India,Gujarat,Gandhinagar,"Sector-10, Gandhinagar - GPCB",17-09-2025 07:00:00,23.221714,72.654328,CO,15,88,30
India,Gujarat,Surat,"Science Center, Surat - SMC",17-09-2025 07:00:00,21.170046,72.795405,NO2,6,17,12
India,Gujarat,Vapi,"Phase-1 GIDC, Vapi - GPCB",17-09-2025 07:00:00,20.362421,72.918013,NO2,13,14,14
India,Gujarat,Vapi,"Phase-1 GIDC, Vapi - GPCB",17-09-2025 07:00:00,20.362421,72.918013,SO2,44,46,46
India,Gujarat,Vatva,"Phase-4 GIDC, Vatva - GPCB",17-09-2025 07:00:00,22.969611,72.643500,CO,8,14,9
India,Haryana,Gurugram,"NISE Gwal Pahari, Gurugram - IMD",17-09-2025 07:00:00,28.422681,77.148944,OZONE,11,73,19
India,Delhi,Delhi,"Narela, Delhi - DPCC",17-09-2025 07:00:00,28.822836,77.101981,NH3,13,26,18
India,Delhi,Delhi,"North Campus, DU, Delhi - IMD",17-09-2025 07:00:00,28.6573814,77.1585447,PM10,77,129,104
India,Delhi,Delhi,"Okhla Phase-2, Delhi - DPCC",17-09-2025 07:00:00,28.530785,77.271255,NH3,5,6,6
India,Delhi,Delhi,"Okhla Phase-2, Delhi - DPCC",17-09-2025 07:00:00,28.530785,77.271255,OZONE,8,164,26
India,Delhi,Delhi,"Patparganj, Delhi - DPCC",17-09-2025 07:00:00,28.623763,77.287209,NO2,17,77,30
India,Delhi,Delhi,"Mandir Marg, Delhi - DPCC",17-09-2025 07:00:00,28.636429,77.201067,PM2.5,NA,NA,NA
India,Delhi,Delhi,"Mandir Marg, Delhi - DPCC",17-09-2025 07:00:00,28.636429,77.201067,SO2,NA,NA,NA
India,Delhi,Delhi,"Mandir Marg, Delhi - DPCC",17-09-2025 07:00:00,28.636429,77.201067,CO,5,98,87
India,Delhi,Delhi,"Mundka, Delhi - DPCC",17-09-2025 07:00:00,28.684678,77.076574,PM10,66,216,117
India,Delhi,Delhi,"Mundka, Delhi - DPCC",17-09-2025 07:00:00,28.684678,77.076574,NO2,25,66,40
India,Delhi,Delhi,"Najafgarh, Delhi - DPCC",17-09-2025 07:00:00,28.570173,76.933762,PM10,63,118,87
India,Delhi,Delhi,"Vivek Vihar, Delhi - DPCC",17-09-2025 07:00:00,28.672342,77.315260,NH3,4,6,6
India,Delhi,Delhi,"Vivek Vihar, Delhi - DPCC",17-09-2025 07:00:00,28.672342,77.315260,CO,30,56,41
India,Delhi,Delhi,"Wazirpur, Delhi - DPCC",17-09-2025 07:00:00,28.699793,77.165453,NO2,17,69,32
India,Gujarat,Ahmedabad,"Chandkheda, Ahmedabad - IITM",17-09-2025 07:00:00,23.107969,72.574648,NH3,3,8,4
India,Gujarat,Ahmedabad,"Chandkheda, Ahmedabad - IITM",17-09-2025 07:00:00,23.107969,72.574648,CO,6,42,21
India,Delhi,Delhi,"Pusa, Delhi - IMD",17-09-2025 07:00:00,28.636110,77.173332,PM2.5,7,39,21
India,Delhi,Delhi,"R K Puram, Delhi - DPCC",17-09-2025 07:00:00,28.563262,77.186937,PM2.5,37,140,73
India,Karnataka,Bengaluru,"Jayanagar 5th Block, Bengaluru - KSPCB",17-09-2025 07:00:00,12.920984,77.584908,CO,4,21,6
India,Karnataka,Bengaluru,"Jigani, Bengaluru - KSPCB",17-09-2025 07:00:00,12.7816279,77.6299145,PM10,NA,NA,NA
India,Karnataka,Bengaluru,"Jigani, Bengaluru - KSPCB",17-09-2025 07:00:00,12.7816279,77.6299145,OZONE,NA,NA,NA
India,Karnataka,Bengaluru,"Sanegurava Halli, Bengaluru - KSPCB",17-09-2025 07:00:00,12.990328,77.5431385,NO2,17,21,19
India,Karnataka,Bengaluru,"Sanegurava Halli, Bengaluru - KSPCB",17-09-2025 07:00:00,12.990328,77.5431385,CO,20,40,26
India,Karnataka,Bengaluru,"Silk Board, Bengaluru - KSPCB",17-09-2025 07:00:00,12.917348,77.622813,PM2.5,12,83,26
India,Karnataka,Chamarajanagar,"Urban, Chamarajanagar - KSPCB",17-09-2025 07:00:00,11.55358,76.55521,NO2,15,36,27
India,Karnataka,Chamarajanagar,"Urban, Chamarajanagar - KSPCB",17-09-2025 07:00:00,11.55358,76.55521,NH3,1,3,2
India,Madhya Pradesh,Bhopal,"T T Nagar, Bhopal - MPPCB",17-09-2025 07:00:00,23.233584,77.400574,PM2.5,27,58,40
India,Madhya Pradesh,Bhopal,"T T Nagar, Bhopal - MPPCB",17-09-2025 07:00:00,23.233584,77.400574,NO2,15,31,20
India,Madhya Pradesh,Bhopal,"T T Nagar, Bhopal - MPPCB",17-09-2025 07:00:00,23.233584,77.400574,NH3,5,6,5
India,Madhya Pradesh,Bhopal,"T T Nagar, Bhopal - MPPCB",17-09-2025 07:00:00,23.233584,77.400574,OZONE,27,55,41
India,Madhya Pradesh,Damoh,"Shrivastav Colony, Damoh - MPPCB",17-09-2025 07:00:00,23.81748678,79.446246,PM2.5,1,33,14
India,Madhya Pradesh,Damoh,"Shrivastav Colony, Damoh - MPPCB",17-09-2025 07:00:00,23.81748678,79.446246,SO2,23,37,26
India,Madhya Pradesh,Gwalior,"City Center, Gwalior - MPPCB",17-09-2025 07:00:00,26.203442,78.193251,PM2.5,20,55,37
India,Madhya Pradesh,Gwalior,"City Center, Gwalior - MPPCB",17-09-2025 07:00:00,26.203442,78.193251,NO2,8,9,8
India,Madhya Pradesh,Gwalior,"City Center, Gwalior - MPPCB",17-09-2025 07:00:00,26.203442,78.193251,SO2,5,21,15
India,Kerala,Thiruvananthapuram,"Kariavattom, Thiruvananthapuram - Kerala PCB",17-09-2025 07:00:00,8.563700,76.886500,NH3,1,1,1
India,Kerala,Thiruvananthapuram,"Plammoodu, Thiruvananthapuram - Kerala PCB",17-09-2025 07:00:00,8.5149093,76.9435879,PM10,1,67,24
India,Kerala,Thiruvananthapuram,"Plammoodu, Thiruvananthapuram - Kerala PCB",17-09-2025 07:00:00,8.5149093,76.9435879,NH3,7,11,8
India,Kerala,Thrissur,"Corporation Ground, Thrissur - Kerala PCB",17-09-2025 07:00:00,10.532400,76.215900,PM2.5,40,50,47
India,Kerala,Thrissur,"Corporation Ground, Thrissur - Kerala PCB",17-09-2025 07:00:00,10.532400,76.215900,PM10,43,56,50
India,Kerala,Thrissur,"Corporation Ground, Thrissur - Kerala PCB",17-09-2025 07:00:00,10.532400,76.215900,SO2,1,1,1
India,Madhya Pradesh,Bhopal,"Paryavaran Parisar, Bhopal - MPPCB",17-09-2025 07:00:00,23.210494,77.425409,PM2.5,20,95,41
India,Karnataka,Vijayapura,"Ibrahimpur, Vijayapura - KSPCB",17-09-2025 07:00:00,16.802639,75.722694,PM2.5,36,38,37
India,Karnataka,Yadgir,"Collector Office, Yadgir - KSPCB",17-09-2025 07:00:00,16.7602,77.1428,CO,8,22,10
India,Kerala,Eloor,"Udyogamandal, Eloor - Kerala PCB",17-09-2025 07:00:00,10.073232,76.302765,PM10,44,75,55
India,Kerala,Eloor,"Udyogamandal, Eloor - Kerala PCB",17-09-2025 07:00:00,10.073232,76.302765,SO2,1,1,1
India,Kerala,Kannur,"Thavakkara, Kannur - Kerala PCB",17-09-2025 07:00:00,11.875000,75.373200,CO,NA,NA,NA
India,Kerala,Kollam,"Polayathode, Kollam - Kerala PCB",17-09-2025 07:00:00,8.8787,76.6073,NH3,NA,NA,NA
India,Karnataka,Mangalore,"Kadri, Mangalore - KSPCB",17-09-2025 07:00:00,12.889250,74.853000,PM2.5,22,38,28
India,Karnataka,Mangalore,"Kadri, Mangalore - KSPCB",17-09-2025 07:00:00,12.889250,74.853000,NO2,1,16,4
India,Karnataka,Mysuru,"Hebbal 1st Stage, Mysuru - KSPCB",17-09-2025 07:00:00,12.21041,76.37376,NO2,NA,NA,NA
India,Karnataka,Mysuru,"Hebbal 1st Stage, Mysuru - KSPCB",17-09-2025 07:00:00,12.21041,76.37376,OZONE,NA,NA,NA
India,Karnataka,Ramanagara,"Vijay Nagar, Ramanagara - KSPCB",17-09-2025 07:00:00,12.733409,77.298051,CO,NA,NA,NA
India,Karnataka,Shivamogga,"Vinoba Nagara, Shivamogga - KSPCB",17-09-2025 07:00:00,13.940000,75.555917,NO2,11,25,16
India,Karnataka,Shivamogga,"Vinoba Nagara, Shivamogga - KSPCB",17-09-2025 07:00:00,13.940000,75.555917,SO2,2,6,4
India,Karnataka,Chikkaballapur,"Chikkaballapur Rural, Chikkaballapur - KSPCB",17-09-2025 07:00:00,13.428828,77.731418,PM10,3,26,14
India,Karnataka,Chikkaballapur,"Chikkaballapur Rural, Chikkaballapur - KSPCB",17-09-2025 07:00:00,13.428828,77.731418,NH3,1,2,2
India,Karnataka,Chikkaballapur,"Chikkaballapur Rural, Chikkaballapur - KSPCB",17-09-2025 07:00:00,13.428828,77.731418,CO,2,190,7
India,Karnataka,Chikkamagaluru,"Kalyana Nagara, Chikkamagaluru - KSPCB",17-09-2025 07:00:00,13.328028,75.797056,SO2,1,6,3
India,Karnataka,Chikkamagaluru,"Kalyana Nagara, Chikkamagaluru - KSPCB",17-09-2025 07:00:00,13.328028,75.797056,CO,11,18,11
India,Karnataka,Davanagere,"Devaraj Urs Badavane, Davanagere - KSPCB",17-09-2025 07:00:00,14.475800,75.905200,PM10,4,31,17
India,Karnataka,Bengaluru,"BTM Layout, Bengaluru - CPCB",17-09-2025 07:00:00,12.9135218,77.5950804,NH3,12,18,14
India,Karnataka,Bengaluru,"BTM Layout, Bengaluru - CPCB",17-09-2025 07:00:00,12.9135218,77.5950804,SO2,15,16,16
India,Karnataka,Bengaluru,"Bapuji Nagar, Bengaluru - KSPCB",17-09-2025 07:00:00,12.951913,77.539784,NO2,3,11,6
India,Karnataka,Bengaluru,"Bapuji Nagar, Bengaluru - KSPCB",17-09-2025 07:00:00,12.951913,77.539784,SO2,2,8,4
India,Karnataka,Bengaluru,"Jayanagar 5th Block, Bengaluru - KSPCB",17-09-2025 07:00:00,12.920984,77.584908,NH3,1,1,1
India,Karnataka,Haveri,"Ashwini Nagar, Haveri - KSPCB",17-09-2025 07:00:00,14.791800,75.389600,OZONE,14,26,16
India,Karnataka,Kalaburagi,"Lal Bahadur Shastri Nagar, Kalaburagi - KSPCB",17-09-2025 07:00:00,17.321993,76.822628,PM10,40,70,53
India,Karnataka,Kalaburagi,"Lal Bahadur Shastri Nagar, Kalaburagi - KSPCB",17-09-2025 07:00:00,17.321993,76.822628,NO2,10,12,12
India,Karnataka,Kalaburagi,"Lal Bahadur Shastri Nagar, Kalaburagi - KSPCB",17-09-2025 07:00:00,17.321993,76.822628,SO2,48,54,53
India,Karnataka,Hassan,"B.Katihalli, Hassan - KSPCB",17-09-2025 07:00:00,13.008556,76.125258,NH3,1,2,2
India,Madhya Pradesh,Sagar,"Civil Lines, Sagar - MPPCB",17-09-2025 07:00:00,23.838586,78.759431,NH3,NA,NA,NA
India,Madhya Pradesh,Sagar,"Civil Lines, Sagar - MPPCB",17-09-2025 07:00:00,23.838586,78.759431,SO2,NA,NA,NA
India,Madhya Pradesh,Sagar,"Civil Lines, Sagar - MPPCB",17-09-2025 07:00:00,23.838586,78.759431,OZONE,NA,NA,NA
India,Madhya Pradesh,Satna,"Bandhavgar Colony, Satna - Birla Cement",17-09-2025 07:00:00,24.58434363,80.8549414,NO2,23,37,28
India,Madhya Pradesh,Satna,"Bandhavgar Colony, Satna - Birla Cement",17-09-2025 07:00:00,24.58434363,80.8549414,SO2,19,23,22
India,Madhya Pradesh,Satna,"Bandhavgar Colony, Satna - Birla Cement",17-09-2025 07:00:00,24.58434363,80.8549414,CO,18,54,22
India,Madhya Pradesh,Singrauli,"Suryakiran Bhawan NCL, Singrauli - MPPCB",17-09-2025 07:00:00,24.108970,82.645580,SO2,29,85,37
India,Maharashtra,Ahmednagar,"Tarakpur, Ahmednagar - MPCB",17-09-2025 07:00:00,19.10122,74.73339,NO2,16,26,21
India,Maharashtra,Ahmednagar,"Tarakpur, Ahmednagar - MPCB",17-09-2025 07:00:00,19.10122,74.73339,SO2,3,27,11
India,Maharashtra,Ahmednagar,"Tarakpur, Ahmednagar - MPCB",17-09-2025 07:00:00,19.10122,74.73339,CO,8,52,17
India,Maharashtra,Akola,"Ramdaspeth, Akola - MPCB",17-09-2025 07:00:00,20.719516,77.000253,PM10,15,43,28
India,Maharashtra,Akola,"Ramdaspeth, Akola - MPCB",17-09-2025 07:00:00,20.719516,77.000253,NO2,11,38,20
India,Maharashtra,Akola,"Ramdaspeth, Akola - MPCB",17-09-2025 07:00:00,20.719516,77.000253,CO,6,27,12
India,Maharashtra,Amravati,"Shivneri Colony, Amravati - MPCB",17-09-2025 07:00:00,20.9402359,77.7895248,NO2,4,12,7
India,Maharashtra,Amravati,"Shivneri Colony, Amravati - MPCB",17-09-2025 07:00:00,20.9402359,77.7895248,CO,12,26,15
India,Maharashtra,Amravati,"Shri Shivaji Science College, Amravati - MPCB",17-09-2025 07:00:00,20.939198,77.765701,PM2.5,8,41,19
India,Maharashtra,Amravati,"Shri Shivaji Science College, Amravati - MPCB",17-09-2025 07:00:00,20.939198,77.765701,NH3,1,5,2
India,Maharashtra,Aurangabad,"MIDC Chilkalthana, Aurangabad - MPCB",17-09-2025 07:00:00,19.875620,75.387310,SO2,NA,NA,NA
India,Maharashtra,Aurangabad,"More Chowk Waluj, Aurangabad - MPCB",17-09-2025 07:00:00,19.8389439,75.244448,PM10,30,65,46
India,Maharashtra,Aurangabad,"More Chowk Waluj, Aurangabad - MPCB",17-09-2025 07:00:00,19.8389439,75.244448,NO2,15,23,19
India,Maharashtra,Aurangabad,"More Chowk Waluj, Aurangabad - MPCB",17-09-2025 07:00:00,19.8389439,75.244448,OZONE,50,55,52
India,Maharashtra,Aurangabad,"Rachnakar Colony, Aurangabad - MPCB",17-09-2025 07:00:00,19.863756,75.321188,CO,4,22,5
India,Maharashtra,Mira-Bhayandar,"Bhayandar West, Mira-Bhayandar - MPCB",17-09-2025 07:00:00,19.296481,72.840923,SO2,1,2,1
India,Maharashtra,Mumbai,"Bandra Kurla Complex, Mumbai - IITM",17-09-2025 07:00:00,19.053536,72.84643,PM2.5,20,139,58
India,Maharashtra,Mumbai,"Bandra Kurla Complex, Mumbai - IITM",17-09-2025 07:00:00,19.053536,72.84643,PM10,15,105,58
India,Maharashtra,Mumbai,"Bandra Kurla Complex, Mumbai - IITM",17-09-2025 07:00:00,19.053536,72.84643,NO2,10,35,19
India,Maharashtra,Mumbai,"Bandra Kurla Complex, Mumbai - IITM",17-09-2025 07:00:00,19.053536,72.84643,CO,8,90,9
India,Maharashtra,Mumbai,"Bandra Kurla Complex, Mumbai - MPCB",17-09-2025 07:00:00,19.065931,72.862131,PM10,18,38,28
India,Maharashtra,Mumbai,"Bandra Kurla Complex, Mumbai - MPCB",17-09-2025 07:00:00,19.065931,72.862131,OZONE,1,6,1
India,Maharashtra,Mumbai,"Borivali East, Mumbai - IITM",17-09-2025 07:00:00,19.23241,72.86895,PM2.5,25,48,35
India,Maharashtra,Mumbai,"Borivali East, Mumbai - MPCB",17-09-2025 07:00:00,19.2243333,72.8658113,CO,2,2,2
India,Maharashtra,Badlapur,"Katrap, Badlapur - MPCB",17-09-2025 07:00:00,19.16485,73.23409,CO,22,42,28
India,Maharashtra,Belapur,"CBD Belapur, Belapur - MPCB",17-09-2025 07:00:00,19.0243902,73.0406721,OZONE,NA,NA,NA
India,Maharashtra,Boisar,"Khaira, Boisar - MPCB",17-09-2025 07:00:00,19.786089,72.757971,NO2,9,18,13
India,Maharashtra,Boisar,"Khaira, Boisar - MPCB",17-09-2025 07:00:00,19.786089,72.757971,OZONE,30,31,30
India,Maharashtra,Chandrapur,"Chauhan Colony, Chandrapur - MPCB",17-09-2025 07:00:00,19.962900,79.298714,SO2,28,28,28
India,Maharashtra,Chandrapur,"MIDC Khutala, Chandrapur - MPCB",17-09-2025 07:00:00,19.9775302,79.2337086,PM10,36,90,54
India,Maharashtra,Chandrapur,"MIDC Khutala, Chandrapur - MPCB",17-09-2025 07:00:00,19.9775302,79.2337086,NO2,1,10,4
India,Madhya Pradesh,Gwalior,"Maharaj Bada, Gwalior - MPPCB",17-09-2025 07:00:00,26.200388,78.147714,NO2,6,17,11
India,Madhya Pradesh,Gwalior,"Maharaj Bada, Gwalior - MPPCB",17-09-2025 07:00:00,26.200388,78.147714,SO2,5,9,7
India,Madhya Pradesh,Indore,"Airport Area, Indore - IMC",17-09-2025 07:00:00,22.7289,75.8076,PM2.5,16,37,22
India,Madhya Pradesh,Indore,"Airport Area, Indore - IMC",17-09-2025 07:00:00,22.7289,75.8076,PM10,25,48,32
India,Madhya Pradesh,Indore,"Chhoti Gwaltoli, Indore - MPPCB",17-09-2025 07:00:00,22.4310,75.5213,NO2,54,76,63
India,Madhya Pradesh,Indore,"Regional Park, Indore - IMC",17-09-2025 07:00:00,22.6780,75.8559,PM2.5,18,49,25
India,Madhya Pradesh,Indore,"Regional Park, Indore - IMC",17-09-2025 07:00:00,22.6780,75.8559,NO2,10,16,13
India,Maharashtra,Kolhapur,"Shivaji University, Kolhapur - MPCB",17-09-2025 07:00:00,16.6870449,74.2505872,NO2,5,27,17
India,Maharashtra,Kolhapur,"Sinchan Bhavan, Kolhapur - MPCB",17-09-2025 07:00:00,16.7143745,74.2426398,PM10,28,47,36
India,Maharashtra,Kolhapur,"Sinchan Bhavan, Kolhapur - MPCB",17-09-2025 07:00:00,16.7143745,74.2426398,SO2,1,2,1
India,Maharashtra,Mahad,"Kamble Tarf Birwadi, Mahad - MPCB",17-09-2025 07:00:00,18.1023399,73.4783687,NO2,8,27,17
India,Maharashtra,Malegaon,"Mahesh Nagar, Malegaon - MPCB",17-09-2025 07:00:00,20.555712,74.529236,PM2.5,3,66,47
India,Maharashtra,Malegaon,"Mahesh Nagar, Malegaon - MPCB",17-09-2025 07:00:00,20.555712,74.529236,SO2,2,82,10
India,Maharashtra,Dhule,"Deopur, Dhule - MPCB",17-09-2025 07:00:00,20.918946,74.776388,NH3,NA,NA,NA
India,Maharashtra,Dhule,"Deopur, Dhule - MPCB",17-09-2025 07:00:00,20.918946,74.776388,CO,NA,NA,NA
India,Maharashtra,Jalgaon,"Prabhat Colony, Jalgaon - MPCB",17-09-2025 07:00:00,21.001264,75.565602,NH3,2,3,2
India,Maharashtra,Jalgaon,"Prabhat Colony, Jalgaon - MPCB",17-09-2025 07:00:00,21.001264,75.565602,CO,14,23,15
India,Maharashtra,Jalna,"Old MIDC, Jalna - MPCB",17-09-2025 07:00:00,19.854616,75.905894,SO2,5,7,6
India,Maharashtra,Kalyan,"Khadakpada, Kalyan - MPCB",17-09-2025 07:00:00,19.25292,73.142019,PM2.5,19,125,63
India,Maharashtra,Kalyan,"Khadakpada, Kalyan - MPCB",17-09-2025 07:00:00,19.25292,73.142019,NH3,1,2,2
India,Madhya Pradesh,Indore,"Regional Park, Indore - IMC",17-09-2025 07:00:00,22.6780,75.8559,OZONE,6,7,7
India,Madhya Pradesh,Indore,"Residency Area, Indore - IMC",17-09-2025 07:00:00,22.7084,75.8815,PM10,31,60,39
India,Madhya Pradesh,Jabalpur,"Gupteshwar, Jabalpur - JMC",17-09-2025 07:00:00,23.142888,79.916147,PM2.5,6,73,26
India,Madhya Pradesh,Jabalpur,"Marhatal, Jabalpur - MPPCB",17-09-2025 07:00:00,23.168606,79.932247,PM10,NA,NA,NA
India,Madhya Pradesh,Jabalpur,"Suhagi, Jabalpur - JMC",17-09-2025 07:00:00,23.218135,79.957770,PM2.5,15,68,38
India,Madhya Pradesh,Mandideep,"Sector-D Industrial Area, Mandideep - MPPCB",17-09-2025 07:00:00,23.108440,77.511428,PM2.5,16,78,35
India,Madhya Pradesh,Ratlam,"Shasthri Nagar, Ratlam - IPCA Lab",17-09-2025 07:00:00,23.331731,75.045981,NO2,34,36,35
India,Madhya Pradesh,Ratlam,"Shasthri Nagar, Ratlam - IPCA Lab",17-09-2025 07:00:00,23.331731,75.045981,SO2,26,27,26
India,Maharashtra,Navi Mumbai,"Tondare-Taloja, Navi Mumbai - MPCB",17-09-2025 07:00:00,19.0630,73.1209,NO2,18,37,27
India,Maharashtra,Pimpri-Chinchwad,"Gavalinagar, Pimpri Chinchwad - MPCB",17-09-2025 07:00:00,18.63673,73.82487,PM2.5,1,25,13
India,Maharashtra,Pimpri-Chinchwad,"Gavalinagar, Pimpri Chinchwad - MPCB",17-09-2025 07:00:00,18.63673,73.82487,OZONE,NA,NA,NA
India,Maharashtra,Pimpri-Chinchwad,"Park Street Wakad, Pimpri Chinchwad - MPCB",17-09-2025 07:00:00,18.59051,73.77946,PM10,22,39,31
India,Maharashtra,Pimpri-Chinchwad,"Savta Mali Nagar, Pimpri-Chinchwad - IITM",17-09-2025 07:00:00,18.614767,73.799516,OZONE,1,12,1
India,Maharashtra,Pune,"Bhosari, Pune - IITM",17-09-2025 07:00:00,18.640051,73.848956,PM2.5,19,44,30
India,Maharashtra,Pune,"Bhumkar Nagar, Pune - IITM",17-09-2025 07:00:00,18.605770,73.749976,PM2.5,13,58,29
India,Maharashtra,Mumbai,"Vile Parle West, Mumbai - MPCB",17-09-2025 07:00:00,19.10861,72.83622,NH3,1,5,4
India,Maharashtra,Mumbai,"Worli, Mumbai - MPCB",17-09-2025 07:00:00,18.9936162,72.8128113,CO,4,11,7
India,Maharashtra,Nagpur,"Ambazari, Nagpur - MPCB",17-09-2025 07:00:00,21.121801,79.04952,SO2,9,15,12
India,Maharashtra,Nagpur,"Ambazari, Nagpur - MPCB",17-09-2025 07:00:00,21.121801,79.04952,CO,8,56,13
India,Maharashtra,Nagpur,"Mahal, Nagpur - MPCB",17-09-2025 07:00:00,21.14472,79.107595,NO2,10,72,31
India,Maharashtra,Nagpur,"Opp GPO Civil Lines, Nagpur - MPCB",17-09-2025 07:00:00,21.152875,79.0517531,NO2,12,40,22
India,Maharashtra,Nagpur,"Opp GPO Civil Lines, Nagpur - MPCB",17-09-2025 07:00:00,21.152875,79.0517531,OZONE,3,16,4
India,Maharashtra,Nagpur,"Ram Nagar, Nagpur - MPCB",17-09-2025 07:00:00,21.143383,79.048912,NH3,1,2,2
India,Maharashtra,Pune,"Dhankawadi, Pune - IITM",17-09-2025 07:00:00,18.459883,73.852193,PM2.5,8,54,24
India,Maharashtra,Pune,"Katraj Dairy, Pune - MPCB",17-09-2025 07:00:00,18.454450,73.854155,PM2.5,7,48,19
India,Maharashtra,Pune,"Mhada Colony, Pune - IITM",17-09-2025 07:00:00,18.573040,73.927715,PM10,43,78,60
India,Maharashtra,Pune,"Panchawati_Pashan, Pune - IITM",17-09-2025 07:00:00,18.536457,73.805454,PM2.5,16,44,27
India,Maharashtra,Pune,"Panchawati_Pashan, Pune - IITM",17-09-2025 07:00:00,18.536457,73.805454,PM10,33,65,44
India,Maharashtra,Pune,"Panchawati_Pashan, Pune - IITM",17-09-2025 07:00:00,18.536457,73.805454,NO2,NA,NA,NA
India,Maharashtra,Pune,"Panchawati_Pashan, Pune - IITM",17-09-2025 07:00:00,18.536457,73.805454,CO,NA,NA,NA
India,Maharashtra,Pune,"Panchawati_Pashan, Pune - IITM",17-09-2025 07:00:00,18.536457,73.805454,OZONE,1,24,9
India,Maharashtra,Pune,"Savitribai Phule Pune University, Pune - MPCB",17-09-2025 07:00:00,18.547056,73.826908,NH3,NA,NA,NA
India,Maharashtra,Mumbai,"Chakala-Andheri East, Mumbai - IITM",17-09-2025 07:00:00,19.11074,72.86084,SO2,1,31,10
India,Maharashtra,Mumbai,"Chembur, Mumbai - MPCB",17-09-2025 07:00:00,19.0364585,72.8954371,NO2,14,43,24
India,Maharashtra,Mumbai,"Chhatrapati Shivaji Intl. Airport (T2), Mumbai - MPCB",17-09-2025 07:00:00,19.10078,72.87462,NH3,1,2,2
India,Maharashtra,Mumbai,"Chhatrapati Shivaji Intl. Airport (T2), Mumbai - MPCB",17-09-2025 07:00:00,19.10078,72.87462,CO,26,32,28
India,Maharashtra,Mumbai,"Colaba, Mumbai - MPCB",17-09-2025 07:00:00,18.910000,72.820000,PM2.5,8,27,20
India,Maharashtra,Mumbai,"Deonar, Mumbai - IITM",17-09-2025 07:00:00,19.04946,72.9230,PM2.5,5,36,16
India,Maharashtra,Mumbai,"Deonar, Mumbai - IITM",17-09-2025 07:00:00,19.04946,72.9230,SO2,4,6,5
India,Maharashtra,Nashik,"Pandav Nagari, Nashik - MPCB",17-09-2025 07:00:00,19.9591346,73.7788008,SO2,1,7,4
India,Maharashtra,Navi Mumbai,"Kopripada-Vashi, Navi Mumbai - MPCB",17-09-2025 07:00:00,19.090337,73.014232,PM2.5,19,48,35
India,Maharashtra,Navi Mumbai,"Mahape, Navi Mumbai - MPCB",17-09-2025 07:00:00,19.1135051,73.008978,PM10,40,77,56
India,Maharashtra,Navi Mumbai,"Mahape, Navi Mumbai - MPCB",17-09-2025 07:00:00,19.1135051,73.008978,NH3,3,3,3
India,Maharashtra,Navi Mumbai,"Sector-2E Kalamboli, Navi Mumbai - MPCB",17-09-2025 07:00:00,19.02579,73.10297,PM2.5,37,68,51
India,Maharashtra,Navi Mumbai,"Sector-2E Kalamboli, Navi Mumbai - MPCB",17-09-2025 07:00:00,19.02579,73.10297,NH3,4,10,7
India,Maharashtra,Mumbai,"Mazgaon, Mumbai - IITM",17-09-2025 07:00:00,18.96702,72.84214,PM2.5,9,59,28
India,Maharashtra,Mumbai,"Mazgaon, Mumbai - IITM",17-09-2025 07:00:00,18.96702,72.84214,NH3,8,16,11
India,Maharashtra,Mumbai,"Mazgaon, Mumbai - IITM",17-09-2025 07:00:00,18.96702,72.84214,CO,41,80,50
India,Maharashtra,Mumbai,"Mindspace-Malad West, Mumbai - MPCB",17-09-2025 07:00:00,19.1878657,72.8304069,PM2.5,32,35,34
India,Maharashtra,Mumbai,"Mindspace-Malad West, Mumbai - MPCB",17-09-2025 07:00:00,19.1878657,72.8304069,PM10,35,37,36
India,Maharashtra,Mumbai,"Mindspace-Malad West, Mumbai - MPCB",17-09-2025 07:00:00,19.1878657,72.8304069,NO2,15,16,15
India,Maharashtra,Mumbai,"Navy Nagar-Colaba, Mumbai - IITM",17-09-2025 07:00:00,18.897756,72.813320,PM10,NA,NA,NA
India,Maharashtra,Mumbai,"Ghatkopar, Mumbai - BMC",17-09-2025 07:00:00,19.083694,72.920967,PM2.5,7,41,18
India,Maharashtra,Mumbai,"Ghatkopar, Mumbai - BMC",17-09-2025 07:00:00,19.083694,72.920967,NH3,3,9,5
India,Maharashtra,Mumbai,"Kandivali East, Mumbai - MPCB",17-09-2025 07:00:00,19.205800,72.868200,PM2.5,NA,NA,NA
India,Maharashtra,Mumbai,"Kandivali East, Mumbai - MPCB",17-09-2025 07:00:00,19.205800,72.868200,NH3,NA,NA,NA
India,Maharashtra,Mumbai,"Kandivali East, Mumbai - MPCB",17-09-2025 07:00:00,19.205800,72.868200,CO,NA,NA,NA
India,Maharashtra,Mumbai,"Kandivali West, Mumbai - BMC",17-09-2025 07:00:00,19.215859,72.831718,PM10,27,46,35
India,Maharashtra,Nagpur,"Ram Nagar, Nagpur - MPCB",17-09-2025 07:00:00,21.143383,79.048912,SO2,3,8,6
India,Maharashtra,Nanded,"Sneh Nagar, Nanded - MPCB",17-09-2025 07:00:00,19.173852,77.296291,SO2,4,10,8
India,Maharashtra,Nashik,"Hirawadi, Nashik - MPCB",17-09-2025 07:00:00,20.021503,73.813844,NH3,1,3,2
India,Maharashtra,Nashik,"MIDC Ambad, Nashik - MPCB",17-09-2025 07:00:00,19.950220,73.731480,NH3,2,3,2
India,Maharashtra,Nashik,"MIDC Ambad, Nashik - MPCB",17-09-2025 07:00:00,19.950220,73.731480,CO,8,16,11
India,Maharashtra,Mumbai,"Navy Nagar-Colaba, Mumbai - IITM",17-09-2025 07:00:00,18.897756,72.813320,SO2,1,17,5
India,Maharashtra,Mumbai,"Sewri, Mumbai - BMC",17-09-2025 07:00:00,19.000084,72.856730,OZONE,18,50,29
India,Maharashtra,Mumbai,"Shivaji Nagar, Mumbai - BMC",17-09-2025 07:00:00,19.060498,72.923356,NH3,3,4,4
India,Maharashtra,Mumbai,"Siddharth Nagar-Worli, Mumbai - IITM",17-09-2025 07:00:00,19.000083,72.813993,CO,2,84,66
India,Punjab,Jalandhar,"Civil Line, Jalandhar - PPCB",17-09-2025 07:00:00,31.321907,75.578914,NO2,26,31,28
India,Punjab,Jalandhar,"Civil Line, Jalandhar - PPCB",17-09-2025 07:00:00,31.321907,75.578914,NH3,1,4,3
India,Punjab,Khanna,"Kalal Majra, Khanna - PPCB",17-09-2025 07:00:00,30.736056 ,76.209694,OZONE,31,36,32
India,Punjab,Ludhiana,"Punjab Agricultural University, Ludhiana - PPCB",17-09-2025 07:00:00,30.9028,75.8086,PM2.5,36,58,46
India,Punjab,Ludhiana,"Punjab Agricultural University, Ludhiana - PPCB",17-09-2025 07:00:00,30.9028,75.8086,CO,15,38,24
India,Punjab,Mandi Gobindgarh,"RIMT University, Mandi Gobindgarh - PPCB",17-09-2025 07:00:00,30.649961,76.331442,NO2,23,25,24
India,Punjab,Mandi Gobindgarh,"RIMT University, Mandi Gobindgarh - PPCB",17-09-2025 07:00:00,30.649961,76.331442,SO2,4,41,16
India,Punjab,Mandi Gobindgarh,"RIMT University, Mandi Gobindgarh - PPCB",17-09-2025 07:00:00,30.649961,76.331442,CO,8,72,15
India,Punjab,Mandi Gobindgarh,"RIMT University, Mandi Gobindgarh - PPCB",17-09-2025 07:00:00,30.649961,76.331442,OZONE,47,55,50
India,Punjab,Patiala,"Model Town, Patiala - PPCB",17-09-2025 07:00:00,30.349388,76.366642,NO2,NA,NA,NA
India,Punjab,Patiala,"Model Town, Patiala - PPCB",17-09-2025 07:00:00,30.349388,76.366642,CO,12,30,30
India,Punjab,Rupnagar,"Ratanpura, Rupnagar - Ambuja Cements",17-09-2025 07:00:00,31.0325454,76.5623046,NO2,8,46,26
India,Rajasthan,Ajmer,"Civil Lines,  Ajmer - RSPCB",17-09-2025 07:00:00,26.470859,74.646594,SO2,3,26,9
India,Rajasthan,Alwar,"Moti Doongri, Alwar - RSPCB",17-09-2025 07:00:00,27.554793,76.611536,CO,34,66,52
India,Rajasthan,Banswara,"Rati Talai, Banswara - RSPCB",17-09-2025 07:00:00,23.555190,74.440010,PM10,71,152,96
India,Rajasthan,Banswara,"Rati Talai, Banswara - RSPCB",17-09-2025 07:00:00,23.555190,74.440010,NO2,5,17,11
India,Rajasthan,Banswara,"Rati Talai, Banswara - RSPCB",17-09-2025 07:00:00,23.555190,74.440010,CO,6,30,15
India,Rajasthan,Baran,"Bamboliya, Baran - RSPCB",17-09-2025 07:00:00,25.106006,76.469948,PM10,50,111,70
India,Maharashtra,Pune,"Transport Nagar-Nigdi, Pune - IITM",17-09-2025 07:00:00,18.664282,73.763966,CO,14,112,100
India,Maharashtra,Pune,"Transport Nagar-Nigdi, Pune - IITM",17-09-2025 07:00:00,18.664282,73.763966,OZONE,2,30,18
India,Maharashtra,Sangli,"Vijay Nagar, Sangli - MPCB",17-09-2025 07:00:00, 16.5038,74.3623,PM2.5,16,42,30
India,Maharashtra,Sangli,"Vijay Nagar, Sangli - MPCB",17-09-2025 07:00:00, 16.5038,74.3623,NO2,4,15,7
India,Maharashtra,Sangli,"Vijay Nagar, Sangli - MPCB",17-09-2025 07:00:00, 16.5038,74.3623,NH3,1,4,2
India,Maharashtra,Sangli,"Vijay Nagar, Sangli - MPCB",17-09-2025 07:00:00, 16.5038,74.3623,OZONE,18,39,25
India,Maharashtra,Solapur,"Dnyaneshwar Nagar, Solapur - MPCB",17-09-2025 07:00:00,17.6336264,75.9132495,NH3,5,20,9
India,Maharashtra,Solapur,"Dnyaneshwar Nagar, Solapur - MPCB",17-09-2025 07:00:00,17.6336264,75.9132495,CO,11,30,13
India,Maharashtra,Solapur,"Ratandeep Housing Society, Solapur - MPCB",17-09-2025 07:00:00,17.65439,75.90649,PM2.5,9,43,26
India,Maharashtra,Solapur,"Ratandeep Housing Society, Solapur - MPCB",17-09-2025 07:00:00,17.65439,75.90649,OZONE,2,25,8
India,Nagaland,Kohima,"PWD Junction, Kohima - NPCB",17-09-2025 07:00:00,25.6635413,94.0989878,NH3,1,1,1
India,Odisha,Angul,"Hakimapada, Angul - OSPCB",17-09-2025 07:00:00,20.832874,85.104082,SO2,2,19,7
India,Odisha,Angul,"Hakimapada, Angul - OSPCB",17-09-2025 07:00:00,20.832874,85.104082,OZONE,3,7,3
India,Odisha,Balasore,"Kalidaspur, Balasore - OSPCB",17-09-2025 07:00:00,21.51161,86.89088,PM10,8,42,24
India,Odisha,Balasore,"Kalidaspur, Balasore - OSPCB",17-09-2025 07:00:00,21.51161,86.89088,CO,16,42,33
India,Odisha,Barbil,"Forest Office, Barbil - OSPCB",17-09-2025 07:00:00,22.1166054,85.3945546,SO2,6,18,10
India,Odisha,Suakati,"OMC Colony, Suakati - OSPCB",17-09-2025 07:00:00,21.606865,85.510538,PM10,39,75,51
India,Odisha,Talcher,"Talcher Coalfields,Talcher - OSPCB",17-09-2025 07:00:00,20.9360711,85.1707021,PM2.5,5,62,29
India,Odisha,Tensa,"Barsua Iron Ore Mines, Tensa - OSPCB",17-09-2025 07:00:00,21.869985,85.167016,OZONE,11,29,18
India,Punjab,Amritsar,"Golden Temple, Amritsar - PPCB",17-09-2025 07:00:00,31.620000,74.876512,NO2,3,20,7
India,Maharashtra,Thane,"Upvan Fort, Thane - MPCB",17-09-2025 07:00:00,19.222279,72.957979,PM10,17,50,32
India,Maharashtra,Ulhasnagar,"Sidhi Vinayak Nagar, Ulhasnagar - MPCB",17-09-2025 07:00:00,19.235581,73.159121,PM10,49,104,79
India,Maharashtra,Ulhasnagar,"Sidhi Vinayak Nagar, Ulhasnagar - MPCB",17-09-2025 07:00:00,19.235581,73.159121,NH3,5,9,7
India,Maharashtra,Virar,"Bolinj, Virar - MPCB",17-09-2025 07:00:00,19.4458210,72.7988231,NO2,14,33,26
India,Maharashtra,Virar,"Bolinj, Virar - MPCB",17-09-2025 07:00:00,19.4458210,72.7988231,SO2,1,5,3
India,Odisha,Keonjhar,"Jagamohanpur, Keonjhar - OSPCB",17-09-2025 07:00:00,21.643900,85.599355,CO,4,107,17
India,Odisha,Nayagarh,"Dabuna, Nayagarh - OSPCB",17-09-2025 07:00:00,21.847279,85.416905,SO2,2,11,5
India,Odisha,Rairangpur,"Divisional Forest Office, Rairangpur - OSPCB",17-09-2025 07:00:00,22.265816,86.174829,NO2,13,22,18
India,Odisha,Rairangpur,"Divisional Forest Office, Rairangpur - OSPCB",17-09-2025 07:00:00,22.265816,86.174829,SO2,7,9,8
India,Odisha,Rairangpur,"Divisional Forest Office, Rairangpur - OSPCB",17-09-2025 07:00:00,22.265816,86.174829,OZONE,19,25,20
India,Odisha,Bhubaneswar,"Lingraj Mandir, Bhubaneswar - OSPCB",17-09-2025 07:00:00,20.240790,85.836784,PM10,13,44,30
India,Odisha,Bileipada,"Tata Township, Bileipada - OSPCB",17-09-2025 07:00:00,22.06156703,85.47409613,SO2,4,7,6
India,Odisha,Bileipada,"Tata Township, Bileipada - OSPCB",17-09-2025 07:00:00,22.06156703,85.47409613,OZONE,11,13,12
India,Odisha,Cuttack,"CDA Area, Cuttack - OSPCB",17-09-2025 07:00:00,20.48891     ,85.84768     ,NO2,3,21,11
India,Rajasthan,Sri Ganganagar,"Old City, Sri Ganganagar - RSPCB",17-09-2025 07:00:00,29.931624,73.864511,OZONE,2,45,16
India,Rajasthan,Tonk,"Shastri Nagar, Tonk - RSPCB",17-09-2025 07:00:00,26.159933,75.780517,NO2,2,15,7
India,Rajasthan,Tonk,"Shastri Nagar, Tonk - RSPCB",17-09-2025 07:00:00,26.159933,75.780517,SO2,2,3,2
India,Rajasthan,Tonk,"Shastri Nagar, Tonk - RSPCB",17-09-2025 07:00:00,26.159933,75.780517,OZONE,5,35,13
India,Rajasthan,Udaipur,"Ashok Nagar, Udaipur - RSPCB",17-09-2025 07:00:00,24.5886166,73.6321397,OZONE,2,29,7
India,Sikkim,Gangtok,"Zero Point GICI, Gangtok - SSPCB",17-09-2025 07:00:00,27.338530,88.614099,CO,2,42,1
India,TamilNadu,Ariyalur,"Keelapalur, Ariyalur - TNPCB",17-09-2025 07:00:00,11.06825,79.07033,NO2,9,9,9
India,TamilNadu,Chengalpattu,"Crescent University, Chengalpattu - TNPCB",17-09-2025 07:00:00,12.8777316,80.0834807,PM10,37,82,55
India,TamilNadu,Chengalpattu,"Crescent University, Chengalpattu - TNPCB",17-09-2025 07:00:00,12.8777316,80.0834807,NH3,1,1,1
India,TamilNadu,Chengalpattu,"Crescent University, Chengalpattu - TNPCB",17-09-2025 07:00:00,12.8777316,80.0834807,SO2,16,16,16
India,TamilNadu,Chengalpattu,"Crescent University, Chengalpattu - TNPCB",17-09-2025 07:00:00,12.8777316,80.0834807,CO,4,6,6
India,Rajasthan,Jaisalmer,"Sadar Bazar, Jaisalmer - RSPCB",17-09-2025 07:00:00,26.912329,70.909168,OZONE,20,45,30
India,Rajasthan,Jalore,"Mudtra Sili, Jalore - RSPCB",17-09-2025 07:00:00,25.344694,72.626208,NH3,3,5,4
India,Rajasthan,Jalore,"Mudtra Sili, Jalore - RSPCB",17-09-2025 07:00:00,25.344694,72.626208,SO2,2,5,4
India,Rajasthan,Jhalawar,"Rajlaxmi Nagar, Jhalawar - RSPCB",17-09-2025 07:00:00,24.588397,76.172782,PM2.5,26,73,47
India,Rajasthan,Jhalawar,"Rajlaxmi Nagar, Jhalawar - RSPCB",17-09-2025 07:00:00,24.588397,76.172782,CO,12,57,24
India,Rajasthan,Jhunjhunu,"Indra Nagar, Jhunjhunu - RSPCB",17-09-2025 07:00:00,28.108988,75.386577,PM10,34,110,62
India,Rajasthan,Jodhpur,"Collectorate, Jodhpur - RSPCB",17-09-2025 07:00:00,26.268249,73.0193853,PM10,34,127,66
India,Rajasthan,Jodhpur,"Digari Kalan, Jodhpur - RSPCB",17-09-2025 07:00:00,26.295810,73.082283,PM2.5,5,65,17
India,Rajasthan,Jodhpur,"Digari Kalan, Jodhpur - RSPCB",17-09-2025 07:00:00,26.295810,73.082283,NH3,2,4,3
India,Rajasthan,Kota,"Dhanmandi, Kota - RSPCB",17-09-2025 07:00:00,25.164090,75.858137,CO,11,42,17
India,Rajasthan,Kota,"Nayapura, Kota - RSPCB",17-09-2025 07:00:00,25.196024,75.855668,OZONE,13,45,24
India,Rajasthan,Kota,"Shrinath Puram, Kota - RSPCB",17-09-2025 07:00:00,25.14389,75.821256,PM10,36,159,77
India,Rajasthan,Kota,"Shrinath Puram, Kota - RSPCB",17-09-2025 07:00:00,25.14389,75.821256,SO2,5,12,9
India,Rajasthan,Nagaur,"Karni Colony, Nagaur - RSPCB",17-09-2025 07:00:00,27.213494,73.734444,NO2,4,16,8
India,Rajasthan,Nagaur,"Karni Colony, Nagaur - RSPCB",17-09-2025 07:00:00,27.213494,73.734444,CO,11,26,19
India,Rajasthan,Pali,"Indira Colony Vistar, Pali - RSPCB",17-09-2025 07:00:00,25.771061, 73.340227,PM2.5,44,132,71
India,Rajasthan,Jodhpur,"Digari Kalan, Jodhpur - RSPCB",17-09-2025 07:00:00,26.295810,73.082283,CO,5,36,12
India,Rajasthan,Jodhpur,"Jhalamand, Jodhpur - RSPCB",17-09-2025 07:00:00,26.215415,73.070156,SO2,3,6,4
India,Rajasthan,Jodhpur,"Samrat Ashok Udhyan, Jodhpur - RSPCB",17-09-2025 07:00:00,26.253384,72.976571,CO,10,104,16
India,Rajasthan,Karauli,"Satyawati Vihar, Karauli - RSPCB",17-09-2025 07:00:00,26.506177,77.025989,OZONE,20,55,23
India,Rajasthan,Kota,"Dhanmandi, Kota - RSPCB",17-09-2025 07:00:00,25.164090,75.858137,NH3,1,3,2
India,Rajasthan,Kota,"Dhanmandi, Kota - RSPCB",17-09-2025 07:00:00,25.164090,75.858137,SO2,3,100,9
India,Rajasthan,Rajsamand,"Dhoinda, Rajsamand - RSPCB",17-09-2025 07:00:00,25.036360,73.883502,OZONE,31,71,37
India,Rajasthan,Sawai Madhopur,"Sahu Nagar, Sawai Madhopur - RSPCB",17-09-2025 07:00:00,26.031443,76.359327,PM10,28,190,73
India,Rajasthan,Sikar,"Radhakishan Pura, Sikar - RSPCB",17-09-2025 07:00:00,27.608912,75.153302,NO2,8,28,15
India,Rajasthan,Sirohi,"Vedhaynath Colony, Sirohi - RSPCB",17-09-2025 07:00:00,24.885261,72.857549,PM10,42,76,53
India,Rajasthan,Sirohi,"Vedhaynath Colony, Sirohi - RSPCB",17-09-2025 07:00:00,24.885261,72.857549,CO,22,39,32
India,Rajasthan,Sirohi,"Vedhaynath Colony, Sirohi - RSPCB",17-09-2025 07:00:00,24.885261,72.857549,OZONE,6,38,21
India,Rajasthan,Jaipur,"Police Commissionerate, Jaipur - RSPCB",17-09-2025 07:00:00,26.9164092,75.7994901,SO2,6,19,13
India,Rajasthan,Jaipur,"RIICO Sitapura, Jaipur - RSPCB",17-09-2025 07:00:00,26.786682,75.827928,SO2,1,2,1
India,Rajasthan,Jaipur,"Shastri Nagar, Jaipur - RSPCB",17-09-2025 07:00:00,26.9502929,75.730943,PM10,71,120,97
India,Rajasthan,Jaipur,"Shastri Nagar, Jaipur - RSPCB",17-09-2025 07:00:00,26.9502929,75.730943,NO2,18,69,39
India,Rajasthan,Jaisalmer,"Sadar Bazar, Jaisalmer - RSPCB",17-09-2025 07:00:00,26.912329,70.909168,PM2.5,2,32,16
India,Rajasthan,Jaisalmer,"Sadar Bazar, Jaisalmer - RSPCB",17-09-2025 07:00:00,26.912329,70.909168,NO2,2,17,8
India,Rajasthan,Bundi,"New Colony, Bundi - RSPCB",17-09-2025 07:00:00,25.435774,75.644272,PM2.5,13,57,27
India,Rajasthan,Bundi,"New Colony, Bundi - RSPCB",17-09-2025 07:00:00,25.435774,75.644272,PM10,31,89,47
India,Rajasthan,Bundi,"New Colony, Bundi - RSPCB",17-09-2025 07:00:00,25.435774,75.644272,CO,15,51,24
India,Rajasthan,Chittorgarh,"Shastri Nagar, Chittorgarh - RSPCB",17-09-2025 07:00:00,24.892047,74.623527,PM2.5,13,78,41
India,Rajasthan,Chittorgarh,"Shastri Nagar, Chittorgarh - RSPCB",17-09-2025 07:00:00,24.892047,74.623527,PM10,42,104,61
India,Rajasthan,Dausa,"Khatikan Mohalla, Dausa - RSPCB",17-09-2025 07:00:00,26.895552,76.334753,NH3,5,17,11
India,Rajasthan,Dausa,"Khatikan Mohalla, Dausa - RSPCB",17-09-2025 07:00:00,26.895552,76.334753,CO,20,86,31
India,Rajasthan,Dholpur,"Raja Ganj, Dholpur - RSPCB",17-09-2025 07:00:00,26.699557,77.898881,PM2.5,11,61,27
India,Rajasthan,Dungarpur,"Bhoiwada, Dungarpur - RSPCB",17-09-2025 07:00:00,23.837789,73.714926,SO2,7,8,8
India,Rajasthan,Dungarpur,"Bhoiwada, Dungarpur - RSPCB",17-09-2025 07:00:00,23.837789,73.714926,OZONE,12,52,20
India,Rajasthan,Hanumangarh,"Housing Board, Hanumangarh - RSPCB",17-09-2025 07:00:00,29.610750,74.283608,NO2,9,33,16
India,Rajasthan,Jaipur,"Mansarovar Sector-12, Jaipur - RSPCB",17-09-2025 07:00:00,26.843698,75.766894,PM2.5,17,58,28
India,Rajasthan,Barmer,"Railway Colony, Barmer - RSPCB",17-09-2025 07:00:00,25.747299,71.393989,CO,10,40,14
India,Rajasthan,Bharatpur,"Krishna Nagar, Bharatpur - RSPCB",17-09-2025 07:00:00,27.215415,77.50873,PM2.5,24,100,52
India,Rajasthan,Bhilwara,"Pratap Nagar, Bhilwara - RSPCB",17-09-2025 07:00:00,25.339605,74.618883,NO2,7,50,14
India,TamilNadu,Cuddalore,"Semmandalam, Cuddalore - TNPCB",17-09-2025 07:00:00,11.7637683,79.7499835,NH3,1,3,2
India,TamilNadu,Dindigul,"Mendonsa Colony, Dindigul - TNPCB",17-09-2025 07:00:00,10.358535,77.984321,SO2,19,24,21
India,TamilNadu,Gummidipoondi,"Anthoni Pillai Nagar, Gummidipoondi - TNPCB",17-09-2025 07:00:00,13.4127,80.1081,PM2.5,9,224,77
India,TamilNadu,Hosur,"SIPCOT Phase-1, Hosur - TNPCB",17-09-2025 07:00:00,12.746998,77.813811,PM10,16,57,36
India,TamilNadu,Hosur,"SIPCOT Phase-1, Hosur - TNPCB",17-09-2025 07:00:00,12.746998,77.813811,CO,16,22,18
India,TamilNadu,Hosur,"SIPCOT Phase-1, Hosur - TNPCB",17-09-2025 07:00:00,12.746998,77.813811,OZONE,3,28,11
India,TamilNadu,Kanchipuram,"Kilambi, Kanchipuram - TNPCB",17-09-2025 07:00:00,12.864618,79.659968,SO2,1,7,3
India,TamilNadu,Karur,"Kamadenu Nagar, Karur - TNPCB",17-09-2025 07:00:00,10.967820,78.080882,PM10,NA,NA,NA
India,TamilNadu,Karur,"Kamadenu Nagar, Karur - TNPCB",17-09-2025 07:00:00,10.967820,78.080882,NH3,NA,NA,NA
India,TamilNadu,Karur,"Kamadenu Nagar, Karur - TNPCB",17-09-2025 07:00:00,10.967820,78.080882,OZONE,NA,NA,NA
India,Telangana,Hyderabad,"ECIL Kapra, Hyderabad - TSPCB",17-09-2025 07:00:00,17.470431,78.566959,SO2,10,23,16
India,Telangana,Hyderabad,"ICRISAT Patancheru, Hyderabad - TSPCB",17-09-2025 07:00:00,17.518400,78.278777,PM10,28,91,50
India,Telangana,Hyderabad,"ICRISAT Patancheru, Hyderabad - TSPCB",17-09-2025 07:00:00,17.518400,78.278777,CO,13,24,19
India,Telangana,Hyderabad,"IITH Kandi, Hyderabad - TSPCB",17-09-2025 07:00:00,17.585705,78.126199,CO,11,28,13
India,Telangana,Hyderabad,"Kokapet, Hyderabad - TSPCB",17-09-2025 07:00:00,17.393559,78.339194,PM10,63,212,73
India,Telangana,Hyderabad,"Kompally Municipal Office, Hyderabad - TSPCB",17-09-2025 07:00:00,17.544899,78.486949,PM2.5,28,43,35
India,Telangana,Hyderabad,"Kompally Municipal Office, Hyderabad - TSPCB",17-09-2025 07:00:00,17.544899,78.486949,PM10,75,90,80
India,Telangana,Hyderabad,"Nacharam_TSIIC IALA, Hyderabad - TSPCB",17-09-2025 07:00:00,17.429398,78.569354,NO2,9,16,14
India,Telangana,Hyderabad,"Nacharam_TSIIC IALA, Hyderabad - TSPCB",17-09-2025 07:00:00,17.429398,78.569354,NH3,3,5,5
India,Telangana,Hyderabad,"Nacharam_TSIIC IALA, Hyderabad - TSPCB",17-09-2025 07:00:00,17.429398,78.569354,SO2,11,16,13
India,Telangana,Hyderabad,"Nacharam_TSIIC IALA, Hyderabad - TSPCB",17-09-2025 07:00:00,17.429398,78.569354,CO,28,37,28
India,Telangana,Hyderabad,"Nacharam_TSIIC IALA, Hyderabad - TSPCB",17-09-2025 07:00:00,17.429398,78.569354,OZONE,16,35,17
India,Telangana,Hyderabad,"New Malakpet, Hyderabad - TSPCB",17-09-2025 07:00:00,17.37206,78.50864,PM10,62,76,67
India,Telangana,Hyderabad,"Ramachandrapuram, Hyderabad - TSPCB",17-09-2025 07:00:00,17.528544,78.286195,PM10,72,80,76
India,Telangana,Hyderabad,"Sanathnagar, Hyderabad - TSPCB",17-09-2025 07:00:00,17.4559458,78.4332152,SO2,1,5,3
India,Telangana,Hyderabad,"Sanathnagar, Hyderabad - TSPCB",17-09-2025 07:00:00,17.4559458,78.4332152,OZONE,13,17,14
India,Telangana,Hyderabad,"Somajiguda, Hyderabad - TSPCB",17-09-2025 07:00:00,17.417094,78.457437,OZONE,24,35,29
India,Telangana,Hyderabad,"Zoo Park, Hyderabad - TSPCB",17-09-2025 07:00:00,17.349694,78.451437,NO2,2,13,10
India,TamilNadu,Chennai,"Alandur Bus Depot, Chennai - CPCB",17-09-2025 07:00:00,12.9099161,80.1076538,NO2,20,29,23
India,TamilNadu,Chennai,"Arumbakkam, Chennai - TNPCB",17-09-2025 07:00:00,13.0664,80.2112 ,NH3,2,4,3
India,TamilNadu,Chennai,"Arumbakkam, Chennai - TNPCB",17-09-2025 07:00:00,13.0664,80.2112 ,SO2,1,3,2
India,TamilNadu,Chennai,"Kodungaiyur, Chennai - TNPCB",17-09-2025 07:00:00,13.1278,80.2642,PM10,11,76,38
India,TamilNadu,Chennai,"Kodungaiyur, Chennai - TNPCB",17-09-2025 07:00:00,13.1278,80.2642,NO2,4,18,10
India,TamilNadu,Chennai,"Kodungaiyur, Chennai - TNPCB",17-09-2025 07:00:00,13.1278,80.2642,NH3,5,13,8
India,TamilNadu,Chennai,"Manali Village, Chennai - TNPCB",17-09-2025 07:00:00,13.1662,80.2584,NH3,1,2,1
India,TamilNadu,Chennai,"Manali, Chennai - CPCB",17-09-2025 07:00:00,13.164544,80.26285,CO,11,51,28
India,TamilNadu,Chennai,"Perungudi, Chennai - TNPCB",17-09-2025 07:00:00,12.9533,80.2357,SO2,1,3,2
India,Telangana,Hyderabad,"Zoo Park, Hyderabad - TSPCB",17-09-2025 07:00:00,17.349694,78.451437,OZONE,22,26,24
India,Tripura,Agartala,"Bardowali, Agartala - Tripura SPCB",17-09-2025 07:00:00,23.8175497,91.2726974,OZONE,6,6,6
India,Uttar_Pradesh,Agra,"Sanjay Palace, Agra - UPPCB",17-09-2025 07:00:00,27.19865833,78.00598056,NO2,2,5,4
India,Uttar_Pradesh,Agra,"Sanjay Palace, Agra - UPPCB",17-09-2025 07:00:00,27.19865833,78.00598056,CO,32,47,42
India,Uttar_Pradesh,Agra,"Sector-3B Avas Vikas Colony, Agra - UPPCB",17-09-2025 07:00:00,27.19412,77.96237,NH3,3,4,3
India,TamilNadu,Madurai,"Uchapatti, Madurai - TNPCB",17-09-2025 07:00:00,9.865935,78.022669,NH3,4,4,4
India,TamilNadu,Nagapattinam,"Velippalayam, Nagapattinam - TNPCB",17-09-2025 07:00:00,10.798548,79.838212,NO2,5,5,5
India,TamilNadu,Ooty,"Bombay Castel, Ooty - TNPCB",17-09-2025 07:00:00,11.4068288,76.7138973,OZONE,5,7,5
India,TamilNadu,Perundurai,"SIPCOT Industrial Park, Perundurai - TNPCB",17-09-2025 07:00:00,11.258242,77.552761,OZONE,3,44,42
India,TamilNadu,Ramanathapuram,"Chalai Bazaar, Ramanathapuram - TNPCB",17-09-2025 07:00:00,9.36399,78.831977,NH3,2,2,2
India,TamilNadu,Salem,"Sona College of Technology, Salem - TNPCB",17-09-2025 07:00:00,11.679111,78.125052,NO2,NA,NA,NA
India,TamilNadu,Salem,"Sona College of Technology, Salem - TNPCB",17-09-2025 07:00:00,11.679111,78.125052,CO,NA,NA,NA
India,TamilNadu,Thanjavur,"Parisutham Nagar, Thanjavur - TNPCB",17-09-2025 07:00:00,10.7654824,79.1389968,NO2,3,3,3
India,Telangana,Hyderabad,"Bollaram Industrial Area, Hyderabad - TSPCB",17-09-2025 07:00:00,17.540891,78.358528,NO2,26,46,37
India,Telangana,Hyderabad,"Bollaram Industrial Area, Hyderabad - TSPCB",17-09-2025 07:00:00,17.540891,78.358528,SO2,4,9,7
India,Telangana,Hyderabad,"Central University, Hyderabad - TSPCB",17-09-2025 07:00:00,17.460103,78.334361,PM10,NA,NA,NA
India,Telangana,Hyderabad,"ECIL Kapra, Hyderabad - TSPCB",17-09-2025 07:00:00,17.470431,78.566959,NO2,16,29,22
India,TamilNadu,Coimbatore,"SIDCO Kurichi, Coimbatore - TNPCB",17-09-2025 07:00:00,10.942451,76.978996,NH3,NA,NA,NA
India,TamilNadu,Cuddalore,"Kudikadu, Cuddalore - TNPCB",17-09-2025 07:00:00,11.6829898,79.7532099,SO2,17,19,18
India,TamilNadu,Cuddalore,"Semmandalam, Cuddalore - TNPCB",17-09-2025 07:00:00,11.7637683,79.7499835,PM2.5,2,65,32
India,Uttar_Pradesh,Ghaziabad,"Sanjay Nagar, Ghaziabad - UPPCB",17-09-2025 07:00:00,28.685382,77.453839,OZONE,19,63,23
India,Uttar_Pradesh,Ghaziabad,"Vasundhara, Ghaziabad - UPPCB",17-09-2025 07:00:00,28.6603346,77.3572563,PM10,58,137,113
India,Uttar_Pradesh,Ghaziabad,"Vasundhara, Ghaziabad - UPPCB",17-09-2025 07:00:00,28.6603346,77.3572563,NO2,38,121,82
India,Uttar_Pradesh,Ghaziabad,"Vasundhara, Ghaziabad - UPPCB",17-09-2025 07:00:00,28.6603346,77.3572563,SO2,15,31,19
India,Uttar_Pradesh,Gorakhpur,"Madan Mohan Malaviya University of Technology, Gorakhpur - UPPCB",17-09-2025 07:00:00,26.730136,83.433859,PM10,27,70,49
India,Uttar_Pradesh,Greater Noida,"Knowledge Park - III, Greater Noida - UPPCB",17-09-2025 07:00:00,28.47272,77.482000,OZONE,3,69,45
India,Uttar_Pradesh,Greater Noida,"Knowledge Park - V, Greater Noida - UPPCB",17-09-2025 07:00:00,28.557054,77.453663,OZONE,9,61,45
India,Uttar_Pradesh,Hapur,"Anand Vihar, Hapur - UPPCB",17-09-2025 07:00:00,28.725645,77.749675,PM2.5,35,87,61
India,Uttar_Pradesh,Moradabad,"Transport Nagar, Moradabad - UPPCB",17-09-2025 07:00:00,28.802625,78.753728,SO2,45,50,49
India,Uttar_Pradesh,Moradabad,"Transport Nagar, Moradabad - UPPCB",17-09-2025 07:00:00,28.802625,78.753728,OZONE,28,47,34
India,Uttar_Pradesh,Muzaffarnagar,"New Mandi, Muzaffarnagar - UPPCB",17-09-2025 07:00:00,29.4723508,77.7194031,NH3,6,9,7
India,Uttar_Pradesh,Noida,"Sector - 125, Noida - UPPCB",17-09-2025 07:00:00,28.5447608,77.3231257,PM10,103,162,127
India,Uttar_Pradesh,Noida,"Sector - 62, Noida - IMD",17-09-2025 07:00:00,28.6245479,77.3577104,PM10,45,150,93
India,Uttar_Pradesh,Noida,"Sector - 62, Noida - IMD",17-09-2025 07:00:00,28.6245479,77.3577104,OZONE,12,132,47
India,Uttar_Pradesh,Noida,"Sector-1, Noida - UPPCB",17-09-2025 07:00:00,28.5898,77.3101,PM10,70,159,109
India,Uttar_Pradesh,Prayagraj,"Jhunsi, Prayagraj - UPPCB",17-09-2025 07:00:00,25.425602,81.917152,PM2.5,17,40,29
India,Uttar_Pradesh,Hapur,"Anand Vihar, Hapur - UPPCB",17-09-2025 07:00:00,28.725645,77.749675,SO2,6,24,11
India,Uttar_Pradesh,Hapur,"Anand Vihar, Hapur - UPPCB",17-09-2025 07:00:00,28.725645,77.749675,CO,7,102,53
India,Uttar_Pradesh,Jhansi,"Shivaji Nagar, Jhansi - UPPCB",17-09-2025 07:00:00,25.4547,78.6039,NO2,5,6,6
India,Uttar_Pradesh,Kanpur,"FTI Kidwai Nagar, Kanpur - UPPCB",17-09-2025 07:00:00,26.428282,80.327067,PM2.5,11,47,31
India,Uttar_Pradesh,Kanpur,"FTI Kidwai Nagar, Kanpur - UPPCB",17-09-2025 07:00:00,26.428282,80.327067,NH3,2,2,2
India,Uttar_Pradesh,Kanpur,"Nehru Nagar, Kanpur - UPPCB",17-09-2025 07:00:00,26.4703136,80.3229863,PM2.5,25,83,52
India,Uttar_Pradesh,Kanpur,"Nehru Nagar, Kanpur - UPPCB",17-09-2025 07:00:00,26.4703136,80.3229863,OZONE,6,37,6
India,Uttar_Pradesh,Khurja,"Kalindi Kunj, Khurja - UPPCB",17-09-2025 07:00:00,28.2348927,77.8683002,PM2.5,13,54,34
India,Uttar_Pradesh,Moradabad,"Eco Herbal Park, Moradabad - UPPCB",17-09-2025 07:00:00,28.840739,78.697531,PM2.5,18,71,40
India,Uttar_Pradesh,Moradabad,"Eco Herbal Park, Moradabad - UPPCB",17-09-2025 07:00:00,28.840739,78.697531,PM10,3,83,47
India,Uttar_Pradesh,Moradabad,"Employment Office, Moradabad - UPPCB",17-09-2025 07:00:00,28.88528,78.73880,NH3,4,4,4
India,Uttar_Pradesh,Moradabad,"Jigar Colony, Moradabad - UPPCB",17-09-2025 07:00:00,28.856664,78.772638,OZONE,18,39,19
India,Uttar_Pradesh,Moradabad,"Kashiram Nagar, Moradabad - UPPCB",17-09-2025 07:00:00,28.849399,78.742362,SO2,42,68,54
India,Uttar_Pradesh,Moradabad,"Kashiram Nagar, Moradabad - UPPCB",17-09-2025 07:00:00,28.849399,78.742362,CO,14,23,17
India,Uttar_Pradesh,Moradabad,"Kashiram Nagar, Moradabad - UPPCB",17-09-2025 07:00:00,28.849399,78.742362,OZONE,23,64,46
India,Uttar_Pradesh,Agra,"Shahjahan Garden, Agra - UPPCB",17-09-2025 07:00:00,27.169338,78.03582,NH3,1,1,1
India,Uttar_Pradesh,Agra,"Shahjahan Garden, Agra - UPPCB",17-09-2025 07:00:00,27.169338,78.03582,CO,7,10,8
India,Uttar_Pradesh,Agra,"Shastripuram, Agra - UPPCB",17-09-2025 07:00:00,27.19862,77.92066,PM2.5,17,82,46
India,Uttar_Pradesh,Agra,"Shastripuram, Agra - UPPCB",17-09-2025 07:00:00,27.19862,77.92066,CO,10,18,11
India,Uttar_Pradesh,Agra,"Shastripuram, Agra - UPPCB",17-09-2025 07:00:00,27.19862,77.92066,OZONE,3,4,3
India,Uttar_Pradesh,Baghpat,"Sardar Patel Inter College, Baghpat - UPPCB",17-09-2025 07:00:00,28.964949,77.278761,PM10,NA,NA,NA
India,Uttar_Pradesh,Baghpat,"Sardar Patel Inter College, Baghpat - UPPCB",17-09-2025 07:00:00,28.964949,77.278761,CO,28,84,42
India,Uttar_Pradesh,Lucknow,"B R Ambedkar University, Lucknow - UPPCB",17-09-2025 07:00:00,26.766433,80.927299,NO2,12,12,12
India,Uttar_Pradesh,Lucknow,"Gomti Nagar, Lucknow - UPPCB",17-09-2025 07:00:00,26.868120,81.005119,NO2,8,10,9
India,Uttar_Pradesh,Lucknow,"Gomti Nagar, Lucknow - UPPCB",17-09-2025 07:00:00,26.868120,81.005119,CO,36,40,36
India,Uttar_Pradesh,Lucknow,"Kendriya Vidyalaya, Lucknow - CPCB",17-09-2025 07:00:00,26.906111,80.948222,PM2.5,11,46,29
India,Uttar_Pradesh,Lucknow,"Kendriya Vidyalaya, Lucknow - CPCB",17-09-2025 07:00:00,26.906111,80.948222,SO2,5,22,10
India,Uttar_Pradesh,Lucknow,"Kukrail Picnic Spot-1, Lucknow - UPPCB",17-09-2025 07:00:00,26.90723,80.98579,CO,13,31,22
India,Uttar_Pradesh,Varanasi,"Ardhali Bazar, Varanasi - UPPCB",17-09-2025 07:00:00,25.3505986,82.9083074,PM2.5,17,39,23
India,Uttar_Pradesh,Varanasi,"Ardhali Bazar, Varanasi - UPPCB",17-09-2025 07:00:00,25.3505986,82.9083074,NO2,9,24,17
India,Uttar_Pradesh,Varanasi,"Bhelupur, Varanasi - UPPCB",17-09-2025 07:00:00,25.301778,82.996789,OZONE,1,10,2
India,Uttar_Pradesh,Varanasi,"IESD Banaras Hindu University, Varanasi - UPPCB",17-09-2025 07:00:00,25.262326,82.995408,NO2,2,3,2
India,Uttar_Pradesh,Varanasi,"IESD Banaras Hindu University, Varanasi - UPPCB",17-09-2025 07:00:00,25.262326,82.995408,NH3,1,2,1
India,Uttar_Pradesh,Varanasi,"Maldahiya, Varanasi - UPPCB",17-09-2025 07:00:00,25.32393,82.99687,PM10,25,48,33
India,Uttar_Pradesh,Lucknow,"Talkatora District Industries Center, Lucknow - CPCB",17-09-2025 07:00:00,26.83399722,80.8917361,OZONE,9,53,12
India,Uttar_Pradesh,Meerut,"Ganga Nagar, Meerut - UPPCB",17-09-2025 07:00:00,28.999264,77.7590354,SO2,10,16,12
India,Uttar_Pradesh,Meerut,"Pallavpuram Phase 2, Meerut - UPPCB",17-09-2025 07:00:00,29.063510,77.709723,PM2.5,42,87,62
India,Uttar_Pradesh,Moradabad,"Buddhi Vihar, Moradabad - UPPCB",17-09-2025 07:00:00,28.83526,78.74460,SO2,27,28,27
India,Uttar_Pradesh,Moradabad,"Buddhi Vihar, Moradabad - UPPCB",17-09-2025 07:00:00,28.83526,78.74460,CO,36,44,38
India,Uttar_Pradesh,Bareilly,"Rajendra Nagar, Bareilly - UPPCB",17-09-2025 07:00:00,28.38910936,79.42963708,OZONE,NA,NA,NA
India,Uttar_Pradesh,Bulandshahr,"Yamunapuram, Bulandshahr - UPPCB",17-09-2025 07:00:00,28.406963,77.849831,NH3,7,18,10
India,Uttar_Pradesh,Bulandshahr,"Yamunapuram, Bulandshahr - UPPCB",17-09-2025 07:00:00,28.406963,77.849831,OZONE,6,39,19
India,Uttar_Pradesh,Firozabad,"Nagla Bhau, Firozabad - UPPCB",17-09-2025 07:00:00,27.168897,78.376960,PM10,15,42,24
India,Uttar_Pradesh,Vrindavan,"Omex Eternity, Vrindavan - UPPCB",17-09-2025 07:00:00,27.5714090,77.6557570,NO2,12,12,12
India,Uttar_Pradesh,Vrindavan,"Omex Eternity, Vrindavan - UPPCB",17-09-2025 07:00:00,27.5714090,77.6557570,NH3,1,2,2
India,Uttarakhand,Kashipur,"Govt. Girls Inter College, Kashipur - UKPCB",17-09-2025 07:00:00,29.2124114,78.9611753,NH3,1,3,2
India,Uttarakhand,Kashipur,"Govt. Girls Inter College, Kashipur - UKPCB",17-09-2025 07:00:00,29.2124114,78.9611753,SO2,2,6,4
India,Uttarakhand,Rishikesh,"Shivaji Nagar, Rishikesh - UKPCB",17-09-2025 07:00:00,30.075911,78.2859547,PM10,13,66,38
India,West_Bengal,Asansol,"Asansol Court Area, Asansol - WBPCB",17-09-2025 07:00:00,23.685297,86.945968,SO2,6,22,18
India,West_Bengal,Asansol,"Evelyn Lodge, Asansol - WBPCB",17-09-2025 07:00:00,23.6979360,86.9443950,OZONE,7,21,10
India,West_Bengal,Asansol,"Mahabir Colliery, Asansol - WBPCB",17-09-2025 07:00:00,23.6181830,87.1057180,CO,19,38,21
India,West_Bengal,Asansol,"Trivenidevi Bhalotia College, Asansol - WBPCB",17-09-2025 07:00:00,23.616515,87.119133,SO2,13,15,14
India,West_Bengal,Barrackpore,"SVSPA Campus, Barrackpore - WBPCB",17-09-2025 07:00:00,22.7605581,88.3617589,NO2,9,21,15
India,West_Bengal,Durgapur,"Mahishkapur Road_B-Zone, Durgapur - WBPCB",17-09-2025 07:00:00,23.567923,87.306843,PM10,30,37,36
India,West_Bengal,Durgapur,"PCBL Residential Complex, Durgapur - WBPCB",17-09-2025 07:00:00,23.5087640,87.3544400,PM10,25,93,51
India,West_Bengal,Durgapur,"PCBL Residential Complex, Durgapur - WBPCB",17-09-2025 07:00:00,23.5087640,87.3544400,SO2,4,7,4
India,West_Bengal,Durgapur,"Womens College_City Center, Durgapur - WBPCB (Formerly known as Sidhu Kanhu Indoor Stadium)",17-09-2025 07:00:00,23.549395,87.300496,PM2.5,27,42,35
India,West_Bengal,Durgapur,"Womens College_City Center, Durgapur - WBPCB (Formerly known as Sidhu Kanhu Indoor Stadium)",17-09-2025 07:00:00,23.549395,87.300496,NH3,3,3,3
India,West_Bengal,Durgapur,"Womens College_City Center, Durgapur - WBPCB (Formerly known as Sidhu Kanhu Indoor Stadium)",17-09-2025 07:00:00,23.549395,87.300496,SO2,26,31,29
India,West_Bengal,Durgapur,"Womens College_City Center, Durgapur - WBPCB (Formerly known as Sidhu Kanhu Indoor Stadium)",17-09-2025 07:00:00,23.549395,87.300496,OZONE,9,26,12
India,West_Bengal,Haldia,"Priyambada Housing Estate, Haldia - WBPCB",17-09-2025 07:00:00,22.06047,88.109737,NO2,5,15,8
India,West_Bengal,Howrah,"Belur Math, Howrah - WBPCB",17-09-2025 07:00:00,22.629801,88.352017,PM10,28,105,65
India,West_Bengal,Howrah,"Botanical Garden, Howrah - WBPCB",17-09-2025 07:00:00,22.554954,88.292568,NO2,14,64,44
India,West_Bengal,Howrah,"Dasnagar, Howrah - WBPCB",17-09-2025 07:00:00,22.6025571,88.3105664,PM2.5,4,50,25
India,West_Bengal,Howrah,"Dasnagar, Howrah - WBPCB",17-09-2025 07:00:00,22.6025571,88.3105664,NO2,7,22,15
India,West_Bengal,Howrah,"Dasnagar, Howrah - WBPCB",17-09-2025 07:00:00,22.6025571,88.3105664,SO2,9,10,9
India,West_Bengal,Howrah,"Ghusuri, Howrah - WBPCB",17-09-2025 07:00:00,22.611968,88.347422,PM2.5,18,64,34
India,West_Bengal,Howrah,"Ghusuri, Howrah - WBPCB",17-09-2025 07:00:00,22.611968,88.347422,NH3,9,10,10
India,West_Bengal,Howrah,"Ghusuri, Howrah - WBPCB",17-09-2025 07:00:00,22.611968,88.347422,OZONE,12,42,27
India,West_Bengal,Howrah,"Padmapukur, Howrah - WBPCB",17-09-2025 07:00:00,22.5687319,88.2797276,OZONE,2,19,3
India,West_Bengal,Kolkata,"Ballygunge, Kolkata - WBPCB",17-09-2025 07:00:00,22.5367507,88.3638022,PM10,11,30,23
India,West_Bengal,Kolkata,"Ballygunge, Kolkata - WBPCB",17-09-2025 07:00:00,22.5367507,88.3638022,NO2,27,64,47
India,West_Bengal,Kolkata,"Ballygunge, Kolkata - WBPCB",17-09-2025 07:00:00,22.5367507,88.3638022,OZONE,17,28,21
India,West_Bengal,Kolkata,"Bidhannagar, Kolkata - WBPCB",17-09-2025 07:00:00,22.58157048,88.41002457,PM10,33,54,44
India,West_Bengal,Kolkata,"Bidhannagar, Kolkata - WBPCB",17-09-2025 07:00:00,22.58157048,88.41002457,NH3,4,10,6
India,West_Bengal,Kolkata,"Jadavpur, Kolkata - WBPCB",17-09-2025 07:00:00,22.49929,88.36917,NO2,28,45,37
India,West_Bengal,Kolkata,"Jadavpur, Kolkata - WBPCB",17-09-2025 07:00:00,22.49929,88.36917,NH3,9,11,10
India,West_Bengal,Kolkata,"Jadavpur, Kolkata - WBPCB",17-09-2025 07:00:00,22.49929,88.36917,SO2,4,7,5
India,West_Bengal,Kolkata,"Rabindra Bharati University, Kolkata - WBPCB",17-09-2025 07:00:00,22.627847,88.380669,PM10,14,51,33
India,West_Bengal,Kolkata,"Rabindra Bharati University, Kolkata - WBPCB",17-09-2025 07:00:00,22.627847,88.380669,NO2,27,56,38
India,West_Bengal,Kolkata,"Rabindra Bharati University, Kolkata - WBPCB",17-09-2025 07:00:00,22.627847,88.380669,CO,21,31,24
India,West_Bengal,Kolkata,"Rabindra Sarobar, Kolkata - WBPCB",17-09-2025 07:00:00,22.51106,88.35142,PM10,24,36,28
India,West_Bengal,Siliguri,"Ward-32 Bapupara, Siliguri - WBPCB",17-09-2025 07:00:00,26.6879226,88.4152495,PM10,24,43,32
India,West_Bengal,Siliguri,"Ward-32 Bapupara, Siliguri - WBPCB",17-09-2025 07:00:00,26.6879226,88.4152495,NO2,13,23,19
India,Bihar,Muzaffarpur,"Buddha Colony, Muzaffarpur - BSPCB",17-09-2025 07:00:00,26.11442,85.39813,NH3,3,5,4
India,Bihar,Muzaffarpur,"Buddha Colony, Muzaffarpur - BSPCB",17-09-2025 07:00:00,26.11442,85.39813,OZONE,33,55,44
India,Bihar,Muzaffarpur,"MIT-Daudpur Kothi, Muzaffarpur - BSPCB",17-09-2025 07:00:00,26.1403345,85.3650192,PM2.5,17,37,24
India,Bihar,Muzaffarpur,"MIT-Daudpur Kothi, Muzaffarpur - BSPCB",17-09-2025 07:00:00,26.1403345,85.3650192,NO2,7,12,8
India,Bihar,Muzaffarpur,"MIT-Daudpur Kothi, Muzaffarpur - BSPCB",17-09-2025 07:00:00,26.1403345,85.3650192,SO2,4,14,8
India,Bihar,Muzaffarpur,"MIT-Daudpur Kothi, Muzaffarpur - BSPCB",17-09-2025 07:00:00,26.1403345,85.3650192,OZONE,10,29,27
India,Bihar,Muzaffarpur,"Muzaffarpur Collectorate, Muzaffarpur - BSPCB",17-09-2025 07:00:00,26.1209,85.3647,SO2,4,6,5
India,Bihar,Patna,"DRM Office Danapur, Patna - BSPCB",17-09-2025 07:00:00,25.586562,85.043586,PM10,44,60,52
India,Bihar,Patna,"DRM Office Danapur, Patna - BSPCB",17-09-2025 07:00:00,25.586562,85.043586,CO,28,43,34
India,Bihar,Patna,"Govt. High School Shikarpur, Patna - BSPCB",17-09-2025 07:00:00,25.592539,85.227158,PM10,26,58,39
India,Andhra_Pradesh,Visakhapatnam,"GVM Corporation, Visakhapatnam - APPCB",17-09-2025 07:00:00,17.72,83.3,SO2,4,14,8
India,Arunachal_Pradesh,Naharlagun,"Naharlagun, Naharlagun - APSPCB",17-09-2025 07:00:00,27.103358,93.679645,PM2.5,2,71,18
India,Assam,Guwahati,"IITG, Guwahati - PCBA",17-09-2025 07:00:00,26.2028636,91.70046436,PM10,2,66,29
India,Assam,Guwahati,"IITG, Guwahati - PCBA",17-09-2025 07:00:00,26.2028636,91.70046436,NO2,1,4,2
India,Assam,Guwahati,"LGBI Airport, Guwahati - PCBA",17-09-2025 07:00:00,26.10887,91.589544,NO2,2,21,14
India,Assam,Guwahati,"LGBI Airport, Guwahati - PCBA",17-09-2025 07:00:00,26.10887,91.589544,OZONE,11,18,16
India,Assam,Guwahati,"Pan Bazaar, Guwahati - PCBA",17-09-2025 07:00:00,26.187500,91.744194,SO2,NA,NA,NA
India,Assam,Guwahati,"Pan Bazaar, Guwahati - PCBA",17-09-2025 07:00:00,26.187500,91.744194,OZONE,NA,NA,NA
India,Bihar,Arrah,"New DM Office, Arrah - BSPCB",17-09-2025 07:00:00,25.5626095,84.663264,PM10,NA,NA,NA
India,Bihar,Arrah,"New DM Office, Arrah - BSPCB",17-09-2025 07:00:00,25.5626095,84.663264,NH3,1,1,1
India,Bihar,Arrah,"New DM Office, Arrah - BSPCB",17-09-2025 07:00:00,25.5626095,84.663264,CO,38,64,52
India,Bihar,Aurangabad,"Gurdeo Nagar, Aurangabad - BSPCB",17-09-2025 07:00:00,24.75746,84.366208,PM2.5,27,334,81
India,Bihar,Aurangabad,"Gurdeo Nagar, Aurangabad - BSPCB",17-09-2025 07:00:00,24.75746,84.366208,PM10,36,325,95
India,Bihar,Aurangabad,"Gurdeo Nagar, Aurangabad - BSPCB",17-09-2025 07:00:00,24.75746,84.366208,NH3,1,2,1
India,Bihar,Aurangabad,"Gurdeo Nagar, Aurangabad - BSPCB",17-09-2025 07:00:00,24.75746,84.366208,CO,4,28,16
India,Bihar,Begusarai,"Lohiyanagar, Begusarai - BSPCB",17-09-2025 07:00:00,25.42742023,86.13886079,PM2.5,NA,NA,NA
India,Bihar,Bettiah,"Kamalnath Nagar, Bettiah - BSPCB",17-09-2025 07:00:00,26.80365,84.51954,OZONE,18,27,23
India,Andhra_Pradesh,Tirumala,"Toll Gate, Tirumala - APPCB",17-09-2025 07:00:00,13.67,79.35,NO2,10,17,13
India,Andhra_Pradesh,Tirupati,"Vaikuntapuram, Tirupati - APPCB",17-09-2025 07:00:00,13.615387,79.409230,PM2.5,51,135,69
India,Andhra_Pradesh,Tirupati,"Vaikuntapuram, Tirupati - APPCB",17-09-2025 07:00:00,13.615387,79.409230,NO2,4,6,5
India,Andhra_Pradesh,Tirupati,"Vaikuntapuram, Tirupati - APPCB",17-09-2025 07:00:00,13.615387,79.409230,CO,3,35,10
India,Andhra_Pradesh,Vijayawada,"HB Colony, Vijayawada - APPCB",17-09-2025 07:00:00,16.536107,80.594233,PM2.5,64,83,69
India,Andhra_Pradesh,Vijayawada,"Rajiv Gandhi Park, Vijayawada - APPCB",17-09-2025 07:00:00,16.509717,80.612222,PM10,25,82,59
India,Andhra_Pradesh,Vijayawada,"Rajiv Nagar, Vijayawada - APPCB",17-09-2025 07:00:00,16.554731,80.649110,OZONE,68,92,77
India,Andhra_Pradesh,Anantapur,"Gulzarpet, Anantapur - APPCB",17-09-2025 07:00:00,14.675886,77.593027,CO,NA,NA,NA
India,Andhra_Pradesh,Chittoor,"Gangineni Cheruvu, Chittoor - APPCB",17-09-2025 07:00:00,13.204880,79.097889,SO2,21,22,22
India,Andhra_Pradesh,Chittoor,"Gangineni Cheruvu, Chittoor - APPCB",17-09-2025 07:00:00,13.204880,79.097889,CO,36,76,46
India,Andhra_Pradesh,Kadapa,"Yerramukkapalli, Kadapa - APPCB",17-09-2025 07:00:00,14.465052,78.824187,PM10,63,93,74
India,Andhra_Pradesh,Rajamahendravaram,"Anand Kala Kshetram, Rajamahendravaram - APPCB",17-09-2025 07:00:00,16.9872867,81.7363176,OZONE,9,11,10
India,Bihar,Kishanganj,"SDM Office_Khagra, Kishanganj - BSPCB",17-09-2025 07:00:00,26.0881305,87.93840336,OZONE,NA,NA,NA
India,Bihar,Manguraha,"Forest Rest House, Manguraha - BSPCB",17-09-2025 07:00:00,27.308328,84.531742,OZONE,8,31,12
India,Bihar,Munger,"Town Hall, Munger - BSPCB",17-09-2025 07:00:00,25.376776,86.471523,PM2.5,NA,NA,NA
India,Bihar,Munger,"Town Hall, Munger - BSPCB",17-09-2025 07:00:00,25.376776,86.471523,NH3,5,6,6
India,Bihar,Munger,"Town Hall, Munger - BSPCB",17-09-2025 07:00:00,25.376776,86.471523,OZONE,7,19,11
India,Bihar,Bhagalpur,"DM Office_Kachari Chowk, Bhagalpur - BSPCB",17-09-2025 07:00:00,25.251013,86.989001,NH3,4,10,6
India,Bihar,Buxar,"Charitra Van, Buxar - BSPCB",17-09-2025 07:00:00,25.567520,83.966379,NH3,3,3,3
India,Bihar,Buxar,"Charitra Van, Buxar - BSPCB",17-09-2025 07:00:00,25.567520,83.966379,OZONE,1,94,1
India,Bihar,Chhapra,"Darshan Nagar, Chhapra - BSPCB",17-09-2025 07:00:00,25.7808257,84.7446768,PM10,13,281,55
India,Assam,Guwahati,"Railway Colony, Guwahati - PCBA",17-09-2025 07:00:00,26.181742,91.78063,NO2,3,4,3
India,Assam,Guwahati,"Railway Colony, Guwahati - PCBA",17-09-2025 07:00:00,26.181742,91.78063,SO2,26,29,28
India,Assam,Silchar,"Tarapur, Silchar - PCBA",17-09-2025 07:00:00,24.82827,92.79525,NO2,13,16,15
India,Assam,Silchar,"Tarapur, Silchar - PCBA",17-09-2025 07:00:00,24.82827,92.79525,SO2,2,17,7
India,Assam,Silchar,"Tarapur, Silchar - PCBA",17-09-2025 07:00:00,24.82827,92.79525,OZONE,1,10,1
India,Bihar,Gaya,"Collectorate, Gaya - BSPCB",17-09-2025 07:00:00,24.7955,84.9994,SO2,NA,NA,NA
India,Bihar,Gaya,"SFTI Kusdihra, Gaya - BSPCB",17-09-2025 07:00:00,24.762518,84.982348,SO2,6,9,7
India,Bihar,Gaya,"SFTI Kusdihra, Gaya - BSPCB",17-09-2025 07:00:00,24.762518,84.982348,CO,18,33,22
India,Bihar,Hajipur,"Industrial Area, Hajipur - BSPCB",17-09-2025 07:00:00,25.697189,85.245900,NO2,3,20,9
India,Andaman and Nicobar,Sri Vijaya Puram,"Police Line, Sri Vijaya Puram - ANPCC",17-09-2025 07:00:00,11.654054,92.734055,OZONE,NA,NA,NA
India,Delhi,Delhi,"ITO, Delhi - CPCB",17-09-2025 07:00:00,28.628624,77.241060,CO,21,84,50
India,Delhi,Delhi,"Jahangirpuri, Delhi - DPCC",17-09-2025 07:00:00,28.732820,77.170633,PM10,86,152,112
India,Delhi,Delhi,"Jahangirpuri, Delhi - DPCC",17-09-2025 07:00:00,28.732820,77.170633,NH3,6,6,6
India,Delhi,Delhi,"Jahangirpuri, Delhi - DPCC",17-09-2025 07:00:00,28.732820,77.170633,CO,9,53,33
India,Delhi,Delhi,"Jahangirpuri, Delhi - DPCC",17-09-2025 07:00:00,28.732820,77.170633,OZONE,5,27,5
India,Delhi,Delhi,"Jawaharlal Nehru Stadium, Delhi - DPCC",17-09-2025 07:00:00,28.580280,77.233829,SO2,1,23,10
India,Delhi,Delhi,"Lodhi Road, Delhi - IITM",17-09-2025 07:00:00,28.588333,77.221667,PM2.5,30,86,52
India,Delhi,Delhi,"Major Dhyan Chand National Stadium, Delhi - DPCC",17-09-2025 07:00:00,28.611281,77.237738,PM10,61,127,98
India,Delhi,Delhi,"Aya Nagar, Delhi - IMD",17-09-2025 07:00:00,28.4706914,77.1099364,NO2,49,100,70
India,Delhi,Delhi,"Aya Nagar, Delhi - IMD",17-09-2025 07:00:00,28.4706914,77.1099364,OZONE,21,104,41
India,Delhi,Delhi,"Bawana, Delhi - DPCC",17-09-2025 07:00:00,28.776200,77.051074,PM2.5,37,230,85
India,Delhi,Delhi,"Bawana, Delhi - DPCC",17-09-2025 07:00:00,28.776200,77.051074,SO2,6,16,13
India,Delhi,Delhi,"Bawana, Delhi - DPCC",17-09-2025 07:00:00,28.776200,77.051074,OZONE,2,24,9
India,Delhi,Delhi,"Chandni Chowk, Delhi - IITM",17-09-2025 07:00:00,28.656756,77.227234,PM2.5,22,107,71
India,Delhi,Delhi,"Chandni Chowk, Delhi - IITM",17-09-2025 07:00:00,28.656756,77.227234,NO2,2,62,35
India,Delhi,Delhi,"DTU, Delhi - CPCB",17-09-2025 07:00:00,28.7500499,77.1112615,NO2,NA,NA,NA
India,Chhattisgarh,Korba,"Rampur, Korba - CECB",17-09-2025 07:00:00,22.368195,82.746431,SO2,2,10,7
India,Chhattisgarh,Korba,"Urja Nagar, Korba - CECB",17-09-2025 07:00:00,22.348441,82.549611,CO,10,106,25
India,Chhattisgarh,Korba,"Urja Nagar, Korba - CECB",17-09-2025 07:00:00,22.348441,82.549611,OZONE,34,36,35
India,Chhattisgarh,Kunjemura,"OP Jindal School, Kunjemura - CECB",17-09-2025 07:00:00,22.126650,83.483212,NO2,3,3,3
India,Chhattisgarh,Kunjemura,"OP Jindal School, Kunjemura - CECB",17-09-2025 07:00:00,22.126650,83.483212,SO2,3,19,11
India,Chhattisgarh,Milupara,"Govt. Higher Secondary School, Milupara - CECB",17-09-2025 07:00:00,22.1910172,83.5197009,NH3,1,2,2
India,Chhattisgarh,Raipur,"AIIMS, Raipur - CECB",17-09-2025 07:00:00,21.258815,81.578979,PM2.5,NA,NA,NA
India,Chhattisgarh,Raipur,"Bhatagaon New ISBT, Raipur - CECB",17-09-2025 07:00:00,21.219665,81.630094,SO2,5,6,5
India,Chhattisgarh,Raipur,"Bhatagaon New ISBT, Raipur - CECB",17-09-2025 07:00:00,21.219665,81.630094,OZONE,4,9,5
India,Chhattisgarh,Raipur,"Krishak Nagar, Raipur - CECB",17-09-2025 07:00:00,21.237755,81.705301,NO2,6,8,7
India,Chhattisgarh,Raipur,"Krishak Nagar, Raipur - CECB",17-09-2025 07:00:00,21.237755,81.705301,OZONE,2,2,2
India,Chhattisgarh,Raipur,"Siltara Phase-II, Raipur - CECB",17-09-2025 07:00:00,21.371751,81.664929,PM10,6,28,14
India,Chhattisgarh,Raipur,"Siltara Phase-II, Raipur - CECB",17-09-2025 07:00:00,21.371751,81.664929,OZONE,6,35,15
India,Chandigarh,Chandigarh,"Sector 22, Chandigarh - CPCC",17-09-2025 07:00:00,30.735567,76.775714,NO2,NA,NA,NA
India,Chandigarh,Chandigarh,"Sector 22, Chandigarh - CPCC",17-09-2025 07:00:00,30.735567,76.775714,CO,NA,NA,NA
India,Chandigarh,Chandigarh,"Sector-25, Chandigarh - CPCC",17-09-2025 07:00:00,30.751462,76.762879,PM10,23,88,55
India,Chhattisgarh,Bhilai,"Civic Center, Bhilai - Bhilai Steel Plant",17-09-2025 07:00:00,21.185571,81.343175,SO2,7,9,8
India,Chhattisgarh,Bhilai,"Hathkhoj, Bhilai - CECB",17-09-2025 07:00:00,21.224231,81.408350,PM10,15,49,27
India,Chhattisgarh,Bhilai,"Hathkhoj, Bhilai - CECB",17-09-2025 07:00:00,21.224231,81.408350,SO2,7,9,8
India,Chhattisgarh,Tumidih,"OP Jindal Industrial Park, Tumidih - CECB",17-09-2025 07:00:00,22.06631475,83.33820077,SO2,6,10,7
India,Delhi,Delhi,"Alipur, Delhi - DPCC",17-09-2025 07:00:00,28.815329,77.153010,SO2,1,6,4
India,Delhi,Delhi,"Anand Vihar, Delhi - DPCC",17-09-2025 07:00:00,28.647622,77.3158090,PM2.5,45,203,84
India,Delhi,Delhi,"Ashok Vihar, Delhi - DPCC",17-09-2025 07:00:00,28.695381,77.181665,PM2.5,32,133,70
India,Delhi,Delhi,"Ashok Vihar, Delhi - DPCC",17-09-2025 07:00:00,28.695381,77.181665,PM10,81,155,107
India,Bihar,Patna,"Muradpur, Patna - BSPCB",17-09-2025 07:00:00,25.619651,85.147382,PM2.5,9,30,17
India,Bihar,Patna,"Muradpur, Patna - BSPCB",17-09-2025 07:00:00,25.619651,85.147382,SO2,4,9,7
India,Bihar,Patna,"Rajbansi Nagar, Patna - BSPCB",17-09-2025 07:00:00,25.599486,85.113666,NH3,1,2,2
India,Bihar,Patna,"Rajbansi Nagar, Patna - BSPCB",17-09-2025 07:00:00,25.599486,85.113666,CO,13,44,22
India,Bihar,Patna,"Samanpura, Patna - BSPCB",17-09-2025 07:00:00,25.596727,85.085624,CO,36,50,45
India,Bihar,Purnia,"Mariam Nagar, Purnia - BSPCB",17-09-2025 07:00:00,25.366336,87.117468,NH3,3,3,3
India,Bihar,Rajgir,"Dangi Tola, Rajgir - BSPCB",17-09-2025 07:00:00,25.03280,85.41948,PM2.5,NA,NA,NA
India,Bihar,Saharsa,"Police Line, Saharsa - BSPCB",17-09-2025 07:00:00,25.892357,86.590325,CO,NA,NA,NA
India,Bihar,Sasaram,"Dada Peer, Sasaram - BSPCB",17-09-2025 07:00:00,24.952822,84.002396,PM10,20,70,49
India,Bihar,Sasaram,"Dada Peer, Sasaram - BSPCB",17-09-2025 07:00:00,24.952822,84.002396,NO2,2,6,2
India,Bihar,Siwan,"Chitragupta Nagar, Siwan - BSPCB",17-09-2025 07:00:00,26.2271665,84.3570427,PM10,NA,NA,NA
India,Delhi,Delhi,"Dwarka-Sector 8, Delhi - DPCC ",17-09-2025 07:00:00,28.5710274,77.0719006,PM2.5,28,123,59
India,Delhi,Delhi,"IGI Airport (T3), Delhi - IMD",17-09-2025 07:00:00,28.5627763,77.1180053,PM2.5,26,85,50
India,Delhi,Delhi,"IGI Airport (T3), Delhi - IMD",17-09-2025 07:00:00,28.5627763,77.1180053,PM10,89,157,112
India,Delhi,Delhi,"IHBAS, Dilshad Garden, Delhi - CPCB",17-09-2025 07:00:00,28.6811736,77.3025234,NO2,44,51,47
India,Delhi,Delhi,"Shadipur, Delhi - CPCB",17-09-2025 07:00:00,28.6514781,77.1473105,PM2.5,123,281,176
India,Delhi,Delhi,"Shadipur, Delhi - CPCB",17-09-2025 07:00:00,28.6514781,77.1473105,PM10,93,139,109
India,Delhi,Delhi,"Shadipur, Delhi - CPCB",17-09-2025 07:00:00,28.6514781,77.1473105,NO2,21,100,76
India,Delhi,Delhi,"Sirifort, Delhi - CPCB",17-09-2025 07:00:00,28.5504249,77.2159377,PM2.5,31,76,52
India,Delhi,Delhi,"Sirifort, Delhi - CPCB",17-09-2025 07:00:00,28.5504249,77.2159377,SO2,22,29,25
India,Delhi,Delhi,"Sonia Vihar, Delhi - DPCC",17-09-2025 07:00:00,28.710508,77.249485,PM2.5,20,133,60
India,Delhi,Delhi,"Sri Aurobindo Marg, Delhi - DPCC",17-09-2025 07:00:00,28.531346,77.190156,CO,21,59,42
India,Delhi,Delhi,"Vivek Vihar, Delhi - DPCC",17-09-2025 07:00:00,28.672342,77.315260,PM10,63,144,101
India,Haryana,Panchgaon,"Amity University, Panchgaon - IITM",17-09-2025 07:00:00,28.3153,76.9143,NH3,1,3,2
India,Himachal Pradesh,Baddi,"HIMUDA Complex Phase-1, Baddi - HPPCB",17-09-2025 07:00:00,30.943887,76.801991,PM10,26,289,96
India,Himachal Pradesh,Baddi,"HIMUDA Complex Phase-1, Baddi - HPPCB",17-09-2025 07:00:00,30.943887,76.801991,NO2,18,182,57
India,Jammu_and_Kashmir,Srinagar,"Rajbagh, Srinagar - JKSPCB",17-09-2025 07:00:00,34.066206,74.819820,SO2,NA,NA,NA
India,Jammu_and_Kashmir,Srinagar,"Rajbagh, Srinagar - JKSPCB",17-09-2025 07:00:00,34.066206,74.819820,OZONE,NA,NA,NA
India,Jharkhand,Dhanbad,"Sardar Patel Nagar, Dhanbad - JSPCB",17-09-2025 07:00:00,23.80569,86.44268,SO2,NA,NA,NA
India,Gujarat,Ahmedabad,"Maninagar, Ahmedabad - GPCB",17-09-2025 07:00:00,23.002657,72.591912,OZONE,40,72,53
India,Gujarat,Ahmedabad,"Rakhial, Ahmedabad - IITM",17-09-2025 07:00:00,23.016834,72.625775,SO2,7,43,15
India,Gujarat,Ahmedabad,"Rakhial, Ahmedabad - IITM",17-09-2025 07:00:00,23.016834,72.625775,OZONE,3,28,5
India,Gujarat,Ahmedabad,"SAC ISRO Bopal, Ahmedabad - IITM",17-09-2025 07:00:00,23.041137,72.456691,PM2.5,20,76,47
India,Gujarat,Ahmedabad,"SAC ISRO Bopal, Ahmedabad - IITM",17-09-2025 07:00:00,23.041137,72.456691,NH3,2,3,3
India,Gujarat,Ahmedabad,"SAC ISRO Satellite, Ahmedabad - IITM",17-09-2025 07:00:00,23.023389,72.515201,OZONE,1,28,6
India,Gujarat,Ahmedabad,"SVPI Airport Hansol, Ahmedabad - IITM",17-09-2025 07:00:00,23.076793,72.627874,PM10,34,66,45
India,Gujarat,Nandesari,"GIDC, Nandesari - Nandesari Ind. Association",17-09-2025 07:00:00,22.410802,73.097923,NO2,NA,NA,NA
India,Gujarat,Nandesari,"GIDC, Nandesari - Nandesari Ind. Association",17-09-2025 07:00:00,22.410802,73.097923,SO2,3,25,13
India,Gujarat,Surat,"Science Center, Surat - SMC",17-09-2025 07:00:00,21.170046,72.795405,PM10,4,54,24
India,Gujarat,Vapi,"Phase-1 GIDC, Vapi - GPCB",17-09-2025 07:00:00,20.362421,72.918013,OZONE,2,2,2
India,Haryana,Gurugram,"NISE Gwal Pahari, Gurugram - IMD",17-09-2025 07:00:00,28.422681,77.148944,PM2.5,7,182,84
India,Haryana,Gurugram,"NISE Gwal Pahari, Gurugram - IMD",17-09-2025 07:00:00,28.422681,77.148944,CO,43,64,62
India,Delhi,Delhi,"Patparganj, Delhi - DPCC",17-09-2025 07:00:00,28.623763,77.287209,OZONE,5,130,17
India,Delhi,Delhi,"Punjabi Bagh, Delhi - DPCC",17-09-2025 07:00:00,28.674045,77.131023,CO,28,77,53
India,Delhi,Delhi,"Pusa, Delhi - DPCC",17-09-2025 07:00:00,28.639652,77.146275,PM2.5,33,88,57
India,Delhi,Delhi,"Pusa, Delhi - DPCC",17-09-2025 07:00:00,28.639652,77.146275,NH3,7,15,11
India,Delhi,Delhi,"Pusa, Delhi - DPCC",17-09-2025 07:00:00,28.639652,77.146275,SO2,5,36,21
India,Delhi,Delhi,"Pusa, Delhi - DPCC",17-09-2025 07:00:00,28.639652,77.146275,OZONE,3,52,11
India,Delhi,Delhi,"Pusa, Delhi - IMD",17-09-2025 07:00:00,28.636110,77.173332,PM10,42,129,94
India,Delhi,Delhi,"Pusa, Delhi - IMD",17-09-2025 07:00:00,28.636110,77.173332,NO2,8,35,15
India,Gujarat,Ankleshwar,"GIDC, Ankleshwar - GPCB",17-09-2025 07:00:00,21.613267,73.010555,PM10,64,64,64
India,Gujarat,Gandhinagar,"GIFT City, Gandhinagar - IITM",17-09-2025 07:00:00,23.163798,72.677768,PM2.5,26,59,39
India,Gujarat,Gandhinagar,"GIFT City, Gandhinagar - IITM",17-09-2025 07:00:00,23.163798,72.677768,OZONE,1,23,2
India,Gujarat,Gandhinagar,"IIPHG Lekawada, Gandhinagar - IITM",17-09-2025 07:00:00,23.243639,72.68994,PM2.5,29,66,41
India,Gujarat,Gandhinagar,"IIPHG Lekawada, Gandhinagar - IITM",17-09-2025 07:00:00,23.243639,72.68994,PM10,43,98,62
India,Gujarat,Gandhinagar,"IIPHG Lekawada, Gandhinagar - IITM",17-09-2025 07:00:00,23.243639,72.68994,OZONE,1,19,1
India,Delhi,Delhi,"Nehru Nagar, Delhi - DPCC",17-09-2025 07:00:00,28.567890,77.250515,PM10,55,137,99
India,Delhi,Delhi,"Nehru Nagar, Delhi - DPCC",17-09-2025 07:00:00,28.567890,77.250515,NO2,11,85,31
India,Delhi,Delhi,"North Campus, DU, Delhi - IMD",17-09-2025 07:00:00,28.6573814,77.1585447,OZONE,6,135,19
India,Delhi,Delhi,"Okhla Phase-2, Delhi - DPCC",17-09-2025 07:00:00,28.530785,77.271255,CO,27,100,59
India,Delhi,Delhi,"Patparganj, Delhi - DPCC",17-09-2025 07:00:00,28.623763,77.287209,PM2.5,48,147,69
India,Delhi,Delhi,"Vivek Vihar, Delhi - DPCC",17-09-2025 07:00:00,28.672342,77.315260,SO2,12,63,20
India,Delhi,Delhi,"Wazirpur, Delhi - DPCC",17-09-2025 07:00:00,28.699793,77.165453,PM2.5,39,151,72
India,Gujarat,Ahmedabad,"Chandkheda, Ahmedabad - IITM",17-09-2025 07:00:00,23.107969,72.574648,PM10,32,61,42
India,Gujarat,Ahmedabad,"Maninagar, Ahmedabad - GPCB",17-09-2025 07:00:00,23.002657,72.591912,PM10,21,73,40
India,Delhi,Delhi,"Mundka, Delhi - DPCC",17-09-2025 07:00:00,28.684678,77.076574,NH3,2,4,3
India,Delhi,Delhi,"Mundka, Delhi - DPCC",17-09-2025 07:00:00,28.684678,77.076574,CO,15,44,38
India,Delhi,Delhi,"NSIT Dwarka, Delhi - CPCB",17-09-2025 07:00:00,28.60909,77.0325413,NH3,5,7,6
India,Delhi,Delhi,"Najafgarh, Delhi - DPCC",17-09-2025 07:00:00,28.570173,76.933762,PM2.5,15,130,52
India,Delhi,Delhi,"Najafgarh, Delhi - DPCC",17-09-2025 07:00:00,28.570173,76.933762,OZONE,5,34,9
India,Kerala,Kollam,"Polayathode, Kollam - Kerala PCB",17-09-2025 07:00:00,8.8787,76.6073,OZONE,NA,NA,NA
India,Kerala,Thiruvananthapuram,"Kariavattom, Thiruvananthapuram - Kerala PCB",17-09-2025 07:00:00,8.563700,76.886500,SO2,1,26,7
India,Kerala,Thiruvananthapuram,"Kariavattom, Thiruvananthapuram - Kerala PCB",17-09-2025 07:00:00,8.563700,76.886500,OZONE,36,37,36
India,Kerala,Thiruvananthapuram,"Plammoodu, Thiruvananthapuram - Kerala PCB",17-09-2025 07:00:00,8.5149093,76.9435879,PM2.5,4,92,39
India,Kerala,Thiruvananthapuram,"Plammoodu, Thiruvananthapuram - Kerala PCB",17-09-2025 07:00:00,8.5149093,76.9435879,SO2,8,23,18
India,Kerala,Thiruvananthapuram,"Plammoodu, Thiruvananthapuram - Kerala PCB",17-09-2025 07:00:00,8.5149093,76.9435879,CO,8,38,10
India,Kerala,Thiruvananthapuram,"Plammoodu, Thiruvananthapuram - Kerala PCB",17-09-2025 07:00:00,8.5149093,76.9435879,OZONE,14,17,16
India,Madhya Pradesh,Bhopal,"Idgah Hills, Bhopal - MPPCB",17-09-2025 07:00:00,23.264759,77.381568,PM2.5,22,37,29
India,Madhya Pradesh,Bhopal,"Idgah Hills, Bhopal - MPPCB",17-09-2025 07:00:00,23.264759,77.381568,NH3,3,7,5
India,Madhya Pradesh,Bhopal,"Idgah Hills, Bhopal - MPPCB",17-09-2025 07:00:00,23.264759,77.381568,CO,12,44,18
India,Madhya Pradesh,Bhopal,"Idgah Hills, Bhopal - MPPCB",17-09-2025 07:00:00,23.264759,77.381568,OZONE,19,46,32
India,Karnataka,Bengaluru,"Jayanagar 5th Block, Bengaluru - KSPCB",17-09-2025 07:00:00,12.920984,77.584908,OZONE,1,1,1
India,Karnataka,Bengaluru,"Jigani, Bengaluru - KSPCB",17-09-2025 07:00:00,12.7816279,77.6299145,SO2,NA,NA,NA
India,Karnataka,Bengaluru,"Sanegurava Halli, Bengaluru - KSPCB",17-09-2025 07:00:00,12.990328,77.5431385,SO2,7,7,7
India,Karnataka,Bengaluru,"Silk Board, Bengaluru - KSPCB",17-09-2025 07:00:00,12.917348,77.622813,PM10,63,158,98
India,Karnataka,Bengaluru,"Silk Board, Bengaluru - KSPCB",17-09-2025 07:00:00,12.917348,77.622813,NO2,6,22,12
India,Karnataka,Bengaluru,"Silk Board, Bengaluru - KSPCB",17-09-2025 07:00:00,12.917348,77.622813,NH3,1,2,2
India,Karnataka,Bengaluru,"Silk Board, Bengaluru - KSPCB",17-09-2025 07:00:00,12.917348,77.622813,SO2,10,11,11
India,Karnataka,Chamarajanagar,"Urban, Chamarajanagar - KSPCB",17-09-2025 07:00:00,11.55358,76.55521,PM10,29,61,45
India,Karnataka,Mangalore,"Kadri, Mangalore - KSPCB",17-09-2025 07:00:00,12.889250,74.853000,SO2,6,7,6
India,Karnataka,Mysuru,"Hebbal 1st Stage, Mysuru - KSPCB",17-09-2025 07:00:00,12.21041,76.37376,PM2.5,NA,NA,NA
India,Karnataka,Mysuru,"Hebbal 1st Stage, Mysuru - KSPCB",17-09-2025 07:00:00,12.21041,76.37376,CO,NA,NA,NA
India,Karnataka,Ramanagara,"Vijay Nagar, Ramanagara - KSPCB",17-09-2025 07:00:00,12.733409,77.298051,PM2.5,NA,NA,NA
India,Karnataka,Ramanagara,"Vijay Nagar, Ramanagara - KSPCB",17-09-2025 07:00:00,12.733409,77.298051,NO2,NA,NA,NA
India,Karnataka,Shivamogga,"Vinoba Nagara, Shivamogga - KSPCB",17-09-2025 07:00:00,13.940000,75.555917,PM10,40,58,49
India,Karnataka,Shivamogga,"Vinoba Nagara, Shivamogga - KSPCB",17-09-2025 07:00:00,13.940000,75.555917,NH3,2,6,3
India,Karnataka,Shivamogga,"Vinoba Nagara, Shivamogga - KSPCB",17-09-2025 07:00:00,13.940000,75.555917,CO,8,36,13
India,Karnataka,Haveri,"Ashwini Nagar, Haveri - KSPCB",17-09-2025 07:00:00,14.791800,75.389600,SO2,NA,NA,NA
India,Karnataka,Hubballi,"Lingaraj Nagar, Hubballi - KSPCB",17-09-2025 07:00:00,15.3714823,75.1160168,NH3,1,2,1
India,Karnataka,Hubballi,"Lingaraj Nagar, Hubballi - KSPCB",17-09-2025 07:00:00,15.3714823,75.1160168,CO,12,20,14
India,Karnataka,Kalaburagi,"Lal Bahadur Shastri Nagar, Kalaburagi - KSPCB",17-09-2025 07:00:00,17.321993,76.822628,CO,36,60,36
India,Karnataka,Kalaburagi,"Mahatma Basaveswar Colony, Kalaburgi - KSPCB",17-09-2025 07:00:00,17.336318,76.847397,PM2.5,21,36,32
India,Karnataka,Koppal,"Diwator Nagar, Koppal - KSPCB",17-09-2025 07:00:00,15.347630,76.181767,PM2.5,NA,NA,NA
India,Karnataka,Vijayapura,"Ibrahimpur, Vijayapura - KSPCB",17-09-2025 07:00:00,16.802639,75.722694,NH3,1,1,1
India,Karnataka,Vijayapura,"Ibrahimpur, Vijayapura - KSPCB",17-09-2025 07:00:00,16.802639,75.722694,CO,12,34,24
India,Karnataka,Yadgir,"Collector Office, Yadgir - KSPCB",17-09-2025 07:00:00,16.7602,77.1428,SO2,14,35,18
India,Kerala,Eloor,"Udyogamandal, Eloor - Kerala PCB",17-09-2025 07:00:00,10.073232,76.302765,NO2,7,8,8
India,Kerala,Kannur,"Thavakkara, Kannur - Kerala PCB",17-09-2025 07:00:00,11.875000,75.373200,NH3,NA,NA,NA
India,Kerala,Kannur,"Thavakkara, Kannur - Kerala PCB",17-09-2025 07:00:00,11.875000,75.373200,SO2,NA,NA,NA
India,Karnataka,Bengaluru,"City Railway Station, Bengaluru - KSPCB",17-09-2025 07:00:00,12.9756843,77.5660749,NO2,46,53,50
India,Karnataka,Bengaluru,"City Railway Station, Bengaluru - KSPCB",17-09-2025 07:00:00,12.9756843,77.5660749,CO,60,62,60
India,Karnataka,Bengaluru,"Hebbal, Bengaluru - KSPCB",17-09-2025 07:00:00,13.029152,77.585901,SO2,3,11,6
India,Karnataka,Bengaluru,"Hombegowda Nagar, Bengaluru - KSPCB",17-09-2025 07:00:00,12.938539,77.590100,OZONE,4,23,9
India,Karnataka,Bengaluru,"Jayanagar 5th Block, Bengaluru - KSPCB",17-09-2025 07:00:00,12.920984,77.584908,PM2.5,7,38,20
India,Karnataka,Bengaluru,"Jayanagar 5th Block, Bengaluru - KSPCB",17-09-2025 07:00:00,12.920984,77.584908,NO2,11,48,25
India,Karnataka,Dharwad,"Kalabhavan, Dharwad - KSPCB",17-09-2025 07:00:00,15.459706,75.008381,OZONE,12,16,14
India,Karnataka,Hassan,"B.Katihalli, Hassan - KSPCB",17-09-2025 07:00:00,13.008556,76.125258,OZONE,1,1,1
India,Karnataka,Haveri,"Ashwini Nagar, Haveri - KSPCB",17-09-2025 07:00:00,14.791800,75.389600,PM2.5,NA,NA,NA
India,Madhya Pradesh,Bhopal,"Paryavaran Parisar, Bhopal - MPPCB",17-09-2025 07:00:00,23.210494,77.425409,SO2,10,14,12
India,Madhya Pradesh,Dewas,"Bhopal Chauraha, Dewas - MPPCB",17-09-2025 07:00:00,22.9682591,76.064118,PM2.5,15,60,28
India,Karnataka,Davanagere,"Devaraj Urs Badavane, Davanagere - KSPCB",17-09-2025 07:00:00,14.475800,75.905200,NH3,1,58,5
India,Karnataka,Davanagere,"Devaraj Urs Badavane, Davanagere - KSPCB",17-09-2025 07:00:00,14.475800,75.905200,SO2,1,6,3
India,Maharashtra,Kolhapur,"Shivaji University, Kolhapur - MPCB",17-09-2025 07:00:00,16.6870449,74.2505872,NH3,7,8,8
India,Maharashtra,Kolhapur,"Shivaji University, Kolhapur - MPCB",17-09-2025 07:00:00,16.6870449,74.2505872,CO,2,24,7
India,Maharashtra,Kolhapur,"Sinchan Bhavan, Kolhapur - MPCB",17-09-2025 07:00:00,16.7143745,74.2426398,PM2.5,13,37,24
India,Maharashtra,Latur,"Sawe Wadi, Latur - MPCB",17-09-2025 07:00:00,18.39963,76.57452,NH3,1,14,5
India,Maharashtra,Mahad,"Kamble Tarf Birwadi, Mahad - MPCB",17-09-2025 07:00:00,18.1023399,73.4783687,SO2,11,31,20
India,Maharashtra,Mahad,"Kamble Tarf Birwadi, Mahad - MPCB",17-09-2025 07:00:00,18.1023399,73.4783687,CO,2,53,35
India,Maharashtra,Mahad,"Kamble Tarf Birwadi, Mahad - MPCB",17-09-2025 07:00:00,18.1023399,73.4783687,OZONE,13,60,21
India,Maharashtra,Malegaon,"Mahesh Nagar, Malegaon - MPCB",17-09-2025 07:00:00,20.555712,74.529236,NO2,6,26,14
India,Maharashtra,Malegaon,"Mahesh Nagar, Malegaon - MPCB",17-09-2025 07:00:00,20.555712,74.529236,NH3,1,2,2
India,Maharashtra,Mira-Bhayandar,"Bhayandar West, Mira-Bhayandar - MPCB",17-09-2025 07:00:00,19.296481,72.840923,PM10,13,39,26
India,Madhya Pradesh,Jabalpur,"Suhagi, Jabalpur - JMC",17-09-2025 07:00:00,23.218135,79.957770,PM10,12,106,54
India,Madhya Pradesh,Jabalpur,"Suhagi, Jabalpur - JMC",17-09-2025 07:00:00,23.218135,79.957770,NO2,13,38,22
India,Madhya Pradesh,Jabalpur,"Suhagi, Jabalpur - JMC",17-09-2025 07:00:00,23.218135,79.957770,CO,30,70,37
India,Madhya Pradesh,Jabalpur,"Suhagi, Jabalpur - JMC",17-09-2025 07:00:00,23.218135,79.957770,OZONE,13,64,21
India,Madhya Pradesh,Katni,"Gole Bazar, Katni - MPPCB",17-09-2025 07:00:00,23.50016,80.23284,CO,27,35,31
India,Madhya Pradesh,Katni,"Gole Bazar, Katni - MPPCB",17-09-2025 07:00:00,23.50016,80.23284,OZONE,26,61,31
India,Madhya Pradesh,Mandideep,"Sector-D Industrial Area, Mandideep - MPPCB",17-09-2025 07:00:00,23.108440,77.511428,PM10,28,115,56
India,Madhya Pradesh,Mandideep,"Sector-D Industrial Area, Mandideep - MPPCB",17-09-2025 07:00:00,23.108440,77.511428,CO,19,57,28
India,Madhya Pradesh,Pithampur,"Sector-2 Industrial Area, Pithampur - MPPCB",17-09-2025 07:00:00,22.624758,75.675238,CO,6,27,12
India,Maharashtra,Amravati,"Shivneri Colony, Amravati - MPCB",17-09-2025 07:00:00,20.9402359,77.7895248,PM2.5,12,38,22
India,Maharashtra,Amravati,"Shivneri Colony, Amravati - MPCB",17-09-2025 07:00:00,20.9402359,77.7895248,SO2,1,7,2
India,Maharashtra,Amravati,"Shri Shivaji Science College, Amravati - MPCB",17-09-2025 07:00:00,20.939198,77.765701,SO2,3,7,4
India,Maharashtra,Amravati,"Shri Shivaji Science College, Amravati - MPCB",17-09-2025 07:00:00,20.939198,77.765701,CO,20,54,24
India,Maharashtra,Amravati,"Shri Shivaji Science College, Amravati - MPCB",17-09-2025 07:00:00,20.939198,77.765701,OZONE,1,42,5
India,Maharashtra,Aurangabad,"MIDC Chilkalthana, Aurangabad - MPCB",17-09-2025 07:00:00,19.875620,75.387310,NO2,NA,NA,NA
India,Maharashtra,Aurangabad,"More Chowk Waluj, Aurangabad - MPCB",17-09-2025 07:00:00,19.8389439,75.244448,SO2,14,17,15
India,Maharashtra,Aurangabad,"Rachnakar Colony, Aurangabad - MPCB",17-09-2025 07:00:00,19.863756,75.321188,OZONE,2,24,5
India,Maharashtra,Chandrapur,"MIDC Khutala, Chandrapur - MPCB",17-09-2025 07:00:00,19.9775302,79.2337086,OZONE,12,80,19
India,Maharashtra,Dhule,"Deopur, Dhule - MPCB",17-09-2025 07:00:00,20.918946,74.776388,SO2,NA,NA,NA
India,Maharashtra,Jalgaon,"Prabhat Colony, Jalgaon - MPCB",17-09-2025 07:00:00,21.001264,75.565602,NO2,3,25,7
India,Maharashtra,Jalna,"Old MIDC, Jalna - MPCB",17-09-2025 07:00:00,19.854616,75.905894,CO,2,38,9
India,Maharashtra,Kalyan,"Khadakpada, Kalyan - MPCB",17-09-2025 07:00:00,19.25292,73.142019,SO2,7,10,8
India,Maharashtra,Kolhapur,"Shivaji University, Kolhapur - MPCB",17-09-2025 07:00:00,16.6870449,74.2505872,PM2.5,22,29,24
India,Maharashtra,Badlapur,"Katrap, Badlapur - MPCB",17-09-2025 07:00:00,19.16485,73.23409,PM10,22,433,64
India,Maharashtra,Belapur,"CBD Belapur, Belapur - MPCB",17-09-2025 07:00:00,19.0243902,73.0406721,NH3,5,8,6
India,Maharashtra,Boisar,"Khaira, Boisar - MPCB",17-09-2025 07:00:00,19.786089,72.757971,PM10,24,71,45
India,Maharashtra,Chandrapur,"Chauhan Colony, Chandrapur - MPCB",17-09-2025 07:00:00,19.962900,79.298714,PM2.5,2,20,10
India,Maharashtra,Chandrapur,"Chauhan Colony, Chandrapur - MPCB",17-09-2025 07:00:00,19.962900,79.298714,OZONE,19,19,19
India,Maharashtra,Chandrapur,"MIDC Khutala, Chandrapur - MPCB",17-09-2025 07:00:00,19.9775302,79.2337086,SO2,1,10,3
India,Madhya Pradesh,Indore,"Residency Area, Indore - IMC",17-09-2025 07:00:00,22.7084,75.8815,CO,12,14,14
India,Madhya Pradesh,Indore,"Residency Area, Indore - IMC",17-09-2025 07:00:00,22.7084,75.8815,OZONE,7,13,9
India,Madhya Pradesh,Jabalpur,"Govindh Bhavan Colony, Jabalpur - JMC",17-09-2025 07:00:00,23.163174,79.973061,PM10,23,42,32
India,Madhya Pradesh,Jabalpur,"Gupteshwar, Jabalpur - JMC",17-09-2025 07:00:00,23.142888,79.916147,SO2,2,20,9
India,Madhya Pradesh,Jabalpur,"Gupteshwar, Jabalpur - JMC",17-09-2025 07:00:00,23.142888,79.916147,CO,35,87,37
India,Madhya Pradesh,Jabalpur,"Marhatal, Jabalpur - MPPCB",17-09-2025 07:00:00,23.168606,79.932247,NH3,NA,NA,NA
India,Madhya Pradesh,Jabalpur,"Marhatal, Jabalpur - MPPCB",17-09-2025 07:00:00,23.168606,79.932247,CO,NA,NA,NA
India,Maharashtra,Mira-Bhayandar,"Bhayandar West, Mira-Bhayandar - MPCB",17-09-2025 07:00:00,19.296481,72.840923,NO2,3,50,21
India,Maharashtra,Mira-Bhayandar,"Bhayandar West, Mira-Bhayandar - MPCB",17-09-2025 07:00:00,19.296481,72.840923,OZONE,NA,NA,NA
India,Maharashtra,Mumbai,"Bandra Kurla Complex, Mumbai - MPCB",17-09-2025 07:00:00,19.065931,72.862131,NO2,16,41,25
India,Maharashtra,Mumbai,"Borivali East, Mumbai - IITM",17-09-2025 07:00:00,19.23241,72.86895,CO,16,30,22
India,Maharashtra,Mumbai,"Borivali East, Mumbai - IITM",17-09-2025 07:00:00,19.23241,72.86895,OZONE,1,8,1
India,Madhya Pradesh,Gwalior,"Maharaj Bada, Gwalior - MPPCB",17-09-2025 07:00:00,26.200388,78.147714,PM2.5,27,62,46
India,Madhya Pradesh,Gwalior,"Maharaj Bada, Gwalior - MPPCB",17-09-2025 07:00:00,26.200388,78.147714,OZONE,18,42,27
India,Madhya Pradesh,Indore,"Maguda Nagar, Indore - IMC",17-09-2025 07:00:00,22.7524,75.8872,SO2,36,39,38
India,Madhya Pradesh,Indore,"Regional Park, Indore - IMC",17-09-2025 07:00:00,22.6780,75.8559,NH3,1,1,1
