country,state,city,station,last_update,latitude,longitude,pollutant_id,min_value,max_value,avg_value
India,Bihar,Kishanganj,"SDM Office_Khagra, Kishanganj - BSPCB",02-12-2025 07:00:00,26.0881305,87.93840336,NO2,10,13,11
India,Bihar,Kishanganj,"SDM Office_Khagra, Kishanganj - BSPCB",02-12-2025 07:00:00,26.0881305,87.93840336,NH3,3,3,3
India,Bihar,Kishanganj,"SDM Office_Khagra, Kishanganj - BSPCB",02-12-2025 07:00:00,26.0881305,87.93840336,CO,18,24,20
India,Bihar,Kishanganj,"SDM Office_Khagra, Kishanganj - BSPCB",02-12-2025 07:00:00,26.0881305,87.93840336,OZONE,16,19,17
India,Bihar,Manguraha,"Forest Rest House, Manguraha - BSPCB",02-12-2025 07:00:00,27.308328,84.531742,OZONE,10,20,12
India,Bihar,Motihari,"Gandak Colony, Motihari - BSPCB",02-12-2025 07:00:00,26.63086,84.90051,NH3,3,3,3
India,Bihar,Motihari,"Gandak Colony, Motihari - BSPCB",02-12-2025 07:00:00,26.63086,84.90051,CO,42,63,44
India,Bihar,Munger,"Town Hall, Munger - BSPCB",02-12-2025 07:00:00,25.376776,86.471523,NO2,4,5,5
India,Bihar,Begusarai,"Lohiyanagar, Begusarai - BSPCB",02-12-2025 07:00:00,25.42742023,86.13886079,NH3,2,5,4
India,Bihar,Bettiah,"Kamalnath Nagar, Bettiah - BSPCB",02-12-2025 07:00:00,26.80365,84.51954,SO2,1,27,7
India,Bihar,Bettiah,"Kamalnath Nagar, Bettiah - BSPCB",02-12-2025 07:00:00,26.80365,84.51954,OZONE,21,23,22
India,Bihar,Bhagalpur,"DM Office_Kachari Chowk, Bhagalpur - BSPCB",02-12-2025 07:00:00,25.251013,86.989001,NO2,6,11,8
India,Bihar,Bhagalpur,"DM Office_Kachari Chowk, Bhagalpur - BSPCB",02-12-2025 07:00:00,25.251013,86.989001,CO,12,18,16
India,Bihar,Bhagalpur,"Mayaganj, Bhagalpur - BSPCB",02-12-2025 07:00:00,25.265194,87.012947,PM10,64,123,94
India,Bihar,Bhagalpur,"Mayaganj, Bhagalpur - BSPCB",02-12-2025 07:00:00,25.265194,87.012947,SO2,43,81,63
India,Bihar,Gaya,"Kareemganj, Gaya - BSPCB",02-12-2025 07:00:00,24.792403,84.992416,NO2,3,6,5
India,Bihar,Gaya,"Kareemganj, Gaya - BSPCB",02-12-2025 07:00:00,24.792403,84.992416,CO,38,40,39
India,Bihar,Gaya,"SFTI Kusdihra, Gaya - BSPCB",02-12-2025 07:00:00,24.762518,84.982348,NH3,3,3,3
India,Bihar,Gaya,"SFTI Kusdihra, Gaya - BSPCB",02-12-2025 07:00:00,24.762518,84.982348,CO,23,46,43
India,Bihar,Hajipur,"Industrial Area, Hajipur - BSPCB",02-12-2025 07:00:00,25.697189,85.245900,CO,15,119,78
India,Bihar,Katihar,"Mirchaibari, Katihar - BSPCB",02-12-2025 07:00:00,25.560083,87.553265,PM2.5,75,223,115
India,Bihar,Katihar,"Mirchaibari, Katihar - BSPCB",02-12-2025 07:00:00,25.560083,87.553265,PM10,69,131,93
India,Assam,Guwahati,"LGBI Airport, Guwahati - PCBA",02-12-2025 07:00:00,26.10887,91.589544,NO2,8,218,24
India,Assam,Guwahati,"LGBI Airport, Guwahati - PCBA",02-12-2025 07:00:00,26.10887,91.589544,CO,24,184,35
India,Assam,Guwahati,"Pan Bazaar, Guwahati - PCBA",02-12-2025 07:00:00,26.187500,91.744194,CO,18,90,52
India,Assam,Nagaon,"Christianpatty, Nagaon - PCBA",02-12-2025 07:00:00,26.349082,92.68449,PM10,55,58,57
India,Assam,Nalbari,"Bata Chowk, Nalbari - PCBA",02-12-2025 07:00:00,26.446912,91.439057,NH3,6,6,6
India,Assam,Nalbari,"Bata Chowk, Nalbari - PCBA",02-12-2025 07:00:00,26.446912,91.439057,CO,20,22,21
India,Andhra_Pradesh,Chittoor,"Gangineni Cheruvu, Chittoor - APPCB",02-12-2025 07:00:00,13.204880,79.097889,PM10,25,126,49
India,Andhra_Pradesh,Chittoor,"Gangineni Cheruvu, Chittoor - APPCB",02-12-2025 07:00:00,13.204880,79.097889,NO2,20,23,22
India,Andhra_Pradesh,Kadapa,"Yerramukkapalli, Kadapa - APPCB",02-12-2025 07:00:00,14.465052,78.824187,CO,20,46,34
India,Andhra_Pradesh,Kadapa,"Yerramukkapalli, Kadapa - APPCB",02-12-2025 07:00:00,14.465052,78.824187,OZONE,21,24,23
India,Andhra_Pradesh,Rajamahendravaram,"Anand Kala Kshetram, Rajamahendravaram - APPCB",02-12-2025 07:00:00,16.9872867,81.7363176,PM2.5,48,88,71
India,Andhra_Pradesh,Vijayawada,"Rajiv Nagar, Vijayawada - APPCB",02-12-2025 07:00:00,16.554731,80.649110,CO,26,40,29
India,Andhra_Pradesh,Visakhapatnam,"GVM Corporation, Visakhapatnam - APPCB",02-12-2025 07:00:00,17.72,83.3,PM2.5,66,206,136
India,Andhra_Pradesh,Visakhapatnam,"GVM Corporation, Visakhapatnam - APPCB",02-12-2025 07:00:00,17.72,83.3,NH3,2,4,3
India,Arunachal_Pradesh,Naharlagun,"Naharlagun, Naharlagun - APSPCB",02-12-2025 07:00:00,27.103358,93.679645,PM2.5,16,237,109
India,Assam,Silchar,"Tarapur, Silchar - PCBA",02-12-2025 07:00:00,24.82827,92.79525,NO2,20,25,23
India,Bihar,Araria,"Kharahiya Basti, Araria - BSPCB",02-12-2025 07:00:00,26.146529,87.454184,OZONE,10,11,10
India,Bihar,Aurangabad,"Gurdeo Nagar, Aurangabad - BSPCB",02-12-2025 07:00:00,24.75746,84.366208,SO2,9,19,13
India,Andhra_Pradesh,Vijayawada,"HB Colony, Vijayawada - APPCB",02-12-2025 07:00:00,16.536107,80.594233,CO,32,40,32
India,Andhra_Pradesh,Vijayawada,"Rajiv Gandhi Park, Vijayawada - APPCB",02-12-2025 07:00:00,16.509717,80.612222,PM10,40,74,63
India,Andhra_Pradesh,Anantapur,"Gulzarpet, Anantapur - APPCB",02-12-2025 07:00:00,14.675886,77.593027,PM2.5,42,75,60
India,Andhra_Pradesh,Anantapur,"Gulzarpet, Anantapur - APPCB",02-12-2025 07:00:00,14.675886,77.593027,NH3,4,5,5
India,Bihar,Chhapra,"Darshan Nagar, Chhapra - BSPCB",02-12-2025 07:00:00,25.7808257,84.7446768,NO2,2,3,2
India,Chhattisgarh,Raipur,"AIIMS, Raipur - CECB",02-12-2025 07:00:00,21.258815,81.578979,PM2.5,45,167,80
India,Chhattisgarh,Raipur,"AIIMS, Raipur - CECB",02-12-2025 07:00:00,21.258815,81.578979,SO2,3,12,6
India,Chhattisgarh,Raipur,"AIIMS, Raipur - CECB",02-12-2025 07:00:00,21.258815,81.578979,CO,26,50,37
India,Chhattisgarh,Raipur,"Bhatagaon New ISBT, Raipur - CECB",02-12-2025 07:00:00,21.219665,81.630094,PM2.5,32,64,45
India,Chhattisgarh,Raipur,"Bhatagaon New ISBT, Raipur - CECB",02-12-2025 07:00:00,21.219665,81.630094,NO2,22,43,28
India,Chhattisgarh,Raipur,"Krishak Nagar, Raipur - CECB",02-12-2025 07:00:00,21.237755,81.705301,CO,22,34,29
India,Chhattisgarh,Raipur,"Siltara Phase-II, Raipur - CECB",02-12-2025 07:00:00,21.371751,81.664929,PM10,33,160,85
India,Chhattisgarh,Raipur,"Siltara Phase-II, Raipur - CECB",02-12-2025 07:00:00,21.371751,81.664929,SO2,4,15,7
India,Bihar,Muzaffarpur,"Buddha Colony, Muzaffarpur - BSPCB",02-12-2025 07:00:00,26.11442,85.39813,PM10,49,128,100
India,Bihar,Muzaffarpur,"Buddha Colony, Muzaffarpur - BSPCB",02-12-2025 07:00:00,26.11442,85.39813,NH3,7,12,9
India,Bihar,Muzaffarpur,"Buddha Colony, Muzaffarpur - BSPCB",02-12-2025 07:00:00,26.11442,85.39813,SO2,5,9,7
India,Bihar,Muzaffarpur,"Muzaffarpur Collectorate, Muzaffarpur - BSPCB",02-12-2025 07:00:00,26.1209,85.3647,CO,8,41,16
India,Bihar,Patna,"Govt. High School Shikarpur, Patna - BSPCB",02-12-2025 07:00:00,25.592539,85.227158,PM2.5,57,73,67
India,Bihar,Patna,"Govt. High School Shikarpur, Patna - BSPCB",02-12-2025 07:00:00,25.592539,85.227158,NO2,17,47,28
India,Bihar,Rajgir,"Dangi Tola, Rajgir - BSPCB",02-12-2025 07:00:00,25.03280,85.41948,NH3,6,7,6
India,Bihar,Rajgir,"Dangi Tola, Rajgir - BSPCB",02-12-2025 07:00:00,25.03280,85.41948,OZONE,28,34,33
India,Bihar,Saharsa,"Police Line, Saharsa - BSPCB",02-12-2025 07:00:00,25.892357,86.590325,SO2,16,18,17
India,Bihar,Samastipur,"DM Office_Kasipur, Samastipur - BSPCB",02-12-2025 07:00:00,25.859655,85.77944,PM2.5,37,280,95
India,Bihar,Sasaram,"Dada Peer, Sasaram - BSPCB",02-12-2025 07:00:00,24.952822,84.002396,NO2,2,5,2
India,Bihar,Siwan,"Chitragupta Nagar, Siwan - BSPCB",02-12-2025 07:00:00,26.2271665,84.3570427,PM10,35,103,76
India,Bihar,Siwan,"Chitragupta Nagar, Siwan - BSPCB",02-12-2025 07:00:00,26.2271665,84.3570427,NO2,1,2,1
India,Bihar,Siwan,"Chitragupta Nagar, Siwan - BSPCB",02-12-2025 07:00:00,26.2271665,84.3570427,OZONE,6,7,6
India,Chandigarh,Chandigarh,"Sector 22, Chandigarh - CPCC",02-12-2025 07:00:00,30.735567,76.775714,NO2,28,169,81
India,Chandigarh,Chandigarh,"Sector-25, Chandigarh - CPCC",02-12-2025 07:00:00,30.751462,76.762879,NH3,3,5,4
India,Delhi,Delhi,"CRRI Mathura Road, Delhi - IMD",02-12-2025 07:00:00,28.5512005,77.2735737,NO2,28,54,41
India,Delhi,Delhi,"CRRI Mathura Road, Delhi - IMD",02-12-2025 07:00:00,28.5512005,77.2735737,CO,32,138,134
India,Delhi,Delhi,"Chandni Chowk, Delhi - IITM",02-12-2025 07:00:00,28.656756,77.227234,NO2,35,145,88
India,Delhi,Delhi,"Chandni Chowk, Delhi - IITM",02-12-2025 07:00:00,28.656756,77.227234,OZONE,2,82,4
India,Delhi,Delhi,"DTU, Delhi - CPCB",02-12-2025 07:00:00,28.7500499,77.1112615,PM10,122,418,252
India,Bihar,Patna,"Samanpura, Patna - BSPCB",02-12-2025 07:00:00,25.596727,85.085624,NO2,20,21,20
India,Bihar,Patna,"Samanpura, Patna - BSPCB",02-12-2025 07:00:00,25.596727,85.085624,SO2,1,2,2
India,Bihar,Purnia,"Mariam Nagar, Purnia - BSPCB",02-12-2025 07:00:00,25.366336,87.117468,NH3,3,3,3
India,Bihar,Purnia,"Mariam Nagar, Purnia - BSPCB",02-12-2025 07:00:00,25.366336,87.117468,CO,56,70,62
India,Bihar,Rajgir,"Dangi Tola, Rajgir - BSPCB",02-12-2025 07:00:00,25.03280,85.41948,PM2.5,37,113,76
India,Delhi,Delhi,"Anand Vihar, Delhi - DPCC",02-12-2025 07:00:00,28.647622,77.3158090,NH3,11,18,14
India,Delhi,Delhi,"Ashok Vihar, Delhi - DPCC",02-12-2025 07:00:00,28.695381,77.181665,NH3,6,7,6
India,Delhi,Delhi,"Ashok Vihar, Delhi - DPCC",02-12-2025 07:00:00,28.695381,77.181665,CO,8,129,91
India,Delhi,Delhi,"Aya Nagar, Delhi - IMD",02-12-2025 07:00:00,28.4706914,77.1099364,PM10,141,482,317
India,Chhattisgarh,Kunjemura,"OP Jindal School, Kunjemura - CECB",02-12-2025 07:00:00,22.126650,83.483212,NO2,12,47,25
India,Chhattisgarh,Kunjemura,"OP Jindal School, Kunjemura - CECB",02-12-2025 07:00:00,22.126650,83.483212,NH3,2,2,2
India,Chhattisgarh,Milupara,"Govt. Higher Secondary School, Milupara - CECB",02-12-2025 07:00:00,22.1910172,83.5197009,PM2.5,57,116,76
India,Chhattisgarh,Bhilai,"32Bungalows, Bhilai - CECB",02-12-2025 07:00:00,21.194815,81.314770,PM10,55,98,67
India,Chhattisgarh,Bhilai,"Civic Center, Bhilai - Bhilai Steel Plant",02-12-2025 07:00:00,21.185571,81.343175,PM10,35,134,59
India,Delhi,Delhi,"Vivek Vihar, Delhi - DPCC",02-12-2025 07:00:00,28.672342,77.315260,PM2.5,307,500,395
India,Delhi,Delhi,"Wazirpur, Delhi - DPCC",02-12-2025 07:00:00,28.699793,77.165453,OZONE,2,158,12
India,Gujarat,Ahmedabad,"Chandkheda, Ahmedabad - IITM",02-12-2025 07:00:00,23.107969,72.574648,PM2.5,NA,NA,NA
India,Gujarat,Ahmedabad,"Chandkheda, Ahmedabad - IITM",02-12-2025 07:00:00,23.107969,72.574648,PM10,77,169,125
India,Gujarat,Ahmedabad,"Chandkheda, Ahmedabad - IITM",02-12-2025 07:00:00,23.107969,72.574648,SO2,9,17,14
India,Gujarat,Ahmedabad,"Gyaspur, Ahmedabad - IITM",02-12-2025 07:00:00,22.977134,72.553024,PM2.5,194,356,270
India,Gujarat,Ahmedabad,"Gyaspur, Ahmedabad - IITM",02-12-2025 07:00:00,22.977134,72.553024,PM10,NA,NA,NA
India,Gujarat,Ahmedabad,"Gyaspur, Ahmedabad - IITM",02-12-2025 07:00:00,22.977134,72.553024,NO2,38,268,113
India,Delhi,Delhi,"DTU, Delhi - CPCB",02-12-2025 07:00:00,28.7500499,77.1112615,OZONE,13,31,19
India,Delhi,Delhi,"Dr. Karni Singh Shooting Range, Delhi - DPCC",02-12-2025 07:00:00,28.498571,77.264840,CO,24,116,94
India,Delhi,Delhi,"Dwarka-Sector 8, Delhi - DPCC ",02-12-2025 07:00:00,28.5710274,77.0719006,PM2.5,130,407,324
India,Delhi,Delhi,"Dwarka-Sector 8, Delhi - DPCC ",02-12-2025 07:00:00,28.5710274,77.0719006,NO2,58,166,122
India,Delhi,Delhi,"Dwarka-Sector 8, Delhi - DPCC ",02-12-2025 07:00:00,28.5710274,77.0719006,SO2,3,38,29
India,Delhi,Delhi,"IHBAS, Dilshad Garden, Delhi - CPCB",02-12-2025 07:00:00,28.6811736,77.3025234,PM2.5,311,500,379
India,Delhi,Delhi,"IHBAS, Dilshad Garden, Delhi - CPCB",02-12-2025 07:00:00,28.6811736,77.3025234,NO2,21,174,84
India,Delhi,Delhi,"Pusa, Delhi - DPCC",02-12-2025 07:00:00,28.639652,77.146275,NO2,69,204,131
India,Delhi,Delhi,"Pusa, Delhi - DPCC",02-12-2025 07:00:00,28.639652,77.146275,SO2,2,16,8
India,Delhi,Delhi,"Pusa, Delhi - DPCC",02-12-2025 07:00:00,28.639652,77.146275,OZONE,11,22,18
India,Delhi,Delhi,"Pusa, Delhi - IMD",02-12-2025 07:00:00,28.636110,77.173332,PM2.5,126,391,299
India,Delhi,Delhi,"Pusa, Delhi - IMD",02-12-2025 07:00:00,28.636110,77.173332,PM10,117,359,241
India,Delhi,Delhi,"Rohini, Delhi - DPCC",02-12-2025 07:00:00,28.732528,77.119920,PM2.5,133,473,354
India,Delhi,Delhi,"Rohini, Delhi - DPCC",02-12-2025 07:00:00,28.732528,77.119920,PM10,131,500,337
India,Delhi,Delhi,"IIT Delhi, Delhi - IITM",02-12-2025 07:00:00,28.542460,77.191651,PM10,NA,NA,NA
India,Delhi,Delhi,"IIT Delhi, Delhi - IITM",02-12-2025 07:00:00,28.542460,77.191651,NO2,NA,NA,NA
India,Delhi,Delhi,"ITO, Delhi - CPCB",02-12-2025 07:00:00,28.628624,77.241060,NO2,39,240,128
India,Delhi,Delhi,"ITO, Delhi - CPCB",02-12-2025 07:00:00,28.628624,77.241060,NH3,1,7,4
India,Delhi,Delhi,"ITO, Delhi - CPCB",02-12-2025 07:00:00,28.628624,77.241060,OZONE,11,98,12
India,Delhi,Delhi,"Jahangirpuri, Delhi - DPCC",02-12-2025 07:00:00,28.732820,77.170633,NH3,8,10,9
India,Delhi,Delhi,"Jahangirpuri, Delhi - DPCC",02-12-2025 07:00:00,28.732820,77.170633,SO2,27,48,35
India,Delhi,Delhi,"Shadipur, Delhi - CPCB",02-12-2025 07:00:00,28.6514781,77.1473105,PM2.5,321,345,327
India,Delhi,Delhi,"Sirifort, Delhi - CPCB",02-12-2025 07:00:00,28.5504249,77.2159377,PM2.5,170,460,336
India,Delhi,Delhi,"Sirifort, Delhi - CPCB",02-12-2025 07:00:00,28.5504249,77.2159377,NH3,11,12,12
India,Delhi,Delhi,"Sonia Vihar, Delhi - DPCC",02-12-2025 07:00:00,28.710508,77.249485,PM10,171,452,322
India,Delhi,Delhi,"Sri Aurobindo Marg, Delhi - DPCC",02-12-2025 07:00:00,28.531346,77.190156,PM10,117,273,194
India,Delhi,Delhi,"NSIT Dwarka, Delhi - CPCB",02-12-2025 07:00:00,28.60909,77.0325413,OZONE,8,139,10
India,Delhi,Delhi,"Najafgarh, Delhi - DPCC",02-12-2025 07:00:00,28.570173,76.933762,NH3,8,11,9
India,Delhi,Delhi,"Narela, Delhi - DPCC",02-12-2025 07:00:00,28.822836,77.101981,PM2.5,157,500,366
India,Delhi,Delhi,"Nehru Nagar, Delhi - DPCC",02-12-2025 07:00:00,28.567890,77.250515,NO2,39,135,86
India,Delhi,Delhi,"Nehru Nagar, Delhi - DPCC",02-12-2025 07:00:00,28.567890,77.250515,CO,119,164,157
India,Delhi,Delhi,"Okhla Phase-2, Delhi - DPCC",02-12-2025 07:00:00,28.530785,77.271255,PM10,130,480,335
India,Delhi,Delhi,"Okhla Phase-2, Delhi - DPCC",02-12-2025 07:00:00,28.530785,77.271255,NO2,99,229,166
India,Delhi,Delhi,"Okhla Phase-2, Delhi - DPCC",02-12-2025 07:00:00,28.530785,77.271255,CO,NA,NA,NA
India,Delhi,Delhi,"Okhla Phase-2, Delhi - DPCC",02-12-2025 07:00:00,28.530785,77.271255,OZONE,8,194,18
India,Delhi,Delhi,"Patparganj, Delhi - DPCC",02-12-2025 07:00:00,28.623763,77.287209,OZONE,3,199,31
India,Delhi,Delhi,"Punjabi Bagh, Delhi - DPCC",02-12-2025 07:00:00,28.674045,77.131023,NH3,4,5,4
India,Gujarat,Ahmedabad,"Maninagar, Ahmedabad - GPCB",02-12-2025 07:00:00,23.002657,72.591912,OZONE,12,84,40
India,Gujarat,Ahmedabad,"Raikhad, Ahmedabad - IITM",02-12-2025 07:00:00,23.020509,72.579261,PM2.5,NA,NA,NA
India,Gujarat,Ahmedabad,"Raikhad, Ahmedabad - IITM",02-12-2025 07:00:00,23.020509,72.579261,PM10,103,245,162
India,Gujarat,Ahmedabad,"Raikhad, Ahmedabad - IITM",02-12-2025 07:00:00,23.020509,72.579261,NO2,NA,NA,NA
India,Gujarat,Ahmedabad,"Rakhial, Ahmedabad - IITM",02-12-2025 07:00:00,23.016834,72.625775,PM2.5,65,258,166
India,Gujarat,Ahmedabad,"Rakhial, Ahmedabad - IITM",02-12-2025 07:00:00,23.016834,72.625775,SO2,19,61,42
India,Delhi,Delhi,"Lodhi Road, Delhi - IITM",02-12-2025 07:00:00,28.588333,77.221667,PM2.5,103,351,264
India,Delhi,Delhi,"Lodhi Road, Delhi - IITM",02-12-2025 07:00:00,28.588333,77.221667,SO2,5,25,14
India,Delhi,Delhi,"Major Dhyan Chand National Stadium, Delhi - DPCC",02-12-2025 07:00:00,28.611281,77.237738,OZONE,1,189,1
India,Delhi,Delhi,"Mandir Marg, Delhi - DPCC",02-12-2025 07:00:00,28.636429,77.201067,SO2,41,103,67
India,Delhi,Delhi,"Mandir Marg, Delhi - DPCC",02-12-2025 07:00:00,28.636429,77.201067,CO,48,120,93
India,Haryana,Gurugram,"Teri Gram, Gurugram - HSPCB",02-12-2025 07:00:00,28.4275,77.1465,PM10,118,247,190
India,Haryana,Gurugram,"Teri Gram, Gurugram - HSPCB",02-12-2025 07:00:00,28.4275,77.1465,NO2,36,76,53
India,Haryana,Gurugram,"Teri Gram, Gurugram - HSPCB",02-12-2025 07:00:00,28.4275,77.1465,SO2,NA,NA,NA
India,Haryana,Gurugram,"Teri Gram, Gurugram - HSPCB",02-12-2025 07:00:00,28.4275,77.1465,OZONE,9,43,12
India,Haryana,Gurugram,"Vikas Sadan, Gurugram - HSPCB",02-12-2025 07:00:00,28.4501238,77.0263051,PM2.5,152,303,183
India,Haryana,Gurugram,"Vikas Sadan, Gurugram - HSPCB",02-12-2025 07:00:00,28.4501238,77.0263051,OZONE,6,43,13
India,Haryana,Hisar,"Urban Estate-II, Hisar - HSPCB",02-12-2025 07:00:00,29.140560,75.744941,PM2.5,43,155,91
India,Haryana,Hisar,"Urban Estate-II, Hisar - HSPCB",02-12-2025 07:00:00,29.140560,75.744941,CO,36,118,64
India,Haryana,Jind,"Police Lines, Jind - HSPCB",02-12-2025 07:00:00,29.307814,76.337619,PM10,96,165,126
India,Haryana,Jind,"Police Lines, Jind - HSPCB",02-12-2025 07:00:00,29.307814,76.337619,NH3,2,3,2
India,Haryana,Faridabad,"Sector 11, Faridabad - HSPCB",02-12-2025 07:00:00,28.376058,77.315741,CO,10,109,55
India,Haryana,Faridabad,"Sector 30, Faridabad - HSPCB",02-12-2025 07:00:00,28.4417,77.3217,PM10,145,154,151
India,Haryana,Faridabad,"Sector 30, Faridabad - HSPCB",02-12-2025 07:00:00,28.4417,77.3217,NO2,36,39,38
India,Haryana,Faridabad,"Sector 30, Faridabad - HSPCB",02-12-2025 07:00:00,28.4417,77.3217,CO,58,66,63
India,Haryana,Fatehabad,"Huda Sector, Fatehabad - HSPCB",02-12-2025 07:00:00,29.503664,75.467934,PM10,111,175,140
India,Haryana,Fatehabad,"Huda Sector, Fatehabad - HSPCB",02-12-2025 07:00:00,29.503664,75.467934,NH3,13,15,14
India,Haryana,Gurugram,"NISE Gwal Pahari, Gurugram - IMD",02-12-2025 07:00:00,28.422681,77.148944,OZONE,7,128,10
India,Haryana,Gurugram,"Sector-51, Gurugram - HSPCB",02-12-2025 07:00:00,28.4227,77.0667,PM2.5,140,394,308
India,Haryana,Kaithal,"Rishi Nagar, Kaithal - HSPCB",02-12-2025 07:00:00,29.8006,76.4155,OZONE,7,23,10
India,Haryana,Karnal,"Sector-12, Karnal - HSPCB",02-12-2025 07:00:00,29.695300,77.002700,NO2,6,7,6
India,Haryana,Karnal,"Sector-12, Karnal - HSPCB",02-12-2025 07:00:00,29.695300,77.002700,SO2,37,77,52
India,Haryana,Kurukshetra,"Sector-7, Kurukshetra - HSPCB",02-12-2025 07:00:00,29.966942,76.875879,PM2.5,NA,NA,NA
India,Haryana,Kurukshetra,"Sector-7, Kurukshetra - HSPCB",02-12-2025 07:00:00,29.966942,76.875879,SO2,NA,NA,NA
India,Haryana,Mandikhera,"General Hospital, Mandikhera(Nuh) - HSPCB",02-12-2025 07:00:00,27.9002,76.9938,NO2,20,23,21
India,Haryana,Manesar,"Sector-2 IMT, Manesar - HSPCB",02-12-2025 07:00:00,28.360699,76.936090,PM10,88,500,246
India,Haryana,Narnaul,"Shastri Nagar, Narnaul - HSPCB",02-12-2025 07:00:00,28.060249,76.113115,PM2.5,144,290,188
India,Haryana,Narnaul,"Shastri Nagar, Narnaul - HSPCB",02-12-2025 07:00:00,28.060249,76.113115,SO2,5,7,6
India,Haryana,Narnaul,"Shastri Nagar, Narnaul - HSPCB",02-12-2025 07:00:00,28.060249,76.113115,OZONE,4,7,5
India,Haryana,Palwal,"Shyam Nagar, Palwal - HSPCB",02-12-2025 07:00:00,28.1485564,77.3320667,PM2.5,90,186,139
India,Haryana,Panchgaon,"Amity University, Panchgaon - IITM",02-12-2025 07:00:00,28.3153,76.9143,PM2.5,54,191,93
India,Haryana,Panchgaon,"Amity University, Panchgaon - IITM",02-12-2025 07:00:00,28.3153,76.9143,PM10,68,145,99
India,Haryana,Panchgaon,"Amity University, Panchgaon - IITM",02-12-2025 07:00:00,28.3153,76.9143,OZONE,2,60,18
India,Haryana,Charkhi Dadri,"Mini Secretariat, Charkhi Dadri - HSPCB",02-12-2025 07:00:00,28.593883,76.270653,NH3,5,8,6
India,Haryana,Charkhi Dadri,"Mini Secretariat, Charkhi Dadri - HSPCB",02-12-2025 07:00:00,28.593883,76.270653,SO2,10,11,10
India,Haryana,Dharuhera,"Municipal Corporation Office, Dharuhera -  HSPCB",02-12-2025 07:00:00,28.206800,76.799700,PM2.5,140,436,317
India,Haryana,Faridabad,"New Industrial Town, Faridabad - HSPCB",02-12-2025 07:00:00,28.39072,77.30059,NH3,10,12,11
India,Haryana,Faridabad,"Sector 11, Faridabad - HSPCB",02-12-2025 07:00:00,28.376058,77.315741,PM10,93,432,254
India,Haryana,Panipat,"Sector-18, Panipat - HSPCB",02-12-2025 07:00:00,29.432304,76.972765,NO2,31,32,31
India,Haryana,Panipat,"Sector-18, Panipat - HSPCB",02-12-2025 07:00:00,29.432304,76.972765,SO2,11,11,11
India,Haryana,Rohtak,"MD University, Rohtak - HSPCB",02-12-2025 07:00:00,28.52123,76.37138,SO2,NA,NA,NA
India,Haryana,Sirsa,"F-Block, Sirsa - HSPCB",02-12-2025 07:00:00,29.536400,75.015800,PM10,65,167,118
India,Haryana,Sirsa,"F-Block, Sirsa - HSPCB",02-12-2025 07:00:00,29.536400,75.015800,SO2,10,13,11
India,Haryana,Sirsa,"F-Block, Sirsa - HSPCB",02-12-2025 07:00:00,29.536400,75.015800,CO,24,62,53
India,Gujarat,Ahmedabad,"SAC ISRO Satellite, Ahmedabad - IITM",02-12-2025 07:00:00,23.023389,72.515201,CO,4,106,83
India,Gujarat,Ahmedabad,"SVPI Airport Hansol, Ahmedabad - IITM",02-12-2025 07:00:00,23.076793,72.627874,PM2.5,36,169,101
India,Gujarat,Ankleshwar,"GIDC, Ankleshwar - GPCB",02-12-2025 07:00:00,21.613267,73.010555,NO2,15,28,18
India,Gujarat,Gandhinagar,"IIPHG Lekawada, Gandhinagar - IITM",02-12-2025 07:00:00,23.243639,72.68994,PM10,42,131,101
India,Haryana,Ambala,"Patti Mehar, Ambala - HSPCB",02-12-2025 07:00:00,30.379589,76.778328,NO2,21,26,22
India,Haryana,Bahadurgarh,"Arya Nagar, Bahadurgarh - HSPCB",02-12-2025 07:00:00,28.6701,76.9254,SO2,7,7,7
India,Haryana,Bahadurgarh,"Arya Nagar, Bahadurgarh - HSPCB",02-12-2025 07:00:00,28.6701,76.9254,CO,45,50,48
India,Haryana,Ballabgarh,"Nathu Colony, Ballabgarh - HSPCB",02-12-2025 07:00:00,28.3419248,77.319699,PM2.5,208,212,209
India,Haryana,Ballabgarh,"Nathu Colony, Ballabgarh - HSPCB",02-12-2025 07:00:00,28.3419248,77.319699,SO2,6,10,8
India,Gujarat,Gandhinagar,"Sector-10, Gandhinagar - GPCB",02-12-2025 07:00:00,23.221714,72.654328,PM10,46,174,83
India,Gujarat,Surat,"Science Center, Surat - SMC",02-12-2025 07:00:00,21.170046,72.795405,PM10,34,147,97
India,Gujarat,Vatva,"Phase-4 GIDC, Vatva - GPCB",02-12-2025 07:00:00,22.969611,72.643500,PM2.5,85,164,124
India,Haryana,Sonipat,"Murthal, Sonipat - HSPCB",02-12-2025 07:00:00,29.027200,77.062100,CO,32,63,58
India,Haryana,Yamuna Nagar,"Gobind Pura, Yamuna Nagar - HSPCB",02-12-2025 07:00:00,30.1480566,77.2893471,PM10,118,190,150
India,Haryana,Yamuna Nagar,"Gobind Pura, Yamuna Nagar - HSPCB",02-12-2025 07:00:00,30.1480566,77.2893471,SO2,10,15,12
India,Haryana,Yamuna Nagar,"Gobind Pura, Yamuna Nagar - HSPCB",02-12-2025 07:00:00,30.1480566,77.2893471,CO,4,108,65
India,Himachal Pradesh,Baddi,"HIMUDA Complex Phase-1, Baddi - HPPCB",02-12-2025 07:00:00,30.943887,76.801991,PM2.5,78,355,162
India,Himachal Pradesh,Baddi,"HIMUDA Complex Phase-1, Baddi - HPPCB",02-12-2025 07:00:00,30.943887,76.801991,NH3,7,9,8
India,Himachal Pradesh,Baddi,"HIMUDA Complex Phase-1, Baddi - HPPCB",02-12-2025 07:00:00,30.943887,76.801991,SO2,25,96,53
India,Jammu_and_Kashmir,Srinagar,"Rajbagh, Srinagar - JKSPCB",02-12-2025 07:00:00,34.066206,74.819820,PM2.5,NA,NA,NA
India,Jammu_and_Kashmir,Srinagar,"Rajbagh, Srinagar - JKSPCB",02-12-2025 07:00:00,34.066206,74.819820,SO2,NA,NA,NA
India,Jharkhand,Dhanbad,"Sardar Patel Nagar, Dhanbad - JSPCB",02-12-2025 07:00:00,23.80569,86.44268,NO2,91,91,91
India,Karnataka,Koppal,"Diwator Nagar, Koppal - KSPCB",02-12-2025 07:00:00,15.347630,76.181767,NH3,7,7,7
India,Karnataka,Koppal,"Diwator Nagar, Koppal - KSPCB",02-12-2025 07:00:00,15.347630,76.181767,CO,38,67,45
India,Karnataka,Mangalore,"Kadri, Mangalore - KSPCB",02-12-2025 07:00:00,12.889250,74.853000,NO2,14,18,16
India,Karnataka,Mysuru,"Hebbal 1st Stage, Mysuru - KSPCB",02-12-2025 07:00:00,12.21041,76.37376,PM10,39,85,62
India,Karnataka,Mysuru,"Hebbal 1st Stage, Mysuru - KSPCB",02-12-2025 07:00:00,12.21041,76.37376,SO2,1,9,5
India,Karnataka,Mysuru,"Hebbal 1st Stage, Mysuru - KSPCB",02-12-2025 07:00:00,12.21041,76.37376,CO,8,84,21
India,Karnataka,Shivamogga,"Vinoba Nagara, Shivamogga - KSPCB",02-12-2025 07:00:00,13.940000,75.555917,SO2,2,6,5
India,Karnataka,Yadgir,"Collector Office, Yadgir - KSPCB",02-12-2025 07:00:00,16.7602,77.1428,PM2.5,50,149,76
India,Jharkhand,Jorapokhar,"Tata Stadium, Jorapokhar - JSPCB",02-12-2025 07:00:00,23.707909,86.414670,PM10,NA,NA,NA
India,Karnataka,Bagalkot,"Vidayagiri, Bagalkot - KSPCB",02-12-2025 07:00:00,16.172806,75.659694,PM2.5,34,36,35
India,Karnataka,Bagalkot,"Vidayagiri, Bagalkot - KSPCB",02-12-2025 07:00:00,16.172806,75.659694,NO2,11,12,12
India,Karnataka,Bagalkot,"Vidayagiri, Bagalkot - KSPCB",02-12-2025 07:00:00,16.172806,75.659694,OZONE,12,16,16
India,Karnataka,Belgaum,"Ramteerth Nagar, Belgaum - KSPCB",02-12-2025 07:00:00,15.888653,74.541751,NO2,42,107,62
India,Karnataka,Bengaluru,"BTM Layout, Bengaluru - CPCB",02-12-2025 07:00:00,12.9135218,77.5950804,PM10,96,98,97
India,Karnataka,Bengaluru,"BWSSB Kadabesanahalli, Bengaluru - CPCB",02-12-2025 07:00:00,12.9352049,77.6814488,NO2,3,18,11
India,Kerala,Eloor,"Udyogamandal, Eloor - Kerala PCB",02-12-2025 07:00:00,10.073232,76.302765,NO2,6,7,6
India,Kerala,Kannur,"Thavakkara, Kannur - Kerala PCB",02-12-2025 07:00:00,11.875000,75.373200,NO2,15,16,16
India,Kerala,Kollam,"Polayathode, Kollam - Kerala PCB",02-12-2025 07:00:00,8.8787,76.6073,NO2,9,10,9
India,Kerala,Kollam,"Polayathode, Kollam - Kerala PCB",02-12-2025 07:00:00,8.8787,76.6073,CO,13,18,16
India,Kerala,Kollam,"Polayathode, Kollam - Kerala PCB",02-12-2025 07:00:00,8.8787,76.6073,OZONE,29,34,30
India,Kerala,Thiruvananthapuram,"Plammoodu, Thiruvananthapuram - Kerala PCB",02-12-2025 07:00:00,8.5149093,76.9435879,PM2.5,45,87,65
India,Kerala,Thiruvananthapuram,"Plammoodu, Thiruvananthapuram - Kerala PCB",02-12-2025 07:00:00,8.5149093,76.9435879,PM10,68,120,96
India,Kerala,Thiruvananthapuram,"Plammoodu, Thiruvananthapuram - Kerala PCB",02-12-2025 07:00:00,8.5149093,76.9435879,NO2,8,74,29
India,Karnataka,Bengaluru,"Shivapura_Peenya, Bengaluru - KSPCB",02-12-2025 07:00:00,13.0246342,77.5080115,SO2,9,13,11
India,Karnataka,Bengaluru,"Silk Board, Bengaluru - KSPCB",02-12-2025 07:00:00,12.917348,77.622813,PM2.5,30,67,44
India,Karnataka,Bengaluru,"Silk Board, Bengaluru - KSPCB",02-12-2025 07:00:00,12.917348,77.622813,NO2,11,16,13
India,Karnataka,Bengaluru,"Silk Board, Bengaluru - KSPCB",02-12-2025 07:00:00,12.917348,77.622813,OZONE,20,21,21
India,Karnataka,Chikkamagaluru,"Kalyana Nagara, Chikkamagaluru - KSPCB",02-12-2025 07:00:00,13.328028,75.797056,NO2,14,23,18
India,Karnataka,Davanagere,"Devaraj Urs Badavane, Davanagere - KSPCB",02-12-2025 07:00:00,14.475800,75.905200,PM2.5,26,134,65
India,Kerala,Thiruvananthapuram,"Plammoodu, Thiruvananthapuram - Kerala PCB",02-12-2025 07:00:00,8.5149093,76.9435879,SO2,8,19,14
India,Madhya Pradesh,Bhopal,"Idgah Hills, Bhopal - MPPCB",02-12-2025 07:00:00,23.264759,77.381568,NH3,NA,NA,NA
India,Madhya Pradesh,Bhopal,"Paryavaran Parisar, Bhopal - MPPCB",02-12-2025 07:00:00,23.210494,77.425409,SO2,1,13,6
India,Madhya Pradesh,Bhopal,"T T Nagar, Bhopal - MPPCB",02-12-2025 07:00:00,23.233584,77.400574,SO2,6,13,10
India,Madhya Pradesh,Bhopal,"T T Nagar, Bhopal - MPPCB",02-12-2025 07:00:00,23.233584,77.400574,OZONE,8,247,64
India,Karnataka,Davanagere,"Devaraj Urs Badavane, Davanagere - KSPCB",02-12-2025 07:00:00,14.475800,75.905200,OZONE,19,21,20
India,Karnataka,Dharwad,"Kalabhavan, Dharwad - KSPCB",02-12-2025 07:00:00,15.459706,75.008381,PM10,NA,NA,NA
India,Karnataka,Kalaburagi,"Lal Bahadur Shastri Nagar, Kalaburagi - KSPCB",02-12-2025 07:00:00,17.321993,76.822628,OZONE,19,23,20
India,Karnataka,Bengaluru,"Kasturi Nagar, Bengaluru - KSPCB",02-12-2025 07:00:00,13.003872,77.664217,NO2,29,30,30
India,Karnataka,Bengaluru,"Kasturi Nagar, Bengaluru - KSPCB",02-12-2025 07:00:00,13.003872,77.664217,CO,38,62,47
India,Karnataka,Bengaluru,"Peenya, Bengaluru - CPCB",02-12-2025 07:00:00,13.0270199,77.494094,PM10,49,51,50
India,Karnataka,Bengaluru,"Peenya, Bengaluru - CPCB",02-12-2025 07:00:00,13.0270199,77.494094,SO2,5,35,12
India,Karnataka,Bengaluru,"City Railway Station, Bengaluru - KSPCB",02-12-2025 07:00:00,12.9756843,77.5660749,SO2,13,21,17
India,Karnataka,Bengaluru,"Hombegowda Nagar, Bengaluru - KSPCB",02-12-2025 07:00:00,12.938539,77.590100,SO2,7,13,10
India,Madhya Pradesh,Sagar,"Civil Lines, Sagar - MPPCB",02-12-2025 07:00:00,23.838586,78.759431,CO,20,81,33
India,Madhya Pradesh,Sagar,"Civil Lines, Sagar - MPPCB",02-12-2025 07:00:00,23.838586,78.759431,OZONE,31,72,50
India,Madhya Pradesh,Satna,"Bandhavgar Colony, Satna - Birla Cement",02-12-2025 07:00:00,24.58434363,80.8549414,PM10,63,68,67
India,Madhya Pradesh,Satna,"Bandhavgar Colony, Satna - Birla Cement",02-12-2025 07:00:00,24.58434363,80.8549414,SO2,18,22,20
India,Madhya Pradesh,Singrauli,"Suryakiran Bhawan NCL, Singrauli - MPPCB",02-12-2025 07:00:00,24.108970,82.645580,PM10,110,238,151
India,Madhya Pradesh,Singrauli,"Suryakiran Bhawan NCL, Singrauli - MPPCB",02-12-2025 07:00:00,24.108970,82.645580,NO2,76,136,100
India,Maharashtra,Ahmednagar,"Tarakpur, Ahmednagar - MPCB",02-12-2025 07:00:00,19.10122,74.73339,PM2.5,36,100,66
India,Maharashtra,Ahmednagar,"Tarakpur, Ahmednagar - MPCB",02-12-2025 07:00:00,19.10122,74.73339,PM10,73,145,105
India,Maharashtra,Ahmednagar,"Tarakpur, Ahmednagar - MPCB",02-12-2025 07:00:00,19.10122,74.73339,NO2,1,14,5
India,Maharashtra,Ahmednagar,"Tarakpur, Ahmednagar - MPCB",02-12-2025 07:00:00,19.10122,74.73339,NH3,1,5,3
India,Madhya Pradesh,Damoh,"Shrivastav Colony, Damoh - MPPCB",02-12-2025 07:00:00,23.81748678,79.446246,SO2,4,18,8
India,Madhya Pradesh,Dewas,"Bhopal Chauraha, Dewas - MPPCB",02-12-2025 07:00:00,22.9682591,76.064118,PM2.5,51,108,78
India,Madhya Pradesh,Dewas,"Bhopal Chauraha, Dewas - MPPCB",02-12-2025 07:00:00,22.9682591,76.064118,OZONE,24,26,25
India,Madhya Pradesh,Gwalior,"City Center, Gwalior - MPPCB",02-12-2025 07:00:00,26.203442,78.193251,PM10,66,162,112
India,Madhya Pradesh,Gwalior,"Deen Dayal Nagar, Gwalior - MPPCB",02-12-2025 07:00:00,26.259242,78.216432,NO2,12,150,63
India,Madhya Pradesh,Gwalior,"Deen Dayal Nagar, Gwalior - MPPCB",02-12-2025 07:00:00,26.259242,78.216432,CO,1,151,55
India,Maharashtra,Jalna,"Old MIDC, Jalna - MPCB",02-12-2025 07:00:00,19.854616,75.905894,NH3,NA,NA,NA
India,Maharashtra,Jalna,"Old MIDC, Jalna - MPCB",02-12-2025 07:00:00,19.854616,75.905894,CO,NA,NA,NA
India,Maharashtra,Kalyan,"Pimpleshwar Mandir, Kalyan - MPCB",02-12-2025 07:00:00,19.192056,72.9585188,PM10,NA,NA,NA
India,Maharashtra,Kalyan,"Pimpleshwar Mandir, Kalyan - MPCB",02-12-2025 07:00:00,19.192056,72.9585188,CO,NA,NA,NA
India,Maharashtra,Kolhapur,"Shivaji University, Kolhapur - MPCB",02-12-2025 07:00:00,16.6870449,74.2505872,PM2.5,75,376,168
India,Maharashtra,Kolhapur,"Shivaji University, Kolhapur - MPCB",02-12-2025 07:00:00,16.6870449,74.2505872,SO2,2,5,3
India,Maharashtra,Kolhapur,"Shivaji University, Kolhapur - MPCB",02-12-2025 07:00:00,16.6870449,74.2505872,CO,27,100,49
India,Madhya Pradesh,Indore,"Airport Area, Indore - IMC",02-12-2025 07:00:00,22.7289,75.8076,CO,6,13,11
India,Madhya Pradesh,Indore,"Chhoti Gwaltoli, Indore - MPPCB",02-12-2025 07:00:00,22.4310,75.5213,PM10,65,156,112
India,Madhya Pradesh,Indore,"Chhoti Gwaltoli, Indore - MPPCB",02-12-2025 07:00:00,22.4310,75.5213,NO2,87,168,123
India,Madhya Pradesh,Indore,"Chhoti Gwaltoli, Indore - MPPCB",02-12-2025 07:00:00,22.4310,75.5213,CO,33,104,84
India,Madhya Pradesh,Indore,"Maguda Nagar, Indore - IMC",02-12-2025 07:00:00,22.7524,75.8872,NH3,NA,NA,NA
India,Madhya Pradesh,Indore,"Regional Park, Indore - IMC",02-12-2025 07:00:00,22.6780,75.8559,PM10,NA,NA,NA
India,Madhya Pradesh,Indore,"Residency Area, Indore - IMC",02-12-2025 07:00:00,22.7084,75.8815,NO2,11,19,15
India,Madhya Pradesh,Jabalpur,"Govindh Bhavan Colony, Jabalpur - JMC",02-12-2025 07:00:00,23.163174,79.973061,NH3,1,2,1
India,Madhya Pradesh,Jabalpur,"Gupteshwar, Jabalpur - JMC",02-12-2025 07:00:00,23.142888,79.916147,OZONE,2,93,6
India,Madhya Pradesh,Jabalpur,"Suhagi, Jabalpur - JMC",02-12-2025 07:00:00,23.218135,79.957770,PM2.5,52,213,110
India,Maharashtra,Bhiwandi,"Gokul Nagar, Bhiwandi - MPCB",02-12-2025 07:00:00,19.309073,73.057223,NO2,19,37,29
India,Maharashtra,Bhiwandi,"Gokul Nagar, Bhiwandi - MPCB",02-12-2025 07:00:00,19.309073,73.057223,SO2,11,16,13
India,Maharashtra,Bhiwandi,"Gokul Nagar, Bhiwandi - MPCB",02-12-2025 07:00:00,19.309073,73.057223,OZONE,13,130,15
India,Maharashtra,Chandrapur,"Chauhan Colony, Chandrapur - MPCB",02-12-2025 07:00:00,19.962900,79.298714,PM2.5,11,244,60
India,Maharashtra,Dhule,"Deopur, Dhule - MPCB",02-12-2025 07:00:00,20.918946,74.776388,PM2.5,70,213,149
India,Madhya Pradesh,Mandideep,"Sector-D Industrial Area, Mandideep - MPPCB",02-12-2025 07:00:00,23.108440,77.511428,SO2,29,110,64
India,Madhya Pradesh,Pithampur,"Sector-2 Industrial Area, Pithampur - MPPCB",02-12-2025 07:00:00,22.624758,75.675238,SO2,10,22,16
India,Madhya Pradesh,Pithampur,"Sector-2 Industrial Area, Pithampur - MPPCB",02-12-2025 07:00:00,22.624758,75.675238,CO,27,56,38
India,Madhya Pradesh,Sagar,"Civil Lines, Sagar - MPPCB",02-12-2025 07:00:00,23.838586,78.759431,PM10,94,146,109
India,Maharashtra,Amravati,"Shivneri Colony, Amravati - MPCB",02-12-2025 07:00:00,20.9402359,77.7895248,NH3,2,3,2
India,Maharashtra,Amravati,"Shri Shivaji Science College, Amravati - MPCB",02-12-2025 07:00:00,20.939198,77.765701,SO2,3,62,19
India,Maharashtra,Aurangabad,"More Chowk Waluj, Aurangabad - MPCB",02-12-2025 07:00:00,19.8389439,75.244448,SO2,12,19,15
India,Maharashtra,Belapur,"CBD Belapur, Belapur - MPCB",02-12-2025 07:00:00,19.0243902,73.0406721,OZONE,7,68,8
India,Maharashtra,Nagpur,"Ambazari, Nagpur - MPCB",02-12-2025 07:00:00,21.121801,79.04952,PM2.5,92,206,137
India,Maharashtra,Nagpur,"Ambazari, Nagpur - MPCB",02-12-2025 07:00:00,21.121801,79.04952,PM10,101,153,124
India,Maharashtra,Nagpur,"Mahal, Nagpur - MPCB",02-12-2025 07:00:00,21.14472,79.107595,SO2,9,80,34
India,Maharashtra,Nagpur,"Opp GPO Civil Lines, Nagpur - MPCB",02-12-2025 07:00:00,21.152875,79.0517531,NH3,1,13,4
India,Maharashtra,Nagpur,"Opp GPO Civil Lines, Nagpur - MPCB",02-12-2025 07:00:00,21.152875,79.0517531,CO,13,128,48
India,Maharashtra,Nagpur,"Ram Nagar, Nagpur - MPCB",02-12-2025 07:00:00,21.143383,79.048912,NO2,13,65,29
India,Maharashtra,Nagpur,"Ram Nagar, Nagpur - MPCB",02-12-2025 07:00:00,21.143383,79.048912,SO2,7,115,30
India,Maharashtra,Nagpur,"Ram Nagar, Nagpur - MPCB",02-12-2025 07:00:00,21.143383,79.048912,CO,19,102,49
India,Maharashtra,Mumbai,"Ghatkopar, Mumbai - BMC",02-12-2025 07:00:00,19.083694,72.920967,PM2.5,67,202,109
India,Maharashtra,Mumbai,"Ghatkopar, Mumbai - BMC",02-12-2025 07:00:00,19.083694,72.920967,PM10,116,187,156
India,Maharashtra,Mumbai,"Ghatkopar, Mumbai - BMC",02-12-2025 07:00:00,19.083694,72.920967,NO2,35,110,59
India,Maharashtra,Mumbai,"Ghatkopar, Mumbai - BMC",02-12-2025 07:00:00,19.083694,72.920967,NH3,1,7,4
India,Maharashtra,Mumbai,"Kandivali East, Mumbai - MPCB",02-12-2025 07:00:00,19.205800,72.868200,PM2.5,NA,NA,NA
India,Maharashtra,Mumbai,"Kandivali East, Mumbai - MPCB",02-12-2025 07:00:00,19.205800,72.868200,NH3,NA,NA,NA
India,Maharashtra,Mumbai,"Kandivali West, Mumbai - BMC",02-12-2025 07:00:00,19.215859,72.831718,NH3,NA,NA,NA
India,Maharashtra,Mumbai,"Kherwadi_Bandra East, Mumbai - MPCB",02-12-2025 07:00:00,19.0632143,72.8456324,NH3,7,18,13
India,Maharashtra,Mumbai,"Sewri, Mumbai - BMC",02-12-2025 07:00:00,19.000084,72.856730,OZONE,96,318,198
India,Maharashtra,Mumbai,"Siddharth Nagar-Worli, Mumbai - IITM",02-12-2025 07:00:00,19.000083,72.813993,NH3,4,8,6
India,Maharashtra,Mumbai,"Sion, Mumbai - MPCB",02-12-2025 07:00:00,19.047000,72.874600,PM2.5,22,48,36
India,Maharashtra,Mumbai,"Sion, Mumbai - MPCB",02-12-2025 07:00:00,19.047000,72.874600,NH3,5,7,6
India,Maharashtra,Mumbai,"Vile Parle West, Mumbai - MPCB",02-12-2025 07:00:00,19.10861,72.83622,OZONE,5,27,19
India,Maharashtra,Mumbai,"Worli, Mumbai - MPCB",02-12-2025 07:00:00,18.9936162,72.8128113,PM2.5,74,91,82
India,Maharashtra,Mumbai,"Worli, Mumbai - MPCB",02-12-2025 07:00:00,18.9936162,72.8128113,NH3,1,3,1
India,Maharashtra,Kolhapur,"Sinchan Bhavan, Kolhapur - MPCB",02-12-2025 07:00:00,16.7143745,74.2426398,SO2,1,10,4
India,Maharashtra,Latur,"Sawe Wadi, Latur - MPCB",02-12-2025 07:00:00,18.39963,76.57452,NO2,15,39,25
India,Maharashtra,Mahad,"Kamble Tarf Birwadi, Mahad - MPCB",02-12-2025 07:00:00,18.1023399,73.4783687,PM2.5,92,208,157
India,Maharashtra,Mahad,"Kamble Tarf Birwadi, Mahad - MPCB",02-12-2025 07:00:00,18.1023399,73.4783687,PM10,64,150,111
India,Maharashtra,Mahad,"Kamble Tarf Birwadi, Mahad - MPCB",02-12-2025 07:00:00,18.1023399,73.4783687,NH3,3,7,4
India,Maharashtra,Malegaon,"Mahesh Nagar, Malegaon - MPCB",02-12-2025 07:00:00,20.555712,74.529236,PM10,54,178,96
India,Maharashtra,Mumbai,"Khindipada-Bhandup West, Mumbai - IITM",02-12-2025 07:00:00,19.1653323,72.922099,NO2,10,65,24
India,Maharashtra,Mumbai,"Khindipada-Bhandup West, Mumbai - IITM",02-12-2025 07:00:00,19.1653323,72.922099,CO,34,52,39
India,Maharashtra,Mumbai,"Kurla, Mumbai - MPCB",02-12-2025 07:00:00,19.0863,72.8888,SO2,36,37,37
India,Maharashtra,Mumbai,"Malad West, Mumbai - IITM",02-12-2025 07:00:00,19.19709,72.82204,PM2.5,73,192,113
India,Maharashtra,Mumbai,"Malad West, Mumbai - IITM",02-12-2025 07:00:00,19.19709,72.82204,SO2,5,17,11
India,Maharashtra,Mumbai,"Mazgaon, Mumbai - IITM",02-12-2025 07:00:00,18.96702,72.84214,SO2,16,25,20
India,Maharashtra,Mumbai,"Mazgaon, Mumbai - IITM",02-12-2025 07:00:00,18.96702,72.84214,OZONE,5,80,11
India,Maharashtra,Mumbai,"Mindspace-Malad West, Mumbai - MPCB",02-12-2025 07:00:00,19.1878657,72.8304069,NO2,23,129,66
India,Maharashtra,Mumbai,"Mindspace-Malad West, Mumbai - MPCB",02-12-2025 07:00:00,19.1878657,72.8304069,OZONE,1,84,2
India,Maharashtra,Mumbai,"Navy Nagar-Colaba, Mumbai - IITM",02-12-2025 07:00:00,18.897756,72.813320,PM2.5,4,183,105
India,Maharashtra,Mumbai,"Navy Nagar-Colaba, Mumbai - IITM",02-12-2025 07:00:00,18.897756,72.813320,NH3,NA,NA,NA
India,Maharashtra,Mumbai,"Sewri, Mumbai - BMC",02-12-2025 07:00:00,19.000084,72.856730,PM10,54,432,107
India,Maharashtra,Mumbai,"Sewri, Mumbai - BMC",02-12-2025 07:00:00,19.000084,72.856730,NH3,11,35,24
India,Maharashtra,Mumbai,"Sewri, Mumbai - BMC",02-12-2025 07:00:00,19.000084,72.856730,SO2,1,94,33
India,Maharashtra,Mumbai,"Chakala-Andheri East, Mumbai - IITM",02-12-2025 07:00:00,19.11074,72.86084,PM10,81,132,112
India,Maharashtra,Mumbai,"Chakala-Andheri East, Mumbai - IITM",02-12-2025 07:00:00,19.11074,72.86084,SO2,4,56,28
India,Maharashtra,Mumbai,"Chembur, Mumbai - MPCB",02-12-2025 07:00:00,19.0364585,72.8954371,NO2,29,132,78
India,Maharashtra,Mumbai,"Chembur, Mumbai - MPCB",02-12-2025 07:00:00,19.0364585,72.8954371,NH3,1,6,2
India,Maharashtra,Mumbai,"Chhatrapati Shivaji Intl. Airport (T2), Mumbai - MPCB",02-12-2025 07:00:00,19.10078,72.87462,NO2,18,31,21
India,Maharashtra,Mumbai,"Chhatrapati Shivaji Intl. Airport (T2), Mumbai - MPCB",02-12-2025 07:00:00,19.10078,72.87462,CO,14,24,22
India,Maharashtra,Mira-Bhayandar,"Bhayandar West, Mira-Bhayandar - MPCB",02-12-2025 07:00:00,19.296481,72.840923,CO,24,81,60
India,Maharashtra,Mumbai,"Bandra Kurla Complex, Mumbai - MPCB",02-12-2025 07:00:00,19.065931,72.862131,CO,18,78,52
India,Maharashtra,Mumbai,"Borivali East, Mumbai - IITM",02-12-2025 07:00:00,19.23241,72.86895,PM10,64,141,105
India,Maharashtra,Nashik,"Gangapur Road, Nashik - MPCB",02-12-2025 07:00:00,20.0073285,73.7762427,PM2.5,70,282,159
India,Maharashtra,Nashik,"Hirawadi, Nashik - MPCB",02-12-2025 07:00:00,20.021503,73.813844,PM10,92,167,125
India,Maharashtra,Nashik,"Pandav Nagari, Nashik - MPCB",02-12-2025 07:00:00,19.9591346,73.7788008,PM10,91,144,116
India,Maharashtra,Thane,"Kasarvadavali, Thane - MPCB",02-12-2025 07:00:00,19.26777,72.97182,PM10,54,76,67
India,Maharashtra,Thane,"Kasarvadavali, Thane - MPCB",02-12-2025 07:00:00,19.26777,72.97182,NO2,11,74,39
India,Maharashtra,Thane,"Kasarvadavali, Thane - MPCB",02-12-2025 07:00:00,19.26777,72.97182,CO,6,58,30
India,Maharashtra,Thane,"Upvan Fort, Thane - MPCB",02-12-2025 07:00:00,19.222279,72.957979,PM2.5,46,125,75
India,Maharashtra,Ulhasnagar,"Sidhi Vinayak Nagar, Ulhasnagar - MPCB",02-12-2025 07:00:00,19.235581,73.159121,NH3,2,6,4
India,Maharashtra,Ulhasnagar,"Sidhi Vinayak Nagar, Ulhasnagar - MPCB",02-12-2025 07:00:00,19.235581,73.159121,SO2,4,47,23
India,Maharashtra,Virar,"Bolinj, Virar - MPCB",02-12-2025 07:00:00,19.4458210,72.7988231,PM10,72,156,107
India,Maharashtra,Virar,"Bolinj, Virar - MPCB",02-12-2025 07:00:00,19.4458210,72.7988231,NO2,16,101,42
India,Meghalaya,Shillong,"JN Stadium, Shillong - Meghalaya PCB",02-12-2025 07:00:00,25.5803419,91.8942571,NH3,11,14,13
India,Maharashtra,Navi Mumbai,"Sanpada, Navi Mumbai - MPCB",02-12-2025 07:00:00,19.0575752,73.0151367,CO,20,121,90
India,Maharashtra,Navi Mumbai,"Sector-2E Kalamboli, Navi Mumbai - MPCB",02-12-2025 07:00:00,19.02579,73.10297,SO2,2,13,6
India,Maharashtra,Navi Mumbai,"Tondare-Taloja, Navi Mumbai - MPCB",02-12-2025 07:00:00,19.0630,73.1209,SO2,2,3,2
India,Maharashtra,Navi Mumbai,"Tondare-Taloja, Navi Mumbai - MPCB",02-12-2025 07:00:00,19.0630,73.1209,CO,31,63,54
India,Maharashtra,Navi Mumbai,"Tondare-Taloja, Navi Mumbai - MPCB",02-12-2025 07:00:00,19.0630,73.1209,OZONE,21,26,21
India,Maharashtra,Parbhani,"Masoom Colony, Parbhani - MPCB",02-12-2025 07:00:00,19.265594,76.761463,NO2,17,94,47
India,Maharashtra,Parbhani,"Masoom Colony, Parbhani - MPCB",02-12-2025 07:00:00,19.265594,76.761463,NH3,3,5,4
India,Maharashtra,Nashik,"Pandav Nagari, Nashik - MPCB",02-12-2025 07:00:00,19.9591346,73.7788008,NO2,14,25,20
India,Maharashtra,Nashik,"Pandav Nagari, Nashik - MPCB",02-12-2025 07:00:00,19.9591346,73.7788008,NH3,2,9,4
India,Maharashtra,Nashik,"Pandav Nagari, Nashik - MPCB",02-12-2025 07:00:00,19.9591346,73.7788008,SO2,4,34,10
India,Maharashtra,Navi Mumbai,"Kopripada-Vashi, Navi Mumbai - MPCB",02-12-2025 07:00:00,19.090337,73.014232,NO2,12,74,42
India,Maharashtra,Navi Mumbai,"Kopripada-Vashi, Navi Mumbai - MPCB",02-12-2025 07:00:00,19.090337,73.014232,SO2,19,40,27
India,Maharashtra,Navi Mumbai,"Kopripada-Vashi, Navi Mumbai - MPCB",02-12-2025 07:00:00,19.090337,73.014232,CO,12,103,47
India,Maharashtra,Navi Mumbai,"Sanpada, Navi Mumbai - MPCB",02-12-2025 07:00:00,19.0575752,73.0151367,PM2.5,87,333,199
India,Meghalaya,Shillong,"JN Stadium, Shillong - Meghalaya PCB",02-12-2025 07:00:00,25.5803419,91.8942571,SO2,16,22,19
India,Meghalaya,Shillong,"Lumpyngngad, Shillong - Meghalaya PCB",02-12-2025 07:00:00,25.5586,91.8985,CO,1,16,5
India,Nagaland,Kohima,"PWD Junction, Kohima - NPCB",02-12-2025 07:00:00,25.6635413,94.0989878,PM2.5,1,138,42
India,Nagaland,Kohima,"PWD Junction, Kohima - NPCB",02-12-2025 07:00:00,25.6635413,94.0989878,NO2,3,4,3
India,Odisha,Angul,"Hakimapada, Angul - OSPCB",02-12-2025 07:00:00,20.832874,85.104082,NO2,14,77,34
India,Odisha,Bhubaneswar,"Patia, Bhubaneswar - OSPCB",02-12-2025 07:00:00,20.34652,85.81630,NO2,13,47,23
India,Odisha,Bhubaneswar,"Patia, Bhubaneswar - OSPCB",02-12-2025 07:00:00,20.34652,85.81630,CO,17,66,37
India,Odisha,Bileipada,"Tata Township, Bileipada - OSPCB",02-12-2025 07:00:00,22.06156703,85.47409613,NH3,NA,NA,NA
India,Odisha,Bileipada,"Tata Township, Bileipada - OSPCB",02-12-2025 07:00:00,22.06156703,85.47409613,SO2,9,9,9
India,Odisha,Byasanagar,"Ferro Chrome Colony, Byasanagar - OSPCB",02-12-2025 07:00:00,20.94185,86.11510,NO2,9,22,14
India,Odisha,Byasanagar,"Ferro Chrome Colony, Byasanagar - OSPCB",02-12-2025 07:00:00,20.94185,86.11510,SO2,16,29,22
India,Maharashtra,Pune,"Dhankawadi, Pune - IITM",02-12-2025 07:00:00,18.459883,73.852193,OZONE,NA,NA,NA
India,Maharashtra,Pune,"Katraj Dairy, Pune - MPCB",02-12-2025 07:00:00,18.454450,73.854155,NH3,4,15,7
India,Maharashtra,Pune,"Katraj Dairy, Pune - MPCB",02-12-2025 07:00:00,18.454450,73.854155,SO2,2,4,4
India,Maharashtra,Pune,"Mhada Colony, Pune - IITM",02-12-2025 07:00:00,18.573040,73.927715,PM10,111,243,178
India,Maharashtra,Pune,"Panchawati_Pashan, Pune - IITM",02-12-2025 07:00:00,18.536457,73.805454,PM2.5,76,231,144
India,Maharashtra,Pune,"Panchawati_Pashan, Pune - IITM",02-12-2025 07:00:00,18.536457,73.805454,NO2,16,54,28
India,Odisha,Balasore,"Kalidaspur, Balasore - OSPCB",02-12-2025 07:00:00,21.51161,86.89088,CO,33,62,47
India,Odisha,Barbil,"Forest Office, Barbil - OSPCB",02-12-2025 07:00:00,22.1166054,85.3945546,NH3,1,3,2
India,Odisha,Barbil,"Forest Office, Barbil - OSPCB",02-12-2025 07:00:00,22.1166054,85.3945546,CO,39,101,59
India,Odisha,Baripada,"Meher Colony, Baripada - OSPCB",02-12-2025 07:00:00,21.941841,86.728318,OZONE,9,60,14
India,Maharashtra,Pune,"Savitribai Phule Pune University, Pune - MPCB",02-12-2025 07:00:00,18.547056,73.826908,CO,17,116,97
India,Maharashtra,Solapur,"Ratandeep Housing Society, Solapur - MPCB",02-12-2025 07:00:00,17.65439,75.90649,NH3,3,25,7
India,Maharashtra,Solapur,"Ratandeep Housing Society, Solapur - MPCB",02-12-2025 07:00:00,17.65439,75.90649,OZONE,1,78,28
India,Maharashtra,Pimpri-Chinchwad,"Park Street Wakad, Pimpri Chinchwad - MPCB",02-12-2025 07:00:00,18.59051,73.77946,PM10,113,330,180
India,Maharashtra,Pimpri-Chinchwad,"Thergaon, Pimpri Chinchwad - MPCB",02-12-2025 07:00:00,18.616318,73.765797,NO2,23,71,43
India,Rajasthan,Dausa,"Khatikan Mohalla, Dausa - RSPCB",02-12-2025 07:00:00,26.895552,76.334753,NH3,10,16,12
India,Rajasthan,Dholpur,"Raja Ganj, Dholpur - RSPCB",02-12-2025 07:00:00,26.699557,77.898881,PM2.5,58,300,141
India,Rajasthan,Dholpur,"Raja Ganj, Dholpur - RSPCB",02-12-2025 07:00:00,26.699557,77.898881,NH3,3,4,4
India,Rajasthan,Dungarpur,"Bhoiwada, Dungarpur - RSPCB",02-12-2025 07:00:00,23.837789,73.714926,PM2.5,62,237,122
India,Rajasthan,Dungarpur,"Bhoiwada, Dungarpur - RSPCB",02-12-2025 07:00:00,23.837789,73.714926,PM10,78,146,112
India,Rajasthan,Dungarpur,"Bhoiwada, Dungarpur - RSPCB",02-12-2025 07:00:00,23.837789,73.714926,NO2,10,47,22
India,Rajasthan,Dungarpur,"Bhoiwada, Dungarpur - RSPCB",02-12-2025 07:00:00,23.837789,73.714926,SO2,2,4,3
India,Rajasthan,Hanumangarh,"Housing Board, Hanumangarh - RSPCB",02-12-2025 07:00:00,29.610750,74.283608,PM10,51,184,118
India,Rajasthan,Hanumangarh,"Housing Board, Hanumangarh - RSPCB",02-12-2025 07:00:00,29.610750,74.283608,NO2,13,74,36
India,Rajasthan,Hanumangarh,"Housing Board, Hanumangarh - RSPCB",02-12-2025 07:00:00,29.610750,74.283608,CO,54,115,67
India,Rajasthan,Jaipur,"Adarsh Nagar, Jaipur - RSPCB",02-12-2025 07:00:00,26.902909,75.836858,PM2.5,65,254,154
India,Rajasthan,Jaipur,"Adarsh Nagar, Jaipur - RSPCB",02-12-2025 07:00:00,26.902909,75.836858,PM10,103,364,139
India,Rajasthan,Alwar,"Moti Doongri, Alwar - RSPCB",02-12-2025 07:00:00,27.554793,76.611536,PM2.5,57,97,72
India,Rajasthan,Alwar,"Moti Doongri, Alwar - RSPCB",02-12-2025 07:00:00,27.554793,76.611536,NO2,30,76,61
India,Rajasthan,Banswara,"Rati Talai, Banswara - RSPCB",02-12-2025 07:00:00,23.555190,74.440010,PM2.5,23,191,46
India,Rajasthan,Banswara,"Rati Talai, Banswara - RSPCB",02-12-2025 07:00:00,23.555190,74.440010,PM10,77,175,118
India,Rajasthan,Banswara,"Rati Talai, Banswara - RSPCB",02-12-2025 07:00:00,23.555190,74.440010,SO2,5,33,12
India,Rajasthan,Banswara,"Rati Talai, Banswara - RSPCB",02-12-2025 07:00:00,23.555190,74.440010,CO,20,88,22
India,Rajasthan,Banswara,"Rati Talai, Banswara - RSPCB",02-12-2025 07:00:00,23.555190,74.440010,OZONE,5,137,72
India,Rajasthan,Baran,"Bamboliya, Baran - RSPCB",02-12-2025 07:00:00,25.106006,76.469948,NH3,6,9,8
India,Rajasthan,Baran,"Bamboliya, Baran - RSPCB",02-12-2025 07:00:00,25.106006,76.469948,SO2,6,15,9
India,Rajasthan,Barmer,"Railway Colony, Barmer - RSPCB",02-12-2025 07:00:00,25.747299,71.393989,PM2.5,30,93,57
India,Rajasthan,Barmer,"Railway Colony, Barmer - RSPCB",02-12-2025 07:00:00,25.747299,71.393989,PM10,63,153,105
India,Rajasthan,Barmer,"Railway Colony, Barmer - RSPCB",02-12-2025 07:00:00,25.747299,71.393989,NO2,11,70,28
India,Punjab,Ludhiana,"Punjab Agricultural University, Ludhiana - PPCB",02-12-2025 07:00:00,30.9028,75.8086,OZONE,10,26,18
India,Punjab,Mandi Gobindgarh,"RIMT University, Mandi Gobindgarh - PPCB",02-12-2025 07:00:00,30.649961,76.331442,PM2.5,64,304,121
India,Punjab,Mandi Gobindgarh,"RIMT University, Mandi Gobindgarh - PPCB",02-12-2025 07:00:00,30.649961,76.331442,PM10,87,217,123
India,Punjab,Patiala,"Model Town, Patiala - PPCB",02-12-2025 07:00:00,30.349388,76.366642,PM2.5,61,143,100
India,Punjab,Patiala,"Model Town, Patiala - PPCB",02-12-2025 07:00:00,30.349388,76.366642,NH3,6,7,6
India,Punjab,Rupnagar,"Ratanpura, Rupnagar - Ambuja Cements",02-12-2025 07:00:00,31.0325454,76.5623046,PM2.5,11,32,18
India,Punjab,Rupnagar,"Ratanpura, Rupnagar - Ambuja Cements",02-12-2025 07:00:00,31.0325454,76.5623046,PM10,12,35,20
India,Punjab,Rupnagar,"Ratanpura, Rupnagar - Ambuja Cements",02-12-2025 07:00:00,31.0325454,76.5623046,SO2,9,16,14
India,Rajasthan,Ajmer,"Civil Lines,  Ajmer - RSPCB",02-12-2025 07:00:00,26.470859,74.646594,CO,5,34,15
India,Puducherry,Puducherry,"Jawahar Nagar, Puducherry - PPCC",02-12-2025 07:00:00,11.9309,79.8027,OZONE,14,51,38
India,Punjab,Amritsar,"Golden Temple, Amritsar - PPCB",02-12-2025 07:00:00,31.620000,74.876512,PM2.5,41,170,94
India,Punjab,Amritsar,"Golden Temple, Amritsar - PPCB",02-12-2025 07:00:00,31.620000,74.876512,NO2,6,18,9
India,Punjab,Bathinda,"Hardev Nagar, Bathinda - PPCB",02-12-2025 07:00:00,30.233011,74.907758,PM10,23,71,49
India,Punjab,Bathinda,"Hardev Nagar, Bathinda - PPCB",02-12-2025 07:00:00,30.233011,74.907758,SO2,3,26,15
India,Punjab,Bathinda,"Hardev Nagar, Bathinda - PPCB",02-12-2025 07:00:00,30.233011,74.907758,CO,76,80,78
India,Punjab,Jalandhar,"Civil Line, Jalandhar - PPCB",02-12-2025 07:00:00,31.321907,75.578914,SO2,15,17,17
India,Punjab,Ludhiana,"Punjab Agricultural University, Ludhiana - PPCB",02-12-2025 07:00:00,30.9028,75.8086,PM10,106,130,117
India,Rajasthan,Bikaner,"MM Ground, Bikaner - RSPCB",02-12-2025 07:00:00,28.018792,73.292658,PM10,113,443,206
India,Rajasthan,Bikaner,"MM Ground, Bikaner - RSPCB",02-12-2025 07:00:00,28.018792,73.292658,NH3,6,10,8
India,Rajasthan,Bikaner,"MM Ground, Bikaner - RSPCB",02-12-2025 07:00:00,28.018792,73.292658,SO2,6,17,12
India,Rajasthan,Bikaner,"MM Ground, Bikaner - RSPCB",02-12-2025 07:00:00,28.018792,73.292658,CO,22,102,41
India,Rajasthan,Bundi,"New Colony, Bundi - RSPCB",02-12-2025 07:00:00,25.435774,75.644272,SO2,4,19,9
India,Rajasthan,Bundi,"New Colony, Bundi - RSPCB",02-12-2025 07:00:00,25.435774,75.644272,OZONE,1,155,21
India,Rajasthan,Chittorgarh,"Shastri Nagar, Chittorgarh - RSPCB",02-12-2025 07:00:00,24.892047,74.623527,PM10,54,233,102
India,Rajasthan,Churu,"Subash Chowk, Churu - RSPCB",02-12-2025 07:00:00,28.296139,74.961696,SO2,5,13,8
India,Rajasthan,Jaipur,"Adarsh Nagar, Jaipur - RSPCB",02-12-2025 07:00:00,26.902909,75.836858,NO2,15,64,34
India,Rajasthan,Jaipur,"Mansarovar Sector-12, Jaipur - RSPCB",02-12-2025 07:00:00,26.843698,75.766894,NH3,15,18,17
India,Rajasthan,Jaipur,"Police Commissionerate, Jaipur - RSPCB",02-12-2025 07:00:00,26.9164092,75.7994901,PM2.5,67,148,96
India,Rajasthan,Jaipur,"RIICO Sitapura, Jaipur - RSPCB",02-12-2025 07:00:00,26.786682,75.827928,PM10,119,211,150
India,Rajasthan,Jaipur,"RIICO Sitapura, Jaipur - RSPCB",02-12-2025 07:00:00,26.786682,75.827928,SO2,3,7,5
India,Rajasthan,Jaipur,"RIICO Sitapura, Jaipur - RSPCB",02-12-2025 07:00:00,26.786682,75.827928,OZONE,7,138,14
India,Rajasthan,Barmer,"Railway Colony, Barmer - RSPCB",02-12-2025 07:00:00,25.747299,71.393989,OZONE,20,70,36
India,Rajasthan,Bharatpur,"Krishna Nagar, Bharatpur - RSPCB",02-12-2025 07:00:00,27.215415,77.50873,PM10,82,264,146
India,Rajasthan,Bharatpur,"Krishna Nagar, Bharatpur - RSPCB",02-12-2025 07:00:00,27.215415,77.50873,NH3,14,21,17
India,Rajasthan,Bhilwara,"Pratap Nagar, Bhilwara - RSPCB",02-12-2025 07:00:00,25.339605,74.618883,OZONE,2,39,14
India,Rajasthan,Bhiwadi,"Vasundhara Nagar_UIT, Bhiwadi - RSPCB",02-12-2025 07:00:00,28.207266,76.829265,NH3,1,6,4
India,Odisha,Byasanagar,"Ferro Chrome Colony, Byasanagar - OSPCB",02-12-2025 07:00:00,20.94185,86.11510,CO,26,48,35
India,Odisha,Keonjhar,"Jagamohanpur, Keonjhar - OSPCB",02-12-2025 07:00:00,21.643900,85.599355,PM2.5,75,111,90
India,Odisha,Nayagarh,"Dabuna, Nayagarh - OSPCB",02-12-2025 07:00:00,21.847279,85.416905,CO,20,34,27
India,Odisha,Rourkela,"Fertilizer Township, Rourkela - OSPCB",02-12-2025 07:00:00,22.18972222,84.86277778,PM10,84,138,91
India,Odisha,Talcher,"Talcher Coalfields,Talcher - OSPCB",02-12-2025 07:00:00,20.9360711,85.1707021,NH3,5,7,6
India,Odisha,Talcher,"Talcher Coalfields,Talcher - OSPCB",02-12-2025 07:00:00,20.9360711,85.1707021,CO,66,124,80
India,Odisha,Talcher,"Talcher Coalfields,Talcher - OSPCB",02-12-2025 07:00:00,20.9360711,85.1707021,OZONE,2,22,20
India,Odisha,Tensa,"Barsua Iron Ore Mines, Tensa - OSPCB",02-12-2025 07:00:00,21.869985,85.167016,OZONE,NA,NA,NA
India,Rajasthan,Jhalawar,"Rajlaxmi Nagar, Jhalawar - RSPCB",02-12-2025 07:00:00,24.588397,76.172782,CO,36,130,56
India,Rajasthan,Jhunjhunu,"Indra Nagar, Jhunjhunu - RSPCB",02-12-2025 07:00:00,28.108988,75.386577,CO,22,67,34
India,Rajasthan,Jodhpur,"Collectorate, Jodhpur - RSPCB",02-12-2025 07:00:00,26.268249,73.0193853,PM10,99,284,137
India,Rajasthan,Jodhpur,"Collectorate, Jodhpur - RSPCB",02-12-2025 07:00:00,26.268249,73.0193853,SO2,7,22,14
India,Rajasthan,Jodhpur,"Collectorate, Jodhpur - RSPCB",02-12-2025 07:00:00,26.268249,73.0193853,CO,5,62,20
India,Rajasthan,Jodhpur,"Collectorate, Jodhpur - RSPCB",02-12-2025 07:00:00,26.268249,73.0193853,OZONE,62,143,105
India,Rajasthan,Jodhpur,"Digari Kalan, Jodhpur - RSPCB",02-12-2025 07:00:00,26.295810,73.082283,PM10,57,152,106
India,Rajasthan,Jodhpur,"Digari Kalan, Jodhpur - RSPCB",02-12-2025 07:00:00,26.295810,73.082283,SO2,3,6,4
India,Rajasthan,Jodhpur,"Jhalamand, Jodhpur - RSPCB",02-12-2025 07:00:00,26.215415,73.070156,OZONE,4,68,12
India,Rajasthan,Kota,"Nayapura, Kota - RSPCB",02-12-2025 07:00:00,25.196024,75.855668,SO2,1,63,10
India,Rajasthan,Kota,"Nayapura, Kota - RSPCB",02-12-2025 07:00:00,25.196024,75.855668,CO,27,102,58
India,Rajasthan,Kota,"Shrinath Puram, Kota - RSPCB",02-12-2025 07:00:00,25.14389,75.821256,NH3,3,9,5
India,Rajasthan,Kota,"Shrinath Puram, Kota - RSPCB",02-12-2025 07:00:00,25.14389,75.821256,CO,22,101,51
India,Rajasthan,Pali,"Indira Colony Vistar, Pali - RSPCB",02-12-2025 07:00:00,25.771061, 73.340227,NH3,7,16,12
India,Rajasthan,Pali,"Indira Colony Vistar, Pali - RSPCB",02-12-2025 07:00:00,25.771061, 73.340227,OZONE,6,29,8
India,Rajasthan,Pratapgarh,"Pragati Nagar, Pratapgarh - RSPCB",02-12-2025 07:00:00,24.041198,74.780702,SO2,3,17,6
India,Rajasthan,Pratapgarh,"Pragati Nagar, Pratapgarh - RSPCB",02-12-2025 07:00:00,24.041198,74.780702,OZONE,10,137,34
India,Rajasthan,Rajsamand,"Dhoinda, Rajsamand - RSPCB",02-12-2025 07:00:00,25.036360,73.883502,SO2,1,5,3
India,Rajasthan,Rajsamand,"Dhoinda, Rajsamand - RSPCB",02-12-2025 07:00:00,25.036360,73.883502,OZONE,1,130,24
India,Rajasthan,Sawai Madhopur,"Sahu Nagar, Sawai Madhopur - RSPCB",02-12-2025 07:00:00,26.031443,76.359327,PM2.5,61,322,133
India,Rajasthan,Sawai Madhopur,"Sahu Nagar, Sawai Madhopur - RSPCB",02-12-2025 07:00:00,26.031443,76.359327,NO2,10,40,19
India,Rajasthan,Sawai Madhopur,"Sahu Nagar, Sawai Madhopur - RSPCB",02-12-2025 07:00:00,26.031443,76.359327,OZONE,2,105,25
India,Rajasthan,Sikar,"Radhakishan Pura, Sikar - RSPCB",02-12-2025 07:00:00,27.608912,75.153302,NH3,11,15,12
India,Rajasthan,Sri Ganganagar,"Old City, Sri Ganganagar - RSPCB",02-12-2025 07:00:00,29.931624,73.864511,CO,16,187,38
India,Rajasthan,Jodhpur,"Mandor, Jodhpur - RSPCB",02-12-2025 07:00:00,26.358805,73.047444,PM10,59,171,91
India,Rajasthan,Jodhpur,"Samrat Ashok Udhyan, Jodhpur - RSPCB",02-12-2025 07:00:00,26.253384,72.976571,NH3,3,9,5
India,Rajasthan,Jodhpur,"Samrat Ashok Udhyan, Jodhpur - RSPCB",02-12-2025 07:00:00,26.253384,72.976571,SO2,1,27,6
India,Rajasthan,Karauli,"Satyawati Vihar, Karauli - RSPCB",02-12-2025 07:00:00,26.506177,77.025989,CO,31,107,41
India,Rajasthan,Karauli,"Satyawati Vihar, Karauli - RSPCB",02-12-2025 07:00:00,26.506177,77.025989,OZONE,5,87,10
India,Rajasthan,Kota,"Dhanmandi, Kota - RSPCB",02-12-2025 07:00:00,25.164090,75.858137,PM2.5,107,355,239
India,Rajasthan,Kota,"Dhanmandi, Kota - RSPCB",02-12-2025 07:00:00,25.164090,75.858137,NO2,19,126,58
India,Rajasthan,Tonk,"Shastri Nagar, Tonk - RSPCB",02-12-2025 07:00:00,26.159933,75.780517,OZONE,11,77,23
India,Sikkim,Gangtok,"Zero Point GICI, Gangtok - SSPCB",02-12-2025 07:00:00,27.338530,88.614099,OZONE,4,7,4
India,TamilNadu,Ariyalur,"Keelapalur, Ariyalur - TNPCB",02-12-2025 07:00:00,11.06825,79.07033,NO2,9,9,9
India,TamilNadu,Ariyalur,"Keelapalur, Ariyalur - TNPCB",02-12-2025 07:00:00,11.06825,79.07033,SO2,13,13,13
India,TamilNadu,Chennai,"Alandur Bus Depot, Chennai - CPCB",02-12-2025 07:00:00,12.9099161,80.1076538,PM10,NA,NA,NA
India,TamilNadu,Chennai,"Alandur Bus Depot, Chennai - CPCB",02-12-2025 07:00:00,12.9099161,80.1076538,CO,9,29,9
India,TamilNadu,Chennai,"Arumbakkam, Chennai - TNPCB",02-12-2025 07:00:00,13.0664,80.2112 ,NH3,1,2,2
India,TamilNadu,Chennai,"Gandhi Nagar_Ennore, Chennai - TNPCB",02-12-2025 07:00:00,13.218341,80.32027,NH3,NA,NA,NA
India,TamilNadu,Chennai,"Manali Village, Chennai - TNPCB",02-12-2025 07:00:00,13.1662,80.2584,PM10,11,48,31
India,TamilNadu,Chennai,"Manali Village, Chennai - TNPCB",02-12-2025 07:00:00,13.1662,80.2584,NO2,3,4,3
India,TamilNadu,Chennai,"Manali Village, Chennai - TNPCB",02-12-2025 07:00:00,13.1662,80.2584,SO2,NA,NA,NA
India,TamilNadu,Chennai,"Manali Village, Chennai - TNPCB",02-12-2025 07:00:00,13.1662,80.2584,OZONE,22,32,27
India,TamilNadu,Chennai,"Perungudi, Chennai - TNPCB",02-12-2025 07:00:00,12.9533,80.2357,PM10,NA,NA,NA
India,TamilNadu,Chennai,"Perungudi, Chennai - TNPCB",02-12-2025 07:00:00,12.9533,80.2357,CO,18,39,36
India,TamilNadu,Dindigul,"Mendonsa Colony, Dindigul - TNPCB",02-12-2025 07:00:00,10.358535,77.984321,NH3,2,3,2
India,TamilNadu,Dindigul,"Mendonsa Colony, Dindigul - TNPCB",02-12-2025 07:00:00,10.358535,77.984321,SO2,20,24,22
India,TamilNadu,Dindigul,"Mendonsa Colony, Dindigul - TNPCB",02-12-2025 07:00:00,10.358535,77.984321,CO,22,34,25
India,TamilNadu,Karur,"Kamadenu Nagar, Karur - TNPCB",02-12-2025 07:00:00,10.967820,78.080882,SO2,14,22,15
India,TamilNadu,Madurai,"Uchapatti, Madurai - TNPCB",02-12-2025 07:00:00,9.865935,78.022669,NH3,9,9,9
India,TamilNadu,Nagapattinam,"Velippalayam, Nagapattinam - TNPCB",02-12-2025 07:00:00,10.798548,79.838212,PM10,17,140,31
India,Rajasthan,Jaipur,"Sector-2 Murlipura, Jaipur - RSPCB",02-12-2025 07:00:00,26.960669,75.771817,OZONE,2,87,10
India,Rajasthan,Jaipur,"Shastri Nagar, Jaipur - RSPCB",02-12-2025 07:00:00,26.9502929,75.730943,OZONE,16,55,27
India,Rajasthan,Jaisalmer,"Sadar Bazar, Jaisalmer - RSPCB",02-12-2025 07:00:00,26.912329,70.909168,PM2.5,42,346,151
India,Rajasthan,Jaisalmer,"Sadar Bazar, Jaisalmer - RSPCB",02-12-2025 07:00:00,26.912329,70.909168,CO,28,108,47
India,Rajasthan,Jalore,"Mudtra Sili, Jalore - RSPCB",02-12-2025 07:00:00,25.344694,72.626208,NH3,4,10,6
India,Rajasthan,Jalore,"Mudtra Sili, Jalore - RSPCB",02-12-2025 07:00:00,25.344694,72.626208,CO,30,116,55
India,TamilNadu,Coimbatore,"SIDCO Kurichi, Coimbatore - TNPCB",02-12-2025 07:00:00,10.942451,76.978996,NO2,9,36,18
India,TamilNadu,Coimbatore,"SIDCO Kurichi, Coimbatore - TNPCB",02-12-2025 07:00:00,10.942451,76.978996,NH3,1,2,1
India,TamilNadu,Coimbatore,"SIDCO Kurichi, Coimbatore - TNPCB",02-12-2025 07:00:00,10.942451,76.978996,CO,15,32,25
India,TamilNadu,Cuddalore,"Kudikadu, Cuddalore - TNPCB",02-12-2025 07:00:00,11.6829898,79.7532099,NO2,19,19,19
India,TamilNadu,Cuddalore,"Kudikadu, Cuddalore - TNPCB",02-12-2025 07:00:00,11.6829898,79.7532099,SO2,19,20,20
India,Uttar_Pradesh,Firozabad,"Vibhab Nagar, Firozabad - UPPCB",02-12-2025 07:00:00,27.1594,78.3953,CO,10,42,30
India,Uttar_Pradesh,Ghaziabad,"Loni, Ghaziabad - UPPCB",02-12-2025 07:00:00,28.757294,77.278792,SO2,7,30,17
India,Uttar_Pradesh,Ghaziabad,"Loni, Ghaziabad - UPPCB",02-12-2025 07:00:00,28.757294,77.278792,CO,30,119,82
India,Uttar_Pradesh,Ghaziabad,"Loni, Ghaziabad - UPPCB",02-12-2025 07:00:00,28.757294,77.278792,OZONE,2,73,11
India,Uttar_Pradesh,Ghaziabad,"Sanjay Nagar, Ghaziabad - UPPCB",02-12-2025 07:00:00,28.685382,77.453839,CO,3,117,39
India,Uttar_Pradesh,Ghaziabad,"Sanjay Nagar, Ghaziabad - UPPCB",02-12-2025 07:00:00,28.685382,77.453839,OZONE,9,82,10
India,Uttar_Pradesh,Ghaziabad,"Vasundhara, Ghaziabad - UPPCB",02-12-2025 07:00:00,28.6603346,77.3572563,PM2.5,101,374,236
India,Uttar_Pradesh,Ghaziabad,"Vasundhara, Ghaziabad - UPPCB",02-12-2025 07:00:00,28.6603346,77.3572563,PM10,133,438,239
India,Uttar_Pradesh,Ghaziabad,"Vasundhara, Ghaziabad - UPPCB",02-12-2025 07:00:00,28.6603346,77.3572563,NO2,89,230,156
India,Uttar_Pradesh,Ghaziabad,"Vasundhara, Ghaziabad - UPPCB",02-12-2025 07:00:00,28.6603346,77.3572563,SO2,4,54,19
India,Uttar_Pradesh,Gorakhpur,"Madan Mohan Malaviya University of Technology, Gorakhpur - UPPCB",02-12-2025 07:00:00,26.730136,83.433859,PM10,59,182,108
India,TamilNadu,Thanjavur,"Parisutham Nagar, Thanjavur - TNPCB",02-12-2025 07:00:00,10.7654824,79.1389968,PM10,16,67,34
India,TamilNadu,Thanjavur,"Parisutham Nagar, Thanjavur - TNPCB",02-12-2025 07:00:00,10.7654824,79.1389968,NH3,1,1,1
India,TamilNadu,Tirunelveli,"Municipal Corporation Office, Tirunelveli - TNPCB",02-12-2025 07:00:00,8.728442,77.6962,NO2,5,14,9
India,TamilNadu,Tirunelveli,"Municipal Corporation Office, Tirunelveli - TNPCB",02-12-2025 07:00:00,8.728442,77.6962,CO,20,46,20
India,TamilNadu,Tirupur,"Kumaran College, Tirupur - TNPCB",02-12-2025 07:00:00,11.0973603,77.3228673,PM10,NA,NA,NA
India,TamilNadu,Vellore,"Vasanthapuram, Vellore - TNPCB",02-12-2025 07:00:00,12.909494,79.131861,PM2.5,11,51,30
India,TamilNadu,Vellore,"Vasanthapuram, Vellore - TNPCB",02-12-2025 07:00:00,12.909494,79.131861,SO2,18,21,20
India,TamilNadu,Virudhunagar,"Collectorate Office, Virudhunagar - TNPCB",02-12-2025 07:00:00,9.559382,77.948828,NO2,NA,NA,NA
India,TamilNadu,Virudhunagar,"Collectorate Office, Virudhunagar - TNPCB",02-12-2025 07:00:00,9.559382,77.948828,SO2,26,27,26
India,Telangana,Hyderabad,"New Malakpet, Hyderabad - TSPCB",02-12-2025 07:00:00,17.37206,78.50864,NH3,2,3,3
India,Telangana,Hyderabad,"New Malakpet, Hyderabad - TSPCB",02-12-2025 07:00:00,17.37206,78.50864,SO2,12,19,14
India,Telangana,Hyderabad,"New Malakpet, Hyderabad - TSPCB",02-12-2025 07:00:00,17.37206,78.50864,CO,26,41,28
India,Telangana,Hyderabad,"New Malakpet, Hyderabad - TSPCB",02-12-2025 07:00:00,17.37206,78.50864,OZONE,10,33,10
India,Telangana,Hyderabad,"Ramachandrapuram, Hyderabad - TSPCB",02-12-2025 07:00:00,17.528544,78.286195,PM10,61,77,68
India,Telangana,Hyderabad,"Ramachandrapuram, Hyderabad - TSPCB",02-12-2025 07:00:00,17.528544,78.286195,SO2,11,16,13
India,Telangana,Hyderabad,"Sanathnagar, Hyderabad - TSPCB",02-12-2025 07:00:00,17.4559458,78.4332152,NO2,26,30,28
India,Telangana,Hyderabad,"Somajiguda, Hyderabad - TSPCB",02-12-2025 07:00:00,17.417094,78.457437,PM2.5,9,68,26
India,Telangana,Hyderabad,"Somajiguda, Hyderabad - TSPCB",02-12-2025 07:00:00,17.417094,78.457437,SO2,16,19,18
India,Telangana,Hyderabad,"Zoo Park, Hyderabad - TSPCB",02-12-2025 07:00:00,17.349694,78.451437,SO2,3,4,4
India,Telangana,Hyderabad,"IITH Kandi, Hyderabad - TSPCB",02-12-2025 07:00:00,17.585705,78.126199,PM2.5,32,78,58
India,Telangana,Hyderabad,"IITH Kandi, Hyderabad - TSPCB",02-12-2025 07:00:00,17.585705,78.126199,SO2,11,13,12
India,Telangana,Hyderabad,"IITH Kandi, Hyderabad - TSPCB",02-12-2025 07:00:00,17.585705,78.126199,CO,15,34,27
India,Telangana,Hyderabad,"Kokapet, Hyderabad - TSPCB",02-12-2025 07:00:00,17.393559,78.339194,PM2.5,42,64,50
India,Telangana,Hyderabad,"Kokapet, Hyderabad - TSPCB",02-12-2025 07:00:00,17.393559,78.339194,SO2,11,18,14
India,Telangana,Hyderabad,"Kompally Municipal Office, Hyderabad - TSPCB",02-12-2025 07:00:00,17.544899,78.486949,NH3,3,4,3
India,Telangana,Hyderabad,"Kompally Municipal Office, Hyderabad - TSPCB",02-12-2025 07:00:00,17.544899,78.486949,CO,10,16,10
India,Telangana,Hyderabad,"Nacharam_TSIIC IALA, Hyderabad - TSPCB",02-12-2025 07:00:00,17.429398,78.569354,PM2.5,52,70,58
India,Telangana,Hyderabad,"Nacharam_TSIIC IALA, Hyderabad - TSPCB",02-12-2025 07:00:00,17.429398,78.569354,OZONE,16,57,26
India,Telangana,Hyderabad,"Bollaram Industrial Area, Hyderabad - TSPCB",02-12-2025 07:00:00,17.540891,78.358528,CO,16,47,30
India,Telangana,Hyderabad,"Central University, Hyderabad - TSPCB",02-12-2025 07:00:00,17.460103,78.334361,PM10,64,114,85
India,Telangana,Hyderabad,"ECIL Kapra, Hyderabad - TSPCB",02-12-2025 07:00:00,17.470431,78.566959,PM10,76,90,82
India,Telangana,Hyderabad,"ECIL Kapra, Hyderabad - TSPCB",02-12-2025 07:00:00,17.470431,78.566959,OZONE,12,40,15
India,Telangana,Hyderabad,"ICRISAT Patancheru, Hyderabad - TSPCB",02-12-2025 07:00:00,17.518400,78.278777,PM10,60,156,111
India,Telangana,Hyderabad,"ICRISAT Patancheru, Hyderabad - TSPCB",02-12-2025 07:00:00,17.518400,78.278777,CO,20,55,49
India,Telangana,Hyderabad,"IDA Pashamylaram, Hyderabad - TSPCB",02-12-2025 07:00:00,17.5316895,78.218939,PM2.5,NA,NA,NA
India,Uttar_Pradesh,Bareilly,"Rajendra Nagar, Bareilly - UPPCB",02-12-2025 07:00:00,28.38910936,79.42963708,PM2.5,37,91,70
India,Uttar_Pradesh,Bareilly,"Rajendra Nagar, Bareilly - UPPCB",02-12-2025 07:00:00,28.38910936,79.42963708,NH3,1,1,1
India,Uttar_Pradesh,Bulandshahr,"Yamunapuram, Bulandshahr - UPPCB",02-12-2025 07:00:00,28.406963,77.849831,NO2,36,176,95
India,Uttar_Pradesh,Bulandshahr,"Yamunapuram, Bulandshahr - UPPCB",02-12-2025 07:00:00,28.406963,77.849831,SO2,13,76,32
India,Uttar_Pradesh,Firozabad,"Nagla Bhau, Firozabad - UPPCB",02-12-2025 07:00:00,27.168897,78.376960,NO2,17,17,17
India,TamilNadu,Ooty,"Bombay Castel, Ooty - TNPCB",02-12-2025 07:00:00,11.4068288,76.7138973,SO2,14,16,15
India,TamilNadu,Ooty,"Bombay Castel, Ooty - TNPCB",02-12-2025 07:00:00,11.4068288,76.7138973,OZONE,4,20,8
India,TamilNadu,Palkalaiperur,"Bharathidasan University, Palkalaiperur - TNPCB",02-12-2025 07:00:00,10.681158,78.741746,PM2.5,29,63,46
India,TamilNadu,Ramanathapuram,"Chalai Bazaar, Ramanathapuram - TNPCB",02-12-2025 07:00:00,9.36399,78.831977,CO,20,34,31
India,Uttar_Pradesh,Agra,"Sector-3B Avas Vikas Colony, Agra - UPPCB",02-12-2025 07:00:00,27.19412,77.96237,PM10,15,304,181
India,Uttar_Pradesh,Agra,"Shahjahan Garden, Agra - UPPCB",02-12-2025 07:00:00,27.169338,78.03582,PM2.5,47,180,103
India,Uttar_Pradesh,Baghpat,"Sardar Patel Inter College, Baghpat - UPPCB",02-12-2025 07:00:00,28.964949,77.278761,NH3,NA,NA,NA
India,Uttar_Pradesh,Baghpat,"Sardar Patel Inter College, Baghpat - UPPCB",02-12-2025 07:00:00,28.964949,77.278761,SO2,NA,NA,NA
India,Uttar_Pradesh,Agra,"Rohta, Agra - UPPCB",02-12-2025 07:00:00,27.106972,78.000111,NO2,16,18,17
India,Uttar_Pradesh,Agra,"Rohta, Agra - UPPCB",02-12-2025 07:00:00,27.106972,78.000111,NH3,6,7,6
India,Uttar_Pradesh,Agra,"Sanjay Palace, Agra - UPPCB",02-12-2025 07:00:00,27.19865833,78.00598056,PM10,93,276,144
India,Uttar_Pradesh,Moradabad,"Kashiram Nagar, Moradabad - UPPCB",02-12-2025 07:00:00,28.849399,78.742362,PM10,52,168,118
India,Uttar_Pradesh,Moradabad,"Kashiram Nagar, Moradabad - UPPCB",02-12-2025 07:00:00,28.849399,78.742362,NH3,4,4,4
India,Uttar_Pradesh,Moradabad,"Kashiram Nagar, Moradabad - UPPCB",02-12-2025 07:00:00,28.849399,78.742362,OZONE,22,36,24
India,Uttar_Pradesh,Muzaffarnagar,"New Mandi, Muzaffarnagar - UPPCB",02-12-2025 07:00:00,29.4723508,77.7194031,PM2.5,108,388,303
India,Uttar_Pradesh,Muzaffarnagar,"New Mandi, Muzaffarnagar - UPPCB",02-12-2025 07:00:00,29.4723508,77.7194031,NH3,12,21,17
India,Uttar_Pradesh,Noida,"Sector - 125, Noida - UPPCB",02-12-2025 07:00:00,28.5447608,77.3231257,SO2,9,17,13
India,Uttar_Pradesh,Noida,"Sector - 125, Noida - UPPCB",02-12-2025 07:00:00,28.5447608,77.3231257,CO,15,124,98
India,Uttar_Pradesh,Noida,"Sector - 62, Noida - IMD",02-12-2025 07:00:00,28.6245479,77.3577104,PM2.5,158,369,299
India,Uttar_Pradesh,Gorakhpur,"Madan Mohan Malaviya University of Technology, Gorakhpur - UPPCB",02-12-2025 07:00:00,26.730136,83.433859,NO2,11,12,11
India,Uttar_Pradesh,Gorakhpur,"Madan Mohan Malaviya University of Technology, Gorakhpur - UPPCB",02-12-2025 07:00:00,26.730136,83.433859,SO2,33,34,33
India,Uttar_Pradesh,Greater Noida,"Knowledge Park - III, Greater Noida - UPPCB",02-12-2025 07:00:00,28.47272,77.482000,PM10,148,448,306
India,Uttar_Pradesh,Greater Noida,"Knowledge Park - III, Greater Noida - UPPCB",02-12-2025 07:00:00,28.47272,77.482000,NH3,9,18,15
India,Uttar_Pradesh,Greater Noida,"Knowledge Park - V, Greater Noida - UPPCB",02-12-2025 07:00:00,28.557054,77.453663,PM10,174,500,403
India,Uttar_Pradesh,Hapur,"Anand Vihar, Hapur - UPPCB",02-12-2025 07:00:00,28.725645,77.749675,OZONE,5,43,5
India,Uttar_Pradesh,Lucknow,"Lalbagh, Lucknow - CPCB",02-12-2025 07:00:00,26.8458805,80.9365541,PM2.5,71,335,196
India,Uttar_Pradesh,Lucknow,"Lalbagh, Lucknow - CPCB",02-12-2025 07:00:00,26.8458805,80.9365541,NH3,14,21,18
India,Uttar_Pradesh,Lucknow,"Lalbagh, Lucknow - CPCB",02-12-2025 07:00:00,26.8458805,80.9365541,OZONE,17,99,40
India,Uttar_Pradesh,Lucknow,"Talkatora District Industries Center, Lucknow - CPCB",02-12-2025 07:00:00,26.83399722,80.8917361,PM2.5,58,325,176
India,Uttar_Pradesh,Lucknow,"Talkatora District Industries Center, Lucknow - CPCB",02-12-2025 07:00:00,26.83399722,80.8917361,PM10,90,184,141
India,Uttar_Pradesh,Lucknow,"Talkatora District Industries Center, Lucknow - CPCB",02-12-2025 07:00:00,26.83399722,80.8917361,SO2,3,19,8
India,Uttar_Pradesh,Meerut,"Ganga Nagar, Meerut - UPPCB",02-12-2025 07:00:00,28.999264,77.7590354,SO2,31,52,42
India,Uttar_Pradesh,Meerut,"Pallavpuram Phase 2, Meerut - UPPCB",02-12-2025 07:00:00,29.063510,77.709723,PM10,136,406,264
India,Uttar_Pradesh,Meerut,"Pallavpuram Phase 2, Meerut - UPPCB",02-12-2025 07:00:00,29.063510,77.709723,SO2,13,42,26
India,Uttar_Pradesh,Meerut,"Pallavpuram Phase 2, Meerut - UPPCB",02-12-2025 07:00:00,29.063510,77.709723,CO,18,101,64
India,Uttar_Pradesh,Moradabad,"Eco Herbal Park, Moradabad - UPPCB",02-12-2025 07:00:00,28.840739,78.697531,NH3,4,10,8
India,Uttar_Pradesh,Moradabad,"Eco Herbal Park, Moradabad - UPPCB",02-12-2025 07:00:00,28.840739,78.697531,SO2,8,39,19
India,Uttar_Pradesh,Moradabad,"Jigar Colony, Moradabad - UPPCB",02-12-2025 07:00:00,28.856664,78.772638,PM10,80,179,125
India,Uttar_Pradesh,Moradabad,"Jigar Colony, Moradabad - UPPCB",02-12-2025 07:00:00,28.856664,78.772638,SO2,18,72,42
India,Uttar_Pradesh,Khurja,"Kalindi Kunj, Khurja - UPPCB",02-12-2025 07:00:00,28.2348927,77.8683002,NH3,1,1,1
India,Uttar_Pradesh,Khurja,"Kalindi Kunj, Khurja - UPPCB",02-12-2025 07:00:00,28.2348927,77.8683002,SO2,14,15,15
India,Uttar_Pradesh,Lucknow,"B R Ambedkar University, Lucknow - UPPCB",02-12-2025 07:00:00,26.766433,80.927299,PM10,70,194,129
India,Uttar_Pradesh,Lucknow,"Kendriya Vidyalaya, Lucknow - CPCB",02-12-2025 07:00:00,26.906111,80.948222,PM2.5,45,293,138
India,Uttar_Pradesh,Lucknow,"Kendriya Vidyalaya, Lucknow - CPCB",02-12-2025 07:00:00,26.906111,80.948222,PM10,85,151,119
India,Uttar_Pradesh,Lucknow,"Kendriya Vidyalaya, Lucknow - CPCB",02-12-2025 07:00:00,26.906111,80.948222,OZONE,10,78,14
India,Uttar_Pradesh,Jhansi,"Shivaji Nagar, Jhansi - UPPCB",02-12-2025 07:00:00,25.4547,78.6039,NO2,6,6,6
India,Uttar_Pradesh,Kanpur,"FTI Kidwai Nagar, Kanpur - UPPCB",02-12-2025 07:00:00,26.428282,80.327067,SO2,17,27,22
India,Uttar_Pradesh,Kanpur,"FTI Kidwai Nagar, Kanpur - UPPCB",02-12-2025 07:00:00,26.428282,80.327067,OZONE,12,14,14
India,Uttar_Pradesh,Kanpur,"Nehru Nagar, Kanpur - UPPCB",02-12-2025 07:00:00,26.4703136,80.3229863,SO2,4,17,11
India,Uttar_Pradesh,Kanpur,"Nehru Nagar, Kanpur - UPPCB",02-12-2025 07:00:00,26.4703136,80.3229863,OZONE,6,32,6
India,Uttar_Pradesh,Khurja,"Kalindi Kunj, Khurja - UPPCB",02-12-2025 07:00:00,28.2348927,77.8683002,PM2.5,84,361,239
India,Uttar_Pradesh,Varanasi,"Maldahiya, Varanasi - UPPCB",02-12-2025 07:00:00,25.32393,82.99687,PM10,39,108,83
India,Uttar_Pradesh,Varanasi,"Maldahiya, Varanasi - UPPCB",02-12-2025 07:00:00,25.32393,82.99687,NO2,2,2,2
India,Uttar_Pradesh,Vrindavan,"Omex Eternity, Vrindavan - UPPCB",02-12-2025 07:00:00,27.5714090,77.6557570,SO2,11,20,14
India,Uttar_Pradesh,Vrindavan,"Omex Eternity, Vrindavan - UPPCB",02-12-2025 07:00:00,27.5714090,77.6557570,OZONE,15,16,15
India,Uttarakhand,Rishikesh,"Shivaji Nagar, Rishikesh - UKPCB",02-12-2025 07:00:00,30.075911,78.2859547,PM10,55,98,79
India,Uttar_Pradesh,Noida,"Sector-1, Noida - UPPCB",02-12-2025 07:00:00,28.5898,77.3101,NO2,67,276,176
India,Uttar_Pradesh,Noida,"Sector-116, Noida - UPPCB",02-12-2025 07:00:00,28.569230,77.393848,NO2,64,148,104
India,Uttar_Pradesh,Prayagraj,"Jhunsi, Prayagraj - UPPCB",02-12-2025 07:00:00,25.425602,81.917152,PM10,82,220,148
India,Uttar_Pradesh,Prayagraj,"Jhunsi, Prayagraj - UPPCB",02-12-2025 07:00:00,25.425602,81.917152,OZONE,13,153,14
India,Uttar_Pradesh,Prayagraj,"Motilal Nehru NIT, Prayagraj - UPPCB",02-12-2025 07:00:00,25.494,81.863,PM10,67,148,103
India,Uttar_Pradesh,Prayagraj,"Nagar Nigam, Prayagraj - UPPCB",02-12-2025 07:00:00,25.44919916 ,81.82735986 ,NH3,7,13,10
India,Uttar_Pradesh,Varanasi,"Bhelupur, Varanasi - UPPCB",02-12-2025 07:00:00,25.301778,82.996789,PM2.5,40,286,105
India,Uttar_Pradesh,Varanasi,"Bhelupur, Varanasi - UPPCB",02-12-2025 07:00:00,25.301778,82.996789,SO2,27,32,30
India,Uttar_Pradesh,Varanasi,"IESD Banaras Hindu University, Varanasi - UPPCB",02-12-2025 07:00:00,25.262326,82.995408,SO2,26,35,31
India,Uttarakhand,Rishikesh,"Shivaji Nagar, Rishikesh - UKPCB",02-12-2025 07:00:00,30.075911,78.2859547,SO2,5,5,5
India,Uttarakhand,Rishikesh,"Shivaji Nagar, Rishikesh - UKPCB",02-12-2025 07:00:00,30.075911,78.2859547,OZONE,5,5,5
India,West_Bengal,Asansol,"Asansol Court Area, Asansol - WBPCB",02-12-2025 07:00:00,23.685297,86.945968,NO2,15,28,23
India,West_Bengal,Asansol,"Asansol Court Area, Asansol - WBPCB",02-12-2025 07:00:00,23.685297,86.945968,OZONE,10,51,12
India,West_Bengal,Asansol,"Evelyn Lodge, Asansol - WBPCB",02-12-2025 07:00:00,23.6979360,86.9443950,NH3,4,7,5
India,West_Bengal,Asansol,"Mahabir Colliery, Asansol - WBPCB",02-12-2025 07:00:00,23.6181830,87.1057180,PM10,6,158,123
India,West_Bengal,Asansol,"Trivenidevi Bhalotia College, Asansol - WBPCB",02-12-2025 07:00:00,23.616515,87.119133,PM10,121,169,141
India,West_Bengal,Asansol,"Trivenidevi Bhalotia College, Asansol - WBPCB",02-12-2025 07:00:00,23.616515,87.119133,NO2,22,46,34
India,West_Bengal,Asansol,"Trivenidevi Bhalotia College, Asansol - WBPCB",02-12-2025 07:00:00,23.616515,87.119133,SO2,1,15,4
India,West_Bengal,Barrackpore,"SVSPA Campus, Barrackpore - WBPCB",02-12-2025 07:00:00,22.7605581,88.3617589,SO2,9,11,10
India,West_Bengal,Durgapur,"Mahishkapur Road_B-Zone, Durgapur - WBPCB",02-12-2025 07:00:00,23.567923,87.306843,CO,90,115,104
India,West_Bengal,Durgapur,"PCBL Residential Complex, Durgapur - WBPCB",02-12-2025 07:00:00,23.5087640,87.3544400,PM2.5,137,259,210
India,West_Bengal,Durgapur,"PCBL Residential Complex, Durgapur - WBPCB",02-12-2025 07:00:00,23.5087640,87.3544400,NO2,26,48,38
India,West_Bengal,Durgapur,"PCBL Residential Complex, Durgapur - WBPCB",02-12-2025 07:00:00,23.5087640,87.3544400,NH3,13,16,15
India,West_Bengal,Durgapur,"PCBL Residential Complex, Durgapur - WBPCB",02-12-2025 07:00:00,23.5087640,87.3544400,SO2,2,2,2
India,West_Bengal,Durgapur,"PCBL Residential Complex, Durgapur - WBPCB",02-12-2025 07:00:00,23.5087640,87.3544400,CO,84,114,109
India,West_Bengal,Durgapur,"Womens College_City Center, Durgapur - WBPCB (Formerly known as Sidhu Kanhu Indoor Stadium)",02-12-2025 07:00:00,23.549395,87.300496,NH3,2,3,2
India,West_Bengal,Haldia,"Priyambada Housing Estate, Haldia - WBPCB",02-12-2025 07:00:00,22.06047,88.109737,OZONE,21,30,22
India,West_Bengal,Howrah,"Belur Math, Howrah - WBPCB",02-12-2025 07:00:00,22.629801,88.352017,PM2.5,157,348,291
India,West_Bengal,Howrah,"Belur Math, Howrah - WBPCB",02-12-2025 07:00:00,22.629801,88.352017,PM10,122,214,173
India,West_Bengal,Howrah,"Belur Math, Howrah - WBPCB",02-12-2025 07:00:00,22.629801,88.352017,NH3,7,13,10
India,West_Bengal,Howrah,"Botanical Garden, Howrah - WBPCB",02-12-2025 07:00:00,22.554954,88.292568,PM2.5,64,211,132
India,West_Bengal,Howrah,"Botanical Garden, Howrah - WBPCB",02-12-2025 07:00:00,22.554954,88.292568,NO2,8,21,12
India,West_Bengal,Howrah,"Ghusuri, Howrah - WBPCB",02-12-2025 07:00:00,22.611968,88.347422,PM2.5,80,308,165
India,West_Bengal,Kolkata,"Ballygunge, Kolkata - WBPCB",02-12-2025 07:00:00,22.5367507,88.3638022,PM10,109,193,158
India,West_Bengal,Kolkata,"Ballygunge, Kolkata - WBPCB",02-12-2025 07:00:00,22.5367507,88.3638022,SO2,7,31,19
India,West_Bengal,Kolkata,"Ballygunge, Kolkata - WBPCB",02-12-2025 07:00:00,22.5367507,88.3638022,CO,15,98,61
India,West_Bengal,Kolkata,"Bidhannagar, Kolkata - WBPCB",02-12-2025 07:00:00,22.58157048,88.41002457,CO,67,104,96
India,West_Bengal,Kolkata,"Fort William, Kolkata - WBPCB",02-12-2025 07:00:00,22.556640,88.342674,SO2,10,38,19
India,West_Bengal,Kolkata,"Jadavpur, Kolkata - WBPCB",02-12-2025 07:00:00,22.49929,88.36917,NO2,34,79,55
India,West_Bengal,Kolkata,"Rabindra Bharati University, Kolkata - WBPCB",02-12-2025 07:00:00,22.627847,88.380669,PM2.5,79,145,109
India,West_Bengal,Kolkata,"Rabindra Bharati University, Kolkata - WBPCB",02-12-2025 07:00:00,22.627847,88.380669,NO2,31,102,69
India,West_Bengal,Kolkata,"Rabindra Bharati University, Kolkata - WBPCB",02-12-2025 07:00:00,22.627847,88.380669,SO2,8,10,9
India,West_Bengal,Kolkata,"Rabindra Sarobar, Kolkata - WBPCB",02-12-2025 07:00:00,22.51106,88.35142,PM10,68,139,121
India,West_Bengal,Kolkata,"Rabindra Sarobar, Kolkata - WBPCB",02-12-2025 07:00:00,22.51106,88.35142,CO,52,105,85
India,West_Bengal,Kolkata,"Victoria, Kolkata - WBPCB",02-12-2025 07:00:00,22.5448082,88.3403691,PM10,121,219,164
India,West_Bengal,Kolkata,"Victoria, Kolkata - WBPCB",02-12-2025 07:00:00,22.5448082,88.3403691,OZONE,5,68,7
India,West_Bengal,Siliguri,"Ward-32 Bapupara, Siliguri - WBPCB",02-12-2025 07:00:00,26.6879226,88.4152495,NO2,13,24,18
India,West_Bengal,Siliguri,"Ward-32 Bapupara, Siliguri - WBPCB",02-12-2025 07:00:00,26.6879226,88.4152495,CO,27,100,73
India,West_Bengal,Siliguri,"Ward-32 Bapupara, Siliguri - WBPCB",02-12-2025 07:00:00,26.6879226,88.4152495,OZONE,11,102,12
India,Andhra_Pradesh,Vijayawada,"Rajiv Gandhi Park, Vijayawada - APPCB",02-12-2025 07:00:00,16.509717,80.612222,OZONE,1,29,25
India,Andhra_Pradesh,Visakhapatnam,"GVM Corporation, Visakhapatnam - APPCB",02-12-2025 07:00:00,17.72,83.3,NO2,1,95,42
India,Andhra_Pradesh,Visakhapatnam,"GVM Corporation, Visakhapatnam - APPCB",02-12-2025 07:00:00,17.72,83.3,SO2,8,23,14
India,Andhra_Pradesh,Visakhapatnam,"GVM Corporation, Visakhapatnam - APPCB",02-12-2025 07:00:00,17.72,83.3,OZONE,27,54,51
India,Arunachal_Pradesh,Naharlagun,"Naharlagun, Naharlagun - APSPCB",02-12-2025 07:00:00,27.103358,93.679645,PM10,56,157,104
India,Assam,Byrnihat,"Central Academy for SFS, Byrnihat - PCBA",02-12-2025 07:00:00,26.071318,91.87488,PM10,70,101,84
India,Assam,Byrnihat,"Central Academy for SFS, Byrnihat - PCBA",02-12-2025 07:00:00,26.071318,91.87488,SO2,5,7,6
India,Assam,Guwahati,"IITG, Guwahati - PCBA",02-12-2025 07:00:00,26.2028636,91.70046436,PM10,83,316,133
India,Assam,Sivasagar,"Girls College, Sivasagar - PCBA",02-12-2025 07:00:00,26.987634,94.636574,PM10,46,85,59
India,Assam,Sivasagar,"Girls College, Sivasagar - PCBA",02-12-2025 07:00:00,26.987634,94.636574,SO2,8,11,10
India,Assam,Sivasagar,"Girls College, Sivasagar - PCBA",02-12-2025 07:00:00,26.987634,94.636574,OZONE,4,94,5
India,Bihar,Araria,"Kharahiya Basti, Araria - BSPCB",02-12-2025 07:00:00,26.146529,87.454184,NH3,6,8,7
India,Bihar,Araria,"Kharahiya Basti, Araria - BSPCB",02-12-2025 07:00:00,26.146529,87.454184,SO2,18,25,21
India,Bihar,Araria,"Kharahiya Basti, Araria - BSPCB",02-12-2025 07:00:00,26.146529,87.454184,CO,28,40,36
India,Bihar,Aurangabad,"Gurdeo Nagar, Aurangabad - BSPCB",02-12-2025 07:00:00,24.75746,84.366208,PM10,74,142,96
India,Bihar,Aurangabad,"Gurdeo Nagar, Aurangabad - BSPCB",02-12-2025 07:00:00,24.75746,84.366208,OZONE,8,52,11
India,Andhra_Pradesh,Chittoor,"Gangineni Cheruvu, Chittoor - APPCB",02-12-2025 07:00:00,13.204880,79.097889,SO2,7,33,16
India,Andhra_Pradesh,Chittoor,"Gangineni Cheruvu, Chittoor - APPCB",02-12-2025 07:00:00,13.204880,79.097889,CO,25,46,39
India,Andhra_Pradesh,Kadapa,"Yerramukkapalli, Kadapa - APPCB",02-12-2025 07:00:00,14.465052,78.824187,PM2.5,47,77,62
India,Andhra_Pradesh,Rajamahendravaram,"Anand Kala Kshetram, Rajamahendravaram - APPCB",02-12-2025 07:00:00,16.9872867,81.7363176,PM10,57,96,78
India,Andhra_Pradesh,Rajamahendravaram,"Anand Kala Kshetram, Rajamahendravaram - APPCB",02-12-2025 07:00:00,16.9872867,81.7363176,NO2,14,47,25
India,Andhra_Pradesh,Rajamahendravaram,"Anand Kala Kshetram, Rajamahendravaram - APPCB",02-12-2025 07:00:00,16.9872867,81.7363176,NH3,2,4,2
India,Andhra_Pradesh,Tirumala,"Toll Gate, Tirumala - APPCB",02-12-2025 07:00:00,13.67,79.35,PM10,8,17,12
India,Andhra_Pradesh,Tirumala,"Toll Gate, Tirumala - APPCB",02-12-2025 07:00:00,13.67,79.35,CO,17,68,38
India,Andhra_Pradesh,Tirupati,"Vaikuntapuram, Tirupati - APPCB",02-12-2025 07:00:00,13.615387,79.409230,PM10,48,55,52
India,Andhra_Pradesh,Tirupati,"Vaikuntapuram, Tirupati - APPCB",02-12-2025 07:00:00,13.615387,79.409230,SO2,7,9,8
India,Andhra_Pradesh,Tirupati,"Vaikuntapuram, Tirupati - APPCB",02-12-2025 07:00:00,13.615387,79.409230,OZONE,16,17,17
India,Andhra_Pradesh,Vijayawada,"HB Colony, Vijayawada - APPCB",02-12-2025 07:00:00,16.536107,80.594233,NH3,4,5,5
India,Andhra_Pradesh,Vijayawada,"HB Colony, Vijayawada - APPCB",02-12-2025 07:00:00,16.536107,80.594233,OZONE,24,53,49
India,Bihar,Begusarai,"Lohiyanagar, Begusarai - BSPCB",02-12-2025 07:00:00,25.42742023,86.13886079,PM10,46,145,100
India,Bihar,Bettiah,"Kamalnath Nagar, Bettiah - BSPCB",02-12-2025 07:00:00,26.80365,84.51954,NH3,1,1,1
India,Bihar,Bettiah,"Kamalnath Nagar, Bettiah - BSPCB",02-12-2025 07:00:00,26.80365,84.51954,CO,28,119,109
India,Bihar,Bhagalpur,"DM Office_Kachari Chowk, Bhagalpur - BSPCB",02-12-2025 07:00:00,25.251013,86.989001,NH3,1,1,1
India,Bihar,Bhagalpur,"Mayaganj, Bhagalpur - BSPCB",02-12-2025 07:00:00,25.265194,87.012947,PM2.5,53,123,84
India,Bihar,Bhagalpur,"Mayaganj, Bhagalpur - BSPCB",02-12-2025 07:00:00,25.265194,87.012947,CO,63,106,95
India,Assam,Guwahati,"IITG, Guwahati - PCBA",02-12-2025 07:00:00,26.2028636,91.70046436,NH3,5,5,5
India,Assam,Guwahati,"IITG, Guwahati - PCBA",02-12-2025 07:00:00,26.2028636,91.70046436,SO2,23,26,24
India,Assam,Guwahati,"LGBI Airport, Guwahati - PCBA",02-12-2025 07:00:00,26.10887,91.589544,OZONE,10,14,11
India,Assam,Guwahati,"Pan Bazaar, Guwahati - PCBA",02-12-2025 07:00:00,26.187500,91.744194,PM2.5,63,296,132
India,Assam,Guwahati,"Pan Bazaar, Guwahati - PCBA",02-12-2025 07:00:00,26.187500,91.744194,SO2,26,46,36
India,Assam,Nalbari,"Bata Chowk, Nalbari - PCBA",02-12-2025 07:00:00,26.446912,91.439057,OZONE,16,21,20
India,Bihar,Gaya,"SFTI Kusdihra, Gaya - BSPCB",02-12-2025 07:00:00,24.762518,84.982348,PM2.5,34,67,49
India,Bihar,Gaya,"SFTI Kusdihra, Gaya - BSPCB",02-12-2025 07:00:00,24.762518,84.982348,PM10,31,71,47
India,Bihar,Hajipur,"Industrial Area, Hajipur - BSPCB",02-12-2025 07:00:00,25.697189,85.245900,NO2,23,53,35
India,Bihar,Katihar,"Mirchaibari, Katihar - BSPCB",02-12-2025 07:00:00,25.560083,87.553265,NH3,1,1,1
India,Bihar,Katihar,"Mirchaibari, Katihar - BSPCB",02-12-2025 07:00:00,25.560083,87.553265,CO,44,76,48
India,Bihar,Buxar,"Charitra Van, Buxar - BSPCB",02-12-2025 07:00:00,25.567520,83.966379,NO2,9,10,9
India,Bihar,Buxar,"Charitra Van, Buxar - BSPCB",02-12-2025 07:00:00,25.567520,83.966379,SO2,1,11,5
India,Bihar,Chhapra,"Darshan Nagar, Chhapra - BSPCB",02-12-2025 07:00:00,25.7808257,84.7446768,PM10,28,66,49
India,Bihar,Chhapra,"Darshan Nagar, Chhapra - BSPCB",02-12-2025 07:00:00,25.7808257,84.7446768,OZONE,18,55,29
India,Bihar,Gaya,"Collectorate, Gaya - BSPCB",02-12-2025 07:00:00,24.7955,84.9994,SO2,6,25,10
India,Bihar,Manguraha,"Forest Rest House, Manguraha - BSPCB",02-12-2025 07:00:00,27.308328,84.531742,NO2,4,12,7
India,Bihar,Manguraha,"Forest Rest House, Manguraha - BSPCB",02-12-2025 07:00:00,27.308328,84.531742,CO,32,34,32
India,Bihar,Motihari,"Gandak Colony, Motihari - BSPCB",02-12-2025 07:00:00,26.63086,84.90051,PM2.5,37,247,100
India,Bihar,Munger,"Town Hall, Munger - BSPCB",02-12-2025 07:00:00,25.376776,86.471523,OZONE,12,25,16
India,Andaman and Nicobar,Sri Vijaya Puram,"Police Line, Sri Vijaya Puram - ANPCC",02-12-2025 07:00:00,11.654054,92.734055,SO2,NA,NA,NA
India,Andaman and Nicobar,Sri Vijaya Puram,"Police Line, Sri Vijaya Puram - ANPCC",02-12-2025 07:00:00,11.654054,92.734055,OZONE,2,9,2
India,Andhra_Pradesh,Amaravati,"Secretariat, Amaravati - APPCB",02-12-2025 07:00:00,16.5150833,80.5181667,NH3,4,5,4
India,Andhra_Pradesh,Amaravati,"Secretariat, Amaravati - APPCB",02-12-2025 07:00:00,16.5150833,80.5181667,SO2,1,9,4
India,Bihar,Muzaffarpur,"Buddha Colony, Muzaffarpur - BSPCB",02-12-2025 07:00:00,26.11442,85.39813,OZONE,13,197,18
India,Bihar,Muzaffarpur,"MIT-Daudpur Kothi, Muzaffarpur - BSPCB",02-12-2025 07:00:00,26.1403345,85.3650192,PM2.5,80,133,114
India,Bihar,Muzaffarpur,"MIT-Daudpur Kothi, Muzaffarpur - BSPCB",02-12-2025 07:00:00,26.1403345,85.3650192,NO2,17,21,19
India,Bihar,Muzaffarpur,"MIT-Daudpur Kothi, Muzaffarpur - BSPCB",02-12-2025 07:00:00,26.1403345,85.3650192,CO,57,70,70
India,Bihar,Muzaffarpur,"Muzaffarpur Collectorate, Muzaffarpur - BSPCB",02-12-2025 07:00:00,26.1209,85.3647,NO2,9,18,12
India,Bihar,Muzaffarpur,"Muzaffarpur Collectorate, Muzaffarpur - BSPCB",02-12-2025 07:00:00,26.1209,85.3647,SO2,4,7,6
India,Bihar,Patna,"Govt. High School Shikarpur, Patna - BSPCB",02-12-2025 07:00:00,25.592539,85.227158,CO,38,121,96
India,Bihar,Patna,"IGSC Planetarium Complex, Patna - BSPCB",02-12-2025 07:00:00,25.610369,85.132568,NO2,11,13,12
India,Chandigarh,Chandigarh,"Sector-53, Chandigarh - CPCC",02-12-2025 07:00:00,30.719859,76.738637,OZONE,2,86,2
India,Chhattisgarh,Bhilai,"32Bungalows, Bhilai - CECB",02-12-2025 07:00:00,21.194815,81.314770,PM2.5,31,48,36
India,Chhattisgarh,Bhilai,"32Bungalows, Bhilai - CECB",02-12-2025 07:00:00,21.194815,81.314770,CO,25,80,42
India,Chhattisgarh,Bhilai,"Civic Center, Bhilai - Bhilai Steel Plant",02-12-2025 07:00:00,21.185571,81.343175,OZONE,4,16,13
India,Chhattisgarh,Bilaspur,"Mangala, Bilaspur - NTPC",02-12-2025 07:00:00,22.08815,82.13737,PM2.5,45,415,121
India,Chhattisgarh,Chhal,"Nawapara SECL Colony, Chhal - CECB",02-12-2025 07:00:00,22.118125,83.140608,PM2.5,56,149,86
India,Chhattisgarh,Chhal,"Nawapara SECL Colony, Chhal - CECB",02-12-2025 07:00:00,22.118125,83.140608,NO2,7,32,16
India,Chhattisgarh,Chhal,"Nawapara SECL Colony, Chhal - CECB",02-12-2025 07:00:00,22.118125,83.140608,CO,26,69,47
India,Chhattisgarh,Chhal,"Nawapara SECL Colony, Chhal - CECB",02-12-2025 07:00:00,22.118125,83.140608,OZONE,6,106,13
India,Chhattisgarh,Korba,"Urja Nagar, Korba - CECB",02-12-2025 07:00:00,22.348441,82.549611,PM2.5,70,86,71
India,Chhattisgarh,Korba,"Urja Nagar, Korba - CECB",02-12-2025 07:00:00,22.348441,82.549611,PM10,92,93,92
India,Chhattisgarh,Korba,"Urja Nagar, Korba - CECB",02-12-2025 07:00:00,22.348441,82.549611,CO,27,62,45
India,Chhattisgarh,Korba,"Urja Nagar, Korba - CECB",02-12-2025 07:00:00,22.348441,82.549611,OZONE,35,36,35
India,Chhattisgarh,Milupara,"Govt. Higher Secondary School, Milupara - CECB",02-12-2025 07:00:00,22.1910172,83.5197009,PM10,63,140,99
India,Chhattisgarh,Milupara,"Govt. Higher Secondary School, Milupara - CECB",02-12-2025 07:00:00,22.1910172,83.5197009,SO2,12,15,13
India,Chhattisgarh,Raipur,"AIIMS, Raipur - CECB",02-12-2025 07:00:00,21.258815,81.578979,NO2,63,80,70
India,Chhattisgarh,Raipur,"Bhatagaon New ISBT, Raipur - CECB",02-12-2025 07:00:00,21.219665,81.630094,NH3,2,2,2
India,Chhattisgarh,Raipur,"Bhatagaon New ISBT, Raipur - CECB",02-12-2025 07:00:00,21.219665,81.630094,CO,36,66,46
India,Chhattisgarh,Raipur,"Krishak Nagar, Raipur - CECB",02-12-2025 07:00:00,21.237755,81.705301,SO2,4,17,7
India,Chhattisgarh,Raipur,"Siltara Phase-II, Raipur - CECB",02-12-2025 07:00:00,21.371751,81.664929,NO2,8,28,16
India,Chhattisgarh,Tumidih,"OP Jindal Industrial Park, Tumidih - CECB",02-12-2025 07:00:00,22.06631475,83.33820077,PM2.5,2,316,92
India,Bihar,Patna,"Muradpur, Patna - BSPCB",02-12-2025 07:00:00,25.619651,85.147382,SO2,8,10,9
India,Bihar,Patna,"Muradpur, Patna - BSPCB",02-12-2025 07:00:00,25.619651,85.147382,OZONE,5,40,5
India,Bihar,Patna,"Rajbansi Nagar, Patna - BSPCB",02-12-2025 07:00:00,25.599486,85.113666,NO2,20,116,69
India,Bihar,Patna,"Samanpura, Patna - BSPCB",02-12-2025 07:00:00,25.596727,85.085624,PM2.5,91,221,173
India,Bihar,Patna,"Samanpura, Patna - BSPCB",02-12-2025 07:00:00,25.596727,85.085624,PM10,100,167,141
India,Bihar,Patna,"Samanpura, Patna - BSPCB",02-12-2025 07:00:00,25.596727,85.085624,CO,2,28,15
India,Bihar,Rajgir,"Dangi Tola, Rajgir - BSPCB",02-12-2025 07:00:00,25.03280,85.41948,PM10,41,98,72
India,Delhi,Delhi,"Bawana, Delhi - DPCC",02-12-2025 07:00:00,28.776200,77.051074,SO2,8,38,16
India,Delhi,Delhi,"Bawana, Delhi - DPCC",02-12-2025 07:00:00,28.776200,77.051074,CO,30,123,79
India,Delhi,Delhi,"Burari Crossing, Delhi - IMD",02-12-2025 07:00:00,28.7256504,77.2011573,PM10,156,424,280
India,Delhi,Delhi,"Chandni Chowk, Delhi - IITM",02-12-2025 07:00:00,28.656756,77.227234,PM2.5,63,500,345
India,Delhi,Delhi,"Chandni Chowk, Delhi - IITM",02-12-2025 07:00:00,28.656756,77.227234,PM10,46,500,397
India,Delhi,Delhi,"Chandni Chowk, Delhi - IITM",02-12-2025 07:00:00,28.656756,77.227234,NH3,7,22,12
India,Delhi,Delhi,"Chandni Chowk, Delhi - IITM",02-12-2025 07:00:00,28.656756,77.227234,CO,47,120,100
India,Bihar,Rajgir,"Dangi Tola, Rajgir - BSPCB",02-12-2025 07:00:00,25.03280,85.41948,NO2,8,10,9
India,Bihar,Saharsa,"Police Line, Saharsa - BSPCB",02-12-2025 07:00:00,25.892357,86.590325,NO2,6,8,7
India,Bihar,Saharsa,"Police Line, Saharsa - BSPCB",02-12-2025 07:00:00,25.892357,86.590325,CO,36,42,39
India,Bihar,Samastipur,"DM Office_Kasipur, Samastipur - BSPCB",02-12-2025 07:00:00,25.859655,85.77944,PM10,37,160,75
India,Bihar,Samastipur,"DM Office_Kasipur, Samastipur - BSPCB",02-12-2025 07:00:00,25.859655,85.77944,NH3,1,1,1
India,Bihar,Samastipur,"DM Office_Kasipur, Samastipur - BSPCB",02-12-2025 07:00:00,25.859655,85.77944,OZONE,8,8,8
India,Bihar,Sasaram,"Dada Peer, Sasaram - BSPCB",02-12-2025 07:00:00,24.952822,84.002396,SO2,4,6,5
India,Bihar,Siwan,"Chitragupta Nagar, Siwan - BSPCB",02-12-2025 07:00:00,26.2271665,84.3570427,SO2,4,4,4
India,Chandigarh,Chandigarh,"Sector 22, Chandigarh - CPCC",02-12-2025 07:00:00,30.735567,76.775714,PM2.5,77,302,180
India,Chandigarh,Chandigarh,"Sector 22, Chandigarh - CPCC",02-12-2025 07:00:00,30.735567,76.775714,NH3,1,21,14
India,Chandigarh,Chandigarh,"Sector 22, Chandigarh - CPCC",02-12-2025 07:00:00,30.735567,76.775714,OZONE,4,137,7
India,Delhi,Delhi,"Alipur, Delhi - DPCC",02-12-2025 07:00:00,28.815329,77.153010,NO2,25,90,63
India,Delhi,Delhi,"Anand Vihar, Delhi - DPCC",02-12-2025 07:00:00,28.647622,77.3158090,PM10,173,500,337
India,Delhi,Delhi,"Anand Vihar, Delhi - DPCC",02-12-2025 07:00:00,28.647622,77.3158090,SO2,5,139,103
India,Delhi,Delhi,"Ashok Vihar, Delhi - DPCC",02-12-2025 07:00:00,28.695381,77.181665,PM10,140,461,316
India,Delhi,Delhi,"Ashok Vihar, Delhi - DPCC",02-12-2025 07:00:00,28.695381,77.181665,NO2,36,155,104
India,Delhi,Delhi,"Dr. Karni Singh Shooting Range, Delhi - DPCC",02-12-2025 07:00:00,28.498571,77.264840,PM10,133,446,261
India,Delhi,Delhi,"Dr. Karni Singh Shooting Range, Delhi - DPCC",02-12-2025 07:00:00,28.498571,77.264840,NH3,7,10,8
India,Delhi,Delhi,"Dwarka-Sector 8, Delhi - DPCC ",02-12-2025 07:00:00,28.5710274,77.0719006,NH3,10,20,13
India,Delhi,Delhi,"IGI Airport (T3), Delhi - IMD",02-12-2025 07:00:00,28.5627763,77.1180053,PM2.5,130,363,269
India,Delhi,Delhi,"IGI Airport (T3), Delhi - IMD",02-12-2025 07:00:00,28.5627763,77.1180053,PM10,143,418,258
India,Delhi,Delhi,"IHBAS, Dilshad Garden, Delhi - CPCB",02-12-2025 07:00:00,28.6811736,77.3025234,SO2,12,34,18
India,Delhi,Delhi,"Nehru Nagar, Delhi - DPCC",02-12-2025 07:00:00,28.567890,77.250515,OZONE,2,194,15
India,Delhi,Delhi,"North Campus, DU, Delhi - IMD",02-12-2025 07:00:00,28.6573814,77.1585447,PM10,133,442,257
India,Delhi,Delhi,"Patparganj, Delhi - DPCC",02-12-2025 07:00:00,28.623763,77.287209,NH3,10,14,12
India,Delhi,Delhi,"Punjabi Bagh, Delhi - DPCC",02-12-2025 07:00:00,28.674045,77.131023,PM10,149,484,323
India,Delhi,Delhi,"Punjabi Bagh, Delhi - DPCC",02-12-2025 07:00:00,28.674045,77.131023,NO2,35,104,71
India,Delhi,Delhi,"Punjabi Bagh, Delhi - DPCC",02-12-2025 07:00:00,28.674045,77.131023,CO,31,122,73
India,Delhi,Delhi,"Punjabi Bagh, Delhi - DPCC",02-12-2025 07:00:00,28.674045,77.131023,OZONE,5,175,6
India,Gujarat,Ahmedabad,"Gyaspur, Ahmedabad - IITM",02-12-2025 07:00:00,22.977134,72.553024,OZONE,13,32,13
India,Gujarat,Ahmedabad,"Maninagar, Ahmedabad - GPCB",02-12-2025 07:00:00,23.002657,72.591912,PM10,81,264,139
India,Gujarat,Ahmedabad,"Maninagar, Ahmedabad - GPCB",02-12-2025 07:00:00,23.002657,72.591912,SO2,29,45,40
India,Gujarat,Ahmedabad,"Rakhial, Ahmedabad - IITM",02-12-2025 07:00:00,23.016834,72.625775,NH3,5,12,7
India,Gujarat,Ahmedabad,"SAC ISRO Bopal, Ahmedabad - IITM",02-12-2025 07:00:00,23.041137,72.456691,PM10,90,221,148
India,Gujarat,Ahmedabad,"SAC ISRO Bopal, Ahmedabad - IITM",02-12-2025 07:00:00,23.041137,72.456691,NO2,21,58,41
India,Gujarat,Ahmedabad,"SAC ISRO Bopal, Ahmedabad - IITM",02-12-2025 07:00:00,23.041137,72.456691,SO2,2,12,4
India,Gujarat,Ahmedabad,"SVPI Airport Hansol, Ahmedabad - IITM",02-12-2025 07:00:00,23.076793,72.627874,CO,18,110,72
India,Gujarat,Ankleshwar,"GIDC, Ankleshwar - GPCB",02-12-2025 07:00:00,21.613267,73.010555,PM10,26,206,133
India,Gujarat,Ankleshwar,"GIDC, Ankleshwar - GPCB",02-12-2025 07:00:00,21.613267,73.010555,NH3,5,9,6
India,Gujarat,Gandhinagar,"IIPHG Lekawada, Gandhinagar - IITM",02-12-2025 07:00:00,23.243639,72.68994,CO,1,109,68
India,Gujarat,Gandhinagar,"IIPHG Lekawada, Gandhinagar - IITM",02-12-2025 07:00:00,23.243639,72.68994,OZONE,5,46,5
India,Delhi,Delhi,"Shadipur, Delhi - CPCB",02-12-2025 07:00:00,28.6514781,77.1473105,OZONE,5,24,7
India,Delhi,Delhi,"Sonia Vihar, Delhi - DPCC",02-12-2025 07:00:00,28.710508,77.249485,NO2,31,122,66
India,Delhi,Delhi,"Sonia Vihar, Delhi - DPCC",02-12-2025 07:00:00,28.710508,77.249485,CO,68,152,127
India,Delhi,Delhi,"Sri Aurobindo Marg, Delhi - DPCC",02-12-2025 07:00:00,28.531346,77.190156,PM2.5,107,396,279
India,Delhi,Delhi,"Sri Aurobindo Marg, Delhi - DPCC",02-12-2025 07:00:00,28.531346,77.190156,CO,48,143,124
India,Delhi,Delhi,"Jahangirpuri, Delhi - DPCC",02-12-2025 07:00:00,28.732820,77.170633,PM10,117,444,304
India,Delhi,Delhi,"Jahangirpuri, Delhi - DPCC",02-12-2025 07:00:00,28.732820,77.170633,CO,24,128,96
India,Delhi,Delhi,"Jawaharlal Nehru Stadium, Delhi - DPCC",02-12-2025 07:00:00,28.580280,77.233829,PM2.5,97,426,315
India,Delhi,Delhi,"Vivek Vihar, Delhi - DPCC",02-12-2025 07:00:00,28.672342,77.315260,NH3,9,12,11
India,Delhi,Delhi,"Vivek Vihar, Delhi - DPCC",02-12-2025 07:00:00,28.672342,77.315260,CO,38,143,81
India,Delhi,Delhi,"Wazirpur, Delhi - DPCC",02-12-2025 07:00:00,28.699793,77.165453,CO,50,136,115
India,Delhi,Delhi,"Major Dhyan Chand National Stadium, Delhi - DPCC",02-12-2025 07:00:00,28.611281,77.237738,PM2.5,130,362,312
India,Delhi,Delhi,"Mandir Marg, Delhi - DPCC",02-12-2025 07:00:00,28.636429,77.201067,NO2,72,147,113
India,Delhi,Delhi,"Narela, Delhi - DPCC",02-12-2025 07:00:00,28.822836,77.101981,PM10,126,490,322
India,Delhi,Delhi,"Narela, Delhi - DPCC",02-12-2025 07:00:00,28.822836,77.101981,NO2,19,100,61
India,Haryana,Yamuna Nagar,"Gobind Pura, Yamuna Nagar - HSPCB",02-12-2025 07:00:00,30.1480566,77.2893471,PM2.5,163,321,254
India,Haryana,Yamuna Nagar,"Gobind Pura, Yamuna Nagar - HSPCB",02-12-2025 07:00:00,30.1480566,77.2893471,OZONE,8,54,9
India,Jammu_and_Kashmir,Srinagar,"Rajbagh, Srinagar - JKSPCB",02-12-2025 07:00:00,34.066206,74.819820,OZONE,NA,NA,NA
India,Jharkhand,Dhanbad,"Sardar Patel Nagar, Dhanbad - JSPCB",02-12-2025 07:00:00,23.80569,86.44268,PM10,122,332,202
India,Jharkhand,Dhanbad,"Sardar Patel Nagar, Dhanbad - JSPCB",02-12-2025 07:00:00,23.80569,86.44268,SO2,21,25,23
India,Jharkhand,Dhanbad,"Sardar Patel Nagar, Dhanbad - JSPCB",02-12-2025 07:00:00,23.80569,86.44268,CO,3,66,24
India,Jharkhand,Dhanbad,"Sardar Patel Nagar, Dhanbad - JSPCB",02-12-2025 07:00:00,23.80569,86.44268,OZONE,NA,NA,NA
India,Haryana,Charkhi Dadri,"Mini Secretariat, Charkhi Dadri - HSPCB",02-12-2025 07:00:00,28.593883,76.270653,PM10,81,199,153
India,Haryana,Dharuhera,"Municipal Corporation Office, Dharuhera -  HSPCB",02-12-2025 07:00:00,28.206800,76.799700,PM10,110,422,239
India,Haryana,Faridabad,"New Industrial Town, Faridabad - HSPCB",02-12-2025 07:00:00,28.39072,77.30059,PM2.5,225,238,230
India,Haryana,Faridabad,"New Industrial Town, Faridabad - HSPCB",02-12-2025 07:00:00,28.39072,77.30059,PM10,164,171,167
India,Haryana,Faridabad,"New Industrial Town, Faridabad - HSPCB",02-12-2025 07:00:00,28.39072,77.30059,NO2,24,27,25
India,Haryana,Faridabad,"Sector 11, Faridabad - HSPCB",02-12-2025 07:00:00,28.376058,77.315741,PM2.5,78,407,282
India,Haryana,Faridabad,"Sector 11, Faridabad - HSPCB",02-12-2025 07:00:00,28.376058,77.315741,SO2,4,121,16
India,Haryana,Faridabad,"Sector 11, Faridabad - HSPCB",02-12-2025 07:00:00,28.376058,77.315741,OZONE,14,15,15
India,Haryana,Fatehabad,"Huda Sector, Fatehabad - HSPCB",02-12-2025 07:00:00,29.503664,75.467934,SO2,2,61,28
India,Haryana,Gurugram,"NISE Gwal Pahari, Gurugram - IMD",02-12-2025 07:00:00,28.422681,77.148944,PM2.5,152,400,308
India,Haryana,Gurugram,"NISE Gwal Pahari, Gurugram - IMD",02-12-2025 07:00:00,28.422681,77.148944,NO2,26,109,48
India,Haryana,Gurugram,"Sector-51, Gurugram - HSPCB",02-12-2025 07:00:00,28.4227,77.0667,NO2,2,5,3
India,Haryana,Gurugram,"Sector-51, Gurugram - HSPCB",02-12-2025 07:00:00,28.4227,77.0667,NH3,4,6,5
India,Haryana,Ambala,"Patti Mehar, Ambala - HSPCB",02-12-2025 07:00:00,30.379589,76.778328,PM2.5,99,183,120
India,Haryana,Ambala,"Patti Mehar, Ambala - HSPCB",02-12-2025 07:00:00,30.379589,76.778328,NH3,9,10,10
India,Haryana,Bahadurgarh,"Arya Nagar, Bahadurgarh - HSPCB",02-12-2025 07:00:00,28.6701,76.9254,PM2.5,113,393,314
India,Haryana,Bahadurgarh,"Arya Nagar, Bahadurgarh - HSPCB",02-12-2025 07:00:00,28.6701,76.9254,NO2,12,14,13
India,Haryana,Ballabgarh,"Nathu Colony, Ballabgarh - HSPCB",02-12-2025 07:00:00,28.3419248,77.319699,NH3,3,3,3
India,Haryana,Bhiwani,"H.B. Colony, Bhiwani - HSPCB",02-12-2025 07:00:00,28.806223,76.141105,NO2,1,35,31
India,Haryana,Panchkula,"Sector-6, Panchkula - HSPCB ",02-12-2025 07:00:00,30.7057778,76.8531805555555,OZONE,14,28,22
India,Haryana,Panipat,"Sector-18, Panipat - HSPCB",02-12-2025 07:00:00,29.432304,76.972765,PM10,NA,NA,NA
India,Haryana,Rohtak,"MD University, Rohtak - HSPCB",02-12-2025 07:00:00,28.52123,76.37138,CO,NA,NA,NA
India,Haryana,Sirsa,"F-Block, Sirsa - HSPCB",02-12-2025 07:00:00,29.536400,75.015800,NH3,11,16,13
India,Haryana,Sonipat,"Murthal, Sonipat - HSPCB",02-12-2025 07:00:00,29.027200,77.062100,NO2,22,51,41
India,Haryana,Manesar,"Sector-2 IMT, Manesar - HSPCB",02-12-2025 07:00:00,28.360699,76.936090,SO2,NA,NA,NA
India,Haryana,Manesar,"Sector-2 IMT, Manesar - HSPCB",02-12-2025 07:00:00,28.360699,76.936090,CO,NA,NA,NA
India,Haryana,Narnaul,"Shastri Nagar, Narnaul - HSPCB",02-12-2025 07:00:00,28.060249,76.113115,NO2,48,102,82
India,Haryana,Narnaul,"Shastri Nagar, Narnaul - HSPCB",02-12-2025 07:00:00,28.060249,76.113115,CO,24,48,29
India,Haryana,Palwal,"Shyam Nagar, Palwal - HSPCB",02-12-2025 07:00:00,28.1485564,77.3320667,PM10,102,142,124
India,Haryana,Palwal,"Shyam Nagar, Palwal - HSPCB",02-12-2025 07:00:00,28.1485564,77.3320667,OZONE,23,25,24
India,Gujarat,Gandhinagar,"Sector-10, Gandhinagar - GPCB",02-12-2025 07:00:00,23.221714,72.654328,NO2,16,37,23
India,Gujarat,Surat,"Science Center, Surat - SMC",02-12-2025 07:00:00,21.170046,72.795405,PM2.5,6,49,30
India,Gujarat,Surat,"Science Center, Surat - SMC",02-12-2025 07:00:00,21.170046,72.795405,SO2,33,42,37
India,Gujarat,Vapi,"Phase-1 GIDC, Vapi - GPCB",02-12-2025 07:00:00,20.362421,72.918013,NO2,6,40,28
India,Gujarat,Vapi,"Phase-1 GIDC, Vapi - GPCB",02-12-2025 07:00:00,20.362421,72.918013,NH3,2,5,3
India,Gujarat,Vapi,"Phase-1 GIDC, Vapi - GPCB",02-12-2025 07:00:00,20.362421,72.918013,SO2,13,31,19
India,Haryana,Gurugram,"Vikas Sadan, Gurugram - HSPCB",02-12-2025 07:00:00,28.4501238,77.0263051,NO2,2,11,6
India,Haryana,Gurugram,"Vikas Sadan, Gurugram - HSPCB",02-12-2025 07:00:00,28.4501238,77.0263051,SO2,3,8,5
India,Haryana,Hisar,"Urban Estate-II, Hisar - HSPCB",02-12-2025 07:00:00,29.140560,75.744941,NO2,20,21,20
India,Haryana,Karnal,"Sector-12, Karnal - HSPCB",02-12-2025 07:00:00,29.695300,77.002700,PM2.5,117,309,241
India,Haryana,Karnal,"Sector-12, Karnal - HSPCB",02-12-2025 07:00:00,29.695300,77.002700,OZONE,41,41,41
India,Karnataka,Koppal,"Diwator Nagar, Koppal - KSPCB",02-12-2025 07:00:00,15.347630,76.181767,OZONE,3,4,3
