country,state,city,station,last_update,latitude,longitude,pollutant_id,min_value,max_value,avg_value
India,Andhra_Pradesh,Amaravati,"Secretariat, Amaravati - APPCB",09-01-2026 08:00:00,16.5150833,80.5181667,SO2,12,33,20
India,Andhra_Pradesh,Anantapur,"Gulzarpet, Anantapur - APPCB",09-01-2026 08:00:00,14.675886,77.593027,PM2.5,93,158,118
India,Andhra_Pradesh,Chittoor,"Gangineni Cheruvu, Chittoor - APPCB",09-01-2026 08:00:00,13.204880,79.097889,NO2,40,43,41
India,Andhra_Pradesh,Chittoor,"Gangineni Cheruvu, Chittoor - APPCB",09-01-2026 08:00:00,13.204880,79.097889,CO,4,20,16
India,Andhra_Pradesh,Kadapa,"Yerramukkapalli, Kadapa - APPCB",09-01-2026 08:00:00,14.465052,78.824187,CO,18,50,20
India,Andhra_Pradesh,Kadapa,"Yerramukkapalli, Kadapa - APPCB",09-01-2026 08:00:00,14.465052,78.824187,OZONE,21,27,21
India,Andhra_Pradesh,Rajamahendravaram,"Anand Kala Kshetram, Rajamahendravaram - APPCB",09-01-2026 08:00:00,16.9872867,81.7363176,PM10,100,167,129
India,Assam,Byrnihat,"Central Academy for SFS, Byrnihat - PCBA",09-01-2026 08:00:00,26.071318,91.87488,CO,37,72,52
India,Assam,Guwahati,"LGBI Airport, Guwahati - PCBA",09-01-2026 08:00:00,26.10887,91.589544,PM2.5,58,156,94
India,Assam,Guwahati,"LGBI Airport, Guwahati - PCBA",09-01-2026 08:00:00,26.10887,91.589544,PM10,79,154,117
India,Assam,Guwahati,"LGBI Airport, Guwahati - PCBA",09-01-2026 08:00:00,26.10887,91.589544,NH3,5,7,5
India,Assam,Guwahati,"LGBI Airport, Guwahati - PCBA",09-01-2026 08:00:00,26.10887,91.589544,CO,28,132,46
India,Assam,Guwahati,"Railway Colony, Guwahati - PCBA",09-01-2026 08:00:00,26.181742,91.78063,SO2,34,37,36
India,Assam,Nagaon,"Christianpatty, Nagaon - PCBA",09-01-2026 08:00:00,26.349082,92.68449,NH3,4,4,4
India,Assam,Nagaon,"Christianpatty, Nagaon - PCBA",09-01-2026 08:00:00,26.349082,92.68449,CO,18,26,25
India,Andhra_Pradesh,Rajamahendravaram,"Anand Kala Kshetram, Rajamahendravaram - APPCB",09-01-2026 08:00:00,16.9872867,81.7363176,NH3,3,7,4
India,Andhra_Pradesh,Rajamahendravaram,"Anand Kala Kshetram, Rajamahendravaram - APPCB",09-01-2026 08:00:00,16.9872867,81.7363176,CO,20,50,24
India,Andhra_Pradesh,Tirumala,"Toll Gate, Tirumala - APPCB",09-01-2026 08:00:00,13.67,79.35,SO2,4,13,7
India,Andhra_Pradesh,Tirupati,"Vaikuntapuram, Tirupati - APPCB",09-01-2026 08:00:00,13.615387,79.409230,PM2.5,84,319,117
India,Andhra_Pradesh,Tirupati,"Vaikuntapuram, Tirupati - APPCB",09-01-2026 08:00:00,13.615387,79.409230,PM10,79,166,98
India,Andhra_Pradesh,Tirupati,"Vaikuntapuram, Tirupati - APPCB",09-01-2026 08:00:00,13.615387,79.409230,NO2,29,40,32
India,Andhra_Pradesh,Vijayawada,"HB Colony, Vijayawada - APPCB",09-01-2026 08:00:00,16.536107,80.594233,NH3,3,5,4
India,Andhra_Pradesh,Vijayawada,"HB Colony, Vijayawada - APPCB",09-01-2026 08:00:00,16.536107,80.594233,OZONE,19,49,32
India,Andhra_Pradesh,Vijayawada,"Kanuru, Vijayawada - APPCB",09-01-2026 08:00:00,16.486692,80.699436,SO2,13,21,16
India,Andhra_Pradesh,Vijayawada,"Kanuru, Vijayawada - APPCB",09-01-2026 08:00:00,16.486692,80.699436,CO,40,55,48
India,Andhra_Pradesh,Vijayawada,"Kanuru, Vijayawada - APPCB",09-01-2026 08:00:00,16.486692,80.699436,OZONE,23,35,23
India,Andhra_Pradesh,Vijayawada,"Rajiv Gandhi Park, Vijayawada - APPCB",09-01-2026 08:00:00,16.509717,80.612222,CO,4,44,37
India,Andhra_Pradesh,Vijayawada,"Rajiv Nagar, Vijayawada - APPCB",09-01-2026 08:00:00,16.554731,80.649110,PM10,100,115,108
India,Andhra_Pradesh,Vijayawada,"Rajiv Nagar, Vijayawada - APPCB",09-01-2026 08:00:00,16.554731,80.649110,NO2,17,24,22
India,Andhra_Pradesh,Vijayawada,"Rajiv Nagar, Vijayawada - APPCB",09-01-2026 08:00:00,16.554731,80.649110,SO2,10,15,13
India,Bihar,Bettiah,"Kamalnath Nagar, Bettiah - BSPCB",09-01-2026 08:00:00,26.80365,84.51954,CO,64,108,83
India,Bihar,Bhagalpur,"DM Office_Kachari Chowk, Bhagalpur - BSPCB",09-01-2026 08:00:00,25.251013,86.989001,PM2.5,77,177,117
India,Bihar,Bhagalpur,"Mayaganj, Bhagalpur - BSPCB",09-01-2026 08:00:00,25.265194,87.012947,PM10,NA,NA,NA
India,Bihar,Bhagalpur,"Mayaganj, Bhagalpur - BSPCB",09-01-2026 08:00:00,25.265194,87.012947,OZONE,22,31,24
India,Bihar,Bihar Sharif,"D M Colony, Bihar Sharif - BSPCB",09-01-2026 08:00:00,25.204762,85.514960,SO2,9,10,10
India,Andhra_Pradesh,Visakhapatnam,"GVM Corporation, Visakhapatnam - APPCB",09-01-2026 08:00:00,17.72,83.3,NO2,24,136,61
India,Andhra_Pradesh,Visakhapatnam,"GVM Corporation, Visakhapatnam - APPCB",09-01-2026 08:00:00,17.72,83.3,SO2,3,39,15
India,Arunachal_Pradesh,Naharlagun,"Naharlagun, Naharlagun - APSPCB",09-01-2026 08:00:00,27.103358,93.679645,SO2,9,10,9
India,Arunachal_Pradesh,Naharlagun,"Naharlagun, Naharlagun - APSPCB",09-01-2026 08:00:00,27.103358,93.679645,CO,9,69,17
India,Assam,Byrnihat,"Central Academy for SFS, Byrnihat - PCBA",09-01-2026 08:00:00,26.071318,91.87488,PM10,72,150,95
India,Assam,Nalbari,"Bata Chowk, Nalbari - PCBA",09-01-2026 08:00:00,26.446912,91.439057,PM10,105,130,116
India,Assam,Nalbari,"Bata Chowk, Nalbari - PCBA",09-01-2026 08:00:00,26.446912,91.439057,SO2,8,8,8
India,Assam,Sivasagar,"Girls College, Sivasagar - PCBA",09-01-2026 08:00:00,26.987634,94.636574,PM2.5,43,99,68
India,Assam,Sivasagar,"Girls College, Sivasagar - PCBA",09-01-2026 08:00:00,26.987634,94.636574,SO2,10,11,10
India,Bihar,Araria,"Kharahiya Basti, Araria - BSPCB",09-01-2026 08:00:00,26.146529,87.454184,PM2.5,22,297,138
India,Bihar,Chhapra,"Darshan Nagar, Chhapra - BSPCB",09-01-2026 08:00:00,25.7808257,84.7446768,SO2,25,29,28
India,Bihar,Gaya,"Kareemganj, Gaya - BSPCB",09-01-2026 08:00:00,24.792403,84.992416,NH3,5,6,5
India,Bihar,Gaya,"Kareemganj, Gaya - BSPCB",09-01-2026 08:00:00,24.792403,84.992416,SO2,6,17,12
India,Bihar,Gaya,"Kareemganj, Gaya - BSPCB",09-01-2026 08:00:00,24.792403,84.992416,OZONE,1,53,17
India,Bihar,Gaya,"SFTI Kusdihra, Gaya - BSPCB",09-01-2026 08:00:00,24.762518,84.982348,PM10,84,108,98
India,Bihar,Aurangabad,"Gurdeo Nagar, Aurangabad - BSPCB",09-01-2026 08:00:00,24.75746,84.366208,NH3,1,2,1
India,Bihar,Begusarai,"Lohiyanagar, Begusarai - BSPCB",09-01-2026 08:00:00,25.42742023,86.13886079,PM10,151,273,192
India,Andhra_Pradesh,Amaravati,"Secretariat, Amaravati - APPCB",09-01-2026 08:00:00,16.5150833,80.5181667,PM2.5,32,210,89
India,Chandigarh,Chandigarh,"Sector 22, Chandigarh - CPCC",09-01-2026 08:00:00,30.735567,76.775714,PM10,NA,NA,NA
India,Chandigarh,Chandigarh,"Sector-25, Chandigarh - CPCC",09-01-2026 08:00:00,30.751462,76.762879,PM10,80,128,106
India,Chhattisgarh,Bhilai,"32Bungalows, Bhilai - CECB",09-01-2026 08:00:00,21.194815,81.314770,PM10,31,112,70
India,Chhattisgarh,Bhilai,"32Bungalows, Bhilai - CECB",09-01-2026 08:00:00,21.194815,81.314770,NH3,5,7,6
India,Chhattisgarh,Bhilai,"32Bungalows, Bhilai - CECB",09-01-2026 08:00:00,21.194815,81.314770,CO,16,94,58
India,Chhattisgarh,Bhilai,"32Bungalows, Bhilai - CECB",09-01-2026 08:00:00,21.194815,81.314770,OZONE,2,41,2
India,Chhattisgarh,Bhilai,"Civic Center, Bhilai - Bhilai Steel Plant",09-01-2026 08:00:00,21.185571,81.343175,NH3,3,3,3
India,Chhattisgarh,Bhilai,"Civic Center, Bhilai - Bhilai Steel Plant",09-01-2026 08:00:00,21.185571,81.343175,SO2,5,11,8
India,Chhattisgarh,Bhilai,"Civic Center, Bhilai - Bhilai Steel Plant",09-01-2026 08:00:00,21.185571,81.343175,CO,28,30,29
India,Bihar,Motihari,"Gandak Colony, Motihari - BSPCB",09-01-2026 08:00:00,26.63086,84.90051,NH3,3,3,3
India,Bihar,Munger,"Town Hall, Munger - BSPCB",09-01-2026 08:00:00,25.376776,86.471523,NO2,4,5,5
India,Bihar,Munger,"Town Hall, Munger - BSPCB",09-01-2026 08:00:00,25.376776,86.471523,OZONE,11,31,18
India,Bihar,Muzaffarpur,"Buddha Colony, Muzaffarpur - BSPCB",09-01-2026 08:00:00,26.11442,85.39813,PM10,85,152,117
India,Bihar,Muzaffarpur,"Buddha Colony, Muzaffarpur - BSPCB",09-01-2026 08:00:00,26.11442,85.39813,SO2,2,12,6
India,Bihar,Muzaffarpur,"MIT-Daudpur Kothi, Muzaffarpur - BSPCB",09-01-2026 08:00:00,26.1403345,85.3650192,PM10,67,79,74
India,Bihar,Muzaffarpur,"MIT-Daudpur Kothi, Muzaffarpur - BSPCB",09-01-2026 08:00:00,26.1403345,85.3650192,NH3,2,2,2
India,Chhattisgarh,Bhilai,"Hathkhoj, Bhilai - CECB",09-01-2026 08:00:00,21.224231,81.408350,NH3,3,6,4
India,Chhattisgarh,Bhilai,"Hathkhoj, Bhilai - CECB",09-01-2026 08:00:00,21.224231,81.408350,CO,6,56,44
India,Chhattisgarh,Bilaspur,"Mangala, Bilaspur - NTPC",09-01-2026 08:00:00,22.08815,82.13737,PM2.5,34,98,60
India,Chhattisgarh,Chhal,"Nawapara SECL Colony, Chhal - CECB",09-01-2026 08:00:00,22.118125,83.140608,NH3,6,6,6
India,Chhattisgarh,Chhal,"Nawapara SECL Colony, Chhal - CECB",09-01-2026 08:00:00,22.118125,83.140608,SO2,6,10,6
India,Chhattisgarh,Korba,"Rampur, Korba - CECB",09-01-2026 08:00:00,22.368195,82.746431,PM2.5,18,81,47
India,Chhattisgarh,Korba,"Rampur, Korba - CECB",09-01-2026 08:00:00,22.368195,82.746431,CO,6,36,26
India,Bihar,Hajipur,"Industrial Area, Hajipur - BSPCB",09-01-2026 08:00:00,25.697189,85.245900,SO2,7,10,8
India,Bihar,Katihar,"Mirchaibari, Katihar - BSPCB",09-01-2026 08:00:00,25.560083,87.553265,NO2,8,10,9
India,Bihar,Katihar,"Mirchaibari, Katihar - BSPCB",09-01-2026 08:00:00,25.560083,87.553265,CO,56,90,77
India,Bihar,Kishanganj,"SDM Office_Khagra, Kishanganj - BSPCB",09-01-2026 08:00:00,26.0881305,87.93840336,NH3,3,3,3
India,Bihar,Kishanganj,"SDM Office_Khagra, Kishanganj - BSPCB",09-01-2026 08:00:00,26.0881305,87.93840336,CO,15,20,16
India,Bihar,Motihari,"Gandak Colony, Motihari - BSPCB",09-01-2026 08:00:00,26.63086,84.90051,PM10,54,174,108
India,Bihar,Muzaffarpur,"Muzaffarpur Collectorate, Muzaffarpur - BSPCB",09-01-2026 08:00:00,26.1209,85.3647,SO2,5,8,6
India,Bihar,Patna,"DRM Office Danapur, Patna - BSPCB",09-01-2026 08:00:00,25.586562,85.043586,PM10,110,207,148
India,Bihar,Patna,"DRM Office Danapur, Patna - BSPCB",09-01-2026 08:00:00,25.586562,85.043586,NO2,28,48,38
India,Bihar,Patna,"DRM Office Danapur, Patna - BSPCB",09-01-2026 08:00:00,25.586562,85.043586,SO2,8,33,16
India,Bihar,Patna,"DRM Office Danapur, Patna - BSPCB",09-01-2026 08:00:00,25.586562,85.043586,OZONE,15,39,37
India,Bihar,Patna,"Govt. High School Shikarpur, Patna - BSPCB",09-01-2026 08:00:00,25.592539,85.227158,PM2.5,101,280,213
India,Bihar,Rajgir,"Dangi Tola, Rajgir - BSPCB",09-01-2026 08:00:00,25.03280,85.41948,PM10,56,199,116
India,Bihar,Saharsa,"Police Line, Saharsa - BSPCB",09-01-2026 08:00:00,25.892357,86.590325,NO2,4,10,7
India,Bihar,Saharsa,"Police Line, Saharsa - BSPCB",09-01-2026 08:00:00,25.892357,86.590325,NH3,4,4,4
India,Bihar,Samastipur,"DM Office_Kasipur, Samastipur - BSPCB",09-01-2026 08:00:00,25.859655,85.77944,NO2,8,9,8
India,Bihar,Sasaram,"Dada Peer, Sasaram - BSPCB",09-01-2026 08:00:00,24.952822,84.002396,PM2.5,41,67,52
India,Chhattisgarh,Korba,"Urja Nagar, Korba - CECB",09-01-2026 08:00:00,22.348441,82.549611,PM10,11,245,60
India,Chhattisgarh,Kunjemura,"OP Jindal School, Kunjemura - CECB",09-01-2026 08:00:00,22.126650,83.483212,PM10,18,216,107
India,Chhattisgarh,Raipur,"AIIMS, Raipur - CECB",09-01-2026 08:00:00,21.258815,81.578979,PM2.5,9,282,88
India,Chhattisgarh,Raipur,"AIIMS, Raipur - CECB",09-01-2026 08:00:00,21.258815,81.578979,PM10,31,146,104
India,Chhattisgarh,Raipur,"AIIMS, Raipur - CECB",09-01-2026 08:00:00,21.258815,81.578979,CO,26,100,78
India,Chhattisgarh,Raipur,"Bhatagaon New ISBT, Raipur - CECB",09-01-2026 08:00:00,21.219665,81.630094,NH3,2,2,2
India,Chhattisgarh,Raipur,"Krishak Nagar, Raipur - CECB",09-01-2026 08:00:00,21.237755,81.705301,PM10,34,89,65
India,Chhattisgarh,Raipur,"Krishak Nagar, Raipur - CECB",09-01-2026 08:00:00,21.237755,81.705301,OZONE,NA,NA,NA
India,Chhattisgarh,Raipur,"Siltara Phase-II, Raipur - CECB",09-01-2026 08:00:00,21.371751,81.664929,PM2.5,41,125,71
India,Chhattisgarh,Raipur,"Siltara Phase-II, Raipur - CECB",09-01-2026 08:00:00,21.371751,81.664929,NH3,2,2,2
India,Bihar,Patna,"Rajbansi Nagar, Patna - BSPCB",09-01-2026 08:00:00,25.599486,85.113666,NH3,1,7,5
India,Bihar,Patna,"Rajbansi Nagar, Patna - BSPCB",09-01-2026 08:00:00,25.599486,85.113666,SO2,5,7,6
India,Bihar,Patna,"Samanpura, Patna - BSPCB",09-01-2026 08:00:00,25.596727,85.085624,PM10,79,159,117
India,Bihar,Patna,"Samanpura, Patna - BSPCB",09-01-2026 08:00:00,25.596727,85.085624,NO2,21,23,22
India,Bihar,Patna,"Samanpura, Patna - BSPCB",09-01-2026 08:00:00,25.596727,85.085624,NH3,5,6,5
India,Bihar,Patna,"Samanpura, Patna - BSPCB",09-01-2026 08:00:00,25.596727,85.085624,SO2,1,2,1
India,Delhi,Delhi,"North Campus, DU, Delhi - IMD",09-01-2026 08:00:00,28.6573814,77.1585447,OZONE,6,180,7
India,Delhi,Delhi,"Okhla Phase-2, Delhi - DPCC",09-01-2026 08:00:00,28.530785,77.271255,PM2.5,257,500,382
India,Delhi,Delhi,"Okhla Phase-2, Delhi - DPCC",09-01-2026 08:00:00,28.530785,77.271255,PM10,135,449,295
India,Delhi,Delhi,"Okhla Phase-2, Delhi - DPCC",09-01-2026 08:00:00,28.530785,77.271255,SO2,8,25,16
India,Delhi,Delhi,"Okhla Phase-2, Delhi - DPCC",09-01-2026 08:00:00,28.530785,77.271255,OZONE,2,158,4
India,Delhi,Delhi,"Patparganj, Delhi - DPCC",09-01-2026 08:00:00,28.623763,77.287209,PM2.5,217,480,364
India,Delhi,Delhi,"Patparganj, Delhi - DPCC",09-01-2026 08:00:00,28.623763,77.287209,SO2,5,12,9
India,Delhi,Delhi,"Patparganj, Delhi - DPCC",09-01-2026 08:00:00,28.623763,77.287209,CO,27,138,39
India,Delhi,Delhi,"IGI Airport (T3), Delhi - IMD",09-01-2026 08:00:00,28.5627763,77.1180053,NO2,47,112,81
India,Delhi,Delhi,"IGI Airport (T3), Delhi - IMD",09-01-2026 08:00:00,28.5627763,77.1180053,CO,NA,NA,NA
India,Delhi,Delhi,"IHBAS, Dilshad Garden, Delhi - CPCB",09-01-2026 08:00:00,28.6811736,77.3025234,PM2.5,222,382,330
India,Delhi,Delhi,"IHBAS, Dilshad Garden, Delhi - CPCB",09-01-2026 08:00:00,28.6811736,77.3025234,NH3,15,22,18
India,Delhi,Delhi,"IHBAS, Dilshad Garden, Delhi - CPCB",09-01-2026 08:00:00,28.6811736,77.3025234,SO2,18,37,25
India,Delhi,Delhi,"ITO, Delhi - CPCB",09-01-2026 08:00:00,28.628624,77.241060,NH3,3,4,4
India,Delhi,Delhi,"Jahangirpuri, Delhi - DPCC",09-01-2026 08:00:00,28.732820,77.170633,PM10,118,420,237
India,Chhattisgarh,Tumidih,"OP Jindal Industrial Park, Tumidih - CECB",09-01-2026 08:00:00,22.06631475,83.33820077,SO2,5,29,7
India,Chhattisgarh,Tumidih,"OP Jindal Industrial Park, Tumidih - CECB",09-01-2026 08:00:00,22.06631475,83.33820077,CO,12,44,29
India,Delhi,Delhi,"Anand Vihar, Delhi - DPCC",09-01-2026 08:00:00,28.647622,77.3158090,PM10,156,500,333
India,Delhi,Delhi,"Anand Vihar, Delhi - DPCC",09-01-2026 08:00:00,28.647622,77.3158090,NH3,5,9,7
India,Delhi,Delhi,"Ashok Vihar, Delhi - DPCC",09-01-2026 08:00:00,28.695381,77.181665,PM10,131,443,265
India,Delhi,Delhi,"Aya Nagar, Delhi - IMD",09-01-2026 08:00:00,28.4706914,77.1099364,PM2.5,81,400,305
India,Delhi,Delhi,"Pusa, Delhi - DPCC",09-01-2026 08:00:00,28.639652,77.146275,PM2.5,260,423,335
India,Delhi,Delhi,"Pusa, Delhi - DPCC",09-01-2026 08:00:00,28.639652,77.146275,CO,48,107,61
India,Delhi,Delhi,"Pusa, Delhi - DPCC",09-01-2026 08:00:00,28.639652,77.146275,OZONE,2,33,2
India,Delhi,Delhi,"Pusa, Delhi - IMD",09-01-2026 08:00:00,28.636110,77.173332,PM10,NA,NA,NA
India,Delhi,Delhi,"Pusa, Delhi - IMD",09-01-2026 08:00:00,28.636110,77.173332,NO2,NA,NA,NA
India,Delhi,Delhi,"Pusa, Delhi - IMD",09-01-2026 08:00:00,28.636110,77.173332,CO,104,147,107
India,Delhi,Delhi,"R K Puram, Delhi - DPCC",09-01-2026 08:00:00,28.563262,77.186937,PM10,138,500,301
India,Delhi,Delhi,"Shadipur, Delhi - CPCB",09-01-2026 08:00:00,28.6514781,77.1473105,PM2.5,230,330,299
India,Delhi,Delhi,"Shadipur, Delhi - CPCB",09-01-2026 08:00:00,28.6514781,77.1473105,CO,40,108,63
India,Delhi,Delhi,"Shadipur, Delhi - CPCB",09-01-2026 08:00:00,28.6514781,77.1473105,OZONE,19,38,24
India,Delhi,Delhi,"Sirifort, Delhi - CPCB",09-01-2026 08:00:00,28.5504249,77.2159377,PM2.5,253,452,365
India,Delhi,Delhi,"Sirifort, Delhi - CPCB",09-01-2026 08:00:00,28.5504249,77.2159377,OZONE,7,24,8
India,Delhi,Delhi,"Sonia Vihar, Delhi - DPCC",09-01-2026 08:00:00,28.710508,77.249485,OZONE,NA,NA,NA
India,Delhi,Delhi,"DTU, Delhi - CPCB",09-01-2026 08:00:00,28.7500499,77.1112615,NH3,12,13,13
India,Delhi,Delhi,"DTU, Delhi - CPCB",09-01-2026 08:00:00,28.7500499,77.1112615,CO,15,66,49
India,Delhi,Delhi,"Dr. Karni Singh Shooting Range, Delhi - DPCC",09-01-2026 08:00:00,28.498571,77.264840,NH3,9,13,11
India,Delhi,Delhi,"Dr. Karni Singh Shooting Range, Delhi - DPCC",09-01-2026 08:00:00,28.498571,77.264840,OZONE,3,107,3
India,Delhi,Delhi,"Dwarka-Sector 8, Delhi - DPCC ",09-01-2026 08:00:00,28.5710274,77.0719006,PM2.5,233,426,349
India,Delhi,Delhi,"Burari Crossing, Delhi - IMD",09-01-2026 08:00:00,28.7256504,77.2011573,PM2.5,126,357,279
India,Delhi,Delhi,"Burari Crossing, Delhi - IMD",09-01-2026 08:00:00,28.7256504,77.2011573,OZONE,8,77,9
India,Delhi,Delhi,"CRRI Mathura Road, Delhi - IMD",09-01-2026 08:00:00,28.5512005,77.2735737,CO,12,132,63
India,Delhi,Delhi,"Chandni Chowk, Delhi - IITM",09-01-2026 08:00:00,28.656756,77.227234,NH3,9,14,11
India,Delhi,Delhi,"Mundka, Delhi - DPCC",09-01-2026 08:00:00,28.684678,77.076574,OZONE,4,53,5
India,Delhi,Delhi,"Najafgarh, Delhi - DPCC",09-01-2026 08:00:00,28.570173,76.933762,NO2,78,101,90
India,Delhi,Delhi,"Narela, Delhi - DPCC",09-01-2026 08:00:00,28.822836,77.101981,SO2,2,14,8
India,Delhi,Delhi,"Nehru Nagar, Delhi - DPCC",09-01-2026 08:00:00,28.567890,77.250515,PM2.5,310,500,395
India,Delhi,Delhi,"Lodhi Road, Delhi - IMD",09-01-2026 08:00:00,28.5918245,77.2273074,NO2,17,62,36
India,Delhi,Delhi,"Major Dhyan Chand National Stadium, Delhi - DPCC",09-01-2026 08:00:00,28.611281,77.237738,PM10,122,410,245
India,Delhi,Delhi,"Major Dhyan Chand National Stadium, Delhi - DPCC",09-01-2026 08:00:00,28.611281,77.237738,SO2,20,25,22
India,Gujarat,Vatva,"Phase-4 GIDC, Vatva - GPCB",09-01-2026 08:00:00,22.969611,72.643500,NO2,44,66,55
India,Gujarat,Vatva,"Phase-4 GIDC, Vatva - GPCB",09-01-2026 08:00:00,22.969611,72.643500,OZONE,19,42,19
India,Haryana,Ambala,"Patti Mehar, Ambala - HSPCB",09-01-2026 08:00:00,30.379589,76.778328,NH3,9,11,10
India,Haryana,Ambala,"Patti Mehar, Ambala - HSPCB",09-01-2026 08:00:00,30.379589,76.778328,SO2,15,32,22
India,Haryana,Bahadurgarh,"Arya Nagar, Bahadurgarh - HSPCB",09-01-2026 08:00:00,28.6701,76.9254,NH3,12,13,13
India,Haryana,Ballabgarh,"Nathu Colony, Ballabgarh - HSPCB",09-01-2026 08:00:00,28.3419248,77.319699,SO2,1,5,4
India,Haryana,Ballabgarh,"Nathu Colony, Ballabgarh - HSPCB",09-01-2026 08:00:00,28.3419248,77.319699,CO,22,68,30
India,Haryana,Bhiwani,"H.B. Colony, Bhiwani - HSPCB",09-01-2026 08:00:00,28.806223,76.141105,PM2.5,43,97,68
India,Gujarat,Ahmedabad,"SAC ISRO Bopal, Ahmedabad - IITM",09-01-2026 08:00:00,23.041137,72.456691,CO,24,33,26
India,Gujarat,Ahmedabad,"SAC ISRO Satellite, Ahmedabad - IITM",09-01-2026 08:00:00,23.023389,72.515201,NH3,10,15,12
India,Gujarat,Ahmedabad,"SVPI Airport Hansol, Ahmedabad - IITM",09-01-2026 08:00:00,23.076793,72.627874,PM10,81,177,127
India,Gujarat,Ankleshwar,"GIDC, Ankleshwar - GPCB",09-01-2026 08:00:00,21.613267,73.010555,PM2.5,NA,NA,NA
India,Gujarat,Ankleshwar,"GIDC, Ankleshwar - GPCB",09-01-2026 08:00:00,21.613267,73.010555,NO2,NA,NA,NA
India,Gujarat,Ankleshwar,"GIDC, Ankleshwar - GPCB",09-01-2026 08:00:00,21.613267,73.010555,NH3,NA,NA,NA
India,Gujarat,Ankleshwar,"GIDC, Ankleshwar - GPCB",09-01-2026 08:00:00,21.613267,73.010555,SO2,NA,NA,NA
India,Gujarat,Ankleshwar,"GIDC, Ankleshwar - GPCB",09-01-2026 08:00:00,21.613267,73.010555,OZONE,NA,NA,NA
India,Gujarat,Gandhinagar,"GIFT City, Gandhinagar - IITM",09-01-2026 08:00:00,23.163798,72.677768,PM10,107,245,145
India,Delhi,Delhi,"Sri Aurobindo Marg, Delhi - DPCC",09-01-2026 08:00:00,28.531346,77.190156,OZONE,2,28,4
India,Delhi,Delhi,"Vivek Vihar, Delhi - DPCC",09-01-2026 08:00:00,28.672342,77.315260,PM10,137,500,294
India,Delhi,Delhi,"Vivek Vihar, Delhi - DPCC",09-01-2026 08:00:00,28.672342,77.315260,OZONE,1,91,2
India,Delhi,Delhi,"Wazirpur, Delhi - DPCC",09-01-2026 08:00:00,28.699793,77.165453,NH3,8,12,10
India,Gujarat,Ahmedabad,"Gyaspur, Ahmedabad - IITM",09-01-2026 08:00:00,22.977134,72.553024,PM10,116,183,151
India,Gujarat,Gandhinagar,"GIFT City, Gandhinagar - IITM",09-01-2026 08:00:00,23.163798,72.677768,SO2,1,5,3
India,Gujarat,Gandhinagar,"GIFT City, Gandhinagar - IITM",09-01-2026 08:00:00,23.163798,72.677768,CO,14,67,25
India,Gujarat,Gandhinagar,"Sector-10, Gandhinagar - GPCB",09-01-2026 08:00:00,23.221714,72.654328,PM2.5,94,272,179
India,Gujarat,Gandhinagar,"Sector-10, Gandhinagar - GPCB",09-01-2026 08:00:00,23.221714,72.654328,OZONE,3,75,10
India,Gujarat,Vapi,"Phase-1 GIDC, Vapi - GPCB",09-01-2026 08:00:00,20.362421,72.918013,OZONE,4,20,5
India,Gujarat,Ahmedabad,"Gyaspur, Ahmedabad - IITM",09-01-2026 08:00:00,22.977134,72.553024,OZONE,NA,NA,NA
India,Gujarat,Ahmedabad,"Maninagar, Ahmedabad - GPCB",09-01-2026 08:00:00,23.002657,72.591912,NO2,65,78,73
India,Gujarat,Ahmedabad,"Maninagar, Ahmedabad - GPCB",09-01-2026 08:00:00,23.002657,72.591912,CO,19,34,27
India,Gujarat,Ahmedabad,"Raikhad, Ahmedabad - IITM",09-01-2026 08:00:00,23.020509,72.579261,SO2,10,53,17
India,Gujarat,Ahmedabad,"Raikhad, Ahmedabad - IITM",09-01-2026 08:00:00,23.020509,72.579261,OZONE,7,61,25
India,Haryana,Bhiwani,"H.B. Colony, Bhiwani - HSPCB",09-01-2026 08:00:00,28.806223,76.141105,PM10,37,87,59
India,Haryana,Charkhi Dadri,"Mini Secretariat, Charkhi Dadri - HSPCB",09-01-2026 08:00:00,28.593883,76.270653,PM2.5,98,343,249
India,Haryana,Charkhi Dadri,"Mini Secretariat, Charkhi Dadri - HSPCB",09-01-2026 08:00:00,28.593883,76.270653,PM10,88,214,146
India,Haryana,Charkhi Dadri,"Mini Secretariat, Charkhi Dadri - HSPCB",09-01-2026 08:00:00,28.593883,76.270653,NO2,9,24,15
India,Haryana,Gurugram,"Sector-51, Gurugram - HSPCB",09-01-2026 08:00:00,28.4227,77.0667,NO2,6,15,9
India,Haryana,Gurugram,"Sector-51, Gurugram - HSPCB",09-01-2026 08:00:00,28.4227,77.0667,OZONE,3,15,3
India,Haryana,Gurugram,"Teri Gram, Gurugram - HSPCB",09-01-2026 08:00:00,28.4275,77.1465,NH3,12,23,17
India,Haryana,Gurugram,"Teri Gram, Gurugram - HSPCB",09-01-2026 08:00:00,28.4275,77.1465,OZONE,3,15,4
India,Haryana,Faridabad,"New Industrial Town, Faridabad - HSPCB",09-01-2026 08:00:00,28.39072,77.30059,CO,10,13,12
India,Haryana,Faridabad,"Sector 11, Faridabad - HSPCB",09-01-2026 08:00:00,28.376058,77.315741,CO,10,94,19
India,Karnataka,Bengaluru,"City Railway Station, Bengaluru - KSPCB",09-01-2026 08:00:00,12.9756843,77.5660749,NO2,30,33,32
India,Karnataka,Bengaluru,"Hebbal, Bengaluru - KSPCB",09-01-2026 08:00:00,13.029152,77.585901,PM10,75,119,88
India,Karnataka,Bengaluru,"Hebbal, Bengaluru - KSPCB",09-01-2026 08:00:00,13.029152,77.585901,CO,13,74,20
India,Karnataka,Bengaluru,"Hombegowda Nagar, Bengaluru - KSPCB",09-01-2026 08:00:00,12.938539,77.590100,PM10,40,67,49
India,Karnataka,Bengaluru,"Hombegowda Nagar, Bengaluru - KSPCB",09-01-2026 08:00:00,12.938539,77.590100,NH3,2,4,3
India,Karnataka,Bengaluru,"Hombegowda Nagar, Bengaluru - KSPCB",09-01-2026 08:00:00,12.938539,77.590100,CO,10,30,16
India,Karnataka,Bengaluru,"Jayanagar 5th Block, Bengaluru - KSPCB",09-01-2026 08:00:00,12.920984,77.584908,SO2,1,17,9
India,Karnataka,Bengaluru,"Jayanagar 5th Block, Bengaluru - KSPCB",09-01-2026 08:00:00,12.920984,77.584908,CO,6,52,11
India,Haryana,Kaithal,"Rishi Nagar, Kaithal - HSPCB",09-01-2026 08:00:00,29.8006,76.4155,PM10,103,148,127
India,Haryana,Kaithal,"Rishi Nagar, Kaithal - HSPCB",09-01-2026 08:00:00,29.8006,76.4155,NH3,5,6,6
India,Haryana,Kaithal,"Rishi Nagar, Kaithal - HSPCB",09-01-2026 08:00:00,29.8006,76.4155,OZONE,2,9,3
India,Haryana,Karnal,"Sector-12, Karnal - HSPCB",09-01-2026 08:00:00,29.695300,77.002700,PM2.5,150,229,193
India,Haryana,Kurukshetra,"Sector-7, Kurukshetra - HSPCB",09-01-2026 08:00:00,29.966942,76.875879,NH3,5,5,5
India,Haryana,Mandikhera,"General Hospital, Mandikhera(Nuh) - HSPCB",09-01-2026 08:00:00,27.9002,76.9938,PM2.5,103,263,183
India,Haryana,Sonipat,"Murthal, Sonipat - HSPCB",09-01-2026 08:00:00,29.027200,77.062100,NO2,17,44,32
India,Haryana,Yamuna Nagar,"Gobind Pura, Yamuna Nagar - HSPCB",09-01-2026 08:00:00,30.1480566,77.2893471,NH3,1,6,4
India,Himachal Pradesh,Baddi,"HIMUDA Complex Phase-1, Baddi - HPPCB",09-01-2026 08:00:00,30.943887,76.801991,PM2.5,100,305,177
India,Himachal Pradesh,Baddi,"HIMUDA Complex Phase-1, Baddi - HPPCB",09-01-2026 08:00:00,30.943887,76.801991,NH3,3,6,5
India,Jammu_and_Kashmir,Srinagar,"Khunmoh, Srinagar - JKPCC",09-01-2026 08:00:00,34.06313,74.96017,NO2,2,4,2
India,Jammu_and_Kashmir,Srinagar,"Rajbagh, Srinagar - JKPCC",09-01-2026 08:00:00,34.066206,74.819820,CO,10,21,12
India,Karnataka,Belgaum,"Ramteerth Nagar, Belgaum - KSPCB",09-01-2026 08:00:00,15.888653,74.541751,PM10,46,111,73
India,Haryana,Panchgaon,"Amity University, Panchgaon - IITM",09-01-2026 08:00:00,28.3153,76.9143,PM10,21,425,106
India,Haryana,Panchgaon,"Amity University, Panchgaon - IITM",09-01-2026 08:00:00,28.3153,76.9143,NO2,11,44,26
India,Haryana,Panchgaon,"Amity University, Panchgaon - IITM",09-01-2026 08:00:00,28.3153,76.9143,CO,4,90,32
India,Haryana,Panipat,"Sector-18, Panipat - HSPCB",09-01-2026 08:00:00,29.432304,76.972765,PM10,107,194,154
India,Karnataka,Bengaluru,"BTM Layout, Bengaluru - CPCB",09-01-2026 08:00:00,12.9135218,77.5950804,NH3,6,8,6
India,Karnataka,Bengaluru,"BTM Layout, Bengaluru - CPCB",09-01-2026 08:00:00,12.9135218,77.5950804,OZONE,22,25,25
India,Karnataka,Bengaluru,"BWSSB Kadabesanahalli, Bengaluru - CPCB",09-01-2026 08:00:00,12.9352049,77.6814488,PM2.5,87,221,146
India,Karnataka,Bengaluru,"BWSSB Kadabesanahalli, Bengaluru - CPCB",09-01-2026 08:00:00,12.9352049,77.6814488,CO,38,40,38
India,Haryana,Manesar,"Sector-2 IMT, Manesar - HSPCB",09-01-2026 08:00:00,28.360699,76.936090,PM2.5,85,340,233
India,Haryana,Manesar,"Sector-2 IMT, Manesar - HSPCB",09-01-2026 08:00:00,28.360699,76.936090,NH3,9,10,9
India,Haryana,Narnaul,"Shastri Nagar, Narnaul - HSPCB",09-01-2026 08:00:00,28.060249,76.113115,PM2.5,95,360,245
India,Haryana,Narnaul,"Shastri Nagar, Narnaul - HSPCB",09-01-2026 08:00:00,28.060249,76.113115,NH3,9,15,12
India,Karnataka,Bengaluru,"Shivapura_Peenya, Bengaluru - KSPCB",09-01-2026 08:00:00,13.0246342,77.5080115,SO2,9,10,10
India,Karnataka,Bengaluru,"Silk Board, Bengaluru - KSPCB",09-01-2026 08:00:00,12.917348,77.622813,NH3,NA,NA,NA
India,Karnataka,Chamarajanagar,"Urban, Chamarajanagar - KSPCB",09-01-2026 08:00:00,11.55358,76.55521,NO2,15,35,28
India,Karnataka,Bengaluru,"Peenya, Bengaluru - CPCB",09-01-2026 08:00:00,13.0270199,77.494094,PM10,88,109,100
India,Karnataka,Bengaluru,"RVCE-Mailasandra, Bengaluru - KSPCB",09-01-2026 08:00:00,12.921418,77.502466,PM10,46,136,107
India,Karnataka,Bengaluru,"Sanegurava Halli, Bengaluru - KSPCB",09-01-2026 08:00:00,12.990328,77.5431385,PM10,54,58,56
India,Madhya Pradesh,Jabalpur,"Gupteshwar, Jabalpur - JMC",09-01-2026 08:00:00,23.142888,79.916147,PM2.5,43,377,239
India,Madhya Pradesh,Jabalpur,"Marhatal, Jabalpur - MPPCB",09-01-2026 08:00:00,23.168606,79.932247,PM2.5,72,330,205
India,Madhya Pradesh,Jabalpur,"Marhatal, Jabalpur - MPPCB",09-01-2026 08:00:00,23.168606,79.932247,NO2,18,43,27
India,Madhya Pradesh,Jabalpur,"Marhatal, Jabalpur - MPPCB",09-01-2026 08:00:00,23.168606,79.932247,SO2,7,18,11
India,Madhya Pradesh,Jabalpur,"Marhatal, Jabalpur - MPPCB",09-01-2026 08:00:00,23.168606,79.932247,CO,22,106,46
India,Madhya Pradesh,Jabalpur,"Suhagi, Jabalpur - JMC",09-01-2026 08:00:00,23.218135,79.957770,PM2.5,69,314,194
India,Madhya Pradesh,Jabalpur,"Suhagi, Jabalpur - JMC",09-01-2026 08:00:00,23.218135,79.957770,PM10,86,203,141
India,Madhya Pradesh,Jabalpur,"Suhagi, Jabalpur - JMC",09-01-2026 08:00:00,23.218135,79.957770,SO2,10,12,11
India,Madhya Pradesh,Katni,"Gole Bazar, Katni - MPPCB",09-01-2026 08:00:00,23.50016,80.23284,PM2.5,50,133,86
India,Madhya Pradesh,Katni,"Gole Bazar, Katni - MPPCB",09-01-2026 08:00:00,23.50016,80.23284,PM10,56,121,91
India,Karnataka,Hubballi,"Lingaraj Nagar, Hubballi - KSPCB",09-01-2026 08:00:00,15.3714823,75.1160168,NH3,1,2,2
India,Karnataka,Hubballi,"Lingaraj Nagar, Hubballi - KSPCB",09-01-2026 08:00:00,15.3714823,75.1160168,SO2,2,7,3
India,Karnataka,Kalaburagi,"Mahatma Basaveswar Colony, Kalaburgi - KSPCB",09-01-2026 08:00:00,17.336318,76.847397,PM10,33,75,52
India,Karnataka,Kalaburagi,"Mahatma Basaveswar Colony, Kalaburgi - KSPCB",09-01-2026 08:00:00,17.336318,76.847397,NO2,11,23,17
India,Karnataka,Kalaburagi,"Mahatma Basaveswar Colony, Kalaburgi - KSPCB",09-01-2026 08:00:00,17.336318,76.847397,NH3,3,4,3
India,Karnataka,Kalaburagi,"Mahatma Basaveswar Colony, Kalaburgi - KSPCB",09-01-2026 08:00:00,17.336318,76.847397,SO2,2,3,3
India,Karnataka,Koppal,"Diwator Nagar, Koppal - KSPCB",09-01-2026 08:00:00,15.347630,76.181767,PM10,NA,NA,NA
India,Karnataka,Madikeri,"Stuart Hill, Madikeri - KSPCB",09-01-2026 08:00:00,12.415911,75.735050,PM2.5,30,49,40
India,Kerala,Kollam,"Polayathode, Kollam - Kerala PCB",09-01-2026 08:00:00,8.8787,76.6073,OZONE,NA,NA,NA
India,Kerala,Thiruvananthapuram,"Plammoodu, Thiruvananthapuram - Kerala PCB",09-01-2026 08:00:00,8.5149093,76.9435879,NO2,NA,NA,NA
India,Kerala,Thrissur,"Corporation Ground, Thrissur - Kerala PCB",09-01-2026 08:00:00,10.532400,76.215900,PM2.5,50,65,57
India,Kerala,Thrissur,"Corporation Ground, Thrissur - Kerala PCB",09-01-2026 08:00:00,10.532400,76.215900,CO,20,36,34
India,Madhya Pradesh,Bhopal,"Idgah Hills, Bhopal - MPPCB",09-01-2026 08:00:00,23.264759,77.381568,PM10,91,163,126
India,Madhya Pradesh,Bhopal,"Idgah Hills, Bhopal - MPPCB",09-01-2026 08:00:00,23.264759,77.381568,NO2,18,46,32
India,Madhya Pradesh,Indore,"Airport Area, Indore - IMC",09-01-2026 08:00:00,22.7289,75.8076,SO2,17,18,17
India,Madhya Pradesh,Indore,"Chhoti Gwaltoli, Indore - MPPCB",09-01-2026 08:00:00,22.4310,75.5213,SO2,16,40,25
India,Madhya Pradesh,Indore,"Chhoti Gwaltoli, Indore - MPPCB",09-01-2026 08:00:00,22.4310,75.5213,CO,42,130,77
India,Madhya Pradesh,Indore,"Regional Park, Indore - IMC",09-01-2026 08:00:00,22.6780,75.8559,OZONE,32,85,38
India,Madhya Pradesh,Indore,"Residency Area, Indore - IMC",09-01-2026 08:00:00,22.7084,75.8815,SO2,24,36,29
India,Madhya Pradesh,Jabalpur,"Govindh Bhavan Colony, Jabalpur - JMC",09-01-2026 08:00:00,23.163174,79.973061,NO2,14,29,20
India,Karnataka,Vijayapura,"Ibrahimpur, Vijayapura - KSPCB",09-01-2026 08:00:00,16.802639,75.722694,SO2,8,8,8
India,Karnataka,Yadgir,"Collector Office, Yadgir - KSPCB",09-01-2026 08:00:00,16.7602,77.1428,OZONE,18,23,18
India,Kerala,Eloor,"Udyogamandal, Eloor - Kerala PCB",09-01-2026 08:00:00,10.073232,76.302765,SO2,1,1,1
India,Kerala,Kannur,"Thavakkara, Kannur - Kerala PCB",09-01-2026 08:00:00,11.875000,75.373200,PM2.5,NA,NA,NA
India,Kerala,Kannur,"Thavakkara, Kannur - Kerala PCB",09-01-2026 08:00:00,11.875000,75.373200,PM10,NA,NA,NA
India,Karnataka,Ramanagara,"Vijay Nagar, Ramanagara - KSPCB",09-01-2026 08:00:00,12.733409,77.298051,NH3,1,1,1
India,Karnataka,Shivamogga,"Vinoba Nagara, Shivamogga - KSPCB",09-01-2026 08:00:00,13.940000,75.555917,PM2.5,35,49,40
India,Karnataka,Shivamogga,"Vinoba Nagara, Shivamogga - KSPCB",09-01-2026 08:00:00,13.940000,75.555917,NH3,3,4,3
India,Karnataka,Tumakuru,"Thimmalapura, Tumakuru - KSPCB",09-01-2026 08:00:00,13.377516,77.099072,PM10,92,169,120
India,Madhya Pradesh,Gwalior,"City Center, Gwalior - MPPCB",09-01-2026 08:00:00,26.203442,78.193251,PM2.5,73,325,206
India,Madhya Pradesh,Gwalior,"City Center, Gwalior - MPPCB",09-01-2026 08:00:00,26.203442,78.193251,OZONE,24,47,25
India,Madhya Pradesh,Gwalior,"Maharaj Bada, Gwalior - MPPCB",09-01-2026 08:00:00,26.200388,78.147714,PM2.5,80,327,238
India,Madhya Pradesh,Gwalior,"Maharaj Bada, Gwalior - MPPCB",09-01-2026 08:00:00,26.200388,78.147714,NH3,6,6,6
India,Madhya Pradesh,Bhopal,"T T Nagar, Bhopal - MPPCB",09-01-2026 08:00:00,23.233584,77.400574,SO2,11,27,15
India,Madhya Pradesh,Damoh,"Shrivastav Colony, Damoh - MPPCB",09-01-2026 08:00:00,23.81748678,79.446246,SO2,3,6,4
India,Madhya Pradesh,Damoh,"Shrivastav Colony, Damoh - MPPCB",09-01-2026 08:00:00,23.81748678,79.446246,CO,9,24,16
India,Karnataka,Davanagere,"Devaraj Urs Badavane, Davanagere - KSPCB",09-01-2026 08:00:00,14.475800,75.905200,CO,10,35,12
India,Maharashtra,Aurangabad,"More Chowk Waluj, Aurangabad - MPCB",09-01-2026 08:00:00,19.8389439,75.244448,NO2,16,22,19
India,Maharashtra,Aurangabad,"More Chowk Waluj, Aurangabad - MPCB",09-01-2026 08:00:00,19.8389439,75.244448,NH3,10,11,11
India,Maharashtra,Aurangabad,"More Chowk Waluj, Aurangabad - MPCB",09-01-2026 08:00:00,19.8389439,75.244448,CO,6,121,79
India,Maharashtra,Aurangabad,"Rachnakar Colony, Aurangabad - MPCB",09-01-2026 08:00:00,19.863756,75.321188,PM10,33,157,81
India,Maharashtra,Aurangabad,"Rachnakar Colony, Aurangabad - MPCB",09-01-2026 08:00:00,19.863756,75.321188,NO2,19,26,22
India,Maharashtra,Aurangabad,"Rachnakar Colony, Aurangabad - MPCB",09-01-2026 08:00:00,19.863756,75.321188,SO2,8,40,27
India,Maharashtra,Badlapur,"Katrap, Badlapur - MPCB",09-01-2026 08:00:00,19.16485,73.23409,PM10,93,172,139
India,Maharashtra,Belapur,"CBD Belapur, Belapur - MPCB",09-01-2026 08:00:00,19.0243902,73.0406721,PM10,106,189,140
India,Maharashtra,Belapur,"CBD Belapur, Belapur - MPCB",09-01-2026 08:00:00,19.0243902,73.0406721,SO2,7,41,15
India,Maharashtra,Ahmednagar,"Tarakpur, Ahmednagar - MPCB",09-01-2026 08:00:00,19.10122,74.73339,SO2,NA,NA,NA
India,Maharashtra,Ahmednagar,"Tarakpur, Ahmednagar - MPCB",09-01-2026 08:00:00,19.10122,74.73339,OZONE,3,90,4
India,Maharashtra,Amravati,"Shivneri Colony, Amravati - MPCB",09-01-2026 08:00:00,20.9402359,77.7895248,PM2.5,38,69,57
India,Maharashtra,Amravati,"Shivneri Colony, Amravati - MPCB",09-01-2026 08:00:00,20.9402359,77.7895248,SO2,31,41,34
India,Maharashtra,Amravati,"Shri Shivaji Science College, Amravati - MPCB",09-01-2026 08:00:00,20.939198,77.765701,PM2.5,34,94,62
India,Maharashtra,Amravati,"Shri Shivaji Science College, Amravati - MPCB",09-01-2026 08:00:00,20.939198,77.765701,PM10,43,238,98
India,Maharashtra,Amravati,"Shri Shivaji Science College, Amravati - MPCB",09-01-2026 08:00:00,20.939198,77.765701,CO,32,104,39
India,Maharashtra,Aurangabad,"MIDC Chilkalthana, Aurangabad - MPCB",09-01-2026 08:00:00,19.875620,75.387310,PM2.5,29,123,76
India,Maharashtra,Mumbai,"Bandra Kurla Complex, Mumbai - MPCB",09-01-2026 08:00:00,19.065931,72.862131,PM10,85,238,140
India,Maharashtra,Mumbai,"Bandra Kurla Complex, Mumbai - MPCB",09-01-2026 08:00:00,19.065931,72.862131,CO,13,18,15
India,Maharashtra,Mumbai,"Bandra Kurla Complex, Mumbai - MPCB",09-01-2026 08:00:00,19.065931,72.862131,OZONE,1,53,2
India,Maharashtra,Mumbai,"Borivali East, Mumbai - IITM",09-01-2026 08:00:00,19.23241,72.86895,NO2,NA,NA,NA
India,Maharashtra,Mumbai,"Borivali East, Mumbai - MPCB",09-01-2026 08:00:00,19.2243333,72.8658113,PM10,44,78,60
India,Maharashtra,Mumbai,"Borivali East, Mumbai - MPCB",09-01-2026 08:00:00,19.2243333,72.8658113,NO2,NA,NA,NA
India,Maharashtra,Mumbai,"Borivali East, Mumbai - MPCB",09-01-2026 08:00:00,19.2243333,72.8658113,NH3,1,9,5
India,Maharashtra,Mumbai,"Byculla, Mumbai - BMC",09-01-2026 08:00:00,18.9767,72.8380,NH3,9,34,19
India,Madhya Pradesh,Mandideep,"Sector-D Industrial Area, Mandideep - MPPCB",09-01-2026 08:00:00,23.108440,77.511428,NO2,114,154,141
India,Madhya Pradesh,Mandideep,"Sector-D Industrial Area, Mandideep - MPPCB",09-01-2026 08:00:00,23.108440,77.511428,NH3,7,9,8
India,Madhya Pradesh,Mandideep,"Sector-D Industrial Area, Mandideep - MPPCB",09-01-2026 08:00:00,23.108440,77.511428,OZONE,4,65,4
India,Madhya Pradesh,Pithampur,"Sector-2 Industrial Area, Pithampur - MPPCB",09-01-2026 08:00:00,22.624758,75.675238,NH3,2,4,3
India,Madhya Pradesh,Pithampur,"Sector-2 Industrial Area, Pithampur - MPPCB",09-01-2026 08:00:00,22.624758,75.675238,SO2,13,17,15
India,Madhya Pradesh,Pithampur,"Sector-2 Industrial Area, Pithampur - MPPCB",09-01-2026 08:00:00,22.624758,75.675238,OZONE,18,49,31
India,Madhya Pradesh,Ratlam,"Shasthri Nagar, Ratlam - IPCA Lab",09-01-2026 08:00:00,23.331731,75.045981,NO2,15,42,24
India,Madhya Pradesh,Sagar,"Deen Dayal Nagar, Sagar - MPPCB",09-01-2026 08:00:00,23.8640158,78.80289321,PM10,32,146,106
India,Madhya Pradesh,Sagar,"Deen Dayal Nagar, Sagar - MPPCB",09-01-2026 08:00:00,23.8640158,78.80289321,CO,59,97,67
India,Madhya Pradesh,Satna,"Bandhavgar Colony, Satna - Birla Cement",09-01-2026 08:00:00,24.58434363,80.8549414,OZONE,NA,NA,NA
India,Madhya Pradesh,Singrauli,"Suryakiran Bhawan NCL, Singrauli - MPPCB",09-01-2026 08:00:00,24.108970,82.645580,CO,33,128,69
India,Maharashtra,Ahmednagar,"Tarakpur, Ahmednagar - MPCB",09-01-2026 08:00:00,19.10122,74.73339,PM10,64,163,98
India,Maharashtra,Bhiwandi,"Gokul Nagar, Bhiwandi - MPCB",09-01-2026 08:00:00,19.309073,73.057223,NO2,14,30,22
India,Maharashtra,Chandrapur,"Chauhan Colony, Chandrapur - MPCB",09-01-2026 08:00:00,19.962900,79.298714,NO2,30,33,32
India,Maharashtra,Chandrapur,"Chauhan Colony, Chandrapur - MPCB",09-01-2026 08:00:00,19.962900,79.298714,CO,24,59,42
India,Maharashtra,Chandrapur,"MIDC Khutala, Chandrapur - MPCB",09-01-2026 08:00:00,19.9775302,79.2337086,PM2.5,32,163,73
India,Maharashtra,Chandrapur,"MIDC Khutala, Chandrapur - MPCB",09-01-2026 08:00:00,19.9775302,79.2337086,NO2,10,61,28
India,Maharashtra,Chandrapur,"MIDC Khutala, Chandrapur - MPCB",09-01-2026 08:00:00,19.9775302,79.2337086,SO2,8,9,9
India,Maharashtra,Mahad,"Kamble Tarf Birwadi, Mahad - MPCB",09-01-2026 08:00:00,18.1023399,73.4783687,OZONE,16,61,20
India,Maharashtra,Malegaon,"Mahesh Nagar, Malegaon - MPCB",09-01-2026 08:00:00,20.555712,74.529236,NH3,3,4,4
India,Maharashtra,Mumbai,"Bandra Kurla Complex, Mumbai - IITM",09-01-2026 08:00:00,19.053536,72.84643,NO2,NA,NA,NA
India,Maharashtra,Mumbai,"Bandra Kurla Complex, Mumbai - IITM",09-01-2026 08:00:00,19.053536,72.84643,NH3,NA,NA,NA
India,Maharashtra,Mumbai,"Bandra Kurla Complex, Mumbai - IITM",09-01-2026 08:00:00,19.053536,72.84643,SO2,NA,NA,NA
India,Maharashtra,Kalyan,"Pimpleshwar Mandir, Kalyan - MPCB",09-01-2026 08:00:00,19.192056,72.9585188,PM2.5,38,178,92
India,Maharashtra,Kalyan,"Pimpleshwar Mandir, Kalyan - MPCB",09-01-2026 08:00:00,19.192056,72.9585188,CO,2,8,2
India,Maharashtra,Kolhapur,"Sinchan Bhavan, Kolhapur - MPCB",09-01-2026 08:00:00,16.7143745,74.2426398,NH3,4,11,8
India,Maharashtra,Kolhapur,"Sinchan Bhavan, Kolhapur - MPCB",09-01-2026 08:00:00,16.7143745,74.2426398,SO2,2,7,4
India,Maharashtra,Dhule,"Deopur, Dhule - MPCB",09-01-2026 08:00:00,20.918946,74.776388,CO,18,96,32
India,Maharashtra,Kalyan,"Khadakpada, Kalyan - MPCB",09-01-2026 08:00:00,19.25292,73.142019,NO2,NA,NA,NA
India,Maharashtra,Navi Mumbai,"Mahape, Navi Mumbai - MPCB",09-01-2026 08:00:00,19.1135051,73.008978,NH3,3,3,3
India,Maharashtra,Navi Mumbai,"Nerul, Navi Mumbai - MPCB",09-01-2026 08:00:00,19.008751,73.016620,PM2.5,68,308,168
India,Maharashtra,Navi Mumbai,"Nerul, Navi Mumbai - MPCB",09-01-2026 08:00:00,19.008751,73.016620,PM10,NA,NA,NA
India,Maharashtra,Navi Mumbai,"Sanpada, Navi Mumbai - MPCB",09-01-2026 08:00:00,19.0575752,73.0151367,PM10,12,161,110
India,Maharashtra,Navi Mumbai,"Sanpada, Navi Mumbai - MPCB",09-01-2026 08:00:00,19.0575752,73.0151367,NH3,11,11,11
India,Maharashtra,Navi Mumbai,"Sector-2E Kalamboli, Navi Mumbai - MPCB",09-01-2026 08:00:00,19.02579,73.10297,NO2,22,24,23
India,Maharashtra,Navi Mumbai,"Tondare-Taloja, Navi Mumbai - MPCB",09-01-2026 08:00:00,19.0630,73.1209,PM2.5,32,232,115
India,Maharashtra,Navi Mumbai,"Tondare-Taloja, Navi Mumbai - MPCB",09-01-2026 08:00:00,19.0630,73.1209,PM10,30,154,92
India,Maharashtra,Nagpur,"Opp GPO Civil Lines, Nagpur - MPCB",09-01-2026 08:00:00,21.152875,79.0517531,NO2,26,68,40
India,Maharashtra,Nagpur,"Ram Nagar, Nagpur - MPCB",09-01-2026 08:00:00,21.143383,79.048912,PM2.5,55,307,158
India,Maharashtra,Nanded,"Sneh Nagar, Nanded - MPCB",09-01-2026 08:00:00,19.173852,77.296291,PM2.5,22,288,88
India,Maharashtra,Nashik,"Gangapur Road, Nashik - MPCB",09-01-2026 08:00:00,20.0073285,73.7762427,NH3,3,3,3
India,Maharashtra,Nashik,"Gangapur Road, Nashik - MPCB",09-01-2026 08:00:00,20.0073285,73.7762427,CO,22,36,30
India,Maharashtra,Mumbai,"Kherwadi_Bandra East, Mumbai - MPCB",09-01-2026 08:00:00,19.0632143,72.8456324,SO2,3,4,3
India,Maharashtra,Mumbai,"Khindipada-Bhandup West, Mumbai - IITM",09-01-2026 08:00:00,19.1653323,72.922099,OZONE,31,78,58
India,Maharashtra,Mumbai,"Kurla, Mumbai - MPCB",09-01-2026 08:00:00,19.0863,72.8888,PM2.5,72,111,92
India,Maharashtra,Mumbai,"Malad West, Mumbai - IITM",09-01-2026 08:00:00,19.19709,72.82204,PM10,97,172,130
India,Maharashtra,Mumbai,"Malad West, Mumbai - IITM",09-01-2026 08:00:00,19.19709,72.82204,OZONE,5,82,16
India,Maharashtra,Mumbai,"Chakala-Andheri East, Mumbai - IITM",09-01-2026 08:00:00,19.11074,72.86084,PM10,60,132,109
India,Maharashtra,Mumbai,"Chakala-Andheri East, Mumbai - IITM",09-01-2026 08:00:00,19.11074,72.86084,NO2,NA,NA,NA
India,Maharashtra,Mumbai,"Chakala-Andheri East, Mumbai - IITM",09-01-2026 08:00:00,19.11074,72.86084,CO,2,75,20
India,Maharashtra,Mumbai,"Chhatrapati Shivaji Intl. Airport (T2), Mumbai - MPCB",09-01-2026 08:00:00,19.10078,72.87462,NO2,1,1,1
India,Maharashtra,Mumbai,"Colaba, Mumbai - MPCB",09-01-2026 08:00:00,18.910000,72.820000,PM2.5,32,90,54
India,Maharashtra,Nashik,"Hirawadi, Nashik - MPCB",09-01-2026 08:00:00,20.021503,73.813844,NH3,2,17,4
India,Maharashtra,Nashik,"Pandav Nagari, Nashik - MPCB",09-01-2026 08:00:00,19.9591346,73.7788008,PM10,46,138,95
India,Maharashtra,Nashik,"Pandav Nagari, Nashik - MPCB",09-01-2026 08:00:00,19.9591346,73.7788008,NO2,6,40,19
India,Maharashtra,Navi Mumbai,"Kopripada-Vashi, Navi Mumbai - MPCB",09-01-2026 08:00:00,19.090337,73.014232,NH3,3,9,6
India,Maharashtra,Navi Mumbai,"Kopripada-Vashi, Navi Mumbai - MPCB",09-01-2026 08:00:00,19.090337,73.014232,OZONE,1,95,10
India,Maharashtra,Mumbai,"Mazgaon, Mumbai - IITM",09-01-2026 08:00:00,18.96702,72.84214,NH3,20,37,29
India,Maharashtra,Mumbai,"Mindspace-Malad West, Mumbai - MPCB",09-01-2026 08:00:00,19.1878657,72.8304069,CO,15,102,69
India,Maharashtra,Mumbai,"Mulund West, Mumbai - MPCB",09-01-2026 08:00:00,19.1750,72.9419,PM2.5,47,301,161
India,Maharashtra,Mumbai,"Mulund West, Mumbai - MPCB",09-01-2026 08:00:00,19.1750,72.9419,NH3,4,5,4
India,Maharashtra,Mumbai,"Mulund West, Mumbai - MPCB",09-01-2026 08:00:00,19.1750,72.9419,CO,NA,NA,NA
India,Maharashtra,Mumbai,"Powai, Mumbai - MPCB",09-01-2026 08:00:00,19.137500,72.915056,NO2,7,8,8
India,Maharashtra,Mumbai,"Shivaji Nagar, Mumbai - BMC",09-01-2026 08:00:00,19.060498,72.923356,PM2.5,35,77,56
India,Maharashtra,Mumbai,"Shivaji Nagar, Mumbai - BMC",09-01-2026 08:00:00,19.060498,72.923356,PM10,100,152,124
India,Maharashtra,Mumbai,"Siddharth Nagar-Worli, Mumbai - IITM",09-01-2026 08:00:00,19.000083,72.813993,CO,16,66,44
India,Maharashtra,Mumbai,"Sion, Mumbai - MPCB",09-01-2026 08:00:00,19.047000,72.874600,NH3,4,6,5
India,Maharashtra,Mumbai,"Sion, Mumbai - MPCB",09-01-2026 08:00:00,19.047000,72.874600,CO,6,15,14
India,Maharashtra,Mumbai,"Vile Parle West, Mumbai - MPCB",09-01-2026 08:00:00,19.10861,72.83622,PM10,63,112,92
India,Maharashtra,Nagpur,"Ambazari, Nagpur - MPCB",09-01-2026 08:00:00,21.121801,79.04952,CO,5,111,54
India,Maharashtra,Mumbai,"Ghatkopar, Mumbai - BMC",09-01-2026 08:00:00,19.083694,72.920967,PM2.5,44,103,70
India,Maharashtra,Mumbai,"Kandivali East, Mumbai - MPCB",09-01-2026 08:00:00,19.205800,72.868200,OZONE,17,18,18
India,Odisha,Cuttack,"CDA Area, Cuttack - OSPCB",09-01-2026 08:00:00,20.48891     ,85.84768     ,SO2,2,36,10
India,Odisha,Nayagarh,"Dabuna, Nayagarh - OSPCB",09-01-2026 08:00:00,21.847279,85.416905,PM2.5,13,69,34
India,Odisha,Nayagarh,"Dabuna, Nayagarh - OSPCB",09-01-2026 08:00:00,21.847279,85.416905,NH3,6,7,6
India,Odisha,Rairangpur,"Divisional Forest Office, Rairangpur - OSPCB",09-01-2026 08:00:00,22.265816,86.174829,PM2.5,12,123,54
India,Odisha,Rairangpur,"Divisional Forest Office, Rairangpur - OSPCB",09-01-2026 08:00:00,22.265816,86.174829,NO2,11,11,11
India,Odisha,Rairangpur,"Divisional Forest Office, Rairangpur - OSPCB",09-01-2026 08:00:00,22.265816,86.174829,NH3,1,1,1
India,Odisha,Rairangpur,"Divisional Forest Office, Rairangpur - OSPCB",09-01-2026 08:00:00,22.265816,86.174829,SO2,NA,NA,NA
India,Odisha,Rourkela,"Fertilizer Township, Rourkela - OSPCB",09-01-2026 08:00:00,22.18972222,84.86277778,PM2.5,NA,NA,NA
India,Maharashtra,Navi Mumbai,"Tondare-Taloja, Navi Mumbai - MPCB",09-01-2026 08:00:00,19.0630,73.1209,CO,10,94,52
India,Maharashtra,Navi Mumbai,"Tondare-Taloja, Navi Mumbai - MPCB",09-01-2026 08:00:00,19.0630,73.1209,OZONE,1,33,11
India,Maharashtra,Parbhani,"Masoom Colony, Parbhani - MPCB",09-01-2026 08:00:00,19.265594,76.761463,CO,8,16,12
India,Maharashtra,Pimpri-Chinchwad,"Gavalinagar, Pimpri Chinchwad - MPCB",09-01-2026 08:00:00,18.63673,73.82487,NH3,6,32,14
India,Maharashtra,Pimpri-Chinchwad,"Gavalinagar, Pimpri Chinchwad - MPCB",09-01-2026 08:00:00,18.63673,73.82487,CO,16,104,72
India,Maharashtra,Pimpri-Chinchwad,"Park Street Wakad, Pimpri Chinchwad - MPCB",09-01-2026 08:00:00,18.59051,73.77946,PM10,61,227,137
India,Maharashtra,Pimpri-Chinchwad,"Park Street Wakad, Pimpri Chinchwad - MPCB",09-01-2026 08:00:00,18.59051,73.77946,CO,5,132,88
India,Maharashtra,Solapur,"Ratandeep Housing Society, Solapur - MPCB",09-01-2026 08:00:00,17.65439,75.90649,CO,14,81,30
India,Maharashtra,Solapur,"Ratandeep Housing Society, Solapur - MPCB",09-01-2026 08:00:00,17.65439,75.90649,OZONE,6,50,34
India,Maharashtra,Thane,"Upvan Fort, Thane - MPCB",09-01-2026 08:00:00,19.222279,72.957979,PM2.5,43,145,86
India,Maharashtra,Thane,"Upvan Fort, Thane - MPCB",09-01-2026 08:00:00,19.222279,72.957979,NO2,15,69,39
India,Maharashtra,Thane,"Upvan Fort, Thane - MPCB",09-01-2026 08:00:00,19.222279,72.957979,CO,6,96,34
India,Maharashtra,Thane,"Upvan Fort, Thane - MPCB",09-01-2026 08:00:00,19.222279,72.957979,OZONE,20,80,40
India,Maharashtra,Ulhasnagar,"Sidhi Vinayak Nagar, Ulhasnagar - MPCB",09-01-2026 08:00:00,19.235581,73.159121,PM2.5,53,244,140
India,Maharashtra,Pune,"Savitribai Phule Pune University, Pune - MPCB",09-01-2026 08:00:00,18.547056,73.826908,PM2.5,36,174,102
India,Maharashtra,Sangli,"Vijay Nagar, Sangli - MPCB",09-01-2026 08:00:00, 16.5038,74.3623,NH3,NA,NA,NA
India,Maharashtra,Sangli,"Vijay Nagar, Sangli - MPCB",09-01-2026 08:00:00, 16.5038,74.3623,SO2,2,40,18
India,Maharashtra,Solapur,"Dnyaneshwar Nagar, Solapur - MPCB",09-01-2026 08:00:00,17.6336264,75.9132495,CO,9,40,21
India,Maharashtra,Solapur,"Ratandeep Housing Society, Solapur - MPCB",09-01-2026 08:00:00,17.65439,75.90649,NO2,12,119,42
India,Maharashtra,Pimpri-Chinchwad,"Savta Mali Nagar, Pimpri-Chinchwad - IITM",09-01-2026 08:00:00,18.614767,73.799516,CO,2,144,119
India,Maharashtra,Pimpri-Chinchwad,"Thergaon, Pimpri Chinchwad - MPCB",09-01-2026 08:00:00,18.616318,73.765797,PM10,63,262,130
India,Maharashtra,Pune,"Bhumkar Nagar, Pune - IITM",09-01-2026 08:00:00,18.605770,73.749976,NO2,42,128,92
India,Maharashtra,Pune,"Hadapsar, Pune - IITM",09-01-2026 08:00:00,18.501793,73.927532,OZONE,1,119,3
India,Odisha,Bileipada,"Tata Township, Bileipada - OSPCB",09-01-2026 08:00:00,22.06156703,85.47409613,PM10,NA,NA,NA
India,Odisha,Brajrajnagar,"GM Office, Brajrajnagar - OSPCB",09-01-2026 08:00:00,21.8004996,83.8396977,NO2,20,20,20
India,Odisha,Byasanagar,"Ferro Chrome Colony, Byasanagar - OSPCB",09-01-2026 08:00:00,20.94185,86.11510,PM10,25,107,57
India,Odisha,Byasanagar,"Ferro Chrome Colony, Byasanagar - OSPCB",09-01-2026 08:00:00,20.94185,86.11510,OZONE,10,127,54
India,Odisha,Baripada,"Meher Colony, Baripada - OSPCB",09-01-2026 08:00:00,21.941841,86.728318,CO,113,126,114
India,Odisha,Bhubaneswar,"Lingraj Mandir, Bhubaneswar - OSPCB",09-01-2026 08:00:00,20.240790,85.836784,PM2.5,52,335,203
India,Odisha,Bhubaneswar,"Lingraj Mandir, Bhubaneswar - OSPCB",09-01-2026 08:00:00,20.240790,85.836784,NH3,1,9,5
India,Maharashtra,Pune,"Katraj Dairy, Pune - MPCB",09-01-2026 08:00:00,18.454450,73.854155,NO2,21,44,37
India,Maharashtra,Pune,"Panchawati_Pashan, Pune - IITM",09-01-2026 08:00:00,18.536457,73.805454,NO2,13,60,35
India,Maharashtra,Pune,"Revenue Colony-Shivajinagar, Pune - IITM",09-01-2026 08:00:00,18.530085,73.849598,NO2,38,154,90
India,Maharashtra,Virar,"Bolinj, Virar - MPCB",09-01-2026 08:00:00,19.4458210,72.7988231,CO,24,91,46
India,Nagaland,Kohima,"PWD Junction, Kohima - NPCB",09-01-2026 08:00:00,25.6635413,94.0989878,NO2,3,4,3
India,Punjab,Patiala,"Model Town, Patiala - PPCB",09-01-2026 08:00:00,30.349388,76.366642,OZONE,12,42,13
India,Rajasthan,Ajmer,"Civil Lines,  Ajmer - RSPCB",09-01-2026 08:00:00,26.470859,74.646594,PM10,84,115,105
India,Rajasthan,Ajmer,"Civil Lines,  Ajmer - RSPCB",09-01-2026 08:00:00,26.470859,74.646594,NH3,3,4,4
India,Rajasthan,Alwar,"Moti Doongri, Alwar - RSPCB",09-01-2026 08:00:00,27.554793,76.611536,PM10,107,137,122
India,Rajasthan,Alwar,"Moti Doongri, Alwar - RSPCB",09-01-2026 08:00:00,27.554793,76.611536,NO2,40,73,61
India,Rajasthan,Alwar,"Moti Doongri, Alwar - RSPCB",09-01-2026 08:00:00,27.554793,76.611536,CO,6,90,56
India,Rajasthan,Alwar,"Moti Doongri, Alwar - RSPCB",09-01-2026 08:00:00,27.554793,76.611536,OZONE,12,41,15
India,Rajasthan,Banswara,"Rati Talai, Banswara - RSPCB",09-01-2026 08:00:00,23.555190,74.440010,PM2.5,62,323,118
India,Rajasthan,Banswara,"Rati Talai, Banswara - RSPCB",09-01-2026 08:00:00,23.555190,74.440010,NO2,15,87,32
India,Rajasthan,Banswara,"Rati Talai, Banswara - RSPCB",09-01-2026 08:00:00,23.555190,74.440010,SO2,1,6,2
India,Rajasthan,Banswara,"Rati Talai, Banswara - RSPCB",09-01-2026 08:00:00,23.555190,74.440010,OZONE,1,77,26
India,Odisha,Tensa,"Barsua Iron Ore Mines, Tensa - OSPCB",09-01-2026 08:00:00,21.869985,85.167016,PM10,15,108,55
India,Odisha,Tensa,"Barsua Iron Ore Mines, Tensa - OSPCB",09-01-2026 08:00:00,21.869985,85.167016,SO2,NA,NA,NA
India,Puducherry,Puducherry,"Jawahar Nagar, Puducherry - PPCC",09-01-2026 08:00:00,11.9309,79.8027,NO2,21,49,32
India,Puducherry,Puducherry,"Jawahar Nagar, Puducherry - PPCC",09-01-2026 08:00:00,11.9309,79.8027,SO2,4,11,8
India,Puducherry,Puducherry,"Jawahar Nagar, Puducherry - PPCC",09-01-2026 08:00:00,11.9309,79.8027,OZONE,32,63,40
India,Punjab,Amritsar,"Golden Temple, Amritsar - PPCB",09-01-2026 08:00:00,31.620000,74.876512,PM2.5,61,214,114
India,Punjab,Amritsar,"Golden Temple, Amritsar - PPCB",09-01-2026 08:00:00,31.620000,74.876512,PM10,58,143,101
India,Punjab,Amritsar,"Golden Temple, Amritsar - PPCB",09-01-2026 08:00:00,31.620000,74.876512,SO2,10,16,13
India,Punjab,Bathinda,"Hardev Nagar, Bathinda - PPCB",09-01-2026 08:00:00,30.233011,74.907758,SO2,3,12,6
India,Rajasthan,Bundi,"New Colony, Bundi - RSPCB",09-01-2026 08:00:00,25.435774,75.644272,OZONE,10,96,18
India,Rajasthan,Chittorgarh,"Shastri Nagar, Chittorgarh - RSPCB",09-01-2026 08:00:00,24.892047,74.623527,PM10,108,408,181
India,Rajasthan,Churu,"Subash Chowk, Churu - RSPCB",09-01-2026 08:00:00,28.296139,74.961696,PM10,87,199,147
India,Rajasthan,Dausa,"Khatikan Mohalla, Dausa - RSPCB",09-01-2026 08:00:00,26.895552,76.334753,PM2.5,43,150,97
India,Rajasthan,Dausa,"Khatikan Mohalla, Dausa - RSPCB",09-01-2026 08:00:00,26.895552,76.334753,PM10,41,99,74
India,Rajasthan,Dausa,"Khatikan Mohalla, Dausa - RSPCB",09-01-2026 08:00:00,26.895552,76.334753,SO2,5,13,9
India,Rajasthan,Dausa,"Khatikan Mohalla, Dausa - RSPCB",09-01-2026 08:00:00,26.895552,76.334753,CO,10,90,66
India,Rajasthan,Dholpur,"Raja Ganj, Dholpur - RSPCB",09-01-2026 08:00:00,26.699557,77.898881,NO2,18,72,34
India,Odisha,Rourkela,"Raghunathpali, Rourkela - OSPCB",09-01-2026 08:00:00,22.220833,84.809444,SO2,3,6,4
India,Odisha,Rourkela,"Raghunathpali, Rourkela - OSPCB",09-01-2026 08:00:00,22.220833,84.809444,CO,16,104,48
India,Odisha,Rourkela,"Sector-2, Rourkela - OSPCB",09-01-2026 08:00:00,22.24500000,84.88111111,PM10,21,159,67
India,Odisha,Suakati,"OMC Colony, Suakati - OSPCB",09-01-2026 08:00:00,21.606865,85.510538,OZONE,6,88,22
India,Odisha,Talcher,"Talcher Coalfields,Talcher - OSPCB",09-01-2026 08:00:00,20.9360711,85.1707021,NH3,5,7,6
India,Odisha,Talcher,"Talcher Coalfields,Talcher - OSPCB",09-01-2026 08:00:00,20.9360711,85.1707021,OZONE,22,39,37
India,Rajasthan,Bhiwadi,"RIICO Ind. Area III, Bhiwadi - RSPCB",09-01-2026 08:00:00,28.194909,76.862296,PM2.5,72,363,236
India,Rajasthan,Bhiwadi,"RIICO Ind. Area III, Bhiwadi - RSPCB",09-01-2026 08:00:00,28.194909,76.862296,NO2,17,61,36
India,Rajasthan,Bhiwadi,"RIICO Ind. Area III, Bhiwadi - RSPCB",09-01-2026 08:00:00,28.194909,76.862296,NH3,5,17,10
India,Rajasthan,Bhiwadi,"RIICO Ind. Area III, Bhiwadi - RSPCB",09-01-2026 08:00:00,28.194909,76.862296,SO2,4,24,10
India,Rajasthan,Bhiwadi,"Vasundhara Nagar_UIT, Bhiwadi - RSPCB",09-01-2026 08:00:00,28.207266,76.829265,PM10,108,500,291
India,Rajasthan,Bhiwadi,"Vasundhara Nagar_UIT, Bhiwadi - RSPCB",09-01-2026 08:00:00,28.207266,76.829265,NH3,1,5,4
India,Rajasthan,Bhiwadi,"Vasundhara Nagar_UIT, Bhiwadi - RSPCB",09-01-2026 08:00:00,28.207266,76.829265,SO2,1,17,9
India,Rajasthan,Bhiwadi,"Vasundhara Nagar_UIT, Bhiwadi - RSPCB",09-01-2026 08:00:00,28.207266,76.829265,CO,28,120,90
India,Rajasthan,Dholpur,"Raja Ganj, Dholpur - RSPCB",09-01-2026 08:00:00,26.699557,77.898881,OZONE,2,36,3
India,Rajasthan,Dungarpur,"Bhoiwada, Dungarpur - RSPCB",09-01-2026 08:00:00,23.837789,73.714926,OZONE,2,113,3
India,Rajasthan,Hanumangarh,"Housing Board, Hanumangarh - RSPCB",09-01-2026 08:00:00,29.610750,74.283608,SO2,10,14,11
India,Rajasthan,Hanumangarh,"Housing Board, Hanumangarh - RSPCB",09-01-2026 08:00:00,29.610750,74.283608,CO,NA,NA,NA
India,Rajasthan,Jaipur,"Adarsh Nagar, Jaipur - RSPCB",09-01-2026 08:00:00,26.902909,75.836858,SO2,3,19,11
India,Rajasthan,Barmer,"Railway Colony, Barmer - RSPCB",09-01-2026 08:00:00,25.747299,71.393989,NO2,12,24,18
India,Rajasthan,Barmer,"Railway Colony, Barmer - RSPCB",09-01-2026 08:00:00,25.747299,71.393989,NH3,4,7,5
India,Rajasthan,Bharatpur,"Krishna Nagar, Bharatpur - RSPCB",09-01-2026 08:00:00,27.215415,77.50873,PM10,77,179,117
India,Rajasthan,Bhilwara,"Pratap Nagar, Bhilwara - RSPCB",09-01-2026 08:00:00,25.339605,74.618883,PM10,110,172,134
India,Rajasthan,Bhilwara,"Pratap Nagar, Bhilwara - RSPCB",09-01-2026 08:00:00,25.339605,74.618883,NO2,15,39,24
India,Punjab,Jalandhar,"Civil Line, Jalandhar - PPCB",09-01-2026 08:00:00,31.321907,75.578914,PM10,85,122,105
India,Punjab,Khanna,"Kalal Majra, Khanna - PPCB",09-01-2026 08:00:00,30.736056 ,76.209694,PM2.5,45,97,70
India,Punjab,Khanna,"Kalal Majra, Khanna - PPCB",09-01-2026 08:00:00,30.736056 ,76.209694,PM10,63,124,94
India,Rajasthan,Jaipur,"Sector-2 Murlipura, Jaipur - RSPCB",09-01-2026 08:00:00,26.960669,75.771817,OZONE,5,60,53
India,Rajasthan,Kota,"Nayapura, Kota - RSPCB",09-01-2026 08:00:00,25.196024,75.855668,NO2,16,71,33
India,Rajasthan,Kota,"Nayapura, Kota - RSPCB",09-01-2026 08:00:00,25.196024,75.855668,SO2,6,13,8
India,Rajasthan,Kota,"Shrinath Puram, Kota - RSPCB",09-01-2026 08:00:00,25.14389,75.821256,NH3,3,8,4
India,Rajasthan,Kota,"Shrinath Puram, Kota - RSPCB",09-01-2026 08:00:00,25.14389,75.821256,OZONE,3,12,8
India,Rajasthan,Nagaur,"Karni Colony, Nagaur - RSPCB",09-01-2026 08:00:00,27.213494,73.734444,PM2.5,27,220,85
India,Rajasthan,Nagaur,"Karni Colony, Nagaur - RSPCB",09-01-2026 08:00:00,27.213494,73.734444,PM10,61,158,102
India,Rajasthan,Nagaur,"Karni Colony, Nagaur - RSPCB",09-01-2026 08:00:00,27.213494,73.734444,CO,12,40,31
India,Rajasthan,Pali,"Indira Colony Vistar, Pali - RSPCB",09-01-2026 08:00:00,25.771061, 73.340227,PM2.5,72,276,193
India,Rajasthan,Pali,"Indira Colony Vistar, Pali - RSPCB",09-01-2026 08:00:00,25.771061, 73.340227,PM10,60,133,115
India,Rajasthan,Pali,"Indira Colony Vistar, Pali - RSPCB",09-01-2026 08:00:00,25.771061, 73.340227,NO2,23,53,36
India,TamilNadu,Chennai,"Velachery Res. Area, Chennai - CPCB",09-01-2026 08:00:00,13.0052189,80.2398125,NH3,3,3,3
India,TamilNadu,Coimbatore,"PSG College of Arts and Science, Coimbatore - TNPCB",09-01-2026 08:00:00,11.0328,77.0349,OZONE,4,6,5
India,TamilNadu,Coimbatore,"SIDCO Kurichi, Coimbatore - TNPCB",09-01-2026 08:00:00,10.942451,76.978996,SO2,20,21,20
India,TamilNadu,Coimbatore,"SIDCO Kurichi, Coimbatore - TNPCB",09-01-2026 08:00:00,10.942451,76.978996,OZONE,9,10,10
India,TamilNadu,Cuddalore,"Kudikadu, Cuddalore - TNPCB",09-01-2026 08:00:00,11.6829898,79.7532099,PM2.5,41,87,56
India,TamilNadu,Cuddalore,"Semmandalam, Cuddalore - TNPCB",09-01-2026 08:00:00,11.7637683,79.7499835,OZONE,1,2,2
India,TamilNadu,Dindigul,"Mendonsa Colony, Dindigul - TNPCB",09-01-2026 08:00:00,10.358535,77.984321,NH3,1,1,1
India,Rajasthan,Udaipur,"Ashok Nagar, Udaipur - RSPCB",09-01-2026 08:00:00,24.5886166,73.6321397,SO2,5,9,7
India,Rajasthan,Udaipur,"Ashok Nagar, Udaipur - RSPCB",09-01-2026 08:00:00,24.5886166,73.6321397,OZONE,1,39,4
India,Sikkim,Gangtok,"Zero Point GICI, Gangtok - SSPCB",09-01-2026 08:00:00,27.338530,88.614099,PM2.5,9,48,24
India,Sikkim,Gangtok,"Zero Point GICI, Gangtok - SSPCB",09-01-2026 08:00:00,27.338530,88.614099,SO2,1,1,1
India,TamilNadu,Chennai,"Gandhi Nagar_Ennore, Chennai - TNPCB",09-01-2026 08:00:00,13.218341,80.32027,SO2,22,23,22
India,TamilNadu,Chennai,"Gandhi Nagar_Ennore, Chennai - TNPCB",09-01-2026 08:00:00,13.218341,80.32027,CO,6,12,8
India,TamilNadu,Chennai,"Manali Village, Chennai - TNPCB",09-01-2026 08:00:00,13.1662,80.2584,PM2.5,26,62,49
India,TamilNadu,Chennai,"Manali Village, Chennai - TNPCB",09-01-2026 08:00:00,13.1662,80.2584,NO2,6,9,7
India,Rajasthan,Pali,"Indira Colony Vistar, Pali - RSPCB",09-01-2026 08:00:00,25.771061, 73.340227,SO2,9,11,10
India,Rajasthan,Pratapgarh,"Pragati Nagar, Pratapgarh - RSPCB",09-01-2026 08:00:00,24.041198,74.780702,PM10,79,156,127
India,Rajasthan,Rajsamand,"Dhoinda, Rajsamand - RSPCB",09-01-2026 08:00:00,25.036360,73.883502,NO2,15,41,23
India,Rajasthan,Sawai Madhopur,"Sahu Nagar, Sawai Madhopur - RSPCB",09-01-2026 08:00:00,26.031443,76.359327,PM2.5,32,137,82
India,Rajasthan,Sawai Madhopur,"Sahu Nagar, Sawai Madhopur - RSPCB",09-01-2026 08:00:00,26.031443,76.359327,OZONE,12,25,24
India,Rajasthan,Sikar,"Radhakishan Pura, Sikar - RSPCB",09-01-2026 08:00:00,27.608912,75.153302,PM2.5,40,300,137
India,Rajasthan,Jaipur,"Shastri Nagar, Jaipur - RSPCB",09-01-2026 08:00:00,26.9502929,75.730943,NH3,4,25,12
India,Rajasthan,Jaisalmer,"Sadar Bazar, Jaisalmer - RSPCB",09-01-2026 08:00:00,26.912329,70.909168,CO,26,56,32
India,Rajasthan,Jaisalmer,"Sadar Bazar, Jaisalmer - RSPCB",09-01-2026 08:00:00,26.912329,70.909168,OZONE,15,77,49
India,Rajasthan,Jalore,"Mudtra Sili, Jalore - RSPCB",09-01-2026 08:00:00,25.344694,72.626208,SO2,3,9,5
India,Rajasthan,Jalore,"Mudtra Sili, Jalore - RSPCB",09-01-2026 08:00:00,25.344694,72.626208,OZONE,5,94,38
India,Rajasthan,Jhalawar,"Rajlaxmi Nagar, Jhalawar - RSPCB",09-01-2026 08:00:00,24.588397,76.172782,PM2.5,82,287,143
India,Rajasthan,Jhalawar,"Rajlaxmi Nagar, Jhalawar - RSPCB",09-01-2026 08:00:00,24.588397,76.172782,PM10,65,127,92
India,Rajasthan,Jodhpur,"Mandor, Jodhpur - RSPCB",09-01-2026 08:00:00,26.358805,73.047444,PM10,48,145,96
India,Rajasthan,Jodhpur,"Mandor, Jodhpur - RSPCB",09-01-2026 08:00:00,26.358805,73.047444,OZONE,39,102,50
India,Rajasthan,Jodhpur,"Samrat Ashok Udhyan, Jodhpur - RSPCB",09-01-2026 08:00:00,26.253384,72.976571,NO2,18,114,38
India,Rajasthan,Karauli,"Satyawati Vihar, Karauli - RSPCB",09-01-2026 08:00:00,26.506177,77.025989,SO2,7,23,10
India,Rajasthan,Karauli,"Satyawati Vihar, Karauli - RSPCB",09-01-2026 08:00:00,26.506177,77.025989,CO,17,64,22
India,Rajasthan,Kota,"Dhanmandi, Kota - RSPCB",09-01-2026 08:00:00,25.164090,75.858137,NO2,23,110,49
India,TamilNadu,Chennai,"Manali Village, Chennai - TNPCB",09-01-2026 08:00:00,13.1662,80.2584,CO,36,41,38
India,TamilNadu,Chennai,"Manali, Chennai - CPCB",09-01-2026 08:00:00,13.164544,80.26285,CO,12,50,26
India,TamilNadu,Chennai,"Perungudi, Chennai - TNPCB",09-01-2026 08:00:00,12.9533,80.2357,PM2.5,32,65,52
India,TamilNadu,Chennai,"Perungudi, Chennai - TNPCB",09-01-2026 08:00:00,12.9533,80.2357,SO2,2,8,5
India,TamilNadu,Chennai,"Royapuram, Chennai - TNPCB",09-01-2026 08:00:00,13.1036,80.2909,NO2,1,8,1
India,Rajasthan,Jhunjhunu,"Indra Nagar, Jhunjhunu - RSPCB",09-01-2026 08:00:00,28.108988,75.386577,SO2,4,5,5
India,Rajasthan,Jhunjhunu,"Indra Nagar, Jhunjhunu - RSPCB",09-01-2026 08:00:00,28.108988,75.386577,CO,28,46,32
India,Rajasthan,Jodhpur,"Digari Kalan, Jodhpur - RSPCB",09-01-2026 08:00:00,26.295810,73.082283,PM10,58,217,113
India,Rajasthan,Jodhpur,"Digari Kalan, Jodhpur - RSPCB",09-01-2026 08:00:00,26.295810,73.082283,CO,22,57,25
India,Rajasthan,Jodhpur,"Jhalamand, Jodhpur - RSPCB",09-01-2026 08:00:00,26.215415,73.070156,NO2,12,45,20
India,Rajasthan,Sikar,"Radhakishan Pura, Sikar - RSPCB",09-01-2026 08:00:00,27.608912,75.153302,SO2,3,4,4
India,Rajasthan,Sirohi,"Vedhaynath Colony, Sirohi - RSPCB",09-01-2026 08:00:00,24.885261,72.857549,PM10,94,165,125
India,Rajasthan,Sri Ganganagar,"Old City, Sri Ganganagar - RSPCB",09-01-2026 08:00:00,29.931624,73.864511,CO,37,78,44
India,TamilNadu,Salem,"Sona College of Technology, Salem - TNPCB",09-01-2026 08:00:00,11.679111,78.125052,PM2.5,43,186,80
India,TamilNadu,Salem,"Sona College of Technology, Salem - TNPCB",09-01-2026 08:00:00,11.679111,78.125052,OZONE,NA,NA,NA
India,TamilNadu,Thoothukudi,"Meelavittan, Thoothukudi - TNPCB",09-01-2026 08:00:00,8.816428 ,78.099039,NO2,10,21,13
India,TamilNadu,Thoothukudi,"Meelavittan, Thoothukudi - TNPCB",09-01-2026 08:00:00,8.816428 ,78.099039,CO,16,43,32
India,Telangana,Hyderabad,"Bollaram Industrial Area, Hyderabad - TSPCB",09-01-2026 08:00:00,17.540891,78.358528,SO2,2,9,6
India,Telangana,Hyderabad,"Bollaram Industrial Area, Hyderabad - TSPCB",09-01-2026 08:00:00,17.540891,78.358528,CO,8,40,17
India,Telangana,Hyderabad,"Bollaram Industrial Area, Hyderabad - TSPCB",09-01-2026 08:00:00,17.540891,78.358528,OZONE,44,57,46
India,Telangana,Hyderabad,"Central University, Hyderabad - TSPCB",09-01-2026 08:00:00,17.460103,78.334361,NO2,15,41,31
India,Telangana,Hyderabad,"Central University, Hyderabad - TSPCB",09-01-2026 08:00:00,17.460103,78.334361,OZONE,7,21,15
India,Telangana,Hyderabad,"ECIL Kapra, Hyderabad - TSPCB",09-01-2026 08:00:00,17.470431,78.566959,PM2.5,NA,NA,NA
India,Telangana,Hyderabad,"ECIL Kapra, Hyderabad - TSPCB",09-01-2026 08:00:00,17.470431,78.566959,PM10,NA,NA,NA
India,Telangana,Hyderabad,"ECIL Kapra, Hyderabad - TSPCB",09-01-2026 08:00:00,17.470431,78.566959,SO2,1,24,9
India,Telangana,Hyderabad,"ICRISAT Patancheru, Hyderabad - TSPCB",09-01-2026 08:00:00,17.518400,78.278777,NH3,1,12,5
India,Telangana,Hyderabad,"ICRISAT Patancheru, Hyderabad - TSPCB",09-01-2026 08:00:00,17.518400,78.278777,CO,2,107,30
India,Telangana,Hyderabad,"IITH Kandi, Hyderabad - TSPCB",09-01-2026 08:00:00,17.585705,78.126199,PM10,64,91,76
India,Telangana,Hyderabad,"IITH Kandi, Hyderabad - TSPCB",09-01-2026 08:00:00,17.585705,78.126199,SO2,12,16,14
India,Telangana,Hyderabad,"IITH Kandi, Hyderabad - TSPCB",09-01-2026 08:00:00,17.585705,78.126199,OZONE,22,33,24
India,Uttar_Pradesh,Bulandshahr,"Yamunapuram, Bulandshahr - UPPCB",09-01-2026 08:00:00,28.406963,77.849831,NO2,7,109,54
India,Uttar_Pradesh,Firozabad,"Nagla Bhau, Firozabad - UPPCB",09-01-2026 08:00:00,27.168897,78.376960,PM10,36,161,73
India,Uttar_Pradesh,Firozabad,"Nagla Bhau, Firozabad - UPPCB",09-01-2026 08:00:00,27.168897,78.376960,CO,4,52,29
India,Uttar_Pradesh,Firozabad,"Vibhab Nagar, Firozabad - UPPCB",09-01-2026 08:00:00,27.1594,78.3953,PM2.5,31,284,92
India,Uttar_Pradesh,Firozabad,"Vibhab Nagar, Firozabad - UPPCB",09-01-2026 08:00:00,27.1594,78.3953,CO,10,20,15
India,Uttar_Pradesh,Ghaziabad,"Indirapuram, Ghaziabad - UPPCB",09-01-2026 08:00:00,28.646233,77.358075,PM10,145,494,286
India,Uttar_Pradesh,Ghaziabad,"Indirapuram, Ghaziabad - UPPCB",09-01-2026 08:00:00,28.646233,77.358075,CO,7,151,62
India,Telangana,Hyderabad,"Kokapet, Hyderabad - TSPCB",09-01-2026 08:00:00,17.393559,78.339194,NO2,NA,NA,NA
India,Telangana,Hyderabad,"Kokapet, Hyderabad - TSPCB",09-01-2026 08:00:00,17.393559,78.339194,NH3,NA,NA,NA
India,Telangana,Hyderabad,"Nacharam_TSIIC IALA, Hyderabad - TSPCB",09-01-2026 08:00:00,17.429398,78.569354,PM2.5,53,76,59
India,Telangana,Hyderabad,"Nacharam_TSIIC IALA, Hyderabad - TSPCB",09-01-2026 08:00:00,17.429398,78.569354,NH3,5,8,6
India,Telangana,Hyderabad,"Nacharam_TSIIC IALA, Hyderabad - TSPCB",09-01-2026 08:00:00,17.429398,78.569354,SO2,10,16,12
India,Telangana,Hyderabad,"Nacharam_TSIIC IALA, Hyderabad - TSPCB",09-01-2026 08:00:00,17.429398,78.569354,CO,18,30,29
India,Telangana,Hyderabad,"Nacharam_TSIIC IALA, Hyderabad - TSPCB",09-01-2026 08:00:00,17.429398,78.569354,OZONE,16,36,22
India,Telangana,Hyderabad,"New Malakpet, Hyderabad - TSPCB",09-01-2026 08:00:00,17.37206,78.50864,NO2,13,16,14
India,Telangana,Hyderabad,"New Malakpet, Hyderabad - TSPCB",09-01-2026 08:00:00,17.37206,78.50864,SO2,12,19,15
India,Uttar_Pradesh,Agra,"Sector-3B Avas Vikas Colony, Agra - UPPCB",09-01-2026 08:00:00,27.19412,77.96237,CO,10,64,34
India,Uttar_Pradesh,Agra,"Shahjahan Garden, Agra - UPPCB",09-01-2026 08:00:00,27.169338,78.03582,PM10,94,275,162
India,Uttar_Pradesh,Agra,"Shahjahan Garden, Agra - UPPCB",09-01-2026 08:00:00,27.169338,78.03582,NO2,5,6,5
India,Uttar_Pradesh,Agra,"Shahjahan Garden, Agra - UPPCB",09-01-2026 08:00:00,27.169338,78.03582,CO,2,40,9
India,Uttar_Pradesh,Agra,"Shastripuram, Agra - UPPCB",09-01-2026 08:00:00,27.19862,77.92066,PM2.5,18,328,146
India,Uttar_Pradesh,Baghpat,"Sardar Patel Inter College, Baghpat - UPPCB",09-01-2026 08:00:00,28.964949,77.278761,SO2,5,12,9
India,Uttar_Pradesh,Ghaziabad,"Loni, Ghaziabad - UPPCB",09-01-2026 08:00:00,28.757294,77.278792,CO,12,112,103
India,Uttar_Pradesh,Ghaziabad,"Sanjay Nagar, Ghaziabad - UPPCB",09-01-2026 08:00:00,28.685382,77.453839,OZONE,8,57,9
India,Uttar_Pradesh,Ghaziabad,"Vasundhara, Ghaziabad - UPPCB",09-01-2026 08:00:00,28.6603346,77.3572563,NH3,9,21,14
India,Uttar_Pradesh,Ghaziabad,"Vasundhara, Ghaziabad - UPPCB",09-01-2026 08:00:00,28.6603346,77.3572563,CO,38,142,51
India,Uttar_Pradesh,Gorakhpur,"Madan Mohan Malaviya University of Technology, Gorakhpur - UPPCB",09-01-2026 08:00:00,26.730136,83.433859,PM2.5,57,134,76
India,Uttar_Pradesh,Gorakhpur,"Madan Mohan Malaviya University of Technology, Gorakhpur - UPPCB",09-01-2026 08:00:00,26.730136,83.433859,CO,5,7,6
India,TamilNadu,Gummidipoondi,"Anthoni Pillai Nagar, Gummidipoondi - TNPCB",09-01-2026 08:00:00,13.4127,80.1081,NO2,1,7,3
India,TamilNadu,Karur,"Kamadenu Nagar, Karur - TNPCB",09-01-2026 08:00:00,10.967820,78.080882,PM2.5,40,178,69
India,TamilNadu,Karur,"Kamadenu Nagar, Karur - TNPCB",09-01-2026 08:00:00,10.967820,78.080882,NH3,3,3,3
India,TamilNadu,Madurai,"Uchapatti, Madurai - TNPCB",09-01-2026 08:00:00,9.865935,78.022669,PM10,41,106,69
India,TamilNadu,Madurai,"Uchapatti, Madurai - TNPCB",09-01-2026 08:00:00,9.865935,78.022669,NO2,7,8,7
India,Telangana,Hyderabad,"Ramachandrapuram, Hyderabad - TSPCB",09-01-2026 08:00:00,17.528544,78.286195,PM2.5,42,58,50
India,Telangana,Hyderabad,"Ramachandrapuram, Hyderabad - TSPCB",09-01-2026 08:00:00,17.528544,78.286195,CO,16,52,32
India,Telangana,Hyderabad,"Somajiguda, Hyderabad - TSPCB",09-01-2026 08:00:00,17.417094,78.457437,PM2.5,61,75,67
India,Telangana,Hyderabad,"Somajiguda, Hyderabad - TSPCB",09-01-2026 08:00:00,17.417094,78.457437,NO2,11,13,12
India,Telangana,Hyderabad,"Somajiguda, Hyderabad - TSPCB",09-01-2026 08:00:00,17.417094,78.457437,NH3,3,4,4
India,Telangana,Hyderabad,"Somajiguda, Hyderabad - TSPCB",09-01-2026 08:00:00,17.417094,78.457437,OZONE,11,42,41
India,Tripura,Agartala,"Bardowali, Agartala - Tripura SPCB",09-01-2026 08:00:00,23.8175497,91.2726974,SO2,8,9,9
India,Tripura,Agartala,"Bardowali, Agartala - Tripura SPCB",09-01-2026 08:00:00,23.8175497,91.2726974,CO,23,36,29
India,Uttar_Pradesh,Agra,"Manoharpur, Agra - UPPCB",09-01-2026 08:00:00,27.23711,78.01936,NO2,32,32,32
India,Uttar_Pradesh,Lucknow,"Lalbagh, Lucknow - CPCB",09-01-2026 08:00:00,26.8458805,80.9365541,CO,45,102,84
India,Uttar_Pradesh,Lucknow,"Talkatora District Industries Center, Lucknow - CPCB",09-01-2026 08:00:00,26.83399722,80.8917361,PM2.5,232,355,306
India,Uttar_Pradesh,Meerut,"Ganga Nagar, Meerut - UPPCB",09-01-2026 08:00:00,28.999264,77.7590354,NO2,38,81,54
India,Uttar_Pradesh,Meerut,"Jai Bhim Nagar, Meerut - UPPCB",09-01-2026 08:00:00,28.9535882,77.7622941,NH3,12,34,18
India,Uttar_Pradesh,Meerut,"Jai Bhim Nagar, Meerut - UPPCB",09-01-2026 08:00:00,28.9535882,77.7622941,OZONE,1,105,1
India,Uttar_Pradesh,Meerut,"Pallavpuram Phase 2, Meerut - UPPCB",09-01-2026 08:00:00,29.063510,77.709723,PM10,92,263,166
India,Uttar_Pradesh,Moradabad,"Kashiram Nagar, Moradabad - UPPCB",09-01-2026 08:00:00,28.849399,78.742362,NH3,4,4,4
India,Uttar_Pradesh,Muzaffarnagar,"New Mandi, Muzaffarnagar - UPPCB",09-01-2026 08:00:00,29.4723508,77.7194031,NH3,11,17,14
India,Uttar_Pradesh,Muzaffarnagar,"New Mandi, Muzaffarnagar - UPPCB",09-01-2026 08:00:00,29.4723508,77.7194031,OZONE,2,67,3
India,Uttar_Pradesh,Noida,"Sector - 125, Noida - UPPCB",09-01-2026 08:00:00,28.5447608,77.3231257,PM10,161,500,321
India,Uttar_Pradesh,Noida,"Sector - 125, Noida - UPPCB",09-01-2026 08:00:00,28.5447608,77.3231257,NO2,45,147,78
India,Uttar_Pradesh,Noida,"Sector - 125, Noida - UPPCB",09-01-2026 08:00:00,28.5447608,77.3231257,NH3,3,4,3
India,Uttar_Pradesh,Noida,"Sector - 62, Noida - IMD",09-01-2026 08:00:00,28.6245479,77.3577104,PM2.5,148,396,301
India,Uttarakhand,Rishikesh,"Shivaji Nagar, Rishikesh - UKPCB",09-01-2026 08:00:00,30.075911,78.2859547,NH3,5,11,7
India,West_Bengal,Asansol,"Asansol Court Area, Asansol - WBPCB",09-01-2026 08:00:00,23.685297,86.945968,PM2.5,69,243,154
India,West_Bengal,Asansol,"Asansol Court Area, Asansol - WBPCB",09-01-2026 08:00:00,23.685297,86.945968,NH3,2,9,5
India,West_Bengal,Asansol,"Asansol Court Area, Asansol - WBPCB",09-01-2026 08:00:00,23.685297,86.945968,OZONE,16,39,23
India,West_Bengal,Asansol,"Evelyn Lodge, Asansol - WBPCB",09-01-2026 08:00:00,23.6979360,86.9443950,PM2.5,24,186,114
India,West_Bengal,Asansol,"Evelyn Lodge, Asansol - WBPCB",09-01-2026 08:00:00,23.6979360,86.9443950,NO2,6,47,20
India,West_Bengal,Asansol,"Evelyn Lodge, Asansol - WBPCB",09-01-2026 08:00:00,23.6979360,86.9443950,OZONE,9,44,14
India,Uttar_Pradesh,Meerut,"Pallavpuram Phase 2, Meerut - UPPCB",09-01-2026 08:00:00,29.063510,77.709723,NH3,1,2,1
India,Uttar_Pradesh,Meerut,"Pallavpuram Phase 2, Meerut - UPPCB",09-01-2026 08:00:00,29.063510,77.709723,SO2,2,10,6
India,Uttar_Pradesh,Moradabad,"Buddhi Vihar, Moradabad - UPPCB",09-01-2026 08:00:00,28.83526,78.74460,PM2.5,46,310,117
India,Uttar_Pradesh,Moradabad,"Buddhi Vihar, Moradabad - UPPCB",09-01-2026 08:00:00,28.83526,78.74460,PM10,59,210,116
India,Uttar_Pradesh,Moradabad,"Employment Office, Moradabad - UPPCB",09-01-2026 08:00:00,28.88528,78.73880,OZONE,23,62,44
India,Uttar_Pradesh,Moradabad,"Jigar Colony, Moradabad - UPPCB",09-01-2026 08:00:00,28.856664,78.772638,NO2,25,25,25
India,Uttar_Pradesh,Noida,"Sector-1, Noida - UPPCB",09-01-2026 08:00:00,28.5898,77.3101,OZONE,1,114,2
India,Uttar_Pradesh,Noida,"Sector-116, Noida - UPPCB",09-01-2026 08:00:00,28.569230,77.393848,PM2.5,252,500,361
India,Uttar_Pradesh,Noida,"Sector-116, Noida - UPPCB",09-01-2026 08:00:00,28.569230,77.393848,NH3,21,35,27
India,Uttar_Pradesh,Prayagraj,"Jhunsi, Prayagraj - UPPCB",09-01-2026 08:00:00,25.425602,81.917152,PM2.5,38,284,132
India,Uttar_Pradesh,Prayagraj,"Jhunsi, Prayagraj - UPPCB",09-01-2026 08:00:00,25.425602,81.917152,CO,22,56,27
India,Uttar_Pradesh,Prayagraj,"Motilal Nehru NIT, Prayagraj - UPPCB",09-01-2026 08:00:00,25.494,81.863,NH3,8,8,8
India,Uttar_Pradesh,Varanasi,"Maldahiya, Varanasi - UPPCB",09-01-2026 08:00:00,25.32393,82.99687,PM2.5,73,238,128
India,Uttar_Pradesh,Varanasi,"Maldahiya, Varanasi - UPPCB",09-01-2026 08:00:00,25.32393,82.99687,NO2,2,2,2
India,Uttar_Pradesh,Vrindavan,"Omex Eternity, Vrindavan - UPPCB",09-01-2026 08:00:00,27.5714090,77.6557570,OZONE,15,15,15
India,Uttarakhand,Kashipur,"Govt. Girls Inter College, Kashipur - UKPCB",09-01-2026 08:00:00,29.2124114,78.9611753,NH3,NA,NA,NA
India,Uttar_Pradesh,Lucknow,"B R Ambedkar University, Lucknow - UPPCB",09-01-2026 08:00:00,26.766433,80.927299,NH3,4,4,4
India,Uttar_Pradesh,Lucknow,"Kendriya Vidyalaya, Lucknow - CPCB",09-01-2026 08:00:00,26.906111,80.948222,NH3,12,17,15
India,Uttar_Pradesh,Lucknow,"Kendriya Vidyalaya, Lucknow - CPCB",09-01-2026 08:00:00,26.906111,80.948222,CO,26,90,61
India,Uttar_Pradesh,Lucknow,"Lalbagh, Lucknow - CPCB",09-01-2026 08:00:00,26.8458805,80.9365541,SO2,2,22,6
India,Uttar_Pradesh,Greater Noida,"Knowledge Park - V, Greater Noida - UPPCB",09-01-2026 08:00:00,28.557054,77.453663,CO,26,123,36
India,Uttar_Pradesh,Greater Noida,"Knowledge Park - V, Greater Noida - UPPCB",09-01-2026 08:00:00,28.557054,77.453663,OZONE,3,66,4
India,Uttar_Pradesh,Jhansi,"Shivaji Nagar, Jhansi - UPPCB",09-01-2026 08:00:00,25.4547,78.6039,PM2.5,31,155,66
India,Uttar_Pradesh,Jhansi,"Shivaji Nagar, Jhansi - UPPCB",09-01-2026 08:00:00,25.4547,78.6039,NO2,6,6,6
India,Uttar_Pradesh,Prayagraj,"Motilal Nehru NIT, Prayagraj - UPPCB",09-01-2026 08:00:00,25.494,81.863,CO,30,52,34
India,Uttar_Pradesh,Varanasi,"Ardhali Bazar, Varanasi - UPPCB",09-01-2026 08:00:00,25.3505986,82.9083074,CO,12,32,14
India,Uttar_Pradesh,Varanasi,"Bhelupur, Varanasi - UPPCB",09-01-2026 08:00:00,25.301778,82.996789,PM2.5,58,173,97
India,West_Bengal,Asansol,"Trivenidevi Bhalotia College, Asansol - WBPCB",09-01-2026 08:00:00,23.616515,87.119133,CO,28,74,68
India,West_Bengal,Barrackpore,"SVSPA Campus, Barrackpore - WBPCB",09-01-2026 08:00:00,22.7605581,88.3617589,PM10,75,145,118
India,West_Bengal,Barrackpore,"SVSPA Campus, Barrackpore - WBPCB",09-01-2026 08:00:00,22.7605581,88.3617589,NH3,7,9,8
India,West_Bengal,Durgapur,"Womens College_City Center, Durgapur - WBPCB (Formerly known as Sidhu Kanhu Indoor Stadium)",09-01-2026 08:00:00,23.549395,87.300496,OZONE,2,55,4
India,West_Bengal,Haldia,"Priyambada Housing Estate, Haldia - WBPCB",09-01-2026 08:00:00,22.06047,88.109737,CO,29,70,56
India,West_Bengal,Howrah,"Belur Math, Howrah - WBPCB",09-01-2026 08:00:00,22.629801,88.352017,PM10,112,385,185
India,West_Bengal,Howrah,"Botanical Garden, Howrah - WBPCB",09-01-2026 08:00:00,22.554954,88.292568,PM2.5,62,288,166
India,West_Bengal,Howrah,"Botanical Garden, Howrah - WBPCB",09-01-2026 08:00:00,22.554954,88.292568,SO2,2,28,9
India,West_Bengal,Howrah,"Botanical Garden, Howrah - WBPCB",09-01-2026 08:00:00,22.554954,88.292568,OZONE,6,33,6
India,West_Bengal,Howrah,"Padmapukur, Howrah - WBPCB",09-01-2026 08:00:00,22.5687319,88.2797276,NO2,15,52,30
India,West_Bengal,Kolkata,"Ballygunge, Kolkata - WBPCB",09-01-2026 08:00:00,22.5367507,88.3638022,SO2,10,27,17
India,West_Bengal,Kolkata,"Bidhannagar, Kolkata - WBPCB",09-01-2026 08:00:00,22.58157048,88.41002457,NH3,5,7,6
India,West_Bengal,Kolkata,"Bidhannagar, Kolkata - WBPCB",09-01-2026 08:00:00,22.58157048,88.41002457,SO2,7,13,9
India,West_Bengal,Kolkata,"Bidhannagar, Kolkata - WBPCB",09-01-2026 08:00:00,22.58157048,88.41002457,CO,6,40,25
India,West_Bengal,Kolkata,"Jadavpur, Kolkata - WBPCB",09-01-2026 08:00:00,22.49929,88.36917,PM2.5,91,335,250
India,West_Bengal,Kolkata,"Rabindra Sarobar, Kolkata - WBPCB",09-01-2026 08:00:00,22.51106,88.35142,NO2,14,74,34
India,West_Bengal,Kolkata,"Victoria, Kolkata - WBPCB",09-01-2026 08:00:00,22.5448082,88.3403691,OZONE,5,56,8
India,West_Bengal,Siliguri,"Ward-32 Bapupara, Siliguri - WBPCB",09-01-2026 08:00:00,26.6879226,88.4152495,PM2.5,65,295,155
India,Bihar,Bettiah,"Kamalnath Nagar, Bettiah - BSPCB",09-01-2026 08:00:00,26.80365,84.51954,SO2,6,23,12
India,Bihar,Bettiah,"Kamalnath Nagar, Bettiah - BSPCB",09-01-2026 08:00:00,26.80365,84.51954,OZONE,22,24,23
India,Bihar,Bhagalpur,"DM Office_Kachari Chowk, Bhagalpur - BSPCB",09-01-2026 08:00:00,25.251013,86.989001,SO2,33,74,54
India,Bihar,Bhagalpur,"Mayaganj, Bhagalpur - BSPCB",09-01-2026 08:00:00,25.265194,87.012947,CO,1,86,78
India,Bihar,Bihar Sharif,"D M Colony, Bihar Sharif - BSPCB",09-01-2026 08:00:00,25.204762,85.514960,PM2.5,NA,NA,NA
India,Bihar,Bihar Sharif,"D M Colony, Bihar Sharif - BSPCB",09-01-2026 08:00:00,25.204762,85.514960,OZONE,1,11,1
India,Bihar,Buxar,"Charitra Van, Buxar - BSPCB",09-01-2026 08:00:00,25.567520,83.966379,NO2,8,10,10
India,Bihar,Gaya,"SFTI Kusdihra, Gaya - BSPCB",09-01-2026 08:00:00,24.762518,84.982348,OZONE,NA,NA,NA
India,Bihar,Hajipur,"Industrial Area, Hajipur - BSPCB",09-01-2026 08:00:00,25.697189,85.245900,CO,46,101,72
India,Bihar,Katihar,"Mirchaibari, Katihar - BSPCB",09-01-2026 08:00:00,25.560083,87.553265,PM10,52,157,97
India,Bihar,Kishanganj,"SDM Office_Khagra, Kishanganj - BSPCB",09-01-2026 08:00:00,26.0881305,87.93840336,NO2,8,11,9
India,Bihar,Kishanganj,"SDM Office_Khagra, Kishanganj - BSPCB",09-01-2026 08:00:00,26.0881305,87.93840336,SO2,6,8,7
India,Bihar,Manguraha,"Forest Rest House, Manguraha - BSPCB",09-01-2026 08:00:00,27.308328,84.531742,PM2.5,52,302,124
India,Bihar,Araria,"Kharahiya Basti, Araria - BSPCB",09-01-2026 08:00:00,26.146529,87.454184,OZONE,9,10,10
India,Bihar,Arrah,"New DM Office, Arrah - BSPCB",09-01-2026 08:00:00,25.5626095,84.663264,PM10,86,160,115
India,Bihar,Begusarai,"Lohiyanagar, Begusarai - BSPCB",09-01-2026 08:00:00,25.42742023,86.13886079,NO2,9,30,13
India,Bihar,Begusarai,"Lohiyanagar, Begusarai - BSPCB",09-01-2026 08:00:00,25.42742023,86.13886079,CO,30,74,54
India,Bihar,Bettiah,"Kamalnath Nagar, Bettiah - BSPCB",09-01-2026 08:00:00,26.80365,84.51954,PM2.5,80,327,164
India,Bihar,Bettiah,"Kamalnath Nagar, Bettiah - BSPCB",09-01-2026 08:00:00,26.80365,84.51954,PM10,81,212,123
India,Bihar,Buxar,"Charitra Van, Buxar - BSPCB",09-01-2026 08:00:00,25.567520,83.966379,SO2,10,26,17
India,Bihar,Buxar,"Charitra Van, Buxar - BSPCB",09-01-2026 08:00:00,25.567520,83.966379,CO,20,30,24
India,Bihar,Chhapra,"Darshan Nagar, Chhapra - BSPCB",09-01-2026 08:00:00,25.7808257,84.7446768,PM10,68,191,124
India,Bihar,Gaya,"Collectorate, Gaya - BSPCB",09-01-2026 08:00:00,24.7955,84.9994,NO2,8,9,9
India,Bihar,Gaya,"SFTI Kusdihra, Gaya - BSPCB",09-01-2026 08:00:00,24.762518,84.982348,PM2.5,73,95,86
India,Bihar,Gaya,"SFTI Kusdihra, Gaya - BSPCB",09-01-2026 08:00:00,24.762518,84.982348,NO2,20,23,22
India,Andhra_Pradesh,Rajamahendravaram,"Anand Kala Kshetram, Rajamahendravaram - APPCB",09-01-2026 08:00:00,16.9872867,81.7363176,SO2,13,36,19
India,Andhra_Pradesh,Tirumala,"Toll Gate, Tirumala - APPCB",09-01-2026 08:00:00,13.67,79.35,PM2.5,58,162,82
India,Andhra_Pradesh,Tirumala,"Toll Gate, Tirumala - APPCB",09-01-2026 08:00:00,13.67,79.35,OZONE,43,75,65
India,Andhra_Pradesh,Tirupati,"Vaikuntapuram, Tirupati - APPCB",09-01-2026 08:00:00,13.615387,79.409230,OZONE,14,26,14
India,Andhra_Pradesh,Vijayawada,"HB Colony, Vijayawada - APPCB",09-01-2026 08:00:00,16.536107,80.594233,PM2.5,76,143,109
India,Assam,Guwahati,"LGBI Airport, Guwahati - PCBA",09-01-2026 08:00:00,26.10887,91.589544,OZONE,10,14,13
India,Assam,Guwahati,"Pan Bazaar, Guwahati - PCBA",09-01-2026 08:00:00,26.187500,91.744194,OZONE,15,35,17
India,Assam,Guwahati,"Railway Colony, Guwahati - PCBA",09-01-2026 08:00:00,26.181742,91.78063,NO2,3,4,3
India,Assam,Nagaon,"Christianpatty, Nagaon - PCBA",09-01-2026 08:00:00,26.349082,92.68449,PM2.5,82,181,123
India,Assam,Nagaon,"Christianpatty, Nagaon - PCBA",09-01-2026 08:00:00,26.349082,92.68449,PM10,86,128,108
India,Andhra_Pradesh,Vijayawada,"Kanuru, Vijayawada - APPCB",09-01-2026 08:00:00,16.486692,80.699436,PM2.5,56,317,101
India,Andhra_Pradesh,Vijayawada,"Rajiv Gandhi Park, Vijayawada - APPCB",09-01-2026 08:00:00,16.509717,80.612222,PM2.5,78,190,108
India,Andhra_Pradesh,Vijayawada,"Rajiv Gandhi Park, Vijayawada - APPCB",09-01-2026 08:00:00,16.509717,80.612222,NH3,3,5,4
India,Andhra_Pradesh,Vijayawada,"Rajiv Nagar, Vijayawada - APPCB",09-01-2026 08:00:00,16.554731,80.649110,PM2.5,82,139,102
India,Assam,Nalbari,"Bata Chowk, Nalbari - PCBA",09-01-2026 08:00:00,26.446912,91.439057,CO,20,22,21
India,Assam,Silchar,"Tarapur, Silchar - PCBA",09-01-2026 08:00:00,24.82827,92.79525,SO2,4,6,5
India,Assam,Sivasagar,"Girls College, Sivasagar - PCBA",09-01-2026 08:00:00,26.987634,94.636574,OZONE,4,93,5
India,Andhra_Pradesh,Chittoor,"Gangineni Cheruvu, Chittoor - APPCB",09-01-2026 08:00:00,13.204880,79.097889,SO2,6,34,15
India,Andhra_Pradesh,Kadapa,"Yerramukkapalli, Kadapa - APPCB",09-01-2026 08:00:00,14.465052,78.824187,PM2.5,89,312,159
India,Andhra_Pradesh,Kadapa,"Yerramukkapalli, Kadapa - APPCB",09-01-2026 08:00:00,14.465052,78.824187,PM10,87,172,114
India,Arunachal_Pradesh,Naharlagun,"Naharlagun, Naharlagun - APSPCB",09-01-2026 08:00:00,27.103358,93.679645,NO2,6,7,7
India,Assam,Byrnihat,"Central Academy for SFS, Byrnihat - PCBA",09-01-2026 08:00:00,26.071318,91.87488,NH3,4,4,4
India,Bihar,Patna,"Muradpur, Patna - BSPCB",09-01-2026 08:00:00,25.619651,85.147382,CO,34,93,56
India,Bihar,Patna,"Rajbansi Nagar, Patna - BSPCB",09-01-2026 08:00:00,25.599486,85.113666,NO2,7,161,55
India,Bihar,Patna,"Rajbansi Nagar, Patna - BSPCB",09-01-2026 08:00:00,25.599486,85.113666,CO,36,111,45
India,Bihar,Patna,"Samanpura, Patna - BSPCB",09-01-2026 08:00:00,25.596727,85.085624,PM2.5,79,280,145
India,Bihar,Patna,"Samanpura, Patna - BSPCB",09-01-2026 08:00:00,25.596727,85.085624,CO,8,113,22
India,Bihar,Purnia,"Mariam Nagar, Purnia - BSPCB",09-01-2026 08:00:00,25.366336,87.117468,PM2.5,85,207,124
India,Bihar,Purnia,"Mariam Nagar, Purnia - BSPCB",09-01-2026 08:00:00,25.366336,87.117468,PM10,68,113,86
India,Bihar,Purnia,"Mariam Nagar, Purnia - BSPCB",09-01-2026 08:00:00,25.366336,87.117468,NO2,5,7,6
India,Bihar,Purnia,"Mariam Nagar, Purnia - BSPCB",09-01-2026 08:00:00,25.366336,87.117468,NH3,3,3,3
India,Bihar,Purnia,"Mariam Nagar, Purnia - BSPCB",09-01-2026 08:00:00,25.366336,87.117468,CO,48,54,51
India,Bihar,Siwan,"Chitragupta Nagar, Siwan - BSPCB",09-01-2026 08:00:00,26.2271665,84.3570427,NH3,1,2,1
India,Bihar,Siwan,"Chitragupta Nagar, Siwan - BSPCB",09-01-2026 08:00:00,26.2271665,84.3570427,OZONE,14,15,14
India,Chandigarh,Chandigarh,"Sector 22, Chandigarh - CPCC",09-01-2026 08:00:00,30.735567,76.775714,PM2.5,92,220,137
India,Chandigarh,Chandigarh,"Sector 22, Chandigarh - CPCC",09-01-2026 08:00:00,30.735567,76.775714,OZONE,6,74,16
India,Chandigarh,Chandigarh,"Sector-25, Chandigarh - CPCC",09-01-2026 08:00:00,30.751462,76.762879,SO2,7,9,8
India,Chandigarh,Chandigarh,"Sector-25, Chandigarh - CPCC",09-01-2026 08:00:00,30.751462,76.762879,CO,18,30,22
India,Chhattisgarh,Korba,"Urja Nagar, Korba - CECB",09-01-2026 08:00:00,22.348441,82.549611,NO2,15,21,18
India,Chhattisgarh,Korba,"Urja Nagar, Korba - CECB",09-01-2026 08:00:00,22.348441,82.549611,OZONE,28,35,29
India,Chhattisgarh,Milupara,"Govt. Higher Secondary School, Milupara - CECB",09-01-2026 08:00:00,22.1910172,83.5197009,CO,11,44,28
India,Chhattisgarh,Raipur,"AIIMS, Raipur - CECB",09-01-2026 08:00:00,21.258815,81.578979,NO2,38,54,46
India,Chhattisgarh,Raipur,"AIIMS, Raipur - CECB",09-01-2026 08:00:00,21.258815,81.578979,NH3,4,4,4
India,Chhattisgarh,Raipur,"AIIMS, Raipur - CECB",09-01-2026 08:00:00,21.258815,81.578979,OZONE,1,21,1
India,Bihar,Motihari,"Gandak Colony, Motihari - BSPCB",09-01-2026 08:00:00,26.63086,84.90051,CO,15,28,17
India,Bihar,Muzaffarpur,"Buddha Colony, Muzaffarpur - BSPCB",09-01-2026 08:00:00,26.11442,85.39813,PM2.5,79,303,176
India,Bihar,Muzaffarpur,"MIT-Daudpur Kothi, Muzaffarpur - BSPCB",09-01-2026 08:00:00,26.1403345,85.3650192,NO2,2,4,3
India,Bihar,Muzaffarpur,"Muzaffarpur Collectorate, Muzaffarpur - BSPCB",09-01-2026 08:00:00,26.1209,85.3647,NO2,9,19,14
India,Chhattisgarh,Bhilai,"Hathkhoj, Bhilai - CECB",09-01-2026 08:00:00,21.224231,81.408350,PM10,10,87,51
India,Chhattisgarh,Bhilai,"Hathkhoj, Bhilai - CECB",09-01-2026 08:00:00,21.224231,81.408350,OZONE,3,10,4
India,Chhattisgarh,Bilaspur,"Mangala, Bilaspur - NTPC",09-01-2026 08:00:00,22.08815,82.13737,SO2,2,22,13
India,Chhattisgarh,Korba,"Rampur, Korba - CECB",09-01-2026 08:00:00,22.368195,82.746431,PM10,20,90,52
India,Chhattisgarh,Raipur,"Krishak Nagar, Raipur - CECB",09-01-2026 08:00:00,21.237755,81.705301,CO,20,44,40
India,Chhattisgarh,Raipur,"Siltara Phase-II, Raipur - CECB",09-01-2026 08:00:00,21.371751,81.664929,PM10,63,140,107
India,Chhattisgarh,Tumidih,"OP Jindal Industrial Park, Tumidih - CECB",09-01-2026 08:00:00,22.06631475,83.33820077,NO2,27,96,65
India,Bihar,Rajgir,"Dangi Tola, Rajgir - BSPCB",09-01-2026 08:00:00,25.03280,85.41948,SO2,17,26,21
India,Bihar,Saharsa,"Police Line, Saharsa - BSPCB",09-01-2026 08:00:00,25.892357,86.590325,SO2,15,18,16
India,Bihar,Sasaram,"Dada Peer, Sasaram - BSPCB",09-01-2026 08:00:00,24.952822,84.002396,OZONE,1,25,18
India,Delhi,Delhi,"Alipur, Delhi - DPCC",09-01-2026 08:00:00,28.815329,77.153010,NO2,31,55,43
India,Delhi,Delhi,"Alipur, Delhi - DPCC",09-01-2026 08:00:00,28.815329,77.153010,NH3,18,22,20
India,Delhi,Delhi,"Ashok Vihar, Delhi - DPCC",09-01-2026 08:00:00,28.695381,77.181665,PM2.5,230,432,329
India,Bihar,Patna,"DRM Office Danapur, Patna - BSPCB",09-01-2026 08:00:00,25.586562,85.043586,PM2.5,94,301,178
India,Delhi,Delhi,"Jahangirpuri, Delhi - DPCC",09-01-2026 08:00:00,28.732820,77.170633,CO,49,109,58
India,Delhi,Delhi,"Jawaharlal Nehru Stadium, Delhi - DPCC",09-01-2026 08:00:00,28.580280,77.233829,OZONE,1,114,2
India,Delhi,Delhi,"Lodhi Road, Delhi - IMD",09-01-2026 08:00:00,28.5918245,77.2273074,CO,30,80,53
India,Delhi,Delhi,"Lodhi Road, Delhi - IMD",09-01-2026 08:00:00,28.5918245,77.2273074,OZONE,14,95,16
India,Delhi,Delhi,"Major Dhyan Chand National Stadium, Delhi - DPCC",09-01-2026 08:00:00,28.611281,77.237738,PM2.5,180,444,329
India,Delhi,Delhi,"Major Dhyan Chand National Stadium, Delhi - DPCC",09-01-2026 08:00:00,28.611281,77.237738,OZONE,4,58,5
India,Delhi,Delhi,"Mandir Marg, Delhi - DPCC",09-01-2026 08:00:00,28.636429,77.201067,PM2.5,95,382,274
India,Delhi,Delhi,"Mandir Marg, Delhi - DPCC",09-01-2026 08:00:00,28.636429,77.201067,NO2,122,217,165
India,Delhi,Delhi,"Mandir Marg, Delhi - DPCC",09-01-2026 08:00:00,28.636429,77.201067,CO,76,123,88
India,Delhi,Delhi,"Mundka, Delhi - DPCC",09-01-2026 08:00:00,28.684678,77.076574,PM2.5,277,383,327
India,Delhi,Delhi,"Punjabi Bagh, Delhi - DPCC",09-01-2026 08:00:00,28.674045,77.131023,PM10,141,349,227
India,Delhi,Delhi,"Punjabi Bagh, Delhi - DPCC",09-01-2026 08:00:00,28.674045,77.131023,NO2,39,79,55
India,Delhi,Delhi,"Punjabi Bagh, Delhi - DPCC",09-01-2026 08:00:00,28.674045,77.131023,NH3,6,7,7
India,Delhi,Delhi,"Punjabi Bagh, Delhi - DPCC",09-01-2026 08:00:00,28.674045,77.131023,SO2,8,16,12
India,Delhi,Delhi,"Pusa, Delhi - DPCC",09-01-2026 08:00:00,28.639652,77.146275,NO2,48,149,84
India,Delhi,Delhi,"Pusa, Delhi - DPCC",09-01-2026 08:00:00,28.639652,77.146275,NH3,14,25,19
India,Delhi,Delhi,"Pusa, Delhi - DPCC",09-01-2026 08:00:00,28.639652,77.146275,SO2,2,7,5
India,Delhi,Delhi,"R K Puram, Delhi - DPCC",09-01-2026 08:00:00,28.563262,77.186937,SO2,9,48,22
India,Delhi,Delhi,"R K Puram, Delhi - DPCC",09-01-2026 08:00:00,28.563262,77.186937,OZONE,1,133,13
India,Delhi,Delhi,"Rohini, Delhi - DPCC",09-01-2026 08:00:00,28.732528,77.119920,PM2.5,250,433,338
India,Gujarat,Ahmedabad,"Gyaspur, Ahmedabad - IITM",09-01-2026 08:00:00,22.977134,72.553024,SO2,NA,NA,NA
India,Gujarat,Ahmedabad,"Maninagar, Ahmedabad - GPCB",09-01-2026 08:00:00,23.002657,72.591912,SO2,6,49,32
India,Gujarat,Ahmedabad,"Raikhad, Ahmedabad - IITM",09-01-2026 08:00:00,23.020509,72.579261,PM2.5,116,187,146
India,Gujarat,Ahmedabad,"Raikhad, Ahmedabad - IITM",09-01-2026 08:00:00,23.020509,72.579261,NO2,17,78,29
India,Gujarat,Ahmedabad,"Rakhial, Ahmedabad - IITM",09-01-2026 08:00:00,23.016834,72.625775,PM2.5,94,309,169
India,Gujarat,Ahmedabad,"Rakhial, Ahmedabad - IITM",09-01-2026 08:00:00,23.016834,72.625775,PM10,94,193,138
India,Gujarat,Ahmedabad,"Rakhial, Ahmedabad - IITM",09-01-2026 08:00:00,23.016834,72.625775,SO2,24,69,37
India,Gujarat,Ahmedabad,"SAC ISRO Bopal, Ahmedabad - IITM",09-01-2026 08:00:00,23.041137,72.456691,NH3,11,13,12
India,Delhi,Delhi,"Mundka, Delhi - DPCC",09-01-2026 08:00:00,28.684678,77.076574,CO,46,97,73
India,Delhi,Delhi,"NSIT Dwarka, Delhi - CPCB",09-01-2026 08:00:00,28.60909,77.0325413,PM2.5,91,417,266
India,Delhi,Delhi,"NSIT Dwarka, Delhi - CPCB",09-01-2026 08:00:00,28.60909,77.0325413,SO2,16,24,19
India,Delhi,Delhi,"Najafgarh, Delhi - DPCC",09-01-2026 08:00:00,28.570173,76.933762,PM10,105,201,150
India,Delhi,Delhi,"Najafgarh, Delhi - DPCC",09-01-2026 08:00:00,28.570173,76.933762,NH3,12,17,15
India,Delhi,Delhi,"Narela, Delhi - DPCC",09-01-2026 08:00:00,28.822836,77.101981,NH3,7,11,9
India,Delhi,Delhi,"Sri Aurobindo Marg, Delhi - DPCC",09-01-2026 08:00:00,28.531346,77.190156,NO2,21,102,45
India,Delhi,Delhi,"Sri Aurobindo Marg, Delhi - DPCC",09-01-2026 08:00:00,28.531346,77.190156,NH3,7,20,12
India,Gujarat,Ahmedabad,"Chandkheda, Ahmedabad - IITM",09-01-2026 08:00:00,23.107969,72.574648,PM10,104,172,128
India,Gujarat,Ahmedabad,"Gyaspur, Ahmedabad - IITM",09-01-2026 08:00:00,22.977134,72.553024,PM2.5,76,183,121
India,Delhi,Delhi,"Nehru Nagar, Delhi - DPCC",09-01-2026 08:00:00,28.567890,77.250515,PM10,159,500,313
India,Delhi,Delhi,"Nehru Nagar, Delhi - DPCC",09-01-2026 08:00:00,28.567890,77.250515,NO2,39,125,62
India,Delhi,Delhi,"North Campus, DU, Delhi - IMD",09-01-2026 08:00:00,28.6573814,77.1585447,NO2,56,146,80
India,Delhi,Delhi,"Patparganj, Delhi - DPCC",09-01-2026 08:00:00,28.623763,77.287209,PM10,111,406,239
India,Delhi,Delhi,"IHBAS, Dilshad Garden, Delhi - CPCB",09-01-2026 08:00:00,28.6811736,77.3025234,OZONE,12,33,12
India,Delhi,Delhi,"IIT Delhi, Delhi - IITM",09-01-2026 08:00:00,28.542460,77.191651,PM2.5,149,385,315
India,Delhi,Delhi,"Jahangirpuri, Delhi - DPCC",09-01-2026 08:00:00,28.732820,77.170633,NO2,61,101,80
India,Delhi,Delhi,"Dr. Karni Singh Shooting Range, Delhi - DPCC",09-01-2026 08:00:00,28.498571,77.264840,CO,14,118,80
India,Delhi,Delhi,"Dwarka-Sector 8, Delhi - DPCC ",09-01-2026 08:00:00,28.5710274,77.0719006,NH3,14,31,24
India,Delhi,Delhi,"Dwarka-Sector 8, Delhi - DPCC ",09-01-2026 08:00:00,28.5710274,77.0719006,CO,42,120,65
India,Delhi,Delhi,"Rohini, Delhi - DPCC",09-01-2026 08:00:00,28.732528,77.119920,NH3,10,16,13
India,Delhi,Delhi,"Rohini, Delhi - DPCC",09-01-2026 08:00:00,28.732528,77.119920,OZONE,3,103,4
India,Delhi,Delhi,"Shadipur, Delhi - CPCB",09-01-2026 08:00:00,28.6514781,77.1473105,NH3,14,18,16
India,Haryana,Mandikhera,"General Hospital, Mandikhera(Nuh) - HSPCB",09-01-2026 08:00:00,27.9002,76.9938,SO2,32,36,34
India,Haryana,Mandikhera,"General Hospital, Mandikhera(Nuh) - HSPCB",09-01-2026 08:00:00,27.9002,76.9938,CO,23,84,73
India,Haryana,Mandikhera,"General Hospital, Mandikhera(Nuh) - HSPCB",09-01-2026 08:00:00,27.9002,76.9938,OZONE,24,30,27
India,Haryana,Manesar,"Sector-2 IMT, Manesar - HSPCB",09-01-2026 08:00:00,28.360699,76.936090,CO,22,82,58
India,Haryana,Narnaul,"Shastri Nagar, Narnaul - HSPCB",09-01-2026 08:00:00,28.060249,76.113115,SO2,7,9,8
India,Haryana,Narnaul,"Shastri Nagar, Narnaul - HSPCB",09-01-2026 08:00:00,28.060249,76.113115,CO,16,35,26
India,Haryana,Palwal,"Shyam Nagar, Palwal - HSPCB",09-01-2026 08:00:00,28.1485564,77.3320667,NH3,9,9,9
India,Haryana,Panchgaon,"Amity University, Panchgaon - IITM",09-01-2026 08:00:00,28.3153,76.9143,PM2.5,6,428,134
India,Haryana,Gurugram,"Teri Gram, Gurugram - HSPCB",09-01-2026 08:00:00,28.4275,77.1465,CO,38,88,79
India,Haryana,Gurugram,"Vikas Sadan, Gurugram - HSPCB",09-01-2026 08:00:00,28.4501238,77.0263051,SO2,2,8,5
India,Haryana,Gurugram,"Vikas Sadan, Gurugram - HSPCB",09-01-2026 08:00:00,28.4501238,77.0263051,OZONE,3,24,8
India,Haryana,Hisar,"Urban Estate-II, Hisar - HSPCB",09-01-2026 08:00:00,29.140560,75.744941,PM10,60,316,131
India,Haryana,Hisar,"Urban Estate-II, Hisar - HSPCB",09-01-2026 08:00:00,29.140560,75.744941,NO2,26,27,27
India,Haryana,Hisar,"Urban Estate-II, Hisar - HSPCB",09-01-2026 08:00:00,29.140560,75.744941,NH3,10,11,11
India,Haryana,Jind,"Police Lines, Jind - HSPCB",09-01-2026 08:00:00,29.307814,76.337619,PM2.5,59,133,92
India,Haryana,Faridabad,"Sector 11, Faridabad - HSPCB",09-01-2026 08:00:00,28.376058,77.315741,PM10,NA,NA,NA
India,Haryana,Faridabad,"Sector 11, Faridabad - HSPCB",09-01-2026 08:00:00,28.376058,77.315741,OZONE,14,16,15
India,Haryana,Faridabad,"Sector 30, Faridabad - HSPCB",09-01-2026 08:00:00,28.4417,77.3217,CO,56,66,62
India,Haryana,Faridabad,"Sector 30, Faridabad - HSPCB",09-01-2026 08:00:00,28.4417,77.3217,OZONE,17,19,18
India,Haryana,Fatehabad,"Huda Sector, Fatehabad - HSPCB",09-01-2026 08:00:00,29.503664,75.467934,OZONE,44,58,54
India,Haryana,Gurugram,"NISE Gwal Pahari, Gurugram - IMD",09-01-2026 08:00:00,28.422681,77.148944,PM10,152,420,321
India,Haryana,Gurugram,"NISE Gwal Pahari, Gurugram - IMD",09-01-2026 08:00:00,28.422681,77.148944,OZONE,6,61,8
India,Gujarat,Ahmedabad,"SAC ISRO Bopal, Ahmedabad - IITM",09-01-2026 08:00:00,23.041137,72.456691,OZONE,1,49,4
India,Gujarat,Ahmedabad,"SAC ISRO Satellite, Ahmedabad - IITM",09-01-2026 08:00:00,23.023389,72.515201,SO2,3,45,11
India,Gujarat,Ahmedabad,"SAC ISRO Satellite, Ahmedabad - IITM",09-01-2026 08:00:00,23.023389,72.515201,CO,NA,NA,NA
India,Gujarat,Ahmedabad,"SVPI Airport Hansol, Ahmedabad - IITM",09-01-2026 08:00:00,23.076793,72.627874,NO2,21,102,40
India,Gujarat,Ankleshwar,"GIDC, Ankleshwar - GPCB",09-01-2026 08:00:00,21.613267,73.010555,PM10,NA,NA,NA
India,Gujarat,Gandhinagar,"GIFT City, Gandhinagar - IITM",09-01-2026 08:00:00,23.163798,72.677768,NH3,6,16,8
India,Haryana,Kaithal,"Rishi Nagar, Kaithal - HSPCB",09-01-2026 08:00:00,29.8006,76.4155,PM2.5,85,182,131
India,Haryana,Kaithal,"Rishi Nagar, Kaithal - HSPCB",09-01-2026 08:00:00,29.8006,76.4155,SO2,29,33,31
India,Haryana,Kaithal,"Rishi Nagar, Kaithal - HSPCB",09-01-2026 08:00:00,29.8006,76.4155,CO,4,47,20
India,Haryana,Kurukshetra,"Sector-7, Kurukshetra - HSPCB",09-01-2026 08:00:00,29.966942,76.875879,PM2.5,15,225,145
India,Haryana,Kurukshetra,"Sector-7, Kurukshetra - HSPCB",09-01-2026 08:00:00,29.966942,76.875879,PM10,18,172,138
India,Haryana,Kurukshetra,"Sector-7, Kurukshetra - HSPCB",09-01-2026 08:00:00,29.966942,76.875879,SO2,2,22,9
India,Gujarat,Gandhinagar,"IIPHG Lekawada, Gandhinagar - IITM",09-01-2026 08:00:00,23.243639,72.68994,NO2,7,9,8
India,Gujarat,Gandhinagar,"IIPHG Lekawada, Gandhinagar - IITM",09-01-2026 08:00:00,23.243639,72.68994,CO,10,58,29
India,Gujarat,Gandhinagar,"IIPHG Lekawada, Gandhinagar - IITM",09-01-2026 08:00:00,23.243639,72.68994,OZONE,2,42,4
India,Gujarat,Surat,"Science Center, Surat - SMC",09-01-2026 08:00:00,21.170046,72.795405,PM10,63,145,97
India,Haryana,Ambala,"Patti Mehar, Ambala - HSPCB",09-01-2026 08:00:00,30.379589,76.778328,OZONE,12,39,12
India,Haryana,Bahadurgarh,"Arya Nagar, Bahadurgarh - HSPCB",09-01-2026 08:00:00,28.6701,76.9254,CO,43,52,48
India,Haryana,Ballabgarh,"Nathu Colony, Ballabgarh - HSPCB",09-01-2026 08:00:00,28.3419248,77.319699,NH3,3,3,3
India,Haryana,Charkhi Dadri,"Mini Secretariat, Charkhi Dadri - HSPCB",09-01-2026 08:00:00,28.593883,76.270653,SO2,10,11,10
India,Haryana,Charkhi Dadri,"Mini Secretariat, Charkhi Dadri - HSPCB",09-01-2026 08:00:00,28.593883,76.270653,CO,9,25,16
India,Haryana,Faridabad,"New Industrial Town, Faridabad - HSPCB",09-01-2026 08:00:00,28.39072,77.30059,PM10,169,177,173
India,Haryana,Panchgaon,"Amity University, Panchgaon - IITM",09-01-2026 08:00:00,28.3153,76.9143,NH3,5,28,14
India,Haryana,Panchgaon,"Amity University, Panchgaon - IITM",09-01-2026 08:00:00,28.3153,76.9143,SO2,2,17,10
India,Haryana,Panchkula,"Sector-6, Panchkula - HSPCB ",09-01-2026 08:00:00,30.7057778,76.8531805555555,PM2.5,53,232,155
India,Haryana,Panipat,"Sector-18, Panipat - HSPCB",09-01-2026 08:00:00,29.432304,76.972765,OZONE,30,30,30
India,Haryana,Rohtak,"MD University, Rohtak - HSPCB",09-01-2026 08:00:00,28.52123,76.37138,PM10,15,465,85
India,Haryana,Rohtak,"MD University, Rohtak - HSPCB",09-01-2026 08:00:00,28.52123,76.37138,NO2,10,13,11
India,Haryana,Rohtak,"MD University, Rohtak - HSPCB",09-01-2026 08:00:00,28.52123,76.37138,SO2,10,14,12
India,Haryana,Sirsa,"F-Block, Sirsa - HSPCB",09-01-2026 08:00:00,29.536400,75.015800,PM2.5,61,183,101
India,Haryana,Sirsa,"F-Block, Sirsa - HSPCB",09-01-2026 08:00:00,29.536400,75.015800,NO2,15,25,19
India,Karnataka,Chikkaballapur,"Chikkaballapur Rural, Chikkaballapur - KSPCB",09-01-2026 08:00:00,13.428828,77.731418,PM10,90,158,114
India,Karnataka,Chikkaballapur,"Chikkaballapur Rural, Chikkaballapur - KSPCB",09-01-2026 08:00:00,13.428828,77.731418,NH3,NA,NA,NA
India,Karnataka,Chikkaballapur,"Chikkaballapur Rural, Chikkaballapur - KSPCB",09-01-2026 08:00:00,13.428828,77.731418,CO,2,23,12
India,Karnataka,Chikkamagaluru,"Kalyana Nagara, Chikkamagaluru - KSPCB",09-01-2026 08:00:00,13.328028,75.797056,SO2,1,14,3
India,Karnataka,Davanagere,"Devaraj Urs Badavane, Davanagere - KSPCB",09-01-2026 08:00:00,14.475800,75.905200,NO2,15,34,27
India,Karnataka,Davanagere,"Devaraj Urs Badavane, Davanagere - KSPCB",09-01-2026 08:00:00,14.475800,75.905200,SO2,1,4,3
India,Karnataka,Dharwad,"Kalabhavan, Dharwad - KSPCB",09-01-2026 08:00:00,15.459706,75.008381,NH3,5,5,5
India,Karnataka,Dharwad,"Kalabhavan, Dharwad - KSPCB",09-01-2026 08:00:00,15.459706,75.008381,OZONE,18,50,34
India,Karnataka,Belgaum,"Ramteerth Nagar, Belgaum - KSPCB",09-01-2026 08:00:00,15.888653,74.541751,NH3,9,10,10
India,Karnataka,Bengaluru,"BTM Layout, Bengaluru - CPCB",09-01-2026 08:00:00,12.9135218,77.5950804,NO2,14,23,20
India,Karnataka,Bengaluru,"BTM Layout, Bengaluru - CPCB",09-01-2026 08:00:00,12.9135218,77.5950804,SO2,16,20,19
India,Karnataka,Bengaluru,"BWSSB Kadabesanahalli, Bengaluru - CPCB",09-01-2026 08:00:00,12.9352049,77.6814488,NO2,11,27,19
India,Karnataka,Bengaluru,"BWSSB Kadabesanahalli, Bengaluru - CPCB",09-01-2026 08:00:00,12.9352049,77.6814488,OZONE,21,55,35
India,Karnataka,Bengaluru,"Bapuji Nagar, Bengaluru - KSPCB",09-01-2026 08:00:00,12.951913,77.539784,PM2.5,42,89,62
India,Karnataka,Bengaluru,"Bapuji Nagar, Bengaluru - KSPCB",09-01-2026 08:00:00,12.951913,77.539784,NO2,9,22,17
India,Karnataka,Bengaluru,"Jayanagar 5th Block, Bengaluru - KSPCB",09-01-2026 08:00:00,12.920984,77.584908,PM2.5,51,126,76
India,Karnataka,Bengaluru,"Jigani, Bengaluru - KSPCB",09-01-2026 08:00:00,12.7816279,77.6299145,PM2.5,44,63,53
India,Karnataka,Bengaluru,"Jigani, Bengaluru - KSPCB",09-01-2026 08:00:00,12.7816279,77.6299145,PM10,64,109,87
India,Karnataka,Bengaluru,"Jigani, Bengaluru - KSPCB",09-01-2026 08:00:00,12.7816279,77.6299145,NH3,3,5,4
India,Karnataka,Bengaluru,"Jigani, Bengaluru - KSPCB",09-01-2026 08:00:00,12.7816279,77.6299145,SO2,20,22,21
India,Jammu_and_Kashmir,Srinagar,"Khunmoh, Srinagar - JKPCC",09-01-2026 08:00:00,34.06313,74.96017,SO2,3,4,3
India,Jammu_and_Kashmir,Srinagar,"Rajbagh, Srinagar - JKPCC",09-01-2026 08:00:00,34.066206,74.819820,PM10,9,46,32
India,Karnataka,Bagalkot,"Vidayagiri, Bagalkot - KSPCB",09-01-2026 08:00:00,16.172806,75.659694,NH3,1,2,1
India,Karnataka,Bengaluru,"Shivapura_Peenya, Bengaluru - KSPCB",09-01-2026 08:00:00,13.0246342,77.5080115,PM2.5,19,39,28
India,Karnataka,Bengaluru,"Shivapura_Peenya, Bengaluru - KSPCB",09-01-2026 08:00:00,13.0246342,77.5080115,PM10,26,500,119
India,Karnataka,Bengaluru,"Silk Board, Bengaluru - KSPCB",09-01-2026 08:00:00,12.917348,77.622813,PM2.5,NA,NA,NA
India,Karnataka,Bengaluru,"Silk Board, Bengaluru - KSPCB",09-01-2026 08:00:00,12.917348,77.622813,SO2,NA,NA,NA
India,Haryana,Sirsa,"F-Block, Sirsa - HSPCB",09-01-2026 08:00:00,29.536400,75.015800,OZONE,35,49,42
India,Himachal Pradesh,Baddi,"HIMUDA Complex Phase-1, Baddi - HPPCB",09-01-2026 08:00:00,30.943887,76.801991,NO2,17,53,38
India,Himachal Pradesh,Baddi,"HIMUDA Complex Phase-1, Baddi - HPPCB",09-01-2026 08:00:00,30.943887,76.801991,SO2,19,101,45
India,Karnataka,Bengaluru,"Kasturi Nagar, Bengaluru - KSPCB",09-01-2026 08:00:00,13.003872,77.664217,PM10,71,84,80
India,Karnataka,Bengaluru,"Kasturi Nagar, Bengaluru - KSPCB",09-01-2026 08:00:00,13.003872,77.664217,NH3,4,5,5
India,Karnataka,Bengaluru,"Kasturi Nagar, Bengaluru - KSPCB",09-01-2026 08:00:00,13.003872,77.664217,SO2,12,13,12
India,Karnataka,Bengaluru,"Peenya, Bengaluru - CPCB",09-01-2026 08:00:00,13.0270199,77.494094,PM2.5,18,45,29
India,Karnataka,Vijayapura,"Ibrahimpur, Vijayapura - KSPCB",09-01-2026 08:00:00,16.802639,75.722694,CO,12,119,35
India,Karnataka,Yadgir,"Collector Office, Yadgir - KSPCB",09-01-2026 08:00:00,16.7602,77.1428,NO2,7,57,23
India,Karnataka,Yadgir,"Collector Office, Yadgir - KSPCB",09-01-2026 08:00:00,16.7602,77.1428,NH3,2,3,2
India,Karnataka,Yadgir,"Collector Office, Yadgir - KSPCB",09-01-2026 08:00:00,16.7602,77.1428,SO2,1,28,14
India,Kerala,Eloor,"Udyogamandal, Eloor - Kerala PCB",09-01-2026 08:00:00,10.073232,76.302765,PM2.5,60,93,72
India,Kerala,Eloor,"Udyogamandal, Eloor - Kerala PCB",09-01-2026 08:00:00,10.073232,76.302765,NO2,7,8,7
India,Kerala,Eloor,"Udyogamandal, Eloor - Kerala PCB",09-01-2026 08:00:00,10.073232,76.302765,CO,16,106,32
India,Kerala,Kannur,"Thavakkara, Kannur - Kerala PCB",09-01-2026 08:00:00,11.875000,75.373200,CO,NA,NA,NA
