country,state,city,station,last_update,latitude,longitude,pollutant_id,min_value,max_value,avg_value
India,Andhra_Pradesh,Visakhapatnam,"GVM Corporation, Visakhapatnam - APPCB",04-10-2025 05:00:00,17.72,83.3,PM2.5,75,181,99
India,Arunachal_Pradesh,Naharlagun,"Naharlagun, Naharlagun - APSPCB",04-10-2025 05:00:00,27.103358,93.679645,PM2.5,1,24,10
India,Arunachal_Pradesh,Naharlagun,"Naharlagun, Naharlagun - APSPCB",04-10-2025 05:00:00,27.103358,93.679645,PM10,1,27,13
India,Assam,Byrnihat,"Central Academy for SFS, Byrnihat - PCBA",04-10-2025 05:00:00,26.071318,91.87488,OZONE,20,38,20
India,Assam,Guwahati,"IITG, Guwahati - PCBA",04-10-2025 05:00:00,26.2028636,91.70046436,CO,1,8,5
India,Assam,Guwahati,"IITG, Guwahati - PCBA",04-10-2025 05:00:00,26.2028636,91.70046436,OZONE,1,20,5
India,Assam,Guwahati,"LGBI Airport, Guwahati - PCBA",04-10-2025 05:00:00,26.10887,91.589544,PM2.5,22,326,72
India,Assam,Guwahati,"LGBI Airport, Guwahati - PCBA",04-10-2025 05:00:00,26.10887,91.589544,NO2,12,16,14
India,Assam,Guwahati,"Pan Bazaar, Guwahati - PCBA",04-10-2025 05:00:00,26.187500,91.744194,OZONE,18,18,18
India,Andhra_Pradesh,Chittoor,"Gangineni Cheruvu, Chittoor - APPCB",04-10-2025 05:00:00,13.204880,79.097889,OZONE,39,56,51
India,Andhra_Pradesh,Rajamahendravaram,"Anand Kala Kshetram, Rajamahendravaram - APPCB",04-10-2025 05:00:00,16.9872867,81.7363176,CO,7,36,21
India,Andhra_Pradesh,Tirupati,"Vaikuntapuram, Tirupati - APPCB",04-10-2025 05:00:00,13.615387,79.409230,NH3,5,5,5
India,Andhra_Pradesh,Vijayawada,"HB Colony, Vijayawada - APPCB",04-10-2025 05:00:00,16.536107,80.594233,PM2.5,58,75,67
India,Assam,Nalbari,"Bata Chowk, Nalbari - PCBA",04-10-2025 05:00:00,26.446912,91.439057,SO2,20,21,21
India,Assam,Silchar,"Tarapur, Silchar - PCBA",04-10-2025 05:00:00,24.82827,92.79525,PM10,48,72,53
India,Assam,Sivasagar,"Girls College, Sivasagar - PCBA",04-10-2025 05:00:00,26.987634,94.636574,CO,12,24,18
India,Assam,Sivasagar,"Girls College, Sivasagar - PCBA",04-10-2025 05:00:00,26.987634,94.636574,OZONE,2,5,3
India,Assam,Nagaon,"Christianpatty, Nagaon - PCBA",04-10-2025 05:00:00,26.349082,92.68449,NO2,1,1,1
India,Assam,Nagaon,"Christianpatty, Nagaon - PCBA",04-10-2025 05:00:00,26.349082,92.68449,SO2,10,15,12
India,Andaman and Nicobar,Sri Vijaya Puram,"Police Line, Sri Vijaya Puram - ANPCC",04-10-2025 05:00:00,11.654054,92.734055,CO,NA,NA,NA
India,Bihar,Araria,"Kharahiya Basti, Araria - BSPCB",04-10-2025 05:00:00,26.146529,87.454184,NO2,3,107,38
India,Assam,Silchar,"Tarapur, Silchar - PCBA",04-10-2025 05:00:00,24.82827,92.79525,CO,36,50,43
India,Bihar,Buxar,"Charitra Van, Buxar - BSPCB",04-10-2025 05:00:00,25.567520,83.966379,SO2,1,8,4
India,Bihar,Chhapra,"Darshan Nagar, Chhapra - BSPCB",04-10-2025 05:00:00,25.7808257,84.7446768,NH3,2,3,3
India,Bihar,Gaya,"Kareemganj, Gaya - BSPCB",04-10-2025 05:00:00,24.792403,84.992416,NO2,3,7,5
India,Bihar,Hajipur,"Industrial Area, Hajipur - BSPCB",04-10-2025 05:00:00,25.697189,85.245900,SO2,2,5,4
India,Bihar,Hajipur,"Industrial Area, Hajipur - BSPCB",04-10-2025 05:00:00,25.697189,85.245900,CO,34,39,38
India,Bihar,Katihar,"Mirchaibari, Katihar - BSPCB",04-10-2025 05:00:00,25.560083,87.553265,PM10,29,31,30
India,Bihar,Begusarai,"Lohiyanagar, Begusarai - BSPCB",04-10-2025 05:00:00,25.42742023,86.13886079,CO,35,66,51
India,Bihar,Bettiah,"Kamalnath Nagar, Bettiah - BSPCB",04-10-2025 05:00:00,26.80365,84.51954,PM10,44,73,53
India,Bihar,Motihari,"Gandak Colony, Motihari - BSPCB",04-10-2025 05:00:00,26.63086,84.90051,SO2,3,3,3
India,Bihar,Munger,"Town Hall, Munger - BSPCB",04-10-2025 05:00:00,25.376776,86.471523,PM10,5,22,14
India,Bihar,Bihar Sharif,"D M Colony, Bihar Sharif - BSPCB",04-10-2025 05:00:00,25.204762,85.514960,NO2,9,10,10
India,Bihar,Bihar Sharif,"D M Colony, Bihar Sharif - BSPCB",04-10-2025 05:00:00,25.204762,85.514960,NH3,2,2,2
India,Bihar,Bhagalpur,"Mayaganj, Bhagalpur - BSPCB",04-10-2025 05:00:00,25.265194,87.012947,PM2.5,NA,NA,NA
India,Bihar,Bhagalpur,"Mayaganj, Bhagalpur - BSPCB",04-10-2025 05:00:00,25.265194,87.012947,NH3,NA,NA,NA
India,Bihar,Arrah,"New DM Office, Arrah - BSPCB",04-10-2025 05:00:00,25.5626095,84.663264,NO2,NA,NA,NA
India,Bihar,Arrah,"New DM Office, Arrah - BSPCB",04-10-2025 05:00:00,25.5626095,84.663264,NH3,NA,NA,NA
India,Bihar,Aurangabad,"Gurdeo Nagar, Aurangabad - BSPCB",04-10-2025 05:00:00,24.75746,84.366208,CO,5,36,19
India,Bihar,Bettiah,"Kamalnath Nagar, Bettiah - BSPCB",04-10-2025 05:00:00,26.80365,84.51954,SO2,4,17,12
India,Bihar,Muzaffarpur,"Muzaffarpur Collectorate, Muzaffarpur - BSPCB",04-10-2025 05:00:00,26.1209,85.3647,SO2,3,6,4
India,Bihar,Patna,"DRM Office Danapur, Patna - BSPCB",04-10-2025 05:00:00,25.586562,85.043586,PM2.5,18,39,23
India,Bihar,Patna,"DRM Office Danapur, Patna - BSPCB",04-10-2025 05:00:00,25.586562,85.043586,PM10,37,48,42
India,Bihar,Patna,"DRM Office Danapur, Patna - BSPCB",04-10-2025 05:00:00,25.586562,85.043586,CO,23,32,27
India,Bihar,Patna,"DRM Office Danapur, Patna - BSPCB",04-10-2025 05:00:00,25.586562,85.043586,OZONE,22,33,27
India,Bihar,Patna,"Govt. High School Shikarpur, Patna - BSPCB",04-10-2025 05:00:00,25.592539,85.227158,OZONE,7,12,10
India,Bihar,Rajgir,"Dangi Tola, Rajgir - BSPCB",04-10-2025 05:00:00,25.03280,85.41948,NH3,6,7,6
India,Bihar,Rajgir,"Dangi Tola, Rajgir - BSPCB",04-10-2025 05:00:00,25.03280,85.41948,SO2,19,23,21
India,Bihar,Saharsa,"Police Line, Saharsa - BSPCB",04-10-2025 05:00:00,25.892357,86.590325,PM2.5,NA,NA,NA
India,Chandigarh,Chandigarh,"Sector 22, Chandigarh - CPCC",04-10-2025 05:00:00,30.735567,76.775714,CO,22,50,43
India,Chandigarh,Chandigarh,"Sector-25, Chandigarh - CPCC",04-10-2025 05:00:00,30.751462,76.762879,NH3,4,10,7
India,Chandigarh,Chandigarh,"Sector-53, Chandigarh - CPCC",04-10-2025 05:00:00,30.719859,76.738637,NO2,10,92,30
India,Bihar,Patna,"Muradpur, Patna - BSPCB",04-10-2025 05:00:00,25.619651,85.147382,OZONE,4,40,6
India,Bihar,Patna,"Rajbansi Nagar, Patna - BSPCB",04-10-2025 05:00:00,25.599486,85.113666,NH3,2,3,3
India,Bihar,Patna,"Rajbansi Nagar, Patna - BSPCB",04-10-2025 05:00:00,25.599486,85.113666,OZONE,7,20,9
India,Bihar,Muzaffarpur,"MIT-Daudpur Kothi, Muzaffarpur - BSPCB",04-10-2025 05:00:00,26.1403345,85.3650192,NO2,3,13,9
India,Bihar,Muzaffarpur,"MIT-Daudpur Kothi, Muzaffarpur - BSPCB",04-10-2025 05:00:00,26.1403345,85.3650192,NH3,1,2,1
India,Bihar,Muzaffarpur,"MIT-Daudpur Kothi, Muzaffarpur - BSPCB",04-10-2025 05:00:00,26.1403345,85.3650192,OZONE,8,44,42
India,Bihar,Muzaffarpur,"Buddha Colony, Muzaffarpur - BSPCB",04-10-2025 05:00:00,26.11442,85.39813,NO2,NA,NA,NA
India,Bihar,Muzaffarpur,"Buddha Colony, Muzaffarpur - BSPCB",04-10-2025 05:00:00,26.11442,85.39813,NH3,NA,NA,NA
India,Bihar,Muzaffarpur,"Buddha Colony, Muzaffarpur - BSPCB",04-10-2025 05:00:00,26.11442,85.39813,SO2,NA,NA,NA
India,Bihar,Muzaffarpur,"Buddha Colony, Muzaffarpur - BSPCB",04-10-2025 05:00:00,26.11442,85.39813,CO,NA,NA,NA
India,Bihar,Munger,"Town Hall, Munger - BSPCB",04-10-2025 05:00:00,25.376776,86.471523,CO,17,38,29
India,Bihar,Sasaram,"Dada Peer, Sasaram - BSPCB",04-10-2025 05:00:00,24.952822,84.002396,PM10,NA,NA,NA
India,Chhattisgarh,Raipur,"Krishak Nagar, Raipur - CECB",04-10-2025 05:00:00,21.237755,81.705301,NH3,2,3,3
India,Chhattisgarh,Raipur,"Krishak Nagar, Raipur - CECB",04-10-2025 05:00:00,21.237755,81.705301,OZONE,2,3,2
India,Chhattisgarh,Raipur,"Siltara Phase-II, Raipur - CECB",04-10-2025 05:00:00,21.371751,81.664929,CO,15,35,31
India,Chhattisgarh,Tumidih,"OP Jindal Industrial Park, Tumidih - CECB",04-10-2025 05:00:00,22.06631475,83.33820077,PM2.5,2,47,14
India,Chhattisgarh,Tumidih,"OP Jindal Industrial Park, Tumidih - CECB",04-10-2025 05:00:00,22.06631475,83.33820077,NO2,5,45,13
India,Chhattisgarh,Tumidih,"OP Jindal Industrial Park, Tumidih - CECB",04-10-2025 05:00:00,22.06631475,83.33820077,NH3,1,2,2
India,Chhattisgarh,Korba,"Urja Nagar, Korba - CECB",04-10-2025 05:00:00,22.348441,82.549611,PM10,25,25,25
India,Chhattisgarh,Kunjemura,"OP Jindal School, Kunjemura - CECB",04-10-2025 05:00:00,22.126650,83.483212,OZONE,5,11,9
India,Chhattisgarh,Raipur,"Bhatagaon New ISBT, Raipur - CECB",04-10-2025 05:00:00,21.219665,81.630094,NH3,2,2,2
India,Chhattisgarh,Raipur,"Krishak Nagar, Raipur - CECB",04-10-2025 05:00:00,21.237755,81.705301,PM2.5,9,38,23
India,Chhattisgarh,Bhilai,"Hathkhoj, Bhilai - CECB",04-10-2025 05:00:00,21.224231,81.408350,SO2,5,11,7
India,Chhattisgarh,Bilaspur,"Mangala, Bilaspur - NTPC",04-10-2025 05:00:00,22.08815,82.13737,SO2,8,36,18
India,Chhattisgarh,Chhal,"Nawapara SECL Colony, Chhal - CECB",04-10-2025 05:00:00,22.118125,83.140608,NO2,3,13,5
India,Chhattisgarh,Chhal,"Nawapara SECL Colony, Chhal - CECB",04-10-2025 05:00:00,22.118125,83.140608,NH3,6,6,6
India,Delhi,Delhi,"Bawana, Delhi - DPCC",04-10-2025 05:00:00,28.776200,77.051074,CO,54,99,76
India,Delhi,Delhi,"Burari Crossing, Delhi - IMD",04-10-2025 05:00:00,28.7256504,77.2011573,OZONE,11,82,14
India,Delhi,Delhi,"CRRI Mathura Road, Delhi - IMD",04-10-2025 05:00:00,28.5512005,77.2735737,PM2.5,14,151,59
India,Chhattisgarh,Bhilai,"32Bungalows, Bhilai - CECB",04-10-2025 05:00:00,21.194815,81.314770,OZONE,11,21,14
India,Chhattisgarh,Bhilai,"Civic Center, Bhilai - Bhilai Steel Plant",04-10-2025 05:00:00,21.185571,81.343175,PM10,21,36,30
India,Delhi,Delhi,"Ashok Vihar, Delhi - DPCC",04-10-2025 05:00:00,28.695381,77.181665,NO2,15,94,42
India,Delhi,Delhi,"Ashok Vihar, Delhi - DPCC",04-10-2025 05:00:00,28.695381,77.181665,NH3,1,1,1
India,Delhi,Delhi,"Chandni Chowk, Delhi - IITM",04-10-2025 05:00:00,28.656756,77.227234,PM2.5,NA,NA,NA
India,Delhi,Delhi,"Chandni Chowk, Delhi - IITM",04-10-2025 05:00:00,28.656756,77.227234,PM10,NA,NA,NA
India,Delhi,Delhi,"Anand Vihar, Delhi - DPCC",04-10-2025 05:00:00,28.647622,77.3158090,NH3,1,3,2
India,Delhi,Delhi,"Alipur, Delhi - DPCC",04-10-2025 05:00:00,28.815329,77.153010,NO2,8,48,20
India,Delhi,Delhi,"Dr. Karni Singh Shooting Range, Delhi - DPCC",04-10-2025 05:00:00,28.498571,77.264840,PM2.5,32,147,64
India,Delhi,Delhi,"Dr. Karni Singh Shooting Range, Delhi - DPCC",04-10-2025 05:00:00,28.498571,77.264840,NO2,34,95,63
India,Delhi,Delhi,"Dr. Karni Singh Shooting Range, Delhi - DPCC",04-10-2025 05:00:00,28.498571,77.264840,NH3,4,6,5
India,Delhi,Delhi,"Dr. Karni Singh Shooting Range, Delhi - DPCC",04-10-2025 05:00:00,28.498571,77.264840,SO2,1,5,3
India,Delhi,Delhi,"Dwarka-Sector 8, Delhi - DPCC ",04-10-2025 05:00:00,28.5710274,77.0719006,PM2.5,32,287,112
India,Delhi,Delhi,"Dwarka-Sector 8, Delhi - DPCC ",04-10-2025 05:00:00,28.5710274,77.0719006,PM10,72,390,175
India,Delhi,Delhi,"Dwarka-Sector 8, Delhi - DPCC ",04-10-2025 05:00:00,28.5710274,77.0719006,NO2,25,113,65
India,Delhi,Delhi,"Jahangirpuri, Delhi - DPCC",04-10-2025 05:00:00,28.732820,77.170633,PM10,33,169,92
India,Delhi,Delhi,"Jahangirpuri, Delhi - DPCC",04-10-2025 05:00:00,28.732820,77.170633,CO,44,103,86
India,Delhi,Delhi,"Jahangirpuri, Delhi - DPCC",04-10-2025 05:00:00,28.732820,77.170633,OZONE,4,76,8
India,Delhi,Delhi,"Jawaharlal Nehru Stadium, Delhi - DPCC",04-10-2025 05:00:00,28.580280,77.233829,NH3,5,8,6
India,Delhi,Delhi,"Dwarka-Sector 8, Delhi - DPCC ",04-10-2025 05:00:00,28.5710274,77.0719006,NH3,5,9,7
India,Delhi,Delhi,"Dwarka-Sector 8, Delhi - DPCC ",04-10-2025 05:00:00,28.5710274,77.0719006,CO,26,165,101
India,Delhi,Delhi,"IHBAS, Dilshad Garden, Delhi - CPCB",04-10-2025 05:00:00,28.6811736,77.3025234,NO2,44,49,47
India,Delhi,Delhi,"Lodhi Road, Delhi - IITM",04-10-2025 05:00:00,28.588333,77.221667,NO2,15,81,35
India,Delhi,Delhi,"Lodhi Road, Delhi - IMD",04-10-2025 05:00:00,28.5918245,77.2273074,NO2,17,149,53
India,Delhi,Delhi,"Lodhi Road, Delhi - IMD",04-10-2025 05:00:00,28.5918245,77.2273074,CO,18,89,78
India,Delhi,Delhi,"Major Dhyan Chand National Stadium, Delhi - DPCC",04-10-2025 05:00:00,28.611281,77.237738,NH3,13,15,14
India,Delhi,Delhi,"Major Dhyan Chand National Stadium, Delhi - DPCC",04-10-2025 05:00:00,28.611281,77.237738,OZONE,5,91,5
India,Delhi,Delhi,"Jawaharlal Nehru Stadium, Delhi - DPCC",04-10-2025 05:00:00,28.580280,77.233829,SO2,4,18,11
India,Delhi,Delhi,"Mandir Marg, Delhi - DPCC",04-10-2025 05:00:00,28.636429,77.201067,PM10,14,161,81
India,Delhi,Delhi,"Mundka, Delhi - DPCC",04-10-2025 05:00:00,28.684678,77.076574,CO,26,65,54
India,Delhi,Delhi,"Shadipur, Delhi - CPCB",04-10-2025 05:00:00,28.6514781,77.1473105,CO,40,123,94
India,Delhi,Delhi,"Sirifort, Delhi - CPCB",04-10-2025 05:00:00,28.5504249,77.2159377,NO2,23,42,33
India,Delhi,Delhi,"Sirifort, Delhi - CPCB",04-10-2025 05:00:00,28.5504249,77.2159377,SO2,22,27,24
India,Delhi,Delhi,"Sonia Vihar, Delhi - DPCC",04-10-2025 05:00:00,28.710508,77.249485,PM10,31,118,74
India,Delhi,Delhi,"Sri Aurobindo Marg, Delhi - DPCC",04-10-2025 05:00:00,28.531346,77.190156,PM10,57,86,69
India,Delhi,Delhi,"Sri Aurobindo Marg, Delhi - DPCC",04-10-2025 05:00:00,28.531346,77.190156,NH3,4,5,4
India,Delhi,Delhi,"Sri Aurobindo Marg, Delhi - DPCC",04-10-2025 05:00:00,28.531346,77.190156,SO2,4,6,5
India,Delhi,Delhi,"Vivek Vihar, Delhi - DPCC",04-10-2025 05:00:00,28.672342,77.315260,OZONE,2,40,3
India,Delhi,Delhi,"Wazirpur, Delhi - DPCC",04-10-2025 05:00:00,28.699793,77.165453,PM10,73,436,153
India,Gujarat,Ahmedabad,"Chandkheda, Ahmedabad - IITM",04-10-2025 05:00:00,23.107969,72.574648,NH3,7,14,9
India,Gujarat,Ahmedabad,"Chandkheda, Ahmedabad - IITM",04-10-2025 05:00:00,23.107969,72.574648,SO2,4,67,18
India,Gujarat,Ahmedabad,"Gyaspur, Ahmedabad - IITM",04-10-2025 05:00:00,22.977134,72.553024,NO2,15,31,23
India,Gujarat,Ahmedabad,"Gyaspur, Ahmedabad - IITM",04-10-2025 05:00:00,22.977134,72.553024,CO,38,66,50
India,Gujarat,Ahmedabad,"Gyaspur, Ahmedabad - IITM",04-10-2025 05:00:00,22.977134,72.553024,OZONE,16,69,59
India,Delhi,Delhi,"Patparganj, Delhi - DPCC",04-10-2025 05:00:00,28.623763,77.287209,OZONE,4,111,7
India,Delhi,Delhi,"Punjabi Bagh, Delhi - DPCC",04-10-2025 05:00:00,28.674045,77.131023,NO2,24,145,61
India,Delhi,Delhi,"Punjabi Bagh, Delhi - DPCC",04-10-2025 05:00:00,28.674045,77.131023,NH3,2,3,3
India,Delhi,Delhi,"Pusa, Delhi - DPCC",04-10-2025 05:00:00,28.639652,77.146275,PM10,55,170,92
India,Delhi,Delhi,"North Campus, DU, Delhi - IMD",04-10-2025 05:00:00,28.6573814,77.1585447,OZONE,9,197,13
India,Delhi,Delhi,"Okhla Phase-2, Delhi - DPCC",04-10-2025 05:00:00,28.530785,77.271255,SO2,5,18,10
India,Delhi,Delhi,"Patparganj, Delhi - DPCC",04-10-2025 05:00:00,28.623763,77.287209,NO2,14,98,44
India,Delhi,Delhi,"Narela, Delhi - DPCC",04-10-2025 05:00:00,28.822836,77.101981,NH3,16,18,17
India,Delhi,Delhi,"Nehru Nagar, Delhi - DPCC",04-10-2025 05:00:00,28.567890,77.250515,SO2,6,36,14
India,Delhi,Delhi,"North Campus, DU, Delhi - IMD",04-10-2025 05:00:00,28.6573814,77.1585447,PM2.5,35,94,66
India,Delhi,Delhi,"Mundka, Delhi - DPCC",04-10-2025 05:00:00,28.684678,77.076574,OZONE,2,95,4
India,Delhi,Delhi,"Najafgarh, Delhi - DPCC",04-10-2025 05:00:00,28.570173,76.933762,PM2.5,23,113,55
India,Delhi,Delhi,"Najafgarh, Delhi - DPCC",04-10-2025 05:00:00,28.570173,76.933762,NO2,83,102,90
India,Delhi,Delhi,"Najafgarh, Delhi - DPCC",04-10-2025 05:00:00,28.570173,76.933762,OZONE,4,58,6
India,Delhi,Delhi,"R K Puram, Delhi - DPCC",04-10-2025 05:00:00,28.563262,77.186937,PM10,53,145,91
India,Delhi,Delhi,"R K Puram, Delhi - DPCC",04-10-2025 05:00:00,28.563262,77.186937,CO,6,112,88
India,Delhi,Delhi,"R K Puram, Delhi - DPCC",04-10-2025 05:00:00,28.563262,77.186937,OZONE,16,141,17
India,Delhi,Delhi,"Pusa, Delhi - IMD",04-10-2025 05:00:00,28.636110,77.173332,CO,13,142,108
India,Delhi,Delhi,"R K Puram, Delhi - DPCC",04-10-2025 05:00:00,28.563262,77.186937,PM2.5,38,223,99
India,Delhi,Delhi,"Shadipur, Delhi - CPCB",04-10-2025 05:00:00,28.6514781,77.1473105,PM10,43,272,125
India,Gujarat,Gandhinagar,"GIFT City, Gandhinagar - IITM",04-10-2025 05:00:00,23.163798,72.677768,SO2,4,13,7
India,Gujarat,Gandhinagar,"GIFT City, Gandhinagar - IITM",04-10-2025 05:00:00,23.163798,72.677768,CO,48,76,67
India,Gujarat,Gandhinagar,"IIPHG Lekawada, Gandhinagar - IITM",04-10-2025 05:00:00,23.243639,72.68994,PM10,30,79,51
India,Gujarat,Gandhinagar,"Sector-10, Gandhinagar - GPCB",04-10-2025 05:00:00,23.221714,72.654328,PM2.5,11,56,28
India,Gujarat,Gandhinagar,"Sector-10, Gandhinagar - GPCB",04-10-2025 05:00:00,23.221714,72.654328,NO2,18,19,18
India,Gujarat,Vapi,"Phase-1 GIDC, Vapi - GPCB",04-10-2025 05:00:00,20.362421,72.918013,NO2,13,14,14
India,Gujarat,Ahmedabad,"SAC ISRO Bopal, Ahmedabad - IITM",04-10-2025 05:00:00,23.041137,72.456691,NH3,2,3,3
India,Gujarat,Ahmedabad,"SAC ISRO Satellite, Ahmedabad - IITM",04-10-2025 05:00:00,23.023389,72.515201,CO,2,47,29
India,Gujarat,Ahmedabad,"SAC ISRO Satellite, Ahmedabad - IITM",04-10-2025 05:00:00,23.023389,72.515201,OZONE,2,28,4
India,Gujarat,Ahmedabad,"SVPI Airport Hansol, Ahmedabad - IITM",04-10-2025 05:00:00,23.076793,72.627874,PM2.5,6,43,20
India,Gujarat,Vatva,"Phase-4 GIDC, Vatva - GPCB",04-10-2025 05:00:00,22.969611,72.643500,CO,12,50,25
India,Haryana,Ambala,"Patti Mehar, Ambala - HSPCB",04-10-2025 05:00:00,30.379589,76.778328,SO2,NA,NA,NA
India,Haryana,Ambala,"Patti Mehar, Ambala - HSPCB",04-10-2025 05:00:00,30.379589,76.778328,CO,NA,NA,NA
India,Haryana,Ambala,"Patti Mehar, Ambala - HSPCB",04-10-2025 05:00:00,30.379589,76.778328,OZONE,NA,NA,NA
India,Gujarat,Ahmedabad,"Maninagar, Ahmedabad - GPCB",04-10-2025 05:00:00,23.002657,72.591912,PM10,NA,NA,NA
India,Gujarat,Ahmedabad,"Maninagar, Ahmedabad - GPCB",04-10-2025 05:00:00,23.002657,72.591912,NO2,NA,NA,NA
India,Gujarat,Ahmedabad,"Maninagar, Ahmedabad - GPCB",04-10-2025 05:00:00,23.002657,72.591912,CO,NA,NA,NA
India,Gujarat,Ahmedabad,"Raikhad, Ahmedabad - IITM",04-10-2025 05:00:00,23.020509,72.579261,NO2,11,62,28
India,Haryana,Bahadurgarh,"Arya Nagar, Bahadurgarh - HSPCB",04-10-2025 05:00:00,28.6701,76.9254,OZONE,16,20,18
India,Haryana,Bhiwani,"H.B. Colony, Bhiwani - HSPCB",04-10-2025 05:00:00,28.806223,76.141105,NH3,8,8,8
India,Gujarat,Ahmedabad,"Rakhial, Ahmedabad - IITM",04-10-2025 05:00:00,23.016834,72.625775,SO2,5,104,35
India,Gujarat,Ahmedabad,"SAC ISRO Bopal, Ahmedabad - IITM",04-10-2025 05:00:00,23.041137,72.456691,PM2.5,28,75,52
India,Haryana,Bahadurgarh,"Arya Nagar, Bahadurgarh - HSPCB",04-10-2025 05:00:00,28.6701,76.9254,NO2,11,16,14
India,Haryana,Bahadurgarh,"Arya Nagar, Bahadurgarh - HSPCB",04-10-2025 05:00:00,28.6701,76.9254,NH3,11,15,12
India,Haryana,Bahadurgarh,"Arya Nagar, Bahadurgarh - HSPCB",04-10-2025 05:00:00,28.6701,76.9254,SO2,6,7,6
India,Gujarat,Vatva,"Phase-4 GIDC, Vatva - GPCB",04-10-2025 05:00:00,22.969611,72.643500,PM10,27,85,54
India,Gujarat,Ankleshwar,"GIDC, Ankleshwar - GPCB",04-10-2025 05:00:00,21.613267,73.010555,NO2,NA,NA,NA
India,Haryana,Palwal,"Shyam Nagar, Palwal - HSPCB",04-10-2025 05:00:00,28.1485564,77.3320667,NH3,NA,NA,NA
India,Haryana,Palwal,"Shyam Nagar, Palwal - HSPCB",04-10-2025 05:00:00,28.1485564,77.3320667,CO,27,29,28
India,Haryana,Panchgaon,"Amity University, Panchgaon - IITM",04-10-2025 05:00:00,28.3153,76.9143,NH3,1,8,3
India,Haryana,Panipat,"Sector-18, Panipat - HSPCB",04-10-2025 05:00:00,29.432304,76.972765,PM2.5,NA,NA,NA
India,Haryana,Sirsa,"F-Block, Sirsa - HSPCB",04-10-2025 05:00:00,29.536400,75.015800,NH3,1,27,14
India,Haryana,Yamuna Nagar,"Gobind Pura, Yamuna Nagar - HSPCB",04-10-2025 05:00:00,30.1480566,77.2893471,NO2,NA,NA,NA
India,Himachal Pradesh,Baddi,"HIMUDA Complex Phase-1, Baddi - HPPCB",04-10-2025 05:00:00,30.943887,76.801991,NO2,13,69,28
India,Jammu_and_Kashmir,Srinagar,"Rajbagh, Srinagar - JKSPCB",04-10-2025 05:00:00,34.066206,74.819820,PM2.5,25,80,49
India,Jammu_and_Kashmir,Srinagar,"Rajbagh, Srinagar - JKSPCB",04-10-2025 05:00:00,34.066206,74.819820,SO2,3,4,3
India,Jharkhand,Dhanbad,"Sardar Patel Nagar, Dhanbad - JSPCB",04-10-2025 05:00:00,23.80569,86.44268,PM2.5,NA,NA,NA
India,Jharkhand,Jorapokhar,"Tata Stadium, Jorapokhar - JSPCB",04-10-2025 05:00:00,23.707909,86.414670,PM10,NA,NA,NA
India,Haryana,Manesar,"Sector-2 IMT, Manesar - HSPCB",04-10-2025 05:00:00,28.360699,76.936090,NH3,NA,NA,NA
India,Haryana,Manesar,"Sector-2 IMT, Manesar - HSPCB",04-10-2025 05:00:00,28.360699,76.936090,SO2,NA,NA,NA
India,Haryana,Manesar,"Sector-2 IMT, Manesar - HSPCB",04-10-2025 05:00:00,28.360699,76.936090,CO,14,62,48
India,Haryana,Manesar,"Sector-2 IMT, Manesar - HSPCB",04-10-2025 05:00:00,28.360699,76.936090,OZONE,30,35,30
India,Haryana,Narnaul,"Shastri Nagar, Narnaul - HSPCB",04-10-2025 05:00:00,28.060249,76.113115,PM2.5,56,278,117
India,Haryana,Charkhi Dadri,"Mini Secretariat, Charkhi Dadri - HSPCB",04-10-2025 05:00:00,28.593883,76.270653,SO2,NA,NA,NA
India,Haryana,Faridabad,"New Industrial Town, Faridabad - HSPCB",04-10-2025 05:00:00,28.39072,77.30059,NO2,24,27,25
India,Haryana,Faridabad,"New Industrial Town, Faridabad - HSPCB",04-10-2025 05:00:00,28.39072,77.30059,SO2,8,8,8
India,Haryana,Faridabad,"New Industrial Town, Faridabad - HSPCB",04-10-2025 05:00:00,28.39072,77.30059,OZONE,24,34,29
India,Haryana,Narnaul,"Shastri Nagar, Narnaul - HSPCB",04-10-2025 05:00:00,28.060249,76.113115,CO,28,38,35
India,Haryana,Palwal,"Shyam Nagar, Palwal - HSPCB",04-10-2025 05:00:00,28.1485564,77.3320667,PM10,NA,NA,NA
India,Haryana,Palwal,"Shyam Nagar, Palwal - HSPCB",04-10-2025 05:00:00,28.1485564,77.3320667,NO2,NA,NA,NA
India,Haryana,Jind,"Police Lines, Jind - HSPCB",04-10-2025 05:00:00,29.307814,76.337619,SO2,9,10,10
India,Haryana,Karnal,"Sector-12, Karnal - HSPCB",04-10-2025 05:00:00,29.695300,77.002700,NO2,12,12,12
India,Haryana,Karnal,"Sector-12, Karnal - HSPCB",04-10-2025 05:00:00,29.695300,77.002700,SO2,8,10,9
India,Karnataka,Bengaluru,"Bapuji Nagar, Bengaluru - KSPCB",04-10-2025 05:00:00,12.951913,77.539784,SO2,2,7,4
India,Karnataka,Bengaluru,"Hebbal, Bengaluru - KSPCB",04-10-2025 05:00:00,13.029152,77.585901,PM10,9,28,14
India,Karnataka,Bengaluru,"Jayanagar 5th Block, Bengaluru - KSPCB",04-10-2025 05:00:00,12.920984,77.584908,NO2,16,64,32
India,Haryana,Jind,"Police Lines, Jind - HSPCB",04-10-2025 05:00:00,29.307814,76.337619,PM2.5,41,41,41
India,Karnataka,Bengaluru,"RVCE-Mailasandra, Bengaluru - KSPCB",04-10-2025 05:00:00,12.921418,77.502466,NO2,36,38,37
India,Karnataka,Bengaluru,"Shivapura_Peenya, Bengaluru - KSPCB",04-10-2025 05:00:00,13.0246342,77.5080115,NH3,4,4,4
India,Karnataka,Bengaluru,"Shivapura_Peenya, Bengaluru - KSPCB",04-10-2025 05:00:00,13.0246342,77.5080115,OZONE,23,25,24
India,Karnataka,Bengaluru,"Silk Board, Bengaluru - KSPCB",04-10-2025 05:00:00,12.917348,77.622813,PM2.5,3,40,17
India,Karnataka,Dharwad,"Kalabhavan, Dharwad - KSPCB",04-10-2025 05:00:00,15.459706,75.008381,SO2,1,3,2
India,Karnataka,Dharwad,"Kalabhavan, Dharwad - KSPCB",04-10-2025 05:00:00,15.459706,75.008381,CO,24,63,41
India,Karnataka,Dharwad,"Kalabhavan, Dharwad - KSPCB",04-10-2025 05:00:00,15.459706,75.008381,OZONE,12,18,14
India,Karnataka,Hubballi,"Lingaraj Nagar, Hubballi - KSPCB",04-10-2025 05:00:00,15.3714823,75.1160168,PM2.5,28,35,33
India,Karnataka,Chikkaballapur,"Chikkaballapur Rural, Chikkaballapur - KSPCB",04-10-2025 05:00:00,13.428828,77.731418,OZONE,NA,NA,NA
India,Karnataka,Davanagere,"Devaraj Urs Badavane, Davanagere - KSPCB",04-10-2025 05:00:00,14.475800,75.905200,SO2,4,9,5
India,Karnataka,Dharwad,"Kalabhavan, Dharwad - KSPCB",04-10-2025 05:00:00,15.459706,75.008381,PM10,42,60,51
India,Karnataka,Mysuru,"Hebbal 1st Stage, Mysuru - KSPCB",04-10-2025 05:00:00,12.21041,76.37376,NH3,3,8,5
India,Karnataka,Mysuru,"Hebbal 1st Stage, Mysuru - KSPCB",04-10-2025 05:00:00,12.21041,76.37376,SO2,1,35,6
India,Karnataka,Ramanagara,"Vijay Nagar, Ramanagara - KSPCB",04-10-2025 05:00:00,12.733409,77.298051,NO2,NA,NA,NA
India,Karnataka,Chamarajanagar,"Urban, Chamarajanagar - KSPCB",04-10-2025 05:00:00,11.55358,76.55521,SO2,2,8,4
India,Karnataka,Chamarajanagar,"Urban, Chamarajanagar - KSPCB",04-10-2025 05:00:00,11.55358,76.55521,CO,14,119,28
India,Karnataka,Chamarajanagar,"Urban, Chamarajanagar - KSPCB",04-10-2025 05:00:00,11.55358,76.55521,OZONE,13,35,18
India,Karnataka,Kalaburagi,"Mahatma Basaveswar Colony, Kalaburgi - KSPCB",04-10-2025 05:00:00,17.336318,76.847397,SO2,2,3,3
India,Karnataka,Karwar,"KHB Colony, Karwar - KSPCB",04-10-2025 05:00:00,14.816666,74.141003,NH3,1,2,1
India,Karnataka,Shivamogga,"Vinoba Nagara, Shivamogga - KSPCB",04-10-2025 05:00:00,13.940000,75.555917,PM10,34,65,43
India,Karnataka,Mysuru,"Hebbal 1st Stage, Mysuru - KSPCB",04-10-2025 05:00:00,12.21041,76.37376,PM2.5,10,30,18
India,Karnataka,Koppal,"Diwator Nagar, Koppal - KSPCB",04-10-2025 05:00:00,15.347630,76.181767,OZONE,14,19,15
India,Kerala,Thiruvananthapuram,"Plammoodu, Thiruvananthapuram - Kerala PCB",04-10-2025 05:00:00,8.5149093,76.9435879,SO2,12,20,16
India,Kerala,Thiruvananthapuram,"Plammoodu, Thiruvananthapuram - Kerala PCB",04-10-2025 05:00:00,8.5149093,76.9435879,CO,4,49,9
India,Madhya Pradesh,Bhopal,"Paryavaran Parisar, Bhopal - MPPCB",04-10-2025 05:00:00,23.210494,77.425409,PM2.5,27,62,38
India,Madhya Pradesh,Bhopal,"Paryavaran Parisar, Bhopal - MPPCB",04-10-2025 05:00:00,23.210494,77.425409,NO2,10,56,21
India,Madhya Pradesh,Bhopal,"T T Nagar, Bhopal - MPPCB",04-10-2025 05:00:00,23.233584,77.400574,PM2.5,33,66,44
India,Madhya Pradesh,Gwalior,"City Center, Gwalior - MPPCB",04-10-2025 05:00:00,26.203442,78.193251,PM10,23,63,41
India,Madhya Pradesh,Gwalior,"City Center, Gwalior - MPPCB",04-10-2025 05:00:00,26.203442,78.193251,OZONE,15,51,25
India,Madhya Pradesh,Gwalior,"Deen Dayal Nagar, Gwalior - MPPCB",04-10-2025 05:00:00,26.259242,78.216432,NO2,5,37,14
India,Madhya Pradesh,Gwalior,"Deen Dayal Nagar, Gwalior - MPPCB",04-10-2025 05:00:00,26.259242,78.216432,NH3,1,38,7
India,Madhya Pradesh,Gwalior,"Maharaj Bada, Gwalior - MPPCB",04-10-2025 05:00:00,26.200388,78.147714,NH3,2,2,2
India,Madhya Pradesh,Gwalior,"Maharaj Bada, Gwalior - MPPCB",04-10-2025 05:00:00,26.200388,78.147714,SO2,5,11,7
India,Madhya Pradesh,Indore,"Maguda Nagar, Indore - IMC",04-10-2025 05:00:00,22.7524,75.8872,PM10,4,49,23
India,Kerala,Kollam,"Polayathode, Kollam - Kerala PCB",04-10-2025 05:00:00,8.8787,76.6073,NO2,8,10,9
India,Kerala,Thiruvananthapuram,"Plammoodu, Thiruvananthapuram - Kerala PCB",04-10-2025 05:00:00,8.5149093,76.9435879,PM10,1,121,24
India,Kerala,Eloor,"Udyogamandal, Eloor - Kerala PCB",04-10-2025 05:00:00,10.073232,76.302765,NO2,6,8,7
India,Kerala,Eloor,"Udyogamandal, Eloor - Kerala PCB",04-10-2025 05:00:00,10.073232,76.302765,CO,16,136,35
India,Madhya Pradesh,Dewas,"Bhopal Chauraha, Dewas - MPPCB",04-10-2025 05:00:00,22.9682591,76.064118,PM2.5,10,64,29
India,Madhya Pradesh,Dewas,"Bhopal Chauraha, Dewas - MPPCB",04-10-2025 05:00:00,22.9682591,76.064118,CO,4,30,15
India,Madhya Pradesh,Indore,"Regional Park, Indore - IMC",04-10-2025 05:00:00,22.6780,75.8559,PM2.5,5,38,20
India,Madhya Pradesh,Indore,"Regional Park, Indore - IMC",04-10-2025 05:00:00,22.6780,75.8559,NO2,9,14,11
India,Madhya Pradesh,Indore,"Regional Park, Indore - IMC",04-10-2025 05:00:00,22.6780,75.8559,NH3,NA,NA,NA
India,Madhya Pradesh,Indore,"Regional Park, Indore - IMC",04-10-2025 05:00:00,22.6780,75.8559,OZONE,13,33,17
India,Madhya Pradesh,Indore,"Residency Area, Indore - IMC",04-10-2025 05:00:00,22.7084,75.8815,OZONE,8,14,11
India,Madhya Pradesh,Jabalpur,"Govindh Bhavan Colony, Jabalpur - JMC",04-10-2025 05:00:00,23.163174,79.973061,CO,12,32,28
India,Madhya Pradesh,Jabalpur,"Gupteshwar, Jabalpur - JMC",04-10-2025 05:00:00,23.142888,79.916147,NO2,10,19,14
India,Madhya Pradesh,Jabalpur,"Gupteshwar, Jabalpur - JMC",04-10-2025 05:00:00,23.142888,79.916147,SO2,3,5,4
India,Madhya Pradesh,Jabalpur,"Gupteshwar, Jabalpur - JMC",04-10-2025 05:00:00,23.142888,79.916147,OZONE,18,37,19
India,Madhya Pradesh,Jabalpur,"Marhatal, Jabalpur - MPPCB",04-10-2025 05:00:00,23.168606,79.932247,PM10,6,51,23
India,Madhya Pradesh,Jabalpur,"Marhatal, Jabalpur - MPPCB",04-10-2025 05:00:00,23.168606,79.932247,CO,26,95,55
India,Madhya Pradesh,Jabalpur,"Marhatal, Jabalpur - MPPCB",04-10-2025 05:00:00,23.168606,79.932247,OZONE,1,21,10
India,Maharashtra,Badlapur,"Katrap, Badlapur - MPCB",04-10-2025 05:00:00,19.16485,73.23409,PM10,20,128,61
India,Maharashtra,Belapur,"CBD Belapur, Belapur - MPCB",04-10-2025 05:00:00,19.0243902,73.0406721,NH3,4,6,5
India,Maharashtra,Bhiwandi,"Gokul Nagar, Bhiwandi - MPCB",04-10-2025 05:00:00,19.309073,73.057223,NO2,20,33,25
India,Maharashtra,Bhiwandi,"Gokul Nagar, Bhiwandi - MPCB",04-10-2025 05:00:00,19.309073,73.057223,NH3,4,7,5
India,Maharashtra,Boisar,"Khaira, Boisar - MPCB",04-10-2025 05:00:00,19.786089,72.757971,SO2,7,28,17
India,Madhya Pradesh,Sagar,"Civil Lines, Sagar - MPPCB",04-10-2025 05:00:00,23.838586,78.759431,PM2.5,17,52,33
India,Madhya Pradesh,Sagar,"Civil Lines, Sagar - MPPCB",04-10-2025 05:00:00,23.838586,78.759431,NH3,1,1,1
India,Madhya Pradesh,Sagar,"Civil Lines, Sagar - MPPCB",04-10-2025 05:00:00,23.838586,78.759431,CO,24,39,34
India,Madhya Pradesh,Singrauli,"Suryakiran Bhawan NCL, Singrauli - MPPCB",04-10-2025 05:00:00,24.108970,82.645580,PM10,14,51,29
India,Madhya Pradesh,Singrauli,"Suryakiran Bhawan NCL, Singrauli - MPPCB",04-10-2025 05:00:00,24.108970,82.645580,NO2,16,18,17
India,Maharashtra,Ahmednagar,"Tarakpur, Ahmednagar - MPCB",04-10-2025 05:00:00,19.10122,74.73339,PM10,NA,NA,NA
India,Maharashtra,Akola,"Ramdaspeth, Akola - MPCB",04-10-2025 05:00:00,20.719516,77.000253,NH3,4,5,4
India,Maharashtra,Amravati,"Shivneri Colony, Amravati - MPCB",04-10-2025 05:00:00,20.9402359,77.7895248,PM10,33,76,58
India,Maharashtra,Amravati,"Shivneri Colony, Amravati - MPCB",04-10-2025 05:00:00,20.9402359,77.7895248,NO2,6,17,10
India,Madhya Pradesh,Maihar,"Sahilara, Maihar - KJS Cements",04-10-2025 05:00:00,24.2613009,80.7231783,PM2.5,NA,NA,NA
India,Madhya Pradesh,Maihar,"Sahilara, Maihar - KJS Cements",04-10-2025 05:00:00,24.2613009,80.7231783,PM10,NA,NA,NA
India,Madhya Pradesh,Maihar,"Sahilara, Maihar - KJS Cements",04-10-2025 05:00:00,24.2613009,80.7231783,NO2,13,14,13
India,Maharashtra,Amravati,"Shri Shivaji Science College, Amravati - MPCB",04-10-2025 05:00:00,20.939198,77.765701,PM2.5,14,42,29
India,Maharashtra,Amravati,"Shri Shivaji Science College, Amravati - MPCB",04-10-2025 05:00:00,20.939198,77.765701,SO2,18,20,19
India,Madhya Pradesh,Pithampur,"Sector-2 Industrial Area, Pithampur - MPPCB",04-10-2025 05:00:00,22.624758,75.675238,PM10,24,114,61
India,Maharashtra,Aurangabad,"More Chowk Waluj, Aurangabad - MPCB",04-10-2025 05:00:00,19.8389439,75.244448,NO2,14,24,19
India,Maharashtra,Aurangabad,"Rachnakar Colony, Aurangabad - MPCB",04-10-2025 05:00:00,19.863756,75.321188,CO,7,32,15
India,Maharashtra,Chandrapur,"Chauhan Colony, Chandrapur - MPCB",04-10-2025 05:00:00,19.962900,79.298714,NH3,3,3,3
India,Maharashtra,Chandrapur,"Chauhan Colony, Chandrapur - MPCB",04-10-2025 05:00:00,19.962900,79.298714,SO2,34,34,34
India,Maharashtra,Chandrapur,"Chauhan Colony, Chandrapur - MPCB",04-10-2025 05:00:00,19.962900,79.298714,CO,47,75,56
India,Maharashtra,Chandrapur,"MIDC Khutala, Chandrapur - MPCB",04-10-2025 05:00:00,19.9775302,79.2337086,NH3,1,3,2
India,Maharashtra,Dhule,"Deopur, Dhule - MPCB",04-10-2025 05:00:00,20.918946,74.776388,OZONE,14,56,17
India,Maharashtra,Jalgaon,"Prabhat Colony, Jalgaon - MPCB",04-10-2025 05:00:00,21.001264,75.565602,PM2.5,15,46,29
India,Maharashtra,Jalgaon,"Prabhat Colony, Jalgaon - MPCB",04-10-2025 05:00:00,21.001264,75.565602,CO,12,23,17
India,Maharashtra,Jalna,"Old MIDC, Jalna - MPCB",04-10-2025 05:00:00,19.854616,75.905894,PM2.5,9,170,69
India,Maharashtra,Malegaon,"Mahesh Nagar, Malegaon - MPCB",04-10-2025 05:00:00,20.555712,74.529236,CO,9,68,19
India,Maharashtra,Mira-Bhayandar,"Bhayandar West, Mira-Bhayandar - MPCB",04-10-2025 05:00:00,19.296481,72.840923,PM10,24,56,41
India,Maharashtra,Mira-Bhayandar,"Bhayandar West, Mira-Bhayandar - MPCB",04-10-2025 05:00:00,19.296481,72.840923,CO,16,66,35
India,Maharashtra,Mumbai,"Bandra Kurla Complex, Mumbai - IITM",04-10-2025 05:00:00,19.053536,72.84643,NH3,NA,NA,NA
India,Maharashtra,Mumbai,"Bandra Kurla Complex, Mumbai - IITM",04-10-2025 05:00:00,19.053536,72.84643,SO2,NA,NA,NA
India,Maharashtra,Mumbai,"Bandra Kurla Complex, Mumbai - MPCB",04-10-2025 05:00:00,19.065931,72.862131,PM2.5,10,47,24
India,Maharashtra,Jalna,"Old MIDC, Jalna - MPCB",04-10-2025 05:00:00,19.854616,75.905894,NH3,3,6,4
India,Maharashtra,Kalyan,"Pimpleshwar Mandir, Kalyan - MPCB",04-10-2025 05:00:00,19.192056,72.9585188,PM2.5,3,77,34
India,Maharashtra,Kalyan,"Pimpleshwar Mandir, Kalyan - MPCB",04-10-2025 05:00:00,19.192056,72.9585188,PM10,2,74,32
India,Maharashtra,Mumbai,"Borivali East, Mumbai - MPCB",04-10-2025 05:00:00,19.2243333,72.8658113,PM2.5,8,29,18
India,Maharashtra,Mumbai,"Borivali East, Mumbai - MPCB",04-10-2025 05:00:00,19.2243333,72.8658113,NO2,1,9,4
India,Maharashtra,Mumbai,"Byculla, Mumbai - BMC",04-10-2025 05:00:00,18.9767,72.8380,SO2,10,11,10
India,Maharashtra,Mumbai,"Bandra Kurla Complex, Mumbai - MPCB",04-10-2025 05:00:00,19.065931,72.862131,OZONE,1,15,1
India,Maharashtra,Mumbai,"Borivali East, Mumbai - IITM",04-10-2025 05:00:00,19.23241,72.86895,PM2.5,12,62,33
India,Maharashtra,Malegaon,"Mahesh Nagar, Malegaon - MPCB",04-10-2025 05:00:00,20.555712,74.529236,PM2.5,36,63,49
India,Maharashtra,Malegaon,"Mahesh Nagar, Malegaon - MPCB",04-10-2025 05:00:00,20.555712,74.529236,PM10,50,91,63
India,Maharashtra,Mumbai,"Chhatrapati Shivaji Intl. Airport (T2), Mumbai - MPCB",04-10-2025 05:00:00,19.10078,72.87462,SO2,20,21,21
India,Maharashtra,Kolhapur,"Sinchan Bhavan, Kolhapur - MPCB",04-10-2025 05:00:00,16.7143745,74.2426398,CO,7,34,9
India,Maharashtra,Mumbai,"Borivali East, Mumbai - IITM",04-10-2025 05:00:00,19.23241,72.86895,NH3,5,6,5
India,Maharashtra,Mumbai,"Worli, Mumbai - MPCB",04-10-2025 05:00:00,18.9936162,72.8128113,NH3,1,3,2
India,Maharashtra,Mumbai,"Worli, Mumbai - MPCB",04-10-2025 05:00:00,18.9936162,72.8128113,CO,8,23,9
India,Maharashtra,Mumbai,"Worli, Mumbai - MPCB",04-10-2025 05:00:00,18.9936162,72.8128113,OZONE,20,20,20
India,Maharashtra,Nagpur,"Mahal, Nagpur - MPCB",04-10-2025 05:00:00,21.14472,79.107595,SO2,8,36,20
India,Maharashtra,Nagpur,"Opp GPO Civil Lines, Nagpur - MPCB",04-10-2025 05:00:00,21.152875,79.0517531,PM2.5,13,50,28
India,Maharashtra,Nagpur,"Opp GPO Civil Lines, Nagpur - MPCB",04-10-2025 05:00:00,21.152875,79.0517531,PM10,15,59,37
India,Maharashtra,Mumbai,"Deonar, Mumbai - IITM",04-10-2025 05:00:00,19.04946,72.9230,SO2,5,45,14
India,Maharashtra,Mumbai,"Kandivali East, Mumbai - MPCB",04-10-2025 05:00:00,19.205800,72.868200,NH3,1,2,1
India,Maharashtra,Mumbai,"Kandivali West, Mumbai - BMC",04-10-2025 05:00:00,19.215859,72.831718,SO2,1,3,2
India,Maharashtra,Mumbai,"Kherwadi_Bandra East, Mumbai - MPCB",04-10-2025 05:00:00,19.0632143,72.8456324,NO2,2,29,18
India,Maharashtra,Mumbai,"Kherwadi_Bandra East, Mumbai - MPCB",04-10-2025 05:00:00,19.0632143,72.8456324,OZONE,NA,NA,NA
India,Maharashtra,Mumbai,"Vasai West, Mumbai - MPCB",04-10-2025 05:00:00,19.383200,72.820400,OZONE,12,21,14
India,Maharashtra,Mumbai,"Vile Parle West, Mumbai - MPCB",04-10-2025 05:00:00,19.10861,72.83622,PM10,11,32,18
India,Maharashtra,Mumbai,"Vile Parle West, Mumbai - MPCB",04-10-2025 05:00:00,19.10861,72.83622,SO2,11,59,49
India,Maharashtra,Mumbai,"Vile Parle West, Mumbai - MPCB",04-10-2025 05:00:00,19.10861,72.83622,CO,24,26,24
India,Maharashtra,Mumbai,"Worli, Mumbai - MPCB",04-10-2025 05:00:00,18.9936162,72.8128113,PM2.5,56,65,59
India,Maharashtra,Mumbai,"Khindipada-Bhandup West, Mumbai - IITM",04-10-2025 05:00:00,19.1653323,72.922099,CO,22,50,32
India,Maharashtra,Mumbai,"Kurla, Mumbai - MPCB",04-10-2025 05:00:00,19.0863,72.8888,NH3,1,2,1
India,Maharashtra,Mumbai,"Mindspace-Malad West, Mumbai - MPCB",04-10-2025 05:00:00,19.1878657,72.8304069,PM10,33,52,44
India,Maharashtra,Mumbai,"Mindspace-Malad West, Mumbai - MPCB",04-10-2025 05:00:00,19.1878657,72.8304069,NH3,5,6,6
India,Maharashtra,Mumbai,"Siddharth Nagar-Worli, Mumbai - IITM",04-10-2025 05:00:00,19.000083,72.813993,NH3,3,5,4
India,Maharashtra,Mumbai,"Sion, Mumbai - MPCB",04-10-2025 05:00:00,19.047000,72.874600,NO2,11,17,14
India,Maharashtra,Mumbai,"Sion, Mumbai - MPCB",04-10-2025 05:00:00,19.047000,72.874600,OZONE,12,16,16
India,Maharashtra,Mumbai,"Vasai West, Mumbai - MPCB",04-10-2025 05:00:00,19.383200,72.820400,PM2.5,15,61,28
India,Maharashtra,Nagpur,"Opp GPO Civil Lines, Nagpur - MPCB",04-10-2025 05:00:00,21.152875,79.0517531,SO2,4,9,6
India,Maharashtra,Nagpur,"Opp GPO Civil Lines, Nagpur - MPCB",04-10-2025 05:00:00,21.152875,79.0517531,OZONE,4,21,7
India,Maharashtra,Nagpur,"Ram Nagar, Nagpur - MPCB",04-10-2025 05:00:00,21.143383,79.048912,PM2.5,19,49,33
India,Maharashtra,Mumbai,"Navy Nagar-Colaba, Mumbai - IITM",04-10-2025 05:00:00,18.897756,72.813320,SO2,5,14,10
India,Maharashtra,Mumbai,"Sewri, Mumbai - BMC",04-10-2025 05:00:00,19.000084,72.856730,PM10,6,20,10
India,Maharashtra,Mumbai,"Sewri, Mumbai - BMC",04-10-2025 05:00:00,19.000084,72.856730,NO2,1,6,2
India,Maharashtra,Nanded,"Sneh Nagar, Nanded - MPCB",04-10-2025 05:00:00,19.173852,77.296291,SO2,NA,NA,NA
India,Maharashtra,Nanded,"Sneh Nagar, Nanded - MPCB",04-10-2025 05:00:00,19.173852,77.296291,CO,10,63,23
India,Maharashtra,Mumbai,"Deonar, Mumbai - IITM",04-10-2025 05:00:00,19.04946,72.9230,PM2.5,3,31,13
India,Maharashtra,Navi Mumbai,"Kopripada-Vashi, Navi Mumbai - MPCB",04-10-2025 05:00:00,19.090337,73.014232,NH3,3,7,5
India,Maharashtra,Navi Mumbai,"Mahape, Navi Mumbai - MPCB",04-10-2025 05:00:00,19.1135051,73.008978,PM10,38,81,54
India,Maharashtra,Navi Mumbai,"Nerul, Navi Mumbai - MPCB",04-10-2025 05:00:00,19.008751,73.016620,NO2,29,30,29
India,Maharashtra,Navi Mumbai,"Nerul, Navi Mumbai - MPCB",04-10-2025 05:00:00,19.008751,73.016620,SO2,NA,NA,NA
India,Maharashtra,Navi Mumbai,"Sanpada, Navi Mumbai - MPCB",04-10-2025 05:00:00,19.0575752,73.0151367,NH3,11,11,11
India,Maharashtra,Navi Mumbai,"Sector-2E Kalamboli, Navi Mumbai - MPCB",04-10-2025 05:00:00,19.02579,73.10297,PM10,33,80,51
India,Maharashtra,Navi Mumbai,"Sector-2E Kalamboli, Navi Mumbai - MPCB",04-10-2025 05:00:00,19.02579,73.10297,NO2,9,105,30
India,Maharashtra,Navi Mumbai,"Sector-2E Kalamboli, Navi Mumbai - MPCB",04-10-2025 05:00:00,19.02579,73.10297,OZONE,2,23,3
India,Maharashtra,Parbhani,"Masoom Colony, Parbhani - MPCB",04-10-2025 05:00:00,19.265594,76.761463,PM2.5,17,55,33
India,Maharashtra,Nashik,"Gangapur Road, Nashik - MPCB",04-10-2025 05:00:00,20.0073285,73.7762427,PM10,24,68,44
India,Maharashtra,Nashik,"Hirawadi, Nashik - MPCB",04-10-2025 05:00:00,20.021503,73.813844,PM2.5,8,28,17
India,Maharashtra,Nashik,"Hirawadi, Nashik - MPCB",04-10-2025 05:00:00,20.021503,73.813844,PM10,35,63,49
India,Maharashtra,Pimpri-Chinchwad,"Park Street Wakad, Pimpri Chinchwad - MPCB",04-10-2025 05:00:00,18.59051,73.77946,OZONE,2,17,5
India,Maharashtra,Pimpri-Chinchwad,"Savta Mali Nagar, Pimpri-Chinchwad - IITM",04-10-2025 05:00:00,18.614767,73.799516,NO2,NA,NA,NA
India,Maharashtra,Nashik,"MIDC Ambad, Nashik - MPCB",04-10-2025 05:00:00,19.950220,73.731480,OZONE,4,53,15
India,Maharashtra,Nashik,"Pandav Nagari, Nashik - MPCB",04-10-2025 05:00:00,19.9591346,73.7788008,PM2.5,5,45,24
India,Maharashtra,Pimpri-Chinchwad,"Thergaon, Pimpri Chinchwad - MPCB",04-10-2025 05:00:00,18.616318,73.765797,PM10,24,100,59
India,Maharashtra,Pimpri-Chinchwad,"Thergaon, Pimpri Chinchwad - MPCB",04-10-2025 05:00:00,18.616318,73.765797,NO2,40,54,49
India,Maharashtra,Nashik,"Hirawadi, Nashik - MPCB",04-10-2025 05:00:00,20.021503,73.813844,SO2,1,8,3
India,Maharashtra,Nashik,"Hirawadi, Nashik - MPCB",04-10-2025 05:00:00,20.021503,73.813844,CO,28,42,31
India,Maharashtra,Parbhani,"Masoom Colony, Parbhani - MPCB",04-10-2025 05:00:00,19.265594,76.761463,NO2,2,3,2
India,Maharashtra,Parbhani,"Masoom Colony, Parbhani - MPCB",04-10-2025 05:00:00,19.265594,76.761463,SO2,2,25,15
India,Maharashtra,Nashik,"Pandav Nagari, Nashik - MPCB",04-10-2025 05:00:00,19.9591346,73.7788008,NO2,1,6,3
India,Maharashtra,Nashik,"Pandav Nagari, Nashik - MPCB",04-10-2025 05:00:00,19.9591346,73.7788008,SO2,1,6,4
India,Maharashtra,Pune,"Dhankawadi, Pune - IITM",04-10-2025 05:00:00,18.459883,73.852193,PM10,7,44,20
India,Maharashtra,Pune,"Hadapsar, Pune - IITM",04-10-2025 05:00:00,18.501793,73.927532,PM2.5,22,22,22
India,Maharashtra,Pune,"Hadapsar, Pune - IITM",04-10-2025 05:00:00,18.501793,73.927532,NO2,16,17,16
India,Maharashtra,Pune,"Katraj Dairy, Pune - MPCB",04-10-2025 05:00:00,18.454450,73.854155,PM2.5,NA,NA,NA
India,Maharashtra,Pune,"Mhada Colony, Pune - IITM",04-10-2025 05:00:00,18.573040,73.927715,OZONE,11,37,12
India,Maharashtra,Pune,"Panchawati_Pashan, Pune - IITM",04-10-2025 05:00:00,18.536457,73.805454,PM10,27,49,35
India,Nagaland,Kohima,"PWD Junction, Kohima - NPCB",04-10-2025 05:00:00,25.6635413,94.0989878,SO2,68,71,69
India,Nagaland,Kohima,"PWD Junction, Kohima - NPCB",04-10-2025 05:00:00,25.6635413,94.0989878,CO,2,14,7
India,Odisha,Angul,"Hakimapada, Angul - OSPCB",04-10-2025 05:00:00,20.832874,85.104082,PM10,9,40,24
India,Odisha,Angul,"Hakimapada, Angul - OSPCB",04-10-2025 05:00:00,20.832874,85.104082,SO2,5,98,13
India,Odisha,Angul,"Hakimapada, Angul - OSPCB",04-10-2025 05:00:00,20.832874,85.104082,CO,42,63,50
India,Odisha,Angul,"Hakimapada, Angul - OSPCB",04-10-2025 05:00:00,20.832874,85.104082,OZONE,2,7,3
India,Maharashtra,Virar,"Bolinj, Virar - MPCB",04-10-2025 05:00:00,19.4458210,72.7988231,SO2,NA,NA,NA
India,Maharashtra,Virar,"Bolinj, Virar - MPCB",04-10-2025 05:00:00,19.4458210,72.7988231,CO,19,86,39
India,Meghalaya,Shillong,"JN Stadium, Shillong - Meghalaya PCB",04-10-2025 05:00:00,25.5803419,91.8942571,PM2.5,2,27,11
India,Meghalaya,Shillong,"Lumpyngngad, Shillong - Meghalaya PCB",04-10-2025 05:00:00,25.5586,91.8985,SO2,5,6,5
India,Maharashtra,Pune,"Savitribai Phule Pune University, Pune - MPCB",04-10-2025 05:00:00,18.547056,73.826908,SO2,3,4,4
India,Maharashtra,Pune,"Transport Nagar-Nigdi, Pune - IITM",04-10-2025 05:00:00,18.664282,73.763966,NO2,15,17,16
India,Maharashtra,Sangli,"Vijay Nagar, Sangli - MPCB",04-10-2025 05:00:00, 16.5038,74.3623,NO2,1,11,4
India,Maharashtra,Thane,"Upvan Fort, Thane - MPCB",04-10-2025 05:00:00,19.222279,72.957979,OZONE,11,27,12
India,Maharashtra,Ulhasnagar,"Sidhi Vinayak Nagar, Ulhasnagar - MPCB",04-10-2025 05:00:00,19.235581,73.159121,SO2,2,20,9
India,Maharashtra,Solapur,"Dnyaneshwar Nagar, Solapur - MPCB",04-10-2025 05:00:00,17.6336264,75.9132495,CO,6,29,12
India,Maharashtra,Solapur,"Ratandeep Housing Society, Solapur - MPCB",04-10-2025 05:00:00,17.65439,75.90649,NO2,4,39,14
India,Maharashtra,Thane,"Upvan Fort, Thane - MPCB",04-10-2025 05:00:00,19.222279,72.957979,NO2,5,26,13
India,Maharashtra,Thane,"Upvan Fort, Thane - MPCB",04-10-2025 05:00:00,19.222279,72.957979,SO2,1,5,3
India,Maharashtra,Pune,"Savitribai Phule Pune University, Pune - MPCB",04-10-2025 05:00:00,18.547056,73.826908,PM10,18,48,32
India,Maharashtra,Ulhasnagar,"Sidhi Vinayak Nagar, Ulhasnagar - MPCB",04-10-2025 05:00:00,19.235581,73.159121,OZONE,6,39,10
India,Odisha,Balasore,"Kalidaspur, Balasore - OSPCB",04-10-2025 05:00:00,21.51161,86.89088,PM10,19,41,30
India,Odisha,Balasore,"Kalidaspur, Balasore - OSPCB",04-10-2025 05:00:00,21.51161,86.89088,SO2,4,12,7
India,Odisha,Barbil,"Forest Office, Barbil - OSPCB",04-10-2025 05:00:00,22.1166054,85.3945546,PM10,18,103,39
India,Odisha,Brajrajnagar,"GM Office, Brajrajnagar - OSPCB",04-10-2025 05:00:00,21.8004996,83.8396977,CO,9,21,13
India,Odisha,Cuttack,"CDA Area, Cuttack - OSPCB",04-10-2025 05:00:00,20.48891     ,85.84768     ,PM10,25,79,58
India,Odisha,Cuttack,"CDA Area, Cuttack - OSPCB",04-10-2025 05:00:00,20.48891     ,85.84768     ,CO,30,38,34
India,Odisha,Bhubaneswar,"Lingraj Mandir, Bhubaneswar - OSPCB",04-10-2025 05:00:00,20.240790,85.836784,SO2,4,8,6
India,Odisha,Bhubaneswar,"Patia, Bhubaneswar - OSPCB",04-10-2025 05:00:00,20.34652,85.81630,NH3,10,16,14
India,Odisha,Bhubaneswar,"Patia, Bhubaneswar - OSPCB",04-10-2025 05:00:00,20.34652,85.81630,CO,28,38,31
India,Odisha,Baripada,"Meher Colony, Baripada - OSPCB",04-10-2025 05:00:00,21.941841,86.728318,NH3,1,1,1
India,Odisha,Bhubaneswar,"Lingraj Mandir, Bhubaneswar - OSPCB",04-10-2025 05:00:00,20.240790,85.836784,PM10,21,63,45
India,Odisha,Keonjhar,"Jagamohanpur, Keonjhar - OSPCB",04-10-2025 05:00:00,21.643900,85.599355,OZONE,13,28,18
India,Odisha,Nayagarh,"Dabuna, Nayagarh - OSPCB",04-10-2025 05:00:00,21.847279,85.416905,SO2,NA,NA,NA
India,Odisha,Brajrajnagar,"GM Office, Brajrajnagar - OSPCB",04-10-2025 05:00:00,21.8004996,83.8396977,NH3,8,67,22
India,Odisha,Brajrajnagar,"GM Office, Brajrajnagar - OSPCB",04-10-2025 05:00:00,21.8004996,83.8396977,SO2,15,16,16
India,Odisha,Bileipada,"Tata Township, Bileipada - OSPCB",04-10-2025 05:00:00,22.06156703,85.47409613,CO,62,67,65
India,Odisha,Brajrajnagar,"GM Office, Brajrajnagar - OSPCB",04-10-2025 05:00:00,21.8004996,83.8396977,PM10,1,24,10
India,Odisha,Baripada,"Meher Colony, Baripada - OSPCB",04-10-2025 05:00:00,21.941841,86.728318,NO2,2,18,9
India,Odisha,Rourkela,"Raghunathpali, Rourkela - OSPCB",04-10-2025 05:00:00,22.220833,84.809444,NH3,1,1,1
India,Odisha,Rourkela,"Raghunathpali, Rourkela - OSPCB",04-10-2025 05:00:00,22.220833,84.809444,SO2,5,6,6
India,Odisha,Talcher,"Talcher Coalfields,Talcher - OSPCB",04-10-2025 05:00:00,20.9360711,85.1707021,SO2,NA,NA,NA
India,Odisha,Talcher,"Talcher Coalfields,Talcher - OSPCB",04-10-2025 05:00:00,20.9360711,85.1707021,OZONE,NA,NA,NA
India,Punjab,Amritsar,"Golden Temple, Amritsar - PPCB",04-10-2025 05:00:00,31.620000,74.876512,PM10,88,108,100
India,Punjab,Amritsar,"Golden Temple, Amritsar - PPCB",04-10-2025 05:00:00,31.620000,74.876512,CO,44,78,57
India,Punjab,Bathinda,"Hardev Nagar, Bathinda - PPCB",04-10-2025 05:00:00,30.233011,74.907758,PM2.5,5,97,42
India,Rajasthan,Banswara,"Rati Talai, Banswara - RSPCB",04-10-2025 05:00:00,23.555190,74.440010,NO2,6,26,15
India,Rajasthan,Baran,"Bamboliya, Baran - RSPCB",04-10-2025 05:00:00,25.106006,76.469948,SO2,1,7,4
India,Rajasthan,Baran,"Bamboliya, Baran - RSPCB",04-10-2025 05:00:00,25.106006,76.469948,OZONE,12,89,41
India,Rajasthan,Barmer,"Railway Colony, Barmer - RSPCB",04-10-2025 05:00:00,25.747299,71.393989,PM2.5,2,23,12
India,Rajasthan,Barmer,"Railway Colony, Barmer - RSPCB",04-10-2025 05:00:00,25.747299,71.393989,NH3,2,4,3
India,Rajasthan,Barmer,"Railway Colony, Barmer - RSPCB",04-10-2025 05:00:00,25.747299,71.393989,SO2,2,5,3
India,Punjab,Mandi Gobindgarh,"RIMT University, Mandi Gobindgarh - PPCB",04-10-2025 05:00:00,30.649961,76.331442,PM10,23,176,84
India,Odisha,Rairangpur,"Divisional Forest Office, Rairangpur - OSPCB",04-10-2025 05:00:00,22.265816,86.174829,CO,18,42,29
India,Punjab,Mandi Gobindgarh,"RIMT University, Mandi Gobindgarh - PPCB",04-10-2025 05:00:00,30.649961,76.331442,NH3,6,6,6
India,Punjab,Ludhiana,"Punjab Agricultural University, Ludhiana - PPCB",04-10-2025 05:00:00,30.9028,75.8086,CO,20,48,36
India,Rajasthan,Bharatpur,"Krishna Nagar, Bharatpur - RSPCB",04-10-2025 05:00:00,27.215415,77.50873,NH3,4,9,6
India,Rajasthan,Ajmer,"Civil Lines,  Ajmer - RSPCB",04-10-2025 05:00:00,26.470859,74.646594,NH3,3,5,4
India,Punjab,Khanna,"Kalal Majra, Khanna - PPCB",04-10-2025 05:00:00,30.736056 ,76.209694,NH3,7,8,7
India,Rajasthan,Bikaner,"MM Ground, Bikaner - RSPCB",04-10-2025 05:00:00,28.018792,73.292658,PM10,16,214,97
India,Rajasthan,Bikaner,"MM Ground, Bikaner - RSPCB",04-10-2025 05:00:00,28.018792,73.292658,NO2,6,63,28
India,Rajasthan,Bikaner,"MM Ground, Bikaner - RSPCB",04-10-2025 05:00:00,28.018792,73.292658,NH3,2,8,6
India,Rajasthan,Bikaner,"MM Ground, Bikaner - RSPCB",04-10-2025 05:00:00,28.018792,73.292658,SO2,1,2,1
India,Rajasthan,Bikaner,"MM Ground, Bikaner - RSPCB",04-10-2025 05:00:00,28.018792,73.292658,CO,12,89,23
India,Rajasthan,Bundi,"New Colony, Bundi - RSPCB",04-10-2025 05:00:00,25.435774,75.644272,OZONE,16,57,25
India,Rajasthan,Chittorgarh,"Shastri Nagar, Chittorgarh - RSPCB",04-10-2025 05:00:00,24.892047,74.623527,NO2,7,32,15
India,Rajasthan,Dausa,"Khatikan Mohalla, Dausa - RSPCB",04-10-2025 05:00:00,26.895552,76.334753,CO,8,24,20
India,Rajasthan,Dholpur,"Raja Ganj, Dholpur - RSPCB",04-10-2025 05:00:00,26.699557,77.898881,NO2,NA,NA,NA
India,Rajasthan,Dungarpur,"Bhoiwada, Dungarpur - RSPCB",04-10-2025 05:00:00,23.837789,73.714926,PM10,30,66,42
India,Rajasthan,Dungarpur,"Bhoiwada, Dungarpur - RSPCB",04-10-2025 05:00:00,23.837789,73.714926,NH3,4,5,4
India,Rajasthan,Jaipur,"Adarsh Nagar, Jaipur - RSPCB",04-10-2025 05:00:00,26.902909,75.836858,PM2.5,23,95,54
India,Rajasthan,Jaipur,"Adarsh Nagar, Jaipur - RSPCB",04-10-2025 05:00:00,26.902909,75.836858,CO,45,81,58
India,Rajasthan,Jaipur,"Adarsh Nagar, Jaipur - RSPCB",04-10-2025 05:00:00,26.902909,75.836858,OZONE,17,69,20
India,Rajasthan,Jaipur,"Mansarovar Sector-12, Jaipur - RSPCB",04-10-2025 05:00:00,26.843698,75.766894,PM2.5,17,91,42
India,Rajasthan,Jaipur,"Police Commissionerate, Jaipur - RSPCB",04-10-2025 05:00:00,26.9164092,75.7994901,OZONE,20,38,22
India,Rajasthan,Jaipur,"RIICO Sitapura, Jaipur - RSPCB",04-10-2025 05:00:00,26.786682,75.827928,PM2.5,18,117,52
India,Rajasthan,Jaipur,"RIICO Sitapura, Jaipur - RSPCB",04-10-2025 05:00:00,26.786682,75.827928,NO2,8,88,34
India,Rajasthan,Churu,"Subash Chowk, Churu - RSPCB",04-10-2025 05:00:00,28.296139,74.961696,SO2,2,5,3
India,Rajasthan,Dausa,"Khatikan Mohalla, Dausa - RSPCB",04-10-2025 05:00:00,26.895552,76.334753,PM2.5,3,35,15
India,Rajasthan,Dausa,"Khatikan Mohalla, Dausa - RSPCB",04-10-2025 05:00:00,26.895552,76.334753,NO2,10,31,19
India,Rajasthan,Jaipur,"RIICO Sitapura, Jaipur - RSPCB",04-10-2025 05:00:00,26.786682,75.827928,SO2,4,7,6
India,Rajasthan,Jaipur,"RIICO Sitapura, Jaipur - RSPCB",04-10-2025 05:00:00,26.786682,75.827928,CO,14,98,50
India,Rajasthan,Jaipur,"RIICO Sitapura, Jaipur - RSPCB",04-10-2025 05:00:00,26.786682,75.827928,OZONE,9,84,12
India,Rajasthan,Bhiwadi,"Vasundhara Nagar_UIT, Bhiwadi - RSPCB",04-10-2025 05:00:00,28.207266,76.829265,NO2,14,124,52
India,Rajasthan,Bhiwadi,"Vasundhara Nagar_UIT, Bhiwadi - RSPCB",04-10-2025 05:00:00,28.207266,76.829265,NH3,2,4,3
India,Rajasthan,Jaipur,"Police Commissionerate, Jaipur - RSPCB",04-10-2025 05:00:00,26.9164092,75.7994901,PM10,31,117,72
India,Rajasthan,Bhilwara,"Pratap Nagar, Bhilwara - RSPCB",04-10-2025 05:00:00,25.339605,74.618883,NO2,5,22,10
India,Rajasthan,Jalore,"Mudtra Sili, Jalore - RSPCB",04-10-2025 05:00:00,25.344694,72.626208,OZONE,15,70,41
India,Rajasthan,Jhalawar,"Rajlaxmi Nagar, Jhalawar - RSPCB",04-10-2025 05:00:00,24.588397,76.172782,PM10,26,57,38
India,Rajasthan,Jhalawar,"Rajlaxmi Nagar, Jhalawar - RSPCB",04-10-2025 05:00:00,24.588397,76.172782,NO2,24,57,42
India,Rajasthan,Jhunjhunu,"Indra Nagar, Jhunjhunu - RSPCB",04-10-2025 05:00:00,28.108988,75.386577,SO2,2,5,4
India,Rajasthan,Jodhpur,"Collectorate, Jodhpur - RSPCB",04-10-2025 05:00:00,26.268249,73.0193853,PM2.5,24,163,55
India,Rajasthan,Jodhpur,"Collectorate, Jodhpur - RSPCB",04-10-2025 05:00:00,26.268249,73.0193853,SO2,1,15,5
India,Rajasthan,Jodhpur,"Samrat Ashok Udhyan, Jodhpur - RSPCB",04-10-2025 05:00:00,26.253384,72.976571,SO2,3,10,5
India,Rajasthan,Jodhpur,"Samrat Ashok Udhyan, Jodhpur - RSPCB",04-10-2025 05:00:00,26.253384,72.976571,CO,17,28,26
India,Rajasthan,Karauli,"Satyawati Vihar, Karauli - RSPCB",04-10-2025 05:00:00,26.506177,77.025989,OZONE,2,25,5
India,Rajasthan,Kota,"Dhanmandi, Kota - RSPCB",04-10-2025 05:00:00,25.164090,75.858137,NO2,13,59,28
India,Rajasthan,Kota,"Dhanmandi, Kota - RSPCB",04-10-2025 05:00:00,25.164090,75.858137,SO2,1,28,3
India,Rajasthan,Kota,"Dhanmandi, Kota - RSPCB",04-10-2025 05:00:00,25.164090,75.858137,CO,18,48,33
India,Rajasthan,Kota,"Shrinath Puram, Kota - RSPCB",04-10-2025 05:00:00,25.14389,75.821256,PM2.5,43,116,69
India,Rajasthan,Kota,"Shrinath Puram, Kota - RSPCB",04-10-2025 05:00:00,25.14389,75.821256,NH3,1,3,2
India,Rajasthan,Pali,"Indira Colony Vistar, Pali - RSPCB",04-10-2025 05:00:00,25.771061, 73.340227,PM2.5,52,99,72
India,Rajasthan,Jodhpur,"Jhalamand, Jodhpur - RSPCB",04-10-2025 05:00:00,26.215415,73.070156,PM2.5,8,40,25
India,Rajasthan,Jodhpur,"Jhalamand, Jodhpur - RSPCB",04-10-2025 05:00:00,26.215415,73.070156,NH3,4,13,7
India,Rajasthan,Jodhpur,"Mandor, Jodhpur - RSPCB",04-10-2025 05:00:00,26.358805,73.047444,NH3,1,5,2
India,Rajasthan,Jaipur,"Sector-2 Murlipura, Jaipur - RSPCB",04-10-2025 05:00:00,26.960669,75.771817,CO,1,36,15
India,Rajasthan,Jodhpur,"Digari Kalan, Jodhpur - RSPCB",04-10-2025 05:00:00,26.295810,73.082283,PM10,11,64,26
India,Rajasthan,Jaipur,"Shastri Nagar, Jaipur - RSPCB",04-10-2025 05:00:00,26.9502929,75.730943,NO2,42,76,61
India,Rajasthan,Jodhpur,"Digari Kalan, Jodhpur - RSPCB",04-10-2025 05:00:00,26.295810,73.082283,OZONE,10,90,25
India,Rajasthan,Kota,"Dhanmandi, Kota - RSPCB",04-10-2025 05:00:00,25.164090,75.858137,OZONE,10,59,18
India,Rajasthan,Udaipur,"Ashok Nagar, Udaipur - RSPCB",04-10-2025 05:00:00,24.5886166,73.6321397,CO,8,90,26
India,Sikkim,Gangtok,"Zero Point GICI, Gangtok - SSPCB",04-10-2025 05:00:00,27.338530,88.614099,CO,1,6,3
India,TamilNadu,Ariyalur,"Keelapalur, Ariyalur - TNPCB",04-10-2025 05:00:00,11.06825,79.07033,NO2,NA,NA,NA
India,TamilNadu,Chengalpattu,"Crescent University, Chengalpattu - TNPCB",04-10-2025 05:00:00,12.8777316,80.0834807,NH3,1,1,1
India,TamilNadu,Chengalpattu,"Crescent University, Chengalpattu - TNPCB",04-10-2025 05:00:00,12.8777316,80.0834807,CO,5,9,7
India,TamilNadu,Chengalpattu,"Crescent University, Chengalpattu - TNPCB",04-10-2025 05:00:00,12.8777316,80.0834807,OZONE,2,27,13
India,Rajasthan,Sikar,"Radhakishan Pura, Sikar - RSPCB",04-10-2025 05:00:00,27.608912,75.153302,CO,15,54,21
India,Rajasthan,Sirohi,"Vedhaynath Colony, Sirohi - RSPCB",04-10-2025 05:00:00,24.885261,72.857549,NO2,5,29,12
India,Rajasthan,Sirohi,"Vedhaynath Colony, Sirohi - RSPCB",04-10-2025 05:00:00,24.885261,72.857549,CO,5,48,34
India,Rajasthan,Sirohi,"Vedhaynath Colony, Sirohi - RSPCB",04-10-2025 05:00:00,24.885261,72.857549,OZONE,2,46,18
India,Rajasthan,Sri Ganganagar,"Old City, Sri Ganganagar - RSPCB",04-10-2025 05:00:00,29.931624,73.864511,PM2.5,48,75,60
India,TamilNadu,Chennai,"Velachery Res. Area, Chennai - CPCB",04-10-2025 05:00:00,13.0052189,80.2398125,SO2,8,12,9
India,TamilNadu,Coimbatore,"PSG College of Arts and Science, Coimbatore - TNPCB",04-10-2025 05:00:00,11.0328,77.0349,PM2.5,39,153,83
India,Rajasthan,Sri Ganganagar,"Old City, Sri Ganganagar - RSPCB",04-10-2025 05:00:00,29.931624,73.864511,NH3,3,5,4
India,Rajasthan,Tonk,"Shastri Nagar, Tonk - RSPCB",04-10-2025 05:00:00,26.159933,75.780517,PM10,38,99,71
India,TamilNadu,Chennai,"Kodungaiyur, Chennai - TNPCB",04-10-2025 05:00:00,13.1278,80.2642,NH3,6,8,7
India,TamilNadu,Chennai,"Manali Village, Chennai - TNPCB",04-10-2025 05:00:00,13.1662,80.2584,PM10,NA,NA,NA
India,TamilNadu,Chennai,"Velachery Res. Area, Chennai - CPCB",04-10-2025 05:00:00,13.0052189,80.2398125,PM10,38,75,59
India,TamilNadu,Chennai,"Velachery Res. Area, Chennai - CPCB",04-10-2025 05:00:00,13.0052189,80.2398125,NH3,3,4,4
India,TamilNadu,Chennai,"Kodungaiyur, Chennai - TNPCB",04-10-2025 05:00:00,13.1278,80.2642,PM2.5,17,67,46
India,TamilNadu,Chennai,"Kodungaiyur, Chennai - TNPCB",04-10-2025 05:00:00,13.1278,80.2642,NO2,7,26,11
India,Rajasthan,Rajsamand,"Dhoinda, Rajsamand - RSPCB",04-10-2025 05:00:00,25.036360,73.883502,NH3,8,12,9
India,Rajasthan,Tonk,"Shastri Nagar, Tonk - RSPCB",04-10-2025 05:00:00,26.159933,75.780517,CO,12,48,25
India,TamilNadu,Nagapattinam,"Velippalayam, Nagapattinam - TNPCB",04-10-2025 05:00:00,10.798548,79.838212,NO2,5,5,5
India,TamilNadu,Nagapattinam,"Velippalayam, Nagapattinam - TNPCB",04-10-2025 05:00:00,10.798548,79.838212,NH3,2,2,2
India,TamilNadu,Namakkal,"Ponnusamy Nagar, Namakkal - TNPCB",04-10-2025 05:00:00,11.273992,78.163545,NO2,7,11,9
India,TamilNadu,Namakkal,"Ponnusamy Nagar, Namakkal - TNPCB",04-10-2025 05:00:00,11.273992,78.163545,CO,9,14,11
India,TamilNadu,Palkalaiperur,"Bharathidasan University, Palkalaiperur - TNPCB",04-10-2025 05:00:00,10.681158,78.741746,NO2,7,7,7
India,TamilNadu,Kanchipuram,"Kilambi, Kanchipuram - TNPCB",04-10-2025 05:00:00,12.864618,79.659968,PM2.5,44,89,65
India,TamilNadu,Kanchipuram,"Kilambi, Kanchipuram - TNPCB",04-10-2025 05:00:00,12.864618,79.659968,PM10,39,73,53
India,TamilNadu,Karur,"Kamadenu Nagar, Karur - TNPCB",04-10-2025 05:00:00,10.967820,78.080882,NO2,5,6,6
India,TamilNadu,Madurai,"Uchapatti, Madurai - TNPCB",04-10-2025 05:00:00,9.865935,78.022669,PM10,13,63,30
India,TamilNadu,Ramanathapuram,"Chalai Bazaar, Ramanathapuram - TNPCB",04-10-2025 05:00:00,9.36399,78.831977,OZONE,2,10,3
India,TamilNadu,Salem,"Sona College of Technology, Salem - TNPCB",04-10-2025 05:00:00,11.679111,78.125052,OZONE,20,21,20
India,TamilNadu,Thanjavur,"Parisutham Nagar, Thanjavur - TNPCB",04-10-2025 05:00:00,10.7654824,79.1389968,PM10,12,70,33
India,TamilNadu,Coimbatore,"SIDCO Kurichi, Coimbatore - TNPCB",04-10-2025 05:00:00,10.942451,76.978996,CO,22,34,30
India,TamilNadu,Cuddalore,"Kudikadu, Cuddalore - TNPCB",04-10-2025 05:00:00,11.6829898,79.7532099,PM10,13,146,60
India,TamilNadu,Cuddalore,"Kudikadu, Cuddalore - TNPCB",04-10-2025 05:00:00,11.6829898,79.7532099,OZONE,6,9,7
India,TamilNadu,Ramanathapuram,"Chalai Bazaar, Ramanathapuram - TNPCB",04-10-2025 05:00:00,9.36399,78.831977,PM2.5,19,57,34
India,TamilNadu,Pudukottai,"SIPCOT Nathampannai, Pudukottai - TNPCB",04-10-2025 05:00:00,10.423417,78.784889,PM10,9,45,28
India,TamilNadu,Ramanathapuram,"Chalai Bazaar, Ramanathapuram - TNPCB",04-10-2025 05:00:00,9.36399,78.831977,CO,25,30,27
India,TamilNadu,Dindigul,"Mendonsa Colony, Dindigul - TNPCB",04-10-2025 05:00:00,10.358535,77.984321,NO2,6,36,18
India,TamilNadu,Dindigul,"Mendonsa Colony, Dindigul - TNPCB",04-10-2025 05:00:00,10.358535,77.984321,OZONE,NA,NA,NA
India,TamilNadu,Thoothukudi,"Meelavittan, Thoothukudi - TNPCB",04-10-2025 05:00:00,8.816428 ,78.099039,NO2,10,67,16
India,TamilNadu,Tiruchirappalli,"St Joseph College, Tiruchirappalli - TNPCB",04-10-2025 05:00:00,10.830158,78.691849,PM2.5,25,44,36
India,TamilNadu,Tiruchirappalli,"St Joseph College, Tiruchirappalli - TNPCB",04-10-2025 05:00:00,10.830158,78.691849,NO2,4,10,8
India,TamilNadu,Tiruchirappalli,"St Joseph College, Tiruchirappalli - TNPCB",04-10-2025 05:00:00,10.830158,78.691849,OZONE,5,27,16
India,TamilNadu,Tirupur,"Kumaran College, Tirupur - TNPCB",04-10-2025 05:00:00,11.0973603,77.3228673,OZONE,3,3,3
India,TamilNadu,Vellore,"Vasanthapuram, Vellore - TNPCB",04-10-2025 05:00:00,12.909494,79.131861,SO2,NA,NA,NA
India,TamilNadu,Virudhunagar,"Collectorate Office, Virudhunagar - TNPCB",04-10-2025 05:00:00,9.559382,77.948828,NH3,6,8,7
India,TamilNadu,Virudhunagar,"Collectorate Office, Virudhunagar - TNPCB",04-10-2025 05:00:00,9.559382,77.948828,CO,18,22,19
India,TamilNadu,Virudhunagar,"Collectorate Office, Virudhunagar - TNPCB",04-10-2025 05:00:00,9.559382,77.948828,OZONE,3,5,4
India,Telangana,Hyderabad,"Bollaram Industrial Area, Hyderabad - TSPCB",04-10-2025 05:00:00,17.540891,78.358528,NO2,16,61,36
India,Telangana,Hyderabad,"Bollaram Industrial Area, Hyderabad - TSPCB",04-10-2025 05:00:00,17.540891,78.358528,NH3,2,8,5
India,Telangana,Hyderabad,"ECIL Kapra, Hyderabad - TSPCB",04-10-2025 05:00:00,17.470431,78.566959,PM10,63,74,67
India,Telangana,Hyderabad,"ICRISAT Patancheru, Hyderabad - TSPCB",04-10-2025 05:00:00,17.518400,78.278777,PM2.5,42,82,62
India,Telangana,Hyderabad,"Nacharam_TSIIC IALA, Hyderabad - TSPCB",04-10-2025 05:00:00,17.429398,78.569354,NH3,NA,NA,NA
India,Telangana,Hyderabad,"Nacharam_TSIIC IALA, Hyderabad - TSPCB",04-10-2025 05:00:00,17.429398,78.569354,SO2,NA,NA,NA
India,Telangana,Hyderabad,"Nacharam_TSIIC IALA, Hyderabad - TSPCB",04-10-2025 05:00:00,17.429398,78.569354,CO,NA,NA,NA
India,Telangana,Hyderabad,"Bollaram Industrial Area, Hyderabad - TSPCB",04-10-2025 05:00:00,17.540891,78.358528,SO2,3,12,7
India,Telangana,Hyderabad,"IDA Pashamylaram, Hyderabad - TSPCB",04-10-2025 05:00:00,17.5316895,78.218939,NH3,1,11,6
India,Telangana,Hyderabad,"ICRISAT Patancheru, Hyderabad - TSPCB",04-10-2025 05:00:00,17.518400,78.278777,NH3,1,5,1
India,Tripura,Agartala,"Bardowali, Agartala - Tripura SPCB",04-10-2025 05:00:00,23.8175497,91.2726974,PM10,14,40,30
India,Telangana,Hyderabad,"New Malakpet, Hyderabad - TSPCB",04-10-2025 05:00:00,17.37206,78.50864,CO,20,32,21
India,Uttar_Pradesh,Kanpur,"FTI Kidwai Nagar, Kanpur - UPPCB",04-10-2025 05:00:00,26.428282,80.327067,CO,28,34,31
India,Uttar_Pradesh,Kanpur,"NSI Kalyanpur, Kanpur - UPPCB",04-10-2025 05:00:00,26.509954,80.249612,SO2,14,69,20
India,Uttar_Pradesh,Kanpur,"Nehru Nagar, Kanpur - UPPCB",04-10-2025 05:00:00,26.4703136,80.3229863,SO2,12,14,13
India,Uttar_Pradesh,Kanpur,"Nehru Nagar, Kanpur - UPPCB",04-10-2025 05:00:00,26.4703136,80.3229863,OZONE,6,42,6
India,Uttar_Pradesh,Khurja,"Kalindi Kunj, Khurja - UPPCB",04-10-2025 05:00:00,28.2348927,77.8683002,PM2.5,12,49,29
India,Uttar_Pradesh,Khurja,"Kalindi Kunj, Khurja - UPPCB",04-10-2025 05:00:00,28.2348927,77.8683002,SO2,15,15,15
India,Uttar_Pradesh,Lucknow,"B R Ambedkar University, Lucknow - UPPCB",04-10-2025 05:00:00,26.766433,80.927299,CO,56,70,60
India,Uttar_Pradesh,Lucknow,"Gomti Nagar, Lucknow - UPPCB",04-10-2025 05:00:00,26.868120,81.005119,CO,36,40,36
India,Uttar_Pradesh,Lucknow,"Gomti Nagar, Lucknow - UPPCB",04-10-2025 05:00:00,26.868120,81.005119,OZONE,36,44,37
India,Uttar_Pradesh,Agra,"Shastripuram, Agra - UPPCB",04-10-2025 05:00:00,27.19862,77.92066,SO2,17,32,25
India,Uttar_Pradesh,Baghpat,"Sardar Patel Inter College, Baghpat - UPPCB",04-10-2025 05:00:00,28.964949,77.278761,CO,32,52,46
India,Uttar_Pradesh,Firozabad,"Nagla Bhau, Firozabad - UPPCB",04-10-2025 05:00:00,27.168897,78.376960,PM10,10,29,17
India,Tripura,Agartala,"Bardowali, Agartala - Tripura SPCB",04-10-2025 05:00:00,23.8175497,91.2726974,SO2,26,26,26
India,Uttar_Pradesh,Agra,"Manoharpur, Agra - UPPCB",04-10-2025 05:00:00,27.23711,78.01936,PM2.5,13,94,40
India,Uttar_Pradesh,Agra,"Manoharpur, Agra - UPPCB",04-10-2025 05:00:00,27.23711,78.01936,CO,32,37,33
India,Uttar_Pradesh,Ghaziabad,"Vasundhara, Ghaziabad - UPPCB",04-10-2025 05:00:00,28.6603346,77.3572563,OZONE,15,68,20
India,Uttar_Pradesh,Gorakhpur,"Madan Mohan Malaviya University of Technology, Gorakhpur - UPPCB",04-10-2025 05:00:00,26.730136,83.433859,PM2.5,NA,NA,NA
India,Uttar_Pradesh,Firozabad,"Vibhab Nagar, Firozabad - UPPCB",04-10-2025 05:00:00,27.1594,78.3953,NO2,15,15,15
India,Uttar_Pradesh,Ghaziabad,"Indirapuram, Ghaziabad - UPPCB",04-10-2025 05:00:00,28.646233,77.358075,NO2,39,167,82
India,Uttar_Pradesh,Ghaziabad,"Indirapuram, Ghaziabad - UPPCB",04-10-2025 05:00:00,28.646233,77.358075,NH3,14,15,14
India,Uttar_Pradesh,Hapur,"Anand Vihar, Hapur - UPPCB",04-10-2025 05:00:00,28.725645,77.749675,NO2,10,120,51
India,Uttar_Pradesh,Hapur,"Anand Vihar, Hapur - UPPCB",04-10-2025 05:00:00,28.725645,77.749675,OZONE,5,19,13
India,Uttar_Pradesh,Agra,"Sector-3B Avas Vikas Colony, Agra - UPPCB",04-10-2025 05:00:00,27.19412,77.96237,SO2,6,7,6
India,Uttar_Pradesh,Firozabad,"Vibhab Nagar, Firozabad - UPPCB",04-10-2025 05:00:00,27.1594,78.3953,PM2.5,11,40,22
India,Uttar_Pradesh,Ghaziabad,"Loni, Ghaziabad - UPPCB",04-10-2025 05:00:00,28.757294,77.278792,SO2,8,34,16
India,Uttar_Pradesh,Lucknow,"Kendriya Vidyalaya, Lucknow - CPCB",04-10-2025 05:00:00,26.906111,80.948222,NH3,8,13,11
India,Uttar_Pradesh,Lucknow,"Kendriya Vidyalaya, Lucknow - CPCB",04-10-2025 05:00:00,26.906111,80.948222,CO,24,75,45
India,Uttar_Pradesh,Lucknow,"Kukrail Picnic Spot-1, Lucknow - UPPCB",04-10-2025 05:00:00,26.90723,80.98579,NO2,23,23,23
India,Uttar_Pradesh,Lucknow,"Kukrail Picnic Spot-1, Lucknow - UPPCB",04-10-2025 05:00:00,26.90723,80.98579,NH3,4,4,4
India,Uttar_Pradesh,Lucknow,"Lalbagh, Lucknow - CPCB",04-10-2025 05:00:00,26.8458805,80.9365541,PM10,26,166,107
India,Uttar_Pradesh,Lucknow,"Lalbagh, Lucknow - CPCB",04-10-2025 05:00:00,26.8458805,80.9365541,NO2,4,64,42
India,Uttar_Pradesh,Lucknow,"Talkatora District Industries Center, Lucknow - CPCB",04-10-2025 05:00:00,26.83399722,80.8917361,PM2.5,12,68,42
India,Uttar_Pradesh,Lucknow,"Talkatora District Industries Center, Lucknow - CPCB",04-10-2025 05:00:00,26.83399722,80.8917361,CO,24,74,57
India,Uttar_Pradesh,Meerut,"Ganga Nagar, Meerut - UPPCB",04-10-2025 05:00:00,28.999264,77.7590354,PM2.5,16,178,54
India,Uttar_Pradesh,Moradabad,"Eco Herbal Park, Moradabad - UPPCB",04-10-2025 05:00:00,28.840739,78.697531,OZONE,13,83,18
India,Uttar_Pradesh,Moradabad,"Employment Office, Moradabad - UPPCB",04-10-2025 05:00:00,28.88528,78.73880,PM10,48,109,73
India,Uttar_Pradesh,Moradabad,"Employment Office, Moradabad - UPPCB",04-10-2025 05:00:00,28.88528,78.73880,NO2,15,16,16
India,Uttar_Pradesh,Moradabad,"Employment Office, Moradabad - UPPCB",04-10-2025 05:00:00,28.88528,78.73880,CO,20,86,48
India,Uttar_Pradesh,Moradabad,"Employment Office, Moradabad - UPPCB",04-10-2025 05:00:00,28.88528,78.73880,OZONE,15,51,24
India,Uttar_Pradesh,Moradabad,"Jigar Colony, Moradabad - UPPCB",04-10-2025 05:00:00,28.856664,78.772638,PM10,29,72,52
India,Uttar_Pradesh,Moradabad,"Transport Nagar, Moradabad - UPPCB",04-10-2025 05:00:00,28.802625,78.753728,PM10,42,163,87
India,Uttar_Pradesh,Muzaffarnagar,"New Mandi, Muzaffarnagar - UPPCB",04-10-2025 05:00:00,29.4723508,77.7194031,NH3,5,7,6
India,Uttar_Pradesh,Muzaffarnagar,"New Mandi, Muzaffarnagar - UPPCB",04-10-2025 05:00:00,29.4723508,77.7194031,CO,28,70,52
India,Uttar_Pradesh,Noida,"Sector-1, Noida - UPPCB",04-10-2025 05:00:00,28.5898,77.3101,PM10,46,213,112
India,Uttar_Pradesh,Noida,"Sector-1, Noida - UPPCB",04-10-2025 05:00:00,28.5898,77.3101,NO2,7,103,52
India,Uttar_Pradesh,Noida,"Sector-1, Noida - UPPCB",04-10-2025 05:00:00,28.5898,77.3101,SO2,7,11,9
India,Uttar_Pradesh,Noida,"Sector-116, Noida - UPPCB",04-10-2025 05:00:00,28.569230,77.393848,PM10,50,328,133
India,Uttar_Pradesh,Noida,"Sector - 125, Noida - UPPCB",04-10-2025 05:00:00,28.5447608,77.3231257,OZONE,16,90,18
India,Uttar_Pradesh,Noida,"Sector - 62, Noida - IMD",04-10-2025 05:00:00,28.6245479,77.3577104,NO2,7,18,11
India,Uttar_Pradesh,Meerut,"Ganga Nagar, Meerut - UPPCB",04-10-2025 05:00:00,28.999264,77.7590354,SO2,9,16,12
India,Uttar_Pradesh,Meerut,"Ganga Nagar, Meerut - UPPCB",04-10-2025 05:00:00,28.999264,77.7590354,CO,36,94,65
India,Uttar_Pradesh,Moradabad,"Eco Herbal Park, Moradabad - UPPCB",04-10-2025 05:00:00,28.840739,78.697531,SO2,12,24,18
India,Uttar_Pradesh,Meerut,"Pallavpuram Phase 2, Meerut - UPPCB",04-10-2025 05:00:00,29.063510,77.709723,NO2,10,30,19
India,Uttar_Pradesh,Moradabad,"Buddhi Vihar, Moradabad - UPPCB",04-10-2025 05:00:00,28.83526,78.74460,NH3,5,5,5
India,Uttar_Pradesh,Varanasi,"Bhelupur, Varanasi - UPPCB",04-10-2025 05:00:00,25.301778,82.996789,OZONE,2,4,3
India,Uttar_Pradesh,Varanasi,"IESD Banaras Hindu University, Varanasi - UPPCB",04-10-2025 05:00:00,25.262326,82.995408,NO2,2,3,2
India,Uttar_Pradesh,Varanasi,"IESD Banaras Hindu University, Varanasi - UPPCB",04-10-2025 05:00:00,25.262326,82.995408,SO2,27,41,32
India,Uttar_Pradesh,Varanasi,"IESD Banaras Hindu University, Varanasi - UPPCB",04-10-2025 05:00:00,25.262326,82.995408,OZONE,11,31,14
India,Uttar_Pradesh,Prayagraj,"Motilal Nehru NIT, Prayagraj - UPPCB",04-10-2025 05:00:00,25.494,81.863,PM10,5,24,12
India,Uttar_Pradesh,Prayagraj,"Motilal Nehru NIT, Prayagraj - UPPCB",04-10-2025 05:00:00,25.494,81.863,SO2,9,65,52
India,Uttar_Pradesh,Prayagraj,"Motilal Nehru NIT, Prayagraj - UPPCB",04-10-2025 05:00:00,25.494,81.863,CO,1,8,5
India,Uttar_Pradesh,Vrindavan,"Omex Eternity, Vrindavan - UPPCB",04-10-2025 05:00:00,27.5714090,77.6557570,PM2.5,17,94,39
India,Uttar_Pradesh,Vrindavan,"Omex Eternity, Vrindavan - UPPCB",04-10-2025 05:00:00,27.5714090,77.6557570,SO2,9,15,12
India,West_Bengal,Asansol,"Mahabir Colliery, Asansol - WBPCB",04-10-2025 05:00:00,23.6181830,87.1057180,NO2,5,26,12
India,West_Bengal,Asansol,"Mahabir Colliery, Asansol - WBPCB",04-10-2025 05:00:00,23.6181830,87.1057180,NH3,1,2,1
India,West_Bengal,Durgapur,"PCBL Residential Complex, Durgapur - WBPCB",04-10-2025 05:00:00,23.5087640,87.3544400,PM2.5,8,39,22
India,West_Bengal,Asansol,"Trivenidevi Bhalotia College, Asansol - WBPCB",04-10-2025 05:00:00,23.616515,87.119133,NH3,1,1,1
India,West_Bengal,Asansol,"Mahabir Colliery, Asansol - WBPCB",04-10-2025 05:00:00,23.6181830,87.1057180,PM2.5,9,53,26
India,Uttar_Pradesh,Varanasi,"Ardhali Bazar, Varanasi - UPPCB",04-10-2025 05:00:00,25.3505986,82.9083074,CO,4,27,11
India,Uttarakhand,Rishikesh,"Shivaji Nagar, Rishikesh - UKPCB",04-10-2025 05:00:00,30.075911,78.2859547,NO2,9,13,11
India,West_Bengal,Durgapur,"PCBL Residential Complex, Durgapur - WBPCB",04-10-2025 05:00:00,23.5087640,87.3544400,NO2,3,23,8
India,West_Bengal,Durgapur,"PCBL Residential Complex, Durgapur - WBPCB",04-10-2025 05:00:00,23.5087640,87.3544400,CO,43,77,65
India,West_Bengal,Howrah,"Belur Math, Howrah - WBPCB",04-10-2025 05:00:00,22.629801,88.352017,NO2,9,11,10
India,West_Bengal,Howrah,"Botanical Garden, Howrah - WBPCB",04-10-2025 05:00:00,22.554954,88.292568,NO2,9,180,37
India,West_Bengal,Howrah,"Botanical Garden, Howrah - WBPCB",04-10-2025 05:00:00,22.554954,88.292568,OZONE,21,30,23
India,West_Bengal,Howrah,"Ghusuri, Howrah - WBPCB",04-10-2025 05:00:00,22.611968,88.347422,PM2.5,6,27,18
India,West_Bengal,Howrah,"Ghusuri, Howrah - WBPCB",04-10-2025 05:00:00,22.611968,88.347422,SO2,6,11,9
India,West_Bengal,Howrah,"Ghusuri, Howrah - WBPCB",04-10-2025 05:00:00,22.611968,88.347422,OZONE,23,103,32
India,West_Bengal,Kolkata,"Bidhannagar, Kolkata - WBPCB",04-10-2025 05:00:00,22.58157048,88.41002457,OZONE,19,25,22
India,West_Bengal,Kolkata,"Fort William, Kolkata - WBPCB",04-10-2025 05:00:00,22.556640,88.342674,PM2.5,17,28,21
India,West_Bengal,Kolkata,"Jadavpur, Kolkata - WBPCB",04-10-2025 05:00:00,22.49929,88.36917,PM2.5,39,75,58
India,West_Bengal,Kolkata,"Jadavpur, Kolkata - WBPCB",04-10-2025 05:00:00,22.49929,88.36917,CO,16,25,20
India,West_Bengal,Kolkata,"Rabindra Bharati University, Kolkata - WBPCB",04-10-2025 05:00:00,22.627847,88.380669,PM2.5,3,23,13
India,West_Bengal,Kolkata,"Rabindra Bharati University, Kolkata - WBPCB",04-10-2025 05:00:00,22.627847,88.380669,PM10,12,30,22
India,West_Bengal,Kolkata,"Rabindra Bharati University, Kolkata - WBPCB",04-10-2025 05:00:00,22.627847,88.380669,NO2,19,31,26
India,West_Bengal,Kolkata,"Rabindra Bharati University, Kolkata - WBPCB",04-10-2025 05:00:00,22.627847,88.380669,OZONE,24,33,29
India,West_Bengal,Kolkata,"Rabindra Sarobar, Kolkata - WBPCB",04-10-2025 05:00:00,22.51106,88.35142,NO2,14,38,22
India,West_Bengal,Kolkata,"Victoria, Kolkata - WBPCB",04-10-2025 05:00:00,22.5448082,88.3403691,SO2,2,22,11
India,Andhra_Pradesh,Vijayawada,"Rajiv Nagar, Vijayawada - APPCB",04-10-2025 05:00:00,16.554731,80.649110,CO,16,36,29
India,Andhra_Pradesh,Visakhapatnam,"GVM Corporation, Visakhapatnam - APPCB",04-10-2025 05:00:00,17.72,83.3,NH3,3,4,3
India,Andhra_Pradesh,Visakhapatnam,"GVM Corporation, Visakhapatnam - APPCB",04-10-2025 05:00:00,17.72,83.3,OZONE,6,37,7
India,Arunachal_Pradesh,Naharlagun,"Naharlagun, Naharlagun - APSPCB",04-10-2025 05:00:00,27.103358,93.679645,OZONE,4,5,5
India,Assam,Guwahati,"IITG, Guwahati - PCBA",04-10-2025 05:00:00,26.2028636,91.70046436,NH3,5,5,5
India,Assam,Guwahati,"IITG, Guwahati - PCBA",04-10-2025 05:00:00,26.2028636,91.70046436,SO2,21,26,23
India,Andhra_Pradesh,Tirumala,"Toll Gate, Tirumala - APPCB",04-10-2025 05:00:00,13.67,79.35,OZONE,7,14,10
India,Andhra_Pradesh,Tirupati,"Vaikuntapuram, Tirupati - APPCB",04-10-2025 05:00:00,13.615387,79.409230,PM2.5,53,98,70
India,Andhra_Pradesh,Vijayawada,"HB Colony, Vijayawada - APPCB",04-10-2025 05:00:00,16.536107,80.594233,PM10,55,71,63
India,Andhra_Pradesh,Amaravati,"Secretariat, Amaravati - APPCB",04-10-2025 05:00:00,16.5150833,80.5181667,SO2,9,15,11
India,Andhra_Pradesh,Amaravati,"Secretariat, Amaravati - APPCB",04-10-2025 05:00:00,16.5150833,80.5181667,CO,2,28,17
India,Andhra_Pradesh,Chittoor,"Gangineni Cheruvu, Chittoor - APPCB",04-10-2025 05:00:00,13.204880,79.097889,PM10,54,105,72
India,Andaman and Nicobar,Sri Vijaya Puram,"Police Line, Sri Vijaya Puram - ANPCC",04-10-2025 05:00:00,11.654054,92.734055,SO2,NA,NA,NA
India,Andhra_Pradesh,Amaravati,"Secretariat, Amaravati - APPCB",04-10-2025 05:00:00,16.5150833,80.5181667,NO2,12,45,22
India,Andhra_Pradesh,Vijayawada,"HB Colony, Vijayawada - APPCB",04-10-2025 05:00:00,16.536107,80.594233,NO2,13,13,13
India,Andhra_Pradesh,Vijayawada,"HB Colony, Vijayawada - APPCB",04-10-2025 05:00:00,16.536107,80.594233,NH3,4,4,4
India,Assam,Guwahati,"Pan Bazaar, Guwahati - PCBA",04-10-2025 05:00:00,26.187500,91.744194,PM10,6,28,16
India,Assam,Guwahati,"Pan Bazaar, Guwahati - PCBA",04-10-2025 05:00:00,26.187500,91.744194,NH3,NA,NA,NA
India,Assam,Sivasagar,"Girls College, Sivasagar - PCBA",04-10-2025 05:00:00,26.987634,94.636574,PM2.5,14,24,18
India,Bihar,Araria,"Kharahiya Basti, Araria - BSPCB",04-10-2025 05:00:00,26.146529,87.454184,PM2.5,41,57,48
India,Assam,Nalbari,"Bata Chowk, Nalbari - PCBA",04-10-2025 05:00:00,26.446912,91.439057,CO,22,28,27
India,Assam,Silchar,"Tarapur, Silchar - PCBA",04-10-2025 05:00:00,24.82827,92.79525,NH3,1,1,1
India,Bihar,Chhapra,"Darshan Nagar, Chhapra - BSPCB",04-10-2025 05:00:00,25.7808257,84.7446768,PM10,23,156,47
India,Bihar,Gaya,"Kareemganj, Gaya - BSPCB",04-10-2025 05:00:00,24.792403,84.992416,SO2,15,17,16
India,Bihar,Gaya,"Kareemganj, Gaya - BSPCB",04-10-2025 05:00:00,24.792403,84.992416,CO,38,42,39
India,Bihar,Gaya,"SFTI Kusdihra, Gaya - BSPCB",04-10-2025 05:00:00,24.762518,84.982348,SO2,8,8,8
India,Bihar,Hajipur,"Industrial Area, Hajipur - BSPCB",04-10-2025 05:00:00,25.697189,85.245900,PM2.5,21,44,29
India,Bihar,Hajipur,"Industrial Area, Hajipur - BSPCB",04-10-2025 05:00:00,25.697189,85.245900,PM10,18,37,24
India,Bihar,Hajipur,"Industrial Area, Hajipur - BSPCB",04-10-2025 05:00:00,25.697189,85.245900,NH3,5,7,6
India,Bihar,Katihar,"Mirchaibari, Katihar - BSPCB",04-10-2025 05:00:00,25.560083,87.553265,SO2,14,27,19
India,Bihar,Bhagalpur,"DM Office_Kachari Chowk, Bhagalpur - BSPCB",04-10-2025 05:00:00,25.251013,86.989001,NO2,14,19,16
India,Bihar,Bhagalpur,"Mayaganj, Bhagalpur - BSPCB",04-10-2025 05:00:00,25.265194,87.012947,NO2,NA,NA,NA
India,Bihar,Bihar Sharif,"D M Colony, Bihar Sharif - BSPCB",04-10-2025 05:00:00,25.204762,85.514960,PM10,61,70,64
India,Bihar,Kishanganj,"SDM Office_Khagra, Kishanganj - BSPCB",04-10-2025 05:00:00,26.0881305,87.93840336,PM10,NA,NA,NA
India,Bihar,Manguraha,"Forest Rest House, Manguraha - BSPCB",04-10-2025 05:00:00,27.308328,84.531742,NO2,3,6,5
India,Bihar,Aurangabad,"Gurdeo Nagar, Aurangabad - BSPCB",04-10-2025 05:00:00,24.75746,84.366208,PM2.5,NA,NA,NA
India,Bihar,Aurangabad,"Gurdeo Nagar, Aurangabad - BSPCB",04-10-2025 05:00:00,24.75746,84.366208,NH3,1,2,2
India,Bihar,Aurangabad,"Gurdeo Nagar, Aurangabad - BSPCB",04-10-2025 05:00:00,24.75746,84.366208,OZONE,1,10,4
India,Bihar,Muzaffarpur,"MIT-Daudpur Kothi, Muzaffarpur - BSPCB",04-10-2025 05:00:00,26.1403345,85.3650192,PM2.5,28,38,35
India,Bihar,Bihar Sharif,"D M Colony, Bihar Sharif - BSPCB",04-10-2025 05:00:00,25.204762,85.514960,CO,NA,NA,NA
India,Bihar,Bettiah,"Kamalnath Nagar, Bettiah - BSPCB",04-10-2025 05:00:00,26.80365,84.51954,CO,32,57,44
India,Bihar,Motihari,"Gandak Colony, Motihari - BSPCB",04-10-2025 05:00:00,26.63086,84.90051,CO,27,37,34
India,Bihar,Arrah,"New DM Office, Arrah - BSPCB",04-10-2025 05:00:00,25.5626095,84.663264,PM2.5,NA,NA,NA
India,Chhattisgarh,Bhilai,"Hathkhoj, Bhilai - CECB",04-10-2025 05:00:00,21.224231,81.408350,NO2,8,41,19
India,Chhattisgarh,Bhilai,"Hathkhoj, Bhilai - CECB",04-10-2025 05:00:00,21.224231,81.408350,OZONE,11,20,13
India,Chhattisgarh,Bilaspur,"Mangala, Bilaspur - NTPC",04-10-2025 05:00:00,22.08815,82.13737,PM10,5,27,14
India,Chhattisgarh,Chhal,"Nawapara SECL Colony, Chhal - CECB",04-10-2025 05:00:00,22.118125,83.140608,SO2,1,9,5
India,Chhattisgarh,Chhal,"Nawapara SECL Colony, Chhal - CECB",04-10-2025 05:00:00,22.118125,83.140608,CO,10,34,24
India,Chhattisgarh,Chhal,"Nawapara SECL Colony, Chhal - CECB",04-10-2025 05:00:00,22.118125,83.140608,OZONE,64,226,69
India,Chhattisgarh,Korba,"Rampur, Korba - CECB",04-10-2025 05:00:00,22.368195,82.746431,NO2,4,14,6
India,Chhattisgarh,Korba,"Rampur, Korba - CECB",04-10-2025 05:00:00,22.368195,82.746431,SO2,6,12,8
India,Bihar,Purnia,"Mariam Nagar, Purnia - BSPCB",04-10-2025 05:00:00,25.366336,87.117468,SO2,1,36,7
India,Bihar,Purnia,"Mariam Nagar, Purnia - BSPCB",04-10-2025 05:00:00,25.366336,87.117468,OZONE,14,88,25
India,Bihar,Rajgir,"Dangi Tola, Rajgir - BSPCB",04-10-2025 05:00:00,25.03280,85.41948,PM2.5,5,69,55
India,Bihar,Samastipur,"DM Office_Kasipur, Samastipur - BSPCB",04-10-2025 05:00:00,25.859655,85.77944,NH3,2,2,2
India,Bihar,Samastipur,"DM Office_Kasipur, Samastipur - BSPCB",04-10-2025 05:00:00,25.859655,85.77944,SO2,24,31,29
India,Bihar,Samastipur,"DM Office_Kasipur, Samastipur - BSPCB",04-10-2025 05:00:00,25.859655,85.77944,OZONE,7,9,7
India,Chandigarh,Chandigarh,"Sector 22, Chandigarh - CPCC",04-10-2025 05:00:00,30.735567,76.775714,PM10,18,124,64
India,Chandigarh,Chandigarh,"Sector-25, Chandigarh - CPCC",04-10-2025 05:00:00,30.751462,76.762879,NO2,9,32,17
India,Chandigarh,Chandigarh,"Sector-25, Chandigarh - CPCC",04-10-2025 05:00:00,30.751462,76.762879,CO,14,39,30
India,Chandigarh,Chandigarh,"Sector-53, Chandigarh - CPCC",04-10-2025 05:00:00,30.719859,76.738637,SO2,9,18,13
India,Bihar,Patna,"DRM Office Danapur, Patna - BSPCB",04-10-2025 05:00:00,25.586562,85.043586,NO2,22,59,31
India,Bihar,Patna,"Govt. High School Shikarpur, Patna - BSPCB",04-10-2025 05:00:00,25.592539,85.227158,PM10,31,33,32
India,Bihar,Patna,"IGSC Planetarium Complex, Patna - BSPCB",04-10-2025 05:00:00,25.610369,85.132568,CO,34,62,47
India,Bihar,Patna,"Muradpur, Patna - BSPCB",04-10-2025 05:00:00,25.619651,85.147382,CO,28,69,48
India,Bihar,Patna,"Rajbansi Nagar, Patna - BSPCB",04-10-2025 05:00:00,25.599486,85.113666,CO,26,48,30
India,Bihar,Purnia,"Mariam Nagar, Purnia - BSPCB",04-10-2025 05:00:00,25.366336,87.117468,PM10,6,42,29
India,Chhattisgarh,Bhilai,"32Bungalows, Bhilai - CECB",04-10-2025 05:00:00,21.194815,81.314770,SO2,7,9,8
India,Chhattisgarh,Bhilai,"Civic Center, Bhilai - Bhilai Steel Plant",04-10-2025 05:00:00,21.185571,81.343175,SO2,8,10,9
India,Bihar,Sasaram,"Dada Peer, Sasaram - BSPCB",04-10-2025 05:00:00,24.952822,84.002396,NH3,NA,NA,NA
India,Bihar,Sasaram,"Dada Peer, Sasaram - BSPCB",04-10-2025 05:00:00,24.952822,84.002396,CO,43,57,52
India,Bihar,Patna,"IGSC Planetarium Complex, Patna - BSPCB",04-10-2025 05:00:00,25.610369,85.132568,OZONE,46,47,47
India,Bihar,Siwan,"Chitragupta Nagar, Siwan - BSPCB",04-10-2025 05:00:00,26.2271665,84.3570427,PM10,7,163,25
India,Chhattisgarh,Korba,"Urja Nagar, Korba - CECB",04-10-2025 05:00:00,22.348441,82.549611,NH3,1,2,2
India,Chhattisgarh,Kunjemura,"OP Jindal School, Kunjemura - CECB",04-10-2025 05:00:00,22.126650,83.483212,PM2.5,NA,NA,NA
India,Chhattisgarh,Kunjemura,"OP Jindal School, Kunjemura - CECB",04-10-2025 05:00:00,22.126650,83.483212,NH3,NA,NA,NA
India,Chhattisgarh,Kunjemura,"OP Jindal School, Kunjemura - CECB",04-10-2025 05:00:00,22.126650,83.483212,SO2,NA,NA,NA
India,Chhattisgarh,Raipur,"AIIMS, Raipur - CECB",04-10-2025 05:00:00,21.258815,81.578979,SO2,10,12,11
India,Chhattisgarh,Raipur,"AIIMS, Raipur - CECB",04-10-2025 05:00:00,21.258815,81.578979,CO,24,38,31
India,Delhi,Delhi,"Dr. Karni Singh Shooting Range, Delhi - DPCC",04-10-2025 05:00:00,28.498571,77.264840,CO,19,112,73
India,Delhi,Delhi,"Dwarka-Sector 8, Delhi - DPCC ",04-10-2025 05:00:00,28.5710274,77.0719006,SO2,17,24,19
India,Delhi,Delhi,"IGI Airport (T3), Delhi - IMD",04-10-2025 05:00:00,28.5627763,77.1180053,PM2.5,28,115,60
India,Delhi,Delhi,"IGI Airport (T3), Delhi - IMD",04-10-2025 05:00:00,28.5627763,77.1180053,PM10,65,215,104
India,Delhi,Delhi,"Chandni Chowk, Delhi - IITM",04-10-2025 05:00:00,28.656756,77.227234,CO,NA,NA,NA
India,Delhi,Delhi,"Chandni Chowk, Delhi - IITM",04-10-2025 05:00:00,28.656756,77.227234,OZONE,NA,NA,NA
India,Delhi,Delhi,"DTU, Delhi - CPCB",04-10-2025 05:00:00,28.7500499,77.1112615,PM2.5,20,76,42
India,Delhi,Delhi,"DTU, Delhi - CPCB",04-10-2025 05:00:00,28.7500499,77.1112615,PM10,36,149,85
India,Delhi,Delhi,"DTU, Delhi - CPCB",04-10-2025 05:00:00,28.7500499,77.1112615,NO2,42,105,60
India,Delhi,Delhi,"DTU, Delhi - CPCB",04-10-2025 05:00:00,28.7500499,77.1112615,SO2,22,26,23
India,Chhattisgarh,Raipur,"Siltara Phase-II, Raipur - CECB",04-10-2025 05:00:00,21.371751,81.664929,PM10,5,66,27
India,Chhattisgarh,Raipur,"Siltara Phase-II, Raipur - CECB",04-10-2025 05:00:00,21.371751,81.664929,OZONE,5,8,6
India,Delhi,Delhi,"Burari Crossing, Delhi - IMD",04-10-2025 05:00:00,28.7256504,77.2011573,PM2.5,3,155,76
India,Delhi,Delhi,"Burari Crossing, Delhi - IMD",04-10-2025 05:00:00,28.7256504,77.2011573,NO2,5,20,12
India,Chhattisgarh,Tumidih,"OP Jindal Industrial Park, Tumidih - CECB",04-10-2025 05:00:00,22.06631475,83.33820077,OZONE,4,16,7
India,Delhi,Delhi,"Ashok Vihar, Delhi - DPCC",04-10-2025 05:00:00,28.695381,77.181665,PM10,62,289,124
India,Delhi,Delhi,"Aya Nagar, Delhi - IMD",04-10-2025 05:00:00,28.4706914,77.1099364,OZONE,11,151,14
India,Delhi,Delhi,"Aya Nagar, Delhi - IMD",04-10-2025 05:00:00,28.4706914,77.1099364,NO2,21,70,44
India,Delhi,Delhi,"Okhla Phase-2, Delhi - DPCC",04-10-2025 05:00:00,28.530785,77.271255,CO,12,107,93
India,Delhi,Delhi,"Okhla Phase-2, Delhi - DPCC",04-10-2025 05:00:00,28.530785,77.271255,OZONE,6,183,7
India,Delhi,Delhi,"Patparganj, Delhi - DPCC",04-10-2025 05:00:00,28.623763,77.287209,PM2.5,30,333,103
India,Delhi,Delhi,"Patparganj, Delhi - DPCC",04-10-2025 05:00:00,28.623763,77.287209,SO2,5,8,7
India,Delhi,Delhi,"Punjabi Bagh, Delhi - DPCC",04-10-2025 05:00:00,28.674045,77.131023,PM10,80,233,129
India,Delhi,Delhi,"IGI Airport (T3), Delhi - IMD",04-10-2025 05:00:00,28.5627763,77.1180053,OZONE,1,5,4
India,Delhi,Delhi,"IHBAS, Dilshad Garden, Delhi - CPCB",04-10-2025 05:00:00,28.6811736,77.3025234,PM10,102,169,121
India,Delhi,Delhi,"IHBAS, Dilshad Garden, Delhi - CPCB",04-10-2025 05:00:00,28.6811736,77.3025234,NH3,2,3,2
India,Delhi,Delhi,"ITO, Delhi - CPCB",04-10-2025 05:00:00,28.628624,77.241060,OZONE,21,38,30
India,Delhi,Delhi,"Jawaharlal Nehru Stadium, Delhi - DPCC",04-10-2025 05:00:00,28.580280,77.233829,CO,1,112,106
India,Delhi,Delhi,"Lodhi Road, Delhi - IITM",04-10-2025 05:00:00,28.588333,77.221667,PM10,37,82,53
India,Delhi,Delhi,"Major Dhyan Chand National Stadium, Delhi - DPCC",04-10-2025 05:00:00,28.611281,77.237738,NO2,15,70,35
India,Delhi,Delhi,"Mundka, Delhi - DPCC",04-10-2025 05:00:00,28.684678,77.076574,NO2,22,60,41
India,Delhi,Delhi,"NSIT Dwarka, Delhi - CPCB",04-10-2025 05:00:00,28.60909,77.0325413,NH3,1,2,2
India,Delhi,Delhi,"NSIT Dwarka, Delhi - CPCB",04-10-2025 05:00:00,28.60909,77.0325413,SO2,8,16,13
India,Delhi,Delhi,"Punjabi Bagh, Delhi - DPCC",04-10-2025 05:00:00,28.674045,77.131023,CO,34,104,71
India,Delhi,Delhi,"Pusa, Delhi - DPCC",04-10-2025 05:00:00,28.639652,77.146275,CO,32,101,67
India,Delhi,Delhi,"Pusa, Delhi - IMD",04-10-2025 05:00:00,28.636110,77.173332,PM2.5,16,336,75
India,Delhi,Delhi,"Mandir Marg, Delhi - DPCC",04-10-2025 05:00:00,28.636429,77.201067,PM2.5,8,273,74
India,Delhi,Delhi,"Mandir Marg, Delhi - DPCC",04-10-2025 05:00:00,28.636429,77.201067,NH3,7,20,14
India,Delhi,Delhi,"Mandir Marg, Delhi - DPCC",04-10-2025 05:00:00,28.636429,77.201067,SO2,2,42,16
India,Delhi,Delhi,"R K Puram, Delhi - DPCC",04-10-2025 05:00:00,28.563262,77.186937,NH3,3,4,3
India,Delhi,Delhi,"Rohini, Delhi - DPCC",04-10-2025 05:00:00,28.732528,77.119920,PM10,39,177,113
India,Delhi,Delhi,"Jawaharlal Nehru Stadium, Delhi - DPCC",04-10-2025 05:00:00,28.580280,77.233829,PM10,47,129,81
India,Delhi,Delhi,"North Campus, DU, Delhi - IMD",04-10-2025 05:00:00,28.6573814,77.1585447,PM10,30,130,92
India,Delhi,Delhi,"Rohini, Delhi - DPCC",04-10-2025 05:00:00,28.732528,77.119920,OZONE,4,95,26
India,Delhi,Delhi,"Shadipur, Delhi - CPCB",04-10-2025 05:00:00,28.6514781,77.1473105,NH3,6,9,8
India,Delhi,Delhi,"Sirifort, Delhi - CPCB",04-10-2025 05:00:00,28.5504249,77.2159377,NH3,6,16,11
India,Delhi,Delhi,"Sonia Vihar, Delhi - DPCC",04-10-2025 05:00:00,28.710508,77.249485,PM2.5,27,157,69
India,Delhi,Delhi,"Sri Aurobindo Marg, Delhi - DPCC",04-10-2025 05:00:00,28.531346,77.190156,PM2.5,42,65,51
India,Delhi,Delhi,"Sri Aurobindo Marg, Delhi - DPCC",04-10-2025 05:00:00,28.531346,77.190156,CO,32,101,86
India,Delhi,Delhi,"Vivek Vihar, Delhi - DPCC",04-10-2025 05:00:00,28.672342,77.315260,PM10,63,225,110
India,Delhi,Delhi,"Vivek Vihar, Delhi - DPCC",04-10-2025 05:00:00,28.672342,77.315260,NH3,8,11,10
India,Delhi,Delhi,"Vivek Vihar, Delhi - DPCC",04-10-2025 05:00:00,28.672342,77.315260,SO2,16,46,22
India,Delhi,Delhi,"Vivek Vihar, Delhi - DPCC",04-10-2025 05:00:00,28.672342,77.315260,CO,34,102,83
India,Gujarat,Gandhinagar,"GIFT City, Gandhinagar - IITM",04-10-2025 05:00:00,23.163798,72.677768,NH3,1,7,3
India,Gujarat,Gandhinagar,"IIPHG Lekawada, Gandhinagar - IITM",04-10-2025 05:00:00,23.243639,72.68994,PM2.5,13,62,36
India,Gujarat,Gandhinagar,"IIPHG Lekawada, Gandhinagar - IITM",04-10-2025 05:00:00,23.243639,72.68994,SO2,2,8,4
India,Gujarat,Gandhinagar,"IIPHG Lekawada, Gandhinagar - IITM",04-10-2025 05:00:00,23.243639,72.68994,OZONE,2,24,3
India,Gujarat,Gandhinagar,"Sector-10, Gandhinagar - GPCB",04-10-2025 05:00:00,23.221714,72.654328,SO2,2,5,4
India,Gujarat,Surat,"Science Center, Surat - SMC",04-10-2025 05:00:00,21.170046,72.795405,NO2,13,25,17
India,Gujarat,Surat,"Science Center, Surat - SMC",04-10-2025 05:00:00,21.170046,72.795405,SO2,18,25,20
India,Gujarat,Vapi,"Phase-1 GIDC, Vapi - GPCB",04-10-2025 05:00:00,20.362421,72.918013,OZONE,2,2,2
India,Delhi,Delhi,"Wazirpur, Delhi - DPCC",04-10-2025 05:00:00,28.699793,77.165453,NO2,35,134,67
India,Delhi,Delhi,"Wazirpur, Delhi - DPCC",04-10-2025 05:00:00,28.699793,77.165453,NH3,10,14,12
India,Delhi,Delhi,"Wazirpur, Delhi - DPCC",04-10-2025 05:00:00,28.699793,77.165453,CO,32,102,63
India,Delhi,Delhi,"Wazirpur, Delhi - DPCC",04-10-2025 05:00:00,28.699793,77.165453,OZONE,5,103,24
India,Gujarat,Ahmedabad,"Chandkheda, Ahmedabad - IITM",04-10-2025 05:00:00,23.107969,72.574648,PM10,19,50,38
India,Gujarat,Ahmedabad,"SAC ISRO Bopal, Ahmedabad - IITM",04-10-2025 05:00:00,23.041137,72.456691,PM10,32,79,59
India,Gujarat,Ahmedabad,"SAC ISRO Bopal, Ahmedabad - IITM",04-10-2025 05:00:00,23.041137,72.456691,OZONE,1,37,9
India,Gujarat,Ahmedabad,"SAC ISRO Satellite, Ahmedabad - IITM",04-10-2025 05:00:00,23.023389,72.515201,PM2.5,20,63,38
India,Gujarat,Ahmedabad,"SAC ISRO Satellite, Ahmedabad - IITM",04-10-2025 05:00:00,23.023389,72.515201,NO2,11,41,24
India,Gujarat,Ahmedabad,"SAC ISRO Satellite, Ahmedabad - IITM",04-10-2025 05:00:00,23.023389,72.515201,NH3,3,3,3
India,Gujarat,Ahmedabad,"Raikhad, Ahmedabad - IITM",04-10-2025 05:00:00,23.020509,72.579261,SO2,11,52,23
India,Gujarat,Ahmedabad,"Rakhial, Ahmedabad - IITM",04-10-2025 05:00:00,23.016834,72.625775,NO2,6,76,27
India,Gujarat,Ahmedabad,"Rakhial, Ahmedabad - IITM",04-10-2025 05:00:00,23.016834,72.625775,NH3,3,5,5
India,Gujarat,Ahmedabad,"SVPI Airport Hansol, Ahmedabad - IITM",04-10-2025 05:00:00,23.076793,72.627874,PM10,21,62,39
India,Gujarat,Ahmedabad,"SVPI Airport Hansol, Ahmedabad - IITM",04-10-2025 05:00:00,23.076793,72.627874,SO2,3,66,15
India,Gujarat,Ahmedabad,"SVPI Airport Hansol, Ahmedabad - IITM",04-10-2025 05:00:00,23.076793,72.627874,CO,9,34,24
India,Haryana,Ambala,"Patti Mehar, Ambala - HSPCB",04-10-2025 05:00:00,30.379589,76.778328,PM2.5,NA,NA,NA
India,Haryana,Ambala,"Patti Mehar, Ambala - HSPCB",04-10-2025 05:00:00,30.379589,76.778328,PM10,NA,NA,NA
India,Haryana,Ambala,"Patti Mehar, Ambala - HSPCB",04-10-2025 05:00:00,30.379589,76.778328,NH3,NA,NA,NA
India,Haryana,Bhiwani,"H.B. Colony, Bhiwani - HSPCB",04-10-2025 05:00:00,28.806223,76.141105,NO2,32,34,33
India,Haryana,Bhiwani,"H.B. Colony, Bhiwani - HSPCB",04-10-2025 05:00:00,28.806223,76.141105,OZONE,8,19,14
India,Gujarat,Ahmedabad,"Maninagar, Ahmedabad - GPCB",04-10-2025 05:00:00,23.002657,72.591912,OZONE,NA,NA,NA
India,Haryana,Panchgaon,"Amity University, Panchgaon - IITM",04-10-2025 05:00:00,28.3153,76.9143,NO2,2,89,19
India,Haryana,Panipat,"Sector-18, Panipat - HSPCB",04-10-2025 05:00:00,29.432304,76.972765,SO2,NA,NA,NA
India,Haryana,Panipat,"Sector-18, Panipat - HSPCB",04-10-2025 05:00:00,29.432304,76.972765,OZONE,4,39,13
India,Haryana,Rohtak,"MD University, Rohtak - HSPCB",04-10-2025 05:00:00,28.52123,76.37138,PM10,47,84,63
India,Haryana,Sirsa,"F-Block, Sirsa - HSPCB",04-10-2025 05:00:00,29.536400,75.015800,PM10,29,83,64
India,Haryana,Sirsa,"F-Block, Sirsa - HSPCB",04-10-2025 05:00:00,29.536400,75.015800,SO2,5,9,7
India,Himachal Pradesh,Baddi,"HIMUDA Complex Phase-1, Baddi - HPPCB",04-10-2025 05:00:00,30.943887,76.801991,OZONE,26,102,42
India,Jammu_and_Kashmir,Srinagar,"Rajbagh, Srinagar - JKSPCB",04-10-2025 05:00:00,34.066206,74.819820,PM10,31,101,61
India,Jammu_and_Kashmir,Srinagar,"Rajbagh, Srinagar - JKSPCB",04-10-2025 05:00:00,34.066206,74.819820,CO,8,17,14
India,Jharkhand,Dhanbad,"Sardar Patel Nagar, Dhanbad - JSPCB",04-10-2025 05:00:00,23.80569,86.44268,NO2,86,112,94
India,Haryana,Charkhi Dadri,"Mini Secretariat, Charkhi Dadri - HSPCB",04-10-2025 05:00:00,28.593883,76.270653,PM10,NA,NA,NA
India,Haryana,Charkhi Dadri,"Mini Secretariat, Charkhi Dadri - HSPCB",04-10-2025 05:00:00,28.593883,76.270653,OZONE,13,18,16
India,Haryana,Faridabad,"New Industrial Town, Faridabad - HSPCB",04-10-2025 05:00:00,28.39072,77.30059,PM2.5,117,144,133
India,Haryana,Faridabad,"New Industrial Town, Faridabad - HSPCB",04-10-2025 05:00:00,28.39072,77.30059,PM10,107,117,113
India,Haryana,Faridabad,"New Industrial Town, Faridabad - HSPCB",04-10-2025 05:00:00,28.39072,77.30059,CO,10,13,12
India,Jharkhand,Jorapokhar,"Tata Stadium, Jorapokhar - JSPCB",04-10-2025 05:00:00,23.707909,86.414670,SO2,NA,NA,NA
India,Karnataka,Bagalkot,"Vidayagiri, Bagalkot - KSPCB",04-10-2025 05:00:00,16.172806,75.659694,PM2.5,33,34,34
India,Karnataka,Bagalkot,"Vidayagiri, Bagalkot - KSPCB",04-10-2025 05:00:00,16.172806,75.659694,NO2,9,11,9
India,Haryana,Gurugram,"NISE Gwal Pahari, Gurugram - IMD",04-10-2025 05:00:00,28.422681,77.148944,CO,60,101,92
India,Haryana,Gurugram,"Vikas Sadan, Gurugram - HSPCB",04-10-2025 05:00:00,28.4501238,77.0263051,PM2.5,33,500,175
India,Haryana,Faridabad,"Sector 11, Faridabad - HSPCB",04-10-2025 05:00:00,28.376058,77.315741,NH3,6,7,6
India,Haryana,Faridabad,"Sector 30, Faridabad - HSPCB",04-10-2025 05:00:00,28.4417,77.3217,PM10,98,102,100
India,Haryana,Jind,"Police Lines, Jind - HSPCB",04-10-2025 05:00:00,29.307814,76.337619,NO2,12,14,13
India,Haryana,Karnal,"Sector-12, Karnal - HSPCB",04-10-2025 05:00:00,29.695300,77.002700,PM2.5,47,97,68
India,Haryana,Manesar,"Sector-2 IMT, Manesar - HSPCB",04-10-2025 05:00:00,28.360699,76.936090,PM2.5,NA,NA,NA
India,Haryana,Manesar,"Sector-2 IMT, Manesar - HSPCB",04-10-2025 05:00:00,28.360699,76.936090,PM10,NA,NA,NA
India,Haryana,Manesar,"Sector-2 IMT, Manesar - HSPCB",04-10-2025 05:00:00,28.360699,76.936090,NO2,NA,NA,NA
India,Karnataka,Bengaluru,"Bapuji Nagar, Bengaluru - KSPCB",04-10-2025 05:00:00,12.951913,77.539784,CO,10,66,32
India,Karnataka,Chamarajanagar,"Urban, Chamarajanagar - KSPCB",04-10-2025 05:00:00,11.55358,76.55521,NH3,1,3,2
India,Karnataka,Chikkaballapur,"Chikkaballapur Rural, Chikkaballapur - KSPCB",04-10-2025 05:00:00,13.428828,77.731418,PM2.5,NA,NA,NA
India,Karnataka,Chikkaballapur,"Chikkaballapur Rural, Chikkaballapur - KSPCB",04-10-2025 05:00:00,13.428828,77.731418,PM10,NA,NA,NA
India,Karnataka,Chikkaballapur,"Chikkaballapur Rural, Chikkaballapur - KSPCB",04-10-2025 05:00:00,13.428828,77.731418,NH3,NA,NA,NA
India,Karnataka,Chikkaballapur,"Chikkaballapur Rural, Chikkaballapur - KSPCB",04-10-2025 05:00:00,13.428828,77.731418,SO2,NA,NA,NA
India,Karnataka,Chikkaballapur,"Chikkaballapur Rural, Chikkaballapur - KSPCB",04-10-2025 05:00:00,13.428828,77.731418,CO,NA,NA,NA
India,Karnataka,Chikkamagaluru,"Kalyana Nagara, Chikkamagaluru - KSPCB",04-10-2025 05:00:00,13.328028,75.797056,NO2,15,27,23
India,Karnataka,Chikkamagaluru,"Kalyana Nagara, Chikkamagaluru - KSPCB",04-10-2025 05:00:00,13.328028,75.797056,OZONE,12,55,24
India,Karnataka,Davanagere,"Devaraj Urs Badavane, Davanagere - KSPCB",04-10-2025 05:00:00,14.475800,75.905200,NO2,9,24,16
India,Karnataka,Bengaluru,"Peenya, Bengaluru - CPCB",04-10-2025 05:00:00,13.0270199,77.494094,PM2.5,19,44,29
India,Karnataka,Bengaluru,"Peenya, Bengaluru - CPCB",04-10-2025 05:00:00,13.0270199,77.494094,NH3,2,3,3
India,Karnataka,Bengaluru,"Peenya, Bengaluru - CPCB",04-10-2025 05:00:00,13.0270199,77.494094,SO2,1,11,5
India,Karnataka,Bengaluru,"RVCE-Mailasandra, Bengaluru - KSPCB",04-10-2025 05:00:00,12.921418,77.502466,PM10,71,91,78
India,Karnataka,Bengaluru,"RVCE-Mailasandra, Bengaluru - KSPCB",04-10-2025 05:00:00,12.921418,77.502466,SO2,5,7,6
India,Karnataka,Bengaluru,"Sanegurava Halli, Bengaluru - KSPCB",04-10-2025 05:00:00,12.990328,77.5431385,SO2,7,7,7
India,Karnataka,Bengaluru,"Silk Board, Bengaluru - KSPCB",04-10-2025 05:00:00,12.917348,77.622813,SO2,NA,NA,NA
India,Karnataka,Hubballi,"Lingaraj Nagar, Hubballi - KSPCB",04-10-2025 05:00:00,15.3714823,75.1160168,CO,10,21,15
India,Karnataka,Hubballi,"Lingaraj Nagar, Hubballi - KSPCB",04-10-2025 05:00:00,15.3714823,75.1160168,OZONE,16,19,18
India,Karnataka,Kalaburagi,"Mahatma Basaveswar Colony, Kalaburgi - KSPCB",04-10-2025 05:00:00,17.336318,76.847397,PM2.5,21,57,28
India,Karnataka,Kalaburagi,"Mahatma Basaveswar Colony, Kalaburgi - KSPCB",04-10-2025 05:00:00,17.336318,76.847397,PM10,29,79,39
India,Karnataka,Kalaburagi,"Mahatma Basaveswar Colony, Kalaburgi - KSPCB",04-10-2025 05:00:00,17.336318,76.847397,CO,28,40,33
India,Karnataka,Mysuru,"Hebbal 1st Stage, Mysuru - KSPCB",04-10-2025 05:00:00,12.21041,76.37376,NO2,10,37,21
India,Karnataka,Mysuru,"Hebbal 1st Stage, Mysuru - KSPCB",04-10-2025 05:00:00,12.21041,76.37376,OZONE,7,61,11
India,Karnataka,Ramanagara,"Vijay Nagar, Ramanagara - KSPCB",04-10-2025 05:00:00,12.733409,77.298051,PM2.5,NA,NA,NA
India,Karnataka,Ramanagara,"Vijay Nagar, Ramanagara - KSPCB",04-10-2025 05:00:00,12.733409,77.298051,PM10,NA,NA,NA
India,Karnataka,Bengaluru,"Hombegowda Nagar, Bengaluru - KSPCB",04-10-2025 05:00:00,12.938539,77.590100,SO2,3,13,8
India,Karnataka,Bengaluru,"Jayanagar 5th Block, Bengaluru - KSPCB",04-10-2025 05:00:00,12.920984,77.584908,PM2.5,5,27,10
India,Karnataka,Bengaluru,"Jayanagar 5th Block, Bengaluru - KSPCB",04-10-2025 05:00:00,12.920984,77.584908,NH3,1,1,1
India,Karnataka,Bengaluru,"Hebbal, Bengaluru - KSPCB",04-10-2025 05:00:00,13.029152,77.585901,PM2.5,2,16,7
India,Karnataka,Bengaluru,"Hebbal, Bengaluru - KSPCB",04-10-2025 05:00:00,13.029152,77.585901,NO2,19,23,21
India,Karnataka,Bengaluru,"Hombegowda Nagar, Bengaluru - KSPCB",04-10-2025 05:00:00,12.938539,77.590100,PM10,15,39,24
India,Karnataka,Mangalore,"Kadri, Mangalore - KSPCB",04-10-2025 05:00:00,12.889250,74.853000,NO2,NA,NA,NA
India,Karnataka,Mangalore,"Kadri, Mangalore - KSPCB",04-10-2025 05:00:00,12.889250,74.853000,OZONE,NA,NA,NA
India,Karnataka,Koppal,"Diwator Nagar, Koppal - KSPCB",04-10-2025 05:00:00,15.347630,76.181767,NH3,NA,NA,NA
India,Karnataka,Madikeri,"Stuart Hill, Madikeri - KSPCB",04-10-2025 05:00:00,12.415911,75.735050,SO2,7,7,7
India,Kerala,Kollam,"Polayathode, Kollam - Kerala PCB",04-10-2025 05:00:00,8.8787,76.6073,PM2.5,21,28,24
India,Kerala,Kollam,"Polayathode, Kollam - Kerala PCB",04-10-2025 05:00:00,8.8787,76.6073,CO,14,18,15
India,Kerala,Kollam,"Polayathode, Kollam - Kerala PCB",04-10-2025 05:00:00,8.8787,76.6073,OZONE,31,36,32
India,Kerala,Thiruvananthapuram,"Kariavattom, Thiruvananthapuram - Kerala PCB",04-10-2025 05:00:00,8.563700,76.886500,PM2.5,33,48,44
India,Kerala,Thiruvananthapuram,"Kariavattom, Thiruvananthapuram - Kerala PCB",04-10-2025 05:00:00,8.563700,76.886500,SO2,4,4,4
India,Kerala,Thiruvananthapuram,"Kariavattom, Thiruvananthapuram - Kerala PCB",04-10-2025 05:00:00,8.563700,76.886500,CO,29,64,45
India,Kerala,Thiruvananthapuram,"Kariavattom, Thiruvananthapuram - Kerala PCB",04-10-2025 05:00:00,8.563700,76.886500,OZONE,36,37,36
India,Kerala,Thiruvananthapuram,"Plammoodu, Thiruvananthapuram - Kerala PCB",04-10-2025 05:00:00,8.5149093,76.9435879,NH3,6,13,8
India,Kerala,Thiruvananthapuram,"Plammoodu, Thiruvananthapuram - Kerala PCB",04-10-2025 05:00:00,8.5149093,76.9435879,OZONE,13,17,16
India,Madhya Pradesh,Bhopal,"Idgah Hills, Bhopal - MPPCB",04-10-2025 05:00:00,23.264759,77.381568,PM2.5,35,60,44
India,Madhya Pradesh,Bhopal,"Idgah Hills, Bhopal - MPPCB",04-10-2025 05:00:00,23.264759,77.381568,PM10,33,88,62
India,Madhya Pradesh,Bhopal,"Idgah Hills, Bhopal - MPPCB",04-10-2025 05:00:00,23.264759,77.381568,CO,18,64,30
India,Madhya Pradesh,Damoh,"Shrivastav Colony, Damoh - MPPCB",04-10-2025 05:00:00,23.81748678,79.446246,SO2,27,31,29
India,Madhya Pradesh,Damoh,"Shrivastav Colony, Damoh - MPPCB",04-10-2025 05:00:00,23.81748678,79.446246,CO,20,32,29
India,Madhya Pradesh,Dewas,"Bhopal Chauraha, Dewas - MPPCB",04-10-2025 05:00:00,22.9682591,76.064118,PM10,13,69,43
India,Madhya Pradesh,Dewas,"Bhopal Chauraha, Dewas - MPPCB",04-10-2025 05:00:00,22.9682591,76.064118,NH3,2,2,2
India,Madhya Pradesh,Dewas,"Bhopal Chauraha, Dewas - MPPCB",04-10-2025 05:00:00,22.9682591,76.064118,OZONE,28,32,29
India,Madhya Pradesh,Gwalior,"City Center, Gwalior - MPPCB",04-10-2025 05:00:00,26.203442,78.193251,CO,19,48,30
India,Madhya Pradesh,Gwalior,"Maharaj Bada, Gwalior - MPPCB",04-10-2025 05:00:00,26.200388,78.147714,OZONE,12,46,19
India,Madhya Pradesh,Indore,"Chhoti Gwaltoli, Indore - MPPCB",04-10-2025 05:00:00,22.4310,75.5213,PM10,9,110,65
India,Madhya Pradesh,Indore,"Chhoti Gwaltoli, Indore - MPPCB",04-10-2025 05:00:00,22.4310,75.5213,NO2,48,162,72
India,Madhya Pradesh,Indore,"Chhoti Gwaltoli, Indore - MPPCB",04-10-2025 05:00:00,22.4310,75.5213,NH3,3,8,7
India,Madhya Pradesh,Indore,"Chhoti Gwaltoli, Indore - MPPCB",04-10-2025 05:00:00,22.4310,75.5213,SO2,9,18,13
India,Madhya Pradesh,Bhopal,"Idgah Hills, Bhopal - MPPCB",04-10-2025 05:00:00,23.264759,77.381568,OZONE,14,43,22
India,Madhya Pradesh,Bhopal,"Paryavaran Parisar, Bhopal - MPPCB",04-10-2025 05:00:00,23.210494,77.425409,SO2,11,16,14
India,Madhya Pradesh,Bhopal,"Paryavaran Parisar, Bhopal - MPPCB",04-10-2025 05:00:00,23.210494,77.425409,OZONE,26,54,30
India,Madhya Pradesh,Bhopal,"T T Nagar, Bhopal - MPPCB",04-10-2025 05:00:00,23.233584,77.400574,NH3,5,6,5
India,Karnataka,Yadgir,"Collector Office, Yadgir - KSPCB",04-10-2025 05:00:00,16.7602,77.1428,PM10,8,50,20
India,Karnataka,Yadgir,"Collector Office, Yadgir - KSPCB",04-10-2025 05:00:00,16.7602,77.1428,SO2,11,21,17
India,Karnataka,Yadgir,"Collector Office, Yadgir - KSPCB",04-10-2025 05:00:00,16.7602,77.1428,CO,10,26,15
India,Kerala,Kannur,"Thavakkara, Kannur - Kerala PCB",04-10-2025 05:00:00,11.875000,75.373200,PM10,NA,NA,NA
India,Karnataka,Shivamogga,"Vinoba Nagara, Shivamogga - KSPCB",04-10-2025 05:00:00,13.940000,75.555917,OZONE,12,44,16
India,Karnataka,Vijayapura,"Ibrahimpur, Vijayapura - KSPCB",04-10-2025 05:00:00,16.802639,75.722694,PM2.5,30,37,37
India,Madhya Pradesh,Indore,"Maguda Nagar, Indore - IMC",04-10-2025 05:00:00,22.7524,75.8872,NH3,NA,NA,NA
India,Madhya Pradesh,Indore,"Regional Park, Indore - IMC",04-10-2025 05:00:00,22.6780,75.8559,SO2,20,24,23
India,Madhya Pradesh,Gwalior,"Deen Dayal Nagar, Gwalior - MPPCB",04-10-2025 05:00:00,26.259242,78.216432,OZONE,18,76,51
India,Madhya Pradesh,Indore,"Residency Area, Indore - IMC",04-10-2025 05:00:00,22.7084,75.8815,SO2,20,24,22
India,Madhya Pradesh,Ratlam,"Shasthri Nagar, Ratlam - IPCA Lab",04-10-2025 05:00:00,23.331731,75.045981,PM10,20,123,51
India,Madhya Pradesh,Sagar,"Civil Lines, Sagar - MPPCB",04-10-2025 05:00:00,23.838586,78.759431,PM10,NA,NA,NA
India,Madhya Pradesh,Satna,"Bandhavgar Colony, Satna - Birla Cement",04-10-2025 05:00:00,24.58434363,80.8549414,PM2.5,41,45,44
India,Madhya Pradesh,Satna,"Bandhavgar Colony, Satna - Birla Cement",04-10-2025 05:00:00,24.58434363,80.8549414,NO2,23,29,25
India,Madhya Pradesh,Singrauli,"Suryakiran Bhawan NCL, Singrauli - MPPCB",04-10-2025 05:00:00,24.108970,82.645580,OZONE,13,23,20
India,Maharashtra,Amravati,"Shivneri Colony, Amravati - MPCB",04-10-2025 05:00:00,20.9402359,77.7895248,SO2,1,3,2
India,Maharashtra,Amravati,"Shivneri Colony, Amravati - MPCB",04-10-2025 05:00:00,20.9402359,77.7895248,OZONE,14,46,22
India,Maharashtra,Amravati,"Shri Shivaji Science College, Amravati - MPCB",04-10-2025 05:00:00,20.939198,77.765701,NH3,1,1,1
India,Maharashtra,Aurangabad,"MIDC Chilkalthana, Aurangabad - MPCB",04-10-2025 05:00:00,19.875620,75.387310,PM2.5,12,70,38
India,Madhya Pradesh,Mandideep,"Sector-D Industrial Area, Mandideep - MPPCB",04-10-2025 05:00:00,23.108440,77.511428,NH3,2,4,3
India,Madhya Pradesh,Mandideep,"Sector-D Industrial Area, Mandideep - MPPCB",04-10-2025 05:00:00,23.108440,77.511428,OZONE,10,58,20
