country,state,city,station,last_update,latitude,longitude,pollutant_id,min_value,max_value,avg_value
India,Bihar,Bhagalpur,"DM Office_Kachari Chowk, Bhagalpur - BSPCB",28-10-2025 07:00:00,25.251013,86.989001,NO2,16,20,18
India,Bihar,Bhagalpur,"DM Office_Kachari Chowk, Bhagalpur - BSPCB",28-10-2025 07:00:00,25.251013,86.989001,SO2,45,88,66
India,Bihar,Bhagalpur,"DM Office_Kachari Chowk, Bhagalpur - BSPCB",28-10-2025 07:00:00,25.251013,86.989001,OZONE,6,25,17
India,Bihar,Bhagalpur,"Mayaganj, Bhagalpur - BSPCB",28-10-2025 07:00:00,25.265194,87.012947,OZONE,5,51,20
India,Bihar,Bihar Sharif,"D M Colony, Bihar Sharif - BSPCB",28-10-2025 07:00:00,25.204762,85.514960,PM2.5,58,305,198
India,Bihar,Bihar Sharif,"D M Colony, Bihar Sharif - BSPCB",28-10-2025 07:00:00,25.204762,85.514960,OZONE,20,46,31
India,Bihar,Buxar,"Charitra Van, Buxar - BSPCB",28-10-2025 07:00:00,25.567520,83.966379,SO2,3,7,4
India,Bihar,Buxar,"Charitra Van, Buxar - BSPCB",28-10-2025 07:00:00,25.567520,83.966379,CO,20,27,24
India,Bihar,Chhapra,"Darshan Nagar, Chhapra - BSPCB",28-10-2025 07:00:00,25.7808257,84.7446768,PM2.5,53,120,80
India,Bihar,Chhapra,"Darshan Nagar, Chhapra - BSPCB",28-10-2025 07:00:00,25.7808257,84.7446768,NO2,2,3,3
India,Bihar,Chhapra,"Darshan Nagar, Chhapra - BSPCB",28-10-2025 07:00:00,25.7808257,84.7446768,NH3,10,12,11
India,Bihar,Chhapra,"Darshan Nagar, Chhapra - BSPCB",28-10-2025 07:00:00,25.7808257,84.7446768,CO,6,12,6
India,Bihar,Gaya,"Collectorate, Gaya - BSPCB",28-10-2025 07:00:00,24.7955,84.9994,CO,45,51,47
India,Bihar,Gaya,"Kareemganj, Gaya - BSPCB",28-10-2025 07:00:00,24.792403,84.992416,CO,37,42,40
India,Bihar,Gaya,"SFTI Kusdihra, Gaya - BSPCB",28-10-2025 07:00:00,24.762518,84.982348,NH3,3,4,3
India,Bihar,Gaya,"SFTI Kusdihra, Gaya - BSPCB",28-10-2025 07:00:00,24.762518,84.982348,OZONE,12,55,14
India,Bihar,Hajipur,"Industrial Area, Hajipur - BSPCB",28-10-2025 07:00:00,25.697189,85.245900,PM2.5,113,225,175
India,Bihar,Hajipur,"Industrial Area, Hajipur - BSPCB",28-10-2025 07:00:00,25.697189,85.245900,PM10,79,114,100
India,Bihar,Hajipur,"Industrial Area, Hajipur - BSPCB",28-10-2025 07:00:00,25.697189,85.245900,NH3,3,8,6
India,Bihar,Katihar,"Mirchaibari, Katihar - BSPCB",28-10-2025 07:00:00,25.560083,87.553265,SO2,13,25,17
India,Bihar,Araria,"Kharahiya Basti, Araria - BSPCB",28-10-2025 07:00:00,26.146529,87.454184,CO,20,49,40
India,Bihar,Arrah,"New DM Office, Arrah - BSPCB",28-10-2025 07:00:00,25.5626095,84.663264,NO2,4,8,7
India,Bihar,Arrah,"New DM Office, Arrah - BSPCB",28-10-2025 07:00:00,25.5626095,84.663264,NH3,1,1,1
India,Bihar,Arrah,"New DM Office, Arrah - BSPCB",28-10-2025 07:00:00,25.5626095,84.663264,OZONE,7,10,8
India,Bihar,Aurangabad,"Gurdeo Nagar, Aurangabad - BSPCB",28-10-2025 07:00:00,24.75746,84.366208,NO2,7,8,8
India,Bihar,Aurangabad,"Gurdeo Nagar, Aurangabad - BSPCB",28-10-2025 07:00:00,24.75746,84.366208,SO2,9,14,13
India,Bihar,Begusarai,"Lohiyanagar, Begusarai - BSPCB",28-10-2025 07:00:00,25.42742023,86.13886079,SO2,44,70,55
India,Bihar,Bettiah,"Kamalnath Nagar, Bettiah - BSPCB",28-10-2025 07:00:00,26.80365,84.51954,PM10,NA,NA,NA
India,Bihar,Bettiah,"Kamalnath Nagar, Bettiah - BSPCB",28-10-2025 07:00:00,26.80365,84.51954,NH3,1,2,1
India,Assam,Nagaon,"Christianpatty, Nagaon - PCBA",28-10-2025 07:00:00,26.349082,92.68449,OZONE,8,9,9
India,Assam,Nalbari,"Bata Chowk, Nalbari - PCBA",28-10-2025 07:00:00,26.446912,91.439057,NO2,10,17,14
India,Assam,Silchar,"Tarapur, Silchar - PCBA",28-10-2025 07:00:00,24.82827,92.79525,CO,30,48,42
India,Assam,Sivasagar,"Girls College, Sivasagar - PCBA",28-10-2025 07:00:00,26.987634,94.636574,CO,14,42,38
India,Bihar,Araria,"Kharahiya Basti, Araria - BSPCB",28-10-2025 07:00:00,26.146529,87.454184,NO2,1,46,20
India,Andhra_Pradesh,Chittoor,"Gangineni Cheruvu, Chittoor - APPCB",28-10-2025 07:00:00,13.204880,79.097889,PM10,44,93,66
India,Andhra_Pradesh,Chittoor,"Gangineni Cheruvu, Chittoor - APPCB",28-10-2025 07:00:00,13.204880,79.097889,SO2,17,44,26
India,Andhra_Pradesh,Kadapa,"Yerramukkapalli, Kadapa - APPCB",28-10-2025 07:00:00,14.465052,78.824187,PM10,51,77,66
India,Andhra_Pradesh,Rajamahendravaram,"Anand Kala Kshetram, Rajamahendravaram - APPCB",28-10-2025 07:00:00,16.9872867,81.7363176,NO2,6,29,20
India,Andhra_Pradesh,Tirumala,"Toll Gate, Tirumala - APPCB",28-10-2025 07:00:00,13.67,79.35,SO2,6,8,6
India,Bihar,Kishanganj,"SDM Office_Khagra, Kishanganj - BSPCB",28-10-2025 07:00:00,26.0881305,87.93840336,PM10,102,257,155
India,Bihar,Manguraha,"Forest Rest House, Manguraha - BSPCB",28-10-2025 07:00:00,27.308328,84.531742,PM2.5,47,127,65
India,Bihar,Munger,"Town Hall, Munger - BSPCB",28-10-2025 07:00:00,25.376776,86.471523,PM2.5,50,305,123
India,Bihar,Munger,"Town Hall, Munger - BSPCB",28-10-2025 07:00:00,25.376776,86.471523,NO2,4,5,5
India,Assam,Guwahati,"IITG, Guwahati - PCBA",28-10-2025 07:00:00,26.2028636,91.70046436,NH3,NA,NA,NA
India,Assam,Guwahati,"IITG, Guwahati - PCBA",28-10-2025 07:00:00,26.2028636,91.70046436,OZONE,NA,NA,NA
India,Assam,Guwahati,"Pan Bazaar, Guwahati - PCBA",28-10-2025 07:00:00,26.187500,91.744194,PM10,14,60,38
India,Andhra_Pradesh,Vijayawada,"Rajiv Gandhi Park, Vijayawada - APPCB",28-10-2025 07:00:00,16.509717,80.612222,SO2,15,19,17
India,Andhra_Pradesh,Vijayawada,"Rajiv Nagar, Vijayawada - APPCB",28-10-2025 07:00:00,16.554731,80.649110,PM10,26,371,61
India,Andaman and Nicobar,Sri Vijaya Puram,"Police Line, Sri Vijaya Puram - ANPCC",28-10-2025 07:00:00,11.654054,92.734055,NH3,NA,NA,NA
India,Andaman and Nicobar,Sri Vijaya Puram,"Police Line, Sri Vijaya Puram - ANPCC",28-10-2025 07:00:00,11.654054,92.734055,SO2,NA,NA,NA
India,Bihar,Muzaffarpur,"Muzaffarpur Collectorate, Muzaffarpur - BSPCB",28-10-2025 07:00:00,26.1209,85.3647,NO2,6,15,9
India,Chhattisgarh,Raipur,"Bhatagaon New ISBT, Raipur - CECB",28-10-2025 07:00:00,21.219665,81.630094,NH3,2,2,2
India,Chhattisgarh,Raipur,"Bhatagaon New ISBT, Raipur - CECB",28-10-2025 07:00:00,21.219665,81.630094,CO,6,34,17
India,Chhattisgarh,Raipur,"Krishak Nagar, Raipur - CECB",28-10-2025 07:00:00,21.237755,81.705301,NO2,7,10,8
India,Chhattisgarh,Raipur,"Krishak Nagar, Raipur - CECB",28-10-2025 07:00:00,21.237755,81.705301,SO2,8,10,9
India,Chhattisgarh,Raipur,"Siltara Phase-II, Raipur - CECB",28-10-2025 07:00:00,21.371751,81.664929,NO2,NA,NA,NA
India,Chhattisgarh,Tumidih,"OP Jindal Industrial Park, Tumidih - CECB",28-10-2025 07:00:00,22.06631475,83.33820077,NH3,1,2,1
India,Chhattisgarh,Tumidih,"OP Jindal Industrial Park, Tumidih - CECB",28-10-2025 07:00:00,22.06631475,83.33820077,SO2,5,10,6
India,Chhattisgarh,Tumidih,"OP Jindal Industrial Park, Tumidih - CECB",28-10-2025 07:00:00,22.06631475,83.33820077,OZONE,7,55,14
India,Delhi,Delhi,"Alipur, Delhi - DPCC",28-10-2025 07:00:00,28.815329,77.153010,PM2.5,207,345,306
India,Chhattisgarh,Bhilai,"Civic Center, Bhilai - Bhilai Steel Plant",28-10-2025 07:00:00,21.185571,81.343175,NO2,7,11,8
India,Chhattisgarh,Bhilai,"Civic Center, Bhilai - Bhilai Steel Plant",28-10-2025 07:00:00,21.185571,81.343175,OZONE,7,14,10
India,Chhattisgarh,Bhilai,"Hathkhoj, Bhilai - CECB",28-10-2025 07:00:00,21.224231,81.408350,PM2.5,15,55,32
India,Chhattisgarh,Bhilai,"Hathkhoj, Bhilai - CECB",28-10-2025 07:00:00,21.224231,81.408350,OZONE,10,24,13
India,Chhattisgarh,Bilaspur,"Mangala, Bilaspur - NTPC",28-10-2025 07:00:00,22.08815,82.13737,SO2,7,26,14
India,Chhattisgarh,Bilaspur,"Mangala, Bilaspur - NTPC",28-10-2025 07:00:00,22.08815,82.13737,CO,24,51,39
India,Chhattisgarh,Chhal,"Nawapara SECL Colony, Chhal - CECB",28-10-2025 07:00:00,22.118125,83.140608,NO2,1,2,1
India,Chhattisgarh,Chhal,"Nawapara SECL Colony, Chhal - CECB",28-10-2025 07:00:00,22.118125,83.140608,NH3,6,6,6
India,Chhattisgarh,Korba,"Rampur, Korba - CECB",28-10-2025 07:00:00,22.368195,82.746431,NH3,2,2,2
India,Bihar,Rajgir,"Dangi Tola, Rajgir - BSPCB",28-10-2025 07:00:00,25.03280,85.41948,CO,75,101,89
India,Bihar,Saharsa,"Police Line, Saharsa - BSPCB",28-10-2025 07:00:00,25.892357,86.590325,SO2,13,18,16
India,Bihar,Saharsa,"Police Line, Saharsa - BSPCB",28-10-2025 07:00:00,25.892357,86.590325,CO,29,40,39
India,Bihar,Samastipur,"DM Office_Kasipur, Samastipur - BSPCB",28-10-2025 07:00:00,25.859655,85.77944,SO2,20,27,24
India,Bihar,Sasaram,"Dada Peer, Sasaram - BSPCB",28-10-2025 07:00:00,24.952822,84.002396,OZONE,NA,NA,NA
India,Bihar,Siwan,"Chitragupta Nagar, Siwan - BSPCB",28-10-2025 07:00:00,26.2271665,84.3570427,PM2.5,35,83,48
India,Bihar,Siwan,"Chitragupta Nagar, Siwan - BSPCB",28-10-2025 07:00:00,26.2271665,84.3570427,PM10,43,126,69
India,Bihar,Siwan,"Chitragupta Nagar, Siwan - BSPCB",28-10-2025 07:00:00,26.2271665,84.3570427,SO2,1,1,1
India,Chhattisgarh,Korba,"Urja Nagar, Korba - CECB",28-10-2025 07:00:00,22.348441,82.549611,PM2.5,64,69,64
India,Chhattisgarh,Korba,"Urja Nagar, Korba - CECB",28-10-2025 07:00:00,22.348441,82.549611,SO2,8,15,11
India,Chhattisgarh,Kunjemura,"OP Jindal School, Kunjemura - CECB",28-10-2025 07:00:00,22.126650,83.483212,PM10,17,148,47
India,Chhattisgarh,Kunjemura,"OP Jindal School, Kunjemura - CECB",28-10-2025 07:00:00,22.126650,83.483212,NO2,3,4,3
India,Chhattisgarh,Kunjemura,"OP Jindal School, Kunjemura - CECB",28-10-2025 07:00:00,22.126650,83.483212,SO2,5,18,10
India,Chhattisgarh,Milupara,"Govt. Higher Secondary School, Milupara - CECB",28-10-2025 07:00:00,22.1910172,83.5197009,NO2,9,17,12
India,Chhattisgarh,Milupara,"Govt. Higher Secondary School, Milupara - CECB",28-10-2025 07:00:00,22.1910172,83.5197009,CO,14,28,19
India,Chhattisgarh,Raipur,"AIIMS, Raipur - CECB",28-10-2025 07:00:00,21.258815,81.578979,CO,26,50,33
India,Delhi,Delhi,"CRRI Mathura Road, Delhi - IMD",28-10-2025 07:00:00,28.5512005,77.2735737,NO2,2,78,48
India,Delhi,Delhi,"Chandni Chowk, Delhi - IITM",28-10-2025 07:00:00,28.656756,77.227234,OZONE,NA,NA,NA
India,Delhi,Delhi,"DTU, Delhi - CPCB",28-10-2025 07:00:00,28.7500499,77.1112615,PM10,128,259,187
India,Delhi,Delhi,"DTU, Delhi - CPCB",28-10-2025 07:00:00,28.7500499,77.1112615,NO2,38,80,61
India,Delhi,Delhi,"DTU, Delhi - CPCB",28-10-2025 07:00:00,28.7500499,77.1112615,SO2,28,38,34
India,Chandigarh,Chandigarh,"Sector 22, Chandigarh - CPCC",28-10-2025 07:00:00,30.735567,76.775714,NO2,24,175,52
India,Chandigarh,Chandigarh,"Sector-25, Chandigarh - CPCC",28-10-2025 07:00:00,30.751462,76.762879,CO,17,46,26
India,Chandigarh,Chandigarh,"Sector-53, Chandigarh - CPCC",28-10-2025 07:00:00,30.719859,76.738637,NO2,NA,NA,NA
India,Chhattisgarh,Bhilai,"32Bungalows, Bhilai - CECB",28-10-2025 07:00:00,21.194815,81.314770,PM2.5,9,33,18
India,Bihar,Patna,"Muradpur, Patna - BSPCB",28-10-2025 07:00:00,25.619651,85.147382,OZONE,5,41,6
India,Bihar,Patna,"Rajbansi Nagar, Patna - BSPCB",28-10-2025 07:00:00,25.599486,85.113666,PM2.5,80,141,102
India,Bihar,Purnia,"Mariam Nagar, Purnia - BSPCB",28-10-2025 07:00:00,25.366336,87.117468,NH3,3,3,3
India,Bihar,Patna,"DRM Office Danapur, Patna - BSPCB",28-10-2025 07:00:00,25.586562,85.043586,NO2,18,50,31
India,Bihar,Patna,"Govt. High School Shikarpur, Patna - BSPCB",28-10-2025 07:00:00,25.592539,85.227158,NH3,4,6,6
India,Bihar,Patna,"Govt. High School Shikarpur, Patna - BSPCB",28-10-2025 07:00:00,25.592539,85.227158,CO,52,101,62
India,Delhi,Delhi,"Anand Vihar, Delhi - DPCC",28-10-2025 07:00:00,28.647622,77.3158090,PM2.5,240,435,323
India,Delhi,Delhi,"Anand Vihar, Delhi - DPCC",28-10-2025 07:00:00,28.647622,77.3158090,NH3,14,18,16
India,Delhi,Delhi,"Ashok Vihar, Delhi - DPCC",28-10-2025 07:00:00,28.695381,77.181665,OZONE,8,139,22
India,Delhi,Delhi,"Dr. Karni Singh Shooting Range, Delhi - DPCC",28-10-2025 07:00:00,28.498571,77.264840,SO2,17,60,27
India,Delhi,Delhi,"Dr. Karni Singh Shooting Range, Delhi - DPCC",28-10-2025 07:00:00,28.498571,77.264840,CO,14,102,30
India,Delhi,Delhi,"Dwarka-Sector 8, Delhi - DPCC ",28-10-2025 07:00:00,28.5710274,77.0719006,PM10,140,426,271
India,Delhi,Delhi,"IGI Airport (T3), Delhi - IMD",28-10-2025 07:00:00,28.5627763,77.1180053,PM2.5,188,371,271
India,Delhi,Delhi,"IGI Airport (T3), Delhi - IMD",28-10-2025 07:00:00,28.5627763,77.1180053,PM10,146,410,212
India,Delhi,Delhi,"IHBAS, Dilshad Garden, Delhi - CPCB",28-10-2025 07:00:00,28.6811736,77.3025234,PM2.5,162,323,285
India,Delhi,Delhi,"IHBAS, Dilshad Garden, Delhi - CPCB",28-10-2025 07:00:00,28.6811736,77.3025234,NO2,60,69,66
India,Delhi,Delhi,"IHBAS, Dilshad Garden, Delhi - CPCB",28-10-2025 07:00:00,28.6811736,77.3025234,CO,46,91,70
India,Delhi,Delhi,"ITO, Delhi - CPCB",28-10-2025 07:00:00,28.628624,77.241060,SO2,12,31,20
India,Delhi,Delhi,"Sri Aurobindo Marg, Delhi - DPCC",28-10-2025 07:00:00,28.531346,77.190156,PM2.5,88,314,189
India,Delhi,Delhi,"Sri Aurobindo Marg, Delhi - DPCC",28-10-2025 07:00:00,28.531346,77.190156,NH3,4,6,5
India,Delhi,Delhi,"Wazirpur, Delhi - DPCC",28-10-2025 07:00:00,28.699793,77.165453,PM2.5,324,407,345
India,Delhi,Delhi,"Wazirpur, Delhi - DPCC",28-10-2025 07:00:00,28.699793,77.165453,PM10,182,410,283
India,Delhi,Delhi,"Wazirpur, Delhi - DPCC",28-10-2025 07:00:00,28.699793,77.165453,OZONE,13,170,33
India,Gujarat,Ahmedabad,"Chandkheda, Ahmedabad - IITM",28-10-2025 07:00:00,23.107969,72.574648,NO2,NA,NA,NA
India,Gujarat,Ahmedabad,"Chandkheda, Ahmedabad - IITM",28-10-2025 07:00:00,23.107969,72.574648,OZONE,NA,NA,NA
India,Gujarat,Ahmedabad,"Gyaspur, Ahmedabad - IITM",28-10-2025 07:00:00,22.977134,72.553024,PM2.5,5,30,15
India,Delhi,Delhi,"Narela, Delhi - DPCC",28-10-2025 07:00:00,28.822836,77.101981,NH3,16,19,17
India,Delhi,Delhi,"Narela, Delhi - DPCC",28-10-2025 07:00:00,28.822836,77.101981,SO2,1,26,11
India,Delhi,Delhi,"Narela, Delhi - DPCC",28-10-2025 07:00:00,28.822836,77.101981,CO,14,57,47
India,Delhi,Delhi,"Nehru Nagar, Delhi - DPCC",28-10-2025 07:00:00,28.567890,77.250515,PM10,129,364,219
India,Delhi,Delhi,"Nehru Nagar, Delhi - DPCC",28-10-2025 07:00:00,28.567890,77.250515,SO2,3,29,10
India,Delhi,Delhi,"Nehru Nagar, Delhi - DPCC",28-10-2025 07:00:00,28.567890,77.250515,CO,2,42,10
India,Delhi,Delhi,"North Campus, DU, Delhi - IMD",28-10-2025 07:00:00,28.6573814,77.1585447,PM10,147,385,202
India,Delhi,Delhi,"Okhla Phase-2, Delhi - DPCC",28-10-2025 07:00:00,28.530785,77.271255,PM10,135,348,212
India,Delhi,Delhi,"Rohini, Delhi - DPCC",28-10-2025 07:00:00,28.732528,77.119920,PM10,159,421,260
India,Delhi,Delhi,"Rohini, Delhi - DPCC",28-10-2025 07:00:00,28.732528,77.119920,OZONE,12,149,30
India,Delhi,Delhi,"Shadipur, Delhi - CPCB",28-10-2025 07:00:00,28.6514781,77.1473105,PM10,128,247,171
India,Delhi,Delhi,"Shadipur, Delhi - CPCB",28-10-2025 07:00:00,28.6514781,77.1473105,NO2,65,123,84
India,Delhi,Delhi,"Shadipur, Delhi - CPCB",28-10-2025 07:00:00,28.6514781,77.1473105,SO2,3,13,11
India,Delhi,Delhi,"Shadipur, Delhi - CPCB",28-10-2025 07:00:00,28.6514781,77.1473105,CO,37,96,48
India,Delhi,Delhi,"Sirifort, Delhi - CPCB",28-10-2025 07:00:00,28.5504249,77.2159377,PM2.5,301,420,349
India,Delhi,Delhi,"Sirifort, Delhi - CPCB",28-10-2025 07:00:00,28.5504249,77.2159377,SO2,26,32,29
India,Gujarat,Ankleshwar,"GIDC, Ankleshwar - GPCB",28-10-2025 07:00:00,21.613267,73.010555,PM2.5,26,74,42
India,Gujarat,Ankleshwar,"GIDC, Ankleshwar - GPCB",28-10-2025 07:00:00,21.613267,73.010555,SO2,46,65,50
India,Gujarat,Gandhinagar,"GIFT City, Gandhinagar - IITM",28-10-2025 07:00:00,23.163798,72.677768,SO2,1,10,3
India,Gujarat,Gandhinagar,"IIPHG Lekawada, Gandhinagar - IITM",28-10-2025 07:00:00,23.243639,72.68994,PM2.5,3,35,15
India,Gujarat,Gandhinagar,"IIPHG Lekawada, Gandhinagar - IITM",28-10-2025 07:00:00,23.243639,72.68994,PM10,8,40,19
India,Gujarat,Gandhinagar,"Sector-10, Gandhinagar - GPCB",28-10-2025 07:00:00,23.221714,72.654328,PM2.5,17,52,28
India,Gujarat,Gandhinagar,"Sector-10, Gandhinagar - GPCB",28-10-2025 07:00:00,23.221714,72.654328,NO2,15,16,16
India,Delhi,Delhi,"Mandir Marg, Delhi - DPCC",28-10-2025 07:00:00,28.636429,77.201067,NO2,9,22,15
India,Delhi,Delhi,"Mandir Marg, Delhi - DPCC",28-10-2025 07:00:00,28.636429,77.201067,OZONE,7,153,15
India,Delhi,Delhi,"Mundka, Delhi - DPCC",28-10-2025 07:00:00,28.684678,77.076574,NO2,55,98,70
India,Delhi,Delhi,"NSIT Dwarka, Delhi - CPCB",28-10-2025 07:00:00,28.60909,77.0325413,CO,23,68,34
India,Delhi,Delhi,"NSIT Dwarka, Delhi - CPCB",28-10-2025 07:00:00,28.60909,77.0325413,OZONE,10,78,10
India,Delhi,Delhi,"Najafgarh, Delhi - DPCC",28-10-2025 07:00:00,28.570173,76.933762,PM10,131,408,183
India,Gujarat,Ahmedabad,"Gyaspur, Ahmedabad - IITM",28-10-2025 07:00:00,22.977134,72.553024,CO,15,32,27
India,Gujarat,Ahmedabad,"Raikhad, Ahmedabad - IITM",28-10-2025 07:00:00,23.020509,72.579261,OZONE,8,27,21
India,Gujarat,Ahmedabad,"Rakhial, Ahmedabad - IITM",28-10-2025 07:00:00,23.016834,72.625775,PM10,14,39,22
India,Gujarat,Ahmedabad,"Rakhial, Ahmedabad - IITM",28-10-2025 07:00:00,23.016834,72.625775,SO2,1,12,8
India,Gujarat,Ahmedabad,"SVPI Airport Hansol, Ahmedabad - IITM",28-10-2025 07:00:00,23.076793,72.627874,PM2.5,2,26,8
India,Gujarat,Ahmedabad,"SVPI Airport Hansol, Ahmedabad - IITM",28-10-2025 07:00:00,23.076793,72.627874,PM10,6,39,21
India,Delhi,Delhi,"Punjabi Bagh, Delhi - DPCC",28-10-2025 07:00:00,28.674045,77.131023,NH3,5,87,12
India,Delhi,Delhi,"Pusa, Delhi - DPCC",28-10-2025 07:00:00,28.639652,77.146275,NH3,12,22,18
India,Delhi,Delhi,"Pusa, Delhi - IMD",28-10-2025 07:00:00,28.636110,77.173332,NO2,45,102,63
India,Delhi,Delhi,"Pusa, Delhi - IMD",28-10-2025 07:00:00,28.636110,77.173332,CO,37,111,42
India,Delhi,Delhi,"R K Puram, Delhi - DPCC",28-10-2025 07:00:00,28.563262,77.186937,SO2,1,18,9
India,Delhi,Delhi,"Jahangirpuri, Delhi - DPCC",28-10-2025 07:00:00,28.732820,77.170633,PM10,169,364,241
India,Delhi,Delhi,"Jahangirpuri, Delhi - DPCC",28-10-2025 07:00:00,28.732820,77.170633,SO2,2,26,13
India,Delhi,Delhi,"Major Dhyan Chand National Stadium, Delhi - DPCC",28-10-2025 07:00:00,28.611281,77.237738,PM2.5,247,362,304
India,Delhi,Delhi,"Major Dhyan Chand National Stadium, Delhi - DPCC",28-10-2025 07:00:00,28.611281,77.237738,PM10,163,334,214
India,Delhi,Delhi,"Major Dhyan Chand National Stadium, Delhi - DPCC",28-10-2025 07:00:00,28.611281,77.237738,OZONE,7,206,16
India,Haryana,Sirsa,"F-Block, Sirsa - HSPCB",28-10-2025 07:00:00,29.536400,75.015800,NH3,12,16,13
India,Haryana,Sirsa,"F-Block, Sirsa - HSPCB",28-10-2025 07:00:00,29.536400,75.015800,SO2,5,9,7
India,Haryana,Sonipat,"Murthal, Sonipat - HSPCB",28-10-2025 07:00:00,29.027200,77.062100,PM2.5,NA,NA,NA
India,Haryana,Sonipat,"Murthal, Sonipat - HSPCB",28-10-2025 07:00:00,29.027200,77.062100,NH3,NA,NA,NA
India,Haryana,Sonipat,"Murthal, Sonipat - HSPCB",28-10-2025 07:00:00,29.027200,77.062100,OZONE,25,26,26
India,Haryana,Yamuna Nagar,"Gobind Pura, Yamuna Nagar - HSPCB",28-10-2025 07:00:00,30.1480566,77.2893471,PM10,113,285,178
India,Himachal Pradesh,Baddi,"HIMUDA Complex Phase-1, Baddi - HPPCB",28-10-2025 07:00:00,30.943887,76.801991,PM2.5,47,335,112
India,Himachal Pradesh,Baddi,"HIMUDA Complex Phase-1, Baddi - HPPCB",28-10-2025 07:00:00,30.943887,76.801991,NO2,13,65,31
India,Haryana,Bahadurgarh,"Arya Nagar, Bahadurgarh - HSPCB",28-10-2025 07:00:00,28.6701,76.9254,SO2,7,7,7
India,Haryana,Bahadurgarh,"Arya Nagar, Bahadurgarh - HSPCB",28-10-2025 07:00:00,28.6701,76.9254,OZONE,15,19,17
India,Haryana,Ballabgarh,"Nathu Colony, Ballabgarh - HSPCB",28-10-2025 07:00:00,28.3419248,77.319699,PM2.5,317,322,319
India,Haryana,Ballabgarh,"Nathu Colony, Ballabgarh - HSPCB",28-10-2025 07:00:00,28.3419248,77.319699,SO2,6,10,8
India,Haryana,Ballabgarh,"Nathu Colony, Ballabgarh - HSPCB",28-10-2025 07:00:00,28.3419248,77.319699,CO,48,52,50
India,Haryana,Bhiwani,"H.B. Colony, Bhiwani - HSPCB",28-10-2025 07:00:00,28.806223,76.141105,NO2,1,34,31
India,Haryana,Charkhi Dadri,"Mini Secretariat, Charkhi Dadri - HSPCB",28-10-2025 07:00:00,28.593883,76.270653,PM2.5,235,361,287
India,Haryana,Charkhi Dadri,"Mini Secretariat, Charkhi Dadri - HSPCB",28-10-2025 07:00:00,28.593883,76.270653,NO2,9,24,15
India,Haryana,Gurugram,"NISE Gwal Pahari, Gurugram - IMD",28-10-2025 07:00:00,28.422681,77.148944,CO,100,115,104
India,Haryana,Gurugram,"NISE Gwal Pahari, Gurugram - IMD",28-10-2025 07:00:00,28.422681,77.148944,OZONE,4,60,6
India,Haryana,Gurugram,"Vikas Sadan, Gurugram - HSPCB",28-10-2025 07:00:00,28.4501238,77.0263051,PM2.5,93,174,142
India,Haryana,Jind,"Police Lines, Jind - HSPCB",28-10-2025 07:00:00,29.307814,76.337619,PM10,NA,NA,NA
India,Haryana,Jind,"Police Lines, Jind - HSPCB",28-10-2025 07:00:00,29.307814,76.337619,OZONE,NA,NA,NA
India,Haryana,Kaithal,"Rishi Nagar, Kaithal - HSPCB",28-10-2025 07:00:00,29.8006,76.4155,NO2,29,32,31
India,Haryana,Kaithal,"Rishi Nagar, Kaithal - HSPCB",28-10-2025 07:00:00,29.8006,76.4155,NH3,5,6,6
India,Haryana,Kaithal,"Rishi Nagar, Kaithal - HSPCB",28-10-2025 07:00:00,29.8006,76.4155,CO,4,104,45
India,Gujarat,Surat,"Science Center, Surat - SMC",28-10-2025 07:00:00,21.170046,72.795405,PM10,NA,NA,NA
India,Gujarat,Surat,"Science Center, Surat - SMC",28-10-2025 07:00:00,21.170046,72.795405,NO2,11,16,14
India,Gujarat,Vapi,"Phase-1 GIDC, Vapi - GPCB",28-10-2025 07:00:00,20.362421,72.918013,NO2,13,14,14
India,Gujarat,Vapi,"Phase-1 GIDC, Vapi - GPCB",28-10-2025 07:00:00,20.362421,72.918013,OZONE,2,2,2
India,Gujarat,Vatva,"Phase-4 GIDC, Vatva - GPCB",28-10-2025 07:00:00,22.969611,72.643500,NO2,12,26,16
India,Gujarat,Vatva,"Phase-4 GIDC, Vatva - GPCB",28-10-2025 07:00:00,22.969611,72.643500,CO,10,24,12
India,Gujarat,Vatva,"Phase-4 GIDC, Vatva - GPCB",28-10-2025 07:00:00,22.969611,72.643500,OZONE,6,11,9
India,Haryana,Ambala,"Patti Mehar, Ambala - HSPCB",28-10-2025 07:00:00,30.379589,76.778328,NO2,NA,NA,NA
India,Haryana,Dharuhera,"Municipal Corporation Office, Dharuhera -  HSPCB",28-10-2025 07:00:00,28.206800,76.799700,PM10,157,406,246
India,Haryana,Dharuhera,"Municipal Corporation Office, Dharuhera -  HSPCB",28-10-2025 07:00:00,28.206800,76.799700,NO2,14,51,38
India,Haryana,Faridabad,"New Industrial Town, Faridabad - HSPCB",28-10-2025 07:00:00,28.39072,77.30059,PM10,NA,NA,NA
India,Haryana,Faridabad,"New Industrial Town, Faridabad - HSPCB",28-10-2025 07:00:00,28.39072,77.30059,NO2,NA,NA,NA
India,Haryana,Faridabad,"New Industrial Town, Faridabad - HSPCB",28-10-2025 07:00:00,28.39072,77.30059,NH3,NA,NA,NA
India,Haryana,Faridabad,"New Industrial Town, Faridabad - HSPCB",28-10-2025 07:00:00,28.39072,77.30059,SO2,NA,NA,NA
India,Haryana,Faridabad,"Sector 30, Faridabad - HSPCB",28-10-2025 07:00:00,28.4417,77.3217,PM10,164,169,167
India,Haryana,Faridabad,"Sector 30, Faridabad - HSPCB",28-10-2025 07:00:00,28.4417,77.3217,NH3,11,12,11
India,Haryana,Narnaul,"Shastri Nagar, Narnaul - HSPCB",28-10-2025 07:00:00,28.060249,76.113115,NO2,15,48,28
India,Haryana,Narnaul,"Shastri Nagar, Narnaul - HSPCB",28-10-2025 07:00:00,28.060249,76.113115,NH3,6,17,10
India,Haryana,Panchgaon,"Amity University, Panchgaon - IITM",28-10-2025 07:00:00,28.3153,76.9143,CO,59,99,61
India,Haryana,Panchkula,"Sector-6, Panchkula - HSPCB ",28-10-2025 07:00:00,30.7057778,76.8531805555555,OZONE,NA,NA,NA
India,Haryana,Panipat,"Sector-18, Panipat - HSPCB",28-10-2025 07:00:00,29.432304,76.972765,PM10,NA,NA,NA
India,Karnataka,Bengaluru,"BWSSB Kadabesanahalli, Bengaluru - CPCB",28-10-2025 07:00:00,12.9352049,77.6814488,PM10,31,125,60
India,Karnataka,Bengaluru,"Bapuji Nagar, Bengaluru - KSPCB",28-10-2025 07:00:00,12.951913,77.539784,PM10,28,79,45
India,Karnataka,Bengaluru,"Hebbal, Bengaluru - KSPCB",28-10-2025 07:00:00,13.029152,77.585901,PM2.5,NA,NA,NA
India,Karnataka,Bengaluru,"Hebbal, Bengaluru - KSPCB",28-10-2025 07:00:00,13.029152,77.585901,PM10,NA,NA,NA
India,Karnataka,Bengaluru,"Hebbal, Bengaluru - KSPCB",28-10-2025 07:00:00,13.029152,77.585901,OZONE,NA,NA,NA
India,Jharkhand,Dhanbad,"Sardar Patel Nagar, Dhanbad - JSPCB",28-10-2025 07:00:00,23.80569,86.44268,CO,2,28,14
India,Karnataka,Belgaum,"Ramteerth Nagar, Belgaum - KSPCB",28-10-2025 07:00:00,15.888653,74.541751,CO,22,32,25
India,Karnataka,Bengaluru,"BTM Layout, Bengaluru - CPCB",28-10-2025 07:00:00,12.9135218,77.5950804,PM2.5,26,38,29
India,Haryana,Karnal,"Sector-12, Karnal - HSPCB",28-10-2025 07:00:00,29.695300,77.002700,NO2,9,11,10
India,Haryana,Manesar,"Sector-2 IMT, Manesar - HSPCB",28-10-2025 07:00:00,28.360699,76.936090,PM2.5,44,376,186
India,Haryana,Manesar,"Sector-2 IMT, Manesar - HSPCB",28-10-2025 07:00:00,28.360699,76.936090,CO,49,82,51
India,Karnataka,Gadag,"Panchal Nagar, Gadag - KSPCB",28-10-2025 07:00:00,15.411456,75.638133,PM10,26,411,54
India,Karnataka,Gadag,"Panchal Nagar, Gadag - KSPCB",28-10-2025 07:00:00,15.411456,75.638133,NH3,3,5,4
India,Karnataka,Gadag,"Panchal Nagar, Gadag - KSPCB",28-10-2025 07:00:00,15.411456,75.638133,SO2,26,45,34
India,Karnataka,Hassan,"B.Katihalli, Hassan - KSPCB",28-10-2025 07:00:00,13.008556,76.125258,PM2.5,27,61,39
India,Karnataka,Hassan,"B.Katihalli, Hassan - KSPCB",28-10-2025 07:00:00,13.008556,76.125258,PM10,32,73,46
India,Karnataka,Haveri,"Ashwini Nagar, Haveri - KSPCB",28-10-2025 07:00:00,14.791800,75.389600,NO2,11,22,19
India,Karnataka,Haveri,"Ashwini Nagar, Haveri - KSPCB",28-10-2025 07:00:00,14.791800,75.389600,NH3,2,5,4
India,Karnataka,Haveri,"Ashwini Nagar, Haveri - KSPCB",28-10-2025 07:00:00,14.791800,75.389600,SO2,10,23,21
India,Karnataka,Haveri,"Ashwini Nagar, Haveri - KSPCB",28-10-2025 07:00:00,14.791800,75.389600,CO,44,46,45
India,Karnataka,Haveri,"Ashwini Nagar, Haveri - KSPCB",28-10-2025 07:00:00,14.791800,75.389600,OZONE,19,37,25
India,Karnataka,Hubballi,"Deshpande Nagar, Hubballi - KSPCB",28-10-2025 07:00:00,15.351773,75.140726,CO,20,20,20
India,Karnataka,Tumakuru,"Thimmalapura, Tumakuru - KSPCB",28-10-2025 07:00:00,13.377516,77.099072,OZONE,23,23,23
India,Karnataka,Vijayapura,"Ibrahimpur, Vijayapura - KSPCB",28-10-2025 07:00:00,16.802639,75.722694,PM2.5,26,31,30
India,Karnataka,Vijayapura,"Ibrahimpur, Vijayapura - KSPCB",28-10-2025 07:00:00,16.802639,75.722694,PM10,42,43,42
India,Karnataka,Vijayapura,"Ibrahimpur, Vijayapura - KSPCB",28-10-2025 07:00:00,16.802639,75.722694,NO2,11,12,11
India,Karnataka,Yadgir,"Collector Office, Yadgir - KSPCB",28-10-2025 07:00:00,16.7602,77.1428,NO2,22,41,29
India,Karnataka,Yadgir,"Collector Office, Yadgir - KSPCB",28-10-2025 07:00:00,16.7602,77.1428,SO2,8,34,18
India,Karnataka,Yadgir,"Collector Office, Yadgir - KSPCB",28-10-2025 07:00:00,16.7602,77.1428,OZONE,16,19,18
India,Kerala,Kannur,"Thavakkara, Kannur - Kerala PCB",28-10-2025 07:00:00,11.875000,75.373200,NO2,NA,NA,NA
India,Karnataka,Mangalore,"Kadri, Mangalore - KSPCB",28-10-2025 07:00:00,12.889250,74.853000,NO2,4,7,5
India,Karnataka,Mysuru,"Hebbal 1st Stage, Mysuru - KSPCB",28-10-2025 07:00:00,12.21041,76.37376,PM10,29,42,39
India,Karnataka,Mysuru,"Hebbal 1st Stage, Mysuru - KSPCB",28-10-2025 07:00:00,12.21041,76.37376,NH3,3,7,5
India,Karnataka,Shivamogga,"Vinoba Nagara, Shivamogga - KSPCB",28-10-2025 07:00:00,13.940000,75.555917,CO,13,20,18
India,Karnataka,Shivamogga,"Vinoba Nagara, Shivamogga - KSPCB",28-10-2025 07:00:00,13.940000,75.555917,OZONE,12,44,22
India,Karnataka,Tumakuru,"Thimmalapura, Tumakuru - KSPCB",28-10-2025 07:00:00,13.377516,77.099072,PM2.5,NA,NA,NA
India,Karnataka,Tumakuru,"Thimmalapura, Tumakuru - KSPCB",28-10-2025 07:00:00,13.377516,77.099072,PM10,NA,NA,NA
India,Karnataka,Tumakuru,"Thimmalapura, Tumakuru - KSPCB",28-10-2025 07:00:00,13.377516,77.099072,SO2,NA,NA,NA
India,Karnataka,Hubballi,"Lingaraj Nagar, Hubballi - KSPCB",28-10-2025 07:00:00,15.3714823,75.1160168,CO,12,18,13
India,Karnataka,Kalaburagi,"Lal Bahadur Shastri Nagar, Kalaburagi - KSPCB",28-10-2025 07:00:00,17.321993,76.822628,PM2.5,NA,NA,NA
India,Karnataka,Kalaburagi,"Mahatma Basaveswar Colony, Kalaburgi - KSPCB",28-10-2025 07:00:00,17.336318,76.847397,NO2,10,18,14
India,Karnataka,Kalaburagi,"Mahatma Basaveswar Colony, Kalaburgi - KSPCB",28-10-2025 07:00:00,17.336318,76.847397,NH3,2,3,3
India,Karnataka,Koppal,"Diwator Nagar, Koppal - KSPCB",28-10-2025 07:00:00,15.347630,76.181767,PM2.5,28,62,44
India,Karnataka,Madikeri,"Stuart Hill, Madikeri - KSPCB",28-10-2025 07:00:00,12.415911,75.735050,PM2.5,5,37,21
India,Kerala,Thiruvananthapuram,"Kariavattom, Thiruvananthapuram - Kerala PCB",28-10-2025 07:00:00,8.563700,76.886500,PM2.5,16,29,24
India,Kerala,Thrissur,"Corporation Ground, Thrissur - Kerala PCB",28-10-2025 07:00:00,10.532400,76.215900,PM10,41,59,47
India,Kerala,Thrissur,"Corporation Ground, Thrissur - Kerala PCB",28-10-2025 07:00:00,10.532400,76.215900,OZONE,29,30,29
India,Madhya Pradesh,Bhopal,"Idgah Hills, Bhopal - MPPCB",28-10-2025 07:00:00,23.264759,77.381568,NH3,3,5,4
India,Madhya Pradesh,Bhopal,"Paryavaran Parisar, Bhopal - MPPCB",28-10-2025 07:00:00,23.210494,77.425409,NH3,4,5,4
India,Madhya Pradesh,Bhopal,"T T Nagar, Bhopal - MPPCB",28-10-2025 07:00:00,23.233584,77.400574,PM10,32,104,70
India,Madhya Pradesh,Damoh,"Shrivastav Colony, Damoh - MPPCB",28-10-2025 07:00:00,23.81748678,79.446246,PM10,14,59,35
India,Madhya Pradesh,Dewas,"Bhopal Chauraha, Dewas - MPPCB",28-10-2025 07:00:00,22.9682591,76.064118,NO2,58,87,64
India,Karnataka,Chikkamagaluru,"Kalyana Nagara, Chikkamagaluru - KSPCB",28-10-2025 07:00:00,13.328028,75.797056,CO,11,11,11
India,Karnataka,Davanagere,"Devaraj Urs Badavane, Davanagere - KSPCB",28-10-2025 07:00:00,14.475800,75.905200,NO2,11,27,17
India,Karnataka,Dharwad,"Kalabhavan, Dharwad - KSPCB",28-10-2025 07:00:00,15.459706,75.008381,PM10,49,80,68
India,Karnataka,Bengaluru,"Peenya, Bengaluru - CPCB",28-10-2025 07:00:00,13.0270199,77.494094,CO,29,50,33
India,Karnataka,Bidar,"Naubad, Bidar - KSPCB",28-10-2025 07:00:00,17.930306,77.482194,NO2,11,17,14
India,Karnataka,Chamarajanagar,"Urban, Chamarajanagar - KSPCB",28-10-2025 07:00:00,11.55358,76.55521,PM2.5,20,46,30
India,Karnataka,Bengaluru,"Jayanagar 5th Block, Bengaluru - KSPCB",28-10-2025 07:00:00,12.920984,77.584908,NH3,NA,NA,NA
India,Karnataka,Bengaluru,"Jigani, Bengaluru - KSPCB",28-10-2025 07:00:00,12.7816279,77.6299145,CO,38,39,38
India,Karnataka,Bengaluru,"Jigani, Bengaluru - KSPCB",28-10-2025 07:00:00,12.7816279,77.6299145,OZONE,25,26,25
India,Maharashtra,Jalna,"Old MIDC, Jalna - MPCB",28-10-2025 07:00:00,19.854616,75.905894,PM2.5,31,55,39
India,Maharashtra,Jalna,"Old MIDC, Jalna - MPCB",28-10-2025 07:00:00,19.854616,75.905894,NO2,38,49,43
India,Maharashtra,Jalna,"Old MIDC, Jalna - MPCB",28-10-2025 07:00:00,19.854616,75.905894,NH3,3,4,4
India,Maharashtra,Jalna,"Old MIDC, Jalna - MPCB",28-10-2025 07:00:00,19.854616,75.905894,SO2,11,12,11
India,Maharashtra,Kalyan,"Pimpleshwar Mandir, Kalyan - MPCB",28-10-2025 07:00:00,19.192056,72.9585188,NO2,9,16,11
India,Maharashtra,Kolhapur,"Shivaji University, Kolhapur - MPCB",28-10-2025 07:00:00,16.6870449,74.2505872,PM10,NA,NA,NA
India,Maharashtra,Kolhapur,"Shivaji University, Kolhapur - MPCB",28-10-2025 07:00:00,16.6870449,74.2505872,NO2,1,21,11
India,Maharashtra,Kolhapur,"Sinchan Bhavan, Kolhapur - MPCB",28-10-2025 07:00:00,16.7143745,74.2426398,PM10,34,106,66
India,Maharashtra,Kolhapur,"Sinchan Bhavan, Kolhapur - MPCB",28-10-2025 07:00:00,16.7143745,74.2426398,OZONE,3,32,8
India,Maharashtra,Aurangabad,"Rachnakar Colony, Aurangabad - MPCB",28-10-2025 07:00:00,19.863756,75.321188,NO2,19,24,21
India,Maharashtra,Badlapur,"Katrap, Badlapur - MPCB",28-10-2025 07:00:00,19.16485,73.23409,SO2,4,19,10
India,Maharashtra,Badlapur,"Katrap, Badlapur - MPCB",28-10-2025 07:00:00,19.16485,73.23409,CO,14,34,21
India,Maharashtra,Badlapur,"Katrap, Badlapur - MPCB",28-10-2025 07:00:00,19.16485,73.23409,OZONE,12,57,13
India,Maharashtra,Belapur,"CBD Belapur, Belapur - MPCB",28-10-2025 07:00:00,19.0243902,73.0406721,PM2.5,15,39,28
India,Maharashtra,Belapur,"CBD Belapur, Belapur - MPCB",28-10-2025 07:00:00,19.0243902,73.0406721,SO2,NA,NA,NA
India,Maharashtra,Belapur,"CBD Belapur, Belapur - MPCB",28-10-2025 07:00:00,19.0243902,73.0406721,OZONE,1,30,13
India,Maharashtra,Boisar,"Khaira, Boisar - MPCB",28-10-2025 07:00:00,19.786089,72.757971,PM2.5,7,32,18
India,Madhya Pradesh,Maihar,"Sahilara, Maihar - KJS Cements",28-10-2025 07:00:00,24.2613009,80.7231783,PM2.5,19,322,105
India,Madhya Pradesh,Maihar,"Sahilara, Maihar - KJS Cements",28-10-2025 07:00:00,24.2613009,80.7231783,NO2,36,58,50
India,Madhya Pradesh,Maihar,"Sahilara, Maihar - KJS Cements",28-10-2025 07:00:00,24.2613009,80.7231783,CO,8,17,15
India,Madhya Pradesh,Mandideep,"Sector-D Industrial Area, Mandideep - MPPCB",28-10-2025 07:00:00,23.108440,77.511428,NH3,4,5,5
India,Madhya Pradesh,Pithampur,"Sector-2 Industrial Area, Pithampur - MPPCB",28-10-2025 07:00:00,22.624758,75.675238,OZONE,13,28,15
India,Madhya Pradesh,Sagar,"Civil Lines, Sagar - MPPCB",28-10-2025 07:00:00,23.838586,78.759431,NO2,5,20,9
India,Madhya Pradesh,Sagar,"Civil Lines, Sagar - MPPCB",28-10-2025 07:00:00,23.838586,78.759431,NH3,1,2,1
India,Madhya Pradesh,Sagar,"Civil Lines, Sagar - MPPCB",28-10-2025 07:00:00,23.838586,78.759431,OZONE,19,36,26
India,Maharashtra,Ahmednagar,"Tarakpur, Ahmednagar - MPCB",28-10-2025 07:00:00,19.10122,74.73339,SO2,3,7,5
India,Maharashtra,Ahmednagar,"Tarakpur, Ahmednagar - MPCB",28-10-2025 07:00:00,19.10122,74.73339,CO,4,96,74
India,Maharashtra,Ahmednagar,"Tarakpur, Ahmednagar - MPCB",28-10-2025 07:00:00,19.10122,74.73339,OZONE,9,30,20
India,Maharashtra,Akola,"Ramdaspeth, Akola - MPCB",28-10-2025 07:00:00,20.719516,77.000253,PM2.5,17,61,39
India,Maharashtra,Akola,"Ramdaspeth, Akola - MPCB",28-10-2025 07:00:00,20.719516,77.000253,NH3,5,10,7
India,Maharashtra,Boisar,"Khaira, Boisar - MPCB",28-10-2025 07:00:00,19.786089,72.757971,SO2,11,24,15
India,Maharashtra,Boisar,"Khaira, Boisar - MPCB",28-10-2025 07:00:00,19.786089,72.757971,CO,2,26,9
India,Maharashtra,Chandrapur,"Chauhan Colony, Chandrapur - MPCB",28-10-2025 07:00:00,19.962900,79.298714,OZONE,19,19,19
India,Maharashtra,Chandrapur,"MIDC Khutala, Chandrapur - MPCB",28-10-2025 07:00:00,19.9775302,79.2337086,PM2.5,17,114,54
India,Maharashtra,Jalgaon,"Prabhat Colony, Jalgaon - MPCB",28-10-2025 07:00:00,21.001264,75.565602,PM2.5,27,66,49
India,Madhya Pradesh,Gwalior,"Deen Dayal Nagar, Gwalior - MPPCB",28-10-2025 07:00:00,26.259242,78.216432,CO,26,82,40
India,Madhya Pradesh,Gwalior,"Maharaj Bada, Gwalior - MPPCB",28-10-2025 07:00:00,26.200388,78.147714,NO2,8,61,30
India,Madhya Pradesh,Gwalior,"Maharaj Bada, Gwalior - MPPCB",28-10-2025 07:00:00,26.200388,78.147714,SO2,5,17,9
India,Madhya Pradesh,Indore,"Airport Area, Indore - IMC",28-10-2025 07:00:00,22.7289,75.8076,OZONE,NA,NA,NA
India,Madhya Pradesh,Indore,"Chhoti Gwaltoli, Indore - MPPCB",28-10-2025 07:00:00,22.4310,75.5213,NH3,1,6,5
India,Maharashtra,Mahad,"Kamble Tarf Birwadi, Mahad - MPCB",28-10-2025 07:00:00,18.1023399,73.4783687,CO,27,60,46
India,Maharashtra,Mahad,"Kamble Tarf Birwadi, Mahad - MPCB",28-10-2025 07:00:00,18.1023399,73.4783687,OZONE,11,58,15
India,Maharashtra,Malegaon,"Mahesh Nagar, Malegaon - MPCB",28-10-2025 07:00:00,20.555712,74.529236,PM10,43,67,57
India,Maharashtra,Malegaon,"Mahesh Nagar, Malegaon - MPCB",28-10-2025 07:00:00,20.555712,74.529236,SO2,1,35,9
India,Maharashtra,Mira-Bhayandar,"Bhayandar West, Mira-Bhayandar - MPCB",28-10-2025 07:00:00,19.296481,72.840923,OZONE,1,32,13
India,Maharashtra,Amravati,"Shivneri Colony, Amravati - MPCB",28-10-2025 07:00:00,20.9402359,77.7895248,NH3,2,2,2
India,Maharashtra,Aurangabad,"MIDC Chilkalthana, Aurangabad - MPCB",28-10-2025 07:00:00,19.875620,75.387310,OZONE,1,53,10
India,Maharashtra,Aurangabad,"More Chowk Waluj, Aurangabad - MPCB",28-10-2025 07:00:00,19.8389439,75.244448,NO2,15,24,19
India,Maharashtra,Aurangabad,"More Chowk Waluj, Aurangabad - MPCB",28-10-2025 07:00:00,19.8389439,75.244448,NH3,10,12,11
India,Maharashtra,Aurangabad,"More Chowk Waluj, Aurangabad - MPCB",28-10-2025 07:00:00,19.8389439,75.244448,SO2,15,19,16
India,Madhya Pradesh,Jabalpur,"Govindh Bhavan Colony, Jabalpur - JMC",28-10-2025 07:00:00,23.163174,79.973061,NH3,1,1,1
India,Madhya Pradesh,Jabalpur,"Gupteshwar, Jabalpur - JMC",28-10-2025 07:00:00,23.142888,79.916147,NH3,1,4,2
India,Madhya Pradesh,Jabalpur,"Marhatal, Jabalpur - MPPCB",28-10-2025 07:00:00,23.168606,79.932247,NH3,1,3,2
India,Madhya Pradesh,Jabalpur,"Suhagi, Jabalpur - JMC",28-10-2025 07:00:00,23.218135,79.957770,PM2.5,65,163,97
India,Madhya Pradesh,Jabalpur,"Suhagi, Jabalpur - JMC",28-10-2025 07:00:00,23.218135,79.957770,NH3,2,3,2
India,Maharashtra,Mumbai,"Bandra Kurla Complex, Mumbai - MPCB",28-10-2025 07:00:00,19.065931,72.862131,PM10,21,56,40
India,Maharashtra,Mumbai,"Bandra Kurla Complex, Mumbai - MPCB",28-10-2025 07:00:00,19.065931,72.862131,NO2,18,38,27
India,Maharashtra,Mumbai,"Bandra Kurla Complex, Mumbai - MPCB",28-10-2025 07:00:00,19.065931,72.862131,NH3,3,16,8
India,Maharashtra,Mumbai,"Bandra Kurla Complex, Mumbai - MPCB",28-10-2025 07:00:00,19.065931,72.862131,SO2,2,6,4
India,Maharashtra,Mumbai,"Bandra Kurla Complex, Mumbai - MPCB",28-10-2025 07:00:00,19.065931,72.862131,OZONE,2,21,7
India,Maharashtra,Mumbai,"Borivali East, Mumbai - IITM",28-10-2025 07:00:00,19.23241,72.86895,CO,64,80,67
India,Maharashtra,Mumbai,"Borivali East, Mumbai - IITM",28-10-2025 07:00:00,19.23241,72.86895,OZONE,11,47,34
India,Maharashtra,Mumbai,"Borivali East, Mumbai - MPCB",28-10-2025 07:00:00,19.2243333,72.8658113,SO2,19,23,21
India,Maharashtra,Nanded,"Sneh Nagar, Nanded - MPCB",28-10-2025 07:00:00,19.173852,77.296291,PM10,37,71,58
India,Maharashtra,Nanded,"Sneh Nagar, Nanded - MPCB",28-10-2025 07:00:00,19.173852,77.296291,NH3,4,5,4
India,Maharashtra,Nanded,"Sneh Nagar, Nanded - MPCB",28-10-2025 07:00:00,19.173852,77.296291,OZONE,21,72,34
India,Maharashtra,Nashik,"Gangapur Road, Nashik - MPCB",28-10-2025 07:00:00,20.0073285,73.7762427,SO2,1,8,5
India,Maharashtra,Nashik,"Gangapur Road, Nashik - MPCB",28-10-2025 07:00:00,20.0073285,73.7762427,OZONE,10,31,25
India,Maharashtra,Nashik,"Hirawadi, Nashik - MPCB",28-10-2025 07:00:00,20.021503,73.813844,CO,49,65,54
India,Maharashtra,Nashik,"MIDC Ambad, Nashik - MPCB",28-10-2025 07:00:00,19.950220,73.731480,PM2.5,5,36,22
India,Maharashtra,Nashik,"Pandav Nagari, Nashik - MPCB",28-10-2025 07:00:00,19.9591346,73.7788008,PM10,8,20,15
India,Maharashtra,Navi Mumbai,"Kopripada-Vashi, Navi Mumbai - MPCB",28-10-2025 07:00:00,19.090337,73.014232,SO2,NA,NA,NA
India,Maharashtra,Navi Mumbai,"Kopripada-Vashi, Navi Mumbai - MPCB",28-10-2025 07:00:00,19.090337,73.014232,CO,NA,NA,NA
India,Maharashtra,Navi Mumbai,"Mahape, Navi Mumbai - MPCB",28-10-2025 07:00:00,19.1135051,73.008978,OZONE,9,12,10
India,Maharashtra,Navi Mumbai,"Sanpada, Navi Mumbai - MPCB",28-10-2025 07:00:00,19.0575752,73.0151367,NO2,1,6,3
India,Maharashtra,Navi Mumbai,"Sanpada, Navi Mumbai - MPCB",28-10-2025 07:00:00,19.0575752,73.0151367,NH3,10,19,13
India,Maharashtra,Mumbai,"Worli, Mumbai - MPCB",28-10-2025 07:00:00,18.9936162,72.8128113,SO2,21,31,24
India,Maharashtra,Nagpur,"Ambazari, Nagpur - MPCB",28-10-2025 07:00:00,21.121801,79.04952,NO2,9,47,19
India,Maharashtra,Nagpur,"Ambazari, Nagpur - MPCB",28-10-2025 07:00:00,21.121801,79.04952,NH3,3,10,5
India,Maharashtra,Nagpur,"Mahal, Nagpur - MPCB",28-10-2025 07:00:00,21.14472,79.107595,PM2.5,1,16,5
India,Maharashtra,Nagpur,"Mahal, Nagpur - MPCB",28-10-2025 07:00:00,21.14472,79.107595,PM10,54,99,74
India,Maharashtra,Nagpur,"Opp GPO Civil Lines, Nagpur - MPCB",28-10-2025 07:00:00,21.152875,79.0517531,OZONE,3,22,9
India,Maharashtra,Mumbai,"Siddharth Nagar-Worli, Mumbai - IITM",28-10-2025 07:00:00,19.000083,72.813993,PM10,22,72,34
India,Maharashtra,Mumbai,"Siddharth Nagar-Worli, Mumbai - IITM",28-10-2025 07:00:00,19.000083,72.813993,NH3,3,5,4
India,Maharashtra,Mumbai,"Siddharth Nagar-Worli, Mumbai - IITM",28-10-2025 07:00:00,19.000083,72.813993,OZONE,11,39,21
India,Maharashtra,Mumbai,"Sion, Mumbai - MPCB",28-10-2025 07:00:00,19.047000,72.874600,PM2.5,10,60,29
India,Maharashtra,Mumbai,"Sion, Mumbai - MPCB",28-10-2025 07:00:00,19.047000,72.874600,CO,14,20,18
India,Maharashtra,Mumbai,"Worli, Mumbai - MPCB",28-10-2025 07:00:00,18.9936162,72.8128113,PM2.5,57,68,61
India,Maharashtra,Mumbai,"Mulund West, Mumbai - MPCB",28-10-2025 07:00:00,19.1750,72.9419,NH3,3,4,4
India,Maharashtra,Mumbai,"Navy Nagar-Colaba, Mumbai - IITM",28-10-2025 07:00:00,18.897756,72.813320,PM10,31,71,44
India,Maharashtra,Mumbai,"Navy Nagar-Colaba, Mumbai - IITM",28-10-2025 07:00:00,18.897756,72.813320,SO2,8,12,10
India,Maharashtra,Mumbai,"Powai, Mumbai - MPCB",28-10-2025 07:00:00,19.137500,72.915056,PM10,27,73,42
India,Maharashtra,Mumbai,"Powai, Mumbai - MPCB",28-10-2025 07:00:00,19.137500,72.915056,SO2,27,31,28
India,Maharashtra,Mumbai,"Powai, Mumbai - MPCB",28-10-2025 07:00:00,19.137500,72.915056,CO,16,16,16
India,Maharashtra,Mumbai,"Khindipada-Bhandup West, Mumbai - IITM",28-10-2025 07:00:00,19.1653323,72.922099,PM10,8,44,25
India,Maharashtra,Mumbai,"Malad West, Mumbai - IITM",28-10-2025 07:00:00,19.19709,72.82204,PM2.5,2,31,9
India,Maharashtra,Mumbai,"Malad West, Mumbai - IITM",28-10-2025 07:00:00,19.19709,72.82204,OZONE,5,39,31
India,Maharashtra,Mumbai,"Mazgaon, Mumbai - IITM",28-10-2025 07:00:00,18.96702,72.84214,SO2,8,12,10
India,Maharashtra,Mumbai,"Mindspace-Malad West, Mumbai - MPCB",28-10-2025 07:00:00,19.1878657,72.8304069,PM10,8,94,39
India,Maharashtra,Mumbai,"Deonar, Mumbai - IITM",28-10-2025 07:00:00,19.04946,72.9230,NO2,6,23,13
India,Maharashtra,Mumbai,"Ghatkopar, Mumbai - BMC",28-10-2025 07:00:00,19.083694,72.920967,PM2.5,2,15,7
India,Maharashtra,Mumbai,"Kherwadi_Bandra East, Mumbai - MPCB",28-10-2025 07:00:00,19.0632143,72.8456324,PM2.5,11,41,23
India,Maharashtra,Mumbai,"Kherwadi_Bandra East, Mumbai - MPCB",28-10-2025 07:00:00,19.0632143,72.8456324,NO2,1,13,6
India,Maharashtra,Mumbai,"Kherwadi_Bandra East, Mumbai - MPCB",28-10-2025 07:00:00,19.0632143,72.8456324,SO2,3,6,4
India,Maharashtra,Mumbai,"Chakala-Andheri East, Mumbai - IITM",28-10-2025 07:00:00,19.11074,72.86084,PM10,21,57,37
India,Maharashtra,Mumbai,"Chakala-Andheri East, Mumbai - IITM",28-10-2025 07:00:00,19.11074,72.86084,NO2,26,55,37
India,Odisha,Cuttack,"CDA Area, Cuttack - OSPCB",28-10-2025 07:00:00,20.48891     ,85.84768     ,PM2.5,7,52,27
India,Odisha,Cuttack,"CDA Area, Cuttack - OSPCB",28-10-2025 07:00:00,20.48891     ,85.84768     ,PM10,9,112,52
India,Odisha,Cuttack,"CDA Area, Cuttack - OSPCB",28-10-2025 07:00:00,20.48891     ,85.84768     ,NH3,1,2,1
India,Odisha,Cuttack,"CDA Area, Cuttack - OSPCB",28-10-2025 07:00:00,20.48891     ,85.84768     ,CO,16,54,38
India,Odisha,Keonjhar,"Jagamohanpur, Keonjhar - OSPCB",28-10-2025 07:00:00,21.643900,85.599355,SO2,2,7,3
India,Odisha,Keonjhar,"Jagamohanpur, Keonjhar - OSPCB",28-10-2025 07:00:00,21.643900,85.599355,CO,2,137,44
India,Odisha,Keonjhar,"Jagamohanpur, Keonjhar - OSPCB",28-10-2025 07:00:00,21.643900,85.599355,OZONE,15,21,18
India,Odisha,Nayagarh,"Dabuna, Nayagarh - OSPCB",28-10-2025 07:00:00,21.847279,85.416905,PM2.5,9,24,16
India,Odisha,Nayagarh,"Dabuna, Nayagarh - OSPCB",28-10-2025 07:00:00,21.847279,85.416905,OZONE,12,22,13
India,Odisha,Rairangpur,"Divisional Forest Office, Rairangpur - OSPCB",28-10-2025 07:00:00,22.265816,86.174829,PM10,14,337,74
India,Odisha,Rairangpur,"Divisional Forest Office, Rairangpur - OSPCB",28-10-2025 07:00:00,22.265816,86.174829,NO2,13,22,17
India,Odisha,Rourkela,"Fertilizer Township, Rourkela - OSPCB",28-10-2025 07:00:00,22.18972222,84.86277778,PM10,58,93,86
India,Odisha,Rourkela,"Fertilizer Township, Rourkela - OSPCB",28-10-2025 07:00:00,22.18972222,84.86277778,NO2,11,11,11
India,Maharashtra,Pimpri-Chinchwad,"Park Street Wakad, Pimpri Chinchwad - MPCB",28-10-2025 07:00:00,18.59051,73.77946,NH3,5,6,5
India,Maharashtra,Pimpri-Chinchwad,"Park Street Wakad, Pimpri Chinchwad - MPCB",28-10-2025 07:00:00,18.59051,73.77946,CO,10,40,24
India,Maharashtra,Pimpri-Chinchwad,"Park Street Wakad, Pimpri Chinchwad - MPCB",28-10-2025 07:00:00,18.59051,73.77946,OZONE,1,32,5
India,Maharashtra,Pimpri-Chinchwad,"Savta Mali Nagar, Pimpri-Chinchwad - IITM",28-10-2025 07:00:00,18.614767,73.799516,NO2,21,50,31
India,Maharashtra,Pimpri-Chinchwad,"Savta Mali Nagar, Pimpri-Chinchwad - IITM",28-10-2025 07:00:00,18.614767,73.799516,CO,NA,NA,NA
India,Maharashtra,Pimpri-Chinchwad,"Thergaon, Pimpri Chinchwad - MPCB",28-10-2025 07:00:00,18.616318,73.765797,SO2,NA,NA,NA
India,Maharashtra,Pimpri-Chinchwad,"Thergaon, Pimpri Chinchwad - MPCB",28-10-2025 07:00:00,18.616318,73.765797,OZONE,NA,NA,NA
India,Maharashtra,Pune,"Katraj Dairy, Pune - MPCB",28-10-2025 07:00:00,18.454450,73.854155,NH3,1,4,2
India,Maharashtra,Pune,"Mhada Colony, Pune - IITM",28-10-2025 07:00:00,18.573040,73.927715,PM2.5,11,47,28
India,Maharashtra,Pune,"Mhada Colony, Pune - IITM",28-10-2025 07:00:00,18.573040,73.927715,PM10,32,69,42
India,Maharashtra,Ulhasnagar,"Sidhi Vinayak Nagar, Ulhasnagar - MPCB",28-10-2025 07:00:00,19.235581,73.159121,PM2.5,24,45,32
India,Maharashtra,Ulhasnagar,"Sidhi Vinayak Nagar, Ulhasnagar - MPCB",28-10-2025 07:00:00,19.235581,73.159121,PM10,27,452,68
India,Maharashtra,Ulhasnagar,"Sidhi Vinayak Nagar, Ulhasnagar - MPCB",28-10-2025 07:00:00,19.235581,73.159121,NO2,10,25,18
India,Meghalaya,Shillong,"JN Stadium, Shillong - Meghalaya PCB",28-10-2025 07:00:00,25.5803419,91.8942571,PM10,NA,NA,NA
India,Meghalaya,Shillong,"JN Stadium, Shillong - Meghalaya PCB",28-10-2025 07:00:00,25.5803419,91.8942571,NH3,13,20,16
India,Meghalaya,Shillong,"Lumpyngngad, Shillong - Meghalaya PCB",28-10-2025 07:00:00,25.5586,91.8985,PM2.5,NA,NA,NA
India,Meghalaya,Shillong,"Lumpyngngad, Shillong - Meghalaya PCB",28-10-2025 07:00:00,25.5586,91.8985,OZONE,2,18,13
India,Nagaland,Kohima,"PWD Junction, Kohima - NPCB",28-10-2025 07:00:00,25.6635413,94.0989878,PM10,22,114,56
India,Nagaland,Kohima,"PWD Junction, Kohima - NPCB",28-10-2025 07:00:00,25.6635413,94.0989878,SO2,70,73,71
India,Maharashtra,Pune,"Mhada Colony, Pune - IITM",28-10-2025 07:00:00,18.573040,73.927715,CO,34,86,53
India,Maharashtra,Pune,"Mhada Colony, Pune - IITM",28-10-2025 07:00:00,18.573040,73.927715,OZONE,14,47,17
India,Maharashtra,Pune,"Panchawati_Pashan, Pune - IITM",28-10-2025 07:00:00,18.536457,73.805454,PM2.5,8,43,17
India,Maharashtra,Pune,"Savitribai Phule Pune University, Pune - MPCB",28-10-2025 07:00:00,18.547056,73.826908,NH3,1,1,1
India,Maharashtra,Pune,"Savitribai Phule Pune University, Pune - MPCB",28-10-2025 07:00:00,18.547056,73.826908,SO2,NA,NA,NA
India,Maharashtra,Pune,"Savitribai Phule Pune University, Pune - MPCB",28-10-2025 07:00:00,18.547056,73.826908,OZONE,NA,NA,NA
India,Maharashtra,Sangli,"Vijay Nagar, Sangli - MPCB",28-10-2025 07:00:00, 16.5038,74.3623,NO2,2,23,8
India,Maharashtra,Sangli,"Vijay Nagar, Sangli - MPCB",28-10-2025 07:00:00, 16.5038,74.3623,NH3,2,4,3
India,Odisha,Rourkela,"Raghunathpali, Rourkela - OSPCB",28-10-2025 07:00:00,22.220833,84.809444,PM10,51,90,69
India,Odisha,Talcher,"Talcher Coalfields,Talcher - OSPCB",28-10-2025 07:00:00,20.9360711,85.1707021,CO,1,31,14
India,Odisha,Tensa,"Barsua Iron Ore Mines, Tensa - OSPCB",28-10-2025 07:00:00,21.869985,85.167016,NH3,NA,NA,NA
India,Odisha,Tensa,"Barsua Iron Ore Mines, Tensa - OSPCB",28-10-2025 07:00:00,21.869985,85.167016,SO2,NA,NA,NA
India,Puducherry,Puducherry,"Jawahar Nagar, Puducherry - PPCC",28-10-2025 07:00:00,11.9309,79.8027,NO2,8,43,24
India,Puducherry,Puducherry,"Jawahar Nagar, Puducherry - PPCC",28-10-2025 07:00:00,11.9309,79.8027,NH3,1,4,2
India,Maharashtra,Solapur,"Dnyaneshwar Nagar, Solapur - MPCB",28-10-2025 07:00:00,17.6336264,75.9132495,NH3,6,16,9
India,Maharashtra,Solapur,"Ratandeep Housing Society, Solapur - MPCB",28-10-2025 07:00:00,17.65439,75.90649,NH3,2,8,4
India,Maharashtra,Solapur,"Ratandeep Housing Society, Solapur - MPCB",28-10-2025 07:00:00,17.65439,75.90649,CO,11,42,22
India,Maharashtra,Thane,"Upvan Fort, Thane - MPCB",28-10-2025 07:00:00,19.222279,72.957979,PM2.5,6,35,15
India,Maharashtra,Thane,"Upvan Fort, Thane - MPCB",28-10-2025 07:00:00,19.222279,72.957979,PM10,21,51,36
India,Maharashtra,Thane,"Upvan Fort, Thane - MPCB",28-10-2025 07:00:00,19.222279,72.957979,NO2,5,31,19
India,Odisha,Angul,"Hakimapada, Angul - OSPCB",28-10-2025 07:00:00,20.832874,85.104082,CO,29,59,50
India,Odisha,Balasore,"Kalidaspur, Balasore - OSPCB",28-10-2025 07:00:00,21.51161,86.89088,PM2.5,32,110,58
India,Odisha,Balasore,"Kalidaspur, Balasore - OSPCB",28-10-2025 07:00:00,21.51161,86.89088,NO2,4,54,13
India,Odisha,Balasore,"Kalidaspur, Balasore - OSPCB",28-10-2025 07:00:00,21.51161,86.89088,SO2,4,5,4
India,Odisha,Barbil,"Forest Office, Barbil - OSPCB",28-10-2025 07:00:00,22.1166054,85.3945546,PM2.5,13,124,49
India,Odisha,Bileipada,"Tata Township, Bileipada - OSPCB",28-10-2025 07:00:00,22.06156703,85.47409613,CO,24,34,29
India,Odisha,Bileipada,"Tata Township, Bileipada - OSPCB",28-10-2025 07:00:00,22.06156703,85.47409613,OZONE,10,13,11
India,Odisha,Brajrajnagar,"GM Office, Brajrajnagar - OSPCB",28-10-2025 07:00:00,21.8004996,83.8396977,PM10,19,89,46
India,Maharashtra,Parbhani,"Masoom Colony, Parbhani - MPCB",28-10-2025 07:00:00,19.265594,76.761463,CO,6,14,10
India,Punjab,Ludhiana,"Punjab Agricultural University, Ludhiana - PPCB",28-10-2025 07:00:00,30.9028,75.8086,CO,18,94,57
India,Punjab,Ludhiana,"Punjab Agricultural University, Ludhiana - PPCB",28-10-2025 07:00:00,30.9028,75.8086,OZONE,19,30,21
India,Punjab,Mandi Gobindgarh,"RIMT University, Mandi Gobindgarh - PPCB",28-10-2025 07:00:00,30.649961,76.331442,NO2,23,25,24
India,Punjab,Rupnagar,"Ratanpura, Rupnagar - Ambuja Cements",28-10-2025 07:00:00,31.0325454,76.5623046,NO2,2,7,5
India,Rajasthan,Ajmer,"Civil Lines,  Ajmer - RSPCB",28-10-2025 07:00:00,26.470859,74.646594,PM2.5,37,282,122
India,Rajasthan,Ajmer,"Civil Lines,  Ajmer - RSPCB",28-10-2025 07:00:00,26.470859,74.646594,PM10,33,131,85
India,Rajasthan,Ajmer,"Civil Lines,  Ajmer - RSPCB",28-10-2025 07:00:00,26.470859,74.646594,NO2,23,31,27
India,Rajasthan,Ajmer,"Civil Lines,  Ajmer - RSPCB",28-10-2025 07:00:00,26.470859,74.646594,NH3,5,7,6
India,Rajasthan,Jalore,"Mudtra Sili, Jalore - RSPCB",28-10-2025 07:00:00,25.344694,72.626208,OZONE,32,61,46
India,Rajasthan,Jhalawar,"Rajlaxmi Nagar, Jhalawar - RSPCB",28-10-2025 07:00:00,24.588397,76.172782,CO,16,33,19
India,Rajasthan,Jhunjhunu,"Indra Nagar, Jhunjhunu - RSPCB",28-10-2025 07:00:00,28.108988,75.386577,PM2.5,59,281,112
India,Rajasthan,Jhunjhunu,"Indra Nagar, Jhunjhunu - RSPCB",28-10-2025 07:00:00,28.108988,75.386577,OZONE,29,89,56
India,Rajasthan,Jodhpur,"Collectorate, Jodhpur - RSPCB",28-10-2025 07:00:00,26.268249,73.0193853,PM2.5,32,286,94
India,Rajasthan,Jodhpur,"Digari Kalan, Jodhpur - RSPCB",28-10-2025 07:00:00,26.295810,73.082283,PM10,28,170,102
India,Rajasthan,Jaipur,"Adarsh Nagar, Jaipur - RSPCB",28-10-2025 07:00:00,26.902909,75.836858,PM2.5,79,251,159
India,Rajasthan,Jaipur,"Mansarovar Sector-12, Jaipur - RSPCB",28-10-2025 07:00:00,26.843698,75.766894,PM2.5,90,290,186
India,Rajasthan,Jaipur,"Mansarovar Sector-12, Jaipur - RSPCB",28-10-2025 07:00:00,26.843698,75.766894,PM10,65,182,124
India,Rajasthan,Jaipur,"Mansarovar Sector-12, Jaipur - RSPCB",28-10-2025 07:00:00,26.843698,75.766894,SO2,5,16,9
India,Rajasthan,Jaipur,"Mansarovar Sector-12, Jaipur - RSPCB",28-10-2025 07:00:00,26.843698,75.766894,CO,30,50,35
India,Rajasthan,Jaipur,"Police Commissionerate, Jaipur - RSPCB",28-10-2025 07:00:00,26.9164092,75.7994901,SO2,5,7,6
India,Rajasthan,Jaipur,"Police Commissionerate, Jaipur - RSPCB",28-10-2025 07:00:00,26.9164092,75.7994901,OZONE,6,17,7
India,Rajasthan,Jaipur,"Sector-2 Murlipura, Jaipur - RSPCB",28-10-2025 07:00:00,26.960669,75.771817,NO2,9,39,23
India,Rajasthan,Jaipur,"Sector-2 Murlipura, Jaipur - RSPCB",28-10-2025 07:00:00,26.960669,75.771817,SO2,8,15,11
India,Rajasthan,Jaipur,"Sector-2 Murlipura, Jaipur - RSPCB",28-10-2025 07:00:00,26.960669,75.771817,CO,24,44,30
India,Rajasthan,Jaipur,"Shastri Nagar, Jaipur - RSPCB",28-10-2025 07:00:00,26.9502929,75.730943,PM10,62,155,116
India,Rajasthan,Jaipur,"Shastri Nagar, Jaipur - RSPCB",28-10-2025 07:00:00,26.9502929,75.730943,NO2,NA,NA,NA
India,Rajasthan,Jaisalmer,"Sadar Bazar, Jaisalmer - RSPCB",28-10-2025 07:00:00,26.912329,70.909168,NO2,6,29,13
India,Rajasthan,Dausa,"Khatikan Mohalla, Dausa - RSPCB",28-10-2025 07:00:00,26.895552,76.334753,PM2.5,214,307,252
India,Rajasthan,Dausa,"Khatikan Mohalla, Dausa - RSPCB",28-10-2025 07:00:00,26.895552,76.334753,SO2,2,8,4
India,Rajasthan,Dausa,"Khatikan Mohalla, Dausa - RSPCB",28-10-2025 07:00:00,26.895552,76.334753,CO,57,72,62
India,Rajasthan,Dholpur,"Raja Ganj, Dholpur - RSPCB",28-10-2025 07:00:00,26.699557,77.898881,PM2.5,40,276,145
India,Rajasthan,Dholpur,"Raja Ganj, Dholpur - RSPCB",28-10-2025 07:00:00,26.699557,77.898881,NH3,8,11,10
India,Rajasthan,Dungarpur,"Bhoiwada, Dungarpur - RSPCB",28-10-2025 07:00:00,23.837789,73.714926,OZONE,23,60,50
India,Rajasthan,Bundi,"New Colony, Bundi - RSPCB",28-10-2025 07:00:00,25.435774,75.644272,PM10,18,108,40
India,Rajasthan,Bundi,"New Colony, Bundi - RSPCB",28-10-2025 07:00:00,25.435774,75.644272,NO2,3,12,7
India,Rajasthan,Chittorgarh,"Shastri Nagar, Chittorgarh - RSPCB",28-10-2025 07:00:00,24.892047,74.623527,PM2.5,7,67,30
India,Rajasthan,Chittorgarh,"Shastri Nagar, Chittorgarh - RSPCB",28-10-2025 07:00:00,24.892047,74.623527,NO2,4,16,9
India,Rajasthan,Chittorgarh,"Shastri Nagar, Chittorgarh - RSPCB",28-10-2025 07:00:00,24.892047,74.623527,SO2,1,6,3
India,Rajasthan,Churu,"Subash Chowk, Churu - RSPCB",28-10-2025 07:00:00,28.296139,74.961696,PM2.5,68,299,128
India,Rajasthan,Alwar,"Moti Doongri, Alwar - RSPCB",28-10-2025 07:00:00,27.554793,76.611536,PM2.5,97,211,151
India,Rajasthan,Alwar,"Moti Doongri, Alwar - RSPCB",28-10-2025 07:00:00,27.554793,76.611536,PM10,76,166,121
India,Rajasthan,Baran,"Bamboliya, Baran - RSPCB",28-10-2025 07:00:00,25.106006,76.469948,PM10,22,59,35
India,Rajasthan,Barmer,"Railway Colony, Barmer - RSPCB",28-10-2025 07:00:00,25.747299,71.393989,NO2,7,24,13
India,Rajasthan,Barmer,"Railway Colony, Barmer - RSPCB",28-10-2025 07:00:00,25.747299,71.393989,SO2,5,8,6
India,Rajasthan,Bharatpur,"Krishna Nagar, Bharatpur - RSPCB",28-10-2025 07:00:00,27.215415,77.50873,PM2.5,152,301,210
India,Rajasthan,Bharatpur,"Krishna Nagar, Bharatpur - RSPCB",28-10-2025 07:00:00,27.215415,77.50873,NO2,6,50,21
India,Rajasthan,Bharatpur,"Krishna Nagar, Bharatpur - RSPCB",28-10-2025 07:00:00,27.215415,77.50873,SO2,2,10,5
India,Rajasthan,Bhiwadi,"RIICO Ind. Area III, Bhiwadi - RSPCB",28-10-2025 07:00:00,28.194909,76.862296,PM2.5,27,357,267
India,Rajasthan,Bhiwadi,"RIICO Ind. Area III, Bhiwadi - RSPCB",28-10-2025 07:00:00,28.194909,76.862296,SO2,4,22,10
India,Punjab,Amritsar,"Golden Temple, Amritsar - PPCB",28-10-2025 07:00:00,31.620000,74.876512,NO2,3,147,30
India,Punjab,Amritsar,"Golden Temple, Amritsar - PPCB",28-10-2025 07:00:00,31.620000,74.876512,CO,41,68,57
India,Punjab,Jalandhar,"Civil Line, Jalandhar - PPCB",28-10-2025 07:00:00,31.321907,75.578914,PM10,102,123,111
India,Punjab,Jalandhar,"Civil Line, Jalandhar - PPCB",28-10-2025 07:00:00,31.321907,75.578914,NH3,2,4,2
India,TamilNadu,Chennai,"Velachery Res. Area, Chennai - CPCB",28-10-2025 07:00:00,13.0052189,80.2398125,NH3,3,5,4
India,TamilNadu,Chennai,"Velachery Res. Area, Chennai - CPCB",28-10-2025 07:00:00,13.0052189,80.2398125,SO2,12,16,15
India,TamilNadu,Chennai,"Velachery Res. Area, Chennai - CPCB",28-10-2025 07:00:00,13.0052189,80.2398125,OZONE,4,7,4
India,TamilNadu,Coimbatore,"PSG College of Arts and Science, Coimbatore - TNPCB",28-10-2025 07:00:00,11.0328,77.0349,PM10,37,101,67
India,TamilNadu,Coimbatore,"PSG College of Arts and Science, Coimbatore - TNPCB",28-10-2025 07:00:00,11.0328,77.0349,NO2,10,11,11
India,TamilNadu,Coimbatore,"PSG College of Arts and Science, Coimbatore - TNPCB",28-10-2025 07:00:00,11.0328,77.0349,CO,30,49,37
India,TamilNadu,Coimbatore,"SIDCO Kurichi, Coimbatore - TNPCB",28-10-2025 07:00:00,10.942451,76.978996,PM2.5,26,71,45
India,TamilNadu,Coimbatore,"SIDCO Kurichi, Coimbatore - TNPCB",28-10-2025 07:00:00,10.942451,76.978996,NO2,2,8,6
India,TamilNadu,Cuddalore,"Kudikadu, Cuddalore - TNPCB",28-10-2025 07:00:00,11.6829898,79.7532099,PM2.5,17,66,37
India,TamilNadu,Cuddalore,"Kudikadu, Cuddalore - TNPCB",28-10-2025 07:00:00,11.6829898,79.7532099,NO2,19,19,19
India,TamilNadu,Dindigul,"Mendonsa Colony, Dindigul - TNPCB",28-10-2025 07:00:00,10.358535,77.984321,NO2,NA,NA,NA
India,TamilNadu,Gummidipoondi,"Anthoni Pillai Nagar, Gummidipoondi - TNPCB",28-10-2025 07:00:00,13.4127,80.1081,PM2.5,57,308,173
India,TamilNadu,Gummidipoondi,"Anthoni Pillai Nagar, Gummidipoondi - TNPCB",28-10-2025 07:00:00,13.4127,80.1081,NO2,1,2,1
India,TamilNadu,Gummidipoondi,"Anthoni Pillai Nagar, Gummidipoondi - TNPCB",28-10-2025 07:00:00,13.4127,80.1081,NH3,1,1,1
India,TamilNadu,Gummidipoondi,"Anthoni Pillai Nagar, Gummidipoondi - TNPCB",28-10-2025 07:00:00,13.4127,80.1081,SO2,9,126,55
India,TamilNadu,Kanchipuram,"Kilambi, Kanchipuram - TNPCB",28-10-2025 07:00:00,12.864618,79.659968,PM2.5,77,183,102
India,TamilNadu,Kanchipuram,"Kilambi, Kanchipuram - TNPCB",28-10-2025 07:00:00,12.864618,79.659968,NH3,4,4,4
India,TamilNadu,Kanchipuram,"Kilambi, Kanchipuram - TNPCB",28-10-2025 07:00:00,12.864618,79.659968,SO2,1,3,2
India,Rajasthan,Nagaur,"Karni Colony, Nagaur - RSPCB",28-10-2025 07:00:00,27.213494,73.734444,PM10,101,183,139
India,Rajasthan,Nagaur,"Karni Colony, Nagaur - RSPCB",28-10-2025 07:00:00,27.213494,73.734444,NO2,11,24,16
India,Rajasthan,Nagaur,"Karni Colony, Nagaur - RSPCB",28-10-2025 07:00:00,27.213494,73.734444,CO,16,44,22
India,Rajasthan,Pali,"Indira Colony Vistar, Pali - RSPCB",28-10-2025 07:00:00,25.771061, 73.340227,CO,11,34,27
India,Rajasthan,Pratapgarh,"Pragati Nagar, Pratapgarh - RSPCB",28-10-2025 07:00:00,24.041198,74.780702,SO2,1,2,1
India,Rajasthan,Rajsamand,"Dhoinda, Rajsamand - RSPCB",28-10-2025 07:00:00,25.036360,73.883502,PM10,16,66,35
India,Rajasthan,Rajsamand,"Dhoinda, Rajsamand - RSPCB",28-10-2025 07:00:00,25.036360,73.883502,NO2,8,11,9
India,TamilNadu,Chennai,"Manali Village, Chennai - TNPCB",28-10-2025 07:00:00,13.1662,80.2584,PM10,5,70,21
India,TamilNadu,Chennai,"Manali Village, Chennai - TNPCB",28-10-2025 07:00:00,13.1662,80.2584,SO2,1,6,4
India,TamilNadu,Chennai,"Manali Village, Chennai - TNPCB",28-10-2025 07:00:00,13.1662,80.2584,OZONE,28,59,50
India,TamilNadu,Chennai,"Manali, Chennai - CPCB",28-10-2025 07:00:00,13.164544,80.26285,PM10,21,53,35
India,TamilNadu,Chennai,"Manali, Chennai - CPCB",28-10-2025 07:00:00,13.164544,80.26285,OZONE,10,10,10
India,TamilNadu,Chennai,"Perungudi, Chennai - TNPCB",28-10-2025 07:00:00,12.9533,80.2357,PM10,6,46,19
India,TamilNadu,Chennai,"Perungudi, Chennai - TNPCB",28-10-2025 07:00:00,12.9533,80.2357,NO2,1,5,2
India,TamilNadu,Chennai,"Royapuram, Chennai - TNPCB",28-10-2025 07:00:00,13.1036,80.2909,NO2,8,28,17
India,Rajasthan,Sawai Madhopur,"Sahu Nagar, Sawai Madhopur - RSPCB",28-10-2025 07:00:00,26.031443,76.359327,NO2,6,29,11
India,Rajasthan,Sawai Madhopur,"Sahu Nagar, Sawai Madhopur - RSPCB",28-10-2025 07:00:00,26.031443,76.359327,SO2,2,4,3
India,Rajasthan,Sikar,"Radhakishan Pura, Sikar - RSPCB",28-10-2025 07:00:00,27.608912,75.153302,PM2.5,75,322,173
India,Rajasthan,Sikar,"Radhakishan Pura, Sikar - RSPCB",28-10-2025 07:00:00,27.608912,75.153302,PM10,51,401,152
India,Rajasthan,Sikar,"Radhakishan Pura, Sikar - RSPCB",28-10-2025 07:00:00,27.608912,75.153302,CO,24,73,27
India,Rajasthan,Sirohi,"Vedhaynath Colony, Sirohi - RSPCB",28-10-2025 07:00:00,24.885261,72.857549,CO,14,28,18
India,Rajasthan,Jodhpur,"Digari Kalan, Jodhpur - RSPCB",28-10-2025 07:00:00,26.295810,73.082283,NO2,10,32,17
India,Rajasthan,Jodhpur,"Digari Kalan, Jodhpur - RSPCB",28-10-2025 07:00:00,26.295810,73.082283,CO,7,30,23
India,Rajasthan,Jodhpur,"Digari Kalan, Jodhpur - RSPCB",28-10-2025 07:00:00,26.295810,73.082283,OZONE,43,105,61
India,Rajasthan,Jodhpur,"Jhalamand, Jodhpur - RSPCB",28-10-2025 07:00:00,26.215415,73.070156,OZONE,49,121,63
India,Rajasthan,Jodhpur,"Mandor, Jodhpur - RSPCB",28-10-2025 07:00:00,26.358805,73.047444,PM2.5,38,177,129
India,Rajasthan,Jodhpur,"Mandor, Jodhpur - RSPCB",28-10-2025 07:00:00,26.358805,73.047444,NO2,13,101,24
India,Rajasthan,Jodhpur,"Mandor, Jodhpur - RSPCB",28-10-2025 07:00:00,26.358805,73.047444,SO2,4,9,6
India,Rajasthan,Sri Ganganagar,"Old City, Sri Ganganagar - RSPCB",28-10-2025 07:00:00,29.931624,73.864511,NH3,2,6,4
India,Rajasthan,Tonk,"Shastri Nagar, Tonk - RSPCB",28-10-2025 07:00:00,26.159933,75.780517,OZONE,14,24,18
India,Rajasthan,Udaipur,"Ashok Nagar, Udaipur - RSPCB",28-10-2025 07:00:00,24.5886166,73.6321397,NH3,2,5,3
India,Sikkim,Gangtok,"Zero Point GICI, Gangtok - SSPCB",28-10-2025 07:00:00,27.338530,88.614099,NH3,1,1,1
India,Sikkim,Gangtok,"Zero Point GICI, Gangtok - SSPCB",28-10-2025 07:00:00,27.338530,88.614099,SO2,1,1,1
India,TamilNadu,Ariyalur,"Keelapalur, Ariyalur - TNPCB",28-10-2025 07:00:00,11.06825,79.07033,NH3,1,1,1
India,TamilNadu,Chengalpattu,"Crescent University, Chengalpattu - TNPCB",28-10-2025 07:00:00,12.8777316,80.0834807,CO,4,6,6
India,TamilNadu,Madurai,"Uchapatti, Madurai - TNPCB",28-10-2025 07:00:00,9.865935,78.022669,NO2,14,15,15
India,TamilNadu,Namakkal,"Ponnusamy Nagar, Namakkal - TNPCB",28-10-2025 07:00:00,11.273992,78.163545,NH3,3,3,3
India,Telangana,Hyderabad,"Ramachandrapuram, Hyderabad - TSPCB",28-10-2025 07:00:00,17.528544,78.286195,SO2,11,15,12
India,Telangana,Hyderabad,"Ramachandrapuram, Hyderabad - TSPCB",28-10-2025 07:00:00,17.528544,78.286195,OZONE,7,30,18
India,Telangana,Hyderabad,"Sanathnagar, Hyderabad - TSPCB",28-10-2025 07:00:00,17.4559458,78.4332152,SO2,1,8,4
India,Telangana,Hyderabad,"Zoo Park, Hyderabad - TSPCB",28-10-2025 07:00:00,17.349694,78.451437,PM2.5,3,122,50
India,Telangana,Hyderabad,"Zoo Park, Hyderabad - TSPCB",28-10-2025 07:00:00,17.349694,78.451437,NH3,1,3,3
India,Telangana,Hyderabad,"Zoo Park, Hyderabad - TSPCB",28-10-2025 07:00:00,17.349694,78.451437,SO2,4,4,4
India,Tripura,Agartala,"Bardowali, Agartala - Tripura SPCB",28-10-2025 07:00:00,23.8175497,91.2726974,SO2,28,28,28
India,Uttar_Pradesh,Agra,"Manoharpur, Agra - UPPCB",28-10-2025 07:00:00,27.23711,78.01936,PM2.5,58,115,84
India,Telangana,Hyderabad,"Kokapet, Hyderabad - TSPCB",28-10-2025 07:00:00,17.393559,78.339194,PM10,NA,NA,NA
India,Telangana,Hyderabad,"Kokapet, Hyderabad - TSPCB",28-10-2025 07:00:00,17.393559,78.339194,SO2,NA,NA,NA
India,Telangana,Hyderabad,"Kompally Municipal Office, Hyderabad - TSPCB",28-10-2025 07:00:00,17.544899,78.486949,NH3,3,6,4
India,Telangana,Hyderabad,"New Malakpet, Hyderabad - TSPCB",28-10-2025 07:00:00,17.37206,78.50864,PM10,78,91,81
India,Telangana,Hyderabad,"New Malakpet, Hyderabad - TSPCB",28-10-2025 07:00:00,17.37206,78.50864,NH3,2,3,2
India,Telangana,Hyderabad,"New Malakpet, Hyderabad - TSPCB",28-10-2025 07:00:00,17.37206,78.50864,SO2,13,18,15
India,Uttar_Pradesh,Bulandshahr,"Yamunapuram, Bulandshahr - UPPCB",28-10-2025 07:00:00,28.406963,77.849831,PM10,133,187,152
India,Uttar_Pradesh,Bulandshahr,"Yamunapuram, Bulandshahr - UPPCB",28-10-2025 07:00:00,28.406963,77.849831,OZONE,4,37,8
India,Uttar_Pradesh,Firozabad,"Nagla Bhau, Firozabad - UPPCB",28-10-2025 07:00:00,27.168897,78.376960,PM2.5,23,60,45
India,Uttar_Pradesh,Firozabad,"Nagla Bhau, Firozabad - UPPCB",28-10-2025 07:00:00,27.168897,78.376960,NH3,2,2,2
India,Uttar_Pradesh,Ghaziabad,"Indirapuram, Ghaziabad - UPPCB",28-10-2025 07:00:00,28.646233,77.358075,PM2.5,79,355,226
India,Uttar_Pradesh,Agra,"Shahjahan Garden, Agra - UPPCB",28-10-2025 07:00:00,27.169338,78.03582,OZONE,1,14,1
India,Uttar_Pradesh,Baghpat,"Sardar Patel Inter College, Baghpat - UPPCB",28-10-2025 07:00:00,28.964949,77.278761,PM2.5,139,355,260
India,Uttar_Pradesh,Bareilly,"Civil Lines, Bareilly - UPPCB",28-10-2025 07:00:00,28.359581,79.414455,PM10,NA,NA,NA
India,Uttar_Pradesh,Bareilly,"Civil Lines, Bareilly - UPPCB",28-10-2025 07:00:00,28.359581,79.414455,SO2,NA,NA,NA
India,TamilNadu,Tirunelveli,"Municipal Corporation Office, Tirunelveli - TNPCB",28-10-2025 07:00:00,8.728442,77.6962,PM2.5,12,37,24
India,TamilNadu,Tirunelveli,"Municipal Corporation Office, Tirunelveli - TNPCB",28-10-2025 07:00:00,8.728442,77.6962,CO,40,42,41
India,Telangana,Hyderabad,"Bollaram Industrial Area, Hyderabad - TSPCB",28-10-2025 07:00:00,17.540891,78.358528,PM2.5,9,50,28
India,Telangana,Hyderabad,"Bollaram Industrial Area, Hyderabad - TSPCB",28-10-2025 07:00:00,17.540891,78.358528,NH3,1,5,4
India,TamilNadu,Pudukottai,"SIPCOT Nathampannai, Pudukottai - TNPCB",28-10-2025 07:00:00,10.423417,78.784889,PM10,19,53,35
India,TamilNadu,Ramanathapuram,"Chalai Bazaar, Ramanathapuram - TNPCB",28-10-2025 07:00:00,9.36399,78.831977,CO,26,29,27
India,TamilNadu,Salem,"Sona College of Technology, Salem - TNPCB",28-10-2025 07:00:00,11.679111,78.125052,NH3,3,3,3
India,Telangana,Hyderabad,"Central University, Hyderabad - TSPCB",28-10-2025 07:00:00,17.460103,78.334361,PM2.5,4,45,18
India,Telangana,Hyderabad,"Central University, Hyderabad - TSPCB",28-10-2025 07:00:00,17.460103,78.334361,NH3,3,12,6
India,Telangana,Hyderabad,"ECIL Kapra, Hyderabad - TSPCB",28-10-2025 07:00:00,17.470431,78.566959,NH3,2,4,3
India,Telangana,Hyderabad,"ECIL Kapra, Hyderabad - TSPCB",28-10-2025 07:00:00,17.470431,78.566959,SO2,10,13,12
India,Uttar_Pradesh,Agra,"Manoharpur, Agra - UPPCB",28-10-2025 07:00:00,27.23711,78.01936,OZONE,8,8,8
India,Uttar_Pradesh,Agra,"Rohta, Agra - UPPCB",28-10-2025 07:00:00,27.106972,78.000111,PM10,72,129,102
India,TamilNadu,Perundurai,"SIPCOT Industrial Park, Perundurai - TNPCB",28-10-2025 07:00:00,11.258242,77.552761,OZONE,5,14,13
India,Uttar_Pradesh,Ghaziabad,"Indirapuram, Ghaziabad - UPPCB",28-10-2025 07:00:00,28.646233,77.358075,OZONE,12,74,33
India,Uttar_Pradesh,Ghaziabad,"Loni, Ghaziabad - UPPCB",28-10-2025 07:00:00,28.757294,77.278792,NO2,34,81,63
India,Uttar_Pradesh,Ghaziabad,"Sanjay Nagar, Ghaziabad - UPPCB",28-10-2025 07:00:00,28.685382,77.453839,PM2.5,142,331,211
India,Uttar_Pradesh,Ghaziabad,"Sanjay Nagar, Ghaziabad - UPPCB",28-10-2025 07:00:00,28.685382,77.453839,OZONE,12,83,22
India,Uttar_Pradesh,Ghaziabad,"Vasundhara, Ghaziabad - UPPCB",28-10-2025 07:00:00,28.6603346,77.3572563,PM10,111,405,210
India,Uttar_Pradesh,Gorakhpur,"Madan Mohan Malaviya University of Technology, Gorakhpur - UPPCB",28-10-2025 07:00:00,26.730136,83.433859,PM10,36,157,92
India,Uttar_Pradesh,Gorakhpur,"Madan Mohan Malaviya University of Technology, Gorakhpur - UPPCB",28-10-2025 07:00:00,26.730136,83.433859,SO2,28,30,29
India,Uttar_Pradesh,Moradabad,"Eco Herbal Park, Moradabad - UPPCB",28-10-2025 07:00:00,28.840739,78.697531,PM2.5,127,285,201
India,Uttar_Pradesh,Moradabad,"Eco Herbal Park, Moradabad - UPPCB",28-10-2025 07:00:00,28.840739,78.697531,PM10,120,180,148
India,Uttar_Pradesh,Moradabad,"Eco Herbal Park, Moradabad - UPPCB",28-10-2025 07:00:00,28.840739,78.697531,NO2,17,37,25
India,Uttar_Pradesh,Moradabad,"Eco Herbal Park, Moradabad - UPPCB",28-10-2025 07:00:00,28.840739,78.697531,NH3,4,5,4
India,Uttar_Pradesh,Moradabad,"Jigar Colony, Moradabad - UPPCB",28-10-2025 07:00:00,28.856664,78.772638,OZONE,18,27,18
India,Uttar_Pradesh,Moradabad,"Kashiram Nagar, Moradabad - UPPCB",28-10-2025 07:00:00,28.849399,78.742362,PM2.5,100,313,211
India,Uttar_Pradesh,Moradabad,"Kashiram Nagar, Moradabad - UPPCB",28-10-2025 07:00:00,28.849399,78.742362,PM10,119,249,170
India,Uttar_Pradesh,Moradabad,"Kashiram Nagar, Moradabad - UPPCB",28-10-2025 07:00:00,28.849399,78.742362,NH3,4,4,4
India,Uttar_Pradesh,Kanpur,"NSI Kalyanpur, Kanpur - UPPCB",28-10-2025 07:00:00,26.509954,80.249612,NH3,3,3,3
India,Uttar_Pradesh,Kanpur,"NSI Kalyanpur, Kanpur - UPPCB",28-10-2025 07:00:00,26.509954,80.249612,OZONE,19,23,21
India,Uttar_Pradesh,Kanpur,"Nehru Nagar, Kanpur - UPPCB",28-10-2025 07:00:00,26.4703136,80.3229863,NO2,31,47,38
India,Uttar_Pradesh,Kanpur,"Nehru Nagar, Kanpur - UPPCB",28-10-2025 07:00:00,26.4703136,80.3229863,OZONE,6,21,6
India,Uttar_Pradesh,Khurja,"Kalindi Kunj, Khurja - UPPCB",28-10-2025 07:00:00,28.2348927,77.8683002,NO2,3,4,4
India,Uttar_Pradesh,Lucknow,"B R Ambedkar University, Lucknow - UPPCB",28-10-2025 07:00:00,26.766433,80.927299,NO2,21,22,22
India,Uttar_Pradesh,Lucknow,"B R Ambedkar University, Lucknow - UPPCB",28-10-2025 07:00:00,26.766433,80.927299,NH3,4,4,4
India,Uttar_Pradesh,Lucknow,"Talkatora District Industries Center, Lucknow - CPCB",28-10-2025 07:00:00,26.83399722,80.8917361,PM10,157,180,168
India,Uttar_Pradesh,Lucknow,"Talkatora District Industries Center, Lucknow - CPCB",28-10-2025 07:00:00,26.83399722,80.8917361,NO2,49,67,57
India,Uttar_Pradesh,Lucknow,"Talkatora District Industries Center, Lucknow - CPCB",28-10-2025 07:00:00,26.83399722,80.8917361,SO2,1,14,5
India,Uttar_Pradesh,Lucknow,"Talkatora District Industries Center, Lucknow - CPCB",28-10-2025 07:00:00,26.83399722,80.8917361,CO,62,100,75
India,Uttar_Pradesh,Lucknow,"Talkatora District Industries Center, Lucknow - CPCB",28-10-2025 07:00:00,26.83399722,80.8917361,OZONE,8,54,12
India,Uttar_Pradesh,Meerut,"Pallavpuram Phase 2, Meerut - UPPCB",28-10-2025 07:00:00,29.063510,77.709723,PM10,137,262,199
India,Uttar_Pradesh,Meerut,"Pallavpuram Phase 2, Meerut - UPPCB",28-10-2025 07:00:00,29.063510,77.709723,CO,16,84,52
India,Uttar_Pradesh,Lucknow,"B R Ambedkar University, Lucknow - UPPCB",28-10-2025 07:00:00,26.766433,80.927299,CO,52,54,53
India,Uttar_Pradesh,Lucknow,"B R Ambedkar University, Lucknow - UPPCB",28-10-2025 07:00:00,26.766433,80.927299,OZONE,27,28,28
India,Uttar_Pradesh,Lucknow,"Gomti Nagar, Lucknow - UPPCB",28-10-2025 07:00:00,26.868120,81.005119,PM2.5,52,200,122
India,Uttar_Pradesh,Lucknow,"Kukrail Picnic Spot-1, Lucknow - UPPCB",28-10-2025 07:00:00,26.90723,80.98579,OZONE,23,31,26
India,Uttar_Pradesh,Lucknow,"Lalbagh, Lucknow - CPCB",28-10-2025 07:00:00,26.8458805,80.9365541,PM2.5,68,260,147
India,Uttar_Pradesh,Greater Noida,"Knowledge Park - V, Greater Noida - UPPCB",28-10-2025 07:00:00,28.557054,77.453663,PM2.5,148,385,274
India,Uttar_Pradesh,Greater Noida,"Knowledge Park - V, Greater Noida - UPPCB",28-10-2025 07:00:00,28.557054,77.453663,PM10,139,500,212
India,Uttar_Pradesh,Greater Noida,"Knowledge Park - V, Greater Noida - UPPCB",28-10-2025 07:00:00,28.557054,77.453663,CO,57,113,69
India,Uttar_Pradesh,Hapur,"Anand Vihar, Hapur - UPPCB",28-10-2025 07:00:00,28.725645,77.749675,SO2,12,26,17
India,Uttar_Pradesh,Jhansi,"Shivaji Nagar, Jhansi - UPPCB",28-10-2025 07:00:00,25.4547,78.6039,PM10,3,89,23
India,Uttar_Pradesh,Varanasi,"IESD Banaras Hindu University, Varanasi - UPPCB",28-10-2025 07:00:00,25.262326,82.995408,PM10,30,116,73
India,Uttar_Pradesh,Varanasi,"IESD Banaras Hindu University, Varanasi - UPPCB",28-10-2025 07:00:00,25.262326,82.995408,NH3,1,2,1
India,Uttar_Pradesh,Varanasi,"Maldahiya, Varanasi - UPPCB",28-10-2025 07:00:00,25.32393,82.99687,PM2.5,20,68,47
India,Uttar_Pradesh,Varanasi,"Maldahiya, Varanasi - UPPCB",28-10-2025 07:00:00,25.32393,82.99687,CO,14,40,23
India,Uttar_Pradesh,Vrindavan,"Omex Eternity, Vrindavan - UPPCB",28-10-2025 07:00:00,27.5714090,77.6557570,NO2,12,12,12
India,Uttar_Pradesh,Moradabad,"Transport Nagar, Moradabad - UPPCB",28-10-2025 07:00:00,28.802625,78.753728,PM2.5,66,320,181
India,Uttar_Pradesh,Noida,"Sector - 125, Noida - UPPCB",28-10-2025 07:00:00,28.5447608,77.3231257,PM10,126,429,251
India,Uttar_Pradesh,Noida,"Sector - 125, Noida - UPPCB",28-10-2025 07:00:00,28.5447608,77.3231257,NO2,58,214,97
India,Uttar_Pradesh,Noida,"Sector - 62, Noida - IMD",28-10-2025 07:00:00,28.6245479,77.3577104,PM2.5,103,345,228
India,Uttar_Pradesh,Prayagraj,"Jhunsi, Prayagraj - UPPCB",28-10-2025 07:00:00,25.425602,81.917152,CO,23,52,30
India,Uttar_Pradesh,Prayagraj,"Jhunsi, Prayagraj - UPPCB",28-10-2025 07:00:00,25.425602,81.917152,OZONE,16,26,18
India,Uttar_Pradesh,Prayagraj,"Nagar Nigam, Prayagraj - UPPCB",28-10-2025 07:00:00,25.44919916 ,81.82735986 ,PM2.5,65,266,178
India,Uttarakhand,Dehradun,"Doon University, Dehradun - UKPCB",28-10-2025 07:00:00,30.269444,78.044167,PM10,26,202,61
India,Uttarakhand,Dehradun,"Doon University, Dehradun - UKPCB",28-10-2025 07:00:00,30.269444,78.044167,CO,4,22,9
India,Uttarakhand,Kashipur,"Govt. Girls Inter College, Kashipur - UKPCB",28-10-2025 07:00:00,29.2124114,78.9611753,SO2,1,10,7
India,Uttarakhand,Rishikesh,"Shivaji Nagar, Rishikesh - UKPCB",28-10-2025 07:00:00,30.075911,78.2859547,NO2,9,12,10
India,Uttarakhand,Rishikesh,"Shivaji Nagar, Rishikesh - UKPCB",28-10-2025 07:00:00,30.075911,78.2859547,SO2,5,5,5
India,Uttarakhand,Rishikesh,"Shivaji Nagar, Rishikesh - UKPCB",28-10-2025 07:00:00,30.075911,78.2859547,OZONE,7,11,9
India,West_Bengal,Asansol,"Asansol Court Area, Asansol - WBPCB",28-10-2025 07:00:00,23.685297,86.945968,NO2,15,42,26
India,West_Bengal,Asansol,"Evelyn Lodge, Asansol - WBPCB",28-10-2025 07:00:00,23.6979360,86.9443950,SO2,3,7,4
India,West_Bengal,Asansol,"Evelyn Lodge, Asansol - WBPCB",28-10-2025 07:00:00,23.6979360,86.9443950,CO,24,54,35
India,West_Bengal,Asansol,"Mahabir Colliery, Asansol - WBPCB",28-10-2025 07:00:00,23.6181830,87.1057180,PM10,35,100,66
India,West_Bengal,Asansol,"Mahabir Colliery, Asansol - WBPCB",28-10-2025 07:00:00,23.6181830,87.1057180,NO2,6,48,23
India,West_Bengal,Asansol,"Mahabir Colliery, Asansol - WBPCB",28-10-2025 07:00:00,23.6181830,87.1057180,CO,8,60,36
India,West_Bengal,Asansol,"Mahabir Colliery, Asansol - WBPCB",28-10-2025 07:00:00,23.6181830,87.1057180,OZONE,19,63,22
India,West_Bengal,Asansol,"Trivenidevi Bhalotia College, Asansol - WBPCB",28-10-2025 07:00:00,23.616515,87.119133,NO2,14,75,27
India,West_Bengal,Barrackpore,"SVSPA Campus, Barrackpore - WBPCB",28-10-2025 07:00:00,22.7605581,88.3617589,NH3,2,5,4
India,West_Bengal,Durgapur,"Mahishkapur Road_B-Zone, Durgapur - WBPCB",28-10-2025 07:00:00,23.567923,87.306843,SO2,11,14,12
India,West_Bengal,Durgapur,"Mahishkapur Road_B-Zone, Durgapur - WBPCB",28-10-2025 07:00:00,23.567923,87.306843,CO,30,63,46
India,West_Bengal,Durgapur,"PCBL Residential Complex, Durgapur - WBPCB",28-10-2025 07:00:00,23.5087640,87.3544400,OZONE,5,28,9
India,West_Bengal,Durgapur,"Womens College_City Center, Durgapur - WBPCB (Formerly known as Sidhu Kanhu Indoor Stadium)",28-10-2025 07:00:00,23.549395,87.300496,PM2.5,25,86,54
India,West_Bengal,Durgapur,"Womens College_City Center, Durgapur - WBPCB (Formerly known as Sidhu Kanhu Indoor Stadium)",28-10-2025 07:00:00,23.549395,87.300496,NO2,24,28,26
India,West_Bengal,Haldia,"Priyambada Housing Estate, Haldia - WBPCB",28-10-2025 07:00:00,22.06047,88.109737,PM2.5,77,196,112
India,West_Bengal,Haldia,"Priyambada Housing Estate, Haldia - WBPCB",28-10-2025 07:00:00,22.06047,88.109737,NH3,5,7,6
India,West_Bengal,Haldia,"Priyambada Housing Estate, Haldia - WBPCB",28-10-2025 07:00:00,22.06047,88.109737,CO,28,57,35
India,West_Bengal,Howrah,"Belur Math, Howrah - WBPCB",28-10-2025 07:00:00,22.629801,88.352017,OZONE,10,34,13
India,West_Bengal,Howrah,"Botanical Garden, Howrah - WBPCB",28-10-2025 07:00:00,22.554954,88.292568,PM2.5,31,193,106
India,West_Bengal,Howrah,"Botanical Garden, Howrah - WBPCB",28-10-2025 07:00:00,22.554954,88.292568,PM10,35,116,80
India,West_Bengal,Howrah,"Dasnagar, Howrah - WBPCB",28-10-2025 07:00:00,22.6025571,88.3105664,SO2,11,19,13
India,West_Bengal,Howrah,"Ghusuri, Howrah - WBPCB",28-10-2025 07:00:00,22.611968,88.347422,NO2,21,36,26
India,West_Bengal,Howrah,"Padmapukur, Howrah - WBPCB",28-10-2025 07:00:00,22.5687319,88.2797276,OZONE,8,27,11
India,West_Bengal,Kolkata,"Ballygunge, Kolkata - WBPCB",28-10-2025 07:00:00,22.5367507,88.3638022,NO2,27,66,48
India,West_Bengal,Kolkata,"Ballygunge, Kolkata - WBPCB",28-10-2025 07:00:00,22.5367507,88.3638022,CO,8,53,13
India,West_Bengal,Kolkata,"Jadavpur, Kolkata - WBPCB",28-10-2025 07:00:00,22.49929,88.36917,NO2,4,44,20
India,West_Bengal,Kolkata,"Rabindra Bharati University, Kolkata - WBPCB",28-10-2025 07:00:00,22.627847,88.380669,PM2.5,44,82,65
India,West_Bengal,Kolkata,"Rabindra Bharati University, Kolkata - WBPCB",28-10-2025 07:00:00,22.627847,88.380669,PM10,46,95,73
India,West_Bengal,Kolkata,"Rabindra Bharati University, Kolkata - WBPCB",28-10-2025 07:00:00,22.627847,88.380669,NO2,34,77,56
India,West_Bengal,Kolkata,"Rabindra Sarobar, Kolkata - WBPCB",28-10-2025 07:00:00,22.51106,88.35142,SO2,1,9,3
India,West_Bengal,Kolkata,"Victoria, Kolkata - WBPCB",28-10-2025 07:00:00,22.5448082,88.3403691,PM10,73,136,108
India,West_Bengal,Kolkata,"Victoria, Kolkata - WBPCB",28-10-2025 07:00:00,22.5448082,88.3403691,NO2,12,25,18
India,West_Bengal,Kolkata,"Victoria, Kolkata - WBPCB",28-10-2025 07:00:00,22.5448082,88.3403691,OZONE,10,42,14
India,Andhra_Pradesh,Kadapa,"Yerramukkapalli, Kadapa - APPCB",28-10-2025 07:00:00,14.465052,78.824187,PM2.5,47,73,62
India,Andhra_Pradesh,Kadapa,"Yerramukkapalli, Kadapa - APPCB",28-10-2025 07:00:00,14.465052,78.824187,NH3,3,3,3
India,Andhra_Pradesh,Rajamahendravaram,"Anand Kala Kshetram, Rajamahendravaram - APPCB",28-10-2025 07:00:00,16.9872867,81.7363176,PM10,11,37,23
India,Andhra_Pradesh,Rajamahendravaram,"Anand Kala Kshetram, Rajamahendravaram - APPCB",28-10-2025 07:00:00,16.9872867,81.7363176,SO2,6,40,15
India,Andhra_Pradesh,Rajamahendravaram,"Anand Kala Kshetram, Rajamahendravaram - APPCB",28-10-2025 07:00:00,16.9872867,81.7363176,OZONE,10,11,10
India,Andhra_Pradesh,Tirumala,"Toll Gate, Tirumala - APPCB",28-10-2025 07:00:00,13.67,79.35,PM10,14,32,22
India,Andhra_Pradesh,Tirumala,"Toll Gate, Tirumala - APPCB",28-10-2025 07:00:00,13.67,79.35,NO2,8,15,12
India,Andhra_Pradesh,Tirumala,"Toll Gate, Tirumala - APPCB",28-10-2025 07:00:00,13.67,79.35,CO,6,40,22
India,Andhra_Pradesh,Tirumala,"Toll Gate, Tirumala - APPCB",28-10-2025 07:00:00,13.67,79.35,OZONE,11,19,18
India,Andhra_Pradesh,Tirupati,"Vaikuntapuram, Tirupati - APPCB",28-10-2025 07:00:00,13.615387,79.409230,SO2,16,22,18
India,Andhra_Pradesh,Vijayawada,"HB Colony, Vijayawada - APPCB",28-10-2025 07:00:00,16.536107,80.594233,PM2.5,65,85,76
India,Bihar,Kishanganj,"SDM Office_Khagra, Kishanganj - BSPCB",28-10-2025 07:00:00,26.0881305,87.93840336,OZONE,16,21,16
India,Bihar,Manguraha,"Forest Rest House, Manguraha - BSPCB",28-10-2025 07:00:00,27.308328,84.531742,NO2,1,8,5
India,Bihar,Manguraha,"Forest Rest House, Manguraha - BSPCB",28-10-2025 07:00:00,27.308328,84.531742,SO2,16,17,16
India,Bihar,Motihari,"Gandak Colony, Motihari - BSPCB",28-10-2025 07:00:00,26.63086,84.90051,OZONE,2,2,2
India,Bihar,Munger,"Town Hall, Munger - BSPCB",28-10-2025 07:00:00,25.376776,86.471523,NH3,5,7,6
India,Bihar,Munger,"Town Hall, Munger - BSPCB",28-10-2025 07:00:00,25.376776,86.471523,SO2,17,24,20
India,Bihar,Muzaffarpur,"Buddha Colony, Muzaffarpur - BSPCB",28-10-2025 07:00:00,26.11442,85.39813,PM10,63,122,92
India,Bihar,Muzaffarpur,"Buddha Colony, Muzaffarpur - BSPCB",28-10-2025 07:00:00,26.11442,85.39813,NO2,14,29,21
India,Bihar,Muzaffarpur,"Buddha Colony, Muzaffarpur - BSPCB",28-10-2025 07:00:00,26.11442,85.39813,OZONE,12,83,18
India,Bihar,Bhagalpur,"Mayaganj, Bhagalpur - BSPCB",28-10-2025 07:00:00,25.265194,87.012947,NH3,5,8,6
India,Bihar,Bihar Sharif,"D M Colony, Bihar Sharif - BSPCB",28-10-2025 07:00:00,25.204762,85.514960,NO2,9,10,10
India,Bihar,Bihar Sharif,"D M Colony, Bihar Sharif - BSPCB",28-10-2025 07:00:00,25.204762,85.514960,CO,8,8,8
India,Bihar,Buxar,"Charitra Van, Buxar - BSPCB",28-10-2025 07:00:00,25.567520,83.966379,PM2.5,42,73,59
India,Bihar,Buxar,"Charitra Van, Buxar - BSPCB",28-10-2025 07:00:00,25.567520,83.966379,NH3,3,3,3
India,Bihar,Chhapra,"Darshan Nagar, Chhapra - BSPCB",28-10-2025 07:00:00,25.7808257,84.7446768,PM10,65,122,93
India,Bihar,Gaya,"Collectorate, Gaya - BSPCB",28-10-2025 07:00:00,24.7955,84.9994,PM2.5,93,268,191
India,Bihar,Gaya,"Collectorate, Gaya - BSPCB",28-10-2025 07:00:00,24.7955,84.9994,NO2,9,9,9
India,Bihar,Gaya,"Collectorate, Gaya - BSPCB",28-10-2025 07:00:00,24.7955,84.9994,OZONE,19,21,20
India,Assam,Byrnihat,"Central Academy for SFS, Byrnihat - PCBA",28-10-2025 07:00:00,26.071318,91.87488,SO2,NA,NA,NA
India,Assam,Guwahati,"IITG, Guwahati - PCBA",28-10-2025 07:00:00,26.2028636,91.70046436,NO2,NA,NA,NA
India,Assam,Guwahati,"LGBI Airport, Guwahati - PCBA",28-10-2025 07:00:00,26.10887,91.589544,OZONE,14,16,15
India,Assam,Guwahati,"Pan Bazaar, Guwahati - PCBA",28-10-2025 07:00:00,26.187500,91.744194,SO2,45,68,55
India,Assam,Guwahati,"Pan Bazaar, Guwahati - PCBA",28-10-2025 07:00:00,26.187500,91.744194,OZONE,17,18,18
India,Assam,Nagaon,"Christianpatty, Nagaon - PCBA",28-10-2025 07:00:00,26.349082,92.68449,PM10,38,74,53
India,Assam,Nagaon,"Christianpatty, Nagaon - PCBA",28-10-2025 07:00:00,26.349082,92.68449,NO2,1,1,1
India,Assam,Nalbari,"Bata Chowk, Nalbari - PCBA",28-10-2025 07:00:00,26.446912,91.439057,PM2.5,23,82,48
India,Assam,Nalbari,"Bata Chowk, Nalbari - PCBA",28-10-2025 07:00:00,26.446912,91.439057,OZONE,2,170,39
India,Assam,Silchar,"Tarapur, Silchar - PCBA",28-10-2025 07:00:00,24.82827,92.79525,PM10,36,59,49
India,Assam,Silchar,"Tarapur, Silchar - PCBA",28-10-2025 07:00:00,24.82827,92.79525,SO2,4,7,5
India,Assam,Sivasagar,"Girls College, Sivasagar - PCBA",28-10-2025 07:00:00,26.987634,94.636574,SO2,5,12,9
India,Bihar,Araria,"Kharahiya Basti, Araria - BSPCB",28-10-2025 07:00:00,26.146529,87.454184,PM2.5,50,223,87
India,Bihar,Araria,"Kharahiya Basti, Araria - BSPCB",28-10-2025 07:00:00,26.146529,87.454184,OZONE,9,11,10
India,Bihar,Arrah,"New DM Office, Arrah - BSPCB",28-10-2025 07:00:00,25.5626095,84.663264,PM10,29,43,36
India,Bihar,Gaya,"Kareemganj, Gaya - BSPCB",28-10-2025 07:00:00,24.792403,84.992416,NH3,5,6,5
India,Bihar,Gaya,"SFTI Kusdihra, Gaya - BSPCB",28-10-2025 07:00:00,24.762518,84.982348,PM10,59,84,74
India,Bihar,Gaya,"SFTI Kusdihra, Gaya - BSPCB",28-10-2025 07:00:00,24.762518,84.982348,CO,32,56,50
India,Bihar,Katihar,"Mirchaibari, Katihar - BSPCB",28-10-2025 07:00:00,25.560083,87.553265,PM10,29,93,44
India,Bihar,Katihar,"Mirchaibari, Katihar - BSPCB",28-10-2025 07:00:00,25.560083,87.553265,CO,52,100,82
India,Bihar,Katihar,"Mirchaibari, Katihar - BSPCB",28-10-2025 07:00:00,25.560083,87.553265,OZONE,3,10,6
India,Bihar,Kishanganj,"SDM Office_Khagra, Kishanganj - BSPCB",28-10-2025 07:00:00,26.0881305,87.93840336,PM2.5,37,187,95
India,Bihar,Kishanganj,"SDM Office_Khagra, Kishanganj - BSPCB",28-10-2025 07:00:00,26.0881305,87.93840336,SO2,6,9,7
India,Bihar,Aurangabad,"Gurdeo Nagar, Aurangabad - BSPCB",28-10-2025 07:00:00,24.75746,84.366208,OZONE,10,20,12
India,Bihar,Begusarai,"Lohiyanagar, Begusarai - BSPCB",28-10-2025 07:00:00,25.42742023,86.13886079,PM2.5,103,133,118
India,Bihar,Begusarai,"Lohiyanagar, Begusarai - BSPCB",28-10-2025 07:00:00,25.42742023,86.13886079,CO,64,100,80
India,Bihar,Bettiah,"Kamalnath Nagar, Bettiah - BSPCB",28-10-2025 07:00:00,26.80365,84.51954,CO,55,83,61
India,Bihar,Bettiah,"Kamalnath Nagar, Bettiah - BSPCB",28-10-2025 07:00:00,26.80365,84.51954,OZONE,22,24,23
India,Bihar,Bhagalpur,"DM Office_Kachari Chowk, Bhagalpur - BSPCB",28-10-2025 07:00:00,25.251013,86.989001,PM10,47,137,78
India,Bihar,Bhagalpur,"DM Office_Kachari Chowk, Bhagalpur - BSPCB",28-10-2025 07:00:00,25.251013,86.989001,NH3,7,17,10
India,Andhra_Pradesh,Vijayawada,"Rajiv Gandhi Park, Vijayawada - APPCB",28-10-2025 07:00:00,16.509717,80.612222,OZONE,22,31,27
India,Arunachal_Pradesh,Naharlagun,"Naharlagun, Naharlagun - APSPCB",28-10-2025 07:00:00,27.103358,93.679645,PM2.5,2,173,44
India,Arunachal_Pradesh,Naharlagun,"Naharlagun, Naharlagun - APSPCB",28-10-2025 07:00:00,27.103358,93.679645,CO,6,26,9
India,Arunachal_Pradesh,Naharlagun,"Naharlagun, Naharlagun - APSPCB",28-10-2025 07:00:00,27.103358,93.679645,OZONE,5,5,5
India,Andhra_Pradesh,Amaravati,"Secretariat, Amaravati - APPCB",28-10-2025 07:00:00,16.5150833,80.5181667,CO,14,37,17
India,Andhra_Pradesh,Anantapur,"Gulzarpet, Anantapur - APPCB",28-10-2025 07:00:00,14.675886,77.593027,SO2,11,16,16
India,Andhra_Pradesh,Chittoor,"Gangineni Cheruvu, Chittoor - APPCB",28-10-2025 07:00:00,13.204880,79.097889,PM2.5,37,75,54
India,Bihar,Muzaffarpur,"MIT-Daudpur Kothi, Muzaffarpur - BSPCB",28-10-2025 07:00:00,26.1403345,85.3650192,SO2,16,31,22
India,Chandigarh,Chandigarh,"Sector-25, Chandigarh - CPCC",28-10-2025 07:00:00,30.751462,76.762879,NO2,13,67,28
India,Chandigarh,Chandigarh,"Sector-25, Chandigarh - CPCC",28-10-2025 07:00:00,30.751462,76.762879,NH3,4,6,5
India,Chandigarh,Chandigarh,"Sector-53, Chandigarh - CPCC",28-10-2025 07:00:00,30.719859,76.738637,PM2.5,NA,NA,NA
India,Chandigarh,Chandigarh,"Sector-53, Chandigarh - CPCC",28-10-2025 07:00:00,30.719859,76.738637,PM10,NA,NA,NA
India,Chandigarh,Chandigarh,"Sector-53, Chandigarh - CPCC",28-10-2025 07:00:00,30.719859,76.738637,CO,NA,NA,NA
India,Chhattisgarh,Bhilai,"32Bungalows, Bhilai - CECB",28-10-2025 07:00:00,21.194815,81.314770,PM10,16,72,38
India,Chhattisgarh,Bhilai,"32Bungalows, Bhilai - CECB",28-10-2025 07:00:00,21.194815,81.314770,NH3,5,5,5
India,Chhattisgarh,Bhilai,"32Bungalows, Bhilai - CECB",28-10-2025 07:00:00,21.194815,81.314770,SO2,20,22,21
India,Chhattisgarh,Bhilai,"Civic Center, Bhilai - Bhilai Steel Plant",28-10-2025 07:00:00,21.185571,81.343175,SO2,8,9,9
India,Bihar,Saharsa,"Police Line, Saharsa - BSPCB",28-10-2025 07:00:00,25.892357,86.590325,OZONE,8,27,10
India,Bihar,Samastipur,"DM Office_Kasipur, Samastipur - BSPCB",28-10-2025 07:00:00,25.859655,85.77944,PM10,41,104,62
India,Bihar,Samastipur,"DM Office_Kasipur, Samastipur - BSPCB",28-10-2025 07:00:00,25.859655,85.77944,NH3,2,2,2
India,Bihar,Sasaram,"Dada Peer, Sasaram - BSPCB",28-10-2025 07:00:00,24.952822,84.002396,NH3,NA,NA,NA
India,Bihar,Sasaram,"Dada Peer, Sasaram - BSPCB",28-10-2025 07:00:00,24.952822,84.002396,SO2,NA,NA,NA
India,Chandigarh,Chandigarh,"Sector 22, Chandigarh - CPCC",28-10-2025 07:00:00,30.735567,76.775714,PM2.5,75,213,139
India,Chandigarh,Chandigarh,"Sector 22, Chandigarh - CPCC",28-10-2025 07:00:00,30.735567,76.775714,NH3,8,11,10
India,Bihar,Patna,"Rajbansi Nagar, Patna - BSPCB",28-10-2025 07:00:00,25.599486,85.113666,NH3,7,9,9
India,Bihar,Patna,"Samanpura, Patna - BSPCB",28-10-2025 07:00:00,25.596727,85.085624,PM10,143,500,249
India,Bihar,Patna,"Samanpura, Patna - BSPCB",28-10-2025 07:00:00,25.596727,85.085624,CO,32,50,45
India,Bihar,Rajgir,"Dangi Tola, Rajgir - BSPCB",28-10-2025 07:00:00,25.03280,85.41948,PM2.5,38,287,108
India,Bihar,Rajgir,"Dangi Tola, Rajgir - BSPCB",28-10-2025 07:00:00,25.03280,85.41948,PM10,31,137,75
India,Bihar,Saharsa,"Police Line, Saharsa - BSPCB",28-10-2025 07:00:00,25.892357,86.590325,NO2,4,9,7
India,Chhattisgarh,Kunjemura,"OP Jindal School, Kunjemura - CECB",28-10-2025 07:00:00,22.126650,83.483212,OZONE,12,21,13
India,Chhattisgarh,Milupara,"Govt. Higher Secondary School, Milupara - CECB",28-10-2025 07:00:00,22.1910172,83.5197009,PM10,21,81,46
India,Chhattisgarh,Raipur,"AIIMS, Raipur - CECB",28-10-2025 07:00:00,21.258815,81.578979,PM2.5,10,45,23
India,Chhattisgarh,Raipur,"Krishak Nagar, Raipur - CECB",28-10-2025 07:00:00,21.237755,81.705301,PM10,17,71,41
India,Chhattisgarh,Raipur,"Siltara Phase-II, Raipur - CECB",28-10-2025 07:00:00,21.371751,81.664929,PM2.5,NA,NA,NA
India,Chhattisgarh,Tumidih,"OP Jindal Industrial Park, Tumidih - CECB",28-10-2025 07:00:00,22.06631475,83.33820077,PM10,29,73,52
India,Chhattisgarh,Tumidih,"OP Jindal Industrial Park, Tumidih - CECB",28-10-2025 07:00:00,22.06631475,83.33820077,NO2,15,30,20
India,Delhi,Delhi,"Alipur, Delhi - DPCC",28-10-2025 07:00:00,28.815329,77.153010,OZONE,3,79,8
India,Delhi,Delhi,"Ashok Vihar, Delhi - DPCC",28-10-2025 07:00:00,28.695381,77.181665,PM10,171,382,235
India,Delhi,Delhi,"Bawana, Delhi - DPCC",28-10-2025 07:00:00,28.776200,77.051074,PM10,145,289,209
India,Delhi,Delhi,"Burari Crossing, Delhi - IMD",28-10-2025 07:00:00,28.7256504,77.2011573,PM10,155,283,194
India,Delhi,Delhi,"Burari Crossing, Delhi - IMD",28-10-2025 07:00:00,28.7256504,77.2011573,NO2,5,49,19
India,Delhi,Delhi,"Burari Crossing, Delhi - IMD",28-10-2025 07:00:00,28.7256504,77.2011573,CO,56,101,66
India,Chhattisgarh,Chhal,"Nawapara SECL Colony, Chhal - CECB",28-10-2025 07:00:00,22.118125,83.140608,PM2.5,24,63,43
India,Chhattisgarh,Chhal,"Nawapara SECL Colony, Chhal - CECB",28-10-2025 07:00:00,22.118125,83.140608,OZONE,15,84,18
India,Chhattisgarh,Korba,"Urja Nagar, Korba - CECB",28-10-2025 07:00:00,22.348441,82.549611,CO,19,34,27
India,Bihar,Patna,"DRM Office Danapur, Patna - BSPCB",28-10-2025 07:00:00,25.586562,85.043586,NH3,4,6,5
India,Bihar,Patna,"DRM Office Danapur, Patna - BSPCB",28-10-2025 07:00:00,25.586562,85.043586,SO2,7,11,9
India,Bihar,Patna,"Muradpur, Patna - BSPCB",28-10-2025 07:00:00,25.619651,85.147382,SO2,7,10,9
India,Bihar,Muzaffarpur,"Muzaffarpur Collectorate, Muzaffarpur - BSPCB",28-10-2025 07:00:00,26.1209,85.3647,CO,10,48,10
India,Gujarat,Ahmedabad,"Raikhad, Ahmedabad - IITM",28-10-2025 07:00:00,23.020509,72.579261,PM10,9,34,19
India,Gujarat,Ahmedabad,"Rakhial, Ahmedabad - IITM",28-10-2025 07:00:00,23.016834,72.625775,NO2,8,29,17
India,Gujarat,Ahmedabad,"SVPI Airport Hansol, Ahmedabad - IITM",28-10-2025 07:00:00,23.076793,72.627874,NO2,41,53,46
India,Gujarat,Ahmedabad,"SVPI Airport Hansol, Ahmedabad - IITM",28-10-2025 07:00:00,23.076793,72.627874,SO2,6,10,8
India,Gujarat,Ahmedabad,"SVPI Airport Hansol, Ahmedabad - IITM",28-10-2025 07:00:00,23.076793,72.627874,OZONE,4,16,13
India,Gujarat,Ankleshwar,"GIDC, Ankleshwar - GPCB",28-10-2025 07:00:00,21.613267,73.010555,NO2,23,28,24
India,Gujarat,Ankleshwar,"GIDC, Ankleshwar - GPCB",28-10-2025 07:00:00,21.613267,73.010555,NH3,5,7,5
India,Delhi,Delhi,"Vivek Vihar, Delhi - DPCC",28-10-2025 07:00:00,28.672342,77.315260,PM2.5,224,424,320
India,Delhi,Delhi,"Vivek Vihar, Delhi - DPCC",28-10-2025 07:00:00,28.672342,77.315260,NH3,11,13,12
India,Delhi,Delhi,"Vivek Vihar, Delhi - DPCC",28-10-2025 07:00:00,28.672342,77.315260,CO,1,28,16
India,Delhi,Delhi,"Vivek Vihar, Delhi - DPCC",28-10-2025 07:00:00,28.672342,77.315260,OZONE,3,17,6
India,Gujarat,Ahmedabad,"Chandkheda, Ahmedabad - IITM",28-10-2025 07:00:00,23.107969,72.574648,PM2.5,NA,NA,NA
India,Gujarat,Ahmedabad,"Chandkheda, Ahmedabad - IITM",28-10-2025 07:00:00,23.107969,72.574648,PM10,NA,NA,NA
India,Gujarat,Ahmedabad,"Gyaspur, Ahmedabad - IITM",28-10-2025 07:00:00,22.977134,72.553024,PM10,9,74,39
India,Delhi,Delhi,"NSIT Dwarka, Delhi - CPCB",28-10-2025 07:00:00,28.60909,77.0325413,PM10,179,294,229
India,Delhi,Delhi,"NSIT Dwarka, Delhi - CPCB",28-10-2025 07:00:00,28.60909,77.0325413,NH3,9,13,12
India,Delhi,Delhi,"Najafgarh, Delhi - DPCC",28-10-2025 07:00:00,28.570173,76.933762,PM2.5,167,348,282
India,Delhi,Delhi,"Najafgarh, Delhi - DPCC",28-10-2025 07:00:00,28.570173,76.933762,NH3,3,6,5
India,Delhi,Delhi,"Najafgarh, Delhi - DPCC",28-10-2025 07:00:00,28.570173,76.933762,CO,50,114,52
India,Delhi,Delhi,"Narela, Delhi - DPCC",28-10-2025 07:00:00,28.822836,77.101981,PM2.5,203,383,305
India,Delhi,Delhi,"Narela, Delhi - DPCC",28-10-2025 07:00:00,28.822836,77.101981,OZONE,9,140,22
India,Delhi,Delhi,"Jawaharlal Nehru Stadium, Delhi - DPCC",28-10-2025 07:00:00,28.580280,77.233829,OZONE,3,107,13
India,Delhi,Delhi,"Lodhi Road, Delhi - IITM",28-10-2025 07:00:00,28.588333,77.221667,NO2,108,172,131
India,Delhi,Delhi,"Major Dhyan Chand National Stadium, Delhi - DPCC",28-10-2025 07:00:00,28.611281,77.237738,NO2,43,115,79
India,Delhi,Delhi,"Mandir Marg, Delhi - DPCC",28-10-2025 07:00:00,28.636429,77.201067,PM10,131,292,178
India,Delhi,Delhi,"Mandir Marg, Delhi - DPCC",28-10-2025 07:00:00,28.636429,77.201067,CO,30,106,33
India,Delhi,Delhi,"CRRI Mathura Road, Delhi - IMD",28-10-2025 07:00:00,28.5512005,77.2735737,OZONE,10,127,14
India,Delhi,Delhi,"Chandni Chowk, Delhi - IITM",28-10-2025 07:00:00,28.656756,77.227234,NO2,NA,NA,NA
India,Delhi,Delhi,"DTU, Delhi - CPCB",28-10-2025 07:00:00,28.7500499,77.1112615,NH3,11,16,12
India,Delhi,Delhi,"Dr. Karni Singh Shooting Range, Delhi - DPCC",28-10-2025 07:00:00,28.498571,77.264840,PM2.5,223,388,303
India,Delhi,Delhi,"Nehru Nagar, Delhi - DPCC",28-10-2025 07:00:00,28.567890,77.250515,NH3,9,16,12
India,Delhi,Delhi,"Nehru Nagar, Delhi - DPCC",28-10-2025 07:00:00,28.567890,77.250515,OZONE,6,133,13
India,Delhi,Delhi,"North Campus, DU, Delhi - IMD",28-10-2025 07:00:00,28.6573814,77.1585447,CO,12,105,27
India,Delhi,Delhi,"Patparganj, Delhi - DPCC",28-10-2025 07:00:00,28.623763,77.287209,PM2.5,187,404,316
India,Delhi,Delhi,"Patparganj, Delhi - DPCC",28-10-2025 07:00:00,28.623763,77.287209,OZONE,4,133,35
India,Delhi,Delhi,"Dwarka-Sector 8, Delhi - DPCC ",28-10-2025 07:00:00,28.5710274,77.0719006,SO2,22,58,42
India,Delhi,Delhi,"ITO, Delhi - CPCB",28-10-2025 07:00:00,28.628624,77.241060,CO,30,111,74
India,Delhi,Delhi,"Jahangirpuri, Delhi - DPCC",28-10-2025 07:00:00,28.732820,77.170633,NO2,57,102,78
India,Delhi,Delhi,"Pusa, Delhi - DPCC",28-10-2025 07:00:00,28.639652,77.146275,SO2,4,24,12
India,Delhi,Delhi,"Pusa, Delhi - IMD",28-10-2025 07:00:00,28.636110,77.173332,OZONE,25,50,27
India,Delhi,Delhi,"Rohini, Delhi - DPCC",28-10-2025 07:00:00,28.732528,77.119920,PM2.5,305,425,332
India,Delhi,Delhi,"Sirifort, Delhi - CPCB",28-10-2025 07:00:00,28.5504249,77.2159377,PM10,169,468,302
India,Haryana,Sirsa,"F-Block, Sirsa - HSPCB",28-10-2025 07:00:00,29.536400,75.015800,OZONE,44,68,56
India,Haryana,Sonipat,"Murthal, Sonipat - HSPCB",28-10-2025 07:00:00,29.027200,77.062100,NO2,NA,NA,NA
India,Haryana,Yamuna Nagar,"Gobind Pura, Yamuna Nagar - HSPCB",28-10-2025 07:00:00,30.1480566,77.2893471,NH3,9,10,10
India,Haryana,Yamuna Nagar,"Gobind Pura, Yamuna Nagar - HSPCB",28-10-2025 07:00:00,30.1480566,77.2893471,SO2,10,15,11
India,Haryana,Yamuna Nagar,"Gobind Pura, Yamuna Nagar - HSPCB",28-10-2025 07:00:00,30.1480566,77.2893471,CO,30,125,98
India,Haryana,Yamuna Nagar,"Gobind Pura, Yamuna Nagar - HSPCB",28-10-2025 07:00:00,30.1480566,77.2893471,OZONE,38,42,38
India,Himachal Pradesh,Baddi,"HIMUDA Complex Phase-1, Baddi - HPPCB",28-10-2025 07:00:00,30.943887,76.801991,PM10,68,195,118
India,Gujarat,Gandhinagar,"GIFT City, Gandhinagar - IITM",28-10-2025 07:00:00,23.163798,72.677768,PM2.5,2,38,14
India,Gujarat,Gandhinagar,"GIFT City, Gandhinagar - IITM",28-10-2025 07:00:00,23.163798,72.677768,PM10,10,53,27
India,Gujarat,Gandhinagar,"GIFT City, Gandhinagar - IITM",28-10-2025 07:00:00,23.163798,72.677768,NO2,6,14,9
India,Gujarat,Gandhinagar,"GIFT City, Gandhinagar - IITM",28-10-2025 07:00:00,23.163798,72.677768,CO,50,59,53
India,Gujarat,Gandhinagar,"IIPHG Lekawada, Gandhinagar - IITM",28-10-2025 07:00:00,23.243639,72.68994,NH3,2,2,2
India,Gujarat,Gandhinagar,"IIPHG Lekawada, Gandhinagar - IITM",28-10-2025 07:00:00,23.243639,72.68994,SO2,5,7,6
India,Gujarat,Gandhinagar,"Sector-10, Gandhinagar - GPCB",28-10-2025 07:00:00,23.221714,72.654328,PM10,41,67,51
India,Gujarat,Nandesari,"GIDC, Nandesari - Nandesari Ind. Association",28-10-2025 07:00:00,22.410802,73.097923,PM10,NA,NA,NA
India,Haryana,Gurugram,"NISE Gwal Pahari, Gurugram - IMD",28-10-2025 07:00:00,28.422681,77.148944,PM10,97,326,176
India,Haryana,Jind,"Police Lines, Jind - HSPCB",28-10-2025 07:00:00,29.307814,76.337619,PM2.5,NA,NA,NA
India,Haryana,Jind,"Police Lines, Jind - HSPCB",28-10-2025 07:00:00,29.307814,76.337619,NO2,NA,NA,NA
India,Haryana,Jind,"Police Lines, Jind - HSPCB",28-10-2025 07:00:00,29.307814,76.337619,CO,NA,NA,NA
India,Haryana,Kaithal,"Rishi Nagar, Kaithal - HSPCB",28-10-2025 07:00:00,29.8006,76.4155,PM2.5,6,321,131
India,Haryana,Karnal,"Sector-12, Karnal - HSPCB",28-10-2025 07:00:00,29.695300,77.002700,PM10,40,194,148
India,Haryana,Karnal,"Sector-12, Karnal - HSPCB",28-10-2025 07:00:00,29.695300,77.002700,NH3,6,7,6
India,Haryana,Karnal,"Sector-12, Karnal - HSPCB",28-10-2025 07:00:00,29.695300,77.002700,CO,38,57,47
India,Haryana,Kurukshetra,"Sector-7, Kurukshetra - HSPCB",28-10-2025 07:00:00,29.966942,76.875879,PM2.5,88,500,209
India,Haryana,Kurukshetra,"Sector-7, Kurukshetra - HSPCB",28-10-2025 07:00:00,29.966942,76.875879,PM10,101,467,175
India,Haryana,Mandikhera,"General Hospital, Mandikhera - HSPCB",28-10-2025 07:00:00,27.9002,76.9938,PM2.5,57,105,79
India,Haryana,Mandikhera,"General Hospital, Mandikhera - HSPCB",28-10-2025 07:00:00,27.9002,76.9938,NO2,19,23,21
India,Haryana,Manesar,"Sector-2 IMT, Manesar - HSPCB",28-10-2025 07:00:00,28.360699,76.936090,NO2,19,83,35
India,Haryana,Narnaul,"Shastri Nagar, Narnaul - HSPCB",28-10-2025 07:00:00,28.060249,76.113115,PM10,51,61,55
India,Haryana,Dharuhera,"Municipal Corporation Office, Dharuhera -  HSPCB",28-10-2025 07:00:00,28.206800,76.799700,SO2,13,18,15
India,Haryana,Faridabad,"New Industrial Town, Faridabad - HSPCB",28-10-2025 07:00:00,28.39072,77.30059,OZONE,26,34,32
India,Haryana,Faridabad,"Sector 30, Faridabad - HSPCB",28-10-2025 07:00:00,28.4417,77.3217,SO2,6,6,6
India,Haryana,Fatehabad,"Huda Sector, Fatehabad - HSPCB",28-10-2025 07:00:00,29.503664,75.467934,PM10,NA,NA,NA
India,Haryana,Fatehabad,"Huda Sector, Fatehabad - HSPCB",28-10-2025 07:00:00,29.503664,75.467934,CO,NA,NA,NA
India,Haryana,Bahadurgarh,"Arya Nagar, Bahadurgarh - HSPCB",28-10-2025 07:00:00,28.6701,76.9254,CO,24,50,45
India,Haryana,Bhiwani,"H.B. Colony, Bhiwani - HSPCB",28-10-2025 07:00:00,28.806223,76.141105,OZONE,9,20,14
India,Haryana,Charkhi Dadri,"Mini Secretariat, Charkhi Dadri - HSPCB",28-10-2025 07:00:00,28.593883,76.270653,PM10,129,235,153
India,Haryana,Charkhi Dadri,"Mini Secretariat, Charkhi Dadri - HSPCB",28-10-2025 07:00:00,28.593883,76.270653,OZONE,14,18,15
India,Jharkhand,Dhanbad,"Sardar Patel Nagar, Dhanbad - JSPCB",28-10-2025 07:00:00,23.80569,86.44268,OZONE,1,57,2
India,Jharkhand,Jorapokhar,"Tata Stadium, Jorapokhar - JSPCB",28-10-2025 07:00:00,23.707909,86.414670,SO2,NA,NA,NA
India,Karnataka,Bengaluru,"BTM Layout, Bengaluru - CPCB",28-10-2025 07:00:00,12.9135218,77.5950804,CO,36,44,39
India,Haryana,Panchkula,"Sector-6, Panchkula - HSPCB ",28-10-2025 07:00:00,30.7057778,76.8531805555555,PM2.5,NA,NA,NA
India,Haryana,Rohtak,"MD University, Rohtak - HSPCB",28-10-2025 07:00:00,28.52123,76.37138,PM10,NA,NA,NA
India,Haryana,Rohtak,"MD University, Rohtak - HSPCB",28-10-2025 07:00:00,28.52123,76.37138,NO2,NA,NA,NA
India,Haryana,Rohtak,"MD University, Rohtak - HSPCB",28-10-2025 07:00:00,28.52123,76.37138,SO2,NA,NA,NA
India,Haryana,Ambala,"Patti Mehar, Ambala - HSPCB",28-10-2025 07:00:00,30.379589,76.778328,NH3,NA,NA,NA
India,Haryana,Bahadurgarh,"Arya Nagar, Bahadurgarh - HSPCB",28-10-2025 07:00:00,28.6701,76.9254,PM10,58,464,338
India,Haryana,Bahadurgarh,"Arya Nagar, Bahadurgarh - HSPCB",28-10-2025 07:00:00,28.6701,76.9254,NO2,12,13,13
India,Karnataka,Udupi,"Brahmagiri, Udupi - KSPCB",28-10-2025 07:00:00,13.34194444,74.74694444,SO2,NA,NA,NA
India,Karnataka,Udupi,"Brahmagiri, Udupi - KSPCB",28-10-2025 07:00:00,13.34194444,74.74694444,OZONE,8,8,8
India,Karnataka,Vijayapura,"Ibrahimpur, Vijayapura - KSPCB",28-10-2025 07:00:00,16.802639,75.722694,NH3,1,2,1
India,Karnataka,Vijayapura,"Ibrahimpur, Vijayapura - KSPCB",28-10-2025 07:00:00,16.802639,75.722694,OZONE,14,17,16
India,Karnataka,Yadgir,"Collector Office, Yadgir - KSPCB",28-10-2025 07:00:00,16.7602,77.1428,PM10,6,43,19
India,Kerala,Eloor,"Udyogamandal, Eloor - Kerala PCB",28-10-2025 07:00:00,10.073232,76.302765,PM2.5,41,90,51
India,Kerala,Eloor,"Udyogamandal, Eloor - Kerala PCB",28-10-2025 07:00:00,10.073232,76.302765,NO2,6,7,7
India,Kerala,Eloor,"Udyogamandal, Eloor - Kerala PCB",28-10-2025 07:00:00,10.073232,76.302765,OZONE,10,13,12
India,Kerala,Kannur,"Thavakkara, Kannur - Kerala PCB",28-10-2025 07:00:00,11.875000,75.373200,CO,NA,NA,NA
India,Kerala,Thiruvananthapuram,"Kariavattom, Thiruvananthapuram - Kerala PCB",28-10-2025 07:00:00,8.563700,76.886500,PM10,24,39,33
India,Kerala,Thiruvananthapuram,"Kariavattom, Thiruvananthapuram - Kerala PCB",28-10-2025 07:00:00,8.563700,76.886500,NO2,6,7,6
India,Kerala,Thiruvananthapuram,"Kariavattom, Thiruvananthapuram - Kerala PCB",28-10-2025 07:00:00,8.563700,76.886500,OZONE,36,36,36
India,Kerala,Thiruvananthapuram,"Plammoodu, Thiruvananthapuram - Kerala PCB",28-10-2025 07:00:00,8.5149093,76.9435879,NO2,51,85,66
India,Kerala,Thiruvananthapuram,"Plammoodu, Thiruvananthapuram - Kerala PCB",28-10-2025 07:00:00,8.5149093,76.9435879,SO2,3,29,16
India,Kerala,Thiruvananthapuram,"Plammoodu, Thiruvananthapuram - Kerala PCB",28-10-2025 07:00:00,8.5149093,76.9435879,OZONE,14,18,17
India,Madhya Pradesh,Bhopal,"Idgah Hills, Bhopal - MPPCB",28-10-2025 07:00:00,23.264759,77.381568,PM2.5,33,98,61
India,Madhya Pradesh,Bhopal,"Idgah Hills, Bhopal - MPPCB",28-10-2025 07:00:00,23.264759,77.381568,NO2,12,24,18
India,Madhya Pradesh,Bhopal,"Paryavaran Parisar, Bhopal - MPPCB",28-10-2025 07:00:00,23.210494,77.425409,PM2.5,22,147,67
India,Madhya Pradesh,Bhopal,"Paryavaran Parisar, Bhopal - MPPCB",28-10-2025 07:00:00,23.210494,77.425409,NO2,10,49,19
India,Karnataka,Chikkamagaluru,"Kalyana Nagara, Chikkamagaluru - KSPCB",28-10-2025 07:00:00,13.328028,75.797056,NH3,2,5,4
India,Karnataka,Davanagere,"Devaraj Urs Badavane, Davanagere - KSPCB",28-10-2025 07:00:00,14.475800,75.905200,PM2.5,3,47,32
India,Karnataka,Dharwad,"Kalabhavan, Dharwad - KSPCB",28-10-2025 07:00:00,15.459706,75.008381,PM2.5,37,59,50
India,Karnataka,Dharwad,"Kalabhavan, Dharwad - KSPCB",28-10-2025 07:00:00,15.459706,75.008381,SO2,3,4,4
India,Karnataka,Dharwad,"Kalabhavan, Dharwad - KSPCB",28-10-2025 07:00:00,15.459706,75.008381,CO,30,83,45
