country,state,city,station,last_update,latitude,longitude,pollutant_id,min_value,max_value,avg_value
India,Andhra_Pradesh,Amaravati,"Secretariat, Amaravati - APPCB",18-11-2025 07:00:00,16.5150833,80.5181667,NO2,20,65,30
India,Andhra_Pradesh,Amaravati,"Secretariat, Amaravati - APPCB",18-11-2025 07:00:00,16.5150833,80.5181667,NH3,1,4,4
India,Andhra_Pradesh,Anantapur,"Gulzarpet, Anantapur - APPCB",18-11-2025 07:00:00,14.675886,77.593027,NO2,14,23,16
India,Andhra_Pradesh,Chittoor,"Gangineni Cheruvu, Chittoor - APPCB",18-11-2025 07:00:00,13.204880,79.097889,PM2.5,36,352,135
India,Andhra_Pradesh,Chittoor,"Gangineni Cheruvu, Chittoor - APPCB",18-11-2025 07:00:00,13.204880,79.097889,CO,24,101,31
India,Andhra_Pradesh,Kadapa,"Yerramukkapalli, Kadapa - APPCB",18-11-2025 07:00:00,14.465052,78.824187,PM10,56,70,64
India,Andhra_Pradesh,Rajamahendravaram,"Anand Kala Kshetram, Rajamahendravaram - APPCB",18-11-2025 07:00:00,16.9872867,81.7363176,NO2,13,53,27
India,Andhra_Pradesh,Rajamahendravaram,"Anand Kala Kshetram, Rajamahendravaram - APPCB",18-11-2025 07:00:00,16.9872867,81.7363176,NH3,2,3,2
India,Andhra_Pradesh,Tirumala,"Toll Gate, Tirumala - APPCB",18-11-2025 07:00:00,13.67,79.35,PM2.5,95,165,119
India,Andhra_Pradesh,Tirumala,"Toll Gate, Tirumala - APPCB",18-11-2025 07:00:00,13.67,79.35,NO2,15,24,19
India,Andhra_Pradesh,Tirupati,"Vaikuntapuram, Tirupati - APPCB",18-11-2025 07:00:00,13.615387,79.409230,PM2.5,23,229,82
India,Andhra_Pradesh,Tirupati,"Vaikuntapuram, Tirupati - APPCB",18-11-2025 07:00:00,13.615387,79.409230,SO2,9,10,9
India,Andhra_Pradesh,Vijayawada,"HB Colony, Vijayawada - APPCB",18-11-2025 07:00:00,16.536107,80.594233,PM2.5,55,97,74
India,Andhra_Pradesh,Vijayawada,"Rajiv Gandhi Park, Vijayawada - APPCB",18-11-2025 07:00:00,16.509717,80.612222,SO2,9,14,10
India,Assam,Nagaon,"Christianpatty, Nagaon - PCBA",18-11-2025 07:00:00,26.349082,92.68449,SO2,6,13,12
India,Assam,Nalbari,"Bata Chowk, Nalbari - PCBA",18-11-2025 07:00:00,26.446912,91.439057,NO2,9,21,15
India,Assam,Nalbari,"Bata Chowk, Nalbari - PCBA",18-11-2025 07:00:00,26.446912,91.439057,OZONE,3,22,22
India,Assam,Silchar,"Tarapur, Silchar - PCBA",18-11-2025 07:00:00,24.82827,92.79525,NH3,1,1,1
India,Assam,Silchar,"Tarapur, Silchar - PCBA",18-11-2025 07:00:00,24.82827,92.79525,CO,26,70,37
India,Assam,Sivasagar,"Girls College, Sivasagar - PCBA",18-11-2025 07:00:00,26.987634,94.636574,SO2,6,15,10
India,Bihar,Araria,"Kharahiya Basti, Araria - BSPCB",18-11-2025 07:00:00,26.146529,87.454184,OZONE,10,10,10
India,Bihar,Arrah,"New DM Office, Arrah - BSPCB",18-11-2025 07:00:00,25.5626095,84.663264,PM10,88,169,128
India,Bihar,Arrah,"New DM Office, Arrah - BSPCB",18-11-2025 07:00:00,25.5626095,84.663264,NH3,1,1,1
India,Bihar,Arrah,"New DM Office, Arrah - BSPCB",18-11-2025 07:00:00,25.5626095,84.663264,OZONE,5,17,9
India,Bihar,Aurangabad,"Gurdeo Nagar, Aurangabad - BSPCB",18-11-2025 07:00:00,24.75746,84.366208,PM10,79,174,110
India,Bihar,Begusarai,"Lohiyanagar, Begusarai - BSPCB",18-11-2025 07:00:00,25.42742023,86.13886079,PM10,53,117,90
India,Bihar,Begusarai,"Lohiyanagar, Begusarai - BSPCB",18-11-2025 07:00:00,25.42742023,86.13886079,NO2,16,23,20
India,Bihar,Begusarai,"Lohiyanagar, Begusarai - BSPCB",18-11-2025 07:00:00,25.42742023,86.13886079,NH3,4,5,5
India,Bihar,Bettiah,"Kamalnath Nagar, Bettiah - BSPCB",18-11-2025 07:00:00,26.80365,84.51954,NH3,1,1,1
India,Andhra_Pradesh,Vijayawada,"Rajiv Nagar, Vijayawada - APPCB",18-11-2025 07:00:00,16.554731,80.649110,SO2,8,32,17
India,Andhra_Pradesh,Visakhapatnam,"GVM Corporation, Visakhapatnam - APPCB",18-11-2025 07:00:00,17.72,83.3,SO2,22,55,30
India,Arunachal_Pradesh,Naharlagun,"Naharlagun, Naharlagun - APSPCB",18-11-2025 07:00:00,27.103358,93.679645,NO2,6,7,6
India,Arunachal_Pradesh,Naharlagun,"Naharlagun, Naharlagun - APSPCB",18-11-2025 07:00:00,27.103358,93.679645,SO2,8,9,8
India,Arunachal_Pradesh,Naharlagun,"Naharlagun, Naharlagun - APSPCB",18-11-2025 07:00:00,27.103358,93.679645,CO,6,54,15
India,Assam,Byrnihat,"Central Academy for SFS, Byrnihat - PCBA",18-11-2025 07:00:00,26.071318,91.87488,PM10,64,111,90
India,Bihar,Kishanganj,"SDM Office_Khagra, Kishanganj - BSPCB",18-11-2025 07:00:00,26.0881305,87.93840336,PM10,NA,NA,NA
India,Bihar,Manguraha,"Forest Rest House, Manguraha - BSPCB",18-11-2025 07:00:00,27.308328,84.531742,NO2,3,10,5
India,Bihar,Manguraha,"Forest Rest House, Manguraha - BSPCB",18-11-2025 07:00:00,27.308328,84.531742,SO2,16,17,16
India,Bihar,Motihari,"Gandak Colony, Motihari - BSPCB",18-11-2025 07:00:00,26.63086,84.90051,PM2.5,42,177,99
India,Bihar,Motihari,"Gandak Colony, Motihari - BSPCB",18-11-2025 07:00:00,26.63086,84.90051,NO2,5,12,8
India,Bihar,Motihari,"Gandak Colony, Motihari - BSPCB",18-11-2025 07:00:00,26.63086,84.90051,NH3,3,3,3
India,Bihar,Motihari,"Gandak Colony, Motihari - BSPCB",18-11-2025 07:00:00,26.63086,84.90051,OZONE,2,4,3
India,Bihar,Gaya,"Collectorate, Gaya - BSPCB",18-11-2025 07:00:00,24.7955,84.9994,SO2,NA,NA,NA
India,Bihar,Gaya,"Kareemganj, Gaya - BSPCB",18-11-2025 07:00:00,24.792403,84.992416,PM10,117,360,199
India,Bihar,Gaya,"Kareemganj, Gaya - BSPCB",18-11-2025 07:00:00,24.792403,84.992416,CO,38,40,40
India,Bihar,Gaya,"SFTI Kusdihra, Gaya - BSPCB",18-11-2025 07:00:00,24.762518,84.982348,CO,13,46,38
India,Bihar,Hajipur,"Industrial Area, Hajipur - BSPCB",18-11-2025 07:00:00,25.697189,85.245900,NO2,42,65,52
India,Bihar,Katihar,"Mirchaibari, Katihar - BSPCB",18-11-2025 07:00:00,25.560083,87.553265,NO2,11,20,16
India,Bihar,Bihar Sharif,"D M Colony, Bihar Sharif - BSPCB",18-11-2025 07:00:00,25.204762,85.514960,CO,29,74,74
India,Bihar,Bihar Sharif,"D M Colony, Bihar Sharif - BSPCB",18-11-2025 07:00:00,25.204762,85.514960,OZONE,24,42,24
India,Bihar,Chhapra,"Darshan Nagar, Chhapra - BSPCB",18-11-2025 07:00:00,25.7808257,84.7446768,PM10,NA,NA,NA
India,Assam,Guwahati,"IITG, Guwahati - PCBA",18-11-2025 07:00:00,26.2028636,91.70046436,PM10,23,128,73
India,Assam,Guwahati,"Railway Colony, Guwahati - PCBA",18-11-2025 07:00:00,26.181742,91.78063,CO,21,71,56
India,Bihar,Bihar Sharif,"D M Colony, Bihar Sharif - BSPCB",18-11-2025 07:00:00,25.204762,85.514960,PM10,58,152,99
India,Chandigarh,Chandigarh,"Sector-53, Chandigarh - CPCC",18-11-2025 07:00:00,30.719859,76.738637,PM10,34,156,98
India,Chandigarh,Chandigarh,"Sector-53, Chandigarh - CPCC",18-11-2025 07:00:00,30.719859,76.738637,NH3,4,6,5
India,Chandigarh,Chandigarh,"Sector-53, Chandigarh - CPCC",18-11-2025 07:00:00,30.719859,76.738637,SO2,8,30,16
India,Chhattisgarh,Bhilai,"Civic Center, Bhilai - Bhilai Steel Plant",18-11-2025 07:00:00,21.185571,81.343175,PM10,14,152,97
India,Chhattisgarh,Bhilai,"Civic Center, Bhilai - Bhilai Steel Plant",18-11-2025 07:00:00,21.185571,81.343175,NO2,11,124,22
India,Chhattisgarh,Bhilai,"Civic Center, Bhilai - Bhilai Steel Plant",18-11-2025 07:00:00,21.185571,81.343175,NH3,3,9,4
India,Chhattisgarh,Bhilai,"Civic Center, Bhilai - Bhilai Steel Plant",18-11-2025 07:00:00,21.185571,81.343175,CO,22,31,30
India,Chhattisgarh,Bhilai,"Hathkhoj, Bhilai - CECB",18-11-2025 07:00:00,21.224231,81.408350,PM10,56,112,83
India,Chhattisgarh,Bhilai,"Hathkhoj, Bhilai - CECB",18-11-2025 07:00:00,21.224231,81.408350,NO2,31,59,42
India,Chhattisgarh,Bilaspur,"Mangala, Bilaspur - NTPC",18-11-2025 07:00:00,22.08815,82.13737,PM2.5,67,188,99
India,Bihar,Sasaram,"Dada Peer, Sasaram - BSPCB",18-11-2025 07:00:00,24.952822,84.002396,SO2,NA,NA,NA
India,Bihar,Sasaram,"Dada Peer, Sasaram - BSPCB",18-11-2025 07:00:00,24.952822,84.002396,OZONE,12,27,17
India,Bihar,Siwan,"Chitragupta Nagar, Siwan - BSPCB",18-11-2025 07:00:00,26.2271665,84.3570427,PM10,56,121,78
India,Bihar,Siwan,"Chitragupta Nagar, Siwan - BSPCB",18-11-2025 07:00:00,26.2271665,84.3570427,NO2,1,2,1
India,Bihar,Siwan,"Chitragupta Nagar, Siwan - BSPCB",18-11-2025 07:00:00,26.2271665,84.3570427,NH3,1,1,1
India,Bihar,Siwan,"Chitragupta Nagar, Siwan - BSPCB",18-11-2025 07:00:00,26.2271665,84.3570427,OZONE,13,14,13
India,Chandigarh,Chandigarh,"Sector 22, Chandigarh - CPCC",18-11-2025 07:00:00,30.735567,76.775714,NH3,3,9,8
India,Chandigarh,Chandigarh,"Sector 22, Chandigarh - CPCC",18-11-2025 07:00:00,30.735567,76.775714,CO,52,107,58
India,Chandigarh,Chandigarh,"Sector-25, Chandigarh - CPCC",18-11-2025 07:00:00,30.751462,76.762879,PM2.5,13,193,104
India,Chandigarh,Chandigarh,"Sector-25, Chandigarh - CPCC",18-11-2025 07:00:00,30.751462,76.762879,OZONE,1,57,3
India,Chhattisgarh,Tumidih,"OP Jindal Industrial Park, Tumidih - CECB",18-11-2025 07:00:00,22.06631475,83.33820077,NO2,31,98,61
India,Chhattisgarh,Tumidih,"OP Jindal Industrial Park, Tumidih - CECB",18-11-2025 07:00:00,22.06631475,83.33820077,CO,30,78,40
India,Delhi,Delhi,"Alipur, Delhi - DPCC",18-11-2025 07:00:00,28.815329,77.153010,PM2.5,272,493,370
India,Delhi,Delhi,"Alipur, Delhi - DPCC",18-11-2025 07:00:00,28.815329,77.153010,PM10,189,495,363
India,Delhi,Delhi,"Alipur, Delhi - DPCC",18-11-2025 07:00:00,28.815329,77.153010,OZONE,7,84,8
India,Delhi,Delhi,"Anand Vihar, Delhi - DPCC",18-11-2025 07:00:00,28.647622,77.3158090,PM2.5,253,461,381
India,Delhi,Delhi,"Anand Vihar, Delhi - DPCC",18-11-2025 07:00:00,28.647622,77.3158090,PM10,179,500,372
India,Delhi,Delhi,"Anand Vihar, Delhi - DPCC",18-11-2025 07:00:00,28.647622,77.3158090,SO2,48,79,62
India,Delhi,Delhi,"Anand Vihar, Delhi - DPCC",18-11-2025 07:00:00,28.647622,77.3158090,OZONE,5,7,6
India,Chhattisgarh,Milupara,"Govt. Higher Secondary School, Milupara - CECB",18-11-2025 07:00:00,22.1910172,83.5197009,PM2.5,NA,NA,NA
India,Chhattisgarh,Milupara,"Govt. Higher Secondary School, Milupara - CECB",18-11-2025 07:00:00,22.1910172,83.5197009,PM10,NA,NA,NA
India,Chhattisgarh,Milupara,"Govt. Higher Secondary School, Milupara - CECB",18-11-2025 07:00:00,22.1910172,83.5197009,SO2,NA,NA,NA
India,Chhattisgarh,Raipur,"AIIMS, Raipur - CECB",18-11-2025 07:00:00,21.258815,81.578979,PM2.5,19,48,28
India,Chhattisgarh,Raipur,"AIIMS, Raipur - CECB",18-11-2025 07:00:00,21.258815,81.578979,PM10,20,102,68
India,Chhattisgarh,Raipur,"AIIMS, Raipur - CECB",18-11-2025 07:00:00,21.258815,81.578979,CO,26,57,52
India,Chhattisgarh,Raipur,"Bhatagaon New ISBT, Raipur - CECB",18-11-2025 07:00:00,21.219665,81.630094,SO2,6,27,10
India,Chhattisgarh,Raipur,"Siltara Phase-II, Raipur - CECB",18-11-2025 07:00:00,21.371751,81.664929,PM2.5,52,261,148
India,Bihar,Patna,"Govt. High School Shikarpur, Patna - BSPCB",18-11-2025 07:00:00,25.592539,85.227158,SO2,9,11,9
India,Bihar,Patna,"IGSC Planetarium Complex, Patna - BSPCB",18-11-2025 07:00:00,25.610369,85.132568,NO2,NA,NA,NA
India,Bihar,Patna,"Muradpur, Patna - BSPCB",18-11-2025 07:00:00,25.619651,85.147382,PM10,93,227,133
India,Bihar,Patna,"Muradpur, Patna - BSPCB",18-11-2025 07:00:00,25.619651,85.147382,NH3,4,5,4
India,Bihar,Patna,"Muradpur, Patna - BSPCB",18-11-2025 07:00:00,25.619651,85.147382,CO,30,69,49
India,Bihar,Patna,"Rajbansi Nagar, Patna - BSPCB",18-11-2025 07:00:00,25.599486,85.113666,PM2.5,95,174,129
India,Bihar,Patna,"Samanpura, Patna - BSPCB",18-11-2025 07:00:00,25.596727,85.085624,PM2.5,91,352,216
India,Bihar,Muzaffarpur,"MIT-Daudpur Kothi, Muzaffarpur - BSPCB",18-11-2025 07:00:00,26.1403345,85.3650192,PM2.5,72,110,89
India,Bihar,Muzaffarpur,"MIT-Daudpur Kothi, Muzaffarpur - BSPCB",18-11-2025 07:00:00,26.1403345,85.3650192,NO2,17,18,17
India,Bihar,Muzaffarpur,"Muzaffarpur Collectorate, Muzaffarpur - BSPCB",18-11-2025 07:00:00,26.1209,85.3647,CO,8,30,8
India,Bihar,Patna,"DRM Office Danapur, Patna - BSPCB",18-11-2025 07:00:00,25.586562,85.043586,NH3,6,18,10
India,Bihar,Patna,"DRM Office Danapur, Patna - BSPCB",18-11-2025 07:00:00,25.586562,85.043586,SO2,7,11,9
India,Bihar,Patna,"DRM Office Danapur, Patna - BSPCB",18-11-2025 07:00:00,25.586562,85.043586,CO,41,122,58
India,Delhi,Delhi,"Aya Nagar, Delhi - IMD",18-11-2025 07:00:00,28.4706914,77.1099364,NO2,18,100,53
India,Delhi,Delhi,"Bawana, Delhi - DPCC",18-11-2025 07:00:00,28.776200,77.051074,PM2.5,283,500,419
India,Delhi,Delhi,"Burari Crossing, Delhi - IMD",18-11-2025 07:00:00,28.7256504,77.2011573,OZONE,13,188,15
India,Delhi,Delhi,"CRRI Mathura Road, Delhi - IMD",18-11-2025 07:00:00,28.5512005,77.2735737,PM10,176,482,347
India,Bihar,Saharsa,"Police Line, Saharsa - BSPCB",18-11-2025 07:00:00,25.892357,86.590325,NO2,5,8,7
India,Bihar,Saharsa,"Police Line, Saharsa - BSPCB",18-11-2025 07:00:00,25.892357,86.590325,SO2,11,17,14
India,Bihar,Samastipur,"DM Office_Kasipur, Samastipur - BSPCB",18-11-2025 07:00:00,25.859655,85.77944,OZONE,8,9,8
India,Chhattisgarh,Korba,"Urja Nagar, Korba - CECB",18-11-2025 07:00:00,22.348441,82.549611,NO2,35,65,47
India,Chhattisgarh,Korba,"Urja Nagar, Korba - CECB",18-11-2025 07:00:00,22.348441,82.549611,CO,22,48,32
India,Gujarat,Ahmedabad,"Raikhad, Ahmedabad - IITM",18-11-2025 07:00:00,23.020509,72.579261,OZONE,4,106,20
India,Gujarat,Ahmedabad,"Rakhial, Ahmedabad - IITM",18-11-2025 07:00:00,23.016834,72.625775,PM10,87,176,123
India,Gujarat,Ahmedabad,"Rakhial, Ahmedabad - IITM",18-11-2025 07:00:00,23.016834,72.625775,CO,18,124,49
India,Gujarat,Ahmedabad,"SAC ISRO Bopal, Ahmedabad - IITM",18-11-2025 07:00:00,23.041137,72.456691,CO,24,54,45
India,Gujarat,Ahmedabad,"SAC ISRO Satellite, Ahmedabad - IITM",18-11-2025 07:00:00,23.023389,72.515201,NH3,4,10,6
India,Gujarat,Ahmedabad,"SAC ISRO Satellite, Ahmedabad - IITM",18-11-2025 07:00:00,23.023389,72.515201,CO,42,106,87
India,Gujarat,Ahmedabad,"SVPI Airport Hansol, Ahmedabad - IITM",18-11-2025 07:00:00,23.076793,72.627874,NO2,33,70,47
India,Gujarat,Ahmedabad,"SVPI Airport Hansol, Ahmedabad - IITM",18-11-2025 07:00:00,23.076793,72.627874,CO,7,76,57
India,Delhi,Delhi,"Mundka, Delhi - DPCC",18-11-2025 07:00:00,28.684678,77.076574,CO,53,156,98
India,Delhi,Delhi,"NSIT Dwarka, Delhi - CPCB",18-11-2025 07:00:00,28.60909,77.0325413,NH3,2,14,9
India,Delhi,Delhi,"NSIT Dwarka, Delhi - CPCB",18-11-2025 07:00:00,28.60909,77.0325413,SO2,3,98,43
India,Delhi,Delhi,"Narela, Delhi - DPCC",18-11-2025 07:00:00,28.822836,77.101981,NH3,16,19,17
India,Delhi,Delhi,"Narela, Delhi - DPCC",18-11-2025 07:00:00,28.822836,77.101981,SO2,5,39,21
India,Delhi,Delhi,"Nehru Nagar, Delhi - DPCC",18-11-2025 07:00:00,28.567890,77.250515,PM2.5,273,500,381
India,Delhi,Delhi,"Nehru Nagar, Delhi - DPCC",18-11-2025 07:00:00,28.567890,77.250515,PM10,179,500,327
India,Delhi,Delhi,"Nehru Nagar, Delhi - DPCC",18-11-2025 07:00:00,28.567890,77.250515,NO2,37,114,68
India,Delhi,Delhi,"Nehru Nagar, Delhi - DPCC",18-11-2025 07:00:00,28.567890,77.250515,NH3,6,29,11
India,Delhi,Delhi,"IGI Airport (T3), Delhi - IMD",18-11-2025 07:00:00,28.5627763,77.1180053,PM2.5,101,369,277
India,Delhi,Delhi,"IHBAS, Dilshad Garden, Delhi - CPCB",18-11-2025 07:00:00,28.6811736,77.3025234,SO2,20,49,33
India,Delhi,Delhi,"IHBAS, Dilshad Garden, Delhi - CPCB",18-11-2025 07:00:00,28.6811736,77.3025234,CO,50,103,77
India,Delhi,Delhi,"ITO, Delhi - CPCB",18-11-2025 07:00:00,28.628624,77.241060,NO2,33,223,120
India,Delhi,Delhi,"ITO, Delhi - CPCB",18-11-2025 07:00:00,28.628624,77.241060,CO,27,140,101
India,Delhi,Delhi,"ITO, Delhi - CPCB",18-11-2025 07:00:00,28.628624,77.241060,OZONE,9,52,9
India,Delhi,Delhi,"Jawaharlal Nehru Stadium, Delhi - DPCC",18-11-2025 07:00:00,28.580280,77.233829,NH3,5,6,6
India,Delhi,Delhi,"CRRI Mathura Road, Delhi - IMD",18-11-2025 07:00:00,28.5512005,77.2735737,NO2,1,76,25
India,Delhi,Delhi,"CRRI Mathura Road, Delhi - IMD",18-11-2025 07:00:00,28.5512005,77.2735737,CO,4,147,131
India,Delhi,Delhi,"Chandni Chowk, Delhi - IITM",18-11-2025 07:00:00,28.656756,77.227234,OZONE,3,94,6
India,Delhi,Delhi,"Dwarka-Sector 8, Delhi - DPCC ",18-11-2025 07:00:00,28.5710274,77.0719006,PM10,182,430,311
India,Delhi,Delhi,"Dwarka-Sector 8, Delhi - DPCC ",18-11-2025 07:00:00,28.5710274,77.0719006,NO2,59,152,109
India,Delhi,Delhi,"Dwarka-Sector 8, Delhi - DPCC ",18-11-2025 07:00:00,28.5710274,77.0719006,CO,45,193,124
India,Delhi,Delhi,"Sirifort, Delhi - CPCB",18-11-2025 07:00:00,28.5504249,77.2159377,OZONE,6,27,6
India,Delhi,Delhi,"Sonia Vihar, Delhi - DPCC",18-11-2025 07:00:00,28.710508,77.249485,OZONE,3,184,5
India,Delhi,Delhi,"Sri Aurobindo Marg, Delhi - DPCC",18-11-2025 07:00:00,28.531346,77.190156,SO2,2,16,9
India,Delhi,Delhi,"Vivek Vihar, Delhi - DPCC",18-11-2025 07:00:00,28.672342,77.315260,PM2.5,295,500,397
India,Delhi,Delhi,"Wazirpur, Delhi - DPCC",18-11-2025 07:00:00,28.699793,77.165453,PM2.5,253,500,409
India,Delhi,Delhi,"Pusa, Delhi - IMD",18-11-2025 07:00:00,28.636110,77.173332,PM10,139,375,247
India,Delhi,Delhi,"Rohini, Delhi - DPCC",18-11-2025 07:00:00,28.732528,77.119920,NH3,13,20,17
India,Delhi,Delhi,"Rohini, Delhi - DPCC",18-11-2025 07:00:00,28.732528,77.119920,SO2,2,16,11
India,Delhi,Delhi,"Shadipur, Delhi - CPCB",18-11-2025 07:00:00,28.6514781,77.1473105,PM10,186,500,294
India,Delhi,Delhi,"Sirifort, Delhi - CPCB",18-11-2025 07:00:00,28.5504249,77.2159377,PM10,178,412,294
India,Delhi,Delhi,"Wazirpur, Delhi - DPCC",18-11-2025 07:00:00,28.699793,77.165453,PM10,201,500,398
India,Delhi,Delhi,"Wazirpur, Delhi - DPCC",18-11-2025 07:00:00,28.699793,77.165453,NO2,55,159,102
India,Delhi,Delhi,"Wazirpur, Delhi - DPCC",18-11-2025 07:00:00,28.699793,77.165453,SO2,3,23,15
India,Delhi,Delhi,"Wazirpur, Delhi - DPCC",18-11-2025 07:00:00,28.699793,77.165453,CO,44,144,129
India,Gujarat,Ahmedabad,"Raikhad, Ahmedabad - IITM",18-11-2025 07:00:00,23.020509,72.579261,PM2.5,123,302,188
India,Delhi,Delhi,"North Campus, DU, Delhi - IMD",18-11-2025 07:00:00,28.6573814,77.1585447,OZONE,13,327,32
India,Delhi,Delhi,"Patparganj, Delhi - DPCC",18-11-2025 07:00:00,28.623763,77.287209,NO2,34,179,114
India,Delhi,Delhi,"Punjabi Bagh, Delhi - DPCC",18-11-2025 07:00:00,28.674045,77.131023,OZONE,2,134,4
India,Delhi,Delhi,"Pusa, Delhi - DPCC",18-11-2025 07:00:00,28.639652,77.146275,SO2,5,24,14
India,Delhi,Delhi,"Jawaharlal Nehru Stadium, Delhi - DPCC",18-11-2025 07:00:00,28.580280,77.233829,SO2,19,54,28
India,Delhi,Delhi,"Jawaharlal Nehru Stadium, Delhi - DPCC",18-11-2025 07:00:00,28.580280,77.233829,CO,36,174,148
India,Delhi,Delhi,"Jawaharlal Nehru Stadium, Delhi - DPCC",18-11-2025 07:00:00,28.580280,77.233829,OZONE,2,264,3
India,Haryana,Hisar,"Urban Estate-II, Hisar - HSPCB",18-11-2025 07:00:00,29.140560,75.744941,CO,55,132,77
India,Haryana,Kaithal,"Rishi Nagar, Kaithal - HSPCB",18-11-2025 07:00:00,29.8006,76.4155,NH3,5,6,6
India,Haryana,Karnal,"Sector-12, Karnal - HSPCB",18-11-2025 07:00:00,29.695300,77.002700,NO2,9,11,10
India,Haryana,Karnal,"Sector-12, Karnal - HSPCB",18-11-2025 07:00:00,29.695300,77.002700,CO,41,58,47
India,Haryana,Karnal,"Sector-12, Karnal - HSPCB",18-11-2025 07:00:00,29.695300,77.002700,OZONE,26,26,26
India,Haryana,Kurukshetra,"Sector-7, Kurukshetra - HSPCB",18-11-2025 07:00:00,29.966942,76.875879,NH3,5,5,5
India,Haryana,Kurukshetra,"Sector-7, Kurukshetra - HSPCB",18-11-2025 07:00:00,29.966942,76.875879,CO,7,117,58
India,Haryana,Mandikhera,"General Hospital, Mandikhera - HSPCB",18-11-2025 07:00:00,27.9002,76.9938,PM10,72,250,160
India,Haryana,Mandikhera,"General Hospital, Mandikhera - HSPCB",18-11-2025 07:00:00,27.9002,76.9938,NO2,19,24,22
India,Haryana,Panchgaon,"Amity University, Panchgaon - IITM",18-11-2025 07:00:00,28.3153,76.9143,NH3,9,19,13
India,Haryana,Panchkula,"Sector-6, Panchkula - HSPCB ",18-11-2025 07:00:00,30.7057778,76.8531805555555,NO2,23,26,25
India,Haryana,Panchkula,"Sector-6, Panchkula - HSPCB ",18-11-2025 07:00:00,30.7057778,76.8531805555555,SO2,8,9,9
India,Haryana,Panchkula,"Sector-6, Panchkula - HSPCB ",18-11-2025 07:00:00,30.7057778,76.8531805555555,OZONE,14,34,21
India,Haryana,Rohtak,"MD University, Rohtak - HSPCB",18-11-2025 07:00:00,28.52123,76.37138,NO2,2,27,9
India,Haryana,Rohtak,"MD University, Rohtak - HSPCB",18-11-2025 07:00:00,28.52123,76.37138,SO2,4,6,5
India,Haryana,Sirsa,"F-Block, Sirsa - HSPCB",18-11-2025 07:00:00,29.536400,75.015800,NO2,11,24,17
India,Haryana,Sirsa,"F-Block, Sirsa - HSPCB",18-11-2025 07:00:00,29.536400,75.015800,NH3,11,15,13
India,Haryana,Dharuhera,"Municipal Corporation Office, Dharuhera -  HSPCB",18-11-2025 07:00:00,28.206800,76.799700,NO2,12,39,28
India,Haryana,Dharuhera,"Municipal Corporation Office, Dharuhera -  HSPCB",18-11-2025 07:00:00,28.206800,76.799700,NH3,8,22,17
India,Haryana,Dharuhera,"Municipal Corporation Office, Dharuhera -  HSPCB",18-11-2025 07:00:00,28.206800,76.799700,OZONE,6,48,8
India,Haryana,Faridabad,"Sector 11, Faridabad - HSPCB",18-11-2025 07:00:00,28.376058,77.315741,PM10,104,229,145
India,Haryana,Faridabad,"Sector 11, Faridabad - HSPCB",18-11-2025 07:00:00,28.376058,77.315741,SO2,1,112,45
India,Haryana,Faridabad,"Sector 30, Faridabad - HSPCB",18-11-2025 07:00:00,28.4417,77.3217,NO2,37,39,38
India,Haryana,Bahadurgarh,"Arya Nagar, Bahadurgarh - HSPCB",18-11-2025 07:00:00,28.6701,76.9254,CO,42,50,47
India,Haryana,Ballabgarh,"Nathu Colony, Ballabgarh - HSPCB",18-11-2025 07:00:00,28.3419248,77.319699,PM2.5,71,236,125
India,Haryana,Bhiwani,"H.B. Colony, Bhiwani - HSPCB",18-11-2025 07:00:00,28.806223,76.141105,NH3,1,9,8
India,Haryana,Dharuhera,"Municipal Corporation Office, Dharuhera -  HSPCB",18-11-2025 07:00:00,28.206800,76.799700,PM2.5,123,403,223
India,Haryana,Fatehabad,"Huda Sector, Fatehabad - HSPCB",18-11-2025 07:00:00,29.503664,75.467934,SO2,4,39,16
India,Haryana,Gurugram,"Sector-51, Gurugram - HSPCB",18-11-2025 07:00:00,28.4227,77.0667,NO2,4,10,6
India,Haryana,Gurugram,"Teri Gram, Gurugram - HSPCB",18-11-2025 07:00:00,28.4275,77.1465,CO,12,59,29
India,Haryana,Hisar,"Urban Estate-II, Hisar - HSPCB",18-11-2025 07:00:00,29.140560,75.744941,PM2.5,57,226,117
India,Haryana,Manesar,"Sector-2 IMT, Manesar - HSPCB",18-11-2025 07:00:00,28.360699,76.936090,NO2,64,77,71
India,Haryana,Narnaul,"Shastri Nagar, Narnaul - HSPCB",18-11-2025 07:00:00,28.060249,76.113115,CO,18,42,35
India,Haryana,Panchgaon,"Amity University, Panchgaon - IITM",18-11-2025 07:00:00,28.3153,76.9143,PM10,61,125,90
India,Gujarat,Surat,"Science Center, Surat - SMC",18-11-2025 07:00:00,21.170046,72.795405,CO,37,42,39
India,Gujarat,Vapi,"Phase-1 GIDC, Vapi - GPCB",18-11-2025 07:00:00,20.362421,72.918013,PM2.5,NA,NA,NA
India,Gujarat,Gandhinagar,"GIFT City, Gandhinagar - IITM",18-11-2025 07:00:00,23.163798,72.677768,OZONE,NA,NA,NA
India,Gujarat,Gandhinagar,"Sector-10, Gandhinagar - GPCB",18-11-2025 07:00:00,23.221714,72.654328,PM10,50,124,96
India,Haryana,Ambala,"Patti Mehar, Ambala - HSPCB",18-11-2025 07:00:00,30.379589,76.778328,NO2,18,24,22
India,Jharkhand,Dhanbad,"Sardar Patel Nagar, Dhanbad - JSPCB",18-11-2025 07:00:00,23.80569,86.44268,SO2,16,117,65
India,Jharkhand,Jorapokhar,"Tata Stadium, Jorapokhar - JSPCB",18-11-2025 07:00:00,23.707909,86.414670,SO2,NA,NA,NA
India,Jharkhand,Jorapokhar,"Tata Stadium, Jorapokhar - JSPCB",18-11-2025 07:00:00,23.707909,86.414670,OZONE,NA,NA,NA
India,Karnataka,Bagalkot,"Vidayagiri, Bagalkot - KSPCB",18-11-2025 07:00:00,16.172806,75.659694,OZONE,10,16,15
India,Karnataka,Belgaum,"Ramteerth Nagar, Belgaum - KSPCB",18-11-2025 07:00:00,15.888653,74.541751,NH3,8,11,9
India,Karnataka,Bengaluru,"BTM Layout, Bengaluru - CPCB",18-11-2025 07:00:00,12.9135218,77.5950804,PM2.5,47,70,60
India,Karnataka,Bengaluru,"BTM Layout, Bengaluru - CPCB",18-11-2025 07:00:00,12.9135218,77.5950804,PM10,62,68,66
India,Karnataka,Gadag,"Panchal Nagar, Gadag - KSPCB",18-11-2025 07:00:00,15.411456,75.638133,SO2,11,41,25
India,Karnataka,Hubballi,"Lingaraj Nagar, Hubballi - KSPCB",18-11-2025 07:00:00,15.3714823,75.1160168,NH3,1,2,2
India,Karnataka,Hubballi,"Lingaraj Nagar, Hubballi - KSPCB",18-11-2025 07:00:00,15.3714823,75.1160168,CO,14,28,17
India,Karnataka,Hubballi,"Lingaraj Nagar, Hubballi - KSPCB",18-11-2025 07:00:00,15.3714823,75.1160168,OZONE,15,19,19
India,Karnataka,Kalaburagi,"Lal Bahadur Shastri Nagar, Kalaburagi - KSPCB",18-11-2025 07:00:00,17.321993,76.822628,PM2.5,42,69,58
India,Karnataka,Kalaburagi,"Lal Bahadur Shastri Nagar, Kalaburagi - KSPCB",18-11-2025 07:00:00,17.321993,76.822628,CO,30,34,30
India,Karnataka,Koppal,"Diwator Nagar, Koppal - KSPCB",18-11-2025 07:00:00,15.347630,76.181767,PM10,42,66,56
India,Karnataka,Madikeri,"Stuart Hill, Madikeri - KSPCB",18-11-2025 07:00:00,12.415911,75.735050,PM2.5,25,51,38
India,Karnataka,Madikeri,"Stuart Hill, Madikeri - KSPCB",18-11-2025 07:00:00,12.415911,75.735050,PM10,20,36,28
India,Karnataka,Mangalore,"Kadri, Mangalore - KSPCB",18-11-2025 07:00:00,12.889250,74.853000,SO2,14,15,15
India,Karnataka,Mysuru,"Hebbal 1st Stage, Mysuru - KSPCB",18-11-2025 07:00:00,12.21041,76.37376,PM10,58,104,83
India,Karnataka,Shivamogga,"Vinoba Nagara, Shivamogga - KSPCB",18-11-2025 07:00:00,13.940000,75.555917,OZONE,14,74,30
India,Karnataka,Tumakuru,"Thimmalapura, Tumakuru - KSPCB",18-11-2025 07:00:00,13.377516,77.099072,CO,NA,NA,NA
India,Karnataka,Chamarajanagar,"Urban, Chamarajanagar - KSPCB",18-11-2025 07:00:00,11.55358,76.55521,NH3,1,3,2
India,Karnataka,Chikkamagaluru,"Kalyana Nagara, Chikkamagaluru - KSPCB",18-11-2025 07:00:00,13.328028,75.797056,NO2,19,28,21
India,Karnataka,Dharwad,"Kalabhavan, Dharwad - KSPCB",18-11-2025 07:00:00,15.459706,75.008381,NO2,22,26,25
India,Karnataka,Dharwad,"Kalabhavan, Dharwad - KSPCB",18-11-2025 07:00:00,15.459706,75.008381,SO2,1,10,5
India,Karnataka,Gadag,"Panchal Nagar, Gadag - KSPCB",18-11-2025 07:00:00,15.411456,75.638133,PM2.5,NA,NA,NA
India,Karnataka,Bengaluru,"Peenya, Bengaluru - CPCB",18-11-2025 07:00:00,13.0270199,77.494094,OZONE,22,22,22
India,Karnataka,Bengaluru,"RVCE-Mailasandra, Bengaluru - KSPCB",18-11-2025 07:00:00,12.921418,77.502466,NO2,29,30,29
India,Karnataka,Bengaluru,"Shivapura_Peenya, Bengaluru - KSPCB",18-11-2025 07:00:00,13.0246342,77.5080115,PM2.5,76,329,141
India,Karnataka,Bengaluru,"Shivapura_Peenya, Bengaluru - KSPCB",18-11-2025 07:00:00,13.0246342,77.5080115,SO2,6,17,11
India,Karnataka,Chamarajanagar,"Urban, Chamarajanagar - KSPCB",18-11-2025 07:00:00,11.55358,76.55521,NO2,14,36,24
India,Karnataka,Udupi,"Brahmagiri, Udupi - KSPCB",18-11-2025 07:00:00,13.34194444,74.74694444,PM2.5,70,145,93
India,Karnataka,Udupi,"Brahmagiri, Udupi - KSPCB",18-11-2025 07:00:00,13.34194444,74.74694444,NH3,1,2,1
India,Karnataka,Yadgir,"Collector Office, Yadgir - KSPCB",18-11-2025 07:00:00,16.7602,77.1428,NO2,15,36,21
India,Kerala,Eloor,"Udyogamandal, Eloor - Kerala PCB",18-11-2025 07:00:00,10.073232,76.302765,PM10,46,65,57
India,Kerala,Eloor,"Udyogamandal, Eloor - Kerala PCB",18-11-2025 07:00:00,10.073232,76.302765,CO,26,102,36
India,Haryana,Yamuna Nagar,"Gobind Pura, Yamuna Nagar - HSPCB",18-11-2025 07:00:00,30.1480566,77.2893471,PM2.5,NA,NA,NA
India,Haryana,Yamuna Nagar,"Gobind Pura, Yamuna Nagar - HSPCB",18-11-2025 07:00:00,30.1480566,77.2893471,OZONE,NA,NA,NA
India,Himachal Pradesh,Baddi,"HIMUDA Complex Phase-1, Baddi - HPPCB",18-11-2025 07:00:00,30.943887,76.801991,OZONE,14,220,81
India,Jammu_and_Kashmir,Srinagar,"Rajbagh, Srinagar - JKSPCB",18-11-2025 07:00:00,34.066206,74.819820,PM10,55,118,95
India,Karnataka,Bengaluru,"Jayanagar 5th Block, Bengaluru - KSPCB",18-11-2025 07:00:00,12.920984,77.584908,PM10,NA,NA,NA
India,Karnataka,Bengaluru,"Jigani, Bengaluru - KSPCB",18-11-2025 07:00:00,12.7816279,77.6299145,PM2.5,NA,NA,NA
India,Karnataka,Bengaluru,"Jigani, Bengaluru - KSPCB",18-11-2025 07:00:00,12.7816279,77.6299145,OZONE,20,21,20
India,Karnataka,Bengaluru,"Kasturi Nagar, Bengaluru - KSPCB",18-11-2025 07:00:00,13.003872,77.664217,PM2.5,57,59,58
India,Karnataka,Bengaluru,"Kasturi Nagar, Bengaluru - KSPCB",18-11-2025 07:00:00,13.003872,77.664217,PM10,68,70,69
India,Karnataka,Bengaluru,"Kasturi Nagar, Bengaluru - KSPCB",18-11-2025 07:00:00,13.003872,77.664217,OZONE,20,21,20
India,Karnataka,Bengaluru,"BWSSB Kadabesanahalli, Bengaluru - CPCB",18-11-2025 07:00:00,12.9352049,77.6814488,NH3,4,5,5
India,Karnataka,Bengaluru,"BWSSB Kadabesanahalli, Bengaluru - CPCB",18-11-2025 07:00:00,12.9352049,77.6814488,OZONE,29,29,29
India,Karnataka,Bengaluru,"City Railway Station, Bengaluru - KSPCB",18-11-2025 07:00:00,12.9756843,77.5660749,NO2,36,45,42
India,Karnataka,Bengaluru,"Hombegowda Nagar, Bengaluru - KSPCB",18-11-2025 07:00:00,12.938539,77.590100,PM10,69,117,97
India,Madhya Pradesh,Mandideep,"Sector-D Industrial Area, Mandideep - MPPCB",18-11-2025 07:00:00,23.108440,77.511428,NH3,1,9,6
India,Madhya Pradesh,Mandideep,"Sector-D Industrial Area, Mandideep - MPPCB",18-11-2025 07:00:00,23.108440,77.511428,CO,34,130,109
India,Madhya Pradesh,Pithampur,"Sector-2 Industrial Area, Pithampur - MPPCB",18-11-2025 07:00:00,22.624758,75.675238,NH3,2,5,3
India,Madhya Pradesh,Ratlam,"Shasthri Nagar, Ratlam - IPCA Lab",18-11-2025 07:00:00,23.331731,75.045981,NO2,10,53,24
India,Madhya Pradesh,Sagar,"Civil Lines, Sagar - MPPCB",18-11-2025 07:00:00,23.838586,78.759431,CO,32,92,51
India,Madhya Pradesh,Sagar,"Deen Dayal Nagar, Sagar - MPPCB",18-11-2025 07:00:00,23.8640158,78.80289321,SO2,NA,NA,NA
India,Madhya Pradesh,Satna,"Bandhavgar Colony, Satna - Birla Cement",18-11-2025 07:00:00,24.58434363,80.8549414,PM10,63,65,64
India,Kerala,Kannur,"Thavakkara, Kannur - Kerala PCB",18-11-2025 07:00:00,11.875000,75.373200,CO,16,17,16
India,Kerala,Kollam,"Polayathode, Kollam - Kerala PCB",18-11-2025 07:00:00,8.8787,76.6073,PM10,59,97,66
India,Kerala,Kollam,"Polayathode, Kollam - Kerala PCB",18-11-2025 07:00:00,8.8787,76.6073,NH3,1,1,1
India,Kerala,Thiruvananthapuram,"Kariavattom, Thiruvananthapuram - Kerala PCB",18-11-2025 07:00:00,8.563700,76.886500,CO,24,71,41
India,Kerala,Thiruvananthapuram,"Plammoodu, Thiruvananthapuram - Kerala PCB",18-11-2025 07:00:00,8.5149093,76.9435879,NO2,8,114,45
India,Kerala,Thrissur,"Corporation Ground, Thrissur - Kerala PCB",18-11-2025 07:00:00,10.532400,76.215900,NO2,6,8,7
India,Madhya Pradesh,Bhopal,"Idgah Hills, Bhopal - MPPCB",18-11-2025 07:00:00,23.264759,77.381568,PM2.5,NA,NA,NA
India,Madhya Pradesh,Jabalpur,"Gupteshwar, Jabalpur - JMC",18-11-2025 07:00:00,23.142888,79.916147,CO,48,134,80
India,Madhya Pradesh,Jabalpur,"Marhatal, Jabalpur - MPPCB",18-11-2025 07:00:00,23.168606,79.932247,PM2.5,118,393,264
India,Madhya Pradesh,Jabalpur,"Marhatal, Jabalpur - MPPCB",18-11-2025 07:00:00,23.168606,79.932247,OZONE,3,125,14
India,Madhya Pradesh,Jabalpur,"Suhagi, Jabalpur - JMC",18-11-2025 07:00:00,23.218135,79.957770,CO,10,103,39
India,Madhya Pradesh,Katni,"Gole Bazar, Katni - MPPCB",18-11-2025 07:00:00,23.50016,80.23284,PM2.5,74,349,198
India,Madhya Pradesh,Katni,"Gole Bazar, Katni - MPPCB",18-11-2025 07:00:00,23.50016,80.23284,CO,21,138,67
India,Madhya Pradesh,Maihar,"Sahilara, Maihar - KJS Cements",18-11-2025 07:00:00,24.2613009,80.7231783,NO2,38,91,55
India,Madhya Pradesh,Maihar,"Sahilara, Maihar - KJS Cements",18-11-2025 07:00:00,24.2613009,80.7231783,CO,26,103,29
India,Madhya Pradesh,Singrauli,"Suryakiran Bhawan NCL, Singrauli - MPPCB",18-11-2025 07:00:00,24.108970,82.645580,SO2,25,67,37
India,Madhya Pradesh,Singrauli,"Suryakiran Bhawan NCL, Singrauli - MPPCB",18-11-2025 07:00:00,24.108970,82.645580,OZONE,1,79,2
India,Maharashtra,Ahmednagar,"Tarakpur, Ahmednagar - MPCB",18-11-2025 07:00:00,19.10122,74.73339,NO2,17,25,21
India,Maharashtra,Ahmednagar,"Tarakpur, Ahmednagar - MPCB",18-11-2025 07:00:00,19.10122,74.73339,OZONE,5,128,20
India,Maharashtra,Akola,"Ramdaspeth, Akola - MPCB",18-11-2025 07:00:00,20.719516,77.000253,NO2,22,103,47
India,Maharashtra,Amravati,"Shivneri Colony, Amravati - MPCB",18-11-2025 07:00:00,20.9402359,77.7895248,PM2.5,71,116,92
India,Maharashtra,Amravati,"Shivneri Colony, Amravati - MPCB",18-11-2025 07:00:00,20.9402359,77.7895248,NH3,2,2,2
India,Madhya Pradesh,Gwalior,"Deen Dayal Nagar, Gwalior - MPPCB",18-11-2025 07:00:00,26.259242,78.216432,PM10,110,427,179
India,Madhya Pradesh,Gwalior,"Deen Dayal Nagar, Gwalior - MPPCB",18-11-2025 07:00:00,26.259242,78.216432,CO,20,136,74
India,Madhya Pradesh,Gwalior,"Maharaj Bada, Gwalior - MPPCB",18-11-2025 07:00:00,26.200388,78.147714,PM2.5,113,349,206
India,Madhya Pradesh,Gwalior,"Maharaj Bada, Gwalior - MPPCB",18-11-2025 07:00:00,26.200388,78.147714,NO2,27,140,65
India,Madhya Pradesh,Gwalior,"Maharaj Bada, Gwalior - MPPCB",18-11-2025 07:00:00,26.200388,78.147714,NH3,4,4,4
India,Madhya Pradesh,Gwalior,"Maharaj Bada, Gwalior - MPPCB",18-11-2025 07:00:00,26.200388,78.147714,OZONE,3,132,25
India,Madhya Pradesh,Indore,"Chhoti Gwaltoli, Indore - MPPCB",18-11-2025 07:00:00,22.4310,75.5213,PM10,72,289,142
India,Madhya Pradesh,Bhopal,"Idgah Hills, Bhopal - MPPCB",18-11-2025 07:00:00,23.264759,77.381568,PM10,NA,NA,NA
India,Madhya Pradesh,Bhopal,"Paryavaran Parisar, Bhopal - MPPCB",18-11-2025 07:00:00,23.210494,77.425409,PM10,124,417,205
India,Madhya Pradesh,Bhopal,"T T Nagar, Bhopal - MPPCB",18-11-2025 07:00:00,23.233584,77.400574,NH3,5,6,6
India,Madhya Pradesh,Damoh,"Shrivastav Colony, Damoh - MPPCB",18-11-2025 07:00:00,23.81748678,79.446246,CO,20,24,24
India,Madhya Pradesh,Dewas,"Bhopal Chauraha, Dewas - MPPCB",18-11-2025 07:00:00,22.9682591,76.064118,PM10,120,295,165
India,Maharashtra,Badlapur,"Katrap, Badlapur - MPCB",18-11-2025 07:00:00,19.16485,73.23409,PM10,100,167,128
India,Maharashtra,Belapur,"CBD Belapur, Belapur - MPCB",18-11-2025 07:00:00,19.0243902,73.0406721,CO,2,52,38
India,Maharashtra,Boisar,"Khaira, Boisar - MPCB",18-11-2025 07:00:00,19.786089,72.757971,OZONE,40,41,40
India,Maharashtra,Amravati,"Shri Shivaji Science College, Amravati - MPCB",18-11-2025 07:00:00,20.939198,77.765701,OZONE,2,148,46
India,Maharashtra,Aurangabad,"MIDC Chilkalthana, Aurangabad - MPCB",18-11-2025 07:00:00,19.875620,75.387310,NO2,16,113,56
India,Maharashtra,Aurangabad,"MIDC Chilkalthana, Aurangabad - MPCB",18-11-2025 07:00:00,19.875620,75.387310,NH3,2,3,2
India,Madhya Pradesh,Jabalpur,"Govindh Bhavan Colony, Jabalpur - JMC",18-11-2025 07:00:00,23.163174,79.973061,PM2.5,82,200,135
India,Madhya Pradesh,Jabalpur,"Gupteshwar, Jabalpur - JMC",18-11-2025 07:00:00,23.142888,79.916147,PM10,88,197,135
India,Maharashtra,Mumbai,"Colaba, Mumbai - MPCB",18-11-2025 07:00:00,18.910000,72.820000,OZONE,11,11,11
India,Maharashtra,Mumbai,"Deonar, Mumbai - IITM",18-11-2025 07:00:00,19.04946,72.9230,PM10,147,424,258
India,Maharashtra,Mumbai,"Deonar, Mumbai - IITM",18-11-2025 07:00:00,19.04946,72.9230,SO2,3,14,7
India,Maharashtra,Mumbai,"Ghatkopar, Mumbai - BMC",18-11-2025 07:00:00,19.083694,72.920967,OZONE,1,172,3
India,Maharashtra,Mumbai,"Kandivali East, Mumbai - MPCB",18-11-2025 07:00:00,19.205800,72.868200,PM10,89,260,131
India,Maharashtra,Mumbai,"Kandivali East, Mumbai - MPCB",18-11-2025 07:00:00,19.205800,72.868200,CO,8,58,12
India,Maharashtra,Mumbai,"Kandivali West, Mumbai - BMC",18-11-2025 07:00:00,19.215859,72.831718,PM2.5,76,190,119
India,Maharashtra,Mumbai,"Kandivali West, Mumbai - BMC",18-11-2025 07:00:00,19.215859,72.831718,SO2,6,18,12
India,Maharashtra,Mumbai,"Kherwadi_Bandra East, Mumbai - MPCB",18-11-2025 07:00:00,19.0632143,72.8456324,PM2.5,78,144,104
India,Maharashtra,Jalna,"Old MIDC, Jalna - MPCB",18-11-2025 07:00:00,19.854616,75.905894,SO2,3,15,7
India,Maharashtra,Jalna,"Old MIDC, Jalna - MPCB",18-11-2025 07:00:00,19.854616,75.905894,CO,12,30,23
India,Maharashtra,Jalna,"Old MIDC, Jalna - MPCB",18-11-2025 07:00:00,19.854616,75.905894,OZONE,9,103,17
India,Maharashtra,Kalyan,"Khadakpada, Kalyan - MPCB",18-11-2025 07:00:00,19.25292,73.142019,CO,65,101,86
India,Maharashtra,Kolhapur,"Shivaji University, Kolhapur - MPCB",18-11-2025 07:00:00,16.6870449,74.2505872,SO2,2,6,4
India,Maharashtra,Kolhapur,"Shivaji University, Kolhapur - MPCB",18-11-2025 07:00:00,16.6870449,74.2505872,OZONE,1,60,12
India,Maharashtra,Kolhapur,"Sinchan Bhavan, Kolhapur - MPCB",18-11-2025 07:00:00,16.7143745,74.2426398,CO,19,100,33
India,Maharashtra,Mumbai,"Navy Nagar-Colaba, Mumbai - IITM",18-11-2025 07:00:00,18.897756,72.813320,NO2,28,173,86
India,Maharashtra,Mumbai,"Navy Nagar-Colaba, Mumbai - IITM",18-11-2025 07:00:00,18.897756,72.813320,SO2,2,50,21
India,Maharashtra,Mumbai,"Navy Nagar-Colaba, Mumbai - IITM",18-11-2025 07:00:00,18.897756,72.813320,OZONE,18,147,30
India,Maharashtra,Mumbai,"Powai, Mumbai - MPCB",18-11-2025 07:00:00,19.137500,72.915056,PM10,115,182,148
India,Maharashtra,Mumbai,"Powai, Mumbai - MPCB",18-11-2025 07:00:00,19.137500,72.915056,SO2,28,30,28
India,Maharashtra,Mumbai,"Sewri, Mumbai - BMC",18-11-2025 07:00:00,19.000084,72.856730,PM10,44,91,65
India,Maharashtra,Mumbai,"Khindipada-Bhandup West, Mumbai - IITM",18-11-2025 07:00:00,19.1653323,72.922099,NO2,13,74,27
India,Maharashtra,Mumbai,"Kurla, Mumbai - MPCB",18-11-2025 07:00:00,19.0863,72.8888,PM2.5,71,99,84
India,Maharashtra,Mumbai,"Kurla, Mumbai - MPCB",18-11-2025 07:00:00,19.0863,72.8888,PM10,90,122,106
India,Maharashtra,Mumbai,"Malad West, Mumbai - IITM",18-11-2025 07:00:00,19.19709,72.82204,PM2.5,106,332,220
India,Maharashtra,Mumbai,"Malad West, Mumbai - IITM",18-11-2025 07:00:00,19.19709,72.82204,SO2,5,15,8
India,Maharashtra,Chandrapur,"Chauhan Colony, Chandrapur - MPCB",18-11-2025 07:00:00,19.962900,79.298714,NH3,2,2,2
India,Maharashtra,Jalgaon,"Prabhat Colony, Jalgaon - MPCB",18-11-2025 07:00:00,21.001264,75.565602,PM2.5,80,272,143
India,Maharashtra,Jalna,"Old MIDC, Jalna - MPCB",18-11-2025 07:00:00,19.854616,75.905894,PM2.5,49,70,59
India,Maharashtra,Jalna,"Old MIDC, Jalna - MPCB",18-11-2025 07:00:00,19.854616,75.905894,PM10,76,106,91
India,Maharashtra,Latur,"Sawe Wadi, Latur - MPCB",18-11-2025 07:00:00,18.39963,76.57452,OZONE,35,75,50
India,Maharashtra,Mahad,"Kamble Tarf Birwadi, Mahad - MPCB",18-11-2025 07:00:00,18.1023399,73.4783687,NH3,3,5,4
India,Maharashtra,Malegaon,"Mahesh Nagar, Malegaon - MPCB",18-11-2025 07:00:00,20.555712,74.529236,CO,40,51,44
India,Maharashtra,Mumbai,"Chhatrapati Shivaji Intl. Airport (T2), Mumbai - MPCB",18-11-2025 07:00:00,19.10078,72.87462,NH3,1,1,1
India,Maharashtra,Mumbai,"Chhatrapati Shivaji Intl. Airport (T2), Mumbai - MPCB",18-11-2025 07:00:00,19.10078,72.87462,CO,14,18,17
India,Maharashtra,Mumbai,"Chhatrapati Shivaji Intl. Airport (T2), Mumbai - MPCB",18-11-2025 07:00:00,19.10078,72.87462,OZONE,7,8,7
India,Maharashtra,Mumbai,"Colaba, Mumbai - MPCB",18-11-2025 07:00:00,18.910000,72.820000,SO2,NA,NA,NA
India,Maharashtra,Mumbai,"Borivali East, Mumbai - IITM",18-11-2025 07:00:00,19.23241,72.86895,NH3,3,7,5
India,Maharashtra,Mumbai,"Borivali East, Mumbai - MPCB",18-11-2025 07:00:00,19.2243333,72.8658113,SO2,9,13,10
India,Maharashtra,Mumbai,"Borivali East, Mumbai - MPCB",18-11-2025 07:00:00,19.2243333,72.8658113,OZONE,3,18,8
India,Maharashtra,Mumbai,"Byculla, Mumbai - BMC",18-11-2025 07:00:00,18.9767,72.8380,NH3,9,28,16
India,Maharashtra,Mira-Bhayandar,"Bhayandar West, Mira-Bhayandar - MPCB",18-11-2025 07:00:00,19.296481,72.840923,CO,12,63,38
India,Maharashtra,Navi Mumbai,"Sanpada, Navi Mumbai - MPCB",18-11-2025 07:00:00,19.0575752,73.0151367,PM2.5,85,286,163
India,Maharashtra,Navi Mumbai,"Sanpada, Navi Mumbai - MPCB",18-11-2025 07:00:00,19.0575752,73.0151367,PM10,78,135,113
India,Maharashtra,Navi Mumbai,"Sanpada, Navi Mumbai - MPCB",18-11-2025 07:00:00,19.0575752,73.0151367,NH3,5,6,5
India,Maharashtra,Navi Mumbai,"Sanpada, Navi Mumbai - MPCB",18-11-2025 07:00:00,19.0575752,73.0151367,SO2,9,18,13
India,Maharashtra,Navi Mumbai,"Sector-2E Kalamboli, Navi Mumbai - MPCB",18-11-2025 07:00:00,19.02579,73.10297,PM10,57,233,132
India,Maharashtra,Navi Mumbai,"Sector-2E Kalamboli, Navi Mumbai - MPCB",18-11-2025 07:00:00,19.02579,73.10297,CO,6,68,31
India,Maharashtra,Navi Mumbai,"Tondare-Taloja, Navi Mumbai - MPCB",18-11-2025 07:00:00,19.0630,73.1209,PM10,45,164,99
India,Maharashtra,Navi Mumbai,"Tondare-Taloja, Navi Mumbai - MPCB",18-11-2025 07:00:00,19.0630,73.1209,SO2,2,3,2
India,Maharashtra,Parbhani,"Masoom Colony, Parbhani - MPCB",18-11-2025 07:00:00,19.265594,76.761463,PM2.5,126,257,186
India,Maharashtra,Parbhani,"Masoom Colony, Parbhani - MPCB",18-11-2025 07:00:00,19.265594,76.761463,NO2,13,85,43
India,Maharashtra,Mumbai,"Vasai West, Mumbai - MPCB",18-11-2025 07:00:00,19.383200,72.820400,SO2,NA,NA,NA
India,Maharashtra,Mumbai,"Vile Parle West, Mumbai - MPCB",18-11-2025 07:00:00,19.10861,72.83622,NO2,6,30,24
India,Maharashtra,Mumbai,"Vile Parle West, Mumbai - MPCB",18-11-2025 07:00:00,19.10861,72.83622,OZONE,5,27,19
India,Maharashtra,Mumbai,"Worli, Mumbai - MPCB",18-11-2025 07:00:00,18.9936162,72.8128113,NO2,4,18,10
India,Maharashtra,Nagpur,"Ambazari, Nagpur - MPCB",18-11-2025 07:00:00,21.121801,79.04952,PM10,104,140,118
India,Maharashtra,Nagpur,"Ambazari, Nagpur - MPCB",18-11-2025 07:00:00,21.121801,79.04952,NO2,17,74,31
India,Maharashtra,Nagpur,"Ambazari, Nagpur - MPCB",18-11-2025 07:00:00,21.121801,79.04952,NH3,4,14,7
India,Maharashtra,Nagpur,"Ambazari, Nagpur - MPCB",18-11-2025 07:00:00,21.121801,79.04952,CO,21,75,45
India,Maharashtra,Nagpur,"Mahal, Nagpur - MPCB",18-11-2025 07:00:00,21.14472,79.107595,PM10,103,177,123
India,Maharashtra,Pimpri-Chinchwad,"Park Street Wakad, Pimpri Chinchwad - MPCB",18-11-2025 07:00:00,18.59051,73.77946,PM2.5,130,322,241
India,Maharashtra,Pimpri-Chinchwad,"Park Street Wakad, Pimpri Chinchwad - MPCB",18-11-2025 07:00:00,18.59051,73.77946,SO2,NA,NA,NA
India,Maharashtra,Pimpri-Chinchwad,"Park Street Wakad, Pimpri Chinchwad - MPCB",18-11-2025 07:00:00,18.59051,73.77946,OZONE,2,108,4
India,Maharashtra,Pimpri-Chinchwad,"Savta Mali Nagar, Pimpri-Chinchwad - IITM",18-11-2025 07:00:00,18.614767,73.799516,PM10,100,437,154
India,Maharashtra,Pimpri-Chinchwad,"Savta Mali Nagar, Pimpri-Chinchwad - IITM",18-11-2025 07:00:00,18.614767,73.799516,NO2,28,141,63
India,Maharashtra,Pimpri-Chinchwad,"Savta Mali Nagar, Pimpri-Chinchwad - IITM",18-11-2025 07:00:00,18.614767,73.799516,CO,42,101,69
India,Maharashtra,Pimpri-Chinchwad,"Savta Mali Nagar, Pimpri-Chinchwad - IITM",18-11-2025 07:00:00,18.614767,73.799516,OZONE,10,73,24
India,Maharashtra,Pimpri-Chinchwad,"Thergaon, Pimpri Chinchwad - MPCB",18-11-2025 07:00:00,18.616318,73.765797,PM2.5,87,246,163
India,Maharashtra,Pimpri-Chinchwad,"Thergaon, Pimpri Chinchwad - MPCB",18-11-2025 07:00:00,18.616318,73.765797,OZONE,1,75,25
India,Maharashtra,Nashik,"Hirawadi, Nashik - MPCB",18-11-2025 07:00:00,20.021503,73.813844,PM10,106,149,124
India,Maharashtra,Nashik,"Hirawadi, Nashik - MPCB",18-11-2025 07:00:00,20.021503,73.813844,NO2,7,45,17
India,Maharashtra,Nashik,"MIDC Ambad, Nashik - MPCB",18-11-2025 07:00:00,19.950220,73.731480,NO2,17,59,31
India,Maharashtra,Nashik,"MIDC Ambad, Nashik - MPCB",18-11-2025 07:00:00,19.950220,73.731480,NH3,7,9,8
India,Maharashtra,Nashik,"MIDC Ambad, Nashik - MPCB",18-11-2025 07:00:00,19.950220,73.731480,SO2,20,27,23
India,Maharashtra,Navi Mumbai,"Kopripada-Vashi, Navi Mumbai - MPCB",18-11-2025 07:00:00,19.090337,73.014232,NO2,13,72,39
India,Maharashtra,Navi Mumbai,"Kopripada-Vashi, Navi Mumbai - MPCB",18-11-2025 07:00:00,19.090337,73.014232,OZONE,1,90,5
India,Maharashtra,Navi Mumbai,"Mahape, Navi Mumbai - MPCB",18-11-2025 07:00:00,19.1135051,73.008978,CO,15,20,20
India,Maharashtra,Nagpur,"Mahal, Nagpur - MPCB",18-11-2025 07:00:00,21.14472,79.107595,SO2,8,67,30
India,Maharashtra,Nagpur,"Opp GPO Civil Lines, Nagpur - MPCB",18-11-2025 07:00:00,21.152875,79.0517531,PM2.5,121,246,184
India,Maharashtra,Nagpur,"Opp GPO Civil Lines, Nagpur - MPCB",18-11-2025 07:00:00,21.152875,79.0517531,NH3,1,5,2
India,Maharashtra,Nagpur,"Ram Nagar, Nagpur - MPCB",18-11-2025 07:00:00,21.143383,79.048912,OZONE,5,94,23
India,Maharashtra,Nanded,"Sneh Nagar, Nanded - MPCB",18-11-2025 07:00:00,19.173852,77.296291,PM2.5,85,306,200
India,Maharashtra,Nanded,"Sneh Nagar, Nanded - MPCB",18-11-2025 07:00:00,19.173852,77.296291,NO2,12,39,21
India,Maharashtra,Nanded,"Sneh Nagar, Nanded - MPCB",18-11-2025 07:00:00,19.173852,77.296291,NH3,4,5,4
India,Maharashtra,Nanded,"Sneh Nagar, Nanded - MPCB",18-11-2025 07:00:00,19.173852,77.296291,CO,20,27,23
India,Maharashtra,Nashik,"Gangapur Road, Nashik - MPCB",18-11-2025 07:00:00,20.0073285,73.7762427,PM2.5,71,304,150
India,Maharashtra,Nashik,"Gangapur Road, Nashik - MPCB",18-11-2025 07:00:00,20.0073285,73.7762427,NO2,5,8,6
India,Maharashtra,Nashik,"Gangapur Road, Nashik - MPCB",18-11-2025 07:00:00,20.0073285,73.7762427,SO2,7,14,11
India,Maharashtra,Pune,"Dhankawadi, Pune - IITM",18-11-2025 07:00:00,18.459883,73.852193,PM10,84,168,116
India,Maharashtra,Pune,"Mhada Colony, Pune - IITM",18-11-2025 07:00:00,18.573040,73.927715,PM2.5,37,322,131
India,Maharashtra,Pune,"Mhada Colony, Pune - IITM",18-11-2025 07:00:00,18.573040,73.927715,NO2,30,81,56
India,Maharashtra,Pune,"Mhada Colony, Pune - IITM",18-11-2025 07:00:00,18.573040,73.927715,OZONE,13,155,21
India,Maharashtra,Pune,"Revenue Colony-Shivajinagar, Pune - IITM",18-11-2025 07:00:00,18.530085,73.849598,PM10,150,286,220
India,Maharashtra,Mumbai,"Shivaji Nagar, Mumbai - BMC",18-11-2025 07:00:00,19.060498,72.923356,SO2,12,24,18
India,Maharashtra,Mumbai,"Siddharth Nagar-Worli, Mumbai - IITM",18-11-2025 07:00:00,19.000083,72.813993,NH3,3,7,5
India,Maharashtra,Mumbai,"Shivaji Nagar, Mumbai - BMC",18-11-2025 07:00:00,19.060498,72.923356,PM2.5,94,302,215
India,Odisha,Brajrajnagar,"GM Office, Brajrajnagar - OSPCB",18-11-2025 07:00:00,21.8004996,83.8396977,CO,4,26,9
India,Odisha,Byasanagar,"Ferro Chrome Colony, Byasanagar - OSPCB",18-11-2025 07:00:00,20.94185,86.11510,OZONE,18,177,49
India,Odisha,Cuttack,"CDA Area, Cuttack - OSPCB",18-11-2025 07:00:00,20.48891     ,85.84768     ,CO,38,125,63
India,Odisha,Keonjhar,"Jagamohanpur, Keonjhar - OSPCB",18-11-2025 07:00:00,21.643900,85.599355,NO2,23,107,54
India,Odisha,Keonjhar,"Jagamohanpur, Keonjhar - OSPCB",18-11-2025 07:00:00,21.643900,85.599355,NH3,7,32,18
India,Odisha,Keonjhar,"Jagamohanpur, Keonjhar - OSPCB",18-11-2025 07:00:00,21.643900,85.599355,CO,4,113,64
India,Odisha,Nayagarh,"Dabuna, Nayagarh - OSPCB",18-11-2025 07:00:00,21.847279,85.416905,PM2.5,14,64,51
India,Odisha,Rairangpur,"Divisional Forest Office, Rairangpur - OSPCB",18-11-2025 07:00:00,22.265816,86.174829,NH3,1,1,1
India,Punjab,Ludhiana,"Punjab Agricultural University, Ludhiana - PPCB",18-11-2025 07:00:00,30.9028,75.8086,SO2,2,49,23
India,Punjab,Ludhiana,"Punjab Agricultural University, Ludhiana - PPCB",18-11-2025 07:00:00,30.9028,75.8086,CO,6,105,65
India,Punjab,Mandi Gobindgarh,"RIMT University, Mandi Gobindgarh - PPCB",18-11-2025 07:00:00,30.649961,76.331442,PM10,120,218,145
India,Punjab,Patiala,"Model Town, Patiala - PPCB",18-11-2025 07:00:00,30.349388,76.366642,SO2,8,95,38
India,Punjab,Rupnagar,"Ratanpura, Rupnagar - Ambuja Cements",18-11-2025 07:00:00,31.0325454,76.5623046,PM10,4,55,34
India,Rajasthan,Alwar,"Moti Doongri, Alwar - RSPCB",18-11-2025 07:00:00,27.554793,76.611536,PM10,65,155,100
India,Rajasthan,Alwar,"Moti Doongri, Alwar - RSPCB",18-11-2025 07:00:00,27.554793,76.611536,OZONE,13,58,17
India,Rajasthan,Banswara,"Rati Talai, Banswara - RSPCB",18-11-2025 07:00:00,23.555190,74.440010,PM2.5,43,237,94
India,Rajasthan,Banswara,"Rati Talai, Banswara - RSPCB",18-11-2025 07:00:00,23.555190,74.440010,NH3,5,12,7
India,Rajasthan,Baran,"Bamboliya, Baran - RSPCB",18-11-2025 07:00:00,25.106006,76.469948,NO2,15,78,39
India,Rajasthan,Baran,"Bamboliya, Baran - RSPCB",18-11-2025 07:00:00,25.106006,76.469948,CO,27,93,69
India,Rajasthan,Bharatpur,"Krishna Nagar, Bharatpur - RSPCB",18-11-2025 07:00:00,27.215415,77.50873,NH3,1,10,7
India,Rajasthan,Bharatpur,"Krishna Nagar, Bharatpur - RSPCB",18-11-2025 07:00:00,27.215415,77.50873,CO,30,127,54
India,Rajasthan,Bharatpur,"Krishna Nagar, Bharatpur - RSPCB",18-11-2025 07:00:00,27.215415,77.50873,OZONE,3,153,55
India,Puducherry,Puducherry,"Jawahar Nagar, Puducherry - PPCC",18-11-2025 07:00:00,11.9309,79.8027,SO2,1,19,8
India,Punjab,Bathinda,"Hardev Nagar, Bathinda - PPCB",18-11-2025 07:00:00,30.233011,74.907758,SO2,15,15,15
India,Punjab,Jalandhar,"Civil Line, Jalandhar - PPCB",18-11-2025 07:00:00,31.321907,75.578914,PM10,109,166,132
India,Punjab,Jalandhar,"Civil Line, Jalandhar - PPCB",18-11-2025 07:00:00,31.321907,75.578914,NO2,28,32,30
India,Punjab,Jalandhar,"Civil Line, Jalandhar - PPCB",18-11-2025 07:00:00,31.321907,75.578914,NH3,6,6,6
India,Punjab,Jalandhar,"Civil Line, Jalandhar - PPCB",18-11-2025 07:00:00,31.321907,75.578914,SO2,14,18,15
India,Punjab,Ludhiana,"Punjab Agricultural University, Ludhiana - PPCB",18-11-2025 07:00:00,30.9028,75.8086,PM10,118,169,139
India,Odisha,Rourkela,"Raghunathpali, Rourkela - OSPCB",18-11-2025 07:00:00,22.220833,84.809444,PM2.5,NA,NA,NA
India,Odisha,Rourkela,"Raghunathpali, Rourkela - OSPCB",18-11-2025 07:00:00,22.220833,84.809444,NO2,NA,NA,NA
India,Odisha,Rourkela,"Raghunathpali, Rourkela - OSPCB",18-11-2025 07:00:00,22.220833,84.809444,SO2,NA,NA,NA
India,Odisha,Talcher,"Talcher Coalfields,Talcher - OSPCB",18-11-2025 07:00:00,20.9360711,85.1707021,NH3,5,7,6
India,Odisha,Talcher,"Talcher Coalfields,Talcher - OSPCB",18-11-2025 07:00:00,20.9360711,85.1707021,OZONE,9,22,15
India,Odisha,Tensa,"Barsua Iron Ore Mines, Tensa - OSPCB",18-11-2025 07:00:00,21.869985,85.167016,NO2,NA,NA,NA
India,Odisha,Tensa,"Barsua Iron Ore Mines, Tensa - OSPCB",18-11-2025 07:00:00,21.869985,85.167016,NH3,NA,NA,NA
India,Odisha,Tensa,"Barsua Iron Ore Mines, Tensa - OSPCB",18-11-2025 07:00:00,21.869985,85.167016,OZONE,8,39,12
India,Maharashtra,Pune,"Savitribai Phule Pune University, Pune - MPCB",18-11-2025 07:00:00,18.547056,73.826908,PM2.5,23,73,50
India,Maharashtra,Pune,"Savitribai Phule Pune University, Pune - MPCB",18-11-2025 07:00:00,18.547056,73.826908,NH3,1,6,2
India,Maharashtra,Pune,"Savitribai Phule Pune University, Pune - MPCB",18-11-2025 07:00:00,18.547056,73.826908,CO,20,116,72
India,Maharashtra,Sangli,"Vijay Nagar, Sangli - MPCB",18-11-2025 07:00:00, 16.5038,74.3623,PM2.5,143,257,203
India,Maharashtra,Solapur,"Dnyaneshwar Nagar, Solapur - MPCB",18-11-2025 07:00:00,17.6336264,75.9132495,NO2,12,112,33
India,Maharashtra,Solapur,"Dnyaneshwar Nagar, Solapur - MPCB",18-11-2025 07:00:00,17.6336264,75.9132495,CO,4,48,19
India,Odisha,Baripada,"Meher Colony, Baripada - OSPCB",18-11-2025 07:00:00,21.941841,86.728318,NO2,24,70,51
India,Odisha,Baripada,"Meher Colony, Baripada - OSPCB",18-11-2025 07:00:00,21.941841,86.728318,CO,24,57,28
India,Odisha,Bhubaneswar,"Lingraj Mandir, Bhubaneswar - OSPCB",18-11-2025 07:00:00,20.240790,85.836784,SO2,1,45,19
India,Odisha,Bhubaneswar,"Patia, Bhubaneswar - OSPCB",18-11-2025 07:00:00,20.34652,85.81630,NO2,14,100,39
India,Odisha,Bileipada,"Tata Township, Bileipada - OSPCB",18-11-2025 07:00:00,22.06156703,85.47409613,CO,3,51,27
India,Odisha,Balasore,"Kalidaspur, Balasore - OSPCB",18-11-2025 07:00:00,21.51161,86.89088,CO,20,94,34
India,Odisha,Barbil,"Forest Office, Barbil - OSPCB",18-11-2025 07:00:00,22.1166054,85.3945546,PM10,74,271,120
India,Odisha,Barbil,"Forest Office, Barbil - OSPCB",18-11-2025 07:00:00,22.1166054,85.3945546,NO2,15,66,25
India,Maharashtra,Ulhasnagar,"Sidhi Vinayak Nagar, Ulhasnagar - MPCB",18-11-2025 07:00:00,19.235581,73.159121,SO2,8,101,20
India,Maharashtra,Virar,"Bolinj, Virar - MPCB",18-11-2025 07:00:00,19.4458210,72.7988231,SO2,8,20,13
India,Maharashtra,Virar,"Bolinj, Virar - MPCB",18-11-2025 07:00:00,19.4458210,72.7988231,CO,20,96,36
India,Rajasthan,Kota,"Shrinath Puram, Kota - RSPCB",18-11-2025 07:00:00,25.14389,75.821256,NH3,NA,NA,NA
India,Rajasthan,Nagaur,"Karni Colony, Nagaur - RSPCB",18-11-2025 07:00:00,27.213494,73.734444,PM10,80,500,207
India,Rajasthan,Nagaur,"Karni Colony, Nagaur - RSPCB",18-11-2025 07:00:00,27.213494,73.734444,OZONE,5,82,27
India,Rajasthan,Pali,"Indira Colony Vistar, Pali - RSPCB",18-11-2025 07:00:00,25.771061, 73.340227,PM2.5,85,248,154
India,Rajasthan,Pali,"Indira Colony Vistar, Pali - RSPCB",18-11-2025 07:00:00,25.771061, 73.340227,CO,20,70,43
India,Rajasthan,Pratapgarh,"Pragati Nagar, Pratapgarh - RSPCB",18-11-2025 07:00:00,24.041198,74.780702,PM10,80,133,103
India,Rajasthan,Pratapgarh,"Pragati Nagar, Pratapgarh - RSPCB",18-11-2025 07:00:00,24.041198,74.780702,NH3,5,8,6
India,Rajasthan,Jaipur,"Police Commissionerate, Jaipur - RSPCB",18-11-2025 07:00:00,26.9164092,75.7994901,PM10,NA,NA,NA
India,Rajasthan,Jaipur,"Police Commissionerate, Jaipur - RSPCB",18-11-2025 07:00:00,26.9164092,75.7994901,SO2,7,10,8
India,Rajasthan,Jaipur,"RIICO Sitapura, Jaipur - RSPCB",18-11-2025 07:00:00,26.786682,75.827928,NO2,19,274,84
India,Rajasthan,Jaipur,"RIICO Sitapura, Jaipur - RSPCB",18-11-2025 07:00:00,26.786682,75.827928,OZONE,1,192,5
India,Rajasthan,Jaipur,"Sector-2 Murlipura, Jaipur - RSPCB",18-11-2025 07:00:00,26.960669,75.771817,CO,23,104,44
India,Rajasthan,Jaipur,"Shastri Nagar, Jaipur - RSPCB",18-11-2025 07:00:00,26.9502929,75.730943,PM2.5,90,246,168
India,Rajasthan,Jodhpur,"Collectorate, Jodhpur - RSPCB",18-11-2025 07:00:00,26.268249,73.0193853,NH3,7,77,27
India,Rajasthan,Jodhpur,"Digari Kalan, Jodhpur - RSPCB",18-11-2025 07:00:00,26.295810,73.082283,PM2.5,27,260,105
India,Rajasthan,Jodhpur,"Jhalamand, Jodhpur - RSPCB",18-11-2025 07:00:00,26.215415,73.070156,NO2,6,91,37
India,Rajasthan,Jodhpur,"Jhalamand, Jodhpur - RSPCB",18-11-2025 07:00:00,26.215415,73.070156,NH3,5,17,11
India,Rajasthan,Jodhpur,"Mandor, Jodhpur - RSPCB",18-11-2025 07:00:00,26.358805,73.047444,PM10,61,237,112
India,Rajasthan,Jodhpur,"Mandor, Jodhpur - RSPCB",18-11-2025 07:00:00,26.358805,73.047444,NH3,3,7,5
India,Rajasthan,Jodhpur,"Mandor, Jodhpur - RSPCB",18-11-2025 07:00:00,26.358805,73.047444,SO2,2,12,6
India,Rajasthan,Bundi,"New Colony, Bundi - RSPCB",18-11-2025 07:00:00,25.435774,75.644272,CO,26,52,32
India,Rajasthan,Churu,"Subash Chowk, Churu - RSPCB",18-11-2025 07:00:00,28.296139,74.961696,PM2.5,50,410,169
India,Rajasthan,Churu,"Subash Chowk, Churu - RSPCB",18-11-2025 07:00:00,28.296139,74.961696,CO,14,146,37
India,Rajasthan,Dausa,"Khatikan Mohalla, Dausa - RSPCB",18-11-2025 07:00:00,26.895552,76.334753,PM2.5,50,317,121
India,Rajasthan,Dholpur,"Raja Ganj, Dholpur - RSPCB",18-11-2025 07:00:00,26.699557,77.898881,NH3,6,10,7
India,Rajasthan,Rajsamand,"Dhoinda, Rajsamand - RSPCB",18-11-2025 07:00:00,25.036360,73.883502,SO2,1,30,7
India,Rajasthan,Sawai Madhopur,"Sahu Nagar, Sawai Madhopur - RSPCB",18-11-2025 07:00:00,26.031443,76.359327,NH3,6,10,8
India,Rajasthan,Sirohi,"Vedhaynath Colony, Sirohi - RSPCB",18-11-2025 07:00:00,24.885261,72.857549,NO2,8,112,48
India,Rajasthan,Sirohi,"Vedhaynath Colony, Sirohi - RSPCB",18-11-2025 07:00:00,24.885261,72.857549,SO2,5,30,9
India,Rajasthan,Sirohi,"Vedhaynath Colony, Sirohi - RSPCB",18-11-2025 07:00:00,24.885261,72.857549,OZONE,18,107,44
India,Rajasthan,Jaisalmer,"Sadar Bazar, Jaisalmer - RSPCB",18-11-2025 07:00:00,26.912329,70.909168,SO2,2,10,5
India,Rajasthan,Jhalawar,"Rajlaxmi Nagar, Jhalawar - RSPCB",18-11-2025 07:00:00,24.588397,76.172782,NO2,32,75,50
India,Rajasthan,Jhunjhunu,"Indra Nagar, Jhunjhunu - RSPCB",18-11-2025 07:00:00,28.108988,75.386577,PM10,85,337,168
India,Rajasthan,Jhunjhunu,"Indra Nagar, Jhunjhunu - RSPCB",18-11-2025 07:00:00,28.108988,75.386577,NH3,1,15,9
India,Rajasthan,Bhilwara,"Pratap Nagar, Bhilwara - RSPCB",18-11-2025 07:00:00,25.339605,74.618883,NH3,2,6,3
India,Rajasthan,Bhiwadi,"RIICO Ind. Area III, Bhiwadi - RSPCB",18-11-2025 07:00:00,28.194909,76.862296,OZONE,7,64,10
India,Rajasthan,Bikaner,"MM Ground, Bikaner - RSPCB",18-11-2025 07:00:00,28.018792,73.292658,SO2,2,20,10
India,Rajasthan,Bikaner,"MM Ground, Bikaner - RSPCB",18-11-2025 07:00:00,28.018792,73.292658,CO,26,166,54
India,Rajasthan,Dholpur,"Raja Ganj, Dholpur - RSPCB",18-11-2025 07:00:00,26.699557,77.898881,SO2,2,24,8
India,Rajasthan,Dungarpur,"Bhoiwada, Dungarpur - RSPCB",18-11-2025 07:00:00,23.837789,73.714926,PM10,86,167,130
India,Rajasthan,Dungarpur,"Bhoiwada, Dungarpur - RSPCB",18-11-2025 07:00:00,23.837789,73.714926,NH3,6,15,8
India,Rajasthan,Jaipur,"Mansarovar Sector-12, Jaipur - RSPCB",18-11-2025 07:00:00,26.843698,75.766894,PM10,131,392,179
India,Rajasthan,Karauli,"Satyawati Vihar, Karauli - RSPCB",18-11-2025 07:00:00,26.506177,77.025989,SO2,7,14,10
India,Rajasthan,Karauli,"Satyawati Vihar, Karauli - RSPCB",18-11-2025 07:00:00,26.506177,77.025989,OZONE,7,119,9
India,Rajasthan,Sri Ganganagar,"Old City, Sri Ganganagar - RSPCB",18-11-2025 07:00:00,29.931624,73.864511,NH3,4,80,30
India,Rajasthan,Tonk,"Shastri Nagar, Tonk - RSPCB",18-11-2025 07:00:00,26.159933,75.780517,NO2,16,130,51
India,Rajasthan,Tonk,"Shastri Nagar, Tonk - RSPCB",18-11-2025 07:00:00,26.159933,75.780517,CO,14,103,47
India,Rajasthan,Tonk,"Shastri Nagar, Tonk - RSPCB",18-11-2025 07:00:00,26.159933,75.780517,OZONE,2,67,5
India,Rajasthan,Udaipur,"Ashok Nagar, Udaipur - RSPCB",18-11-2025 07:00:00,24.5886166,73.6321397,PM10,58,195,116
India,Sikkim,Gangtok,"Zero Point GICI, Gangtok - SSPCB",18-11-2025 07:00:00,27.338530,88.614099,PM2.5,NA,NA,NA
India,Sikkim,Gangtok,"Zero Point GICI, Gangtok - SSPCB",18-11-2025 07:00:00,27.338530,88.614099,OZONE,NA,NA,NA
India,TamilNadu,Ariyalur,"Keelapalur, Ariyalur - TNPCB",18-11-2025 07:00:00,11.06825,79.07033,PM2.5,NA,NA,NA
India,TamilNadu,Thoothukudi,"Meelavittan, Thoothukudi - TNPCB",18-11-2025 07:00:00,8.816428 ,78.099039,PM10,43,102,67
India,TamilNadu,Thoothukudi,"Meelavittan, Thoothukudi - TNPCB",18-11-2025 07:00:00,8.816428 ,78.099039,NO2,2,110,16
India,TamilNadu,Tiruchirappalli,"St Joseph College, Tiruchirappalli - TNPCB",18-11-2025 07:00:00,10.830158,78.691849,NO2,NA,NA,NA
India,TamilNadu,Tiruchirappalli,"St Joseph College, Tiruchirappalli - TNPCB",18-11-2025 07:00:00,10.830158,78.691849,SO2,NA,NA,NA
India,TamilNadu,Tirupur,"Kumaran College, Tirupur - TNPCB",18-11-2025 07:00:00,11.0973603,77.3228673,PM10,72,126,97
India,TamilNadu,Tirupur,"Kumaran College, Tirupur - TNPCB",18-11-2025 07:00:00,11.0973603,77.3228673,NO2,8,12,10
India,TamilNadu,Virudhunagar,"Collectorate Office, Virudhunagar - TNPCB",18-11-2025 07:00:00,9.559382,77.948828,PM2.5,NA,NA,NA
India,TamilNadu,Virudhunagar,"Collectorate Office, Virudhunagar - TNPCB",18-11-2025 07:00:00,9.559382,77.948828,CO,NA,NA,NA
India,TamilNadu,Chennai,"Manali, Chennai - CPCB",18-11-2025 07:00:00,13.164544,80.26285,OZONE,10,10,10
India,TamilNadu,Chennai,"Velachery Res. Area, Chennai - CPCB",18-11-2025 07:00:00,13.0052189,80.2398125,PM2.5,22,70,44
India,TamilNadu,Chennai,"Velachery Res. Area, Chennai - CPCB",18-11-2025 07:00:00,13.0052189,80.2398125,NO2,13,19,15
India,TamilNadu,Chennai,"Velachery Res. Area, Chennai - CPCB",18-11-2025 07:00:00,13.0052189,80.2398125,CO,34,43,39
India,TamilNadu,Coimbatore,"PSG College of Arts and Science, Coimbatore - TNPCB",18-11-2025 07:00:00,11.0328,77.0349,PM2.5,NA,NA,NA
India,TamilNadu,Coimbatore,"PSG College of Arts and Science, Coimbatore - TNPCB",18-11-2025 07:00:00,11.0328,77.0349,NO2,10,11,10
India,TamilNadu,Coimbatore,"PSG College of Arts and Science, Coimbatore - TNPCB",18-11-2025 07:00:00,11.0328,77.0349,NH3,1,1,1
India,TamilNadu,Coimbatore,"PSG College of Arts and Science, Coimbatore - TNPCB",18-11-2025 07:00:00,11.0328,77.0349,SO2,1,2,2
India,TamilNadu,Perundurai,"SIPCOT Industrial Park, Perundurai - TNPCB",18-11-2025 07:00:00,11.258242,77.552761,PM10,1,87,56
India,TamilNadu,Pudukottai,"SIPCOT Nathampannai, Pudukottai - TNPCB",18-11-2025 07:00:00,10.423417,78.784889,NH3,NA,NA,NA
India,TamilNadu,Ramanathapuram,"Chalai Bazaar, Ramanathapuram - TNPCB",18-11-2025 07:00:00,9.36399,78.831977,PM10,NA,NA,NA
India,TamilNadu,Ramanathapuram,"Chalai Bazaar, Ramanathapuram - TNPCB",18-11-2025 07:00:00,9.36399,78.831977,NH3,NA,NA,NA
India,TamilNadu,Salem,"Sona College of Technology, Salem - TNPCB",18-11-2025 07:00:00,11.679111,78.125052,CO,12,12,12
India,TamilNadu,Thanjavur,"Parisutham Nagar, Thanjavur - TNPCB",18-11-2025 07:00:00,10.7654824,79.1389968,NH3,NA,NA,NA
India,Telangana,Hyderabad,"Kompally Municipal Office, Hyderabad - TSPCB",18-11-2025 07:00:00,17.544899,78.486949,SO2,16,17,17
India,Telangana,Hyderabad,"Kompally Municipal Office, Hyderabad - TSPCB",18-11-2025 07:00:00,17.544899,78.486949,OZONE,17,29,17
India,Telangana,Hyderabad,"Nacharam_TSIIC IALA, Hyderabad - TSPCB",18-11-2025 07:00:00,17.429398,78.569354,PM10,73,276,111
India,Telangana,Hyderabad,"New Malakpet, Hyderabad - TSPCB",18-11-2025 07:00:00,17.37206,78.50864,CO,22,42,28
India,Telangana,Hyderabad,"New Malakpet, Hyderabad - TSPCB",18-11-2025 07:00:00,17.37206,78.50864,OZONE,13,50,19
India,Telangana,Hyderabad,"Ramachandrapuram, Hyderabad - TSPCB",18-11-2025 07:00:00,17.528544,78.286195,CO,26,52,37
India,TamilNadu,Kanchipuram,"Kilambi, Kanchipuram - TNPCB",18-11-2025 07:00:00,12.864618,79.659968,CO,NA,NA,NA
India,TamilNadu,Madurai,"Uchapatti, Madurai - TNPCB",18-11-2025 07:00:00,9.865935,78.022669,CO,8,14,10
India,TamilNadu,Nagapattinam,"Velippalayam, Nagapattinam - TNPCB",18-11-2025 07:00:00,10.798548,79.838212,SO2,NA,NA,NA
India,TamilNadu,Nagapattinam,"Velippalayam, Nagapattinam - TNPCB",18-11-2025 07:00:00,10.798548,79.838212,CO,NA,NA,NA
India,TamilNadu,Palkalaiperur,"Bharathidasan University, Palkalaiperur - TNPCB",18-11-2025 07:00:00,10.681158,78.741746,PM10,NA,NA,NA
India,TamilNadu,Palkalaiperur,"Bharathidasan University, Palkalaiperur - TNPCB",18-11-2025 07:00:00,10.681158,78.741746,SO2,NA,NA,NA
India,TamilNadu,Cuddalore,"Semmandalam, Cuddalore - TNPCB",18-11-2025 07:00:00,11.7637683,79.7499835,OZONE,1,2,1
India,TamilNadu,Dindigul,"Mendonsa Colony, Dindigul - TNPCB",18-11-2025 07:00:00,10.358535,77.984321,NH3,NA,NA,NA
India,TamilNadu,Gummidipoondi,"Anthoni Pillai Nagar, Gummidipoondi - TNPCB",18-11-2025 07:00:00,13.4127,80.1081,SO2,30,129,55
India,TamilNadu,Kanchipuram,"Kilambi, Kanchipuram - TNPCB",18-11-2025 07:00:00,12.864618,79.659968,PM10,NA,NA,NA
India,TamilNadu,Chennai,"Alandur Bus Depot, Chennai - CPCB",18-11-2025 07:00:00,12.9099161,80.1076538,PM10,88,146,128
India,TamilNadu,Chennai,"Alandur Bus Depot, Chennai - CPCB",18-11-2025 07:00:00,12.9099161,80.1076538,NO2,26,32,28
India,TamilNadu,Chennai,"Alandur Bus Depot, Chennai - CPCB",18-11-2025 07:00:00,12.9099161,80.1076538,CO,20,41,28
India,TamilNadu,Chennai,"Gandhi Nagar_Ennore, Chennai - TNPCB",18-11-2025 07:00:00,13.218341,80.32027,NH3,NA,NA,NA
India,TamilNadu,Chennai,"Kodungaiyur, Chennai - TNPCB",18-11-2025 07:00:00,13.1278,80.2642,NO2,10,21,14
India,Telangana,Hyderabad,"ECIL Kapra, Hyderabad - TSPCB",18-11-2025 07:00:00,17.470431,78.566959,CO,16,39,25
India,Telangana,Hyderabad,"ICRISAT Patancheru, Hyderabad - TSPCB",18-11-2025 07:00:00,17.518400,78.278777,PM10,95,156,132
India,Telangana,Hyderabad,"ICRISAT Patancheru, Hyderabad - TSPCB",18-11-2025 07:00:00,17.518400,78.278777,OZONE,6,88,31
India,Telangana,Hyderabad,"Kokapet, Hyderabad - TSPCB",18-11-2025 07:00:00,17.393559,78.339194,PM10,76,144,113
India,Telangana,Hyderabad,"Kokapet, Hyderabad - TSPCB",18-11-2025 07:00:00,17.393559,78.339194,NO2,13,17,16
India,Uttar_Pradesh,Hapur,"Anand Vihar, Hapur - UPPCB",18-11-2025 07:00:00,28.725645,77.749675,CO,56,125,107
India,Uttar_Pradesh,Jhansi,"Shivaji Nagar, Jhansi - UPPCB",18-11-2025 07:00:00,25.4547,78.6039,PM10,54,152,88
India,Uttar_Pradesh,Jhansi,"Shivaji Nagar, Jhansi - UPPCB",18-11-2025 07:00:00,25.4547,78.6039,NH3,4,4,4
India,Uttar_Pradesh,Jhansi,"Shivaji Nagar, Jhansi - UPPCB",18-11-2025 07:00:00,25.4547,78.6039,OZONE,1,18,1
India,Uttar_Pradesh,Kanpur,"FTI Kidwai Nagar, Kanpur - UPPCB",18-11-2025 07:00:00,26.428282,80.327067,NO2,25,25,25
India,Uttar_Pradesh,Kanpur,"FTI Kidwai Nagar, Kanpur - UPPCB",18-11-2025 07:00:00,26.428282,80.327067,OZONE,20,23,21
India,Uttar_Pradesh,Kanpur,"NSI Kalyanpur, Kanpur - UPPCB",18-11-2025 07:00:00,26.509954,80.249612,PM10,39,242,109
India,Uttar_Pradesh,Kanpur,"NSI Kalyanpur, Kanpur - UPPCB",18-11-2025 07:00:00,26.509954,80.249612,NO2,22,22,22
India,Uttar_Pradesh,Kanpur,"NSI Kalyanpur, Kanpur - UPPCB",18-11-2025 07:00:00,26.509954,80.249612,CO,32,101,76
India,Uttar_Pradesh,Kanpur,"Nehru Nagar, Kanpur - UPPCB",18-11-2025 07:00:00,26.4703136,80.3229863,PM2.5,40,238,105
India,Uttar_Pradesh,Kanpur,"Nehru Nagar, Kanpur - UPPCB",18-11-2025 07:00:00,26.4703136,80.3229863,PM10,35,134,81
India,Uttar_Pradesh,Kanpur,"Nehru Nagar, Kanpur - UPPCB",18-11-2025 07:00:00,26.4703136,80.3229863,NO2,20,50,32
India,Telangana,Hyderabad,"Sanathnagar, Hyderabad - TSPCB",18-11-2025 07:00:00,17.4559458,78.4332152,PM2.5,87,180,125
India,Telangana,Hyderabad,"Somajiguda, Hyderabad - TSPCB",18-11-2025 07:00:00,17.417094,78.457437,PM2.5,65,190,149
India,Telangana,Hyderabad,"Somajiguda, Hyderabad - TSPCB",18-11-2025 07:00:00,17.417094,78.457437,NO2,13,16,15
India,Telangana,Hyderabad,"Somajiguda, Hyderabad - TSPCB",18-11-2025 07:00:00,17.417094,78.457437,SO2,10,17,13
India,Telangana,Hyderabad,"Zoo Park, Hyderabad - TSPCB",18-11-2025 07:00:00,17.349694,78.451437,PM2.5,142,185,164
India,Telangana,Hyderabad,"Zoo Park, Hyderabad - TSPCB",18-11-2025 07:00:00,17.349694,78.451437,PM10,109,154,132
India,Telangana,Hyderabad,"Zoo Park, Hyderabad - TSPCB",18-11-2025 07:00:00,17.349694,78.451437,SO2,3,4,4
India,Telangana,Hyderabad,"Zoo Park, Hyderabad - TSPCB",18-11-2025 07:00:00,17.349694,78.451437,CO,2,101,8
India,Tripura,Agartala,"Bardowali, Agartala - Tripura SPCB",18-11-2025 07:00:00,23.8175497,91.2726974,OZONE,1,5,1
India,Uttar_Pradesh,Agra,"Manoharpur, Agra - UPPCB",18-11-2025 07:00:00,27.23711,78.01936,PM2.5,57,212,118
India,Uttar_Pradesh,Lucknow,"Kukrail Picnic Spot-1, Lucknow - UPPCB",18-11-2025 07:00:00,26.90723,80.98579,OZONE,7,40,8
India,Uttar_Pradesh,Lucknow,"Lalbagh, Lucknow - CPCB",18-11-2025 07:00:00,26.8458805,80.9365541,PM10,100,430,217
India,Uttar_Pradesh,Lucknow,"Lalbagh, Lucknow - CPCB",18-11-2025 07:00:00,26.8458805,80.9365541,NO2,32,36,34
India,Uttar_Pradesh,Lucknow,"Lalbagh, Lucknow - CPCB",18-11-2025 07:00:00,26.8458805,80.9365541,NH3,16,24,20
India,Uttar_Pradesh,Lucknow,"Talkatora District Industries Center, Lucknow - CPCB",18-11-2025 07:00:00,26.83399722,80.8917361,NH3,8,16,10
India,Uttar_Pradesh,Lucknow,"Talkatora District Industries Center, Lucknow - CPCB",18-11-2025 07:00:00,26.83399722,80.8917361,OZONE,9,53,12
India,Uttar_Pradesh,Meerut,"Ganga Nagar, Meerut - UPPCB",18-11-2025 07:00:00,28.999264,77.7590354,PM10,210,496,364
India,Uttar_Pradesh,Meerut,"Jai Bhim Nagar, Meerut - UPPCB",18-11-2025 07:00:00,28.9535882,77.7622941,PM10,206,500,402
India,Uttar_Pradesh,Meerut,"Jai Bhim Nagar, Meerut - UPPCB",18-11-2025 07:00:00,28.9535882,77.7622941,NO2,20,211,88
India,Uttar_Pradesh,Agra,"Rohta, Agra - UPPCB",18-11-2025 07:00:00,27.106972,78.000111,PM2.5,56,315,155
India,Uttar_Pradesh,Agra,"Rohta, Agra - UPPCB",18-11-2025 07:00:00,27.106972,78.000111,SO2,18,44,29
India,Uttar_Pradesh,Agra,"Rohta, Agra - UPPCB",18-11-2025 07:00:00,27.106972,78.000111,CO,32,79,62
India,Uttar_Pradesh,Agra,"Sanjay Palace, Agra - UPPCB",18-11-2025 07:00:00,27.19865833,78.00598056,PM2.5,63,322,204
India,Uttar_Pradesh,Agra,"Sector-3B Avas Vikas Colony, Agra - UPPCB",18-11-2025 07:00:00,27.19412,77.96237,NH3,5,8,6
India,Uttar_Pradesh,Agra,"Sector-3B Avas Vikas Colony, Agra - UPPCB",18-11-2025 07:00:00,27.19412,77.96237,SO2,8,9,8
India,Uttar_Pradesh,Agra,"Shahjahan Garden, Agra - UPPCB",18-11-2025 07:00:00,27.169338,78.03582,PM2.5,41,120,77
India,Uttar_Pradesh,Agra,"Shahjahan Garden, Agra - UPPCB",18-11-2025 07:00:00,27.169338,78.03582,PM10,117,191,161
India,Uttar_Pradesh,Agra,"Shahjahan Garden, Agra - UPPCB",18-11-2025 07:00:00,27.169338,78.03582,NO2,20,21,20
India,Uttar_Pradesh,Meerut,"Pallavpuram Phase 2, Meerut - UPPCB",18-11-2025 07:00:00,29.063510,77.709723,PM2.5,316,490,406
India,Uttar_Pradesh,Meerut,"Pallavpuram Phase 2, Meerut - UPPCB",18-11-2025 07:00:00,29.063510,77.709723,SO2,12,34,21
India,Uttar_Pradesh,Meerut,"Pallavpuram Phase 2, Meerut - UPPCB",18-11-2025 07:00:00,29.063510,77.709723,OZONE,1,192,5
India,Uttar_Pradesh,Moradabad,"Buddhi Vihar, Moradabad - UPPCB",18-11-2025 07:00:00,28.83526,78.74460,NO2,29,29,29
India,Uttar_Pradesh,Moradabad,"Employment Office, Moradabad - UPPCB",18-11-2025 07:00:00,28.88528,78.73880,PM2.5,48,179,100
India,Uttar_Pradesh,Moradabad,"Employment Office, Moradabad - UPPCB",18-11-2025 07:00:00,28.88528,78.73880,NH3,4,4,4
India,Uttar_Pradesh,Bulandshahr,"Yamunapuram, Bulandshahr - UPPCB",18-11-2025 07:00:00,28.406963,77.849831,OZONE,2,136,6
India,Uttar_Pradesh,Firozabad,"Nagla Bhau, Firozabad - UPPCB",18-11-2025 07:00:00,27.168897,78.376960,NH3,2,2,2
India,Uttar_Pradesh,Ghaziabad,"Indirapuram, Ghaziabad - UPPCB",18-11-2025 07:00:00,28.646233,77.358075,CO,39,180,101
India,Uttar_Pradesh,Ghaziabad,"Sanjay Nagar, Ghaziabad - UPPCB",18-11-2025 07:00:00,28.685382,77.453839,PM10,216,490,376
India,Uttar_Pradesh,Bareilly,"Rajendra Nagar, Bareilly - UPPCB",18-11-2025 07:00:00,28.38910936,79.42963708,NO2,9,10,10
India,Uttar_Pradesh,Bareilly,"Rajendra Nagar, Bareilly - UPPCB",18-11-2025 07:00:00,28.38910936,79.42963708,NH3,1,1,1
India,Uttar_Pradesh,Bulandshahr,"Yamunapuram, Bulandshahr - UPPCB",18-11-2025 07:00:00,28.406963,77.849831,NO2,29,194,114
India,Uttar_Pradesh,Bulandshahr,"Yamunapuram, Bulandshahr - UPPCB",18-11-2025 07:00:00,28.406963,77.849831,NH3,11,17,13
India,Uttar_Pradesh,Bulandshahr,"Yamunapuram, Bulandshahr - UPPCB",18-11-2025 07:00:00,28.406963,77.849831,CO,45,126,98
India,Uttar_Pradesh,Ghaziabad,"Vasundhara, Ghaziabad - UPPCB",18-11-2025 07:00:00,28.6603346,77.3572563,PM10,228,500,411
India,Uttar_Pradesh,Greater Noida,"Knowledge Park - III, Greater Noida - UPPCB",18-11-2025 07:00:00,28.47272,77.482000,NO2,47,171,110
India,Uttar_Pradesh,Hapur,"Anand Vihar, Hapur - UPPCB",18-11-2025 07:00:00,28.725645,77.749675,NH3,33,51,43
India,Uttar_Pradesh,Khurja,"Kalindi Kunj, Khurja - UPPCB",18-11-2025 07:00:00,28.2348927,77.8683002,PM2.5,191,470,338
India,Uttar_Pradesh,Lucknow,"Kendriya Vidyalaya, Lucknow - CPCB",18-11-2025 07:00:00,26.906111,80.948222,CO,38,106,71
India,Uttar_Pradesh,Lucknow,"Kukrail Picnic Spot-1, Lucknow - UPPCB",18-11-2025 07:00:00,26.90723,80.98579,NO2,31,32,32
India,West_Bengal,Barrackpore,"SVSPA Campus, Barrackpore - WBPCB",18-11-2025 07:00:00,22.7605581,88.3617589,PM2.5,48,129,91
India,West_Bengal,Barrackpore,"SVSPA Campus, Barrackpore - WBPCB",18-11-2025 07:00:00,22.7605581,88.3617589,NH3,3,6,4
India,West_Bengal,Barrackpore,"SVSPA Campus, Barrackpore - WBPCB",18-11-2025 07:00:00,22.7605581,88.3617589,SO2,9,12,10
India,West_Bengal,Durgapur,"Mahishkapur Road_B-Zone, Durgapur - WBPCB",18-11-2025 07:00:00,23.567923,87.306843,PM2.5,55,122,80
India,West_Bengal,Durgapur,"Mahishkapur Road_B-Zone, Durgapur - WBPCB",18-11-2025 07:00:00,23.567923,87.306843,NO2,12,60,25
India,West_Bengal,Durgapur,"Mahishkapur Road_B-Zone, Durgapur - WBPCB",18-11-2025 07:00:00,23.567923,87.306843,NH3,1,2,2
India,West_Bengal,Durgapur,"Mahishkapur Road_B-Zone, Durgapur - WBPCB",18-11-2025 07:00:00,23.567923,87.306843,SO2,13,32,19
India,West_Bengal,Durgapur,"PCBL Residential Complex, Durgapur - WBPCB",18-11-2025 07:00:00,23.5087640,87.3544400,PM2.5,50,127,89
India,West_Bengal,Durgapur,"Womens College_City Center, Durgapur - WBPCB (Formerly known as Sidhu Kanhu Indoor Stadium)",18-11-2025 07:00:00,23.549395,87.300496,NH3,2,2,2
India,Uttar_Pradesh,Varanasi,"IESD Banaras Hindu University, Varanasi - UPPCB",18-11-2025 07:00:00,25.262326,82.995408,SO2,29,31,30
India,Uttar_Pradesh,Varanasi,"Maldahiya, Varanasi - UPPCB",18-11-2025 07:00:00,25.32393,82.99687,NO2,2,2,2
India,Uttar_Pradesh,Vrindavan,"Omex Eternity, Vrindavan - UPPCB",18-11-2025 07:00:00,27.5714090,77.6557570,CO,29,96,68
India,Uttarakhand,Dehradun,"Doon University, Dehradun - UKPCB",18-11-2025 07:00:00,30.269444,78.044167,PM2.5,31,89,60
India,Uttarakhand,Dehradun,"Doon University, Dehradun - UKPCB",18-11-2025 07:00:00,30.269444,78.044167,PM10,21,72,42
India,Uttarakhand,Rishikesh,"Shivaji Nagar, Rishikesh - UKPCB",18-11-2025 07:00:00,30.075911,78.2859547,PM2.5,29,73,54
India,Uttar_Pradesh,Prayagraj,"Nagar Nigam, Prayagraj - UPPCB",18-11-2025 07:00:00,25.44919916 ,81.82735986 ,NO2,5,5,5
India,Uttar_Pradesh,Varanasi,"Ardhali Bazar, Varanasi - UPPCB",18-11-2025 07:00:00,25.3505986,82.9083074,PM2.5,54,190,106
India,Uttar_Pradesh,Varanasi,"Bhelupur, Varanasi - UPPCB",18-11-2025 07:00:00,25.301778,82.996789,PM10,53,197,106
India,Uttar_Pradesh,Varanasi,"Bhelupur, Varanasi - UPPCB",18-11-2025 07:00:00,25.301778,82.996789,CO,20,106,106
India,Uttar_Pradesh,Varanasi,"IESD Banaras Hindu University, Varanasi - UPPCB",18-11-2025 07:00:00,25.262326,82.995408,PM2.5,51,175,94
India,Uttar_Pradesh,Varanasi,"IESD Banaras Hindu University, Varanasi - UPPCB",18-11-2025 07:00:00,25.262326,82.995408,NO2,2,2,2
India,West_Bengal,Howrah,"Belur Math, Howrah - WBPCB",18-11-2025 07:00:00,22.629801,88.352017,NO2,21,50,31
India,West_Bengal,Howrah,"Belur Math, Howrah - WBPCB",18-11-2025 07:00:00,22.629801,88.352017,SO2,11,19,13
India,West_Bengal,Howrah,"Botanical Garden, Howrah - WBPCB",18-11-2025 07:00:00,22.554954,88.292568,NO2,10,34,16
India,West_Bengal,Howrah,"Botanical Garden, Howrah - WBPCB",18-11-2025 07:00:00,22.554954,88.292568,CO,50,103,94
India,West_Bengal,Howrah,"Dasnagar, Howrah - WBPCB",18-11-2025 07:00:00,22.6025571,88.3105664,NO2,11,85,39
India,West_Bengal,Howrah,"Padmapukur, Howrah - WBPCB",18-11-2025 07:00:00,22.5687319,88.2797276,CO,1,83,20
India,West_Bengal,Kolkata,"Ballygunge, Kolkata - WBPCB",18-11-2025 07:00:00,22.5367507,88.3638022,PM2.5,64,181,129
India,West_Bengal,Kolkata,"Fort William, Kolkata - WBPCB",18-11-2025 07:00:00,22.556640,88.342674,PM2.5,72,266,165
India,West_Bengal,Kolkata,"Fort William, Kolkata - WBPCB",18-11-2025 07:00:00,22.556640,88.342674,SO2,9,29,14
India,Uttar_Pradesh,Moradabad,"Transport Nagar, Moradabad - UPPCB",18-11-2025 07:00:00,28.802625,78.753728,PM2.5,32,197,92
India,Uttar_Pradesh,Moradabad,"Transport Nagar, Moradabad - UPPCB",18-11-2025 07:00:00,28.802625,78.753728,NO2,29,30,30
India,Uttar_Pradesh,Moradabad,"Transport Nagar, Moradabad - UPPCB",18-11-2025 07:00:00,28.802625,78.753728,CO,27,60,55
India,Uttar_Pradesh,Noida,"Sector - 125, Noida - UPPCB",18-11-2025 07:00:00,28.5447608,77.3231257,SO2,13,31,23
India,Uttar_Pradesh,Noida,"Sector-1, Noida - UPPCB",18-11-2025 07:00:00,28.5898,77.3101,NO2,50,213,147
India,Uttar_Pradesh,Noida,"Sector-1, Noida - UPPCB",18-11-2025 07:00:00,28.5898,77.3101,NH3,13,24,19
India,Uttar_Pradesh,Noida,"Sector-1, Noida - UPPCB",18-11-2025 07:00:00,28.5898,77.3101,OZONE,5,134,6
India,Uttar_Pradesh,Prayagraj,"Jhunsi, Prayagraj - UPPCB",18-11-2025 07:00:00,25.425602,81.917152,SO2,7,16,9
India,West_Bengal,Asansol,"Mahabir Colliery, Asansol - WBPCB",18-11-2025 07:00:00,23.6181830,87.1057180,CO,10,65,28
India,West_Bengal,Asansol,"Trivenidevi Bhalotia College, Asansol - WBPCB",18-11-2025 07:00:00,23.616515,87.119133,PM2.5,48,160,93
India,West_Bengal,Asansol,"Trivenidevi Bhalotia College, Asansol - WBPCB",18-11-2025 07:00:00,23.616515,87.119133,NO2,12,48,24
India,West_Bengal,Asansol,"Evelyn Lodge, Asansol - WBPCB",18-11-2025 07:00:00,23.6979360,86.9443950,PM2.5,48,192,104
India,West_Bengal,Asansol,"Evelyn Lodge, Asansol - WBPCB",18-11-2025 07:00:00,23.6979360,86.9443950,OZONE,9,51,14
India,West_Bengal,Kolkata,"Rabindra Bharati University, Kolkata - WBPCB",18-11-2025 07:00:00,22.627847,88.380669,PM2.5,58,137,94
India,West_Bengal,Kolkata,"Rabindra Bharati University, Kolkata - WBPCB",18-11-2025 07:00:00,22.627847,88.380669,OZONE,5,80,6
India,West_Bengal,Kolkata,"Rabindra Sarobar, Kolkata - WBPCB",18-11-2025 07:00:00,22.51106,88.35142,OZONE,2,87,2
India,West_Bengal,Kolkata,"Victoria, Kolkata - WBPCB",18-11-2025 07:00:00,22.5448082,88.3403691,CO,40,98,73
India,West_Bengal,Kolkata,"Victoria, Kolkata - WBPCB",18-11-2025 07:00:00,22.5448082,88.3403691,OZONE,4,57,5
India,West_Bengal,Siliguri,"Ward-32 Bapupara, Siliguri - WBPCB",18-11-2025 07:00:00,26.6879226,88.4152495,NO2,16,27,21
India,West_Bengal,Siliguri,"Ward-32 Bapupara, Siliguri - WBPCB",18-11-2025 07:00:00,26.6879226,88.4152495,SO2,12,21,15
India,Assam,Silchar,"Tarapur, Silchar - PCBA",18-11-2025 07:00:00,24.82827,92.79525,SO2,4,7,6
India,Assam,Silchar,"Tarapur, Silchar - PCBA",18-11-2025 07:00:00,24.82827,92.79525,OZONE,2,6,6
India,Assam,Sivasagar,"Girls College, Sivasagar - PCBA",18-11-2025 07:00:00,26.987634,94.636574,OZONE,4,82,6
India,Bihar,Araria,"Kharahiya Basti, Araria - BSPCB",18-11-2025 07:00:00,26.146529,87.454184,PM2.5,5,316,99
India,Bihar,Araria,"Kharahiya Basti, Araria - BSPCB",18-11-2025 07:00:00,26.146529,87.454184,PM10,17,171,68
India,Bihar,Araria,"Kharahiya Basti, Araria - BSPCB",18-11-2025 07:00:00,26.146529,87.454184,NH3,10,12,11
India,Bihar,Arrah,"New DM Office, Arrah - BSPCB",18-11-2025 07:00:00,25.5626095,84.663264,SO2,8,10,10
India,Andhra_Pradesh,Visakhapatnam,"GVM Corporation, Visakhapatnam - APPCB",18-11-2025 07:00:00,17.72,83.3,PM10,109,146,129
India,Andhra_Pradesh,Visakhapatnam,"GVM Corporation, Visakhapatnam - APPCB",18-11-2025 07:00:00,17.72,83.3,NO2,10,100,44
India,Assam,Byrnihat,"Central Academy for SFS, Byrnihat - PCBA",18-11-2025 07:00:00,26.071318,91.87488,SO2,5,8,7
India,Assam,Byrnihat,"Central Academy for SFS, Byrnihat - PCBA",18-11-2025 07:00:00,26.071318,91.87488,OZONE,14,25,18
India,Andhra_Pradesh,Anantapur,"Gulzarpet, Anantapur - APPCB",18-11-2025 07:00:00,14.675886,77.593027,SO2,14,17,14
India,Andhra_Pradesh,Kadapa,"Yerramukkapalli, Kadapa - APPCB",18-11-2025 07:00:00,14.465052,78.824187,OZONE,21,29,28
India,Andhra_Pradesh,Rajamahendravaram,"Anand Kala Kshetram, Rajamahendravaram - APPCB",18-11-2025 07:00:00,16.9872867,81.7363176,OZONE,21,49,24
India,Bihar,Gaya,"Kareemganj, Gaya - BSPCB",18-11-2025 07:00:00,24.792403,84.992416,NH3,4,6,5
India,Bihar,Gaya,"Kareemganj, Gaya - BSPCB",18-11-2025 07:00:00,24.792403,84.992416,OZONE,2,33,4
India,Bihar,Gaya,"SFTI Kusdihra, Gaya - BSPCB",18-11-2025 07:00:00,24.762518,84.982348,NO2,18,28,23
India,Assam,Guwahati,"LGBI Airport, Guwahati - PCBA",18-11-2025 07:00:00,26.10887,91.589544,CO,28,64,36
India,Assam,Nagaon,"Christianpatty, Nagaon - PCBA",18-11-2025 07:00:00,26.349082,92.68449,NO2,1,1,1
India,Andhra_Pradesh,Vijayawada,"Rajiv Gandhi Park, Vijayawada - APPCB",18-11-2025 07:00:00,16.509717,80.612222,CO,32,41,32
India,Andhra_Pradesh,Vijayawada,"Rajiv Nagar, Vijayawada - APPCB",18-11-2025 07:00:00,16.554731,80.649110,CO,30,61,34
India,Andhra_Pradesh,Amaravati,"Secretariat, Amaravati - APPCB",18-11-2025 07:00:00,16.5150833,80.5181667,CO,21,42,28
India,Andhra_Pradesh,Amaravati,"Secretariat, Amaravati - APPCB",18-11-2025 07:00:00,16.5150833,80.5181667,OZONE,13,61,29
India,Bihar,Gaya,"Collectorate, Gaya - BSPCB",18-11-2025 07:00:00,24.7955,84.9994,PM2.5,NA,NA,NA
India,Bihar,Gaya,"Collectorate, Gaya - BSPCB",18-11-2025 07:00:00,24.7955,84.9994,CO,NA,NA,NA
India,Bihar,Aurangabad,"Gurdeo Nagar, Aurangabad - BSPCB",18-11-2025 07:00:00,24.75746,84.366208,SO2,10,19,14
India,Bihar,Bhagalpur,"Mayaganj, Bhagalpur - BSPCB",18-11-2025 07:00:00,25.265194,87.012947,CO,20,87,69
India,Chhattisgarh,Raipur,"AIIMS, Raipur - CECB",18-11-2025 07:00:00,21.258815,81.578979,SO2,6,15,9
India,Chhattisgarh,Raipur,"AIIMS, Raipur - CECB",18-11-2025 07:00:00,21.258815,81.578979,OZONE,6,27,6
India,Chhattisgarh,Raipur,"Bhatagaon New ISBT, Raipur - CECB",18-11-2025 07:00:00,21.219665,81.630094,PM10,46,111,80
India,Chhattisgarh,Raipur,"Krishak Nagar, Raipur - CECB",18-11-2025 07:00:00,21.237755,81.705301,CO,22,40,37
India,Chhattisgarh,Raipur,"Siltara Phase-II, Raipur - CECB",18-11-2025 07:00:00,21.371751,81.664929,NO2,8,45,16
India,Chhattisgarh,Raipur,"Siltara Phase-II, Raipur - CECB",18-11-2025 07:00:00,21.371751,81.664929,CO,34,36,35
India,Chhattisgarh,Raipur,"Siltara Phase-II, Raipur - CECB",18-11-2025 07:00:00,21.371751,81.664929,OZONE,3,6,3
India,Chhattisgarh,Tumidih,"OP Jindal Industrial Park, Tumidih - CECB",18-11-2025 07:00:00,22.06631475,83.33820077,PM10,59,274,110
India,Chhattisgarh,Chhal,"Nawapara SECL Colony, Chhal - CECB",18-11-2025 07:00:00,22.118125,83.140608,CO,30,64,37
India,Chhattisgarh,Korba,"Rampur, Korba - CECB",18-11-2025 07:00:00,22.368195,82.746431,PM10,48,63,62
India,Chhattisgarh,Korba,"Urja Nagar, Korba - CECB",18-11-2025 07:00:00,22.348441,82.549611,PM2.5,53,72,55
India,Chhattisgarh,Korba,"Urja Nagar, Korba - CECB",18-11-2025 07:00:00,22.348441,82.549611,PM10,72,73,72
India,Chhattisgarh,Korba,"Urja Nagar, Korba - CECB",18-11-2025 07:00:00,22.348441,82.549611,OZONE,34,37,35
India,Chhattisgarh,Kunjemura,"OP Jindal School, Kunjemura - CECB",18-11-2025 07:00:00,22.126650,83.483212,CO,13,36,20
India,Chhattisgarh,Milupara,"Govt. Higher Secondary School, Milupara - CECB",18-11-2025 07:00:00,22.1910172,83.5197009,NO2,NA,NA,NA
India,Bihar,Muzaffarpur,"MIT-Daudpur Kothi, Muzaffarpur - BSPCB",18-11-2025 07:00:00,26.1403345,85.3650192,PM10,56,74,66
India,Bihar,Muzaffarpur,"MIT-Daudpur Kothi, Muzaffarpur - BSPCB",18-11-2025 07:00:00,26.1403345,85.3650192,NH3,1,1,1
India,Bihar,Muzaffarpur,"MIT-Daudpur Kothi, Muzaffarpur - BSPCB",18-11-2025 07:00:00,26.1403345,85.3650192,SO2,8,20,11
India,Bihar,Patna,"DRM Office Danapur, Patna - BSPCB",18-11-2025 07:00:00,25.586562,85.043586,PM2.5,118,294,182
India,Bihar,Patna,"Govt. High School Shikarpur, Patna - BSPCB",18-11-2025 07:00:00,25.592539,85.227158,CO,64,126,120
India,Bihar,Patna,"IGSC Planetarium Complex, Patna - BSPCB",18-11-2025 07:00:00,25.610369,85.132568,SO2,NA,NA,NA
India,Chhattisgarh,Bhilai,"Civic Center, Bhilai - Bhilai Steel Plant",18-11-2025 07:00:00,21.185571,81.343175,PM2.5,10,212,104
India,Chhattisgarh,Bhilai,"Hathkhoj, Bhilai - CECB",18-11-2025 07:00:00,21.224231,81.408350,SO2,25,118,53
India,Chhattisgarh,Bhilai,"Hathkhoj, Bhilai - CECB",18-11-2025 07:00:00,21.224231,81.408350,OZONE,13,59,23
India,Chhattisgarh,Bilaspur,"Mangala, Bilaspur - NTPC",18-11-2025 07:00:00,22.08815,82.13737,PM10,82,146,106
India,Chhattisgarh,Chhal,"Nawapara SECL Colony, Chhal - CECB",18-11-2025 07:00:00,22.118125,83.140608,NO2,8,28,14
India,Bihar,Patna,"Muradpur, Patna - BSPCB",18-11-2025 07:00:00,25.619651,85.147382,NO2,8,12,11
India,Bihar,Patna,"Muradpur, Patna - BSPCB",18-11-2025 07:00:00,25.619651,85.147382,SO2,7,10,8
India,Bihar,Patna,"Rajbansi Nagar, Patna - BSPCB",18-11-2025 07:00:00,25.599486,85.113666,SO2,7,9,8
India,Bihar,Patna,"Samanpura, Patna - BSPCB",18-11-2025 07:00:00,25.596727,85.085624,SO2,2,2,2
India,Bihar,Purnia,"Mariam Nagar, Purnia - BSPCB",18-11-2025 07:00:00,25.366336,87.117468,PM2.5,7,98,58
India,Bihar,Purnia,"Mariam Nagar, Purnia - BSPCB",18-11-2025 07:00:00,25.366336,87.117468,PM10,6,85,51
India,Bihar,Purnia,"Mariam Nagar, Purnia - BSPCB",18-11-2025 07:00:00,25.366336,87.117468,SO2,16,16,16
India,Bihar,Rajgir,"Dangi Tola, Rajgir - BSPCB",18-11-2025 07:00:00,25.03280,85.41948,PM2.5,42,253,113
India,Bihar,Rajgir,"Dangi Tola, Rajgir - BSPCB",18-11-2025 07:00:00,25.03280,85.41948,OZONE,30,35,33
India,Bihar,Saharsa,"Police Line, Saharsa - BSPCB",18-11-2025 07:00:00,25.892357,86.590325,PM10,15,107,77
India,Bihar,Saharsa,"Police Line, Saharsa - BSPCB",18-11-2025 07:00:00,25.892357,86.590325,CO,25,40,33
India,Bihar,Samastipur,"DM Office_Kasipur, Samastipur - BSPCB",18-11-2025 07:00:00,25.859655,85.77944,PM2.5,NA,NA,NA
India,Bihar,Samastipur,"DM Office_Kasipur, Samastipur - BSPCB",18-11-2025 07:00:00,25.859655,85.77944,CO,NA,NA,NA
India,Bihar,Manguraha,"Forest Rest House, Manguraha - BSPCB",18-11-2025 07:00:00,27.308328,84.531742,OZONE,9,17,10
India,Bihar,Munger,"Town Hall, Munger - BSPCB",18-11-2025 07:00:00,25.376776,86.471523,PM2.5,97,293,148
India,Chandigarh,Chandigarh,"Sector-25, Chandigarh - CPCC",18-11-2025 07:00:00,30.751462,76.762879,NO2,13,53,29
India,Chandigarh,Chandigarh,"Sector-25, Chandigarh - CPCC",18-11-2025 07:00:00,30.751462,76.762879,SO2,6,11,8
India,Bihar,Kishanganj,"SDM Office_Khagra, Kishanganj - BSPCB",18-11-2025 07:00:00,26.0881305,87.93840336,NH3,3,3,3
India,Delhi,Delhi,"Chandni Chowk, Delhi - IITM",18-11-2025 07:00:00,28.656756,77.227234,NH3,1,84,43
India,Delhi,Delhi,"Chandni Chowk, Delhi - IITM",18-11-2025 07:00:00,28.656756,77.227234,SO2,7,34,18
India,Delhi,Delhi,"DTU, Delhi - CPCB",18-11-2025 07:00:00,28.7500499,77.1112615,PM2.5,230,500,383
India,Delhi,Delhi,"DTU, Delhi - CPCB",18-11-2025 07:00:00,28.7500499,77.1112615,NO2,36,100,67
India,Delhi,Delhi,"DTU, Delhi - CPCB",18-11-2025 07:00:00,28.7500499,77.1112615,NH3,9,14,13
India,Delhi,Delhi,"DTU, Delhi - CPCB",18-11-2025 07:00:00,28.7500499,77.1112615,SO2,32,35,34
India,Delhi,Delhi,"Dr. Karni Singh Shooting Range, Delhi - DPCC",18-11-2025 07:00:00,28.498571,77.264840,PM2.5,220,390,324
India,Delhi,Delhi,"Dr. Karni Singh Shooting Range, Delhi - DPCC",18-11-2025 07:00:00,28.498571,77.264840,SO2,20,31,25
India,Delhi,Delhi,"Dr. Karni Singh Shooting Range, Delhi - DPCC",18-11-2025 07:00:00,28.498571,77.264840,CO,34,103,71
India,Delhi,Delhi,"Dwarka-Sector 8, Delhi - DPCC ",18-11-2025 07:00:00,28.5710274,77.0719006,NH3,10,18,14
India,Delhi,Delhi,"Dwarka-Sector 8, Delhi - DPCC ",18-11-2025 07:00:00,28.5710274,77.0719006,OZONE,2,153,4
India,Delhi,Delhi,"Lodhi Road, Delhi - IITM",18-11-2025 07:00:00,28.588333,77.221667,SO2,8,31,18
India,Delhi,Delhi,"Lodhi Road, Delhi - IMD",18-11-2025 07:00:00,28.5918245,77.2273074,CO,43,109,108
India,Delhi,Delhi,"Lodhi Road, Delhi - IMD",18-11-2025 07:00:00,28.5918245,77.2273074,OZONE,8,153,9
India,Delhi,Delhi,"Major Dhyan Chand National Stadium, Delhi - DPCC",18-11-2025 07:00:00,28.611281,77.237738,PM2.5,147,367,279
India,Delhi,Delhi,"Major Dhyan Chand National Stadium, Delhi - DPCC",18-11-2025 07:00:00,28.611281,77.237738,NO2,43,170,106
India,Delhi,Delhi,"Mandir Marg, Delhi - DPCC",18-11-2025 07:00:00,28.636429,77.201067,PM2.5,NA,NA,NA
India,Delhi,Delhi,"Mandir Marg, Delhi - DPCC",18-11-2025 07:00:00,28.636429,77.201067,NH3,12,24,18
India,Delhi,Delhi,"Mundka, Delhi - DPCC",18-11-2025 07:00:00,28.684678,77.076574,PM2.5,200,477,359
India,Delhi,Delhi,"Mundka, Delhi - DPCC",18-11-2025 07:00:00,28.684678,77.076574,NH3,8,18,13
India,Delhi,Delhi,"Okhla Phase-2, Delhi - DPCC",18-11-2025 07:00:00,28.530785,77.271255,PM2.5,250,409,349
India,Delhi,Delhi,"Okhla Phase-2, Delhi - DPCC",18-11-2025 07:00:00,28.530785,77.271255,OZONE,9,304,11
India,Delhi,Delhi,"Patparganj, Delhi - DPCC",18-11-2025 07:00:00,28.623763,77.287209,PM10,186,421,321
India,Delhi,Delhi,"Patparganj, Delhi - DPCC",18-11-2025 07:00:00,28.623763,77.287209,CO,10,193,145
India,Delhi,Delhi,"Punjabi Bagh, Delhi - DPCC",18-11-2025 07:00:00,28.674045,77.131023,NH3,4,5,4
India,Delhi,Delhi,"Punjabi Bagh, Delhi - DPCC",18-11-2025 07:00:00,28.674045,77.131023,CO,38,154,105
India,Delhi,Delhi,"Pusa, Delhi - IMD",18-11-2025 07:00:00,28.636110,77.173332,NO2,16,140,77
India,Delhi,Delhi,"Pusa, Delhi - IMD",18-11-2025 07:00:00,28.636110,77.173332,CO,6,155,116
India,Delhi,Delhi,"R K Puram, Delhi - DPCC",18-11-2025 07:00:00,28.563262,77.186937,NH3,4,7,5
India,Delhi,Delhi,"Rohini, Delhi - DPCC",18-11-2025 07:00:00,28.732528,77.119920,PM2.5,223,496,381
India,Delhi,Delhi,"Shadipur, Delhi - CPCB",18-11-2025 07:00:00,28.6514781,77.1473105,PM2.5,230,353,266
India,Delhi,Delhi,"Sirifort, Delhi - CPCB",18-11-2025 07:00:00,28.5504249,77.2159377,PM2.5,26,409,338
India,Delhi,Delhi,"Sirifort, Delhi - CPCB",18-11-2025 07:00:00,28.5504249,77.2159377,NO2,40,64,51
India,Chhattisgarh,Tumidih,"OP Jindal Industrial Park, Tumidih - CECB",18-11-2025 07:00:00,22.06631475,83.33820077,SO2,5,17,7
India,Chhattisgarh,Tumidih,"OP Jindal Industrial Park, Tumidih - CECB",18-11-2025 07:00:00,22.06631475,83.33820077,OZONE,4,128,9
India,Delhi,Delhi,"Alipur, Delhi - DPCC",18-11-2025 07:00:00,28.815329,77.153010,CO,44,112,103
India,Delhi,Delhi,"Aya Nagar, Delhi - IMD",18-11-2025 07:00:00,28.4706914,77.1099364,PM2.5,198,360,303
India,Delhi,Delhi,"Aya Nagar, Delhi - IMD",18-11-2025 07:00:00,28.4706914,77.1099364,CO,15,136,88
India,Delhi,Delhi,"Bawana, Delhi - DPCC",18-11-2025 07:00:00,28.776200,77.051074,PM10,171,500,347
India,Delhi,Delhi,"Bawana, Delhi - DPCC",18-11-2025 07:00:00,28.776200,77.051074,SO2,4,31,13
India,Delhi,Delhi,"Bawana, Delhi - DPCC",18-11-2025 07:00:00,28.776200,77.051074,OZONE,4,148,6
India,Delhi,Delhi,"CRRI Mathura Road, Delhi - IMD",18-11-2025 07:00:00,28.5512005,77.2735737,PM2.5,230,466,350
India,Delhi,Delhi,"IHBAS, Dilshad Garden, Delhi - CPCB",18-11-2025 07:00:00,28.6811736,77.3025234,PM2.5,241,420,326
India,Delhi,Delhi,"IHBAS, Dilshad Garden, Delhi - CPCB",18-11-2025 07:00:00,28.6811736,77.3025234,NO2,50,55,53
India,Delhi,Delhi,"ITO, Delhi - CPCB",18-11-2025 07:00:00,28.628624,77.241060,NH3,3,7,5
India,Delhi,Delhi,"Jawaharlal Nehru Stadium, Delhi - DPCC",18-11-2025 07:00:00,28.580280,77.233829,PM2.5,237,397,336
India,Delhi,Delhi,"Najafgarh, Delhi - DPCC",18-11-2025 07:00:00,28.570173,76.933762,NH3,8,10,9
India,Delhi,Delhi,"Narela, Delhi - DPCC",18-11-2025 07:00:00,28.822836,77.101981,CO,4,103,52
India,Delhi,Delhi,"North Campus, DU, Delhi - IMD",18-11-2025 07:00:00,28.6573814,77.1585447,CO,42,119,39
India,Delhi,Delhi,"Sonia Vihar, Delhi - DPCC",18-11-2025 07:00:00,28.710508,77.249485,PM10,171,430,314
India,Delhi,Delhi,"Sri Aurobindo Marg, Delhi - DPCC",18-11-2025 07:00:00,28.531346,77.190156,PM2.5,147,374,303
India,Delhi,Delhi,"Wazirpur, Delhi - DPCC",18-11-2025 07:00:00,28.699793,77.165453,NH3,9,15,11
India,Gujarat,Ahmedabad,"Rakhial, Ahmedabad - IITM",18-11-2025 07:00:00,23.016834,72.625775,SO2,17,82,32
India,Gujarat,Ahmedabad,"SAC ISRO Bopal, Ahmedabad - IITM",18-11-2025 07:00:00,23.041137,72.456691,PM2.5,88,304,162
India,Gujarat,Ahmedabad,"SAC ISRO Bopal, Ahmedabad - IITM",18-11-2025 07:00:00,23.041137,72.456691,NH3,2,3,3
India,Gujarat,Ahmedabad,"SAC ISRO Bopal, Ahmedabad - IITM",18-11-2025 07:00:00,23.041137,72.456691,SO2,2,20,5
India,Gujarat,Ahmedabad,"SAC ISRO Satellite, Ahmedabad - IITM",18-11-2025 07:00:00,23.023389,72.515201,NO2,23,166,72
India,Gujarat,Ahmedabad,"SAC ISRO Satellite, Ahmedabad - IITM",18-11-2025 07:00:00,23.023389,72.515201,OZONE,3,63,14
India,Gujarat,Ahmedabad,"SVPI Airport Hansol, Ahmedabad - IITM",18-11-2025 07:00:00,23.076793,72.627874,OZONE,2,66,15
India,Gujarat,Gandhinagar,"GIFT City, Gandhinagar - IITM",18-11-2025 07:00:00,23.163798,72.677768,NH3,3,12,6
India,Haryana,Ballabgarh,"Nathu Colony, Ballabgarh - HSPCB",18-11-2025 07:00:00,28.3419248,77.319699,NO2,20,21,20
India,Haryana,Ballabgarh,"Nathu Colony, Ballabgarh - HSPCB",18-11-2025 07:00:00,28.3419248,77.319699,NH3,1,3,1
India,Haryana,Ballabgarh,"Nathu Colony, Ballabgarh - HSPCB",18-11-2025 07:00:00,28.3419248,77.319699,CO,15,148,15
India,Haryana,Bhiwani,"H.B. Colony, Bhiwani - HSPCB",18-11-2025 07:00:00,28.806223,76.141105,PM2.5,83,144,108
India,Haryana,Bhiwani,"H.B. Colony, Bhiwani - HSPCB",18-11-2025 07:00:00,28.806223,76.141105,PM10,71,103,88
India,Haryana,Bhiwani,"H.B. Colony, Bhiwani - HSPCB",18-11-2025 07:00:00,28.806223,76.141105,SO2,12,13,12
India,Haryana,Charkhi Dadri,"Mini Secretariat, Charkhi Dadri - HSPCB",18-11-2025 07:00:00,28.593883,76.270653,SO2,10,12,11
India,Haryana,Charkhi Dadri,"Mini Secretariat, Charkhi Dadri - HSPCB",18-11-2025 07:00:00,28.593883,76.270653,CO,10,25,17
India,Haryana,Charkhi Dadri,"Mini Secretariat, Charkhi Dadri - HSPCB",18-11-2025 07:00:00,28.593883,76.270653,OZONE,14,18,16
India,Haryana,Gurugram,"NISE Gwal Pahari, Gurugram - IMD",18-11-2025 07:00:00,28.422681,77.148944,PM2.5,225,378,308
India,Haryana,Gurugram,"Sector-51, Gurugram - HSPCB",18-11-2025 07:00:00,28.4227,77.0667,SO2,18,42,25
India,Haryana,Gurugram,"Sector-51, Gurugram - HSPCB",18-11-2025 07:00:00,28.4227,77.0667,CO,23,46,37
India,Haryana,Gurugram,"Sector-51, Gurugram - HSPCB",18-11-2025 07:00:00,28.4227,77.0667,OZONE,9,330,42
India,Haryana,Gurugram,"Teri Gram, Gurugram - HSPCB",18-11-2025 07:00:00,28.4275,77.1465,PM10,70,197,124
India,Haryana,Gurugram,"Teri Gram, Gurugram - HSPCB",18-11-2025 07:00:00,28.4275,77.1465,NO2,1,43,10
India,Haryana,Gurugram,"Vikas Sadan, Gurugram - HSPCB",18-11-2025 07:00:00,28.4501238,77.0263051,PM2.5,NA,NA,NA
India,Haryana,Dharuhera,"Municipal Corporation Office, Dharuhera -  HSPCB",18-11-2025 07:00:00,28.206800,76.799700,CO,60,86,82
India,Haryana,Faridabad,"New Industrial Town, Faridabad - HSPCB",18-11-2025 07:00:00,28.39072,77.30059,CO,NA,NA,NA
India,Haryana,Faridabad,"Sector 11, Faridabad - HSPCB",18-11-2025 07:00:00,28.376058,77.315741,OZONE,1,136,1
India,Haryana,Faridabad,"Sector 30, Faridabad - HSPCB",18-11-2025 07:00:00,28.4417,77.3217,PM2.5,206,229,215
India,Haryana,Faridabad,"Sector 30, Faridabad - HSPCB",18-11-2025 07:00:00,28.4417,77.3217,NH3,11,12,11
India,Haryana,Faridabad,"Sector 30, Faridabad - HSPCB",18-11-2025 07:00:00,28.4417,77.3217,CO,60,65,62
India,Gujarat,Gandhinagar,"Sector-10, Gandhinagar - GPCB",18-11-2025 07:00:00,23.221714,72.654328,OZONE,6,81,10
India,Gujarat,Surat,"Science Center, Surat - SMC",18-11-2025 07:00:00,21.170046,72.795405,PM2.5,61,130,91
India,Gujarat,Vapi,"Phase-1 GIDC, Vapi - GPCB",18-11-2025 07:00:00,20.362421,72.918013,PM10,NA,NA,NA
India,Gujarat,Vapi,"Phase-1 GIDC, Vapi - GPCB",18-11-2025 07:00:00,20.362421,72.918013,NO2,NA,NA,NA
India,Gujarat,Vapi,"Phase-1 GIDC, Vapi - GPCB",18-11-2025 07:00:00,20.362421,72.918013,OZONE,NA,NA,NA
India,Gujarat,Vatva,"Phase-4 GIDC, Vatva - GPCB",18-11-2025 07:00:00,22.969611,72.643500,PM2.5,36,264,110
India,Haryana,Hisar,"Urban Estate-II, Hisar - HSPCB",18-11-2025 07:00:00,29.140560,75.744941,OZONE,45,109,52
India,Haryana,Karnal,"Sector-12, Karnal - HSPCB",18-11-2025 07:00:00,29.695300,77.002700,SO2,13,16,15
India,Haryana,Mandikhera,"General Hospital, Mandikhera - HSPCB",18-11-2025 07:00:00,27.9002,76.9938,CO,18,82,73
India,Haryana,Manesar,"Sector-2 IMT, Manesar - HSPCB",18-11-2025 07:00:00,28.360699,76.936090,PM2.5,109,470,294
India,Gujarat,Gandhinagar,"GIFT City, Gandhinagar - IITM",18-11-2025 07:00:00,23.163798,72.677768,CO,40,80,56
India,Gujarat,Gandhinagar,"IIPHG Lekawada, Gandhinagar - IITM",18-11-2025 07:00:00,23.243639,72.68994,NO2,6,12,9
India,Gujarat,Gandhinagar,"IIPHG Lekawada, Gandhinagar - IITM",18-11-2025 07:00:00,23.243639,72.68994,CO,38,114,89
India,Gujarat,Gandhinagar,"Sector-10, Gandhinagar - GPCB",18-11-2025 07:00:00,23.221714,72.654328,SO2,6,14,11
India,Gujarat,Ahmedabad,"Chandkheda, Ahmedabad - IITM",18-11-2025 07:00:00,23.107969,72.574648,SO2,1,9,2
India,Gujarat,Ahmedabad,"Chandkheda, Ahmedabad - IITM",18-11-2025 07:00:00,23.107969,72.574648,OZONE,3,71,19
India,Gujarat,Ahmedabad,"Gyaspur, Ahmedabad - IITM",18-11-2025 07:00:00,22.977134,72.553024,PM10,127,197,159
India,Gujarat,Vatva,"Phase-4 GIDC, Vatva - GPCB",18-11-2025 07:00:00,22.969611,72.643500,CO,10,25,15
India,Haryana,Bahadurgarh,"Arya Nagar, Bahadurgarh - HSPCB",18-11-2025 07:00:00,28.6701,76.9254,NO2,12,14,13
India,Karnataka,Chamarajanagar,"Urban, Chamarajanagar - KSPCB",18-11-2025 07:00:00,11.55358,76.55521,OZONE,14,38,15
India,Karnataka,Chikkamagaluru,"Kalyana Nagara, Chikkamagaluru - KSPCB",18-11-2025 07:00:00,13.328028,75.797056,PM2.5,41,62,52
India,Karnataka,Chikkamagaluru,"Kalyana Nagara, Chikkamagaluru - KSPCB",18-11-2025 07:00:00,13.328028,75.797056,CO,11,11,11
India,Karnataka,Davanagere,"Devaraj Urs Badavane, Davanagere - KSPCB",18-11-2025 07:00:00,14.475800,75.905200,PM10,88,125,104
India,Karnataka,Davanagere,"Devaraj Urs Badavane, Davanagere - KSPCB",18-11-2025 07:00:00,14.475800,75.905200,SO2,1,6,3
India,Karnataka,Davanagere,"Devaraj Urs Badavane, Davanagere - KSPCB",18-11-2025 07:00:00,14.475800,75.905200,OZONE,18,21,20
India,Karnataka,Dharwad,"Kalabhavan, Dharwad - KSPCB",18-11-2025 07:00:00,15.459706,75.008381,CO,32,76,56
India,Karnataka,Gadag,"Panchal Nagar, Gadag - KSPCB",18-11-2025 07:00:00,15.411456,75.638133,PM10,41,444,123
India,Karnataka,Gadag,"Panchal Nagar, Gadag - KSPCB",18-11-2025 07:00:00,15.411456,75.638133,NO2,1,37,16
India,Karnataka,Bengaluru,"BWSSB Kadabesanahalli, Bengaluru - CPCB",18-11-2025 07:00:00,12.9352049,77.6814488,PM10,215,215,215
India,Karnataka,Bengaluru,"BWSSB Kadabesanahalli, Bengaluru - CPCB",18-11-2025 07:00:00,12.9352049,77.6814488,CO,5,50,20
India,Karnataka,Bengaluru,"City Railway Station, Bengaluru - KSPCB",18-11-2025 07:00:00,12.9756843,77.5660749,SO2,11,19,14
India,Karnataka,Bengaluru,"Hebbal, Bengaluru - KSPCB",18-11-2025 07:00:00,13.029152,77.585901,PM2.5,57,128,92
India,Karnataka,Bengaluru,"Hombegowda Nagar, Bengaluru - KSPCB",18-11-2025 07:00:00,12.938539,77.590100,NO2,10,30,20
India,Karnataka,Bengaluru,"Jayanagar 5th Block, Bengaluru - KSPCB",18-11-2025 07:00:00,12.920984,77.584908,PM2.5,NA,NA,NA
India,Karnataka,Bengaluru,"RVCE-Mailasandra, Bengaluru - KSPCB",18-11-2025 07:00:00,12.921418,77.502466,SO2,5,6,6
India,Karnataka,Bengaluru,"RVCE-Mailasandra, Bengaluru - KSPCB",18-11-2025 07:00:00,12.921418,77.502466,OZONE,16,16,16
India,Karnataka,Bengaluru,"Sanegurava Halli, Bengaluru - KSPCB",18-11-2025 07:00:00,12.990328,77.5431385,NO2,20,21,20
India,Karnataka,Bengaluru,"Sanegurava Halli, Bengaluru - KSPCB",18-11-2025 07:00:00,12.990328,77.5431385,SO2,7,7,7
India,Karnataka,Bengaluru,"Silk Board, Bengaluru - KSPCB",18-11-2025 07:00:00,12.917348,77.622813,PM10,100,206,147
India,Karnataka,Bengaluru,"Silk Board, Bengaluru - KSPCB",18-11-2025 07:00:00,12.917348,77.622813,NO2,12,17,14
India,Karnataka,Chamarajanagar,"Urban, Chamarajanagar - KSPCB",18-11-2025 07:00:00,11.55358,76.55521,PM10,28,58,41
India,Himachal Pradesh,Baddi,"HIMUDA Complex Phase-1, Baddi - HPPCB",18-11-2025 07:00:00,30.943887,76.801991,PM2.5,45,438,122
India,Himachal Pradesh,Baddi,"HIMUDA Complex Phase-1, Baddi - HPPCB",18-11-2025 07:00:00,30.943887,76.801991,CO,43,113,52
India,Jammu_and_Kashmir,Srinagar,"Rajbagh, Srinagar - JKSPCB",18-11-2025 07:00:00,34.066206,74.819820,PM2.5,44,104,78
India,Jammu_and_Kashmir,Srinagar,"Rajbagh, Srinagar - JKSPCB",18-11-2025 07:00:00,34.066206,74.819820,OZONE,NA,NA,NA
India,Jharkhand,Dhanbad,"Sardar Patel Nagar, Dhanbad - JSPCB",18-11-2025 07:00:00,23.80569,86.44268,PM10,72,168,106
India,Jharkhand,Dhanbad,"Sardar Patel Nagar, Dhanbad - JSPCB",18-11-2025 07:00:00,23.80569,86.44268,OZONE,2,59,21
India,Karnataka,Gadag,"Panchal Nagar, Gadag - KSPCB",18-11-2025 07:00:00,15.411456,75.638133,OZONE,22,74,36
India,Karnataka,Hubballi,"Lingaraj Nagar, Hubballi - KSPCB",18-11-2025 07:00:00,15.3714823,75.1160168,PM10,54,93,61
India,Karnataka,Kalaburagi,"Lal Bahadur Shastri Nagar, Kalaburagi - KSPCB",18-11-2025 07:00:00,17.321993,76.822628,OZONE,20,20,20
India,Karnataka,Kalaburagi,"Mahatma Basaveswar Colony, Kalaburgi - KSPCB",18-11-2025 07:00:00,17.336318,76.847397,NO2,10,18,13
India,Karnataka,Koppal,"Diwator Nagar, Koppal - KSPCB",18-11-2025 07:00:00,15.347630,76.181767,SO2,11,41,29
India,Haryana,Manesar,"Sector-2 IMT, Manesar - HSPCB",18-11-2025 07:00:00,28.360699,76.936090,NH3,17,20,19
India,Haryana,Narnaul,"Shastri Nagar, Narnaul - HSPCB",18-11-2025 07:00:00,28.060249,76.113115,SO2,11,12,12
India,Haryana,Palwal,"Shyam Nagar, Palwal - HSPCB",18-11-2025 07:00:00,28.1485564,77.3320667,NH3,8,9,9
India,Haryana,Panchgaon,"Amity University, Panchgaon - IITM",18-11-2025 07:00:00,28.3153,76.9143,NO2,30,89,59
India,Haryana,Panchgaon,"Amity University, Panchgaon - IITM",18-11-2025 07:00:00,28.3153,76.9143,CO,2,56,24
India,Karnataka,Bagalkot,"Vidayagiri, Bagalkot - KSPCB",18-11-2025 07:00:00,16.172806,75.659694,PM2.5,34,36,35
India,Karnataka,Bagalkot,"Vidayagiri, Bagalkot - KSPCB",18-11-2025 07:00:00,16.172806,75.659694,NH3,1,2,1
India,Karnataka,Belgaum,"Ramteerth Nagar, Belgaum - KSPCB",18-11-2025 07:00:00,15.888653,74.541751,OZONE,19,20,20
India,Karnataka,Bengaluru,"BTM Layout, Bengaluru - CPCB",18-11-2025 07:00:00,12.9135218,77.5950804,CO,42,54,44
India,Haryana,Panipat,"Sector-18, Panipat - HSPCB",18-11-2025 07:00:00,29.432304,76.972765,PM10,67,163,129
India,Haryana,Rohtak,"MD University, Rohtak - HSPCB",18-11-2025 07:00:00,28.52123,76.37138,OZONE,95,266,118
India,Haryana,Sonipat,"Murthal, Sonipat - HSPCB",18-11-2025 07:00:00,29.027200,77.062100,PM10,144,331,231
India,Karnataka,Bengaluru,"Jayanagar 5th Block, Bengaluru - KSPCB",18-11-2025 07:00:00,12.920984,77.584908,NH3,NA,NA,NA
India,Karnataka,Bengaluru,"Jayanagar 5th Block, Bengaluru - KSPCB",18-11-2025 07:00:00,12.920984,77.584908,SO2,NA,NA,NA
India,Karnataka,Bengaluru,"Jayanagar 5th Block, Bengaluru - KSPCB",18-11-2025 07:00:00,12.920984,77.584908,CO,NA,NA,NA
India,Karnataka,Bengaluru,"Peenya, Bengaluru - CPCB",18-11-2025 07:00:00,13.0270199,77.494094,NO2,26,30,28
India,Karnataka,Bengaluru,"Peenya, Bengaluru - CPCB",18-11-2025 07:00:00,13.0270199,77.494094,CO,22,61,28
India,Madhya Pradesh,Satna,"Bandhavgar Colony, Satna - Birla Cement",18-11-2025 07:00:00,24.58434363,80.8549414,SO2,18,20,19
India,Madhya Pradesh,Satna,"Bandhavgar Colony, Satna - Birla Cement",18-11-2025 07:00:00,24.58434363,80.8549414,CO,24,71,45
India,Madhya Pradesh,Singrauli,"Suryakiran Bhawan NCL, Singrauli - MPPCB",18-11-2025 07:00:00,24.108970,82.645580,PM2.5,47,167,86
India,Maharashtra,Ahmednagar,"Tarakpur, Ahmednagar - MPCB",18-11-2025 07:00:00,19.10122,74.73339,PM2.5,67,177,113
India,Maharashtra,Ahmednagar,"Tarakpur, Ahmednagar - MPCB",18-11-2025 07:00:00,19.10122,74.73339,NH3,4,7,5
India,Maharashtra,Ahmednagar,"Tarakpur, Ahmednagar - MPCB",18-11-2025 07:00:00,19.10122,74.73339,SO2,1,7,3
India,Maharashtra,Ahmednagar,"Tarakpur, Ahmednagar - MPCB",18-11-2025 07:00:00,19.10122,74.73339,CO,22,110,38
