country,state,city,station,last_update,latitude,longitude,pollutant_id,min_value,max_value,avg_value
India,Bihar,Muzaffarpur,"Muzaffarpur Collectorate, Muzaffarpur - BSPCB",31-10-2025 07:00:00,26.1209,85.3647,PM2.5,32,59,42
India,Bihar,Muzaffarpur,"Muzaffarpur Collectorate, Muzaffarpur - BSPCB",31-10-2025 07:00:00,26.1209,85.3647,CO,12,48,18
India,Bihar,Patna,"DRM Office Danapur, Patna - BSPCB",31-10-2025 07:00:00,25.586562,85.043586,NO2,NA,NA,NA
India,Bihar,Patna,"DRM Office Danapur, Patna - BSPCB",31-10-2025 07:00:00,25.586562,85.043586,NH3,NA,NA,NA
India,Bihar,Patna,"Govt. High School Shikarpur, Patna - BSPCB",31-10-2025 07:00:00,25.592539,85.227158,PM10,19,145,44
India,Bihar,Patna,"Govt. High School Shikarpur, Patna - BSPCB",31-10-2025 07:00:00,25.592539,85.227158,SO2,2,9,6
India,Bihar,Patna,"IGSC Planetarium Complex, Patna - BSPCB",31-10-2025 07:00:00,25.610369,85.132568,PM2.5,9,86,26
India,Bihar,Patna,"IGSC Planetarium Complex, Patna - BSPCB",31-10-2025 07:00:00,25.610369,85.132568,NO2,1,18,12
India,Bihar,Patna,"IGSC Planetarium Complex, Patna - BSPCB",31-10-2025 07:00:00,25.610369,85.132568,SO2,1,29,20
India,Bihar,Patna,"IGSC Planetarium Complex, Patna - BSPCB",31-10-2025 07:00:00,25.610369,85.132568,OZONE,28,49,29
India,Bihar,Patna,"Muradpur, Patna - BSPCB",31-10-2025 07:00:00,25.619651,85.147382,NH3,3,5,4
India,Bihar,Gaya,"SFTI Kusdihra, Gaya - BSPCB",31-10-2025 07:00:00,24.762518,84.982348,NH3,3,4,3
India,Bihar,Hajipur,"Industrial Area, Hajipur - BSPCB",31-10-2025 07:00:00,25.697189,85.245900,PM10,25,45,34
India,Bihar,Katihar,"Mirchaibari, Katihar - BSPCB",31-10-2025 07:00:00,25.560083,87.553265,PM2.5,5,17,9
India,Bihar,Katihar,"Mirchaibari, Katihar - BSPCB",31-10-2025 07:00:00,25.560083,87.553265,PM10,4,15,8
India,Bihar,Kishanganj,"SDM Office_Khagra, Kishanganj - BSPCB",31-10-2025 07:00:00,26.0881305,87.93840336,OZONE,16,20,17
India,Bihar,Manguraha,"Forest Rest House, Manguraha - BSPCB",31-10-2025 07:00:00,27.308328,84.531742,PM10,NA,NA,NA
India,Bihar,Manguraha,"Forest Rest House, Manguraha - BSPCB",31-10-2025 07:00:00,27.308328,84.531742,NO2,NA,NA,NA
India,Bihar,Manguraha,"Forest Rest House, Manguraha - BSPCB",31-10-2025 07:00:00,27.308328,84.531742,OZONE,4,12,8
India,Bihar,Motihari,"Gandak Colony, Motihari - BSPCB",31-10-2025 07:00:00,26.63086,84.90051,NO2,3,5,4
India,Bihar,Munger,"Town Hall, Munger - BSPCB",31-10-2025 07:00:00,25.376776,86.471523,PM10,3,33,15
India,Bihar,Muzaffarpur,"Buddha Colony, Muzaffarpur - BSPCB",31-10-2025 07:00:00,26.11442,85.39813,PM2.5,10,14,11
India,Bihar,Muzaffarpur,"Buddha Colony, Muzaffarpur - BSPCB",31-10-2025 07:00:00,26.11442,85.39813,PM10,8,11,9
India,Bihar,Muzaffarpur,"Buddha Colony, Muzaffarpur - BSPCB",31-10-2025 07:00:00,26.11442,85.39813,NH3,4,6,4
India,Bihar,Muzaffarpur,"MIT-Daudpur Kothi, Muzaffarpur - BSPCB",31-10-2025 07:00:00,26.1403345,85.3650192,NH3,1,1,1
India,Assam,Sivasagar,"Girls College, Sivasagar - PCBA",31-10-2025 07:00:00,26.987634,94.636574,PM2.5,28,59,41
India,Assam,Sivasagar,"Girls College, Sivasagar - PCBA",31-10-2025 07:00:00,26.987634,94.636574,NH3,4,6,5
India,Bihar,Araria,"Kharahiya Basti, Araria - BSPCB",31-10-2025 07:00:00,26.146529,87.454184,NH3,5,5,5
India,Bihar,Araria,"Kharahiya Basti, Araria - BSPCB",31-10-2025 07:00:00,26.146529,87.454184,OZONE,9,11,10
India,Bihar,Arrah,"New DM Office, Arrah - BSPCB",31-10-2025 07:00:00,25.5626095,84.663264,PM2.5,63,99,85
India,Bihar,Arrah,"New DM Office, Arrah - BSPCB",31-10-2025 07:00:00,25.5626095,84.663264,NH3,1,1,1
India,Bihar,Arrah,"New DM Office, Arrah - BSPCB",31-10-2025 07:00:00,25.5626095,84.663264,CO,29,68,50
India,Bihar,Begusarai,"Lohiyanagar, Begusarai - BSPCB",31-10-2025 07:00:00,25.42742023,86.13886079,PM2.5,85,500,148
India,Bihar,Begusarai,"Lohiyanagar, Begusarai - BSPCB",31-10-2025 07:00:00,25.42742023,86.13886079,PM10,48,236,88
India,Bihar,Begusarai,"Lohiyanagar, Begusarai - BSPCB",31-10-2025 07:00:00,25.42742023,86.13886079,NO2,10,29,18
India,Bihar,Begusarai,"Lohiyanagar, Begusarai - BSPCB",31-10-2025 07:00:00,25.42742023,86.13886079,NH3,3,5,4
India,Bihar,Bhagalpur,"DM Office_Kachari Chowk, Bhagalpur - BSPCB",31-10-2025 07:00:00,25.251013,86.989001,PM10,9,46,20
India,Bihar,Bihar Sharif,"D M Colony, Bihar Sharif - BSPCB",31-10-2025 07:00:00,25.204762,85.514960,PM10,13,63,32
India,Bihar,Gaya,"Kareemganj, Gaya - BSPCB",31-10-2025 07:00:00,24.792403,84.992416,PM2.5,17,87,58
India,Bihar,Gaya,"Kareemganj, Gaya - BSPCB",31-10-2025 07:00:00,24.792403,84.992416,NO2,2,8,5
India,Bihar,Gaya,"Kareemganj, Gaya - BSPCB",31-10-2025 07:00:00,24.792403,84.992416,OZONE,3,36,15
India,Bihar,Gaya,"SFTI Kusdihra, Gaya - BSPCB",31-10-2025 07:00:00,24.762518,84.982348,PM2.5,2,34,15
India,Bihar,Gaya,"SFTI Kusdihra, Gaya - BSPCB",31-10-2025 07:00:00,24.762518,84.982348,PM10,12,32,21
India,Bihar,Gaya,"SFTI Kusdihra, Gaya - BSPCB",31-10-2025 07:00:00,24.762518,84.982348,NO2,19,26,22
India,Assam,Guwahati,"Pan Bazaar, Guwahati - PCBA",31-10-2025 07:00:00,26.187500,91.744194,SO2,40,59,48
India,Assam,Nagaon,"Christianpatty, Nagaon - PCBA",31-10-2025 07:00:00,26.349082,92.68449,OZONE,8,9,9
India,Assam,Nalbari,"Bata Chowk, Nalbari - PCBA",31-10-2025 07:00:00,26.446912,91.439057,NO2,12,20,16
India,Assam,Nalbari,"Bata Chowk, Nalbari - PCBA",31-10-2025 07:00:00,26.446912,91.439057,SO2,6,8,8
India,Andhra_Pradesh,Anantapur,"Gulzarpet, Anantapur - APPCB",31-10-2025 07:00:00,14.675886,77.593027,NO2,12,19,14
India,Andhra_Pradesh,Anantapur,"Gulzarpet, Anantapur - APPCB",31-10-2025 07:00:00,14.675886,77.593027,OZONE,27,45,29
India,Andhra_Pradesh,Chittoor,"Gangineni Cheruvu, Chittoor - APPCB",31-10-2025 07:00:00,13.204880,79.097889,NH3,4,6,5
India,Andhra_Pradesh,Chittoor,"Gangineni Cheruvu, Chittoor - APPCB",31-10-2025 07:00:00,13.204880,79.097889,CO,NA,NA,NA
India,Andhra_Pradesh,Tirumala,"Toll Gate, Tirumala - APPCB",31-10-2025 07:00:00,13.67,79.35,NH3,1,2,1
India,Andhra_Pradesh,Tirupati,"Vaikuntapuram, Tirupati - APPCB",31-10-2025 07:00:00,13.615387,79.409230,PM2.5,44,175,77
India,Andhra_Pradesh,Vijayawada,"HB Colony, Vijayawada - APPCB",31-10-2025 07:00:00,16.536107,80.594233,PM2.5,54,70,63
India,Arunachal_Pradesh,Naharlagun,"Naharlagun, Naharlagun - APSPCB",31-10-2025 07:00:00,27.103358,93.679645,SO2,8,9,8
India,Assam,Guwahati,"LGBI Airport, Guwahati - PCBA",31-10-2025 07:00:00,26.10887,91.589544,PM2.5,112,154,139
India,Assam,Guwahati,"LGBI Airport, Guwahati - PCBA",31-10-2025 07:00:00,26.10887,91.589544,NO2,13,23,15
India,Chhattisgarh,Raipur,"Siltara Phase-II, Raipur - CECB",31-10-2025 07:00:00,21.371751,81.664929,SO2,3,8,4
India,Chhattisgarh,Tumidih,"OP Jindal Industrial Park, Tumidih - CECB",31-10-2025 07:00:00,22.06631475,83.33820077,PM10,23,145,63
India,Delhi,Delhi,"Alipur, Delhi - DPCC",31-10-2025 07:00:00,28.815329,77.153010,NO2,30,87,65
India,Delhi,Delhi,"Alipur, Delhi - DPCC",31-10-2025 07:00:00,28.815329,77.153010,SO2,1,21,9
India,Delhi,Delhi,"Alipur, Delhi - DPCC",31-10-2025 07:00:00,28.815329,77.153010,OZONE,2,77,3
India,Delhi,Delhi,"Anand Vihar, Delhi - DPCC",31-10-2025 07:00:00,28.647622,77.3158090,PM10,103,500,219
India,Delhi,Delhi,"Ashok Vihar, Delhi - DPCC",31-10-2025 07:00:00,28.695381,77.181665,NH3,1,1,1
India,Delhi,Delhi,"Ashok Vihar, Delhi - DPCC",31-10-2025 07:00:00,28.695381,77.181665,SO2,15,30,21
India,Delhi,Delhi,"Ashok Vihar, Delhi - DPCC",31-10-2025 07:00:00,28.695381,77.181665,OZONE,1,75,2
India,Delhi,Delhi,"ITO, Delhi - CPCB",31-10-2025 07:00:00,28.628624,77.241060,NO2,8,106,53
India,Delhi,Delhi,"ITO, Delhi - CPCB",31-10-2025 07:00:00,28.628624,77.241060,NH3,1,8,3
India,Delhi,Delhi,"ITO, Delhi - CPCB",31-10-2025 07:00:00,28.628624,77.241060,SO2,14,29,21
India,Delhi,Delhi,"Jahangirpuri, Delhi - DPCC",31-10-2025 07:00:00,28.732820,77.170633,PM10,117,436,246
India,Delhi,Delhi,"Jahangirpuri, Delhi - DPCC",31-10-2025 07:00:00,28.732820,77.170633,OZONE,10,11,10
India,Delhi,Delhi,"Jawaharlal Nehru Stadium, Delhi - DPCC",31-10-2025 07:00:00,28.580280,77.233829,PM10,103,427,214
India,Delhi,Delhi,"Jawaharlal Nehru Stadium, Delhi - DPCC",31-10-2025 07:00:00,28.580280,77.233829,SO2,10,23,15
India,Delhi,Delhi,"Lodhi Road, Delhi - IITM",31-10-2025 07:00:00,28.588333,77.221667,PM10,106,413,206
India,Delhi,Delhi,"Lodhi Road, Delhi - IMD",31-10-2025 07:00:00,28.5918245,77.2273074,PM10,84,410,184
India,Chhattisgarh,Chhal,"Nawapara SECL Colony, Chhal - CECB",31-10-2025 07:00:00,22.118125,83.140608,NH3,6,6,6
India,Chhattisgarh,Chhal,"Nawapara SECL Colony, Chhal - CECB",31-10-2025 07:00:00,22.118125,83.140608,SO2,5,28,14
India,Chhattisgarh,Chhal,"Nawapara SECL Colony, Chhal - CECB",31-10-2025 07:00:00,22.118125,83.140608,OZONE,25,52,27
India,Chhattisgarh,Korba,"Rampur, Korba - CECB",31-10-2025 07:00:00,22.368195,82.746431,PM10,45,68,53
India,Chhattisgarh,Korba,"Rampur, Korba - CECB",31-10-2025 07:00:00,22.368195,82.746431,NO2,1,12,8
India,Chhattisgarh,Korba,"Urja Nagar, Korba - CECB",31-10-2025 07:00:00,22.348441,82.549611,PM2.5,64,69,64
India,Chhattisgarh,Kunjemura,"OP Jindal School, Kunjemura - CECB",31-10-2025 07:00:00,22.126650,83.483212,PM2.5,2,23,8
India,Chhattisgarh,Kunjemura,"OP Jindal School, Kunjemura - CECB",31-10-2025 07:00:00,22.126650,83.483212,CO,4,102,18
India,Chhattisgarh,Kunjemura,"OP Jindal School, Kunjemura - CECB",31-10-2025 07:00:00,22.126650,83.483212,OZONE,13,16,13
India,Chhattisgarh,Raipur,"Bhatagaon New ISBT, Raipur - CECB",31-10-2025 07:00:00,21.219665,81.630094,PM2.5,2,36,9
India,Chhattisgarh,Raipur,"Bhatagaon New ISBT, Raipur - CECB",31-10-2025 07:00:00,21.219665,81.630094,PM10,2,30,12
India,Chhattisgarh,Raipur,"Krishak Nagar, Raipur - CECB",31-10-2025 07:00:00,21.237755,81.705301,PM2.5,4,13,8
India,Chhattisgarh,Raipur,"Krishak Nagar, Raipur - CECB",31-10-2025 07:00:00,21.237755,81.705301,PM10,7,14,11
India,Chhattisgarh,Raipur,"Krishak Nagar, Raipur - CECB",31-10-2025 07:00:00,21.237755,81.705301,NO2,6,8,7
India,Chhattisgarh,Raipur,"Krishak Nagar, Raipur - CECB",31-10-2025 07:00:00,21.237755,81.705301,OZONE,2,2,2
India,Chhattisgarh,Raipur,"Siltara Phase-II, Raipur - CECB",31-10-2025 07:00:00,21.371751,81.664929,PM2.5,12,27,16
India,Delhi,Delhi,"Bawana, Delhi - DPCC",31-10-2025 07:00:00,28.776200,77.051074,PM2.5,270,456,356
India,Delhi,Delhi,"Burari Crossing, Delhi - IMD",31-10-2025 07:00:00,28.7256504,77.2011573,PM10,83,427,201
India,Delhi,Delhi,"CRRI Mathura Road, Delhi - IMD",31-10-2025 07:00:00,28.5512005,77.2735737,PM2.5,68,425,207
India,Delhi,Delhi,"CRRI Mathura Road, Delhi - IMD",31-10-2025 07:00:00,28.5512005,77.2735737,NO2,21,76,36
India,Delhi,Delhi,"CRRI Mathura Road, Delhi - IMD",31-10-2025 07:00:00,28.5512005,77.2735737,OZONE,13,76,15
India,Delhi,Delhi,"Chandni Chowk, Delhi - IITM",31-10-2025 07:00:00,28.656756,77.227234,PM10,122,277,198
India,Delhi,Delhi,"DTU, Delhi - CPCB",31-10-2025 07:00:00,28.7500499,77.1112615,PM10,107,411,214
India,Chandigarh,Chandigarh,"Sector-25, Chandigarh - CPCC",31-10-2025 07:00:00,30.751462,76.762879,PM10,46,115,77
India,Chandigarh,Chandigarh,"Sector-25, Chandigarh - CPCC",31-10-2025 07:00:00,30.751462,76.762879,OZONE,3,25,7
India,Chandigarh,Chandigarh,"Sector-53, Chandigarh - CPCC",31-10-2025 07:00:00,30.719859,76.738637,PM2.5,57,237,125
India,Chandigarh,Chandigarh,"Sector-53, Chandigarh - CPCC",31-10-2025 07:00:00,30.719859,76.738637,CO,38,122,50
India,Chhattisgarh,Bhilai,"32Bungalows, Bhilai - CECB",31-10-2025 07:00:00,21.194815,81.314770,PM10,5,33,11
India,Chhattisgarh,Bhilai,"32Bungalows, Bhilai - CECB",31-10-2025 07:00:00,21.194815,81.314770,CO,8,93,9
India,Chhattisgarh,Bhilai,"Civic Center, Bhilai - Bhilai Steel Plant",31-10-2025 07:00:00,21.185571,81.343175,PM10,7,72,23
India,Delhi,Delhi,"DTU, Delhi - CPCB",31-10-2025 07:00:00,28.7500499,77.1112615,CO,56,97,72
India,Delhi,Delhi,"Dwarka-Sector 8, Delhi - DPCC ",31-10-2025 07:00:00,28.5710274,77.0719006,PM10,109,432,218
India,Delhi,Delhi,"Dwarka-Sector 8, Delhi - DPCC ",31-10-2025 07:00:00,28.5710274,77.0719006,SO2,3,24,13
India,Delhi,Delhi,"IGI Airport (T3), Delhi - IMD",31-10-2025 07:00:00,28.5627763,77.1180053,OZONE,1,5,1
India,Delhi,Delhi,"IHBAS, Dilshad Garden, Delhi - CPCB",31-10-2025 07:00:00,28.6811736,77.3025234,OZONE,9,69,13
India,Delhi,Delhi,"ITO, Delhi - CPCB",31-10-2025 07:00:00,28.628624,77.241060,PM2.5,189,452,291
India,Bihar,Patna,"Muradpur, Patna - BSPCB",31-10-2025 07:00:00,25.619651,85.147382,SO2,8,10,9
India,Bihar,Patna,"Rajbansi Nagar, Patna - BSPCB",31-10-2025 07:00:00,25.599486,85.113666,SO2,9,10,9
India,Bihar,Patna,"Samanpura, Patna - BSPCB",31-10-2025 07:00:00,25.596727,85.085624,PM10,NA,NA,NA
India,Bihar,Patna,"Samanpura, Patna - BSPCB",31-10-2025 07:00:00,25.596727,85.085624,NO2,37,49,44
India,Bihar,Patna,"Samanpura, Patna - BSPCB",31-10-2025 07:00:00,25.596727,85.085624,SO2,1,1,1
India,Bihar,Purnia,"Mariam Nagar, Purnia - BSPCB",31-10-2025 07:00:00,25.366336,87.117468,PM10,3,25,12
India,Bihar,Purnia,"Mariam Nagar, Purnia - BSPCB",31-10-2025 07:00:00,25.366336,87.117468,NO2,5,6,6
India,Bihar,Samastipur,"DM Office_Kasipur, Samastipur - BSPCB",31-10-2025 07:00:00,25.859655,85.77944,NO2,8,9,8
India,Bihar,Siwan,"Chitragupta Nagar, Siwan - BSPCB",31-10-2025 07:00:00,26.2271665,84.3570427,PM2.5,2,5,3
India,Chandigarh,Chandigarh,"Sector 22, Chandigarh - CPCC",31-10-2025 07:00:00,30.735567,76.775714,PM10,54,159,91
India,Delhi,Delhi,"Major Dhyan Chand National Stadium, Delhi - DPCC",31-10-2025 07:00:00,28.611281,77.237738,OZONE,3,83,4
India,Delhi,Delhi,"Mandir Marg, Delhi - DPCC",31-10-2025 07:00:00,28.636429,77.201067,NH3,5,10,8
India,Delhi,Delhi,"NSIT Dwarka, Delhi - CPCB",31-10-2025 07:00:00,28.60909,77.0325413,PM2.5,116,397,248
India,Delhi,Delhi,"NSIT Dwarka, Delhi - CPCB",31-10-2025 07:00:00,28.60909,77.0325413,CO,23,65,34
India,Delhi,Delhi,"NSIT Dwarka, Delhi - CPCB",31-10-2025 07:00:00,28.60909,77.0325413,OZONE,8,63,8
India,Delhi,Delhi,"Najafgarh, Delhi - DPCC",31-10-2025 07:00:00,28.570173,76.933762,CO,56,103,61
India,Delhi,Delhi,"Najafgarh, Delhi - DPCC",31-10-2025 07:00:00,28.570173,76.933762,OZONE,5,36,6
India,Delhi,Delhi,"Narela, Delhi - DPCC",31-10-2025 07:00:00,28.822836,77.101981,PM2.5,183,460,323
India,Gujarat,Ahmedabad,"Raikhad, Ahmedabad - IITM",31-10-2025 07:00:00,23.020509,72.579261,NO2,13,43,29
India,Gujarat,Ahmedabad,"Rakhial, Ahmedabad - IITM",31-10-2025 07:00:00,23.016834,72.625775,PM2.5,11,68,45
India,Gujarat,Ahmedabad,"SAC ISRO Bopal, Ahmedabad - IITM",31-10-2025 07:00:00,23.041137,72.456691,NH3,3,3,3
India,Gujarat,Ahmedabad,"SAC ISRO Satellite, Ahmedabad - IITM",31-10-2025 07:00:00,23.023389,72.515201,PM10,9,68,35
India,Gujarat,Ahmedabad,"SAC ISRO Satellite, Ahmedabad - IITM",31-10-2025 07:00:00,23.023389,72.515201,NO2,7,29,19
India,Gujarat,Ahmedabad,"SVPI Airport Hansol, Ahmedabad - IITM",31-10-2025 07:00:00,23.076793,72.627874,PM2.5,17,53,34
India,Delhi,Delhi,"Punjabi Bagh, Delhi - DPCC",31-10-2025 07:00:00,28.674045,77.131023,SO2,1,16,8
India,Delhi,Delhi,"Pusa, Delhi - IMD",31-10-2025 07:00:00,28.636110,77.173332,CO,31,104,55
India,Delhi,Delhi,"Pusa, Delhi - IMD",31-10-2025 07:00:00,28.636110,77.173332,OZONE,3,68,5
India,Delhi,Delhi,"R K Puram, Delhi - DPCC",31-10-2025 07:00:00,28.563262,77.186937,PM10,87,426,205
India,Delhi,Delhi,"R K Puram, Delhi - DPCC",31-10-2025 07:00:00,28.563262,77.186937,SO2,NA,NA,NA
India,Delhi,Delhi,"R K Puram, Delhi - DPCC",31-10-2025 07:00:00,28.563262,77.186937,OZONE,4,64,6
India,Delhi,Delhi,"Rohini, Delhi - DPCC",31-10-2025 07:00:00,28.732528,77.119920,PM2.5,170,472,331
India,Delhi,Delhi,"Sirifort, Delhi - CPCB",31-10-2025 07:00:00,28.5504249,77.2159377,CO,34,114,60
India,Delhi,Delhi,"Sonia Vihar, Delhi - DPCC",31-10-2025 07:00:00,28.710508,77.249485,PM10,100,476,217
India,Delhi,Delhi,"Sonia Vihar, Delhi - DPCC",31-10-2025 07:00:00,28.710508,77.249485,NO2,29,74,54
India,Delhi,Delhi,"Sonia Vihar, Delhi - DPCC",31-10-2025 07:00:00,28.710508,77.249485,NH3,2,3,2
India,Delhi,Delhi,"Sri Aurobindo Marg, Delhi - DPCC",31-10-2025 07:00:00,28.531346,77.190156,PM10,77,368,165
India,Delhi,Delhi,"Sri Aurobindo Marg, Delhi - DPCC",31-10-2025 07:00:00,28.531346,77.190156,NO2,11,96,34
India,Delhi,Delhi,"Sri Aurobindo Marg, Delhi - DPCC",31-10-2025 07:00:00,28.531346,77.190156,CO,34,108,50
India,Delhi,Delhi,"Vivek Vihar, Delhi - DPCC",31-10-2025 07:00:00,28.672342,77.315260,NH3,12,14,13
India,Delhi,Delhi,"Vivek Vihar, Delhi - DPCC",31-10-2025 07:00:00,28.672342,77.315260,SO2,9,27,15
India,Gujarat,Ahmedabad,"Chandkheda, Ahmedabad - IITM",31-10-2025 07:00:00,23.107969,72.574648,PM2.5,12,52,33
India,Gujarat,Ahmedabad,"Gyaspur, Ahmedabad - IITM",31-10-2025 07:00:00,22.977134,72.553024,CO,15,44,22
India,Gujarat,Ankleshwar,"GIDC, Ankleshwar - GPCB",31-10-2025 07:00:00,21.613267,73.010555,PM10,39,87,64
India,Gujarat,Ankleshwar,"GIDC, Ankleshwar - GPCB",31-10-2025 07:00:00,21.613267,73.010555,NO2,23,29,25
India,Gujarat,Ankleshwar,"GIDC, Ankleshwar - GPCB",31-10-2025 07:00:00,21.613267,73.010555,CO,44,56,51
India,Gujarat,Gandhinagar,"Sector-10, Gandhinagar - GPCB",31-10-2025 07:00:00,23.221714,72.654328,PM10,25,91,54
India,Gujarat,Gandhinagar,"Sector-10, Gandhinagar - GPCB",31-10-2025 07:00:00,23.221714,72.654328,NO2,11,16,15
India,Delhi,Delhi,"Narela, Delhi - DPCC",31-10-2025 07:00:00,28.822836,77.101981,NH3,17,22,18
India,Delhi,Delhi,"Nehru Nagar, Delhi - DPCC",31-10-2025 07:00:00,28.567890,77.250515,SO2,1,26,11
India,Delhi,Delhi,"Nehru Nagar, Delhi - DPCC",31-10-2025 07:00:00,28.567890,77.250515,OZONE,4,84,7
India,Delhi,Delhi,"Patparganj, Delhi - DPCC",31-10-2025 07:00:00,28.623763,77.287209,SO2,7,9,8
India,Gujarat,Vapi,"Phase-1 GIDC, Vapi - GPCB",31-10-2025 07:00:00,20.362421,72.918013,OZONE,2,2,2
India,Gujarat,Vatva,"Phase-4 GIDC, Vatva - GPCB",31-10-2025 07:00:00,22.969611,72.643500,OZONE,8,23,12
India,Delhi,Delhi,"Shadipur, Delhi - CPCB",31-10-2025 07:00:00,28.6514781,77.1473105,NO2,50,114,81
India,Delhi,Delhi,"Shadipur, Delhi - CPCB",31-10-2025 07:00:00,28.6514781,77.1473105,NH3,10,14,12
India,Haryana,Gurugram,"NISE Gwal Pahari, Gurugram - IMD",31-10-2025 07:00:00,28.422681,77.148944,NO2,7,30,14
India,Haryana,Gurugram,"Vikas Sadan, Gurugram - HSPCB",31-10-2025 07:00:00,28.4501238,77.0263051,PM2.5,137,352,284
India,Haryana,Gurugram,"Vikas Sadan, Gurugram - HSPCB",31-10-2025 07:00:00,28.4501238,77.0263051,PM10,NA,NA,NA
India,Haryana,Gurugram,"Vikas Sadan, Gurugram - HSPCB",31-10-2025 07:00:00,28.4501238,77.0263051,NO2,9,45,26
India,Haryana,Hisar,"Urban Estate-II, Hisar - HSPCB",31-10-2025 07:00:00,29.140560,75.744941,PM10,92,335,157
India,Haryana,Hisar,"Urban Estate-II, Hisar - HSPCB",31-10-2025 07:00:00,29.140560,75.744941,CO,55,94,56
India,Haryana,Jind,"Police Lines, Jind - HSPCB",31-10-2025 07:00:00,29.307814,76.337619,NO2,12,14,13
India,Haryana,Panchkula,"Sector-6, Panchkula - HSPCB ",31-10-2025 07:00:00,30.7057778,76.8531805555555,CO,18,24,20
India,Haryana,Panchkula,"Sector-6, Panchkula - HSPCB ",31-10-2025 07:00:00,30.7057778,76.8531805555555,OZONE,17,137,41
India,Haryana,Panipat,"Sector-18, Panipat - HSPCB",31-10-2025 07:00:00,29.432304,76.972765,PM2.5,44,363,149
India,Haryana,Rohtak,"MD University, Rohtak - HSPCB",31-10-2025 07:00:00,28.52123,76.37138,PM10,155,500,292
India,Haryana,Sirsa,"F-Block, Sirsa - HSPCB",31-10-2025 07:00:00,29.536400,75.015800,NH3,11,15,13
India,Haryana,Sirsa,"F-Block, Sirsa - HSPCB",31-10-2025 07:00:00,29.536400,75.015800,CO,56,96,86
India,Haryana,Dharuhera,"Municipal Corporation Office, Dharuhera -  HSPCB",31-10-2025 07:00:00,28.206800,76.799700,CO,NA,NA,NA
India,Haryana,Faridabad,"New Industrial Town, Faridabad - HSPCB",31-10-2025 07:00:00,28.39072,77.30059,PM10,162,172,166
India,Haryana,Faridabad,"Sector 11, Faridabad - HSPCB",31-10-2025 07:00:00,28.376058,77.315741,OZONE,3,57,18
India,Haryana,Faridabad,"Sector 30, Faridabad - HSPCB",31-10-2025 07:00:00,28.4417,77.3217,PM2.5,163,170,166
India,Haryana,Faridabad,"Sector 30, Faridabad - HSPCB",31-10-2025 07:00:00,28.4417,77.3217,NH3,10,12,11
India,Haryana,Karnal,"Sector-12, Karnal - HSPCB",31-10-2025 07:00:00,29.695300,77.002700,PM2.5,64,312,197
India,Haryana,Karnal,"Sector-12, Karnal - HSPCB",31-10-2025 07:00:00,29.695300,77.002700,NH3,6,7,6
India,Haryana,Kurukshetra,"Sector-7, Kurukshetra - HSPCB",31-10-2025 07:00:00,29.966942,76.875879,PM2.5,55,200,124
India,Haryana,Mandikhera,"General Hospital, Mandikhera - HSPCB",31-10-2025 07:00:00,27.9002,76.9938,PM2.5,49,151,87
India,Haryana,Mandikhera,"General Hospital, Mandikhera - HSPCB",31-10-2025 07:00:00,27.9002,76.9938,SO2,30,37,34
India,Haryana,Bahadurgarh,"Arya Nagar, Bahadurgarh - HSPCB",31-10-2025 07:00:00,28.6701,76.9254,SO2,7,7,7
India,Haryana,Bhiwani,"H.B. Colony, Bhiwani - HSPCB",31-10-2025 07:00:00,28.806223,76.141105,PM10,32,500,334
India,Haryana,Bhiwani,"H.B. Colony, Bhiwani - HSPCB",31-10-2025 07:00:00,28.806223,76.141105,OZONE,7,18,14
India,Haryana,Charkhi Dadri,"Mini Secretariat, Charkhi Dadri - HSPCB",31-10-2025 07:00:00,28.593883,76.270653,PM10,86,324,162
India,Karnataka,Belgaum,"Ramteerth Nagar, Belgaum - KSPCB",31-10-2025 07:00:00,15.888653,74.541751,PM2.5,11,61,33
India,Karnataka,Bengaluru,"BTM Layout, Bengaluru - CPCB",31-10-2025 07:00:00,12.9135218,77.5950804,SO2,28,28,28
India,Karnataka,Bengaluru,"BTM Layout, Bengaluru - CPCB",31-10-2025 07:00:00,12.9135218,77.5950804,CO,45,62,48
India,Karnataka,Bengaluru,"BWSSB Kadabesanahalli, Bengaluru - CPCB",31-10-2025 07:00:00,12.9352049,77.6814488,PM10,4,110,66
India,Haryana,Manesar,"Sector-2 IMT, Manesar - HSPCB",31-10-2025 07:00:00,28.360699,76.936090,PM2.5,NA,NA,NA
India,Haryana,Manesar,"Sector-2 IMT, Manesar - HSPCB",31-10-2025 07:00:00,28.360699,76.936090,OZONE,10,50,12
India,Haryana,Narnaul,"Shastri Nagar, Narnaul - HSPCB",31-10-2025 07:00:00,28.060249,76.113115,PM10,105,119,109
India,Haryana,Palwal,"Shyam Nagar, Palwal - HSPCB",31-10-2025 07:00:00,28.1485564,77.3320667,PM2.5,116,124,120
India,Karnataka,Bengaluru,"City Railway Station, Bengaluru - KSPCB",31-10-2025 07:00:00,12.9756843,77.5660749,CO,85,88,87
India,Karnataka,Bengaluru,"Hebbal, Bengaluru - KSPCB",31-10-2025 07:00:00,13.029152,77.585901,PM2.5,6,42,22
India,Karnataka,Bengaluru,"Jayanagar 5th Block, Bengaluru - KSPCB",31-10-2025 07:00:00,12.920984,77.584908,SO2,1,8,3
India,Karnataka,Bengaluru,"Jayanagar 5th Block, Bengaluru - KSPCB",31-10-2025 07:00:00,12.920984,77.584908,OZONE,6,70,28
India,Jammu_and_Kashmir,Srinagar,"Rajbagh, Srinagar - JKSPCB",31-10-2025 07:00:00,34.066206,74.819820,CO,11,15,13
India,Jharkhand,Dhanbad,"Sardar Patel Nagar, Dhanbad - JSPCB",31-10-2025 07:00:00,23.80569,86.44268,OZONE,1,44,1
India,Madhya Pradesh,Gwalior,"City Center, Gwalior - MPPCB",31-10-2025 07:00:00,26.203442,78.193251,SO2,6,18,12
India,Madhya Pradesh,Gwalior,"Deen Dayal Nagar, Gwalior - MPPCB",31-10-2025 07:00:00,26.259242,78.216432,PM10,16,87,38
India,Madhya Pradesh,Gwalior,"Deen Dayal Nagar, Gwalior - MPPCB",31-10-2025 07:00:00,26.259242,78.216432,NH3,4,5,4
India,Madhya Pradesh,Gwalior,"Deen Dayal Nagar, Gwalior - MPPCB",31-10-2025 07:00:00,26.259242,78.216432,OZONE,23,53,42
India,Madhya Pradesh,Gwalior,"Maharaj Bada, Gwalior - MPPCB",31-10-2025 07:00:00,26.200388,78.147714,PM2.5,5,93,36
India,Madhya Pradesh,Gwalior,"Maharaj Bada, Gwalior - MPPCB",31-10-2025 07:00:00,26.200388,78.147714,PM10,19,125,54
India,Madhya Pradesh,Gwalior,"Maharaj Bada, Gwalior - MPPCB",31-10-2025 07:00:00,26.200388,78.147714,SO2,4,11,8
India,Madhya Pradesh,Indore,"Airport Area, Indore - IMC",31-10-2025 07:00:00,22.7289,75.8076,PM2.5,7,37,21
India,Madhya Pradesh,Indore,"Chhoti Gwaltoli, Indore - MPPCB",31-10-2025 07:00:00,22.4310,75.5213,CO,19,64,26
India,Karnataka,Mysuru,"Hebbal 1st Stage, Mysuru - KSPCB",31-10-2025 07:00:00,12.21041,76.37376,NH3,3,8,5
India,Karnataka,Mysuru,"Hebbal 1st Stage, Mysuru - KSPCB",31-10-2025 07:00:00,12.21041,76.37376,SO2,NA,NA,NA
India,Karnataka,Mysuru,"Hebbal 1st Stage, Mysuru - KSPCB",31-10-2025 07:00:00,12.21041,76.37376,CO,6,29,11
India,Karnataka,Shivamogga,"Vinoba Nagara, Shivamogga - KSPCB",31-10-2025 07:00:00,13.940000,75.555917,PM10,30,51,46
India,Karnataka,Tumakuru,"Thimmalapura, Tumakuru - KSPCB",31-10-2025 07:00:00,13.377516,77.099072,PM10,NA,NA,NA
India,Karnataka,Tumakuru,"Thimmalapura, Tumakuru - KSPCB",31-10-2025 07:00:00,13.377516,77.099072,NO2,31,32,32
India,Karnataka,Udupi,"Brahmagiri, Udupi - KSPCB",31-10-2025 07:00:00,13.34194444,74.74694444,PM2.5,4,20,13
India,Karnataka,Bengaluru,"Silk Board, Bengaluru - KSPCB",31-10-2025 07:00:00,12.917348,77.622813,NH3,1,2,2
India,Karnataka,Bengaluru,"Silk Board, Bengaluru - KSPCB",31-10-2025 07:00:00,12.917348,77.622813,OZONE,15,16,16
India,Karnataka,Chamarajanagar,"Urban, Chamarajanagar - KSPCB",31-10-2025 07:00:00,11.55358,76.55521,PM10,24,50,37
India,Karnataka,Chamarajanagar,"Urban, Chamarajanagar - KSPCB",31-10-2025 07:00:00,11.55358,76.55521,SO2,3,8,5
India,Karnataka,Chamarajanagar,"Urban, Chamarajanagar - KSPCB",31-10-2025 07:00:00,11.55358,76.55521,OZONE,11,38,17
India,Karnataka,Chikkamagaluru,"Kalyana Nagara, Chikkamagaluru - KSPCB",31-10-2025 07:00:00,13.328028,75.797056,CO,11,14,11
India,Karnataka,Dharwad,"Kalabhavan, Dharwad - KSPCB",31-10-2025 07:00:00,15.459706,75.008381,OZONE,19,26,19
India,Kerala,Thiruvananthapuram,"Kariavattom, Thiruvananthapuram - Kerala PCB",31-10-2025 07:00:00,8.563700,76.886500,PM2.5,27,31,29
India,Kerala,Thiruvananthapuram,"Kariavattom, Thiruvananthapuram - Kerala PCB",31-10-2025 07:00:00,8.563700,76.886500,SO2,4,5,4
India,Kerala,Thiruvananthapuram,"Plammoodu, Thiruvananthapuram - Kerala PCB",31-10-2025 07:00:00,8.5149093,76.9435879,PM2.5,12,31,20
India,Kerala,Thiruvananthapuram,"Plammoodu, Thiruvananthapuram - Kerala PCB",31-10-2025 07:00:00,8.5149093,76.9435879,NO2,35,79,56
India,Kerala,Thrissur,"Corporation Ground, Thrissur - Kerala PCB",31-10-2025 07:00:00,10.532400,76.215900,SO2,1,1,1
India,Madhya Pradesh,Bhopal,"Idgah Hills, Bhopal - MPPCB",31-10-2025 07:00:00,23.264759,77.381568,OZONE,14,25,23
India,Karnataka,Kalaburagi,"Lal Bahadur Shastri Nagar, Kalaburagi - KSPCB",31-10-2025 07:00:00,17.321993,76.822628,SO2,64,65,64
India,Karnataka,Kalaburagi,"Mahatma Basaveswar Colony, Kalaburgi - KSPCB",31-10-2025 07:00:00,17.336318,76.847397,NH3,3,3,3
India,Karnataka,Koppal,"Diwator Nagar, Koppal - KSPCB",31-10-2025 07:00:00,15.347630,76.181767,SO2,NA,NA,NA
India,Karnataka,Koppal,"Diwator Nagar, Koppal - KSPCB",31-10-2025 07:00:00,15.347630,76.181767,CO,33,50,45
India,Karnataka,Madikeri,"Stuart Hill, Madikeri - KSPCB",31-10-2025 07:00:00,12.415911,75.735050,PM2.5,31,65,43
India,Karnataka,Madikeri,"Stuart Hill, Madikeri - KSPCB",31-10-2025 07:00:00,12.415911,75.735050,OZONE,3,6,4
India,Karnataka,Vijayapura,"Ibrahimpur, Vijayapura - KSPCB",31-10-2025 07:00:00,16.802639,75.722694,OZONE,14,17,16
India,Kerala,Eloor,"Udyogamandal, Eloor - Kerala PCB",31-10-2025 07:00:00,10.073232,76.302765,NO2,7,8,7
India,Kerala,Eloor,"Udyogamandal, Eloor - Kerala PCB",31-10-2025 07:00:00,10.073232,76.302765,CO,34,116,57
India,Kerala,Eloor,"Udyogamandal, Eloor - Kerala PCB",31-10-2025 07:00:00,10.073232,76.302765,OZONE,10,12,11
India,Kerala,Kannur,"Thavakkara, Kannur - Kerala PCB",31-10-2025 07:00:00,11.875000,75.373200,SO2,5,6,6
India,Kerala,Kannur,"Thavakkara, Kannur - Kerala PCB",31-10-2025 07:00:00,11.875000,75.373200,CO,14,16,15
India,Karnataka,Gadag,"Panchal Nagar, Gadag - KSPCB",31-10-2025 07:00:00,15.411456,75.638133,NH3,NA,NA,NA
India,Karnataka,Hassan,"B.Katihalli, Hassan - KSPCB",31-10-2025 07:00:00,13.008556,76.125258,NO2,6,31,14
India,Karnataka,Haveri,"Ashwini Nagar, Haveri - KSPCB",31-10-2025 07:00:00,14.791800,75.389600,OZONE,14,14,14
India,Karnataka,Hubballi,"Lingaraj Nagar, Hubballi - KSPCB",31-10-2025 07:00:00,15.3714823,75.1160168,PM2.5,33,49,42
India,Karnataka,Hubballi,"Lingaraj Nagar, Hubballi - KSPCB",31-10-2025 07:00:00,15.3714823,75.1160168,NO2,7,11,10
India,Madhya Pradesh,Bhopal,"Paryavaran Parisar, Bhopal - MPPCB",31-10-2025 07:00:00,23.210494,77.425409,NH3,3,5,4
India,Madhya Pradesh,Bhopal,"T T Nagar, Bhopal - MPPCB",31-10-2025 07:00:00,23.233584,77.400574,NO2,19,30,24
India,Madhya Pradesh,Gwalior,"City Center, Gwalior - MPPCB",31-10-2025 07:00:00,26.203442,78.193251,NH3,1,2,1
India,Karnataka,Bengaluru,"Kasturi Nagar, Bengaluru - KSPCB",31-10-2025 07:00:00,13.003872,77.664217,OZONE,21,28,27
India,Madhya Pradesh,Jabalpur,"Gupteshwar, Jabalpur - JMC",31-10-2025 07:00:00,23.142888,79.916147,NH3,8,13,9
India,Madhya Pradesh,Jabalpur,"Suhagi, Jabalpur - JMC",31-10-2025 07:00:00,23.218135,79.957770,PM2.5,NA,NA,NA
India,Madhya Pradesh,Jabalpur,"Suhagi, Jabalpur - JMC",31-10-2025 07:00:00,23.218135,79.957770,PM10,5,63,27
India,Madhya Pradesh,Katni,"Gole Bazar, Katni - MPPCB",31-10-2025 07:00:00,23.50016,80.23284,NO2,7,48,25
India,Madhya Pradesh,Maihar,"Sahilara, Maihar - KJS Cements",31-10-2025 07:00:00,24.2613009,80.7231783,NO2,31,43,38
India,Madhya Pradesh,Mandideep,"Sector-D Industrial Area, Mandideep - MPPCB",31-10-2025 07:00:00,23.108440,77.511428,PM2.5,20,98,63
India,Maharashtra,Chandrapur,"MIDC Khutala, Chandrapur - MPCB",31-10-2025 07:00:00,19.9775302,79.2337086,NH3,1,4,3
India,Maharashtra,Chandrapur,"MIDC Khutala, Chandrapur - MPCB",31-10-2025 07:00:00,19.9775302,79.2337086,SO2,8,9,9
India,Maharashtra,Chandrapur,"MIDC Khutala, Chandrapur - MPCB",31-10-2025 07:00:00,19.9775302,79.2337086,OZONE,17,19,18
India,Maharashtra,Dhule,"Deopur, Dhule - MPCB",31-10-2025 07:00:00,20.918946,74.776388,CO,2,24,18
India,Maharashtra,Jalgaon,"Prabhat Colony, Jalgaon - MPCB",31-10-2025 07:00:00,21.001264,75.565602,PM2.5,3,134,78
India,Maharashtra,Jalgaon,"Prabhat Colony, Jalgaon - MPCB",31-10-2025 07:00:00,21.001264,75.565602,CO,22,33,27
India,Maharashtra,Jalna,"Old MIDC, Jalna - MPCB",31-10-2025 07:00:00,19.854616,75.905894,SO2,9,12,10
India,Maharashtra,Belapur,"CBD Belapur, Belapur - MPCB",31-10-2025 07:00:00,19.0243902,73.0406721,OZONE,9,41,22
India,Maharashtra,Bhiwandi,"Gokul Nagar, Bhiwandi - MPCB",31-10-2025 07:00:00,19.309073,73.057223,PM2.5,30,76,49
India,Maharashtra,Bhiwandi,"Gokul Nagar, Bhiwandi - MPCB",31-10-2025 07:00:00,19.309073,73.057223,NO2,11,23,17
India,Maharashtra,Bhiwandi,"Gokul Nagar, Bhiwandi - MPCB",31-10-2025 07:00:00,19.309073,73.057223,SO2,6,17,12
India,Maharashtra,Chandrapur,"Chauhan Colony, Chandrapur - MPCB",31-10-2025 07:00:00,19.962900,79.298714,PM10,11,28,19
India,Maharashtra,Chandrapur,"Chauhan Colony, Chandrapur - MPCB",31-10-2025 07:00:00,19.962900,79.298714,SO2,29,29,29
India,Maharashtra,Chandrapur,"Chauhan Colony, Chandrapur - MPCB",31-10-2025 07:00:00,19.962900,79.298714,CO,15,24,21
India,Madhya Pradesh,Indore,"Chhoti Gwaltoli, Indore - MPPCB",31-10-2025 07:00:00,22.4310,75.5213,OZONE,14,27,25
India,Madhya Pradesh,Indore,"Maguda Nagar, Indore - IMC",31-10-2025 07:00:00,22.7524,75.8872,CO,22,26,23
India,Madhya Pradesh,Indore,"Residency Area, Indore - IMC",31-10-2025 07:00:00,22.7084,75.8815,PM10,7,40,23
India,Madhya Pradesh,Jabalpur,"Govindh Bhavan Colony, Jabalpur - JMC",31-10-2025 07:00:00,23.163174,79.973061,PM10,5,21,12
India,Madhya Pradesh,Jabalpur,"Govindh Bhavan Colony, Jabalpur - JMC",31-10-2025 07:00:00,23.163174,79.973061,CO,32,60,40
India,Madhya Pradesh,Jabalpur,"Govindh Bhavan Colony, Jabalpur - JMC",31-10-2025 07:00:00,23.163174,79.973061,OZONE,4,14,8
India,Maharashtra,Ahmednagar,"Tarakpur, Ahmednagar - MPCB",31-10-2025 07:00:00,19.10122,74.73339,NH3,5,7,6
India,Maharashtra,Amravati,"Shivneri Colony, Amravati - MPCB",31-10-2025 07:00:00,20.9402359,77.7895248,PM2.5,14,38,26
India,Maharashtra,Amravati,"Shivneri Colony, Amravati - MPCB",31-10-2025 07:00:00,20.9402359,77.7895248,OZONE,2,35,18
India,Maharashtra,Amravati,"Shri Shivaji Science College, Amravati - MPCB",31-10-2025 07:00:00,20.939198,77.765701,PM2.5,12,45,26
India,Maharashtra,Kalyan,"Khadakpada, Kalyan - MPCB",31-10-2025 07:00:00,19.25292,73.142019,CO,NA,NA,NA
India,Maharashtra,Kalyan,"Pimpleshwar Mandir, Kalyan - MPCB",31-10-2025 07:00:00,19.192056,72.9585188,NO2,8,17,13
India,Maharashtra,Kalyan,"Pimpleshwar Mandir, Kalyan - MPCB",31-10-2025 07:00:00,19.192056,72.9585188,NH3,2,5,4
India,Maharashtra,Kolhapur,"Sinchan Bhavan, Kolhapur - MPCB",31-10-2025 07:00:00,16.7143745,74.2426398,NO2,5,23,15
India,Maharashtra,Mahad,"Kamble Tarf Birwadi, Mahad - MPCB",31-10-2025 07:00:00,18.1023399,73.4783687,PM2.5,45,56,51
India,Maharashtra,Mahad,"Kamble Tarf Birwadi, Mahad - MPCB",31-10-2025 07:00:00,18.1023399,73.4783687,PM10,48,255,102
India,Maharashtra,Mira-Bhayandar,"Bhayandar West, Mira-Bhayandar - MPCB",31-10-2025 07:00:00,19.296481,72.840923,PM2.5,18,55,33
India,Madhya Pradesh,Pithampur,"Sector-2 Industrial Area, Pithampur - MPPCB",31-10-2025 07:00:00,22.624758,75.675238,OZONE,5,29,16
India,Madhya Pradesh,Ratlam,"Shasthri Nagar, Ratlam - IPCA Lab",31-10-2025 07:00:00,23.331731,75.045981,NO2,35,36,36
India,Madhya Pradesh,Ratlam,"Shasthri Nagar, Ratlam - IPCA Lab",31-10-2025 07:00:00,23.331731,75.045981,SO2,25,28,26
India,Maharashtra,Aurangabad,"MIDC Chilkalthana, Aurangabad - MPCB",31-10-2025 07:00:00,19.875620,75.387310,OZONE,2,54,22
India,Maharashtra,Aurangabad,"Rachnakar Colony, Aurangabad - MPCB",31-10-2025 07:00:00,19.863756,75.321188,NO2,19,26,23
India,Maharashtra,Aurangabad,"Rachnakar Colony, Aurangabad - MPCB",31-10-2025 07:00:00,19.863756,75.321188,CO,14,40,20
India,Maharashtra,Mumbai,"Vile Parle West, Mumbai - MPCB",31-10-2025 07:00:00,19.10861,72.83622,OZONE,11,27,26
India,Maharashtra,Mumbai,"Worli, Mumbai - MPCB",31-10-2025 07:00:00,18.9936162,72.8128113,NO2,NA,NA,NA
India,Maharashtra,Nagpur,"Ambazari, Nagpur - MPCB",31-10-2025 07:00:00,21.121801,79.04952,NO2,4,24,13
India,Maharashtra,Nagpur,"Ambazari, Nagpur - MPCB",31-10-2025 07:00:00,21.121801,79.04952,NH3,2,7,4
India,Maharashtra,Nagpur,"Mahal, Nagpur - MPCB",31-10-2025 07:00:00,21.14472,79.107595,NH3,2,3,3
India,Maharashtra,Nagpur,"Mahal, Nagpur - MPCB",31-10-2025 07:00:00,21.14472,79.107595,SO2,7,31,18
India,Maharashtra,Nagpur,"Mahal, Nagpur - MPCB",31-10-2025 07:00:00,21.14472,79.107595,OZONE,1,10,2
India,Maharashtra,Nagpur,"Opp GPO Civil Lines, Nagpur - MPCB",31-10-2025 07:00:00,21.152875,79.0517531,PM10,11,41,24
India,Maharashtra,Nagpur,"Opp GPO Civil Lines, Nagpur - MPCB",31-10-2025 07:00:00,21.152875,79.0517531,OZONE,2,11,2
India,Maharashtra,Nashik,"MIDC Ambad, Nashik - MPCB",31-10-2025 07:00:00,19.950220,73.731480,NO2,7,17,11
India,Maharashtra,Nashik,"Pandav Nagari, Nashik - MPCB",31-10-2025 07:00:00,19.9591346,73.7788008,CO,14,22,16
India,Maharashtra,Navi Mumbai,"Kopripada-Vashi, Navi Mumbai - MPCB",31-10-2025 07:00:00,19.090337,73.014232,SO2,4,7,5
India,Maharashtra,Navi Mumbai,"Kopripada-Vashi, Navi Mumbai - MPCB",31-10-2025 07:00:00,19.090337,73.014232,OZONE,2,32,17
India,Maharashtra,Navi Mumbai,"Mahape, Navi Mumbai - MPCB",31-10-2025 07:00:00,19.1135051,73.008978,NH3,3,3,3
India,Maharashtra,Navi Mumbai,"Mahape, Navi Mumbai - MPCB",31-10-2025 07:00:00,19.1135051,73.008978,CO,13,24,16
India,Maharashtra,Navi Mumbai,"Mahape, Navi Mumbai - MPCB",31-10-2025 07:00:00,19.1135051,73.008978,OZONE,7,14,10
India,Maharashtra,Navi Mumbai,"Nerul, Navi Mumbai - MPCB",31-10-2025 07:00:00,19.008751,73.016620,NH3,4,4,4
India,Maharashtra,Mumbai,"Powai, Mumbai - MPCB",31-10-2025 07:00:00,19.137500,72.915056,OZONE,9,9,9
India,Maharashtra,Mumbai,"Shivaji Nagar, Mumbai - BMC",31-10-2025 07:00:00,19.060498,72.923356,PM2.5,15,85,52
India,Maharashtra,Mumbai,"Shivaji Nagar, Mumbai - BMC",31-10-2025 07:00:00,19.060498,72.923356,SO2,11,15,13
India,Maharashtra,Mumbai,"Siddharth Nagar-Worli, Mumbai - IITM",31-10-2025 07:00:00,19.000083,72.813993,PM2.5,26,49,40
India,Maharashtra,Mumbai,"Siddharth Nagar-Worli, Mumbai - IITM",31-10-2025 07:00:00,19.000083,72.813993,OZONE,4,42,15
India,Maharashtra,Mumbai,"Sion, Mumbai - MPCB",31-10-2025 07:00:00,19.047000,72.874600,OZONE,12,16,14
India,Maharashtra,Mumbai,"Vile Parle West, Mumbai - MPCB",31-10-2025 07:00:00,19.10861,72.83622,PM10,49,113,86
India,Maharashtra,Mumbai,"Mindspace-Malad West, Mumbai - MPCB",31-10-2025 07:00:00,19.1878657,72.8304069,NO2,14,51,29
India,Maharashtra,Mumbai,"Mulund West, Mumbai - MPCB",31-10-2025 07:00:00,19.1750,72.9419,NO2,13,15,14
India,Maharashtra,Mumbai,"Navy Nagar-Colaba, Mumbai - IITM",31-10-2025 07:00:00,18.897756,72.813320,PM2.5,26,83,59
India,Maharashtra,Mumbai,"Navy Nagar-Colaba, Mumbai - IITM",31-10-2025 07:00:00,18.897756,72.813320,NH3,1,1,1
India,Maharashtra,Mumbai,"Navy Nagar-Colaba, Mumbai - IITM",31-10-2025 07:00:00,18.897756,72.813320,SO2,4,13,7
India,Maharashtra,Mumbai,"Navy Nagar-Colaba, Mumbai - IITM",31-10-2025 07:00:00,18.897756,72.813320,CO,8,42,10
India,Maharashtra,Mumbai,"Powai, Mumbai - MPCB",31-10-2025 07:00:00,19.137500,72.915056,NO2,7,8,8
India,Maharashtra,Mumbai,"Powai, Mumbai - MPCB",31-10-2025 07:00:00,19.137500,72.915056,NH3,1,2,2
India,Maharashtra,Nanded,"Sneh Nagar, Nanded - MPCB",31-10-2025 07:00:00,19.173852,77.296291,PM2.5,36,71,49
India,Maharashtra,Nanded,"Sneh Nagar, Nanded - MPCB",31-10-2025 07:00:00,19.173852,77.296291,PM10,36,60,50
India,Maharashtra,Nanded,"Sneh Nagar, Nanded - MPCB",31-10-2025 07:00:00,19.173852,77.296291,NO2,7,26,12
India,Maharashtra,Nanded,"Sneh Nagar, Nanded - MPCB",31-10-2025 07:00:00,19.173852,77.296291,SO2,4,5,5
India,Maharashtra,Nashik,"Gangapur Road, Nashik - MPCB",31-10-2025 07:00:00,20.0073285,73.7762427,NH3,4,4,4
India,Maharashtra,Nashik,"Hirawadi, Nashik - MPCB",31-10-2025 07:00:00,20.021503,73.813844,SO2,1,22,6
India,Maharashtra,Mumbai,"Kherwadi_Bandra East, Mumbai - MPCB",31-10-2025 07:00:00,19.0632143,72.8456324,CO,20,32,26
India,Maharashtra,Mumbai,"Khindipada-Bhandup West, Mumbai - IITM",31-10-2025 07:00:00,19.1653323,72.922099,CO,27,49,37
India,Maharashtra,Mumbai,"Malad West, Mumbai - IITM",31-10-2025 07:00:00,19.19709,72.82204,NH3,4,7,5
India,Maharashtra,Mumbai,"Mazgaon, Mumbai - IITM",31-10-2025 07:00:00,18.96702,72.84214,PM10,23,63,44
India,Maharashtra,Mumbai,"Deonar, Mumbai - IITM",31-10-2025 07:00:00,19.04946,72.9230,OZONE,NA,NA,NA
India,Maharashtra,Mumbai,"Ghatkopar, Mumbai - BMC",31-10-2025 07:00:00,19.083694,72.920967,PM10,24,90,61
India,Maharashtra,Mumbai,"Ghatkopar, Mumbai - BMC",31-10-2025 07:00:00,19.083694,72.920967,SO2,2,5,4
India,Maharashtra,Mumbai,"Kandivali East, Mumbai - MPCB",31-10-2025 07:00:00,19.205800,72.868200,PM10,29,97,56
India,Maharashtra,Mumbai,"Kandivali East, Mumbai - MPCB",31-10-2025 07:00:00,19.205800,72.868200,SO2,NA,NA,NA
India,Maharashtra,Mumbai,"Byculla, Mumbai - BMC",31-10-2025 07:00:00,18.9767,72.8380,CO,2,24,15
India,Maharashtra,Mumbai,"Chembur, Mumbai - MPCB",31-10-2025 07:00:00,19.0364585,72.8954371,PM2.5,NA,NA,NA
India,Maharashtra,Mumbai,"Chembur, Mumbai - MPCB",31-10-2025 07:00:00,19.0364585,72.8954371,NO2,10,53,24
India,Maharashtra,Mumbai,"Colaba, Mumbai - MPCB",31-10-2025 07:00:00,18.910000,72.820000,NH3,3,3,3
India,Maharashtra,Mumbai,"Borivali East, Mumbai - IITM",31-10-2025 07:00:00,19.23241,72.86895,NO2,34,104,60
India,Maharashtra,Mumbai,"Borivali East, Mumbai - IITM",31-10-2025 07:00:00,19.23241,72.86895,OZONE,20,68,40
India,Maharashtra,Pune,"Transport Nagar-Nigdi, Pune - IITM",31-10-2025 07:00:00,18.664282,73.763966,CO,52,80,68
India,Maharashtra,Sangli,"Vijay Nagar, Sangli - MPCB",31-10-2025 07:00:00, 16.5038,74.3623,NH3,1,4,4
India,Maharashtra,Solapur,"Dnyaneshwar Nagar, Solapur - MPCB",31-10-2025 07:00:00,17.6336264,75.9132495,NH3,5,11,8
India,Maharashtra,Solapur,"Dnyaneshwar Nagar, Solapur - MPCB",31-10-2025 07:00:00,17.6336264,75.9132495,CO,10,19,11
India,Maharashtra,Solapur,"Ratandeep Housing Society, Solapur - MPCB",31-10-2025 07:00:00,17.65439,75.90649,PM10,32,60,47
India,Maharashtra,Solapur,"Ratandeep Housing Society, Solapur - MPCB",31-10-2025 07:00:00,17.65439,75.90649,OZONE,11,57,28
India,Maharashtra,Thane,"Kasarvadavali, Thane - MPCB",31-10-2025 07:00:00,19.26777,72.97182,PM10,32,93,66
India,Maharashtra,Thane,"Kasarvadavali, Thane - MPCB",31-10-2025 07:00:00,19.26777,72.97182,SO2,3,6,4
India,Maharashtra,Thane,"Kasarvadavali, Thane - MPCB",31-10-2025 07:00:00,19.26777,72.97182,CO,16,42,26
India,Maharashtra,Thane,"Kasarvadavali, Thane - MPCB",31-10-2025 07:00:00,19.26777,72.97182,OZONE,12,61,21
India,Maharashtra,Navi Mumbai,"Sector-2E Kalamboli, Navi Mumbai - MPCB",31-10-2025 07:00:00,19.02579,73.10297,PM10,13,103,58
India,Maharashtra,Navi Mumbai,"Tondare-Taloja, Navi Mumbai - MPCB",31-10-2025 07:00:00,19.0630,73.1209,NH3,4,8,5
India,Maharashtra,Navi Mumbai,"Tondare-Taloja, Navi Mumbai - MPCB",31-10-2025 07:00:00,19.0630,73.1209,OZONE,18,23,20
India,Maharashtra,Parbhani,"Masoom Colony, Parbhani - MPCB",31-10-2025 07:00:00,19.265594,76.761463,PM2.5,4,464,58
India,Maharashtra,Parbhani,"Masoom Colony, Parbhani - MPCB",31-10-2025 07:00:00,19.265594,76.761463,SO2,1,17,8
India,Maharashtra,Parbhani,"Masoom Colony, Parbhani - MPCB",31-10-2025 07:00:00,19.265594,76.761463,OZONE,20,27,25
India,Maharashtra,Pimpri-Chinchwad,"Gavalinagar, Pimpri Chinchwad - MPCB",31-10-2025 07:00:00,18.63673,73.82487,NO2,9,46,28
India,Maharashtra,Pimpri-Chinchwad,"Gavalinagar, Pimpri Chinchwad - MPCB",31-10-2025 07:00:00,18.63673,73.82487,NH3,3,8,4
India,Maharashtra,Pimpri-Chinchwad,"Gavalinagar, Pimpri Chinchwad - MPCB",31-10-2025 07:00:00,18.63673,73.82487,CO,8,33,26
India,Maharashtra,Pimpri-Chinchwad,"Park Street Wakad, Pimpri Chinchwad - MPCB",31-10-2025 07:00:00,18.59051,73.77946,CO,NA,NA,NA
India,Maharashtra,Pimpri-Chinchwad,"Savta Mali Nagar, Pimpri-Chinchwad - IITM",31-10-2025 07:00:00,18.614767,73.799516,CO,56,92,77
India,Maharashtra,Pimpri-Chinchwad,"Thergaon, Pimpri Chinchwad - MPCB",31-10-2025 07:00:00,18.616318,73.765797,PM2.5,34,81,60
India,Maharashtra,Pimpri-Chinchwad,"Thergaon, Pimpri Chinchwad - MPCB",31-10-2025 07:00:00,18.616318,73.765797,NH3,5,6,5
India,Maharashtra,Pimpri-Chinchwad,"Thergaon, Pimpri Chinchwad - MPCB",31-10-2025 07:00:00,18.616318,73.765797,CO,17,104,28
India,Maharashtra,Pune,"Bhumkar Nagar, Pune - IITM",31-10-2025 07:00:00,18.605770,73.749976,NO2,11,20,16
India,Maharashtra,Pune,"Bhumkar Nagar, Pune - IITM",31-10-2025 07:00:00,18.605770,73.749976,OZONE,1,29,2
India,Maharashtra,Pune,"Hadapsar, Pune - IITM",31-10-2025 07:00:00,18.501793,73.927532,NO2,13,39,21
India,Maharashtra,Thane,"Upvan Fort, Thane - MPCB",31-10-2025 07:00:00,19.222279,72.957979,SO2,3,5,4
India,Maharashtra,Ulhasnagar,"Sidhi Vinayak Nagar, Ulhasnagar - MPCB",31-10-2025 07:00:00,19.235581,73.159121,PM10,26,126,77
India,Maharashtra,Virar,"Bolinj, Virar - MPCB",31-10-2025 07:00:00,19.4458210,72.7988231,PM10,27,89,61
India,Maharashtra,Virar,"Bolinj, Virar - MPCB",31-10-2025 07:00:00,19.4458210,72.7988231,OZONE,21,49,24
India,Meghalaya,Shillong,"JN Stadium, Shillong - Meghalaya PCB",31-10-2025 07:00:00,25.5803419,91.8942571,PM10,4,200,37
India,Meghalaya,Shillong,"Lumpyngngad, Shillong - Meghalaya PCB",31-10-2025 07:00:00,25.5586,91.8985,PM10,3,28,13
India,Nagaland,Kohima,"PWD Junction, Kohima - NPCB",31-10-2025 07:00:00,25.6635413,94.0989878,CO,6,20,9
India,Odisha,Angul,"Hakimapada, Angul - OSPCB",31-10-2025 07:00:00,20.832874,85.104082,CO,34,95,61
India,Odisha,Balasore,"Kalidaspur, Balasore - OSPCB",31-10-2025 07:00:00,21.51161,86.89088,NO2,4,39,16
India,Odisha,Balasore,"Kalidaspur, Balasore - OSPCB",31-10-2025 07:00:00,21.51161,86.89088,OZONE,40,84,56
India,Odisha,Barbil,"Forest Office, Barbil - OSPCB",31-10-2025 07:00:00,22.1166054,85.3945546,OZONE,11,30,13
India,Odisha,Baripada,"Meher Colony, Baripada - OSPCB",31-10-2025 07:00:00,21.941841,86.728318,NO2,NA,NA,NA
India,Odisha,Baripada,"Meher Colony, Baripada - OSPCB",31-10-2025 07:00:00,21.941841,86.728318,SO2,NA,NA,NA
India,Odisha,Bhubaneswar,"Lingraj Mandir, Bhubaneswar - OSPCB",31-10-2025 07:00:00,20.240790,85.836784,PM10,42,74,55
India,Odisha,Bhubaneswar,"Lingraj Mandir, Bhubaneswar - OSPCB",31-10-2025 07:00:00,20.240790,85.836784,NO2,7,48,20
India,Odisha,Bhubaneswar,"Lingraj Mandir, Bhubaneswar - OSPCB",31-10-2025 07:00:00,20.240790,85.836784,CO,27,74,40
India,Odisha,Bhubaneswar,"Patia, Bhubaneswar - OSPCB",31-10-2025 07:00:00,20.34652,85.81630,PM2.5,12,73,28
India,Odisha,Bhubaneswar,"Patia, Bhubaneswar - OSPCB",31-10-2025 07:00:00,20.34652,85.81630,SO2,4,7,5
India,Odisha,Byasanagar,"Ferro Chrome Colony, Byasanagar - OSPCB",31-10-2025 07:00:00,20.94185,86.11510,CO,13,44,23
India,Odisha,Nayagarh,"Dabuna, Nayagarh - OSPCB",31-10-2025 07:00:00,21.847279,85.416905,PM2.5,11,12,12
India,Odisha,Rairangpur,"Divisional Forest Office, Rairangpur - OSPCB",31-10-2025 07:00:00,22.265816,86.174829,SO2,7,9,8
India,Odisha,Rourkela,"Fertilizer Township, Rourkela - OSPCB",31-10-2025 07:00:00,22.18972222,84.86277778,PM2.5,72,96,79
India,Odisha,Rourkela,"Fertilizer Township, Rourkela - OSPCB",31-10-2025 07:00:00,22.18972222,84.86277778,SO2,7,11,9
India,Odisha,Rourkela,"Raghunathpali, Rourkela - OSPCB",31-10-2025 07:00:00,22.220833,84.809444,CO,7,32,16
India,Odisha,Talcher,"Talcher Coalfields,Talcher - OSPCB",31-10-2025 07:00:00,20.9360711,85.1707021,PM2.5,NA,NA,NA
India,Odisha,Talcher,"Talcher Coalfields,Talcher - OSPCB",31-10-2025 07:00:00,20.9360711,85.1707021,PM10,1,56,22
India,Odisha,Tensa,"Barsua Iron Ore Mines, Tensa - OSPCB",31-10-2025 07:00:00,21.869985,85.167016,NO2,NA,NA,NA
India,Maharashtra,Pune,"Mhada Colony, Pune - IITM",31-10-2025 07:00:00,18.573040,73.927715,PM10,48,101,75
India,Maharashtra,Pune,"Mhada Colony, Pune - IITM",31-10-2025 07:00:00,18.573040,73.927715,OZONE,16,52,18
India,Maharashtra,Pune,"Revenue Colony-Shivajinagar, Pune - IITM",31-10-2025 07:00:00,18.530085,73.849598,PM2.5,27,84,57
India,Maharashtra,Pune,"Revenue Colony-Shivajinagar, Pune - IITM",31-10-2025 07:00:00,18.530085,73.849598,CO,4,80,48
India,Rajasthan,Chittorgarh,"Shastri Nagar, Chittorgarh - RSPCB",31-10-2025 07:00:00,24.892047,74.623527,CO,18,58,30
India,Rajasthan,Churu,"Subash Chowk, Churu - RSPCB",31-10-2025 07:00:00,28.296139,74.961696,NH3,NA,NA,NA
India,Rajasthan,Churu,"Subash Chowk, Churu - RSPCB",31-10-2025 07:00:00,28.296139,74.961696,CO,1,60,20
India,Rajasthan,Dausa,"Khatikan Mohalla, Dausa - RSPCB",31-10-2025 07:00:00,26.895552,76.334753,PM2.5,88,354,223
India,Rajasthan,Dausa,"Khatikan Mohalla, Dausa - RSPCB",31-10-2025 07:00:00,26.895552,76.334753,PM10,94,243,147
India,Rajasthan,Dausa,"Khatikan Mohalla, Dausa - RSPCB",31-10-2025 07:00:00,26.895552,76.334753,SO2,1,4,2
India,Rajasthan,Dholpur,"Raja Ganj, Dholpur - RSPCB",31-10-2025 07:00:00,26.699557,77.898881,PM10,16,108,44
India,Rajasthan,Dholpur,"Raja Ganj, Dholpur - RSPCB",31-10-2025 07:00:00,26.699557,77.898881,NO2,11,25,15
India,Rajasthan,Dholpur,"Raja Ganj, Dholpur - RSPCB",31-10-2025 07:00:00,26.699557,77.898881,NH3,7,11,9
India,Rajasthan,Jaipur,"Police Commissionerate, Jaipur - RSPCB",31-10-2025 07:00:00,26.9164092,75.7994901,SO2,5,7,6
India,Rajasthan,Jaipur,"RIICO Sitapura, Jaipur - RSPCB",31-10-2025 07:00:00,26.786682,75.827928,NO2,18,79,35
India,Rajasthan,Jaipur,"RIICO Sitapura, Jaipur - RSPCB",31-10-2025 07:00:00,26.786682,75.827928,CO,20,78,31
India,Rajasthan,Jaipur,"Sector-2 Murlipura, Jaipur - RSPCB",31-10-2025 07:00:00,26.960669,75.771817,OZONE,8,52,18
India,Rajasthan,Jaipur,"Shastri Nagar, Jaipur - RSPCB",31-10-2025 07:00:00,26.9502929,75.730943,CO,51,144,99
India,Rajasthan,Jaisalmer,"Sadar Bazar, Jaisalmer - RSPCB",31-10-2025 07:00:00,26.912329,70.909168,NO2,7,34,16
India,Rajasthan,Jalore,"Mudtra Sili, Jalore - RSPCB",31-10-2025 07:00:00,25.344694,72.626208,NO2,9,37,18
India,Punjab,Bathinda,"Hardev Nagar, Bathinda - PPCB",31-10-2025 07:00:00,30.233011,74.907758,PM10,43,202,134
India,Punjab,Bathinda,"Hardev Nagar, Bathinda - PPCB",31-10-2025 07:00:00,30.233011,74.907758,NO2,22,82,36
India,Punjab,Bathinda,"Hardev Nagar, Bathinda - PPCB",31-10-2025 07:00:00,30.233011,74.907758,SO2,1,11,4
India,Punjab,Jalandhar,"Civil Line, Jalandhar - PPCB",31-10-2025 07:00:00,31.321907,75.578914,PM10,97,205,133
India,Punjab,Jalandhar,"Civil Line, Jalandhar - PPCB",31-10-2025 07:00:00,31.321907,75.578914,SO2,15,17,15
India,Punjab,Jalandhar,"Civil Line, Jalandhar - PPCB",31-10-2025 07:00:00,31.321907,75.578914,OZONE,44,50,46
India,Punjab,Khanna,"Kalal Majra, Khanna - PPCB",31-10-2025 07:00:00,30.736056 ,76.209694,CO,10,54,34
India,Punjab,Mandi Gobindgarh,"RIMT University, Mandi Gobindgarh - PPCB",31-10-2025 07:00:00,30.649961,76.331442,NO2,23,24,24
India,Rajasthan,Jhalawar,"Rajlaxmi Nagar, Jhalawar - RSPCB",31-10-2025 07:00:00,24.588397,76.172782,OZONE,39,53,48
India,Rajasthan,Jhunjhunu,"Indra Nagar, Jhunjhunu - RSPCB",31-10-2025 07:00:00,28.108988,75.386577,PM2.5,74,321,202
India,Rajasthan,Jhunjhunu,"Indra Nagar, Jhunjhunu - RSPCB",31-10-2025 07:00:00,28.108988,75.386577,NO2,18,94,38
India,Rajasthan,Jhunjhunu,"Indra Nagar, Jhunjhunu - RSPCB",31-10-2025 07:00:00,28.108988,75.386577,CO,33,76,34
India,Rajasthan,Jodhpur,"Collectorate, Jodhpur - RSPCB",31-10-2025 07:00:00,26.268249,73.0193853,PM2.5,34,218,85
India,Rajasthan,Jodhpur,"Digari Kalan, Jodhpur - RSPCB",31-10-2025 07:00:00,26.295810,73.082283,PM2.5,52,240,97
India,Rajasthan,Jodhpur,"Digari Kalan, Jodhpur - RSPCB",31-10-2025 07:00:00,26.295810,73.082283,NO2,10,29,17
India,Rajasthan,Jodhpur,"Digari Kalan, Jodhpur - RSPCB",31-10-2025 07:00:00,26.295810,73.082283,NH3,5,61,15
India,Rajasthan,Dungarpur,"Bhoiwada, Dungarpur - RSPCB",31-10-2025 07:00:00,23.837789,73.714926,PM2.5,3,83,47
India,Rajasthan,Hanumangarh,"Housing Board, Hanumangarh - RSPCB",31-10-2025 07:00:00,29.610750,74.283608,NO2,16,50,27
India,Rajasthan,Hanumangarh,"Housing Board, Hanumangarh - RSPCB",31-10-2025 07:00:00,29.610750,74.283608,CO,102,114,109
India,Rajasthan,Jaipur,"Adarsh Nagar, Jaipur - RSPCB",31-10-2025 07:00:00,26.902909,75.836858,NO2,19,48,28
India,Rajasthan,Jaipur,"Mansarovar Sector-12, Jaipur - RSPCB",31-10-2025 07:00:00,26.843698,75.766894,NH3,10,13,12
India,Rajasthan,Banswara,"Rati Talai, Banswara - RSPCB",31-10-2025 07:00:00,23.555190,74.440010,CO,8,38,10
India,Rajasthan,Baran,"Bamboliya, Baran - RSPCB",31-10-2025 07:00:00,25.106006,76.469948,OZONE,19,63,25
India,Rajasthan,Barmer,"Railway Colony, Barmer - RSPCB",31-10-2025 07:00:00,25.747299,71.393989,CO,12,37,20
India,Rajasthan,Bharatpur,"Krishna Nagar, Bharatpur - RSPCB",31-10-2025 07:00:00,27.215415,77.50873,PM2.5,8,94,46
India,Rajasthan,Bharatpur,"Krishna Nagar, Bharatpur - RSPCB",31-10-2025 07:00:00,27.215415,77.50873,NO2,10,45,24
India,Punjab,Patiala,"Model Town, Patiala - PPCB",31-10-2025 07:00:00,30.349388,76.366642,NH3,6,7,6
India,Rajasthan,Ajmer,"Civil Lines,  Ajmer - RSPCB",31-10-2025 07:00:00,26.470859,74.646594,PM10,66,145,105
India,Rajasthan,Ajmer,"Civil Lines,  Ajmer - RSPCB",31-10-2025 07:00:00,26.470859,74.646594,SO2,12,28,21
India,Rajasthan,Bhilwara,"Pratap Nagar, Bhilwara - RSPCB",31-10-2025 07:00:00,25.339605,74.618883,SO2,3,10,6
India,Rajasthan,Bhiwadi,"Vasundhara Nagar_UIT, Bhiwadi - RSPCB",31-10-2025 07:00:00,28.207266,76.829265,CO,22,92,31
India,Rajasthan,Bundi,"New Colony, Bundi - RSPCB",31-10-2025 07:00:00,25.435774,75.644272,SO2,3,5,3
India,Rajasthan,Jodhpur,"Digari Kalan, Jodhpur - RSPCB",31-10-2025 07:00:00,26.295810,73.082283,OZONE,12,105,31
India,Rajasthan,Jodhpur,"Jhalamand, Jodhpur - RSPCB",31-10-2025 07:00:00,26.215415,73.070156,PM10,61,132,84
India,Rajasthan,Jodhpur,"Jhalamand, Jodhpur - RSPCB",31-10-2025 07:00:00,26.215415,73.070156,SO2,2,4,3
India,Rajasthan,Jodhpur,"Jhalamand, Jodhpur - RSPCB",31-10-2025 07:00:00,26.215415,73.070156,CO,24,68,45
India,Rajasthan,Jodhpur,"Mandor, Jodhpur - RSPCB",31-10-2025 07:00:00,26.358805,73.047444,PM2.5,57,301,114
India,Rajasthan,Jodhpur,"Mandor, Jodhpur - RSPCB",31-10-2025 07:00:00,26.358805,73.047444,NH3,3,8,6
India,Rajasthan,Jodhpur,"Mandor, Jodhpur - RSPCB",31-10-2025 07:00:00,26.358805,73.047444,CO,24,39,26
India,Rajasthan,Jodhpur,"Samrat Ashok Udhyan, Jodhpur - RSPCB",31-10-2025 07:00:00,26.253384,72.976571,PM10,49,135,79
India,Rajasthan,Jodhpur,"Samrat Ashok Udhyan, Jodhpur - RSPCB",31-10-2025 07:00:00,26.253384,72.976571,SO2,3,12,5
India,Rajasthan,Jodhpur,"Samrat Ashok Udhyan, Jodhpur - RSPCB",31-10-2025 07:00:00,26.253384,72.976571,CO,26,36,28
India,Rajasthan,Karauli,"Satyawati Vihar, Karauli - RSPCB",31-10-2025 07:00:00,26.506177,77.025989,PM2.5,10,314,68
India,Rajasthan,Karauli,"Satyawati Vihar, Karauli - RSPCB",31-10-2025 07:00:00,26.506177,77.025989,CO,12,32,15
India,TamilNadu,Chennai,"Velachery Res. Area, Chennai - CPCB",31-10-2025 07:00:00,13.0052189,80.2398125,NO2,14,18,15
India,TamilNadu,Chennai,"Velachery Res. Area, Chennai - CPCB",31-10-2025 07:00:00,13.0052189,80.2398125,OZONE,6,13,6
India,TamilNadu,Coimbatore,"PSG College of Arts and Science, Coimbatore - TNPCB",31-10-2025 07:00:00,11.0328,77.0349,OZONE,4,6,5
India,TamilNadu,Coimbatore,"SIDCO Kurichi, Coimbatore - TNPCB",31-10-2025 07:00:00,10.942451,76.978996,PM10,4,62,44
India,TamilNadu,Coimbatore,"SIDCO Kurichi, Coimbatore - TNPCB",31-10-2025 07:00:00,10.942451,76.978996,OZONE,2,70,4
India,TamilNadu,Cuddalore,"Kudikadu, Cuddalore - TNPCB",31-10-2025 07:00:00,11.6829898,79.7532099,PM10,21,108,52
India,TamilNadu,Dindigul,"Mendonsa Colony, Dindigul - TNPCB",31-10-2025 07:00:00,10.358535,77.984321,PM2.5,NA,NA,NA
India,Sikkim,Gangtok,"Zero Point GICI, Gangtok - SSPCB",31-10-2025 07:00:00,27.338530,88.614099,NO2,NA,NA,NA
India,Sikkim,Gangtok,"Zero Point GICI, Gangtok - SSPCB",31-10-2025 07:00:00,27.338530,88.614099,NH3,1,15,3
India,TamilNadu,Ariyalur,"Keelapalur, Ariyalur - TNPCB",31-10-2025 07:00:00,11.06825,79.07033,SO2,11,12,12
India,TamilNadu,Chengalpattu,"Crescent University, Chengalpattu - TNPCB",31-10-2025 07:00:00,12.8777316,80.0834807,CO,8,10,8
India,TamilNadu,Chengalpattu,"Crescent University, Chengalpattu - TNPCB",31-10-2025 07:00:00,12.8777316,80.0834807,OZONE,4,20,7
India,TamilNadu,Chennai,"Arumbakkam, Chennai - TNPCB",31-10-2025 07:00:00,13.0664,80.2112 ,PM2.5,33,154,61
India,TamilNadu,Madurai,"Uchapatti, Madurai - TNPCB",31-10-2025 07:00:00,9.865935,78.022669,CO,22,24,22
India,TamilNadu,Nagapattinam,"Velippalayam, Nagapattinam - TNPCB",31-10-2025 07:00:00,10.798548,79.838212,NH3,2,2,2
India,TamilNadu,Palkalaiperur,"Bharathidasan University, Palkalaiperur - TNPCB",31-10-2025 07:00:00,10.681158,78.741746,PM2.5,NA,NA,NA
India,TamilNadu,Palkalaiperur,"Bharathidasan University, Palkalaiperur - TNPCB",31-10-2025 07:00:00,10.681158,78.741746,SO2,NA,NA,NA
India,TamilNadu,Perundurai,"SIPCOT Industrial Park, Perundurai - TNPCB",31-10-2025 07:00:00,11.258242,77.552761,PM2.5,14,47,32
India,TamilNadu,Perundurai,"SIPCOT Industrial Park, Perundurai - TNPCB",31-10-2025 07:00:00,11.258242,77.552761,PM10,28,61,41
India,Rajasthan,Kota,"Nayapura, Kota - RSPCB",31-10-2025 07:00:00,25.196024,75.855668,PM2.5,17,82,35
India,Rajasthan,Kota,"Nayapura, Kota - RSPCB",31-10-2025 07:00:00,25.196024,75.855668,NH3,1,5,2
India,Rajasthan,Kota,"Nayapura, Kota - RSPCB",31-10-2025 07:00:00,25.196024,75.855668,OZONE,31,77,36
India,Rajasthan,Kota,"Shrinath Puram, Kota - RSPCB",31-10-2025 07:00:00,25.14389,75.821256,PM2.5,31,94,57
India,Rajasthan,Kota,"Shrinath Puram, Kota - RSPCB",31-10-2025 07:00:00,25.14389,75.821256,NO2,8,10,10
India,Rajasthan,Kota,"Shrinath Puram, Kota - RSPCB",31-10-2025 07:00:00,25.14389,75.821256,OZONE,20,35,25
India,Rajasthan,Nagaur,"Karni Colony, Nagaur - RSPCB",31-10-2025 07:00:00,27.213494,73.734444,CO,14,51,21
India,TamilNadu,Dindigul,"Mendonsa Colony, Dindigul - TNPCB",31-10-2025 07:00:00,10.358535,77.984321,NO2,NA,NA,NA
India,TamilNadu,Dindigul,"Mendonsa Colony, Dindigul - TNPCB",31-10-2025 07:00:00,10.358535,77.984321,NH3,NA,NA,NA
India,TamilNadu,Gummidipoondi,"Anthoni Pillai Nagar, Gummidipoondi - TNPCB",31-10-2025 07:00:00,13.4127,80.1081,NH3,1,5,2
India,TamilNadu,Kanchipuram,"Kilambi, Kanchipuram - TNPCB",31-10-2025 07:00:00,12.864618,79.659968,OZONE,8,9,9
India,TamilNadu,Karur,"Kamadenu Nagar, Karur - TNPCB",31-10-2025 07:00:00,10.967820,78.080882,NH3,3,3,3
India,Rajasthan,Sri Ganganagar,"Old City, Sri Ganganagar - RSPCB",31-10-2025 07:00:00,29.931624,73.864511,NH3,4,16,9
India,Rajasthan,Udaipur,"Ashok Nagar, Udaipur - RSPCB",31-10-2025 07:00:00,24.5886166,73.6321397,PM2.5,37,97,64
India,Rajasthan,Udaipur,"Ashok Nagar, Udaipur - RSPCB",31-10-2025 07:00:00,24.5886166,73.6321397,SO2,NA,NA,NA
India,Sikkim,Gangtok,"Zero Point GICI, Gangtok - SSPCB",31-10-2025 07:00:00,27.338530,88.614099,PM2.5,NA,NA,NA
India,Rajasthan,Pratapgarh,"Pragati Nagar, Pratapgarh - RSPCB",31-10-2025 07:00:00,24.041198,74.780702,NO2,25,39,29
India,Rajasthan,Pratapgarh,"Pragati Nagar, Pratapgarh - RSPCB",31-10-2025 07:00:00,24.041198,74.780702,CO,2,21,6
India,Rajasthan,Rajsamand,"Dhoinda, Rajsamand - RSPCB",31-10-2025 07:00:00,25.036360,73.883502,PM10,37,93,67
India,Rajasthan,Sikar,"Radhakishan Pura, Sikar - RSPCB",31-10-2025 07:00:00,27.608912,75.153302,PM10,72,285,143
India,TamilNadu,Chennai,"Manali, Chennai - CPCB",31-10-2025 07:00:00,13.164544,80.26285,PM2.5,13,241,60
India,TamilNadu,Chennai,"Manali, Chennai - CPCB",31-10-2025 07:00:00,13.164544,80.26285,PM10,NA,NA,NA
India,TamilNadu,Chennai,"Perungudi, Chennai - TNPCB",31-10-2025 07:00:00,12.9533,80.2357,PM10,38,424,103
India,Uttar_Pradesh,Agra,"Sanjay Palace, Agra - UPPCB",31-10-2025 07:00:00,27.19865833,78.00598056,PM10,9,99,46
India,Uttar_Pradesh,Agra,"Sanjay Palace, Agra - UPPCB",31-10-2025 07:00:00,27.19865833,78.00598056,NO2,3,9,5
India,Uttar_Pradesh,Agra,"Sanjay Palace, Agra - UPPCB",31-10-2025 07:00:00,27.19865833,78.00598056,SO2,15,17,16
India,Uttar_Pradesh,Agra,"Sanjay Palace, Agra - UPPCB",31-10-2025 07:00:00,27.19865833,78.00598056,OZONE,7,43,17
India,Uttar_Pradesh,Agra,"Sector-3B Avas Vikas Colony, Agra - UPPCB",31-10-2025 07:00:00,27.19412,77.96237,PM2.5,5,51,22
India,Uttar_Pradesh,Agra,"Sector-3B Avas Vikas Colony, Agra - UPPCB",31-10-2025 07:00:00,27.19412,77.96237,NH3,4,6,5
India,Uttar_Pradesh,Agra,"Shahjahan Garden, Agra - UPPCB",31-10-2025 07:00:00,27.169338,78.03582,PM10,42,118,73
India,Uttar_Pradesh,Agra,"Shahjahan Garden, Agra - UPPCB",31-10-2025 07:00:00,27.169338,78.03582,NH3,1,1,1
India,Uttar_Pradesh,Agra,"Shahjahan Garden, Agra - UPPCB",31-10-2025 07:00:00,27.169338,78.03582,OZONE,1,11,3
India,Uttar_Pradesh,Agra,"Shastripuram, Agra - UPPCB",31-10-2025 07:00:00,27.19862,77.92066,NH3,3,3,3
India,Uttar_Pradesh,Baghpat,"Sardar Patel Inter College, Baghpat - UPPCB",31-10-2025 07:00:00,28.964949,77.278761,PM10,116,213,155
India,Uttar_Pradesh,Ghaziabad,"Indirapuram, Ghaziabad - UPPCB",31-10-2025 07:00:00,28.646233,77.358075,PM2.5,61,352,183
India,Uttar_Pradesh,Ghaziabad,"Indirapuram, Ghaziabad - UPPCB",31-10-2025 07:00:00,28.646233,77.358075,PM10,63,280,138
India,Uttar_Pradesh,Ghaziabad,"Loni, Ghaziabad - UPPCB",31-10-2025 07:00:00,28.757294,77.278792,PM2.5,141,424,288
India,Uttar_Pradesh,Ghaziabad,"Loni, Ghaziabad - UPPCB",31-10-2025 07:00:00,28.757294,77.278792,NO2,45,139,88
India,Uttar_Pradesh,Ghaziabad,"Sanjay Nagar, Ghaziabad - UPPCB",31-10-2025 07:00:00,28.685382,77.453839,PM2.5,80,357,193
India,Uttar_Pradesh,Ghaziabad,"Sanjay Nagar, Ghaziabad - UPPCB",31-10-2025 07:00:00,28.685382,77.453839,NO2,21,49,33
India,Uttar_Pradesh,Ghaziabad,"Vasundhara, Ghaziabad - UPPCB",31-10-2025 07:00:00,28.6603346,77.3572563,PM2.5,157,429,274
India,Uttar_Pradesh,Gorakhpur,"Madan Mohan Malaviya University of Technology, Gorakhpur - UPPCB",31-10-2025 07:00:00,26.730136,83.433859,NO2,11,12,11
India,Uttar_Pradesh,Gorakhpur,"Madan Mohan Malaviya University of Technology, Gorakhpur - UPPCB",31-10-2025 07:00:00,26.730136,83.433859,NH3,1,1,1
India,TamilNadu,Tirupur,"Kumaran College, Tirupur - TNPCB",31-10-2025 07:00:00,11.0973603,77.3228673,PM2.5,20,100,41
India,TamilNadu,Tirupur,"Kumaran College, Tirupur - TNPCB",31-10-2025 07:00:00,11.0973603,77.3228673,OZONE,4,4,4
India,TamilNadu,Vellore,"Vasanthapuram, Vellore - TNPCB",31-10-2025 07:00:00,12.909494,79.131861,CO,8,8,8
India,TamilNadu,Virudhunagar,"Collectorate Office, Virudhunagar - TNPCB",31-10-2025 07:00:00,9.559382,77.948828,CO,16,21,19
India,Telangana,Hyderabad,"Bollaram Industrial Area, Hyderabad - TSPCB",31-10-2025 07:00:00,17.540891,78.358528,PM2.5,25,99,52
India,Telangana,Hyderabad,"Bollaram Industrial Area, Hyderabad - TSPCB",31-10-2025 07:00:00,17.540891,78.358528,NO2,20,73,41
India,Telangana,Hyderabad,"Bollaram Industrial Area, Hyderabad - TSPCB",31-10-2025 07:00:00,17.540891,78.358528,CO,18,64,39
India,Telangana,Hyderabad,"Central University, Hyderabad - TSPCB",31-10-2025 07:00:00,17.460103,78.334361,NO2,4,69,38
India,Telangana,Hyderabad,"Zoo Park, Hyderabad - TSPCB",31-10-2025 07:00:00,17.349694,78.451437,PM10,13,63,30
India,Telangana,Hyderabad,"Zoo Park, Hyderabad - TSPCB",31-10-2025 07:00:00,17.349694,78.451437,NO2,6,13,12
India,Telangana,Hyderabad,"Zoo Park, Hyderabad - TSPCB",31-10-2025 07:00:00,17.349694,78.451437,CO,12,14,14
India,Tripura,Agartala,"Bardowali, Agartala - Tripura SPCB",31-10-2025 07:00:00,23.8175497,91.2726974,NH3,2,4,3
India,Tripura,Agartala,"Bardowali, Agartala - Tripura SPCB",31-10-2025 07:00:00,23.8175497,91.2726974,OZONE,1,4,1
India,Uttar_Pradesh,Agra,"Manoharpur, Agra - UPPCB",31-10-2025 07:00:00,27.23711,78.01936,NO2,30,31,30
India,Uttar_Pradesh,Agra,"Manoharpur, Agra - UPPCB",31-10-2025 07:00:00,27.23711,78.01936,CO,24,28,24
India,Uttar_Pradesh,Agra,"Rohta, Agra - UPPCB",31-10-2025 07:00:00,27.106972,78.000111,PM10,16,98,48
India,Uttar_Pradesh,Agra,"Rohta, Agra - UPPCB",31-10-2025 07:00:00,27.106972,78.000111,CO,25,35,30
India,TamilNadu,Salem,"Sona College of Technology, Salem - TNPCB",31-10-2025 07:00:00,11.679111,78.125052,CO,18,18,18
India,TamilNadu,Thanjavur,"Parisutham Nagar, Thanjavur - TNPCB",31-10-2025 07:00:00,10.7654824,79.1389968,PM2.5,20,65,28
India,TamilNadu,Thanjavur,"Parisutham Nagar, Thanjavur - TNPCB",31-10-2025 07:00:00,10.7654824,79.1389968,OZONE,5,24,15
India,TamilNadu,Thoothukudi,"Meelavittan, Thoothukudi - TNPCB",31-10-2025 07:00:00,8.816428 ,78.099039,SO2,1,14,6
India,TamilNadu,Tiruchirappalli,"St Joseph College, Tiruchirappalli - TNPCB",31-10-2025 07:00:00,10.830158,78.691849,PM2.5,22,64,34
India,TamilNadu,Tiruchirappalli,"St Joseph College, Tiruchirappalli - TNPCB",31-10-2025 07:00:00,10.830158,78.691849,SO2,15,16,16
India,TamilNadu,Tirunelveli,"Municipal Corporation Office, Tirunelveli - TNPCB",31-10-2025 07:00:00,8.728442,77.6962,PM10,12,62,35
India,Telangana,Hyderabad,"Kompally Municipal Office, Hyderabad - TSPCB",31-10-2025 07:00:00,17.544899,78.486949,NO2,12,22,21
India,Telangana,Hyderabad,"Nacharam_TSIIC IALA, Hyderabad - TSPCB",31-10-2025 07:00:00,17.429398,78.569354,PM2.5,40,61,55
India,Telangana,Hyderabad,"Nacharam_TSIIC IALA, Hyderabad - TSPCB",31-10-2025 07:00:00,17.429398,78.569354,PM10,55,124,83
India,Telangana,Hyderabad,"Nacharam_TSIIC IALA, Hyderabad - TSPCB",31-10-2025 07:00:00,17.429398,78.569354,SO2,10,16,12
India,Telangana,Hyderabad,"New Malakpet, Hyderabad - TSPCB",31-10-2025 07:00:00,17.37206,78.50864,PM10,78,82,80
India,Telangana,Hyderabad,"New Malakpet, Hyderabad - TSPCB",31-10-2025 07:00:00,17.37206,78.50864,NO2,9,14,11
India,Telangana,Hyderabad,"New Malakpet, Hyderabad - TSPCB",31-10-2025 07:00:00,17.37206,78.50864,SO2,9,16,13
India,Telangana,Hyderabad,"New Malakpet, Hyderabad - TSPCB",31-10-2025 07:00:00,17.37206,78.50864,CO,18,36,31
India,Telangana,Hyderabad,"Sanathnagar, Hyderabad - TSPCB",31-10-2025 07:00:00,17.4559458,78.4332152,PM2.5,36,99,58
India,Telangana,Hyderabad,"Central University, Hyderabad - TSPCB",31-10-2025 07:00:00,17.460103,78.334361,OZONE,2,20,9
India,Telangana,Hyderabad,"ECIL Kapra, Hyderabad - TSPCB",31-10-2025 07:00:00,17.470431,78.566959,PM10,61,91,71
India,Telangana,Hyderabad,"IDA Pashamylaram, Hyderabad - TSPCB",31-10-2025 07:00:00,17.5316895,78.218939,NH3,1,7,3
India,Telangana,Hyderabad,"IDA Pashamylaram, Hyderabad - TSPCB",31-10-2025 07:00:00,17.5316895,78.218939,SO2,1,14,5
India,Telangana,Hyderabad,"IITH Kandi, Hyderabad - TSPCB",31-10-2025 07:00:00,17.585705,78.126199,SO2,7,11,9
India,Telangana,Hyderabad,"IITH Kandi, Hyderabad - TSPCB",31-10-2025 07:00:00,17.585705,78.126199,CO,24,37,36
India,Telangana,Hyderabad,"Kokapet, Hyderabad - TSPCB",31-10-2025 07:00:00,17.393559,78.339194,PM2.5,39,53,45
India,TamilNadu,Perundurai,"SIPCOT Industrial Park, Perundurai - TNPCB",31-10-2025 07:00:00,11.258242,77.552761,NH3,2,3,2
India,TamilNadu,Ramanathapuram,"Chalai Bazaar, Ramanathapuram - TNPCB",31-10-2025 07:00:00,9.36399,78.831977,PM10,17,41,27
India,TamilNadu,Ramanathapuram,"Chalai Bazaar, Ramanathapuram - TNPCB",31-10-2025 07:00:00,9.36399,78.831977,SO2,2,15,4
India,TamilNadu,Ramanathapuram,"Chalai Bazaar, Ramanathapuram - TNPCB",31-10-2025 07:00:00,9.36399,78.831977,OZONE,3,5,4
India,TamilNadu,Ranipet,"VOC Nagar_SIPCOT, Ranipet - TNPCB",31-10-2025 07:00:00,12.952707,79.30394,OZONE,1,51,1
India,TamilNadu,Salem,"Sona College of Technology, Salem - TNPCB",31-10-2025 07:00:00,11.679111,78.125052,NO2,12,12,12
India,Uttar_Pradesh,Bareilly,"Civil Lines, Bareilly - UPPCB",31-10-2025 07:00:00,28.359581,79.414455,SO2,19,24,21
India,Uttar_Pradesh,Bareilly,"Rajendra Nagar, Bareilly - UPPCB",31-10-2025 07:00:00,28.38910936,79.42963708,NH3,1,1,1
India,Uttar_Pradesh,Bulandshahr,"Yamunapuram, Bulandshahr - UPPCB",31-10-2025 07:00:00,28.406963,77.849831,NH3,11,17,13
India,Uttar_Pradesh,Firozabad,"Nagla Bhau, Firozabad - UPPCB",31-10-2025 07:00:00,27.168897,78.376960,NO2,17,17,17
India,Uttar_Pradesh,Firozabad,"Nagla Bhau, Firozabad - UPPCB",31-10-2025 07:00:00,27.168897,78.376960,OZONE,10,13,11
India,Uttar_Pradesh,Firozabad,"Vibhab Nagar, Firozabad - UPPCB",31-10-2025 07:00:00,27.1594,78.3953,NO2,15,15,15
India,Uttar_Pradesh,Noida,"Sector-1, Noida - UPPCB",31-10-2025 07:00:00,28.5898,77.3101,PM10,87,349,155
India,Uttar_Pradesh,Noida,"Sector-1, Noida - UPPCB",31-10-2025 07:00:00,28.5898,77.3101,SO2,6,23,11
India,Uttar_Pradesh,Noida,"Sector-116, Noida - UPPCB",31-10-2025 07:00:00,28.569230,77.393848,PM2.5,NA,NA,NA
India,Uttar_Pradesh,Noida,"Sector-116, Noida - UPPCB",31-10-2025 07:00:00,28.569230,77.393848,PM10,NA,NA,NA
India,Uttar_Pradesh,Noida,"Sector-116, Noida - UPPCB",31-10-2025 07:00:00,28.569230,77.393848,NH3,NA,NA,NA
India,Uttar_Pradesh,Noida,"Sector-116, Noida - UPPCB",31-10-2025 07:00:00,28.569230,77.393848,SO2,NA,NA,NA
India,Uttar_Pradesh,Prayagraj,"Jhunsi, Prayagraj - UPPCB",31-10-2025 07:00:00,25.425602,81.917152,PM10,5,44,21
India,Uttar_Pradesh,Prayagraj,"Jhunsi, Prayagraj - UPPCB",31-10-2025 07:00:00,25.425602,81.917152,NO2,6,6,6
India,Uttar_Pradesh,Prayagraj,"Jhunsi, Prayagraj - UPPCB",31-10-2025 07:00:00,25.425602,81.917152,NH3,5,5,5
India,Uttar_Pradesh,Prayagraj,"Motilal Nehru NIT, Prayagraj - UPPCB",31-10-2025 07:00:00,25.494,81.863,PM2.5,3,35,17
India,Uttar_Pradesh,Prayagraj,"Motilal Nehru NIT, Prayagraj - UPPCB",31-10-2025 07:00:00,25.494,81.863,CO,5,6,6
India,Uttar_Pradesh,Prayagraj,"Motilal Nehru NIT, Prayagraj - UPPCB",31-10-2025 07:00:00,25.494,81.863,OZONE,11,20,13
India,Uttar_Pradesh,Kanpur,"FTI Kidwai Nagar, Kanpur - UPPCB",31-10-2025 07:00:00,26.428282,80.327067,NH3,2,2,2
India,Uttar_Pradesh,Kanpur,"NSI Kalyanpur, Kanpur - UPPCB",31-10-2025 07:00:00,26.509954,80.249612,NH3,3,3,3
India,Uttar_Pradesh,Kanpur,"Nehru Nagar, Kanpur - UPPCB",31-10-2025 07:00:00,26.4703136,80.3229863,NO2,32,37,33
India,Uttar_Pradesh,Khurja,"Kalindi Kunj, Khurja - UPPCB",31-10-2025 07:00:00,28.2348927,77.8683002,PM2.5,38,84,60
India,Uttar_Pradesh,Khurja,"Kalindi Kunj, Khurja - UPPCB",31-10-2025 07:00:00,28.2348927,77.8683002,PM10,73,142,104
India,Uttar_Pradesh,Khurja,"Kalindi Kunj, Khurja - UPPCB",31-10-2025 07:00:00,28.2348927,77.8683002,NH3,1,1,1
India,Uttar_Pradesh,Khurja,"Kalindi Kunj, Khurja - UPPCB",31-10-2025 07:00:00,28.2348927,77.8683002,CO,11,64,48
India,Uttar_Pradesh,Lucknow,"B R Ambedkar University, Lucknow - UPPCB",31-10-2025 07:00:00,26.766433,80.927299,NH3,4,4,4
India,Uttar_Pradesh,Lucknow,"B R Ambedkar University, Lucknow - UPPCB",31-10-2025 07:00:00,26.766433,80.927299,CO,52,54,52
India,Uttarakhand,Dehradun,"Doon University, Dehradun - UKPCB",31-10-2025 07:00:00,30.269444,78.044167,CO,1,16,4
India,Uttarakhand,Kashipur,"Govt. Girls Inter College, Kashipur - UKPCB",31-10-2025 07:00:00,29.2124114,78.9611753,PM2.5,28,252,130
India,Uttarakhand,Kashipur,"Govt. Girls Inter College, Kashipur - UKPCB",31-10-2025 07:00:00,29.2124114,78.9611753,PM10,30,161,105
India,Uttarakhand,Kashipur,"Govt. Girls Inter College, Kashipur - UKPCB",31-10-2025 07:00:00,29.2124114,78.9611753,SO2,7,10,9
India,Uttarakhand,Kashipur,"Govt. Girls Inter College, Kashipur - UKPCB",31-10-2025 07:00:00,29.2124114,78.9611753,OZONE,1,3,1
India,Uttarakhand,Rishikesh,"Shivaji Nagar, Rishikesh - UKPCB",31-10-2025 07:00:00,30.075911,78.2859547,PM10,32,70,47
India,Uttarakhand,Rishikesh,"Shivaji Nagar, Rishikesh - UKPCB",31-10-2025 07:00:00,30.075911,78.2859547,OZONE,7,11,8
India,West_Bengal,Asansol,"Asansol Court Area, Asansol - WBPCB",31-10-2025 07:00:00,23.685297,86.945968,SO2,7,17,13
India,Uttar_Pradesh,Lucknow,"Talkatora District Industries Center, Lucknow - CPCB",31-10-2025 07:00:00,26.83399722,80.8917361,NO2,61,81,70
India,Uttar_Pradesh,Lucknow,"Talkatora District Industries Center, Lucknow - CPCB",31-10-2025 07:00:00,26.83399722,80.8917361,OZONE,9,53,12
India,Uttar_Pradesh,Meerut,"Ganga Nagar, Meerut - UPPCB",31-10-2025 07:00:00,28.999264,77.7590354,NO2,41,74,52
India,Uttar_Pradesh,Meerut,"Ganga Nagar, Meerut - UPPCB",31-10-2025 07:00:00,28.999264,77.7590354,SO2,12,20,15
India,Uttar_Pradesh,Meerut,"Ganga Nagar, Meerut - UPPCB",31-10-2025 07:00:00,28.999264,77.7590354,OZONE,17,60,20
India,Uttar_Pradesh,Meerut,"Jai Bhim Nagar, Meerut - UPPCB",31-10-2025 07:00:00,28.9535882,77.7622941,PM2.5,88,253,174
India,Uttar_Pradesh,Meerut,"Jai Bhim Nagar, Meerut - UPPCB",31-10-2025 07:00:00,28.9535882,77.7622941,NO2,19,69,39
India,Uttar_Pradesh,Meerut,"Pallavpuram Phase 2, Meerut - UPPCB",31-10-2025 07:00:00,29.063510,77.709723,PM2.5,93,298,217
India,Uttar_Pradesh,Moradabad,"Transport Nagar, Moradabad - UPPCB",31-10-2025 07:00:00,28.802625,78.753728,PM10,37,136,80
India,Uttar_Pradesh,Moradabad,"Transport Nagar, Moradabad - UPPCB",31-10-2025 07:00:00,28.802625,78.753728,NO2,29,30,29
India,Uttar_Pradesh,Moradabad,"Transport Nagar, Moradabad - UPPCB",31-10-2025 07:00:00,28.802625,78.753728,SO2,33,35,34
India,Uttar_Pradesh,Muzaffarnagar,"New Mandi, Muzaffarnagar - UPPCB",31-10-2025 07:00:00,29.4723508,77.7194031,NH3,8,12,10
India,Uttar_Pradesh,Muzaffarnagar,"New Mandi, Muzaffarnagar - UPPCB",31-10-2025 07:00:00,29.4723508,77.7194031,CO,30,72,56
India,Uttar_Pradesh,Noida,"Sector - 125, Noida - UPPCB",31-10-2025 07:00:00,28.5447608,77.3231257,PM10,92,500,228
India,Uttar_Pradesh,Noida,"Sector - 125, Noida - UPPCB",31-10-2025 07:00:00,28.5447608,77.3231257,SO2,1,20,9
India,Uttar_Pradesh,Noida,"Sector - 62, Noida - IMD",31-10-2025 07:00:00,28.6245479,77.3577104,NO2,12,41,24
India,Uttar_Pradesh,Lucknow,"Kendriya Vidyalaya, Lucknow - CPCB",31-10-2025 07:00:00,26.906111,80.948222,PM2.5,8,110,37
India,Uttar_Pradesh,Lucknow,"Kukrail Picnic Spot-1, Lucknow - UPPCB",31-10-2025 07:00:00,26.90723,80.98579,PM2.5,17,76,34
India,Uttar_Pradesh,Lucknow,"Lalbagh, Lucknow - CPCB",31-10-2025 07:00:00,26.8458805,80.9365541,PM10,23,110,52
India,Uttar_Pradesh,Lucknow,"Lalbagh, Lucknow - CPCB",31-10-2025 07:00:00,26.8458805,80.9365541,NH3,15,26,20
India,Uttar_Pradesh,Lucknow,"Lalbagh, Lucknow - CPCB",31-10-2025 07:00:00,26.8458805,80.9365541,CO,4,96,51
India,Uttar_Pradesh,Lucknow,"Lalbagh, Lucknow - CPCB",31-10-2025 07:00:00,26.8458805,80.9365541,OZONE,31,61,43
India,Uttar_Pradesh,Lucknow,"Talkatora District Industries Center, Lucknow - CPCB",31-10-2025 07:00:00,26.83399722,80.8917361,PM2.5,8,102,38
India,Uttar_Pradesh,Gorakhpur,"Madan Mohan Malaviya University of Technology, Gorakhpur - UPPCB",31-10-2025 07:00:00,26.730136,83.433859,SO2,28,29,29
India,Uttar_Pradesh,Greater Noida,"Knowledge Park - III, Greater Noida - UPPCB",31-10-2025 07:00:00,28.47272,77.482000,SO2,3,19,12
India,Uttar_Pradesh,Hapur,"Anand Vihar, Hapur - UPPCB",31-10-2025 07:00:00,28.725645,77.749675,PM2.5,68,117,88
India,Uttar_Pradesh,Hapur,"Anand Vihar, Hapur - UPPCB",31-10-2025 07:00:00,28.725645,77.749675,PM10,56,136,83
India,Uttar_Pradesh,Jhansi,"Shivaji Nagar, Jhansi - UPPCB",31-10-2025 07:00:00,25.4547,78.6039,NH3,4,4,4
India,Uttar_Pradesh,Jhansi,"Shivaji Nagar, Jhansi - UPPCB",31-10-2025 07:00:00,25.4547,78.6039,OZONE,2,5,3
India,Uttar_Pradesh,Moradabad,"Eco Herbal Park, Moradabad - UPPCB",31-10-2025 07:00:00,28.840739,78.697531,NH3,4,6,4
India,Uttar_Pradesh,Moradabad,"Eco Herbal Park, Moradabad - UPPCB",31-10-2025 07:00:00,28.840739,78.697531,CO,2,58,6
India,Uttar_Pradesh,Moradabad,"Eco Herbal Park, Moradabad - UPPCB",31-10-2025 07:00:00,28.840739,78.697531,OZONE,7,65,15
India,Uttar_Pradesh,Moradabad,"Employment Office, Moradabad - UPPCB",31-10-2025 07:00:00,28.88528,78.73880,CO,10,77,36
India,Uttar_Pradesh,Moradabad,"Employment Office, Moradabad - UPPCB",31-10-2025 07:00:00,28.88528,78.73880,OZONE,12,40,13
India,Uttar_Pradesh,Moradabad,"Jigar Colony, Moradabad - UPPCB",31-10-2025 07:00:00,28.856664,78.772638,CO,40,40,40
India,Uttar_Pradesh,Moradabad,"Kashiram Nagar, Moradabad - UPPCB",31-10-2025 07:00:00,28.849399,78.742362,CO,20,44,24
India,Uttar_Pradesh,Prayagraj,"Nagar Nigam, Prayagraj - UPPCB",31-10-2025 07:00:00,25.44919916 ,81.82735986 ,CO,13,22,15
India,Uttar_Pradesh,Prayagraj,"Nagar Nigam, Prayagraj - UPPCB",31-10-2025 07:00:00,25.44919916 ,81.82735986 ,OZONE,13,30,18
India,Uttar_Pradesh,Varanasi,"Ardhali Bazar, Varanasi - UPPCB",31-10-2025 07:00:00,25.3505986,82.9083074,PM10,12,35,24
India,Uttar_Pradesh,Varanasi,"Ardhali Bazar, Varanasi - UPPCB",31-10-2025 07:00:00,25.3505986,82.9083074,NO2,35,73,51
India,Uttar_Pradesh,Varanasi,"Bhelupur, Varanasi - UPPCB",31-10-2025 07:00:00,25.301778,82.996789,PM10,7,29,18
India,Uttar_Pradesh,Varanasi,"Maldahiya, Varanasi - UPPCB",31-10-2025 07:00:00,25.32393,82.99687,OZONE,2,3,2
India,West_Bengal,Asansol,"Evelyn Lodge, Asansol - WBPCB",31-10-2025 07:00:00,23.6979360,86.9443950,NO2,7,15,10
India,West_Bengal,Asansol,"Evelyn Lodge, Asansol - WBPCB",31-10-2025 07:00:00,23.6979360,86.9443950,SO2,2,4,3
India,West_Bengal,Barrackpore,"SVSPA Campus, Barrackpore - WBPCB",31-10-2025 07:00:00,22.7605581,88.3617589,OZONE,3,13,3
India,West_Bengal,Durgapur,"Mahishkapur Road_B-Zone, Durgapur - WBPCB",31-10-2025 07:00:00,23.567923,87.306843,OZONE,16,41,23
India,West_Bengal,Durgapur,"Womens College_City Center, Durgapur - WBPCB (Formerly known as Sidhu Kanhu Indoor Stadium)",31-10-2025 07:00:00,23.549395,87.300496,PM10,23,69,39
India,West_Bengal,Durgapur,"Womens College_City Center, Durgapur - WBPCB (Formerly known as Sidhu Kanhu Indoor Stadium)",31-10-2025 07:00:00,23.549395,87.300496,CO,24,40,31
India,West_Bengal,Howrah,"Belur Math, Howrah - WBPCB",31-10-2025 07:00:00,22.629801,88.352017,PM2.5,22,66,40
India,West_Bengal,Howrah,"Botanical Garden, Howrah - WBPCB",31-10-2025 07:00:00,22.554954,88.292568,NH3,1,3,2
India,West_Bengal,Howrah,"Dasnagar, Howrah - WBPCB",31-10-2025 07:00:00,22.6025571,88.3105664,SO2,11,14,12
India,West_Bengal,Howrah,"Padmapukur, Howrah - WBPCB",31-10-2025 07:00:00,22.5687319,88.2797276,OZONE,8,27,11
India,West_Bengal,Kolkata,"Ballygunge, Kolkata - WBPCB",31-10-2025 07:00:00,22.5367507,88.3638022,NH3,8,13,9
India,West_Bengal,Kolkata,"Ballygunge, Kolkata - WBPCB",31-10-2025 07:00:00,22.5367507,88.3638022,CO,8,34,10
India,West_Bengal,Kolkata,"Bidhannagar, Kolkata - WBPCB",31-10-2025 07:00:00,22.58157048,88.41002457,OZONE,14,22,16
India,West_Bengal,Kolkata,"Fort William, Kolkata - WBPCB",31-10-2025 07:00:00,22.556640,88.342674,SO2,8,10,9
India,West_Bengal,Kolkata,"Fort William, Kolkata - WBPCB",31-10-2025 07:00:00,22.556640,88.342674,CO,18,71,31
India,West_Bengal,Kolkata,"Jadavpur, Kolkata - WBPCB",31-10-2025 07:00:00,22.49929,88.36917,SO2,4,7,6
India,West_Bengal,Kolkata,"Rabindra Bharati University, Kolkata - WBPCB",31-10-2025 07:00:00,22.627847,88.380669,NO2,35,82,58
India,West_Bengal,Kolkata,"Rabindra Bharati University, Kolkata - WBPCB",31-10-2025 07:00:00,22.627847,88.380669,OZONE,11,53,23
India,West_Bengal,Kolkata,"Rabindra Sarobar, Kolkata - WBPCB",31-10-2025 07:00:00,22.51106,88.35142,PM2.5,14,26,19
India,West_Bengal,Kolkata,"Rabindra Sarobar, Kolkata - WBPCB",31-10-2025 07:00:00,22.51106,88.35142,PM10,20,33,26
India,West_Bengal,Kolkata,"Victoria, Kolkata - WBPCB",31-10-2025 07:00:00,22.5448082,88.3403691,PM10,17,74,51
India,West_Bengal,Siliguri,"Ward-32 Bapupara, Siliguri - WBPCB",31-10-2025 07:00:00,26.6879226,88.4152495,NH3,11,11,11
India,Andhra_Pradesh,Visakhapatnam,"GVM Corporation, Visakhapatnam - APPCB",31-10-2025 07:00:00,17.72,83.3,NO2,15,83,53
India,Andhra_Pradesh,Visakhapatnam,"GVM Corporation, Visakhapatnam - APPCB",31-10-2025 07:00:00,17.72,83.3,CO,5,52,13
India,Andhra_Pradesh,Visakhapatnam,"GVM Corporation, Visakhapatnam - APPCB",31-10-2025 07:00:00,17.72,83.3,OZONE,5,32,8
India,Arunachal_Pradesh,Naharlagun,"Naharlagun, Naharlagun - APSPCB",31-10-2025 07:00:00,27.103358,93.679645,PM2.5,2,170,72
India,Arunachal_Pradesh,Naharlagun,"Naharlagun, Naharlagun - APSPCB",31-10-2025 07:00:00,27.103358,93.679645,CO,7,32,10
India,Arunachal_Pradesh,Naharlagun,"Naharlagun, Naharlagun - APSPCB",31-10-2025 07:00:00,27.103358,93.679645,OZONE,5,5,5
India,Assam,Guwahati,"IITG, Guwahati - PCBA",31-10-2025 07:00:00,26.2028636,91.70046436,NO2,1,3,2
India,Assam,Guwahati,"IITG, Guwahati - PCBA",31-10-2025 07:00:00,26.2028636,91.70046436,CO,5,10,7
India,Assam,Guwahati,"LGBI Airport, Guwahati - PCBA",31-10-2025 07:00:00,26.10887,91.589544,PM10,90,106,101
India,Assam,Guwahati,"Pan Bazaar, Guwahati - PCBA",31-10-2025 07:00:00,26.187500,91.744194,PM2.5,14,67,36
India,Assam,Guwahati,"Railway Colony, Guwahati - PCBA",31-10-2025 07:00:00,26.181742,91.78063,NO2,3,4,3
India,Bihar,Chhapra,"Darshan Nagar, Chhapra - BSPCB",31-10-2025 07:00:00,25.7808257,84.7446768,PM10,NA,NA,NA
India,Bihar,Chhapra,"Darshan Nagar, Chhapra - BSPCB",31-10-2025 07:00:00,25.7808257,84.7446768,NO2,2,3,2
India,Bihar,Chhapra,"Darshan Nagar, Chhapra - BSPCB",31-10-2025 07:00:00,25.7808257,84.7446768,NH3,4,8,6
India,Bihar,Chhapra,"Darshan Nagar, Chhapra - BSPCB",31-10-2025 07:00:00,25.7808257,84.7446768,SO2,20,22,21
India,Bihar,Gaya,"Collectorate, Gaya - BSPCB",31-10-2025 07:00:00,24.7955,84.9994,NO2,9,9,9
India,Bihar,Gaya,"Collectorate, Gaya - BSPCB",31-10-2025 07:00:00,24.7955,84.9994,SO2,10,12,11
India,Bihar,Gaya,"Collectorate, Gaya - BSPCB",31-10-2025 07:00:00,24.7955,84.9994,CO,46,52,47
India,Bihar,Gaya,"Kareemganj, Gaya - BSPCB",31-10-2025 07:00:00,24.792403,84.992416,CO,40,42,41
India,Bihar,Gaya,"SFTI Kusdihra, Gaya - BSPCB",31-10-2025 07:00:00,24.762518,84.982348,CO,6,107,27
India,Bihar,Bettiah,"Kamalnath Nagar, Bettiah - BSPCB",31-10-2025 07:00:00,26.80365,84.51954,NH3,1,2,1
India,Bihar,Bhagalpur,"DM Office_Kachari Chowk, Bhagalpur - BSPCB",31-10-2025 07:00:00,25.251013,86.989001,NH3,4,13,7
India,Bihar,Bhagalpur,"DM Office_Kachari Chowk, Bhagalpur - BSPCB",31-10-2025 07:00:00,25.251013,86.989001,CO,15,24,19
India,Bihar,Bihar Sharif,"D M Colony, Bihar Sharif - BSPCB",31-10-2025 07:00:00,25.204762,85.514960,OZONE,NA,NA,NA
India,Bihar,Buxar,"Charitra Van, Buxar - BSPCB",31-10-2025 07:00:00,25.567520,83.966379,NH3,3,3,3
India,Bihar,Chhapra,"Darshan Nagar, Chhapra - BSPCB",31-10-2025 07:00:00,25.7808257,84.7446768,PM2.5,NA,NA,NA
India,Bihar,Araria,"Kharahiya Basti, Araria - BSPCB",31-10-2025 07:00:00,26.146529,87.454184,PM2.5,7,63,23
India,Bihar,Araria,"Kharahiya Basti, Araria - BSPCB",31-10-2025 07:00:00,26.146529,87.454184,PM10,6,51,19
India,Bihar,Araria,"Kharahiya Basti, Araria - BSPCB",31-10-2025 07:00:00,26.146529,87.454184,CO,32,52,38
India,Bihar,Arrah,"New DM Office, Arrah - BSPCB",31-10-2025 07:00:00,25.5626095,84.663264,SO2,NA,NA,NA
India,Bihar,Aurangabad,"Gurdeo Nagar, Aurangabad - BSPCB",31-10-2025 07:00:00,24.75746,84.366208,PM10,NA,NA,NA
India,Bihar,Begusarai,"Lohiyanagar, Begusarai - BSPCB",31-10-2025 07:00:00,25.42742023,86.13886079,SO2,30,82,52
India,Andhra_Pradesh,Tirupati,"Vaikuntapuram, Tirupati - APPCB",31-10-2025 07:00:00,13.615387,79.409230,SO2,16,19,17
India,Andhra_Pradesh,Vijayawada,"HB Colony, Vijayawada - APPCB",31-10-2025 07:00:00,16.536107,80.594233,SO2,7,17,12
India,Andhra_Pradesh,Vijayawada,"HB Colony, Vijayawada - APPCB",31-10-2025 07:00:00,16.536107,80.594233,CO,20,40,32
India,Andhra_Pradesh,Vijayawada,"HB Colony, Vijayawada - APPCB",31-10-2025 07:00:00,16.536107,80.594233,OZONE,13,29,22
India,Andhra_Pradesh,Vijayawada,"Rajiv Gandhi Park, Vijayawada - APPCB",31-10-2025 07:00:00,16.509717,80.612222,PM2.5,44,90,74
India,Andhra_Pradesh,Vijayawada,"Rajiv Nagar, Vijayawada - APPCB",31-10-2025 07:00:00,16.554731,80.649110,CO,30,46,34
India,Assam,Guwahati,"Railway Colony, Guwahati - PCBA",31-10-2025 07:00:00,26.181742,91.78063,SO2,30,30,30
India,Assam,Nagaon,"Christianpatty, Nagaon - PCBA",31-10-2025 07:00:00,26.349082,92.68449,NO2,1,1,1
India,Assam,Nalbari,"Bata Chowk, Nalbari - PCBA",31-10-2025 07:00:00,26.446912,91.439057,PM10,6,77,27
India,Assam,Nalbari,"Bata Chowk, Nalbari - PCBA",31-10-2025 07:00:00,26.446912,91.439057,CO,96,113,105
India,Assam,Silchar,"Tarapur, Silchar - PCBA",31-10-2025 07:00:00,24.82827,92.79525,PM2.5,30,68,42
India,Andhra_Pradesh,Chittoor,"Gangineni Cheruvu, Chittoor - APPCB",31-10-2025 07:00:00,13.204880,79.097889,SO2,7,34,16
India,Andhra_Pradesh,Chittoor,"Gangineni Cheruvu, Chittoor - APPCB",31-10-2025 07:00:00,13.204880,79.097889,OZONE,50,58,55
India,Andhra_Pradesh,Rajamahendravaram,"Anand Kala Kshetram, Rajamahendravaram - APPCB",31-10-2025 07:00:00,16.9872867,81.7363176,PM2.5,NA,NA,NA
India,Andhra_Pradesh,Tirumala,"Toll Gate, Tirumala - APPCB",31-10-2025 07:00:00,13.67,79.35,SO2,6,7,7
India,Andhra_Pradesh,Tirumala,"Toll Gate, Tirumala - APPCB",31-10-2025 07:00:00,13.67,79.35,OZONE,7,28,18
India,Andaman and Nicobar,Sri Vijaya Puram,"Police Line, Sri Vijaya Puram - ANPCC",31-10-2025 07:00:00,11.654054,92.734055,PM2.5,NA,NA,NA
India,Andaman and Nicobar,Sri Vijaya Puram,"Police Line, Sri Vijaya Puram - ANPCC",31-10-2025 07:00:00,11.654054,92.734055,NH3,2,6,4
India,Andhra_Pradesh,Amaravati,"Secretariat, Amaravati - APPCB",31-10-2025 07:00:00,16.5150833,80.5181667,NH3,3,5,5
India,Andhra_Pradesh,Chittoor,"Gangineni Cheruvu, Chittoor - APPCB",31-10-2025 07:00:00,13.204880,79.097889,PM2.5,NA,NA,NA
India,Bihar,Katihar,"Mirchaibari, Katihar - BSPCB",31-10-2025 07:00:00,25.560083,87.553265,NO2,11,19,14
India,Bihar,Kishanganj,"SDM Office_Khagra, Kishanganj - BSPCB",31-10-2025 07:00:00,26.0881305,87.93840336,NH3,3,3,3
India,Bihar,Motihari,"Gandak Colony, Motihari - BSPCB",31-10-2025 07:00:00,26.63086,84.90051,PM2.5,18,22,20
India,Bihar,Motihari,"Gandak Colony, Motihari - BSPCB",31-10-2025 07:00:00,26.63086,84.90051,CO,14,20,16
India,Assam,Silchar,"Tarapur, Silchar - PCBA",31-10-2025 07:00:00,24.82827,92.79525,NH3,1,1,1
India,Assam,Sivasagar,"Girls College, Sivasagar - PCBA",31-10-2025 07:00:00,26.987634,94.636574,NO2,22,29,26
India,Chhattisgarh,Raipur,"AIIMS, Raipur - CECB",31-10-2025 07:00:00,21.258815,81.578979,CO,20,31,22
India,Chhattisgarh,Raipur,"Bhatagaon New ISBT, Raipur - CECB",31-10-2025 07:00:00,21.219665,81.630094,NO2,6,15,9
India,Chhattisgarh,Raipur,"Bhatagaon New ISBT, Raipur - CECB",31-10-2025 07:00:00,21.219665,81.630094,SO2,5,7,6
India,Chhattisgarh,Raipur,"Krishak Nagar, Raipur - CECB",31-10-2025 07:00:00,21.237755,81.705301,NH3,2,2,2
India,Chhattisgarh,Raipur,"Siltara Phase-II, Raipur - CECB",31-10-2025 07:00:00,21.371751,81.664929,PM10,12,40,24
India,Chhattisgarh,Raipur,"Siltara Phase-II, Raipur - CECB",31-10-2025 07:00:00,21.371751,81.664929,OZONE,4,25,13
India,Chhattisgarh,Tumidih,"OP Jindal Industrial Park, Tumidih - CECB",31-10-2025 07:00:00,22.06631475,83.33820077,NO2,20,51,33
India,Bihar,Motihari,"Gandak Colony, Motihari - BSPCB",31-10-2025 07:00:00,26.63086,84.90051,OZONE,3,4,3
India,Bihar,Munger,"Town Hall, Munger - BSPCB",31-10-2025 07:00:00,25.376776,86.471523,NO2,4,5,5
India,Bihar,Munger,"Town Hall, Munger - BSPCB",31-10-2025 07:00:00,25.376776,86.471523,SO2,14,18,16
India,Bihar,Muzaffarpur,"Buddha Colony, Muzaffarpur - BSPCB",31-10-2025 07:00:00,26.11442,85.39813,SO2,3,4,4
India,Bihar,Muzaffarpur,"Buddha Colony, Muzaffarpur - BSPCB",31-10-2025 07:00:00,26.11442,85.39813,OZONE,34,51,40
India,Bihar,Muzaffarpur,"Muzaffarpur Collectorate, Muzaffarpur - BSPCB",31-10-2025 07:00:00,26.1209,85.3647,OZONE,8,20,9
India,Bihar,Patna,"DRM Office Danapur, Patna - BSPCB",31-10-2025 07:00:00,25.586562,85.043586,PM10,NA,NA,NA
India,Bihar,Patna,"Rajbansi Nagar, Patna - BSPCB",31-10-2025 07:00:00,25.599486,85.113666,OZONE,4,6,6
India,Bihar,Purnia,"Mariam Nagar, Purnia - BSPCB",31-10-2025 07:00:00,25.366336,87.117468,SO2,16,17,17
India,Bihar,Purnia,"Mariam Nagar, Purnia - BSPCB",31-10-2025 07:00:00,25.366336,87.117468,CO,57,60,59
India,Bihar,Purnia,"Mariam Nagar, Purnia - BSPCB",31-10-2025 07:00:00,25.366336,87.117468,OZONE,18,26,23
India,Bihar,Rajgir,"Dangi Tola, Rajgir - BSPCB",31-10-2025 07:00:00,25.03280,85.41948,CO,75,96,89
India,Bihar,Saharsa,"Police Line, Saharsa - BSPCB",31-10-2025 07:00:00,25.892357,86.590325,PM2.5,3,22,11
India,Bihar,Saharsa,"Police Line, Saharsa - BSPCB",31-10-2025 07:00:00,25.892357,86.590325,CO,36,42,39
India,Bihar,Sasaram,"Dada Peer, Sasaram - BSPCB",31-10-2025 07:00:00,24.952822,84.002396,PM2.5,3,25,13
India,Bihar,Sasaram,"Dada Peer, Sasaram - BSPCB",31-10-2025 07:00:00,24.952822,84.002396,SO2,NA,NA,NA
India,Bihar,Siwan,"Chitragupta Nagar, Siwan - BSPCB",31-10-2025 07:00:00,26.2271665,84.3570427,CO,72,112,82
India,Chandigarh,Chandigarh,"Sector 22, Chandigarh - CPCC",31-10-2025 07:00:00,30.735567,76.775714,NH3,7,11,10
India,Chandigarh,Chandigarh,"Sector 22, Chandigarh - CPCC",31-10-2025 07:00:00,30.735567,76.775714,OZONE,5,58,21
India,Chandigarh,Chandigarh,"Sector-25, Chandigarh - CPCC",31-10-2025 07:00:00,30.751462,76.762879,PM2.5,41,130,75
India,Delhi,Delhi,"Alipur, Delhi - DPCC",31-10-2025 07:00:00,28.815329,77.153010,PM2.5,177,421,313
India,Delhi,Delhi,"Alipur, Delhi - DPCC",31-10-2025 07:00:00,28.815329,77.153010,CO,19,105,90
India,Delhi,Delhi,"Anand Vihar, Delhi - DPCC",31-10-2025 07:00:00,28.647622,77.3158090,NO2,40,122,75
India,Delhi,Delhi,"Ashok Vihar, Delhi - DPCC",31-10-2025 07:00:00,28.695381,77.181665,NO2,34,101,72
India,Delhi,Delhi,"Ashok Vihar, Delhi - DPCC",31-10-2025 07:00:00,28.695381,77.181665,CO,40,101,55
India,Delhi,Delhi,"Bawana, Delhi - DPCC",31-10-2025 07:00:00,28.776200,77.051074,PM10,120,412,252
India,Bihar,Patna,"DRM Office Danapur, Patna - BSPCB",31-10-2025 07:00:00,25.586562,85.043586,SO2,NA,NA,NA
India,Bihar,Patna,"Govt. High School Shikarpur, Patna - BSPCB",31-10-2025 07:00:00,25.592539,85.227158,NO2,9,11,10
India,Bihar,Patna,"Muradpur, Patna - BSPCB",31-10-2025 07:00:00,25.619651,85.147382,CO,30,66,57
India,Bihar,Patna,"Rajbansi Nagar, Patna - BSPCB",31-10-2025 07:00:00,25.599486,85.113666,NH3,8,9,9
India,Delhi,Delhi,"Bawana, Delhi - DPCC",31-10-2025 07:00:00,28.776200,77.051074,OZONE,3,121,4
India,Delhi,Delhi,"Burari Crossing, Delhi - IMD",31-10-2025 07:00:00,28.7256504,77.2011573,NO2,8,40,26
India,Delhi,Delhi,"Chandni Chowk, Delhi - IITM",31-10-2025 07:00:00,28.656756,77.227234,SO2,6,40,16
India,Delhi,Delhi,"DTU, Delhi - CPCB",31-10-2025 07:00:00,28.7500499,77.1112615,NO2,37,57,47
India,Chhattisgarh,Korba,"Rampur, Korba - CECB",31-10-2025 07:00:00,22.368195,82.746431,OZONE,NA,NA,NA
India,Chhattisgarh,Korba,"Urja Nagar, Korba - CECB",31-10-2025 07:00:00,22.348441,82.549611,CO,14,22,20
India,Chhattisgarh,Kunjemura,"OP Jindal School, Kunjemura - CECB",31-10-2025 07:00:00,22.126650,83.483212,PM10,12,29,17
India,Chhattisgarh,Kunjemura,"OP Jindal School, Kunjemura - CECB",31-10-2025 07:00:00,22.126650,83.483212,NO2,3,3,3
India,Chhattisgarh,Bhilai,"32Bungalows, Bhilai - CECB",31-10-2025 07:00:00,21.194815,81.314770,NH3,NA,NA,NA
India,Chhattisgarh,Bilaspur,"Mangala, Bilaspur - NTPC",31-10-2025 07:00:00,22.08815,82.13737,PM2.5,5,500,182
India,Chhattisgarh,Chhal,"Nawapara SECL Colony, Chhal - CECB",31-10-2025 07:00:00,22.118125,83.140608,PM10,20,71,44
India,Delhi,Delhi,"Nehru Nagar, Delhi - DPCC",31-10-2025 07:00:00,28.567890,77.250515,NO2,30,122,64
India,Delhi,Delhi,"Nehru Nagar, Delhi - DPCC",31-10-2025 07:00:00,28.567890,77.250515,CO,14,87,30
India,Delhi,Delhi,"North Campus, DU, Delhi - IMD",31-10-2025 07:00:00,28.6573814,77.1585447,NO2,85,186,141
India,Delhi,Delhi,"North Campus, DU, Delhi - IMD",31-10-2025 07:00:00,28.6573814,77.1585447,CO,10,115,46
India,Delhi,Delhi,"Okhla Phase-2, Delhi - DPCC",31-10-2025 07:00:00,28.530785,77.271255,PM2.5,140,474,265
India,Delhi,Delhi,"Okhla Phase-2, Delhi - DPCC",31-10-2025 07:00:00,28.530785,77.271255,NH3,7,12,10
India,Delhi,Delhi,"Okhla Phase-2, Delhi - DPCC",31-10-2025 07:00:00,28.530785,77.271255,SO2,5,14,9
India,Delhi,Delhi,"Patparganj, Delhi - DPCC",31-10-2025 07:00:00,28.623763,77.287209,PM2.5,130,453,269
India,Delhi,Delhi,"Patparganj, Delhi - DPCC",31-10-2025 07:00:00,28.623763,77.287209,OZONE,2,64,4
India,Delhi,Delhi,"Punjabi Bagh, Delhi - DPCC",31-10-2025 07:00:00,28.674045,77.131023,OZONE,2,67,3
India,Delhi,Delhi,"Wazirpur, Delhi - DPCC",31-10-2025 07:00:00,28.699793,77.165453,CO,6,38,26
India,Gujarat,Ahmedabad,"Chandkheda, Ahmedabad - IITM",31-10-2025 07:00:00,23.107969,72.574648,NO2,6,28,15
India,Gujarat,Ahmedabad,"Chandkheda, Ahmedabad - IITM",31-10-2025 07:00:00,23.107969,72.574648,CO,2,34,9
India,Gujarat,Ahmedabad,"Gyaspur, Ahmedabad - IITM",31-10-2025 07:00:00,22.977134,72.553024,SO2,3,51,18
India,Gujarat,Ahmedabad,"Maninagar, Ahmedabad - GPCB",31-10-2025 07:00:00,23.002657,72.591912,SO2,17,27,23
India,Gujarat,Ahmedabad,"Maninagar, Ahmedabad - GPCB",31-10-2025 07:00:00,23.002657,72.591912,OZONE,40,73,57
India,Gujarat,Ahmedabad,"Raikhad, Ahmedabad - IITM",31-10-2025 07:00:00,23.020509,72.579261,PM10,23,59,42
India,Gujarat,Ahmedabad,"Raikhad, Ahmedabad - IITM",31-10-2025 07:00:00,23.020509,72.579261,NH3,11,12,11
India,Delhi,Delhi,"Dr. Karni Singh Shooting Range, Delhi - DPCC",31-10-2025 07:00:00,28.498571,77.264840,OZONE,4,66,5
India,Delhi,Delhi,"Dwarka-Sector 8, Delhi - DPCC ",31-10-2025 07:00:00,28.5710274,77.0719006,OZONE,8,74,12
India,Delhi,Delhi,"IGI Airport (T3), Delhi - IMD",31-10-2025 07:00:00,28.5627763,77.1180053,PM2.5,76,399,222
India,Delhi,Delhi,"IHBAS, Dilshad Garden, Delhi - CPCB",31-10-2025 07:00:00,28.6811736,77.3025234,NH3,4,5,4
India,Delhi,Delhi,"IHBAS, Dilshad Garden, Delhi - CPCB",31-10-2025 07:00:00,28.6811736,77.3025234,CO,50,68,54
India,Delhi,Delhi,"Jahangirpuri, Delhi - DPCC",31-10-2025 07:00:00,28.732820,77.170633,PM2.5,193,463,321
India,Gujarat,Gandhinagar,"GIFT City, Gandhinagar - IITM",31-10-2025 07:00:00,23.163798,72.677768,PM2.5,12,71,44
India,Gujarat,Gandhinagar,"GIFT City, Gandhinagar - IITM",31-10-2025 07:00:00,23.163798,72.677768,NO2,5,29,12
India,Gujarat,Gandhinagar,"IIPHG Lekawada, Gandhinagar - IITM",31-10-2025 07:00:00,23.243639,72.68994,PM2.5,19,60,40
India,Gujarat,Gandhinagar,"IIPHG Lekawada, Gandhinagar - IITM",31-10-2025 07:00:00,23.243639,72.68994,NO2,NA,NA,NA
India,Gujarat,Gandhinagar,"Sector-10, Gandhinagar - GPCB",31-10-2025 07:00:00,23.221714,72.654328,PM2.5,18,70,45
India,Gujarat,Surat,"Science Center, Surat - SMC",31-10-2025 07:00:00,21.170046,72.795405,PM2.5,7,77,29
India,Gujarat,Surat,"Science Center, Surat - SMC",31-10-2025 07:00:00,21.170046,72.795405,PM10,13,133,66
India,Delhi,Delhi,"Pusa, Delhi - DPCC",31-10-2025 07:00:00,28.639652,77.146275,NO2,16,79,46
India,Delhi,Delhi,"Pusa, Delhi - DPCC",31-10-2025 07:00:00,28.639652,77.146275,NH3,12,22,18
India,Delhi,Delhi,"Pusa, Delhi - DPCC",31-10-2025 07:00:00,28.639652,77.146275,SO2,7,14,10
India,Delhi,Delhi,"Pusa, Delhi - IMD",31-10-2025 07:00:00,28.636110,77.173332,PM2.5,68,426,235
India,Delhi,Delhi,"R K Puram, Delhi - DPCC",31-10-2025 07:00:00,28.563262,77.186937,PM2.5,173,460,316
India,Delhi,Delhi,"R K Puram, Delhi - DPCC",31-10-2025 07:00:00,28.563262,77.186937,NO2,28,144,73
India,Delhi,Delhi,"Rohini, Delhi - DPCC",31-10-2025 07:00:00,28.732528,77.119920,NH3,11,17,14
India,Delhi,Delhi,"Mandir Marg, Delhi - DPCC",31-10-2025 07:00:00,28.636429,77.201067,CO,10,71,42
India,Delhi,Delhi,"Mandir Marg, Delhi - DPCC",31-10-2025 07:00:00,28.636429,77.201067,OZONE,4,44,11
India,Delhi,Delhi,"Mundka, Delhi - DPCC",31-10-2025 07:00:00,28.684678,77.076574,PM10,133,441,264
India,Delhi,Delhi,"Mundka, Delhi - DPCC",31-10-2025 07:00:00,28.684678,77.076574,NO2,100,150,128
India,Delhi,Delhi,"Mundka, Delhi - DPCC",31-10-2025 07:00:00,28.684678,77.076574,CO,38,90,50
India,Delhi,Delhi,"Najafgarh, Delhi - DPCC",31-10-2025 07:00:00,28.570173,76.933762,PM2.5,217,444,316
India,Delhi,Delhi,"Jahangirpuri, Delhi - DPCC",31-10-2025 07:00:00,28.732820,77.170633,NO2,52,114,86
India,Delhi,Delhi,"Jawaharlal Nehru Stadium, Delhi - DPCC",31-10-2025 07:00:00,28.580280,77.233829,NO2,48,176,99
India,Delhi,Delhi,"Jawaharlal Nehru Stadium, Delhi - DPCC",31-10-2025 07:00:00,28.580280,77.233829,NH3,5,17,10
India,Delhi,Delhi,"Lodhi Road, Delhi - IITM",31-10-2025 07:00:00,28.588333,77.221667,SO2,1,33,17
India,Gujarat,Ahmedabad,"SAC ISRO Bopal, Ahmedabad - IITM",31-10-2025 07:00:00,23.041137,72.456691,NO2,16,25,21
India,Gujarat,Ahmedabad,"SVPI Airport Hansol, Ahmedabad - IITM",31-10-2025 07:00:00,23.076793,72.627874,NO2,38,66,49
India,Gujarat,Ankleshwar,"GIDC, Ankleshwar - GPCB",31-10-2025 07:00:00,21.613267,73.010555,PM2.5,59,110,80
India,Delhi,Delhi,"Sonia Vihar, Delhi - DPCC",31-10-2025 07:00:00,28.710508,77.249485,OZONE,5,44,6
India,Delhi,Delhi,"Sri Aurobindo Marg, Delhi - DPCC",31-10-2025 07:00:00,28.531346,77.190156,PM2.5,63,352,175
India,Delhi,Delhi,"Vivek Vihar, Delhi - DPCC",31-10-2025 07:00:00,28.672342,77.315260,PM10,100,450,209
India,Haryana,Panipat,"Sector-18, Panipat - HSPCB",31-10-2025 07:00:00,29.432304,76.972765,PM10,53,368,126
India,Haryana,Panipat,"Sector-18, Panipat - HSPCB",31-10-2025 07:00:00,29.432304,76.972765,SO2,6,10,8
India,Haryana,Panipat,"Sector-18, Panipat - HSPCB",31-10-2025 07:00:00,29.432304,76.972765,CO,24,26,25
India,Haryana,Rohtak,"MD University, Rohtak - HSPCB",31-10-2025 07:00:00,28.52123,76.37138,NO2,11,12,12
India,Haryana,Rohtak,"MD University, Rohtak - HSPCB",31-10-2025 07:00:00,28.52123,76.37138,SO2,4,7,5
India,Haryana,Rohtak,"MD University, Rohtak - HSPCB",31-10-2025 07:00:00,28.52123,76.37138,CO,19,66,58
India,Haryana,Rohtak,"MD University, Rohtak - HSPCB",31-10-2025 07:00:00,28.52123,76.37138,OZONE,12,13,13
India,Haryana,Sirsa,"F-Block, Sirsa - HSPCB",31-10-2025 07:00:00,29.536400,75.015800,PM10,62,173,121
India,Haryana,Sirsa,"F-Block, Sirsa - HSPCB",31-10-2025 07:00:00,29.536400,75.015800,NO2,7,27,18
India,Haryana,Sirsa,"F-Block, Sirsa - HSPCB",31-10-2025 07:00:00,29.536400,75.015800,SO2,5,8,6
India,Haryana,Sonipat,"Murthal, Sonipat - HSPCB",31-10-2025 07:00:00,29.027200,77.062100,NO2,30,54,43
India,Haryana,Sonipat,"Murthal, Sonipat - HSPCB",31-10-2025 07:00:00,29.027200,77.062100,NH3,11,20,16
India,Haryana,Sonipat,"Murthal, Sonipat - HSPCB",31-10-2025 07:00:00,29.027200,77.062100,CO,24,38,37
India,Haryana,Sonipat,"Murthal, Sonipat - HSPCB",31-10-2025 07:00:00,29.027200,77.062100,OZONE,25,26,26
India,Haryana,Yamuna Nagar,"Gobind Pura, Yamuna Nagar - HSPCB",31-10-2025 07:00:00,30.1480566,77.2893471,PM10,66,161,124
India,Haryana,Manesar,"Sector-2 IMT, Manesar - HSPCB",31-10-2025 07:00:00,28.360699,76.936090,NO2,NA,NA,NA
India,Haryana,Manesar,"Sector-2 IMT, Manesar - HSPCB",31-10-2025 07:00:00,28.360699,76.936090,NH3,NA,NA,NA
India,Haryana,Narnaul,"Shastri Nagar, Narnaul - HSPCB",31-10-2025 07:00:00,28.060249,76.113115,PM2.5,140,186,153
India,Haryana,Palwal,"Shyam Nagar, Palwal - HSPCB",31-10-2025 07:00:00,28.1485564,77.3320667,PM10,94,98,96
India,Haryana,Palwal,"Shyam Nagar, Palwal - HSPCB",31-10-2025 07:00:00,28.1485564,77.3320667,CO,28,28,28
India,Haryana,Panchgaon,"Amity University, Panchgaon - IITM",31-10-2025 07:00:00,28.3153,76.9143,NO2,NA,NA,NA
India,Haryana,Panchgaon,"Amity University, Panchgaon - IITM",31-10-2025 07:00:00,28.3153,76.9143,SO2,NA,NA,NA
India,Haryana,Panchgaon,"Amity University, Panchgaon - IITM",31-10-2025 07:00:00,28.3153,76.9143,OZONE,NA,NA,NA
India,Haryana,Panchkula,"Sector-6, Panchkula - HSPCB ",31-10-2025 07:00:00,30.7057778,76.8531805555555,PM2.5,3,309,184
India,Haryana,Panchkula,"Sector-6, Panchkula - HSPCB ",31-10-2025 07:00:00,30.7057778,76.8531805555555,NO2,24,26,25
India,Haryana,Panchkula,"Sector-6, Panchkula - HSPCB ",31-10-2025 07:00:00,30.7057778,76.8531805555555,SO2,8,9,9
India,Haryana,Yamuna Nagar,"Gobind Pura, Yamuna Nagar - HSPCB",31-10-2025 07:00:00,30.1480566,77.2893471,SO2,10,16,12
India,Haryana,Yamuna Nagar,"Gobind Pura, Yamuna Nagar - HSPCB",31-10-2025 07:00:00,30.1480566,77.2893471,OZONE,39,43,39
India,Himachal Pradesh,Baddi,"HIMUDA Complex Phase-1, Baddi - HPPCB",31-10-2025 07:00:00,30.943887,76.801991,NO2,9,73,30
India,Himachal Pradesh,Baddi,"HIMUDA Complex Phase-1, Baddi - HPPCB",31-10-2025 07:00:00,30.943887,76.801991,CO,42,67,54
India,Jharkhand,Dhanbad,"Sardar Patel Nagar, Dhanbad - JSPCB",31-10-2025 07:00:00,23.80569,86.44268,PM2.5,2,56,27
India,Jharkhand,Dhanbad,"Sardar Patel Nagar, Dhanbad - JSPCB",31-10-2025 07:00:00,23.80569,86.44268,PM10,23,63,44
India,Karnataka,Belgaum,"Ramteerth Nagar, Belgaum - KSPCB",31-10-2025 07:00:00,15.888653,74.541751,NO2,12,73,33
India,Karnataka,Belgaum,"Ramteerth Nagar, Belgaum - KSPCB",31-10-2025 07:00:00,15.888653,74.541751,NH3,1,9,6
India,Haryana,Gurugram,"Sector-51, Gurugram - HSPCB",31-10-2025 07:00:00,28.4227,77.0667,NH3,NA,NA,NA
India,Haryana,Gurugram,"Sector-51, Gurugram - HSPCB",31-10-2025 07:00:00,28.4227,77.0667,SO2,NA,NA,NA
India,Haryana,Gurugram,"Sector-51, Gurugram - HSPCB",31-10-2025 07:00:00,28.4227,77.0667,OZONE,7,13,11
India,Haryana,Hisar,"Urban Estate-II, Hisar - HSPCB",31-10-2025 07:00:00,29.140560,75.744941,NH3,4,5,5
India,Haryana,Jind,"Police Lines, Jind - HSPCB",31-10-2025 07:00:00,29.307814,76.337619,PM2.5,186,392,283
India,Haryana,Jind,"Police Lines, Jind - HSPCB",31-10-2025 07:00:00,29.307814,76.337619,PM10,115,216,140
India,Haryana,Jind,"Police Lines, Jind - HSPCB",31-10-2025 07:00:00,29.307814,76.337619,NH3,4,5,5
India,Karnataka,Belgaum,"Ramteerth Nagar, Belgaum - KSPCB",31-10-2025 07:00:00,15.888653,74.541751,CO,22,28,24
India,Karnataka,Bengaluru,"BWSSB Kadabesanahalli, Bengaluru - CPCB",31-10-2025 07:00:00,12.9352049,77.6814488,SO2,NA,NA,NA
India,Karnataka,Bengaluru,"Bapuji Nagar, Bengaluru - KSPCB",31-10-2025 07:00:00,12.951913,77.539784,NH3,1,2,1
India,Karnataka,Bengaluru,"Bapuji Nagar, Bengaluru - KSPCB",31-10-2025 07:00:00,12.951913,77.539784,OZONE,1,38,4
India,Karnataka,Bengaluru,"City Railway Station, Bengaluru - KSPCB",31-10-2025 07:00:00,12.9756843,77.5660749,NO2,40,47,44
India,Haryana,Ballabgarh,"Nathu Colony, Ballabgarh - HSPCB",31-10-2025 07:00:00,28.3419248,77.319699,PM10,274,295,283
India,Haryana,Ballabgarh,"Nathu Colony, Ballabgarh - HSPCB",31-10-2025 07:00:00,28.3419248,77.319699,CO,48,52,50
India,Haryana,Bhiwani,"H.B. Colony, Bhiwani - HSPCB",31-10-2025 07:00:00,28.806223,76.141105,PM2.5,50,500,407
India,Haryana,Bhiwani,"H.B. Colony, Bhiwani - HSPCB",31-10-2025 07:00:00,28.806223,76.141105,NO2,2,34,32
India,Haryana,Dharuhera,"Municipal Corporation Office, Dharuhera -  HSPCB",31-10-2025 07:00:00,28.206800,76.799700,PM2.5,NA,NA,NA
India,Haryana,Dharuhera,"Municipal Corporation Office, Dharuhera -  HSPCB",31-10-2025 07:00:00,28.206800,76.799700,SO2,NA,NA,NA
India,Haryana,Kaithal,"Rishi Nagar, Kaithal - HSPCB",31-10-2025 07:00:00,29.8006,76.4155,NH3,2,6,6
India,Haryana,Kaithal,"Rishi Nagar, Kaithal - HSPCB",31-10-2025 07:00:00,29.8006,76.4155,OZONE,1,45,10
India,Haryana,Karnal,"Sector-12, Karnal - HSPCB",31-10-2025 07:00:00,29.695300,77.002700,CO,38,62,49
India,Haryana,Kurukshetra,"Sector-7, Kurukshetra - HSPCB",31-10-2025 07:00:00,29.966942,76.875879,CO,6,44,31
India,Haryana,Mandikhera,"General Hospital, Mandikhera - HSPCB",31-10-2025 07:00:00,27.9002,76.9938,CO,50,94,78
India,Haryana,Faridabad,"Sector 30, Faridabad - HSPCB",31-10-2025 07:00:00,28.4417,77.3217,PM10,164,169,166
India,Haryana,Faridabad,"Sector 30, Faridabad - HSPCB",31-10-2025 07:00:00,28.4417,77.3217,OZONE,17,19,18
India,Haryana,Gurugram,"NISE Gwal Pahari, Gurugram - IMD",31-10-2025 07:00:00,28.422681,77.148944,PM10,62,418,167
India,Haryana,Gurugram,"NISE Gwal Pahari, Gurugram - IMD",31-10-2025 07:00:00,28.422681,77.148944,OZONE,2,33,3
India,Gujarat,Vapi,"Phase-1 GIDC, Vapi - GPCB",31-10-2025 07:00:00,20.362421,72.918013,PM2.5,33,237,94
India,Gujarat,Vapi,"Phase-1 GIDC, Vapi - GPCB",31-10-2025 07:00:00,20.362421,72.918013,SO2,43,46,44
India,Gujarat,Vatva,"Phase-4 GIDC, Vatva - GPCB",31-10-2025 07:00:00,22.969611,72.643500,NO2,11,13,12
