country,state,city,station,last_update,latitude,longitude,pollutant_id,min_value,max_value,avg_value
India,Andhra_Pradesh,Visakhapatnam,"GVM Corporation, Visakhapatnam - APPCB",12-01-2026 08:00:00,17.72,83.3,PM10,65,113,90
India,Andhra_Pradesh,Visakhapatnam,"GVM Corporation, Visakhapatnam - APPCB",12-01-2026 08:00:00,17.72,83.3,NO2,33,114,60
India,Andhra_Pradesh,Visakhapatnam,"GVM Corporation, Visakhapatnam - APPCB",12-01-2026 08:00:00,17.72,83.3,NH3,3,4,3
India,Arunachal_Pradesh,Naharlagun,"Naharlagun, Naharlagun - APSPCB",12-01-2026 08:00:00,27.103358,93.679645,SO2,9,10,9
India,Assam,Byrnihat,"Central Academy for SFS, Byrnihat - PCBA",12-01-2026 08:00:00,26.071318,91.87488,PM2.5,96,242,133
India,Assam,Byrnihat,"Central Academy for SFS, Byrnihat - PCBA",12-01-2026 08:00:00,26.071318,91.87488,PM10,72,119,86
India,Assam,Guwahati,"LGBI Airport, Guwahati - PCBA",12-01-2026 08:00:00,26.10887,91.589544,PM2.5,53,141,94
India,Assam,Guwahati,"LGBI Airport, Guwahati - PCBA",12-01-2026 08:00:00,26.10887,91.589544,OZONE,12,14,13
India,Assam,Guwahati,"Railway Colony, Guwahati - PCBA",12-01-2026 08:00:00,26.181742,91.78063,PM2.5,62,382,260
India,Assam,Nalbari,"Bata Chowk, Nalbari - PCBA",12-01-2026 08:00:00,26.446912,91.439057,PM10,106,122,114
India,Assam,Nalbari,"Bata Chowk, Nalbari - PCBA",12-01-2026 08:00:00,26.446912,91.439057,NH3,6,6,6
India,Assam,Silchar,"Tarapur, Silchar - PCBA",12-01-2026 08:00:00,24.82827,92.79525,PM2.5,24,78,45
India,Assam,Silchar,"Tarapur, Silchar - PCBA",12-01-2026 08:00:00,24.82827,92.79525,PM10,48,59,54
India,Assam,Silchar,"Tarapur, Silchar - PCBA",12-01-2026 08:00:00,24.82827,92.79525,NO2,18,26,23
India,Assam,Silchar,"Tarapur, Silchar - PCBA",12-01-2026 08:00:00,24.82827,92.79525,SO2,3,6,5
India,Assam,Silchar,"Tarapur, Silchar - PCBA",12-01-2026 08:00:00,24.82827,92.79525,OZONE,2,3,2
India,Assam,Sivasagar,"Girls College, Sivasagar - PCBA",12-01-2026 08:00:00,26.987634,94.636574,NO2,29,54,37
India,Andhra_Pradesh,Vijayawada,"HB Colony, Vijayawada - APPCB",12-01-2026 08:00:00,16.536107,80.594233,OZONE,6,50,6
India,Andhra_Pradesh,Vijayawada,"Kanuru, Vijayawada - APPCB",12-01-2026 08:00:00,16.486692,80.699436,PM2.5,86,101,96
India,Andhra_Pradesh,Vijayawada,"Kanuru, Vijayawada - APPCB",12-01-2026 08:00:00,16.486692,80.699436,SO2,8,16,11
India,Andhra_Pradesh,Vijayawada,"Kanuru, Vijayawada - APPCB",12-01-2026 08:00:00,16.486692,80.699436,CO,34,48,47
India,Andhra_Pradesh,Vijayawada,"Rajiv Gandhi Park, Vijayawada - APPCB",12-01-2026 08:00:00,16.509717,80.612222,OZONE,15,60,24
India,Andhra_Pradesh,Vijayawada,"Rajiv Nagar, Vijayawada - APPCB",12-01-2026 08:00:00,16.554731,80.649110,SO2,NA,NA,NA
India,Andhra_Pradesh,Vijayawada,"Rajiv Nagar, Vijayawada - APPCB",12-01-2026 08:00:00,16.554731,80.649110,CO,NA,NA,NA
India,Andhra_Pradesh,Visakhapatnam,"GVM Corporation, Visakhapatnam - APPCB",12-01-2026 08:00:00,17.72,83.3,PM2.5,43,95,57
India,Bihar,Gaya,"Collectorate, Gaya - BSPCB",12-01-2026 08:00:00,24.7955,84.9994,SO2,7,8,8
India,Bihar,Gaya,"Kareemganj, Gaya - BSPCB",12-01-2026 08:00:00,24.792403,84.992416,PM2.5,30,117,66
India,Bihar,Gaya,"Kareemganj, Gaya - BSPCB",12-01-2026 08:00:00,24.792403,84.992416,NO2,3,7,4
India,Bihar,Gaya,"Kareemganj, Gaya - BSPCB",12-01-2026 08:00:00,24.792403,84.992416,NH3,5,6,5
India,Bihar,Gaya,"Kareemganj, Gaya - BSPCB",12-01-2026 08:00:00,24.792403,84.992416,CO,36,42,39
India,Bihar,Gaya,"SFTI Kusdihra, Gaya - BSPCB",12-01-2026 08:00:00,24.762518,84.982348,CO,30,56,46
India,Bihar,Hajipur,"Industrial Area, Hajipur - BSPCB",12-01-2026 08:00:00,25.697189,85.245900,NH3,2,13,7
India,Bihar,Katihar,"Mirchaibari, Katihar - BSPCB",12-01-2026 08:00:00,25.560083,87.553265,PM10,67,173,108
India,Bihar,Araria,"Kharahiya Basti, Araria - BSPCB",12-01-2026 08:00:00,26.146529,87.454184,OZONE,9,11,10
India,Bihar,Arrah,"New DM Office, Arrah - BSPCB",12-01-2026 08:00:00,25.5626095,84.663264,PM2.5,7,308,49
India,Bihar,Arrah,"New DM Office, Arrah - BSPCB",12-01-2026 08:00:00,25.5626095,84.663264,NO2,5,10,7
India,Bihar,Arrah,"New DM Office, Arrah - BSPCB",12-01-2026 08:00:00,25.5626095,84.663264,SO2,10,10,10
India,Bihar,Arrah,"New DM Office, Arrah - BSPCB",12-01-2026 08:00:00,25.5626095,84.663264,CO,34,74,56
India,Bihar,Arrah,"New DM Office, Arrah - BSPCB",12-01-2026 08:00:00,25.5626095,84.663264,OZONE,7,8,7
India,Bihar,Aurangabad,"Gurdeo Nagar, Aurangabad - BSPCB",12-01-2026 08:00:00,24.75746,84.366208,NH3,1,2,2
India,Bihar,Aurangabad,"Gurdeo Nagar, Aurangabad - BSPCB",12-01-2026 08:00:00,24.75746,84.366208,CO,80,103,102
India,Andhra_Pradesh,Rajamahendravaram,"Anand Kala Kshetram, Rajamahendravaram - APPCB",12-01-2026 08:00:00,16.9872867,81.7363176,SO2,11,64,28
India,Andhra_Pradesh,Rajamahendravaram,"Anand Kala Kshetram, Rajamahendravaram - APPCB",12-01-2026 08:00:00,16.9872867,81.7363176,OZONE,8,23,10
India,Andhra_Pradesh,Tirumala,"Toll Gate, Tirumala - APPCB",12-01-2026 08:00:00,13.67,79.35,PM2.5,56,88,72
India,Andhra_Pradesh,Tirupati,"Vaikuntapuram, Tirupati - APPCB",12-01-2026 08:00:00,13.615387,79.409230,SO2,16,17,16
India,Andhra_Pradesh,Vijayawada,"HB Colony, Vijayawada - APPCB",12-01-2026 08:00:00,16.536107,80.594233,PM10,60,102,80
India,Andhra_Pradesh,Vijayawada,"HB Colony, Vijayawada - APPCB",12-01-2026 08:00:00,16.536107,80.594233,NO2,13,13,13
India,Bihar,Bettiah,"Kamalnath Nagar, Bettiah - BSPCB",12-01-2026 08:00:00,26.80365,84.51954,NH3,1,1,1
India,Bihar,Bettiah,"Kamalnath Nagar, Bettiah - BSPCB",12-01-2026 08:00:00,26.80365,84.51954,SO2,1,26,6
India,Bihar,Bettiah,"Kamalnath Nagar, Bettiah - BSPCB",12-01-2026 08:00:00,26.80365,84.51954,CO,71,108,102
India,Bihar,Bhagalpur,"DM Office_Kachari Chowk, Bhagalpur - BSPCB",12-01-2026 08:00:00,25.251013,86.989001,PM2.5,NA,NA,NA
India,Bihar,Bhagalpur,"DM Office_Kachari Chowk, Bhagalpur - BSPCB",12-01-2026 08:00:00,25.251013,86.989001,NO2,NA,NA,NA
India,Bihar,Bhagalpur,"DM Office_Kachari Chowk, Bhagalpur - BSPCB",12-01-2026 08:00:00,25.251013,86.989001,NH3,NA,NA,NA
India,Bihar,Bhagalpur,"DM Office_Kachari Chowk, Bhagalpur - BSPCB",12-01-2026 08:00:00,25.251013,86.989001,OZONE,NA,NA,NA
India,Bihar,Bhagalpur,"Mayaganj, Bhagalpur - BSPCB",12-01-2026 08:00:00,25.265194,87.012947,PM2.5,83,183,133
India,Andhra_Pradesh,Amaravati,"Secretariat, Amaravati - APPCB",12-01-2026 08:00:00,16.5150833,80.5181667,NH3,4,5,5
India,Andhra_Pradesh,Anantapur,"Gulzarpet, Anantapur - APPCB",12-01-2026 08:00:00,14.675886,77.593027,PM10,78,87,83
India,Andhra_Pradesh,Chittoor,"Gangineni Cheruvu, Chittoor - APPCB",12-01-2026 08:00:00,13.204880,79.097889,OZONE,47,54,50
India,Andhra_Pradesh,Kadapa,"Yerramukkapalli, Kadapa - APPCB",12-01-2026 08:00:00,14.465052,78.824187,PM2.5,60,93,78
India,Andhra_Pradesh,Kadapa,"Yerramukkapalli, Kadapa - APPCB",12-01-2026 08:00:00,14.465052,78.824187,NO2,24,24,24
India,Bihar,Bihar Sharif,"D M Colony, Bihar Sharif - BSPCB",12-01-2026 08:00:00,25.204762,85.514960,PM2.5,NA,NA,NA
India,Bihar,Bihar Sharif,"D M Colony, Bihar Sharif - BSPCB",12-01-2026 08:00:00,25.204762,85.514960,SO2,10,10,10
India,Bihar,Bihar Sharif,"D M Colony, Bihar Sharif - BSPCB",12-01-2026 08:00:00,25.204762,85.514960,CO,3,100,12
India,Bihar,Buxar,"Charitra Van, Buxar - BSPCB",12-01-2026 08:00:00,25.567520,83.966379,PM10,85,137,112
India,Bihar,Chhapra,"Darshan Nagar, Chhapra - BSPCB",12-01-2026 08:00:00,25.7808257,84.7446768,PM2.5,53,173,98
India,Bihar,Chhapra,"Darshan Nagar, Chhapra - BSPCB",12-01-2026 08:00:00,25.7808257,84.7446768,NH3,8,10,9
India,Bihar,Katihar,"Mirchaibari, Katihar - BSPCB",12-01-2026 08:00:00,25.560083,87.553265,NH3,1,1,1
India,Bihar,Kishanganj,"SDM Office_Khagra, Kishanganj - BSPCB",12-01-2026 08:00:00,26.0881305,87.93840336,PM10,30,67,52
India,Bihar,Motihari,"Gandak Colony, Motihari - BSPCB",12-01-2026 08:00:00,26.63086,84.90051,SO2,2,3,3
India,Bihar,Siwan,"Chitragupta Nagar, Siwan - BSPCB",12-01-2026 08:00:00,26.2271665,84.3570427,PM2.5,NA,NA,NA
India,Bihar,Siwan,"Chitragupta Nagar, Siwan - BSPCB",12-01-2026 08:00:00,26.2271665,84.3570427,PM10,NA,NA,NA
India,Chandigarh,Chandigarh,"Sector 22, Chandigarh - CPCC",12-01-2026 08:00:00,30.735567,76.775714,NO2,28,110,44
India,Chandigarh,Chandigarh,"Sector 22, Chandigarh - CPCC",12-01-2026 08:00:00,30.735567,76.775714,CO,76,106,82
India,Chandigarh,Chandigarh,"Sector-25, Chandigarh - CPCC",12-01-2026 08:00:00,30.751462,76.762879,PM10,69,131,101
India,Chandigarh,Chandigarh,"Sector-25, Chandigarh - CPCC",12-01-2026 08:00:00,30.751462,76.762879,CO,32,44,33
India,Bihar,Rajgir,"Dangi Tola, Rajgir - BSPCB",12-01-2026 08:00:00,25.03280,85.41948,CO,72,101,89
India,Bihar,Rajgir,"Dangi Tola, Rajgir - BSPCB",12-01-2026 08:00:00,25.03280,85.41948,OZONE,29,35,32
India,Bihar,Saharsa,"Police Line, Saharsa - BSPCB",12-01-2026 08:00:00,25.892357,86.590325,CO,32,44,42
India,Bihar,Sasaram,"Dada Peer, Sasaram - BSPCB",12-01-2026 08:00:00,24.952822,84.002396,PM2.5,23,62,34
India,Bihar,Sasaram,"Dada Peer, Sasaram - BSPCB",12-01-2026 08:00:00,24.952822,84.002396,SO2,2,5,4
India,Chhattisgarh,Bhilai,"Civic Center, Bhilai - Bhilai Steel Plant",12-01-2026 08:00:00,21.185571,81.343175,CO,29,30,30
India,Chhattisgarh,Bhilai,"Civic Center, Bhilai - Bhilai Steel Plant",12-01-2026 08:00:00,21.185571,81.343175,OZONE,2,13,11
India,Chhattisgarh,Bhilai,"Hathkhoj, Bhilai - CECB",12-01-2026 08:00:00,21.224231,81.408350,PM2.5,19,68,42
India,Chhattisgarh,Bhilai,"Hathkhoj, Bhilai - CECB",12-01-2026 08:00:00,21.224231,81.408350,SO2,19,123,52
India,Chhattisgarh,Chhal,"Nawapara SECL Colony, Chhal - CECB",12-01-2026 08:00:00,22.118125,83.140608,PM2.5,36,86,51
India,Delhi,Delhi,"Alipur, Delhi - DPCC",12-01-2026 08:00:00,28.815329,77.153010,CO,16,94,56
India,Delhi,Delhi,"Ashok Vihar, Delhi - DPCC",12-01-2026 08:00:00,28.695381,77.181665,PM10,144,378,212
India,Delhi,Delhi,"Ashok Vihar, Delhi - DPCC",12-01-2026 08:00:00,28.695381,77.181665,SO2,10,21,16
India,Delhi,Delhi,"Ashok Vihar, Delhi - DPCC",12-01-2026 08:00:00,28.695381,77.181665,OZONE,4,66,9
India,Delhi,Delhi,"Aya Nagar, Delhi - IMD",12-01-2026 08:00:00,28.4706914,77.1099364,PM10,119,245,182
India,Bihar,Munger,"Town Hall, Munger - BSPCB",12-01-2026 08:00:00,25.376776,86.471523,SO2,37,98,56
India,Bihar,Muzaffarpur,"Buddha Colony, Muzaffarpur - BSPCB",12-01-2026 08:00:00,26.11442,85.39813,NH3,5,9,6
India,Bihar,Muzaffarpur,"Buddha Colony, Muzaffarpur - BSPCB",12-01-2026 08:00:00,26.11442,85.39813,CO,47,111,70
India,Bihar,Muzaffarpur,"MIT-Daudpur Kothi, Muzaffarpur - BSPCB",12-01-2026 08:00:00,26.1403345,85.3650192,PM10,63,80,70
India,Bihar,Patna,"Govt. High School Shikarpur, Patna - BSPCB",12-01-2026 08:00:00,25.592539,85.227158,OZONE,8,12,11
India,Bihar,Patna,"IGSC Planetarium Complex, Patna - BSPCB",12-01-2026 08:00:00,25.610369,85.132568,SO2,1,37,22
India,Bihar,Patna,"Muradpur, Patna - BSPCB",12-01-2026 08:00:00,25.619651,85.147382,PM2.5,11,308,235
India,Bihar,Patna,"Muradpur, Patna - BSPCB",12-01-2026 08:00:00,25.619651,85.147382,CO,3,85,55
India,Bihar,Patna,"Rajbansi Nagar, Patna - BSPCB",12-01-2026 08:00:00,25.599486,85.113666,PM10,81,180,127
India,Bihar,Patna,"Rajbansi Nagar, Patna - BSPCB",12-01-2026 08:00:00,25.599486,85.113666,OZONE,21,29,25
India,Bihar,Patna,"Samanpura, Patna - BSPCB",12-01-2026 08:00:00,25.596727,85.085624,SO2,1,2,1
India,Bihar,Purnia,"Mariam Nagar, Purnia - BSPCB",12-01-2026 08:00:00,25.366336,87.117468,NO2,NA,NA,NA
India,Chhattisgarh,Korba,"Rampur, Korba - CECB",12-01-2026 08:00:00,22.368195,82.746431,NO2,25,35,30
India,Chhattisgarh,Korba,"Rampur, Korba - CECB",12-01-2026 08:00:00,22.368195,82.746431,SO2,9,24,12
India,Chhattisgarh,Tumidih,"OP Jindal Industrial Park, Tumidih - CECB",12-01-2026 08:00:00,22.06631475,83.33820077,OZONE,9,109,20
India,Delhi,Delhi,"IIT Delhi, Delhi - IITM",12-01-2026 08:00:00,28.542460,77.191651,OZONE,8,41,9
India,Delhi,Delhi,"ITO, Delhi - CPCB",12-01-2026 08:00:00,28.628624,77.241060,NO2,32,110,61
India,Delhi,Delhi,"ITO, Delhi - CPCB",12-01-2026 08:00:00,28.628624,77.241060,CO,35,100,52
India,Delhi,Delhi,"Jahangirpuri, Delhi - DPCC",12-01-2026 08:00:00,28.732820,77.170633,SO2,3,23,10
India,Delhi,Delhi,"Jahangirpuri, Delhi - DPCC",12-01-2026 08:00:00,28.732820,77.170633,CO,32,107,47
India,Delhi,Delhi,"Jawaharlal Nehru Stadium, Delhi - DPCC",12-01-2026 08:00:00,28.580280,77.233829,PM10,111,287,199
India,Delhi,Delhi,"Jawaharlal Nehru Stadium, Delhi - DPCC",12-01-2026 08:00:00,28.580280,77.233829,OZONE,1,115,1
India,Delhi,Delhi,"Lodhi Road, Delhi - IMD",12-01-2026 08:00:00,28.5918245,77.2273074,NO2,29,55,38
India,Delhi,Delhi,"Major Dhyan Chand National Stadium, Delhi - DPCC",12-01-2026 08:00:00,28.611281,77.237738,PM10,115,252,178
India,Delhi,Delhi,"Sonia Vihar, Delhi - DPCC",12-01-2026 08:00:00,28.710508,77.249485,OZONE,3,63,9
India,Delhi,Delhi,"Sri Aurobindo Marg, Delhi - DPCC",12-01-2026 08:00:00,28.531346,77.190156,CO,20,68,40
India,Delhi,Delhi,"Vivek Vihar, Delhi - DPCC",12-01-2026 08:00:00,28.672342,77.315260,PM10,156,244,193
India,Delhi,Delhi,"Vivek Vihar, Delhi - DPCC",12-01-2026 08:00:00,28.672342,77.315260,CO,7,98,50
India,Delhi,Delhi,"Wazirpur, Delhi - DPCC",12-01-2026 08:00:00,28.699793,77.165453,PM2.5,157,392,313
India,Delhi,Delhi,"Wazirpur, Delhi - DPCC",12-01-2026 08:00:00,28.699793,77.165453,PM10,151,352,210
India,Delhi,Delhi,"Wazirpur, Delhi - DPCC",12-01-2026 08:00:00,28.699793,77.165453,NO2,120,182,137
India,Gujarat,Ahmedabad,"Chandkheda, Ahmedabad - IITM",12-01-2026 08:00:00,23.107969,72.574648,OZONE,6,62,21
India,Delhi,Delhi,"Dr. Karni Singh Shooting Range, Delhi - DPCC",12-01-2026 08:00:00,28.498571,77.264840,CO,18,76,32
India,Delhi,Delhi,"Dwarka-Sector 8, Delhi - DPCC ",12-01-2026 08:00:00,28.5710274,77.0719006,CO,34,103,48
India,Delhi,Delhi,"IGI Airport (T3), Delhi - IMD",12-01-2026 08:00:00,28.5627763,77.1180053,PM10,113,245,165
India,Delhi,Delhi,"IGI Airport (T3), Delhi - IMD",12-01-2026 08:00:00,28.5627763,77.1180053,NO2,42,99,69
India,Delhi,Delhi,"IGI Airport (T3), Delhi - IMD",12-01-2026 08:00:00,28.5627763,77.1180053,OZONE,9,50,10
India,Delhi,Delhi,"IHBAS, Dilshad Garden, Delhi - CPCB",12-01-2026 08:00:00,28.6811736,77.3025234,NH3,7,18,12
India,Delhi,Delhi,"IIT Delhi, Delhi - IITM",12-01-2026 08:00:00,28.542460,77.191651,CO,55,102,77
India,Delhi,Delhi,"R K Puram, Delhi - DPCC",12-01-2026 08:00:00,28.563262,77.186937,CO,47,103,97
India,Delhi,Delhi,"R K Puram, Delhi - DPCC",12-01-2026 08:00:00,28.563262,77.186937,OZONE,NA,NA,NA
India,Delhi,Delhi,"Rohini, Delhi - DPCC",12-01-2026 08:00:00,28.732528,77.119920,NH3,9,16,12
India,Delhi,Delhi,"Rohini, Delhi - DPCC",12-01-2026 08:00:00,28.732528,77.119920,SO2,7,11,8
India,Delhi,Delhi,"Rohini, Delhi - DPCC",12-01-2026 08:00:00,28.732528,77.119920,CO,24,58,45
India,Delhi,Delhi,"Shadipur, Delhi - CPCB",12-01-2026 08:00:00,28.6514781,77.1473105,CO,49,105,66
India,Delhi,Delhi,"Sirifort, Delhi - CPCB",12-01-2026 08:00:00,28.5504249,77.2159377,PM10,131,278,211
India,Delhi,Delhi,"Okhla Phase-2, Delhi - DPCC",12-01-2026 08:00:00,28.530785,77.271255,CO,101,130,112
India,Delhi,Delhi,"Okhla Phase-2, Delhi - DPCC",12-01-2026 08:00:00,28.530785,77.271255,OZONE,4,142,8
India,Delhi,Delhi,"Punjabi Bagh, Delhi - DPCC",12-01-2026 08:00:00,28.674045,77.131023,CO,40,82,59
India,Delhi,Delhi,"Pusa, Delhi - DPCC",12-01-2026 08:00:00,28.639652,77.146275,PM2.5,223,438,343
India,Delhi,Delhi,"Pusa, Delhi - DPCC",12-01-2026 08:00:00,28.639652,77.146275,CO,36,110,62
India,Delhi,Delhi,"Pusa, Delhi - IMD",12-01-2026 08:00:00,28.636110,77.173332,PM10,116,308,173
India,Delhi,Delhi,"Major Dhyan Chand National Stadium, Delhi - DPCC",12-01-2026 08:00:00,28.611281,77.237738,SO2,18,22,20
India,Delhi,Delhi,"Mandir Marg, Delhi - DPCC",12-01-2026 08:00:00,28.636429,77.201067,NO2,117,203,158
India,Delhi,Delhi,"Mandir Marg, Delhi - DPCC",12-01-2026 08:00:00,28.636429,77.201067,SO2,7,38,23
India,Delhi,Delhi,"NSIT Dwarka, Delhi - CPCB",12-01-2026 08:00:00,28.60909,77.0325413,PM2.5,69,251,111
India,Delhi,Delhi,"NSIT Dwarka, Delhi - CPCB",12-01-2026 08:00:00,28.60909,77.0325413,CO,38,94,46
India,Gujarat,Ahmedabad,"Maninagar, Ahmedabad - GPCB",12-01-2026 08:00:00,23.002657,72.591912,CO,22,31,27
India,Gujarat,Ahmedabad,"Raikhad, Ahmedabad - IITM",12-01-2026 08:00:00,23.020509,72.579261,PM10,151,198,171
India,Gujarat,Ahmedabad,"Raikhad, Ahmedabad - IITM",12-01-2026 08:00:00,23.020509,72.579261,SO2,12,21,15
India,Gujarat,Ahmedabad,"Raikhad, Ahmedabad - IITM",12-01-2026 08:00:00,23.020509,72.579261,OZONE,4,82,28
India,Gujarat,Ahmedabad,"Rakhial, Ahmedabad - IITM",12-01-2026 08:00:00,23.016834,72.625775,NO2,18,96,37
India,Delhi,Delhi,"Najafgarh, Delhi - DPCC",12-01-2026 08:00:00,28.570173,76.933762,NO2,83,104,94
India,Delhi,Delhi,"Najafgarh, Delhi - DPCC",12-01-2026 08:00:00,28.570173,76.933762,NH3,11,15,13
India,Delhi,Delhi,"Nehru Nagar, Delhi - DPCC",12-01-2026 08:00:00,28.567890,77.250515,NO2,34,99,59
India,Delhi,Delhi,"Nehru Nagar, Delhi - DPCC",12-01-2026 08:00:00,28.567890,77.250515,CO,86,141,115
India,Delhi,Delhi,"Okhla Phase-2, Delhi - DPCC",12-01-2026 08:00:00,28.530785,77.271255,NH3,17,25,20
India,Delhi,Delhi,"Burari Crossing, Delhi - IMD",12-01-2026 08:00:00,28.7256504,77.2011573,NO2,88,159,119
India,Delhi,Delhi,"DTU, Delhi - CPCB",12-01-2026 08:00:00,28.7500499,77.1112615,OZONE,17,27,18
India,Delhi,Delhi,"Dr. Karni Singh Shooting Range, Delhi - DPCC",12-01-2026 08:00:00,28.498571,77.264840,PM10,155,285,201
India,Haryana,Gurugram,"Teri Gram, Gurugram - HSPCB",12-01-2026 08:00:00,28.4275,77.1465,OZONE,3,15,4
India,Haryana,Gurugram,"Vikas Sadan, Gurugram - HSPCB",12-01-2026 08:00:00,28.4501238,77.0263051,PM10,152,367,204
India,Haryana,Hisar,"Urban Estate-II, Hisar - HSPCB",12-01-2026 08:00:00,29.140560,75.744941,PM10,NA,NA,NA
India,Haryana,Jind,"Police Lines, Jind - HSPCB",12-01-2026 08:00:00,29.307814,76.337619,PM2.5,97,221,153
India,Haryana,Jind,"Police Lines, Jind - HSPCB",12-01-2026 08:00:00,29.307814,76.337619,SO2,2,4,2
India,Haryana,Jind,"Police Lines, Jind - HSPCB",12-01-2026 08:00:00,29.307814,76.337619,OZONE,5,25,7
India,Haryana,Kaithal,"Rishi Nagar, Kaithal - HSPCB",12-01-2026 08:00:00,29.8006,76.4155,PM10,80,134,111
India,Haryana,Kaithal,"Rishi Nagar, Kaithal - HSPCB",12-01-2026 08:00:00,29.8006,76.4155,SO2,29,34,32
India,Gujarat,Gandhinagar,"GIFT City, Gandhinagar - IITM",12-01-2026 08:00:00,23.163798,72.677768,NO2,17,45,30
India,Gujarat,Gandhinagar,"IIPHG Lekawada, Gandhinagar - IITM",12-01-2026 08:00:00,23.243639,72.68994,OZONE,2,50,3
India,Gujarat,Gandhinagar,"Sector-10, Gandhinagar - GPCB",12-01-2026 08:00:00,23.221714,72.654328,NO2,24,57,31
India,Gujarat,Gandhinagar,"Sector-10, Gandhinagar - GPCB",12-01-2026 08:00:00,23.221714,72.654328,NH3,2,3,3
India,Gujarat,Gandhinagar,"Sector-10, Gandhinagar - GPCB",12-01-2026 08:00:00,23.221714,72.654328,SO2,8,16,13
India,Gujarat,Surat,"Science Center, Surat - SMC",12-01-2026 08:00:00,21.170046,72.795405,PM10,39,126,97
India,Gujarat,Surat,"Science Center, Surat - SMC",12-01-2026 08:00:00,21.170046,72.795405,NO2,16,16,16
India,Gujarat,Surat,"Science Center, Surat - SMC",12-01-2026 08:00:00,21.170046,72.795405,CO,38,42,40
India,Haryana,Faridabad,"Sector 30, Faridabad - HSPCB",12-01-2026 08:00:00,28.4417,77.3217,PM10,159,168,163
India,Haryana,Faridabad,"Sector 30, Faridabad - HSPCB",12-01-2026 08:00:00,28.4417,77.3217,OZONE,17,19,18
India,Haryana,Fatehabad,"Huda Sector, Fatehabad - HSPCB",12-01-2026 08:00:00,29.503664,75.467934,PM10,58,176,124
India,Haryana,Fatehabad,"Huda Sector, Fatehabad - HSPCB",12-01-2026 08:00:00,29.503664,75.467934,SO2,10,11,10
India,Haryana,Gurugram,"Sector-51, Gurugram - HSPCB",12-01-2026 08:00:00,28.4227,77.0667,PM2.5,237,366,323
India,Haryana,Gurugram,"Teri Gram, Gurugram - HSPCB",12-01-2026 08:00:00,28.4275,77.1465,NO2,36,74,50
India,Gujarat,Ahmedabad,"SAC ISRO Bopal, Ahmedabad - IITM",12-01-2026 08:00:00,23.041137,72.456691,SO2,1,17,4
India,Gujarat,Ahmedabad,"SAC ISRO Satellite, Ahmedabad - IITM",12-01-2026 08:00:00,23.023389,72.515201,CO,21,80,42
India,Gujarat,Ahmedabad,"SVPI Airport Hansol, Ahmedabad - IITM",12-01-2026 08:00:00,23.076793,72.627874,OZONE,8,84,25
India,Gujarat,Ankleshwar,"GIDC, Ankleshwar - GPCB",12-01-2026 08:00:00,21.613267,73.010555,PM2.5,71,146,120
India,Gujarat,Ankleshwar,"GIDC, Ankleshwar - GPCB",12-01-2026 08:00:00,21.613267,73.010555,NH3,8,8,8
India,Gujarat,Ankleshwar,"GIDC, Ankleshwar - GPCB",12-01-2026 08:00:00,21.613267,73.010555,SO2,26,28,27
India,Haryana,Narnaul,"Shastri Nagar, Narnaul - HSPCB",12-01-2026 08:00:00,28.060249,76.113115,PM2.5,89,356,226
India,Haryana,Narnaul,"Shastri Nagar, Narnaul - HSPCB",12-01-2026 08:00:00,28.060249,76.113115,OZONE,7,34,7
India,Haryana,Panchgaon,"Amity University, Panchgaon - IITM",12-01-2026 08:00:00,28.3153,76.9143,PM2.5,38,324,94
India,Haryana,Panchgaon,"Amity University, Panchgaon - IITM",12-01-2026 08:00:00,28.3153,76.9143,SO2,6,12,10
India,Haryana,Panipat,"Sector-18, Panipat - HSPCB",12-01-2026 08:00:00,29.432304,76.972765,PM2.5,100,305,198
India,Haryana,Panipat,"Sector-18, Panipat - HSPCB",12-01-2026 08:00:00,29.432304,76.972765,NO2,31,32,31
India,Haryana,Rohtak,"MD University, Rohtak - HSPCB",12-01-2026 08:00:00,28.52123,76.37138,PM10,NA,NA,NA
India,Haryana,Rohtak,"MD University, Rohtak - HSPCB",12-01-2026 08:00:00,28.52123,76.37138,NO2,NA,NA,NA
India,Haryana,Rohtak,"MD University, Rohtak - HSPCB",12-01-2026 08:00:00,28.52123,76.37138,SO2,NA,NA,NA
India,Haryana,Rohtak,"MD University, Rohtak - HSPCB",12-01-2026 08:00:00,28.52123,76.37138,CO,NA,NA,NA
India,Haryana,Sonipat,"Murthal, Sonipat - HSPCB",12-01-2026 08:00:00,29.027200,77.062100,PM2.5,50,275,136
India,Haryana,Sonipat,"Murthal, Sonipat - HSPCB",12-01-2026 08:00:00,29.027200,77.062100,PM10,51,110,82
India,Haryana,Sonipat,"Murthal, Sonipat - HSPCB",12-01-2026 08:00:00,29.027200,77.062100,NH3,18,46,27
India,Haryana,Sonipat,"Murthal, Sonipat - HSPCB",12-01-2026 08:00:00,29.027200,77.062100,SO2,7,10,8
India,Haryana,Charkhi Dadri,"Mini Secretariat, Charkhi Dadri - HSPCB",12-01-2026 08:00:00,28.593883,76.270653,NO2,9,25,15
India,Haryana,Dharuhera,"Municipal Corporation Office, Dharuhera -  HSPCB",12-01-2026 08:00:00,28.206800,76.799700,NH3,10,29,21
India,Haryana,Faridabad,"New Industrial Town, Faridabad - HSPCB",12-01-2026 08:00:00,28.39072,77.30059,PM2.5,208,223,215
India,Haryana,Faridabad,"New Industrial Town, Faridabad - HSPCB",12-01-2026 08:00:00,28.39072,77.30059,SO2,8,9,8
India,Haryana,Mandikhera,"General Hospital, Mandikhera(Nuh) - HSPCB",12-01-2026 08:00:00,27.9002,76.9938,NO2,20,23,21
India,Haryana,Manesar,"Sector-2 IMT, Manesar - HSPCB",12-01-2026 08:00:00,28.360699,76.936090,PM2.5,87,269,173
India,Haryana,Manesar,"Sector-2 IMT, Manesar - HSPCB",12-01-2026 08:00:00,28.360699,76.936090,SO2,5,14,9
India,Haryana,Ambala,"Patti Mehar, Ambala - HSPCB",12-01-2026 08:00:00,30.379589,76.778328,NO2,20,25,22
India,Haryana,Ambala,"Patti Mehar, Ambala - HSPCB",12-01-2026 08:00:00,30.379589,76.778328,NH3,9,11,10
India,Haryana,Ambala,"Patti Mehar, Ambala - HSPCB",12-01-2026 08:00:00,30.379589,76.778328,CO,27,42,28
India,Haryana,Ambala,"Patti Mehar, Ambala - HSPCB",12-01-2026 08:00:00,30.379589,76.778328,OZONE,12,39,12
India,Karnataka,Bengaluru,"Shivapura_Peenya, Bengaluru - KSPCB",12-01-2026 08:00:00,13.0246342,77.5080115,CO,44,56,46
India,Karnataka,Bengaluru,"Silk Board, Bengaluru - KSPCB",12-01-2026 08:00:00,12.917348,77.622813,PM2.5,39,62,50
India,Karnataka,Bengaluru,"Silk Board, Bengaluru - KSPCB",12-01-2026 08:00:00,12.917348,77.622813,NH3,4,12,6
India,Karnataka,Chamarajanagar,"Urban, Chamarajanagar - KSPCB",12-01-2026 08:00:00,11.55358,76.55521,NH3,1,2,2
India,Karnataka,Chamarajanagar,"Urban, Chamarajanagar - KSPCB",12-01-2026 08:00:00,11.55358,76.55521,OZONE,14,30,15
India,Karnataka,Chikkamagaluru,"Kalyana Nagara, Chikkamagaluru - KSPCB",12-01-2026 08:00:00,13.328028,75.797056,PM2.5,NA,NA,NA
India,Karnataka,Chikkamagaluru,"Kalyana Nagara, Chikkamagaluru - KSPCB",12-01-2026 08:00:00,13.328028,75.797056,SO2,NA,NA,NA
India,Karnataka,Dharwad,"Kalabhavan, Dharwad - KSPCB",12-01-2026 08:00:00,15.459706,75.008381,NO2,18,19,18
India,Karnataka,Bengaluru,"Jayanagar 5th Block, Bengaluru - KSPCB",12-01-2026 08:00:00,12.920984,77.584908,OZONE,30,63,54
India,Karnataka,Bengaluru,"Jigani, Bengaluru - KSPCB",12-01-2026 08:00:00,12.7816279,77.6299145,OZONE,19,21,20
India,Karnataka,Bengaluru,"Kasturi Nagar, Bengaluru - KSPCB",12-01-2026 08:00:00,13.003872,77.664217,PM10,71,80,79
India,Karnataka,Bengaluru,"Kasturi Nagar, Bengaluru - KSPCB",12-01-2026 08:00:00,13.003872,77.664217,NH3,5,5,5
India,Karnataka,Bengaluru,"Kasturi Nagar, Bengaluru - KSPCB",12-01-2026 08:00:00,13.003872,77.664217,OZONE,23,24,23
India,Karnataka,Bengaluru,"Peenya, Bengaluru - CPCB",12-01-2026 08:00:00,13.0270199,77.494094,PM10,65,87,74
India,Karnataka,Bengaluru,"Peenya, Bengaluru - CPCB",12-01-2026 08:00:00,13.0270199,77.494094,CO,30,40,35
India,Karnataka,Bengaluru,"Shivapura_Peenya, Bengaluru - KSPCB",12-01-2026 08:00:00,13.0246342,77.5080115,PM2.5,18,30,22
India,Karnataka,Yadgir,"Collector Office, Yadgir - KSPCB",12-01-2026 08:00:00,16.7602,77.1428,PM2.5,19,85,50
India,Karnataka,Yadgir,"Collector Office, Yadgir - KSPCB",12-01-2026 08:00:00,16.7602,77.1428,OZONE,17,22,18
India,Kerala,Kannur,"Thavakkara, Kannur - Kerala PCB",12-01-2026 08:00:00,11.875000,75.373200,NO2,16,17,16
India,Kerala,Thiruvananthapuram,"Kariavattom, Thiruvananthapuram - Kerala PCB",12-01-2026 08:00:00,8.563700,76.886500,PM2.5,7,367,93
India,Kerala,Thiruvananthapuram,"Plammoodu, Thiruvananthapuram - Kerala PCB",12-01-2026 08:00:00,8.5149093,76.9435879,PM2.5,12,41,26
India,Kerala,Thiruvananthapuram,"Plammoodu, Thiruvananthapuram - Kerala PCB",12-01-2026 08:00:00,8.5149093,76.9435879,SO2,5,28,16
India,Karnataka,Bagalkot,"Vidayagiri, Bagalkot - KSPCB",12-01-2026 08:00:00,16.172806,75.659694,NH3,1,2,1
India,Karnataka,Bagalkot,"Vidayagiri, Bagalkot - KSPCB",12-01-2026 08:00:00,16.172806,75.659694,OZONE,12,12,12
India,Karnataka,Belgaum,"Ramteerth Nagar, Belgaum - KSPCB",12-01-2026 08:00:00,15.888653,74.541751,OZONE,19,20,19
India,Karnataka,Bengaluru,"BTM Layout, Bengaluru - CPCB",12-01-2026 08:00:00,12.9135218,77.5950804,PM2.5,70,159,86
India,Karnataka,Bengaluru,"BWSSB Kadabesanahalli, Bengaluru - CPCB",12-01-2026 08:00:00,12.9352049,77.6814488,NH3,1,1,1
India,Karnataka,Bengaluru,"BWSSB Kadabesanahalli, Bengaluru - CPCB",12-01-2026 08:00:00,12.9352049,77.6814488,OZONE,28,56,48
India,Karnataka,Bengaluru,"Bapuji Nagar, Bengaluru - KSPCB",12-01-2026 08:00:00,12.951913,77.539784,PM10,64,131,92
India,Karnataka,Bengaluru,"Bapuji Nagar, Bengaluru - KSPCB",12-01-2026 08:00:00,12.951913,77.539784,NH3,2,2,2
India,Karnataka,Bengaluru,"Bapuji Nagar, Bengaluru - KSPCB",12-01-2026 08:00:00,12.951913,77.539784,CO,1,30,10
India,Karnataka,Bengaluru,"City Railway Station, Bengaluru - KSPCB",12-01-2026 08:00:00,12.9756843,77.5660749,NO2,31,34,32
India,Karnataka,Bengaluru,"Hebbal, Bengaluru - KSPCB",12-01-2026 08:00:00,13.029152,77.585901,SO2,7,20,13
India,Karnataka,Bengaluru,"Jayanagar 5th Block, Bengaluru - KSPCB",12-01-2026 08:00:00,12.920984,77.584908,NH3,1,1,1
India,Himachal Pradesh,Baddi,"HIMUDA Complex Phase-1, Baddi - HPPCB",12-01-2026 08:00:00,30.943887,76.801991,CO,70,112,92
India,Jammu_and_Kashmir,Srinagar,"Rajbagh, Srinagar - JKPCC",12-01-2026 08:00:00,34.066206,74.819820,PM2.5,12,23,19
India,Jammu_and_Kashmir,Srinagar,"Rajbagh, Srinagar - JKPCC",12-01-2026 08:00:00,34.066206,74.819820,PM10,18,37,30
India,Jharkhand,Dhanbad,"Sardar Patel Nagar, Dhanbad - JSPCB",12-01-2026 08:00:00,23.80569,86.44268,PM2.5,45,190,97
India,Kerala,Thiruvananthapuram,"Plammoodu, Thiruvananthapuram - Kerala PCB",12-01-2026 08:00:00,8.5149093,76.9435879,OZONE,7,31,18
India,Kerala,Thrissur,"Corporation Ground, Thrissur - Kerala PCB",12-01-2026 08:00:00,10.532400,76.215900,PM2.5,52,63,58
India,Kerala,Thrissur,"Corporation Ground, Thrissur - Kerala PCB",12-01-2026 08:00:00,10.532400,76.215900,CO,36,43,40
India,Madhya Pradesh,Damoh,"Shrivastav Colony, Damoh - MPPCB",12-01-2026 08:00:00,23.81748678,79.446246,SO2,44,55,50
India,Karnataka,Hubballi,"Lingaraj Nagar, Hubballi - KSPCB",12-01-2026 08:00:00,15.3714823,75.1160168,PM2.5,44,45,44
India,Karnataka,Hubballi,"Lingaraj Nagar, Hubballi - KSPCB",12-01-2026 08:00:00,15.3714823,75.1160168,PM10,62,63,62
India,Karnataka,Hubballi,"Lingaraj Nagar, Hubballi - KSPCB",12-01-2026 08:00:00,15.3714823,75.1160168,SO2,1,4,2
India,Karnataka,Hubballi,"Lingaraj Nagar, Hubballi - KSPCB",12-01-2026 08:00:00,15.3714823,75.1160168,CO,16,52,19
India,Karnataka,Mysuru,"Hebbal 1st Stage, Mysuru - KSPCB",12-01-2026 08:00:00,12.21041,76.37376,PM10,33,75,46
India,Karnataka,Mysuru,"Hebbal 1st Stage, Mysuru - KSPCB",12-01-2026 08:00:00,12.21041,76.37376,SO2,3,5,4
India,Karnataka,Ramanagara,"Vijay Nagar, Ramanagara - KSPCB",12-01-2026 08:00:00,12.733409,77.298051,PM2.5,13,68,36
India,Karnataka,Ramanagara,"Vijay Nagar, Ramanagara - KSPCB",12-01-2026 08:00:00,12.733409,77.298051,NH3,1,2,2
India,Karnataka,Ramanagara,"Vijay Nagar, Ramanagara - KSPCB",12-01-2026 08:00:00,12.733409,77.298051,CO,22,35,28
India,Karnataka,Shivamogga,"Vinoba Nagara, Shivamogga - KSPCB",12-01-2026 08:00:00,13.940000,75.555917,NO2,NA,NA,NA
India,Karnataka,Tumakuru,"Thimmalapura, Tumakuru - KSPCB",12-01-2026 08:00:00,13.377516,77.099072,SO2,26,27,26
India,Madhya Pradesh,Damoh,"Shrivastav Colony, Damoh - MPPCB",12-01-2026 08:00:00,23.81748678,79.446246,CO,32,38,36
India,Madhya Pradesh,Dewas,"Bhopal Chauraha, Dewas - MPPCB",12-01-2026 08:00:00,22.9682591,76.064118,NH3,6,33,18
India,Madhya Pradesh,Dewas,"Bhopal Chauraha, Dewas - MPPCB",12-01-2026 08:00:00,22.9682591,76.064118,CO,16,42,27
India,Madhya Pradesh,Gwalior,"City Center, Gwalior - MPPCB",12-01-2026 08:00:00,26.203442,78.193251,PM10,93,162,131
India,Madhya Pradesh,Gwalior,"City Center, Gwalior - MPPCB",12-01-2026 08:00:00,26.203442,78.193251,OZONE,21,56,24
India,Madhya Pradesh,Gwalior,"Deen Dayal Nagar, Gwalior - MPPCB",12-01-2026 08:00:00,26.259242,78.216432,PM2.5,62,295,170
India,Madhya Pradesh,Gwalior,"Deen Dayal Nagar, Gwalior - MPPCB",12-01-2026 08:00:00,26.259242,78.216432,NH3,5,12,8
India,Madhya Pradesh,Gwalior,"Deen Dayal Nagar, Gwalior - MPPCB",12-01-2026 08:00:00,26.259242,78.216432,SO2,1,14,6
India,Madhya Pradesh,Sagar,"Deen Dayal Nagar, Sagar - MPPCB",12-01-2026 08:00:00,23.8640158,78.80289321,SO2,6,12,8
India,Madhya Pradesh,Singrauli,"Suryakiran Bhawan NCL, Singrauli - MPPCB",12-01-2026 08:00:00,24.108970,82.645580,NH3,NA,NA,NA
India,Madhya Pradesh,Singrauli,"Suryakiran Bhawan NCL, Singrauli - MPPCB",12-01-2026 08:00:00,24.108970,82.645580,SO2,NA,NA,NA
India,Madhya Pradesh,Singrauli,"Suryakiran Bhawan NCL, Singrauli - MPPCB",12-01-2026 08:00:00,24.108970,82.645580,CO,NA,NA,NA
India,Madhya Pradesh,Singrauli,"Suryakiran Bhawan NCL, Singrauli - MPPCB",12-01-2026 08:00:00,24.108970,82.645580,OZONE,NA,NA,NA
India,Madhya Pradesh,Ujjain,"Mahashweta Nagar, Ujjain - MPPCB",12-01-2026 08:00:00,23.1633321,75.800225,NH3,9,19,15
India,Maharashtra,Ahmednagar,"Tarakpur, Ahmednagar - MPCB",12-01-2026 08:00:00,19.10122,74.73339,PM10,67,133,103
India,Maharashtra,Ahmednagar,"Tarakpur, Ahmednagar - MPCB",12-01-2026 08:00:00,19.10122,74.73339,SO2,2,12,5
India,Madhya Pradesh,Indore,"Chhoti Gwaltoli, Indore - MPPCB",12-01-2026 08:00:00,22.4310,75.5213,NO2,95,170,129
India,Madhya Pradesh,Indore,"Regional Park, Indore - IMC",12-01-2026 08:00:00,22.6780,75.8559,OZONE,22,80,28
India,Madhya Pradesh,Indore,"Residency Area, Indore - IMC",12-01-2026 08:00:00,22.7084,75.8815,PM2.5,39,278,90
India,Madhya Pradesh,Indore,"Residency Area, Indore - IMC",12-01-2026 08:00:00,22.7084,75.8815,OZONE,14,19,15
India,Madhya Pradesh,Jabalpur,"Govindh Bhavan Colony, Jabalpur - JMC",12-01-2026 08:00:00,23.163174,79.973061,PM10,53,103,68
India,Madhya Pradesh,Maihar,"Sahilara, Maihar - KJS Cements",12-01-2026 08:00:00,24.2613009,80.7231783,SO2,19,20,19
India,Madhya Pradesh,Mandideep,"Sector-D Industrial Area, Mandideep - MPPCB",12-01-2026 08:00:00,23.108440,77.511428,SO2,30,113,53
India,Madhya Pradesh,Pithampur,"Sector-2 Industrial Area, Pithampur - MPPCB",12-01-2026 08:00:00,22.624758,75.675238,SO2,1,24,11
India,Madhya Pradesh,Ratlam,"Shasthri Nagar, Ratlam - IPCA Lab",12-01-2026 08:00:00,23.331731,75.045981,SO2,31,36,33
India,Maharashtra,Akola,"Ramdaspeth, Akola - MPCB",12-01-2026 08:00:00,20.719516,77.000253,SO2,21,51,29
India,Maharashtra,Amravati,"Shri Shivaji Science College, Amravati - MPCB",12-01-2026 08:00:00,20.939198,77.765701,NO2,2,16,5
India,Maharashtra,Amravati,"Shri Shivaji Science College, Amravati - MPCB",12-01-2026 08:00:00,20.939198,77.765701,CO,38,74,43
India,Maharashtra,Aurangabad,"MIDC Chilkalthana, Aurangabad - MPCB",12-01-2026 08:00:00,19.875620,75.387310,PM2.5,29,158,73
India,Maharashtra,Aurangabad,"MIDC Chilkalthana, Aurangabad - MPCB",12-01-2026 08:00:00,19.875620,75.387310,CO,8,12,11
India,Maharashtra,Aurangabad,"More Chowk Waluj, Aurangabad - MPCB",12-01-2026 08:00:00,19.8389439,75.244448,CO,21,107,56
India,Maharashtra,Aurangabad,"Rachnakar Colony, Aurangabad - MPCB",12-01-2026 08:00:00,19.863756,75.321188,OZONE,12,56,13
India,Maharashtra,Bhiwandi,"Gokul Nagar, Bhiwandi - MPCB",12-01-2026 08:00:00,19.309073,73.057223,PM10,79,176,132
India,Maharashtra,Chandrapur,"Chauhan Colony, Chandrapur - MPCB",12-01-2026 08:00:00,19.962900,79.298714,NO2,30,35,32
India,Maharashtra,Chandrapur,"MIDC Khutala, Chandrapur - MPCB",12-01-2026 08:00:00,19.9775302,79.2337086,PM2.5,38,109,69
India,Maharashtra,Dhule,"Deopur, Dhule - MPCB",12-01-2026 08:00:00,20.918946,74.776388,NH3,1,2,1
India,Maharashtra,Kolhapur,"Sinchan Bhavan, Kolhapur - MPCB",12-01-2026 08:00:00,16.7143745,74.2426398,SO2,2,10,5
India,Maharashtra,Kolhapur,"Sinchan Bhavan, Kolhapur - MPCB",12-01-2026 08:00:00,16.7143745,74.2426398,OZONE,4,48,6
India,Maharashtra,Mahad,"Kamble Tarf Birwadi, Mahad - MPCB",12-01-2026 08:00:00,18.1023399,73.4783687,NO2,NA,NA,NA
India,Maharashtra,Mahad,"Kamble Tarf Birwadi, Mahad - MPCB",12-01-2026 08:00:00,18.1023399,73.4783687,NH3,NA,NA,NA
India,Madhya Pradesh,Jabalpur,"Gupteshwar, Jabalpur - JMC",12-01-2026 08:00:00,23.142888,79.916147,PM2.5,47,349,186
India,Madhya Pradesh,Jabalpur,"Marhatal, Jabalpur - MPPCB",12-01-2026 08:00:00,23.168606,79.932247,NO2,15,52,28
India,Madhya Pradesh,Jabalpur,"Suhagi, Jabalpur - JMC",12-01-2026 08:00:00,23.218135,79.957770,NO2,14,106,41
India,Maharashtra,Mumbai,"Bandra Kurla Complex, Mumbai - MPCB",12-01-2026 08:00:00,19.065931,72.862131,CO,12,18,16
India,Maharashtra,Mumbai,"Bandra Kurla Complex, Mumbai - MPCB",12-01-2026 08:00:00,19.065931,72.862131,OZONE,1,66,8
India,Maharashtra,Mumbai,"Borivali East, Mumbai - IITM",12-01-2026 08:00:00,19.23241,72.86895,PM10,81,157,119
India,Maharashtra,Mumbai,"Borivali East, Mumbai - IITM",12-01-2026 08:00:00,19.23241,72.86895,NH3,4,5,4
India,Maharashtra,Mumbai,"Byculla, Mumbai - BMC",12-01-2026 08:00:00,18.9767,72.8380,PM10,77,104,92
India,Maharashtra,Mumbai,"Byculla, Mumbai - BMC",12-01-2026 08:00:00,18.9767,72.8380,NO2,41,117,78
India,Maharashtra,Mumbai,"Byculla, Mumbai - BMC",12-01-2026 08:00:00,18.9767,72.8380,NH3,8,24,15
India,Maharashtra,Mumbai,"Chakala-Andheri East, Mumbai - IITM",12-01-2026 08:00:00,19.11074,72.86084,NH3,7,63,22
India,Maharashtra,Mumbai,"Chembur, Mumbai - MPCB",12-01-2026 08:00:00,19.0364585,72.8954371,PM10,99,115,107
India,Maharashtra,Mumbai,"Chembur, Mumbai - MPCB",12-01-2026 08:00:00,19.0364585,72.8954371,NH3,12,17,15
India,Maharashtra,Mumbai,"Chembur, Mumbai - MPCB",12-01-2026 08:00:00,19.0364585,72.8954371,SO2,3,21,12
India,Maharashtra,Mumbai,"Chembur, Mumbai - MPCB",12-01-2026 08:00:00,19.0364585,72.8954371,CO,32,84,52
India,Maharashtra,Mumbai,"Chhatrapati Shivaji Intl. Airport (T2), Mumbai - MPCB",12-01-2026 08:00:00,19.10078,72.87462,PM10,69,154,116
India,Maharashtra,Mumbai,"Chhatrapati Shivaji Intl. Airport (T2), Mumbai - MPCB",12-01-2026 08:00:00,19.10078,72.87462,OZONE,7,8,7
India,Maharashtra,Mumbai,"Colaba, Mumbai - MPCB",12-01-2026 08:00:00,18.910000,72.820000,SO2,NA,NA,NA
India,Maharashtra,Mumbai,"Deonar, Mumbai - IITM",12-01-2026 08:00:00,19.04946,72.9230,PM10,95,176,140
India,Maharashtra,Mumbai,"Deonar, Mumbai - IITM",12-01-2026 08:00:00,19.04946,72.9230,CO,34,109,56
India,Maharashtra,Mumbai,"Kandivali East, Mumbai - MPCB",12-01-2026 08:00:00,19.205800,72.868200,SO2,24,26,25
India,Maharashtra,Mumbai,"Kandivali West, Mumbai - BMC",12-01-2026 08:00:00,19.215859,72.831718,PM2.5,54,112,84
India,Maharashtra,Mumbai,"Kandivali West, Mumbai - BMC",12-01-2026 08:00:00,19.215859,72.831718,PM10,75,115,101
India,Maharashtra,Mumbai,"Kandivali West, Mumbai - BMC",12-01-2026 08:00:00,19.215859,72.831718,NH3,1,3,2
India,Maharashtra,Mumbai,"Kherwadi_Bandra East, Mumbai - MPCB",12-01-2026 08:00:00,19.0632143,72.8456324,PM2.5,78,186,122
India,Maharashtra,Mumbai,"Kherwadi_Bandra East, Mumbai - MPCB",12-01-2026 08:00:00,19.0632143,72.8456324,PM10,91,158,120
India,Maharashtra,Mumbai,"Kurla, Mumbai - MPCB",12-01-2026 08:00:00,19.0863,72.8888,PM10,86,154,115
India,Maharashtra,Mumbai,"Kurla, Mumbai - MPCB",12-01-2026 08:00:00,19.0863,72.8888,SO2,36,37,37
India,Maharashtra,Mumbai,"Navy Nagar-Colaba, Mumbai - IITM",12-01-2026 08:00:00,18.897756,72.813320,NH3,5,10,7
India,Maharashtra,Mumbai,"Navy Nagar-Colaba, Mumbai - IITM",12-01-2026 08:00:00,18.897756,72.813320,OZONE,10,80,26
India,Maharashtra,Mumbai,"Powai, Mumbai - MPCB",12-01-2026 08:00:00,19.137500,72.915056,PM10,33,68,48
India,Maharashtra,Mumbai,"Sewri, Mumbai - BMC",12-01-2026 08:00:00,19.000084,72.856730,PM10,93,126,110
India,Maharashtra,Mumbai,"Sewri, Mumbai - BMC",12-01-2026 08:00:00,19.000084,72.856730,SO2,1,75,14
India,Maharashtra,Mumbai,"Shivaji Nagar, Mumbai - BMC",12-01-2026 08:00:00,19.060498,72.923356,NO2,29,118,63
India,Maharashtra,Mumbai,"Siddharth Nagar-Worli, Mumbai - IITM",12-01-2026 08:00:00,19.000083,72.813993,NH3,NA,NA,NA
India,Maharashtra,Nagpur,"Ram Nagar, Nagpur - MPCB",12-01-2026 08:00:00,21.143383,79.048912,SO2,10,79,25
India,Maharashtra,Nanded,"Sneh Nagar, Nanded - MPCB",12-01-2026 08:00:00,19.173852,77.296291,CO,18,28,24
India,Maharashtra,Nashik,"Gangapur Road, Nashik - MPCB",12-01-2026 08:00:00,20.0073285,73.7762427,PM2.5,54,141,81
India,Maharashtra,Nashik,"Gangapur Road, Nashik - MPCB",12-01-2026 08:00:00,20.0073285,73.7762427,PM10,66,126,96
India,Maharashtra,Nashik,"Gangapur Road, Nashik - MPCB",12-01-2026 08:00:00,20.0073285,73.7762427,NO2,5,5,5
India,Maharashtra,Nashik,"Gangapur Road, Nashik - MPCB",12-01-2026 08:00:00,20.0073285,73.7762427,SO2,NA,NA,NA
India,Maharashtra,Nashik,"Hirawadi, Nashik - MPCB",12-01-2026 08:00:00,20.021503,73.813844,PM2.5,49,86,66
India,Maharashtra,Mumbai,"Kurla, Mumbai - MPCB",12-01-2026 08:00:00,19.0863,72.8888,OZONE,28,29,28
India,Maharashtra,Mumbai,"Mazgaon, Mumbai - IITM",12-01-2026 08:00:00,18.96702,72.84214,CO,2,54,17
India,Maharashtra,Mumbai,"Mindspace-Malad West, Mumbai - MPCB",12-01-2026 08:00:00,19.1878657,72.8304069,PM2.5,NA,NA,NA
India,Maharashtra,Mumbai,"Mindspace-Malad West, Mumbai - MPCB",12-01-2026 08:00:00,19.1878657,72.8304069,SO2,NA,NA,NA
India,Maharashtra,Mumbai,"Mulund West, Mumbai - MPCB",12-01-2026 08:00:00,19.1750,72.9419,NO2,15,18,15
India,Maharashtra,Mumbai,"Mulund West, Mumbai - MPCB",12-01-2026 08:00:00,19.1750,72.9419,NH3,5,5,5
India,Maharashtra,Mumbai,"Sion, Mumbai - MPCB",12-01-2026 08:00:00,19.047000,72.874600,SO2,27,45,32
India,Maharashtra,Mumbai,"Vile Parle West, Mumbai - MPCB",12-01-2026 08:00:00,19.10861,72.83622,PM10,68,149,104
India,Maharashtra,Nagpur,"Ambazari, Nagpur - MPCB",12-01-2026 08:00:00,21.121801,79.04952,PM2.5,64,179,120
India,Maharashtra,Nagpur,"Ambazari, Nagpur - MPCB",12-01-2026 08:00:00,21.121801,79.04952,OZONE,1,85,17
India,Maharashtra,Nagpur,"Mahal, Nagpur - MPCB",12-01-2026 08:00:00,21.14472,79.107595,PM2.5,86,310,158
India,Maharashtra,Nashik,"Hirawadi, Nashik - MPCB",12-01-2026 08:00:00,20.021503,73.813844,CO,59,83,67
India,Maharashtra,Nashik,"Hirawadi, Nashik - MPCB",12-01-2026 08:00:00,20.021503,73.813844,OZONE,27,94,51
India,Maharashtra,Nashik,"MIDC Ambad, Nashik - MPCB",12-01-2026 08:00:00,19.950220,73.731480,CO,27,34,28
India,Maharashtra,Nashik,"Pandav Nagari, Nashik - MPCB",12-01-2026 08:00:00,19.9591346,73.7788008,CO,14,60,18
India,Maharashtra,Malegaon,"Mahesh Nagar, Malegaon - MPCB",12-01-2026 08:00:00,20.555712,74.529236,NH3,2,3,2
India,Maharashtra,Malegaon,"Mahesh Nagar, Malegaon - MPCB",12-01-2026 08:00:00,20.555712,74.529236,OZONE,1,48,5
India,Maharashtra,Mumbai,"Bandra Kurla Complex, Mumbai - IITM",12-01-2026 08:00:00,19.053536,72.84643,PM2.5,99,190,146
India,Maharashtra,Navi Mumbai,"Kopripada-Vashi, Navi Mumbai - MPCB",12-01-2026 08:00:00,19.090337,73.014232,CO,13,80,30
India,Maharashtra,Navi Mumbai,"Mahape, Navi Mumbai - MPCB",12-01-2026 08:00:00,19.1135051,73.008978,PM10,62,174,113
India,Maharashtra,Navi Mumbai,"Mahape, Navi Mumbai - MPCB",12-01-2026 08:00:00,19.1135051,73.008978,NO2,34,36,35
India,Maharashtra,Navi Mumbai,"Mahape, Navi Mumbai - MPCB",12-01-2026 08:00:00,19.1135051,73.008978,NH3,3,3,3
India,Maharashtra,Navi Mumbai,"Mahape, Navi Mumbai - MPCB",12-01-2026 08:00:00,19.1135051,73.008978,CO,18,20,20
India,Maharashtra,Navi Mumbai,"Mahape, Navi Mumbai - MPCB",12-01-2026 08:00:00,19.1135051,73.008978,OZONE,6,11,10
India,Maharashtra,Navi Mumbai,"Nerul, Navi Mumbai - MPCB",12-01-2026 08:00:00,19.008751,73.016620,PM2.5,58,273,155
India,Maharashtra,Navi Mumbai,"Sanpada, Navi Mumbai - MPCB",12-01-2026 08:00:00,19.0575752,73.0151367,PM10,58,234,119
India,Maharashtra,Navi Mumbai,"Sector-2E Kalamboli, Navi Mumbai - MPCB",12-01-2026 08:00:00,19.02579,73.10297,SO2,2,24,9
India,Odisha,Balasore,"Kalidaspur, Balasore - OSPCB",12-01-2026 08:00:00,21.51161,86.89088,NO2,5,6,5
India,Odisha,Balasore,"Kalidaspur, Balasore - OSPCB",12-01-2026 08:00:00,21.51161,86.89088,OZONE,6,58,15
India,Odisha,Barbil,"Forest Office, Barbil - OSPCB",12-01-2026 08:00:00,22.1166054,85.3945546,SO2,7,43,16
India,Odisha,Barbil,"Forest Office, Barbil - OSPCB",12-01-2026 08:00:00,22.1166054,85.3945546,CO,8,91,47
India,Odisha,Barbil,"Forest Office, Barbil - OSPCB",12-01-2026 08:00:00,22.1166054,85.3945546,OZONE,4,80,8
India,Odisha,Baripada,"Meher Colony, Baripada - OSPCB",12-01-2026 08:00:00,21.941841,86.728318,OZONE,9,84,22
India,Odisha,Bhubaneswar,"Lingraj Mandir, Bhubaneswar - OSPCB",12-01-2026 08:00:00,20.240790,85.836784,NO2,27,123,71
India,Odisha,Bhubaneswar,"Lingraj Mandir, Bhubaneswar - OSPCB",12-01-2026 08:00:00,20.240790,85.836784,CO,16,82,41
India,Maharashtra,Navi Mumbai,"Tondare-Taloja, Navi Mumbai - MPCB",12-01-2026 08:00:00,19.0630,73.1209,PM10,46,121,89
India,Maharashtra,Navi Mumbai,"Tondare-Taloja, Navi Mumbai - MPCB",12-01-2026 08:00:00,19.0630,73.1209,NH3,4,10,6
India,Maharashtra,Parbhani,"Masoom Colony, Parbhani - MPCB",12-01-2026 08:00:00,19.265594,76.761463,NH3,3,5,4
India,Maharashtra,Pimpri-Chinchwad,"Gavalinagar, Pimpri Chinchwad - MPCB",12-01-2026 08:00:00,18.63673,73.82487,PM10,89,366,134
India,Maharashtra,Pimpri-Chinchwad,"Park Street Wakad, Pimpri Chinchwad - MPCB",12-01-2026 08:00:00,18.59051,73.77946,PM2.5,47,240,115
India,Maharashtra,Pimpri-Chinchwad,"Park Street Wakad, Pimpri Chinchwad - MPCB",12-01-2026 08:00:00,18.59051,73.77946,OZONE,2,107,3
India,Maharashtra,Pimpri-Chinchwad,"Thergaon, Pimpri Chinchwad - MPCB",12-01-2026 08:00:00,18.616318,73.765797,NH3,5,8,6
India,Maharashtra,Pimpri-Chinchwad,"Thergaon, Pimpri Chinchwad - MPCB",12-01-2026 08:00:00,18.616318,73.765797,OZONE,1,68,12
India,Maharashtra,Pune,"Bhumkar Nagar, Pune - IITM",12-01-2026 08:00:00,18.605770,73.749976,CO,6,127,69
India,Maharashtra,Pune,"Bhumkar Nagar, Pune - IITM",12-01-2026 08:00:00,18.605770,73.749976,OZONE,1,125,1
India,Maharashtra,Pune,"Hadapsar, Pune - IITM",12-01-2026 08:00:00,18.501793,73.927532,PM2.5,NA,NA,NA
India,Maharashtra,Pune,"Hadapsar, Pune - IITM",12-01-2026 08:00:00,18.501793,73.927532,OZONE,NA,NA,NA
India,Maharashtra,Pune,"Katraj Dairy, Pune - MPCB",12-01-2026 08:00:00,18.454450,73.854155,NO2,15,56,36
India,Meghalaya,Shillong,"Lumpyngngad, Shillong - Meghalaya PCB",12-01-2026 08:00:00,25.5586,91.8985,PM10,3,16,7
India,Mizoram,Aizawl,"Sikulpuikawn, Aizawl - Mizoram PCB",12-01-2026 08:00:00,23.7176342,92.7192841,PM2.5,NA,NA,NA
India,Mizoram,Aizawl,"Sikulpuikawn, Aizawl - Mizoram PCB",12-01-2026 08:00:00,23.7176342,92.7192841,CO,NA,NA,NA
India,Nagaland,Kohima,"PWD Junction, Kohima - NPCB",12-01-2026 08:00:00,25.6635413,94.0989878,SO2,75,77,76
India,Odisha,Angul,"Hakimapada, Angul - OSPCB",12-01-2026 08:00:00,20.832874,85.104082,PM10,79,162,118
India,Odisha,Bhubaneswar,"Patia, Bhubaneswar - OSPCB",12-01-2026 08:00:00,20.34652,85.81630,CO,29,126,47
India,Odisha,Bileipada,"Tata Township, Bileipada - OSPCB",12-01-2026 08:00:00,22.06156703,85.47409613,NO2,6,7,6
India,Odisha,Bileipada,"Tata Township, Bileipada - OSPCB",12-01-2026 08:00:00,22.06156703,85.47409613,CO,22,44,39
India,Odisha,Brajrajnagar,"GM Office, Brajrajnagar - OSPCB",12-01-2026 08:00:00,21.8004996,83.8396977,PM10,25,366,105
India,Odisha,Cuttack,"CDA Area, Cuttack - OSPCB",12-01-2026 08:00:00,20.48891     ,85.84768     ,NO2,10,144,50
India,Odisha,Nayagarh,"Dabuna, Nayagarh - OSPCB",12-01-2026 08:00:00,21.847279,85.416905,PM10,NA,NA,NA
India,Odisha,Rairangpur,"Divisional Forest Office, Rairangpur - OSPCB",12-01-2026 08:00:00,22.265816,86.174829,PM10,52,157,97
India,Odisha,Rairangpur,"Divisional Forest Office, Rairangpur - OSPCB",12-01-2026 08:00:00,22.265816,86.174829,NO2,11,11,11
India,Odisha,Rairangpur,"Divisional Forest Office, Rairangpur - OSPCB",12-01-2026 08:00:00,22.265816,86.174829,SO2,4,49,11
India,Odisha,Rourkela,"Fertilizer Township, Rourkela - OSPCB",12-01-2026 08:00:00,22.18972222,84.86277778,PM2.5,107,150,122
India,Maharashtra,Pune,"Panchawati_Pashan, Pune - IITM",12-01-2026 08:00:00,18.536457,73.805454,NO2,16,43,27
India,Maharashtra,Pune,"Revenue Colony-Shivajinagar, Pune - IITM",12-01-2026 08:00:00,18.530085,73.849598,PM2.5,81,321,218
India,Maharashtra,Pune,"Revenue Colony-Shivajinagar, Pune - IITM",12-01-2026 08:00:00,18.530085,73.849598,PM10,NA,NA,NA
India,Maharashtra,Sangli,"Vijay Nagar, Sangli - MPCB",12-01-2026 08:00:00, 16.5038,74.3623,NH3,1,2,1
India,Maharashtra,Solapur,"Ratandeep Housing Society, Solapur - MPCB",12-01-2026 08:00:00,17.65439,75.90649,PM10,72,148,101
India,Maharashtra,Solapur,"Ratandeep Housing Society, Solapur - MPCB",12-01-2026 08:00:00,17.65439,75.90649,CO,15,113,26
India,Maharashtra,Ulhasnagar,"Sidhi Vinayak Nagar, Ulhasnagar - MPCB",12-01-2026 08:00:00,19.235581,73.159121,NH3,2,7,4
India,Rajasthan,Baran,"Bamboliya, Baran - RSPCB",12-01-2026 08:00:00,25.106006,76.469948,OZONE,29,106,37
India,Rajasthan,Barmer,"Railway Colony, Barmer - RSPCB",12-01-2026 08:00:00,25.747299,71.393989,PM2.5,10,203,69
India,Rajasthan,Barmer,"Railway Colony, Barmer - RSPCB",12-01-2026 08:00:00,25.747299,71.393989,NO2,11,50,18
India,Rajasthan,Barmer,"Railway Colony, Barmer - RSPCB",12-01-2026 08:00:00,25.747299,71.393989,NH3,2,6,4
India,Rajasthan,Barmer,"Railway Colony, Barmer - RSPCB",12-01-2026 08:00:00,25.747299,71.393989,CO,14,56,36
India,Rajasthan,Barmer,"Railway Colony, Barmer - RSPCB",12-01-2026 08:00:00,25.747299,71.393989,OZONE,46,95,67
India,Rajasthan,Bharatpur,"Krishna Nagar, Bharatpur - RSPCB",12-01-2026 08:00:00,27.215415,77.50873,PM2.5,30,120,66
India,Rajasthan,Bhilwara,"Pratap Nagar, Bhilwara - RSPCB",12-01-2026 08:00:00,25.339605,74.618883,PM2.5,130,363,216
India,Rajasthan,Bhilwara,"Pratap Nagar, Bhilwara - RSPCB",12-01-2026 08:00:00,25.339605,74.618883,NO2,19,43,29
India,Rajasthan,Bhiwadi,"RIICO Ind. Area III, Bhiwadi - RSPCB",12-01-2026 08:00:00,28.194909,76.862296,NO2,21,86,50
India,Rajasthan,Bhiwadi,"Vasundhara Nagar_UIT, Bhiwadi - RSPCB",12-01-2026 08:00:00,28.207266,76.829265,NO2,14,84,41
India,Rajasthan,Bhiwadi,"Vasundhara Nagar_UIT, Bhiwadi - RSPCB",12-01-2026 08:00:00,28.207266,76.829265,CO,38,101,53
India,Rajasthan,Bikaner,"MM Ground, Bikaner - RSPCB",12-01-2026 08:00:00,28.018792,73.292658,PM10,106,500,192
India,Rajasthan,Bundi,"New Colony, Bundi - RSPCB",12-01-2026 08:00:00,25.435774,75.644272,PM10,62,117,87
India,Rajasthan,Bundi,"New Colony, Bundi - RSPCB",12-01-2026 08:00:00,25.435774,75.644272,NO2,16,63,27
India,Rajasthan,Bundi,"New Colony, Bundi - RSPCB",12-01-2026 08:00:00,25.435774,75.644272,NH3,4,4,4
India,Rajasthan,Bundi,"New Colony, Bundi - RSPCB",12-01-2026 08:00:00,25.435774,75.644272,SO2,4,8,6
India,Odisha,Rourkela,"Raghunathpali, Rourkela - OSPCB",12-01-2026 08:00:00,22.220833,84.809444,NO2,1,58,24
India,Odisha,Rourkela,"Sector-2, Rourkela - OSPCB",12-01-2026 08:00:00,22.24500000,84.88111111,PM2.5,84,173,103
India,Odisha,Suakati,"OMC Colony, Suakati - OSPCB",12-01-2026 08:00:00,21.606865,85.510538,PM10,81,129,98
India,Odisha,Suakati,"OMC Colony, Suakati - OSPCB",12-01-2026 08:00:00,21.606865,85.510538,NO2,13,13,13
India,Odisha,Talcher,"Talcher Coalfields,Talcher - OSPCB",12-01-2026 08:00:00,20.9360711,85.1707021,CO,45,114,76
India,Odisha,Talcher,"Talcher Coalfields,Talcher - OSPCB",12-01-2026 08:00:00,20.9360711,85.1707021,OZONE,22,42,34
India,Odisha,Tensa,"Barsua Iron Ore Mines, Tensa - OSPCB",12-01-2026 08:00:00,21.869985,85.167016,CO,NA,NA,NA
India,Puducherry,Puducherry,"Jawahar Nagar, Puducherry - PPCC",12-01-2026 08:00:00,11.9309,79.8027,NH3,3,4,3
India,Puducherry,Puducherry,"Jawahar Nagar, Puducherry - PPCC",12-01-2026 08:00:00,11.9309,79.8027,SO2,7,10,8
India,Punjab,Amritsar,"Golden Temple, Amritsar - PPCB",12-01-2026 08:00:00,31.620000,74.876512,SO2,15,21,18
India,Punjab,Bathinda,"Hardev Nagar, Bathinda - PPCB",12-01-2026 08:00:00,30.233011,74.907758,NO2,15,26,19
India,Rajasthan,Jaipur,"Police Commissionerate, Jaipur - RSPCB",12-01-2026 08:00:00,26.9164092,75.7994901,NH3,6,11,9
India,Rajasthan,Jaipur,"RIICO Sitapura, Jaipur - RSPCB",12-01-2026 08:00:00,26.786682,75.827928,PM10,88,271,143
India,Rajasthan,Jaipur,"RIICO Sitapura, Jaipur - RSPCB",12-01-2026 08:00:00,26.786682,75.827928,CO,20,102,36
India,Rajasthan,Jaipur,"Shastri Nagar, Jaipur - RSPCB",12-01-2026 08:00:00,26.9502929,75.730943,NH3,9,20,13
India,Rajasthan,Jaisalmer,"Sadar Bazar, Jaisalmer - RSPCB",12-01-2026 08:00:00,26.912329,70.909168,PM2.5,48,340,154
India,Punjab,Jalandhar,"Civil Line, Jalandhar - PPCB",12-01-2026 08:00:00,31.321907,75.578914,SO2,22,23,22
India,Punjab,Jalandhar,"Civil Line, Jalandhar - PPCB",12-01-2026 08:00:00,31.321907,75.578914,CO,66,71,69
India,Punjab,Jalandhar,"Civil Line, Jalandhar - PPCB",12-01-2026 08:00:00,31.321907,75.578914,OZONE,38,58,46
India,Punjab,Khanna,"Kalal Majra, Khanna - PPCB",12-01-2026 08:00:00,30.736056 ,76.209694,NO2,26,29,28
India,Punjab,Khanna,"Kalal Majra, Khanna - PPCB",12-01-2026 08:00:00,30.736056 ,76.209694,CO,46,78,57
India,Punjab,Patiala,"Model Town, Patiala - PPCB",12-01-2026 08:00:00,30.349388,76.366642,PM10,111,131,120
India,Rajasthan,Ajmer,"Civil Lines,  Ajmer - RSPCB",12-01-2026 08:00:00,26.470859,74.646594,SO2,4,19,12
India,Rajasthan,Alwar,"Moti Doongri, Alwar - RSPCB",12-01-2026 08:00:00,27.554793,76.611536,CO,30,100,42
India,Rajasthan,Alwar,"Moti Doongri, Alwar - RSPCB",12-01-2026 08:00:00,27.554793,76.611536,OZONE,12,59,15
India,Rajasthan,Banswara,"Rati Talai, Banswara - RSPCB",12-01-2026 08:00:00,23.555190,74.440010,PM10,96,172,119
India,Rajasthan,Dungarpur,"Bhoiwada, Dungarpur - RSPCB",12-01-2026 08:00:00,23.837789,73.714926,CO,22,90,44
India,Rajasthan,Jaipur,"Adarsh Nagar, Jaipur - RSPCB",12-01-2026 08:00:00,26.902909,75.836858,NH3,10,23,15
India,Rajasthan,Jaipur,"Adarsh Nagar, Jaipur - RSPCB",12-01-2026 08:00:00,26.902909,75.836858,CO,28,81,53
India,Rajasthan,Chittorgarh,"Shastri Nagar, Chittorgarh - RSPCB",12-01-2026 08:00:00,24.892047,74.623527,CO,15,76,34
India,Rajasthan,Dungarpur,"Bhoiwada, Dungarpur - RSPCB",12-01-2026 08:00:00,23.837789,73.714926,PM2.5,177,315,246
India,Rajasthan,Jodhpur,"Collectorate, Jodhpur - RSPCB",12-01-2026 08:00:00,26.268249,73.0193853,PM2.5,28,460,141
India,Rajasthan,Jodhpur,"Collectorate, Jodhpur - RSPCB",12-01-2026 08:00:00,26.268249,73.0193853,PM10,NA,NA,NA
India,Rajasthan,Jodhpur,"Collectorate, Jodhpur - RSPCB",12-01-2026 08:00:00,26.268249,73.0193853,NH3,7,14,9
India,Rajasthan,Jodhpur,"Collectorate, Jodhpur - RSPCB",12-01-2026 08:00:00,26.268249,73.0193853,OZONE,16,73,36
India,Rajasthan,Jodhpur,"Digari Kalan, Jodhpur - RSPCB",12-01-2026 08:00:00,26.295810,73.082283,SO2,3,11,6
India,Rajasthan,Jodhpur,"Digari Kalan, Jodhpur - RSPCB",12-01-2026 08:00:00,26.295810,73.082283,CO,14,44,25
India,Rajasthan,Jodhpur,"Jhalamand, Jodhpur - RSPCB",12-01-2026 08:00:00,26.215415,73.070156,NH3,4,9,7
India,Rajasthan,Jodhpur,"Jhalamand, Jodhpur - RSPCB",12-01-2026 08:00:00,26.215415,73.070156,SO2,4,9,6
India,Rajasthan,Jodhpur,"Mandor, Jodhpur - RSPCB",12-01-2026 08:00:00,26.358805,73.047444,NH3,2,5,3
India,Rajasthan,Jodhpur,"Mandor, Jodhpur - RSPCB",12-01-2026 08:00:00,26.358805,73.047444,OZONE,53,104,66
India,Rajasthan,Kota,"Shrinath Puram, Kota - RSPCB",12-01-2026 08:00:00,25.14389,75.821256,NO2,13,17,16
India,Rajasthan,Kota,"Shrinath Puram, Kota - RSPCB",12-01-2026 08:00:00,25.14389,75.821256,NH3,3,8,5
India,Rajasthan,Nagaur,"Karni Colony, Nagaur - RSPCB",12-01-2026 08:00:00,27.213494,73.734444,PM2.5,13,372,105
India,Rajasthan,Nagaur,"Karni Colony, Nagaur - RSPCB",12-01-2026 08:00:00,27.213494,73.734444,NH3,4,12,6
India,Rajasthan,Nagaur,"Karni Colony, Nagaur - RSPCB",12-01-2026 08:00:00,27.213494,73.734444,SO2,1,24,6
India,Rajasthan,Pali,"Indira Colony Vistar, Pali - RSPCB",12-01-2026 08:00:00,25.771061, 73.340227,NO2,27,48,35
India,Rajasthan,Pali,"Indira Colony Vistar, Pali - RSPCB",12-01-2026 08:00:00,25.771061, 73.340227,CO,15,66,44
India,Rajasthan,Pratapgarh,"Pragati Nagar, Pratapgarh - RSPCB",12-01-2026 08:00:00,24.041198,74.780702,CO,27,52,31
India,TamilNadu,Cuddalore,"Kudikadu, Cuddalore - TNPCB",12-01-2026 08:00:00,11.6829898,79.7532099,NH3,1,1,1
India,TamilNadu,Cuddalore,"Kudikadu, Cuddalore - TNPCB",12-01-2026 08:00:00,11.6829898,79.7532099,OZONE,13,14,13
India,TamilNadu,Cuddalore,"Semmandalam, Cuddalore - TNPCB",12-01-2026 08:00:00,11.7637683,79.7499835,NH3,1,3,2
India,TamilNadu,Karur,"Kamadenu Nagar, Karur - TNPCB",12-01-2026 08:00:00,10.967820,78.080882,SO2,14,15,15
India,TamilNadu,Karur,"Kamadenu Nagar, Karur - TNPCB",12-01-2026 08:00:00,10.967820,78.080882,OZONE,6,8,7
India,TamilNadu,Madurai,"Uchapatti, Madurai - TNPCB",12-01-2026 08:00:00,9.865935,78.022669,PM10,NA,NA,NA
India,TamilNadu,Madurai,"Uchapatti, Madurai - TNPCB",12-01-2026 08:00:00,9.865935,78.022669,NO2,NA,NA,NA
India,TamilNadu,Madurai,"Uchapatti, Madurai - TNPCB",12-01-2026 08:00:00,9.865935,78.022669,SO2,NA,NA,NA
India,TamilNadu,Madurai,"Uchapatti, Madurai - TNPCB",12-01-2026 08:00:00,9.865935,78.022669,OZONE,1,1,1
India,Rajasthan,Sri Ganganagar,"Old City, Sri Ganganagar - RSPCB",12-01-2026 08:00:00,29.931624,73.864511,SO2,4,8,5
India,Rajasthan,Tonk,"Shastri Nagar, Tonk - RSPCB",12-01-2026 08:00:00,26.159933,75.780517,PM2.5,93,389,219
India,Sikkim,Gangtok,"Zero Point GICI, Gangtok - SSPCB",12-01-2026 08:00:00,27.338530,88.614099,PM10,21,52,32
India,Sikkim,Gangtok,"Zero Point GICI, Gangtok - SSPCB",12-01-2026 08:00:00,27.338530,88.614099,NO2,6,7,6
India,Sikkim,Gangtok,"Zero Point GICI, Gangtok - SSPCB",12-01-2026 08:00:00,27.338530,88.614099,SO2,1,1,1
India,Sikkim,Gangtok,"Zero Point GICI, Gangtok - SSPCB",12-01-2026 08:00:00,27.338530,88.614099,OZONE,15,18,17
India,TamilNadu,Chennai,"Royapuram, Chennai - TNPCB",12-01-2026 08:00:00,13.1036,80.2909,NH3,NA,NA,NA
India,TamilNadu,Chennai,"Royapuram, Chennai - TNPCB",12-01-2026 08:00:00,13.1036,80.2909,OZONE,16,19,17
India,TamilNadu,Chennai,"Velachery Res. Area, Chennai - CPCB",12-01-2026 08:00:00,13.0052189,80.2398125,SO2,6,7,7
India,TamilNadu,Coimbatore,"PSG College of Arts and Science, Coimbatore - TNPCB",12-01-2026 08:00:00,11.0328,77.0349,PM10,42,76,60
India,TamilNadu,Coimbatore,"PSG College of Arts and Science, Coimbatore - TNPCB",12-01-2026 08:00:00,11.0328,77.0349,OZONE,4,6,5
India,Rajasthan,Sawai Madhopur,"Sahu Nagar, Sawai Madhopur - RSPCB",12-01-2026 08:00:00,26.031443,76.359327,NO2,10,84,32
India,Rajasthan,Sikar,"Radhakishan Pura, Sikar - RSPCB",12-01-2026 08:00:00,27.608912,75.153302,PM10,61,334,119
India,Rajasthan,Sikar,"Radhakishan Pura, Sikar - RSPCB",12-01-2026 08:00:00,27.608912,75.153302,NH3,5,12,7
India,Rajasthan,Sri Ganganagar,"Old City, Sri Ganganagar - RSPCB",12-01-2026 08:00:00,29.931624,73.864511,PM10,82,243,141
India,Rajasthan,Sri Ganganagar,"Old City, Sri Ganganagar - RSPCB",12-01-2026 08:00:00,29.931624,73.864511,NO2,33,77,47
India,Rajasthan,Jaisalmer,"Sadar Bazar, Jaisalmer - RSPCB",12-01-2026 08:00:00,26.912329,70.909168,NO2,12,45,25
India,Rajasthan,Jaisalmer,"Sadar Bazar, Jaisalmer - RSPCB",12-01-2026 08:00:00,26.912329,70.909168,NH3,7,12,9
India,Rajasthan,Jalore,"Mudtra Sili, Jalore - RSPCB",12-01-2026 08:00:00,25.344694,72.626208,PM2.5,47,270,147
India,Rajasthan,Jhalawar,"Rajlaxmi Nagar, Jhalawar - RSPCB",12-01-2026 08:00:00,24.588397,76.172782,PM2.5,88,328,171
India,TamilNadu,Chennai,"Kodungaiyur, Chennai - TNPCB",12-01-2026 08:00:00,13.1278,80.2642,PM10,38,67,51
India,TamilNadu,Chennai,"Kodungaiyur, Chennai - TNPCB",12-01-2026 08:00:00,13.1278,80.2642,SO2,4,10,7
India,TamilNadu,Chennai,"Kodungaiyur, Chennai - TNPCB",12-01-2026 08:00:00,13.1278,80.2642,OZONE,28,34,30
India,TamilNadu,Chennai,"Manali Village, Chennai - TNPCB",12-01-2026 08:00:00,13.1662,80.2584,PM10,31,63,42
India,TamilNadu,Chennai,"Perungudi, Chennai - TNPCB",12-01-2026 08:00:00,12.9533,80.2357,PM2.5,51,74,61
India,Rajasthan,Jodhpur,"Samrat Ashok Udhyan, Jodhpur - RSPCB",12-01-2026 08:00:00,26.253384,72.976571,OZONE,47,145,73
India,Rajasthan,Kota,"Nayapura, Kota - RSPCB",12-01-2026 08:00:00,25.196024,75.855668,NH3,6,12,9
India,Telangana,Hyderabad,"ICRISAT Patancheru, Hyderabad - TSPCB",12-01-2026 08:00:00,17.518400,78.278777,OZONE,8,52,23
India,Telangana,Hyderabad,"IDA Pashamylaram, Hyderabad - TSPCB",12-01-2026 08:00:00,17.5316895,78.218939,SO2,7,17,10
India,Telangana,Hyderabad,"IDA Pashamylaram, Hyderabad - TSPCB",12-01-2026 08:00:00,17.5316895,78.218939,CO,18,63,44
India,Telangana,Hyderabad,"IITH Kandi, Hyderabad - TSPCB",12-01-2026 08:00:00,17.585705,78.126199,PM2.5,30,66,45
India,Telangana,Hyderabad,"IITH Kandi, Hyderabad - TSPCB",12-01-2026 08:00:00,17.585705,78.126199,NH3,4,6,5
India,Telangana,Hyderabad,"Kokapet, Hyderabad - TSPCB",12-01-2026 08:00:00,17.393559,78.339194,PM2.5,57,73,66
India,Telangana,Hyderabad,"Kokapet, Hyderabad - TSPCB",12-01-2026 08:00:00,17.393559,78.339194,NO2,12,14,13
India,Telangana,Hyderabad,"Kokapet, Hyderabad - TSPCB",12-01-2026 08:00:00,17.393559,78.339194,CO,25,40,31
India,Telangana,Hyderabad,"Kompally Municipal Office, Hyderabad - TSPCB",12-01-2026 08:00:00,17.544899,78.486949,PM10,62,116,86
India,Telangana,Hyderabad,"Kompally Municipal Office, Hyderabad - TSPCB",12-01-2026 08:00:00,17.544899,78.486949,NO2,12,15,13
India,Uttar_Pradesh,Baghpat,"Sardar Patel Inter College, Baghpat - UPPCB",12-01-2026 08:00:00,28.964949,77.278761,CO,8,20,10
India,Uttar_Pradesh,Bareilly,"Civil Lines, Bareilly - UPPCB",12-01-2026 08:00:00,28.359581,79.414455,NH3,1,11,4
India,Uttar_Pradesh,Bareilly,"Rajendra Nagar, Bareilly - UPPCB",12-01-2026 08:00:00,28.38910936,79.42963708,PM10,58,129,99
India,Uttar_Pradesh,Bareilly,"Rajendra Nagar, Bareilly - UPPCB",12-01-2026 08:00:00,28.38910936,79.42963708,CO,1,16,11
India,Uttar_Pradesh,Bareilly,"Rajendra Nagar, Bareilly - UPPCB",12-01-2026 08:00:00,28.38910936,79.42963708,OZONE,NA,NA,NA
India,Uttar_Pradesh,Bulandshahr,"Yamunapuram, Bulandshahr - UPPCB",12-01-2026 08:00:00,28.406963,77.849831,NO2,28,109,75
India,Uttar_Pradesh,Bulandshahr,"Yamunapuram, Bulandshahr - UPPCB",12-01-2026 08:00:00,28.406963,77.849831,SO2,9,129,31
India,Uttar_Pradesh,Bulandshahr,"Yamunapuram, Bulandshahr - UPPCB",12-01-2026 08:00:00,28.406963,77.849831,OZONE,1,58,1
India,Uttar_Pradesh,Firozabad,"Nagla Bhau, Firozabad - UPPCB",12-01-2026 08:00:00,27.168897,78.376960,PM2.5,23,82,43
India,TamilNadu,Perundurai,"SIPCOT Industrial Park, Perundurai - TNPCB",12-01-2026 08:00:00,11.258242,77.552761,NO2,12,13,12
India,TamilNadu,Perundurai,"SIPCOT Industrial Park, Perundurai - TNPCB",12-01-2026 08:00:00,11.258242,77.552761,SO2,13,13,13
India,TamilNadu,Perundurai,"SIPCOT Industrial Park, Perundurai - TNPCB",12-01-2026 08:00:00,11.258242,77.552761,OZONE,23,27,27
India,TamilNadu,Ramanathapuram,"Chalai Bazaar, Ramanathapuram - TNPCB",12-01-2026 08:00:00,9.36399,78.831977,PM10,NA,NA,NA
India,TamilNadu,Ramanathapuram,"Chalai Bazaar, Ramanathapuram - TNPCB",12-01-2026 08:00:00,9.36399,78.831977,CO,14,22,16
India,TamilNadu,Thanjavur,"Parisutham Nagar, Thanjavur - TNPCB",12-01-2026 08:00:00,10.7654824,79.1389968,NO2,NA,NA,NA
India,TamilNadu,Thoothukudi,"Meelavittan, Thoothukudi - TNPCB",12-01-2026 08:00:00,8.816428 ,78.099039,NO2,8,23,17
India,TamilNadu,Thoothukudi,"Meelavittan, Thoothukudi - TNPCB",12-01-2026 08:00:00,8.816428 ,78.099039,CO,7,44,28
India,Uttar_Pradesh,Firozabad,"Vibhab Nagar, Firozabad - UPPCB",12-01-2026 08:00:00,27.1594,78.3953,PM2.5,38,89,59
India,Uttar_Pradesh,Ghaziabad,"Indirapuram, Ghaziabad - UPPCB",12-01-2026 08:00:00,28.646233,77.358075,NO2,2,12,6
India,Uttar_Pradesh,Ghaziabad,"Loni, Ghaziabad - UPPCB",12-01-2026 08:00:00,28.757294,77.278792,PM2.5,207,459,344
India,Uttar_Pradesh,Ghaziabad,"Sanjay Nagar, Ghaziabad - UPPCB",12-01-2026 08:00:00,28.685382,77.453839,NH3,8,13,9
India,Uttar_Pradesh,Ghaziabad,"Sanjay Nagar, Ghaziabad - UPPCB",12-01-2026 08:00:00,28.685382,77.453839,OZONE,9,90,13
India,Uttar_Pradesh,Ghaziabad,"Vasundhara, Ghaziabad - UPPCB",12-01-2026 08:00:00,28.6603346,77.3572563,PM2.5,167,368,317
India,Telangana,Hyderabad,"Somajiguda, Hyderabad - TSPCB",12-01-2026 08:00:00,17.417094,78.457437,NH3,3,4,3
India,Telangana,Hyderabad,"Zoo Park, Hyderabad - TSPCB",12-01-2026 08:00:00,17.349694,78.451437,SO2,4,13,8
India,Tripura,Agartala,"Bardowali, Agartala - Tripura SPCB",12-01-2026 08:00:00,23.8175497,91.2726974,CO,28,42,32
India,Uttar_Pradesh,Agra,"Manoharpur, Agra - UPPCB",12-01-2026 08:00:00,27.23711,78.01936,CO,20,25,21
India,Uttar_Pradesh,Agra,"Rohta, Agra - UPPCB",12-01-2026 08:00:00,27.106972,78.000111,SO2,6,20,14
India,Telangana,Hyderabad,"Nacharam_TSIIC IALA, Hyderabad - TSPCB",12-01-2026 08:00:00,17.429398,78.569354,NH3,6,7,7
India,Telangana,Hyderabad,"New Malakpet, Hyderabad - TSPCB",12-01-2026 08:00:00,17.37206,78.50864,PM2.5,40,62,48
India,Telangana,Hyderabad,"New Malakpet, Hyderabad - TSPCB",12-01-2026 08:00:00,17.37206,78.50864,SO2,15,23,19
India,Telangana,Hyderabad,"Ramachandrapuram, Hyderabad - TSPCB",12-01-2026 08:00:00,17.528544,78.286195,SO2,12,17,14
India,Telangana,Hyderabad,"Sanathnagar, Hyderabad - TSPCB",12-01-2026 08:00:00,17.4559458,78.4332152,CO,45,53,47
India,Telangana,Hyderabad,"Sanathnagar, Hyderabad - TSPCB",12-01-2026 08:00:00,17.4559458,78.4332152,OZONE,12,15,14
India,Uttar_Pradesh,Agra,"Sanjay Palace, Agra - UPPCB",12-01-2026 08:00:00,27.19865833,78.00598056,PM2.5,31,141,84
India,Uttar_Pradesh,Agra,"Sector-3B Avas Vikas Colony, Agra - UPPCB",12-01-2026 08:00:00,27.19412,77.96237,NO2,33,34,33
India,Uttar_Pradesh,Agra,"Sector-3B Avas Vikas Colony, Agra - UPPCB",12-01-2026 08:00:00,27.19412,77.96237,NH3,6,8,7
India,Uttar_Pradesh,Agra,"Shahjahan Garden, Agra - UPPCB",12-01-2026 08:00:00,27.169338,78.03582,PM10,87,168,125
India,Uttar_Pradesh,Agra,"Shahjahan Garden, Agra - UPPCB",12-01-2026 08:00:00,27.169338,78.03582,CO,NA,NA,NA
India,Uttar_Pradesh,Gorakhpur,"Madan Mohan Malaviya University of Technology, Gorakhpur - UPPCB",12-01-2026 08:00:00,26.730136,83.433859,NH3,1,1,1
India,Uttar_Pradesh,Gorakhpur,"Madan Mohan Malaviya University of Technology, Gorakhpur - UPPCB",12-01-2026 08:00:00,26.730136,83.433859,SO2,37,39,38
India,Uttar_Pradesh,Hapur,"Anand Vihar, Hapur - UPPCB",12-01-2026 08:00:00,28.725645,77.749675,PM10,64,129,96
India,Telangana,Hyderabad,"Bollaram Industrial Area, Hyderabad - TSPCB",12-01-2026 08:00:00,17.540891,78.358528,CO,18,54,34
India,Telangana,Hyderabad,"ECIL Kapra, Hyderabad - TSPCB",12-01-2026 08:00:00,17.470431,78.566959,NH3,3,6,4
India,Uttar_Pradesh,Kanpur,"Nehru Nagar, Kanpur - UPPCB",12-01-2026 08:00:00,26.4703136,80.3229863,OZONE,6,13,7
India,Uttar_Pradesh,Khurja,"Kalindi Kunj, Khurja - UPPCB",12-01-2026 08:00:00,28.2348927,77.8683002,NO2,8,11,10
India,Uttar_Pradesh,Khurja,"Kalindi Kunj, Khurja - UPPCB",12-01-2026 08:00:00,28.2348927,77.8683002,SO2,15,22,18
India,Uttar_Pradesh,Khurja,"Kalindi Kunj, Khurja - UPPCB",12-01-2026 08:00:00,28.2348927,77.8683002,CO,44,61,53
India,Uttar_Pradesh,Lucknow,"B R Ambedkar University, Lucknow - UPPCB",12-01-2026 08:00:00,26.766433,80.927299,NO2,4,5,5
India,Uttar_Pradesh,Lucknow,"B R Ambedkar University, Lucknow - UPPCB",12-01-2026 08:00:00,26.766433,80.927299,SO2,23,24,24
India,Uttar_Pradesh,Lucknow,"B R Ambedkar University, Lucknow - UPPCB",12-01-2026 08:00:00,26.766433,80.927299,CO,17,22,20
India,Uttar_Pradesh,Lucknow,"B R Ambedkar University, Lucknow - UPPCB",12-01-2026 08:00:00,26.766433,80.927299,OZONE,20,70,33
India,Uttar_Pradesh,Lucknow,"Gomti Nagar, Lucknow - UPPCB",12-01-2026 08:00:00,26.868120,81.005119,CO,26,36,28
India,Uttar_Pradesh,Lucknow,"Kendriya Vidyalaya, Lucknow - CPCB",12-01-2026 08:00:00,26.906111,80.948222,NO2,38,43,41
India,Uttar_Pradesh,Lucknow,"Kendriya Vidyalaya, Lucknow - CPCB",12-01-2026 08:00:00,26.906111,80.948222,SO2,2,8,5
India,Uttarakhand,Dehradun,"Doon University, Dehradun - UKPCB",12-01-2026 08:00:00,30.269444,78.044167,PM2.5,NA,NA,NA
India,Uttarakhand,Dehradun,"Doon University, Dehradun - UKPCB",12-01-2026 08:00:00,30.269444,78.044167,SO2,2,2,2
India,Uttarakhand,Dehradun,"Doon University, Dehradun - UKPCB",12-01-2026 08:00:00,30.269444,78.044167,OZONE,24,80,24
India,Uttarakhand,Kashipur,"Govt. Girls Inter College, Kashipur - UKPCB",12-01-2026 08:00:00,29.2124114,78.9611753,PM10,NA,NA,NA
India,Uttarakhand,Kashipur,"Govt. Girls Inter College, Kashipur - UKPCB",12-01-2026 08:00:00,29.2124114,78.9611753,NO2,NA,NA,NA
India,Uttarakhand,Kashipur,"Govt. Girls Inter College, Kashipur - UKPCB",12-01-2026 08:00:00,29.2124114,78.9611753,NH3,NA,NA,NA
India,West_Bengal,Asansol,"Asansol Court Area, Asansol - WBPCB",12-01-2026 08:00:00,23.685297,86.945968,CO,25,90,52
India,West_Bengal,Asansol,"Evelyn Lodge, Asansol - WBPCB",12-01-2026 08:00:00,23.6979360,86.9443950,PM2.5,32,302,158
India,West_Bengal,Asansol,"Evelyn Lodge, Asansol - WBPCB",12-01-2026 08:00:00,23.6979360,86.9443950,NO2,7,57,27
India,Uttar_Pradesh,Varanasi,"Ardhali Bazar, Varanasi - UPPCB",12-01-2026 08:00:00,25.3505986,82.9083074,PM10,59,122,98
India,Uttar_Pradesh,Varanasi,"Ardhali Bazar, Varanasi - UPPCB",12-01-2026 08:00:00,25.3505986,82.9083074,SO2,10,11,11
India,Uttar_Pradesh,Varanasi,"Bhelupur, Varanasi - UPPCB",12-01-2026 08:00:00,25.301778,82.996789,OZONE,NA,NA,NA
India,Uttar_Pradesh,Varanasi,"IESD Banaras Hindu University, Varanasi - UPPCB",12-01-2026 08:00:00,25.262326,82.995408,PM10,90,191,136
India,Uttar_Pradesh,Varanasi,"Maldahiya, Varanasi - UPPCB",12-01-2026 08:00:00,25.32393,82.99687,PM10,47,132,96
India,Uttar_Pradesh,Varanasi,"Maldahiya, Varanasi - UPPCB",12-01-2026 08:00:00,25.32393,82.99687,SO2,28,29,29
India,Uttar_Pradesh,Vrindavan,"Omex Eternity, Vrindavan - UPPCB",12-01-2026 08:00:00,27.5714090,77.6557570,PM2.5,14,62,33
India,Uttar_Pradesh,Lucknow,"Kendriya Vidyalaya, Lucknow - CPCB",12-01-2026 08:00:00,26.906111,80.948222,CO,16,103,67
India,Uttar_Pradesh,Lucknow,"Kukrail Picnic Spot-1, Lucknow - UPPCB",12-01-2026 08:00:00,26.90723,80.98579,PM2.5,31,117,64
India,Uttar_Pradesh,Lucknow,"Lalbagh, Lucknow - CPCB",12-01-2026 08:00:00,26.8458805,80.9365541,NO2,44,50,46
India,Uttar_Pradesh,Lucknow,"Lalbagh, Lucknow - CPCB",12-01-2026 08:00:00,26.8458805,80.9365541,OZONE,8,37,13
India,Uttar_Pradesh,Lucknow,"Talkatora District Industries Center, Lucknow - CPCB",12-01-2026 08:00:00,26.83399722,80.8917361,NO2,14,63,35
India,Uttar_Pradesh,Meerut,"Ganga Nagar, Meerut - UPPCB",12-01-2026 08:00:00,28.999264,77.7590354,CO,35,53,40
India,Uttar_Pradesh,Meerut,"Jai Bhim Nagar, Meerut - UPPCB",12-01-2026 08:00:00,28.9535882,77.7622941,PM2.5,192,329,273
India,Uttar_Pradesh,Meerut,"Jai Bhim Nagar, Meerut - UPPCB",12-01-2026 08:00:00,28.9535882,77.7622941,PM10,128,196,163
India,Uttar_Pradesh,Meerut,"Jai Bhim Nagar, Meerut - UPPCB",12-01-2026 08:00:00,28.9535882,77.7622941,NO2,12,24,16
India,Uttar_Pradesh,Moradabad,"Buddhi Vihar, Moradabad - UPPCB",12-01-2026 08:00:00,28.83526,78.74460,SO2,79,86,82
India,Uttar_Pradesh,Moradabad,"Eco Herbal Park, Moradabad - UPPCB",12-01-2026 08:00:00,28.840739,78.697531,NO2,28,47,36
India,Uttar_Pradesh,Moradabad,"Eco Herbal Park, Moradabad - UPPCB",12-01-2026 08:00:00,28.840739,78.697531,NH3,6,10,8
India,Uttar_Pradesh,Noida,"Sector-116, Noida - UPPCB",12-01-2026 08:00:00,28.569230,77.393848,PM2.5,86,359,287
India,Uttar_Pradesh,Noida,"Sector-116, Noida - UPPCB",12-01-2026 08:00:00,28.569230,77.393848,NH3,15,26,22
India,Uttar_Pradesh,Noida,"Sector-116, Noida - UPPCB",12-01-2026 08:00:00,28.569230,77.393848,OZONE,8,123,11
India,Uttar_Pradesh,Prayagraj,"Jhunsi, Prayagraj - UPPCB",12-01-2026 08:00:00,25.425602,81.917152,PM10,93,267,140
India,Uttar_Pradesh,Prayagraj,"Motilal Nehru NIT, Prayagraj - UPPCB",12-01-2026 08:00:00,25.494,81.863,NO2,12,12,12
India,Uttar_Pradesh,Prayagraj,"Motilal Nehru NIT, Prayagraj - UPPCB",12-01-2026 08:00:00,25.494,81.863,CO,24,56,42
India,Uttar_Pradesh,Moradabad,"Jigar Colony, Moradabad - UPPCB",12-01-2026 08:00:00,28.856664,78.772638,NO2,25,25,25
India,Uttar_Pradesh,Moradabad,"Jigar Colony, Moradabad - UPPCB",12-01-2026 08:00:00,28.856664,78.772638,CO,39,40,40
India,Uttar_Pradesh,Moradabad,"Kashiram Nagar, Moradabad - UPPCB",12-01-2026 08:00:00,28.849399,78.742362,NH3,4,4,4
India,Uttar_Pradesh,Moradabad,"Transport Nagar, Moradabad - UPPCB",12-01-2026 08:00:00,28.802625,78.753728,CO,37,86,84
India,Uttar_Pradesh,Jhansi,"Shivaji Nagar, Jhansi - UPPCB",12-01-2026 08:00:00,25.4547,78.6039,PM10,55,150,90
India,Uttar_Pradesh,Kanpur,"NSI Kalyanpur, Kanpur - UPPCB",12-01-2026 08:00:00,26.509954,80.249612,PM2.5,31,141,73
India,Uttar_Pradesh,Kanpur,"NSI Kalyanpur, Kanpur - UPPCB",12-01-2026 08:00:00,26.509954,80.249612,NH3,5,5,5
India,Uttar_Pradesh,Kanpur,"NSI Kalyanpur, Kanpur - UPPCB",12-01-2026 08:00:00,26.509954,80.249612,SO2,20,21,21
India,Uttar_Pradesh,Noida,"Sector - 125, Noida - UPPCB",12-01-2026 08:00:00,28.5447608,77.3231257,PM2.5,86,344,286
India,Uttar_Pradesh,Noida,"Sector - 125, Noida - UPPCB",12-01-2026 08:00:00,28.5447608,77.3231257,OZONE,13,77,14
India,Uttar_Pradesh,Noida,"Sector-1, Noida - UPPCB",12-01-2026 08:00:00,28.5898,77.3101,SO2,8,19,12
India,West_Bengal,Asansol,"Trivenidevi Bhalotia College, Asansol - WBPCB",12-01-2026 08:00:00,23.616515,87.119133,NH3,6,7,7
India,West_Bengal,Barrackpore,"SVSPA Campus, Barrackpore - WBPCB",12-01-2026 08:00:00,22.7605581,88.3617589,CO,38,79,59
India,West_Bengal,Durgapur,"Mahishkapur Road_B-Zone, Durgapur - WBPCB",12-01-2026 08:00:00,23.567923,87.306843,PM10,51,137,98
India,West_Bengal,Durgapur,"Mahishkapur Road_B-Zone, Durgapur - WBPCB",12-01-2026 08:00:00,23.567923,87.306843,NH3,2,3,2
India,West_Bengal,Durgapur,"PCBL Residential Complex, Durgapur - WBPCB",12-01-2026 08:00:00,23.5087640,87.3544400,PM10,51,119,94
India,West_Bengal,Durgapur,"PCBL Residential Complex, Durgapur - WBPCB",12-01-2026 08:00:00,23.5087640,87.3544400,NO2,21,56,37
India,West_Bengal,Durgapur,"PCBL Residential Complex, Durgapur - WBPCB",12-01-2026 08:00:00,23.5087640,87.3544400,NH3,12,14,13
India,West_Bengal,Durgapur,"PCBL Residential Complex, Durgapur - WBPCB",12-01-2026 08:00:00,23.5087640,87.3544400,CO,26,70,57
India,West_Bengal,Haldia,"Priyambada Housing Estate, Haldia - WBPCB",12-01-2026 08:00:00,22.06047,88.109737,CO,32,88,55
India,West_Bengal,Howrah,"Belur Math, Howrah - WBPCB",12-01-2026 08:00:00,22.629801,88.352017,PM10,110,269,168
India,West_Bengal,Howrah,"Dasnagar, Howrah - WBPCB",12-01-2026 08:00:00,22.6025571,88.3105664,PM10,58,136,97
India,West_Bengal,Howrah,"Ghusuri, Howrah - WBPCB",12-01-2026 08:00:00,22.611968,88.347422,PM2.5,107,474,234
India,West_Bengal,Howrah,"Ghusuri, Howrah - WBPCB",12-01-2026 08:00:00,22.611968,88.347422,CO,26,102,78
India,West_Bengal,Howrah,"Padmapukur, Howrah - WBPCB",12-01-2026 08:00:00,22.5687319,88.2797276,NO2,14,51,30
India,West_Bengal,Howrah,"Padmapukur, Howrah - WBPCB",12-01-2026 08:00:00,22.5687319,88.2797276,NH3,3,11,7
India,West_Bengal,Kolkata,"Ballygunge, Kolkata - WBPCB",12-01-2026 08:00:00,22.5367507,88.3638022,NO2,NA,NA,NA
India,West_Bengal,Kolkata,"Ballygunge, Kolkata - WBPCB",12-01-2026 08:00:00,22.5367507,88.3638022,CO,NA,NA,NA
India,West_Bengal,Kolkata,"Bidhannagar, Kolkata - WBPCB",12-01-2026 08:00:00,22.58157048,88.41002457,NO2,24,30,25
India,West_Bengal,Kolkata,"Bidhannagar, Kolkata - WBPCB",12-01-2026 08:00:00,22.58157048,88.41002457,OZONE,13,38,14
India,West_Bengal,Kolkata,"Fort William, Kolkata - WBPCB",12-01-2026 08:00:00,22.556640,88.342674,CO,18,92,40
India,West_Bengal,Kolkata,"Rabindra Bharati University, Kolkata - WBPCB",12-01-2026 08:00:00,22.627847,88.380669,CO,46,113,70
India,West_Bengal,Kolkata,"Rabindra Sarobar, Kolkata - WBPCB",12-01-2026 08:00:00,22.51106,88.35142,PM10,89,146,116
India,West_Bengal,Kolkata,"Rabindra Sarobar, Kolkata - WBPCB",12-01-2026 08:00:00,22.51106,88.35142,NH3,7,35,16
India,West_Bengal,Kolkata,"Rabindra Sarobar, Kolkata - WBPCB",12-01-2026 08:00:00,22.51106,88.35142,SO2,6,34,14
India,West_Bengal,Kolkata,"Rabindra Sarobar, Kolkata - WBPCB",12-01-2026 08:00:00,22.51106,88.35142,CO,24,120,56
India,West_Bengal,Kolkata,"Victoria, Kolkata - WBPCB",12-01-2026 08:00:00,22.5448082,88.3403691,CO,46,106,73
India,West_Bengal,Siliguri,"Ward-32 Bapupara, Siliguri - WBPCB",12-01-2026 08:00:00,26.6879226,88.4152495,NO2,16,21,19
India,Assam,Nalbari,"Bata Chowk, Nalbari - PCBA",12-01-2026 08:00:00,26.446912,91.439057,OZONE,6,16,16
India,Assam,Silchar,"Tarapur, Silchar - PCBA",12-01-2026 08:00:00,24.82827,92.79525,NH3,1,1,1
India,Assam,Silchar,"Tarapur, Silchar - PCBA",12-01-2026 08:00:00,24.82827,92.79525,CO,28,47,44
India,Assam,Sivasagar,"Girls College, Sivasagar - PCBA",12-01-2026 08:00:00,26.987634,94.636574,SO2,9,10,9
India,Bihar,Araria,"Kharahiya Basti, Araria - BSPCB",12-01-2026 08:00:00,26.146529,87.454184,PM2.5,40,304,121
India,Bihar,Araria,"Kharahiya Basti, Araria - BSPCB",12-01-2026 08:00:00,26.146529,87.454184,PM10,36,159,89
India,Bihar,Araria,"Kharahiya Basti, Araria - BSPCB",12-01-2026 08:00:00,26.146529,87.454184,NO2,1,16,6
India,Bihar,Araria,"Kharahiya Basti, Araria - BSPCB",12-01-2026 08:00:00,26.146529,87.454184,SO2,1,21,12
India,Andhra_Pradesh,Vijayawada,"Rajiv Gandhi Park, Vijayawada - APPCB",12-01-2026 08:00:00,16.509717,80.612222,PM10,87,106,98
India,Andhra_Pradesh,Vijayawada,"Rajiv Gandhi Park, Vijayawada - APPCB",12-01-2026 08:00:00,16.509717,80.612222,NO2,43,79,61
India,Andhra_Pradesh,Vijayawada,"Rajiv Gandhi Park, Vijayawada - APPCB",12-01-2026 08:00:00,16.509717,80.612222,NH3,3,5,4
India,Andhra_Pradesh,Vijayawada,"Rajiv Gandhi Park, Vijayawada - APPCB",12-01-2026 08:00:00,16.509717,80.612222,CO,34,36,35
India,Andhra_Pradesh,Vijayawada,"Rajiv Nagar, Vijayawada - APPCB",12-01-2026 08:00:00,16.554731,80.649110,NO2,NA,NA,NA
India,Andhra_Pradesh,Visakhapatnam,"GVM Corporation, Visakhapatnam - APPCB",12-01-2026 08:00:00,17.72,83.3,OZONE,35,65,50
India,Bihar,Gaya,"Kareemganj, Gaya - BSPCB",12-01-2026 08:00:00,24.792403,84.992416,OZONE,1,58,2
India,Bihar,Gaya,"SFTI Kusdihra, Gaya - BSPCB",12-01-2026 08:00:00,24.762518,84.982348,PM2.5,65,81,71
India,Bihar,Gaya,"SFTI Kusdihra, Gaya - BSPCB",12-01-2026 08:00:00,24.762518,84.982348,NO2,19,23,21
India,Bihar,Gaya,"SFTI Kusdihra, Gaya - BSPCB",12-01-2026 08:00:00,24.762518,84.982348,SO2,1,20,9
India,Bihar,Gaya,"SFTI Kusdihra, Gaya - BSPCB",12-01-2026 08:00:00,24.762518,84.982348,OZONE,10,52,12
India,Bihar,Hajipur,"Industrial Area, Hajipur - BSPCB",12-01-2026 08:00:00,25.697189,85.245900,PM2.5,131,368,264
India,Bihar,Hajipur,"Industrial Area, Hajipur - BSPCB",12-01-2026 08:00:00,25.697189,85.245900,OZONE,5,119,8
India,Bihar,Buxar,"Charitra Van, Buxar - BSPCB",12-01-2026 08:00:00,25.567520,83.966379,NO2,9,10,10
India,Bihar,Chhapra,"Darshan Nagar, Chhapra - BSPCB",12-01-2026 08:00:00,25.7808257,84.7446768,CO,37,58,48
India,Bihar,Chhapra,"Darshan Nagar, Chhapra - BSPCB",12-01-2026 08:00:00,25.7808257,84.7446768,OZONE,13,20,17
India,Bihar,Gaya,"Collectorate, Gaya - BSPCB",12-01-2026 08:00:00,24.7955,84.9994,NO2,9,9,9
India,Bihar,Gaya,"Collectorate, Gaya - BSPCB",12-01-2026 08:00:00,24.7955,84.9994,CO,42,48,45
India,Bihar,Gaya,"Kareemganj, Gaya - BSPCB",12-01-2026 08:00:00,24.792403,84.992416,PM10,71,186,125
India,Assam,Byrnihat,"Central Academy for SFS, Byrnihat - PCBA",12-01-2026 08:00:00,26.071318,91.87488,NO2,6,9,7
India,Assam,Guwahati,"LGBI Airport, Guwahati - PCBA",12-01-2026 08:00:00,26.10887,91.589544,NH3,5,6,5
India,Assam,Guwahati,"Pan Bazaar, Guwahati - PCBA",12-01-2026 08:00:00,26.187500,91.744194,CO,15,96,40
India,Assam,Guwahati,"Pan Bazaar, Guwahati - PCBA",12-01-2026 08:00:00,26.187500,91.744194,OZONE,16,70,24
India,Assam,Guwahati,"Railway Colony, Guwahati - PCBA",12-01-2026 08:00:00,26.181742,91.78063,NO2,3,4,3
India,Andhra_Pradesh,Chittoor,"Gangineni Cheruvu, Chittoor - APPCB",12-01-2026 08:00:00,13.204880,79.097889,PM2.5,40,89,62
India,Andhra_Pradesh,Kadapa,"Yerramukkapalli, Kadapa - APPCB",12-01-2026 08:00:00,14.465052,78.824187,PM10,60,99,81
India,Andhra_Pradesh,Kadapa,"Yerramukkapalli, Kadapa - APPCB",12-01-2026 08:00:00,14.465052,78.824187,CO,20,41,22
India,Andhra_Pradesh,Tirumala,"Toll Gate, Tirumala - APPCB",12-01-2026 08:00:00,13.67,79.35,PM10,56,81,66
India,Andhra_Pradesh,Tirumala,"Toll Gate, Tirumala - APPCB",12-01-2026 08:00:00,13.67,79.35,NO2,6,21,15
India,Andhra_Pradesh,Amaravati,"Secretariat, Amaravati - APPCB",12-01-2026 08:00:00,16.5150833,80.5181667,NO2,23,41,29
India,Andhra_Pradesh,Amaravati,"Secretariat, Amaravati - APPCB",12-01-2026 08:00:00,16.5150833,80.5181667,CO,4,17,14
India,Andhra_Pradesh,Amaravati,"Secretariat, Amaravati - APPCB",12-01-2026 08:00:00,16.5150833,80.5181667,OZONE,31,71,37
India,Andhra_Pradesh,Anantapur,"Gulzarpet, Anantapur - APPCB",12-01-2026 08:00:00,14.675886,77.593027,NO2,13,13,13
India,Bihar,Araria,"Kharahiya Basti, Araria - BSPCB",12-01-2026 08:00:00,26.146529,87.454184,CO,2,34,20
India,Bihar,Begusarai,"Lohiyanagar, Begusarai - BSPCB",12-01-2026 08:00:00,25.42742023,86.13886079,SO2,95,105,102
India,Bihar,Begusarai,"Lohiyanagar, Begusarai - BSPCB",12-01-2026 08:00:00,25.42742023,86.13886079,CO,26,68,54
India,Bihar,Bettiah,"Kamalnath Nagar, Bettiah - BSPCB",12-01-2026 08:00:00,26.80365,84.51954,OZONE,22,24,23
India,Bihar,Bhagalpur,"Mayaganj, Bhagalpur - BSPCB",12-01-2026 08:00:00,25.265194,87.012947,NO2,7,8,7
India,Andhra_Pradesh,Tirumala,"Toll Gate, Tirumala - APPCB",12-01-2026 08:00:00,13.67,79.35,OZONE,6,47,44
India,Andhra_Pradesh,Vijayawada,"HB Colony, Vijayawada - APPCB",12-01-2026 08:00:00,16.536107,80.594233,PM2.5,59,97,76
India,Chhattisgarh,Raipur,"Bhatagaon New ISBT, Raipur - CECB",12-01-2026 08:00:00,21.219665,81.630094,CO,31,110,81
India,Chhattisgarh,Raipur,"Siltara Phase-II, Raipur - CECB",12-01-2026 08:00:00,21.371751,81.664929,NO2,45,52,49
India,Chhattisgarh,Raipur,"Siltara Phase-II, Raipur - CECB",12-01-2026 08:00:00,21.371751,81.664929,CO,34,36,35
India,Chhattisgarh,Tumidih,"OP Jindal Industrial Park, Tumidih - CECB",12-01-2026 08:00:00,22.06631475,83.33820077,SO2,5,9,6
India,Delhi,Delhi,"Alipur, Delhi - DPCC",12-01-2026 08:00:00,28.815329,77.153010,NH3,19,24,20
India,Delhi,Delhi,"Alipur, Delhi - DPCC",12-01-2026 08:00:00,28.815329,77.153010,SO2,2,5,3
India,Delhi,Delhi,"Anand Vihar, Delhi - DPCC",12-01-2026 08:00:00,28.647622,77.3158090,PM2.5,137,372,328
India,Delhi,Delhi,"Anand Vihar, Delhi - DPCC",12-01-2026 08:00:00,28.647622,77.3158090,NO2,32,67,47
India,Delhi,Delhi,"Anand Vihar, Delhi - DPCC",12-01-2026 08:00:00,28.647622,77.3158090,NH3,5,8,6
India,Bihar,Muzaffarpur,"Buddha Colony, Muzaffarpur - BSPCB",12-01-2026 08:00:00,26.11442,85.39813,NO2,31,73,44
India,Bihar,Muzaffarpur,"MIT-Daudpur Kothi, Muzaffarpur - BSPCB",12-01-2026 08:00:00,26.1403345,85.3650192,NO2,1,2,2
India,Bihar,Muzaffarpur,"MIT-Daudpur Kothi, Muzaffarpur - BSPCB",12-01-2026 08:00:00,26.1403345,85.3650192,NH3,2,2,2
India,Bihar,Muzaffarpur,"MIT-Daudpur Kothi, Muzaffarpur - BSPCB",12-01-2026 08:00:00,26.1403345,85.3650192,SO2,10,14,12
India,Bihar,Muzaffarpur,"Muzaffarpur Collectorate, Muzaffarpur - BSPCB",12-01-2026 08:00:00,26.1209,85.3647,NO2,10,14,10
India,Bihar,Patna,"DRM Office Danapur, Patna - BSPCB",12-01-2026 08:00:00,25.586562,85.043586,PM2.5,94,315,215
India,Bihar,Patna,"Govt. High School Shikarpur, Patna - BSPCB",12-01-2026 08:00:00,25.592539,85.227158,PM2.5,75,146,94
India,Bihar,Patna,"Govt. High School Shikarpur, Patna - BSPCB",12-01-2026 08:00:00,25.592539,85.227158,PM10,96,109,104
India,Chhattisgarh,Korba,"Urja Nagar, Korba - CECB",12-01-2026 08:00:00,22.348441,82.549611,CO,20,68,30
India,Chhattisgarh,Kunjemura,"OP Jindal School, Kunjemura - CECB",12-01-2026 08:00:00,22.126650,83.483212,PM2.5,31,93,60
India,Chhattisgarh,Kunjemura,"OP Jindal School, Kunjemura - CECB",12-01-2026 08:00:00,22.126650,83.483212,CO,16,54,42
India,Chhattisgarh,Milupara,"Govt. Higher Secondary School, Milupara - CECB",12-01-2026 08:00:00,22.1910172,83.5197009,CO,12,40,26
India,Chhattisgarh,Raipur,"Bhatagaon New ISBT, Raipur - CECB",12-01-2026 08:00:00,21.219665,81.630094,PM10,15,87,40
India,Chhattisgarh,Raipur,"Bhatagaon New ISBT, Raipur - CECB",12-01-2026 08:00:00,21.219665,81.630094,NO2,1,57,35
India,Chhattisgarh,Raipur,"Bhatagaon New ISBT, Raipur - CECB",12-01-2026 08:00:00,21.219665,81.630094,NH3,2,2,2
India,Bihar,Saharsa,"Police Line, Saharsa - BSPCB",12-01-2026 08:00:00,25.892357,86.590325,OZONE,9,12,10
India,Bihar,Sasaram,"Dada Peer, Sasaram - BSPCB",12-01-2026 08:00:00,24.952822,84.002396,NO2,2,6,3
India,Bihar,Sasaram,"Dada Peer, Sasaram - BSPCB",12-01-2026 08:00:00,24.952822,84.002396,NH3,1,5,3
India,Bihar,Siwan,"Chitragupta Nagar, Siwan - BSPCB",12-01-2026 08:00:00,26.2271665,84.3570427,NO2,NA,NA,NA
India,Bihar,Siwan,"Chitragupta Nagar, Siwan - BSPCB",12-01-2026 08:00:00,26.2271665,84.3570427,CO,80,118,110
India,Chandigarh,Chandigarh,"Sector 22, Chandigarh - CPCC",12-01-2026 08:00:00,30.735567,76.775714,PM2.5,93,302,164
India,Bihar,Patna,"Samanpura, Patna - BSPCB",12-01-2026 08:00:00,25.596727,85.085624,NO2,20,24,22
India,Bihar,Patna,"Samanpura, Patna - BSPCB",12-01-2026 08:00:00,25.596727,85.085624,NH3,5,6,5
India,Bihar,Patna,"Samanpura, Patna - BSPCB",12-01-2026 08:00:00,25.596727,85.085624,CO,90,141,104
India,Bihar,Patna,"Samanpura, Patna - BSPCB",12-01-2026 08:00:00,25.596727,85.085624,OZONE,14,149,17
India,Bihar,Purnia,"Mariam Nagar, Purnia - BSPCB",12-01-2026 08:00:00,25.366336,87.117468,NH3,NA,NA,NA
India,Bihar,Rajgir,"Dangi Tola, Rajgir - BSPCB",12-01-2026 08:00:00,25.03280,85.41948,SO2,17,24,21
India,Bihar,Saharsa,"Police Line, Saharsa - BSPCB",12-01-2026 08:00:00,25.892357,86.590325,NH3,4,4,4
India,Bihar,Patna,"Govt. High School Shikarpur, Patna - BSPCB",12-01-2026 08:00:00,25.592539,85.227158,NO2,14,18,16
India,Bihar,Patna,"Muradpur, Patna - BSPCB",12-01-2026 08:00:00,25.619651,85.147382,NO2,7,10,8
India,Bihar,Patna,"Muradpur, Patna - BSPCB",12-01-2026 08:00:00,25.619651,85.147382,NH3,4,5,4
India,Bihar,Patna,"Muradpur, Patna - BSPCB",12-01-2026 08:00:00,25.619651,85.147382,SO2,7,10,9
India,Bihar,Patna,"Rajbansi Nagar, Patna - BSPCB",12-01-2026 08:00:00,25.599486,85.113666,PM2.5,99,239,160
India,Bihar,Patna,"Rajbansi Nagar, Patna - BSPCB",12-01-2026 08:00:00,25.599486,85.113666,NH3,1,5,4
India,Bihar,Patna,"Rajbansi Nagar, Patna - BSPCB",12-01-2026 08:00:00,25.599486,85.113666,SO2,5,7,6
India,Bihar,Patna,"Rajbansi Nagar, Patna - BSPCB",12-01-2026 08:00:00,25.599486,85.113666,CO,50,104,83
India,Chhattisgarh,Bhilai,"Hathkhoj, Bhilai - CECB",12-01-2026 08:00:00,21.224231,81.408350,NH3,3,5,5
India,Chhattisgarh,Bhilai,"Hathkhoj, Bhilai - CECB",12-01-2026 08:00:00,21.224231,81.408350,CO,12,54,29
India,Chhattisgarh,Chhal,"Nawapara SECL Colony, Chhal - CECB",12-01-2026 08:00:00,22.118125,83.140608,PM10,36,116,59
India,Chhattisgarh,Chhal,"Nawapara SECL Colony, Chhal - CECB",12-01-2026 08:00:00,22.118125,83.140608,NO2,9,21,12
India,Chhattisgarh,Korba,"Rampur, Korba - CECB",12-01-2026 08:00:00,22.368195,82.746431,NH3,1,1,1
India,Chhattisgarh,Korba,"Urja Nagar, Korba - CECB",12-01-2026 08:00:00,22.348441,82.549611,NH3,1,1,1
India,Chhattisgarh,Korba,"Urja Nagar, Korba - CECB",12-01-2026 08:00:00,22.348441,82.549611,SO2,2,18,9
India,Bihar,Kishanganj,"SDM Office_Khagra, Kishanganj - BSPCB",12-01-2026 08:00:00,26.0881305,87.93840336,CO,16,24,17
India,Bihar,Manguraha,"Forest Rest House, Manguraha - BSPCB",12-01-2026 08:00:00,27.308328,84.531742,PM10,NA,NA,NA
India,Bihar,Manguraha,"Forest Rest House, Manguraha - BSPCB",12-01-2026 08:00:00,27.308328,84.531742,OZONE,10,10,10
India,Bihar,Motihari,"Gandak Colony, Motihari - BSPCB",12-01-2026 08:00:00,26.63086,84.90051,OZONE,2,7,3
India,Chhattisgarh,Bhilai,"Civic Center, Bhilai - Bhilai Steel Plant",12-01-2026 08:00:00,21.185571,81.343175,SO2,7,12,9
India,Chhattisgarh,Bhilai,"Hathkhoj, Bhilai - CECB",12-01-2026 08:00:00,21.224231,81.408350,NO2,27,92,61
India,Delhi,Delhi,"Shadipur, Delhi - CPCB",12-01-2026 08:00:00,28.6514781,77.1473105,PM10,156,279,210
India,Delhi,Delhi,"Shadipur, Delhi - CPCB",12-01-2026 08:00:00,28.6514781,77.1473105,NO2,34,57,43
India,Delhi,Delhi,"Shadipur, Delhi - CPCB",12-01-2026 08:00:00,28.6514781,77.1473105,NH3,13,18,15
India,Delhi,Delhi,"Sirifort, Delhi - CPCB",12-01-2026 08:00:00,28.5504249,77.2159377,PM2.5,173,392,331
India,Delhi,Delhi,"Sirifort, Delhi - CPCB",12-01-2026 08:00:00,28.5504249,77.2159377,OZONE,10,12,11
India,Delhi,Delhi,"Sonia Vihar, Delhi - DPCC",12-01-2026 08:00:00,28.710508,77.249485,NO2,28,85,46
India,Delhi,Delhi,"Sri Aurobindo Marg, Delhi - DPCC",12-01-2026 08:00:00,28.531346,77.190156,NO2,33,100,57
India,Delhi,Delhi,"Sri Aurobindo Marg, Delhi - DPCC",12-01-2026 08:00:00,28.531346,77.190156,NH3,4,8,6
India,Delhi,Delhi,"Vivek Vihar, Delhi - DPCC",12-01-2026 08:00:00,28.672342,77.315260,PM2.5,163,358,312
India,Delhi,Delhi,"Lodhi Road, Delhi - IMD",12-01-2026 08:00:00,28.5918245,77.2273074,PM10,104,212,159
India,Delhi,Delhi,"Lodhi Road, Delhi - IMD",12-01-2026 08:00:00,28.5918245,77.2273074,CO,28,59,46
India,Delhi,Delhi,"Major Dhyan Chand National Stadium, Delhi - DPCC",12-01-2026 08:00:00,28.611281,77.237738,PM2.5,83,357,283
India,Delhi,Delhi,"Major Dhyan Chand National Stadium, Delhi - DPCC",12-01-2026 08:00:00,28.611281,77.237738,NO2,31,120,62
India,Delhi,Delhi,"Major Dhyan Chand National Stadium, Delhi - DPCC",12-01-2026 08:00:00,28.611281,77.237738,CO,44,102,64
India,Delhi,Delhi,"Major Dhyan Chand National Stadium, Delhi - DPCC",12-01-2026 08:00:00,28.611281,77.237738,OZONE,2,111,2
India,Delhi,Delhi,"Mandir Marg, Delhi - DPCC",12-01-2026 08:00:00,28.636429,77.201067,PM2.5,65,348,239
India,Delhi,Delhi,"Mandir Marg, Delhi - DPCC",12-01-2026 08:00:00,28.636429,77.201067,PM10,84,249,176
India,Delhi,Delhi,"Mandir Marg, Delhi - DPCC",12-01-2026 08:00:00,28.636429,77.201067,NH3,19,32,25
India,Delhi,Delhi,"Punjabi Bagh, Delhi - DPCC",12-01-2026 08:00:00,28.674045,77.131023,SO2,12,35,19
India,Delhi,Delhi,"Pusa, Delhi - DPCC",12-01-2026 08:00:00,28.639652,77.146275,OZONE,2,19,2
India,Delhi,Delhi,"Pusa, Delhi - IMD",12-01-2026 08:00:00,28.636110,77.173332,NO2,16,124,49
India,Delhi,Delhi,"Pusa, Delhi - IMD",12-01-2026 08:00:00,28.636110,77.173332,CO,82,117,102
India,Delhi,Delhi,"R K Puram, Delhi - DPCC",12-01-2026 08:00:00,28.563262,77.186937,NO2,41,124,71
India,Delhi,Delhi,"Rohini, Delhi - DPCC",12-01-2026 08:00:00,28.732528,77.119920,NO2,14,69,36
India,Delhi,Delhi,"Chandni Chowk, Delhi - IITM",12-01-2026 08:00:00,28.656756,77.227234,NO2,33,81,53
India,Delhi,Delhi,"DTU, Delhi - CPCB",12-01-2026 08:00:00,28.7500499,77.1112615,NO2,56,61,59
India,Delhi,Delhi,"DTU, Delhi - CPCB",12-01-2026 08:00:00,28.7500499,77.1112615,CO,16,36,31
India,Delhi,Delhi,"Dr. Karni Singh Shooting Range, Delhi - DPCC",12-01-2026 08:00:00,28.498571,77.264840,NO2,30,82,50
India,Delhi,Delhi,"Vivek Vihar, Delhi - DPCC",12-01-2026 08:00:00,28.672342,77.315260,NH3,13,15,14
India,Delhi,Delhi,"Wazirpur, Delhi - DPCC",12-01-2026 08:00:00,28.699793,77.165453,SO2,2,9,4
India,Gujarat,Ahmedabad,"Chandkheda, Ahmedabad - IITM",12-01-2026 08:00:00,23.107969,72.574648,CO,18,62,23
India,Delhi,Delhi,"Mundka, Delhi - DPCC",12-01-2026 08:00:00,28.684678,77.076574,CO,44,74,58
India,Delhi,Delhi,"NSIT Dwarka, Delhi - CPCB",12-01-2026 08:00:00,28.60909,77.0325413,SO2,16,24,19
India,Delhi,Delhi,"Narela, Delhi - DPCC",12-01-2026 08:00:00,28.822836,77.101981,NH3,6,10,8
India,Delhi,Delhi,"Aya Nagar, Delhi - IMD",12-01-2026 08:00:00,28.4706914,77.1099364,NO2,32,60,43
India,Delhi,Delhi,"Aya Nagar, Delhi - IMD",12-01-2026 08:00:00,28.4706914,77.1099364,CO,32,66,55
India,Delhi,Delhi,"Aya Nagar, Delhi - IMD",12-01-2026 08:00:00,28.4706914,77.1099364,OZONE,8,61,10
India,Delhi,Delhi,"Burari Crossing, Delhi - IMD",12-01-2026 08:00:00,28.7256504,77.2011573,OZONE,NA,NA,NA
India,Delhi,Delhi,"North Campus, DU, Delhi - IMD",12-01-2026 08:00:00,28.6573814,77.1585447,PM2.5,96,332,256
India,Delhi,Delhi,"Okhla Phase-2, Delhi - DPCC",12-01-2026 08:00:00,28.530785,77.271255,SO2,5,14,9
India,Delhi,Delhi,"IGI Airport (T3), Delhi - IMD",12-01-2026 08:00:00,28.5627763,77.1180053,PM2.5,98,310,224
India,Delhi,Delhi,"IHBAS, Dilshad Garden, Delhi - CPCB",12-01-2026 08:00:00,28.6811736,77.3025234,NO2,25,107,67
India,Haryana,Hisar,"Urban Estate-II, Hisar - HSPCB",12-01-2026 08:00:00,29.140560,75.744941,NO2,26,27,27
India,Haryana,Hisar,"Urban Estate-II, Hisar - HSPCB",12-01-2026 08:00:00,29.140560,75.744941,OZONE,18,81,23
India,Haryana,Jind,"Police Lines, Jind - HSPCB",12-01-2026 08:00:00,29.307814,76.337619,NO2,39,53,44
India,Haryana,Jind,"Police Lines, Jind - HSPCB",12-01-2026 08:00:00,29.307814,76.337619,NH3,1,3,2
India,Haryana,Kaithal,"Rishi Nagar, Kaithal - HSPCB",12-01-2026 08:00:00,29.8006,76.4155,NO2,29,33,31
India,Haryana,Karnal,"Sector-12, Karnal - HSPCB",12-01-2026 08:00:00,29.695300,77.002700,CO,32,47,40
India,Haryana,Kurukshetra,"Sector-7, Kurukshetra - HSPCB",12-01-2026 08:00:00,29.966942,76.875879,PM10,148,183,168
India,Haryana,Fatehabad,"Huda Sector, Fatehabad - HSPCB",12-01-2026 08:00:00,29.503664,75.467934,NH3,13,15,14
India,Haryana,Gurugram,"NISE Gwal Pahari, Gurugram - IMD",12-01-2026 08:00:00,28.422681,77.148944,PM2.5,90,339,261
India,Haryana,Gurugram,"NISE Gwal Pahari, Gurugram - IMD",12-01-2026 08:00:00,28.422681,77.148944,PM10,100,236,175
India,Haryana,Gurugram,"NISE Gwal Pahari, Gurugram - IMD",12-01-2026 08:00:00,28.422681,77.148944,NO2,21,49,37
India,Haryana,Gurugram,"Sector-51, Gurugram - HSPCB",12-01-2026 08:00:00,28.4227,77.0667,NO2,6,15,9
India,Haryana,Gurugram,"Sector-51, Gurugram - HSPCB",12-01-2026 08:00:00,28.4227,77.0667,NH3,9,14,12
India,Haryana,Gurugram,"Teri Gram, Gurugram - HSPCB",12-01-2026 08:00:00,28.4275,77.1465,NH3,11,20,14
India,Haryana,Gurugram,"Teri Gram, Gurugram - HSPCB",12-01-2026 08:00:00,28.4275,77.1465,CO,36,53,38
India,Haryana,Ambala,"Patti Mehar, Ambala - HSPCB",12-01-2026 08:00:00,30.379589,76.778328,SO2,15,31,22
India,Haryana,Bahadurgarh,"Arya Nagar, Bahadurgarh - HSPCB",12-01-2026 08:00:00,28.6701,76.9254,NO2,13,14,13
India,Haryana,Ballabgarh,"Nathu Colony, Ballabgarh - HSPCB",12-01-2026 08:00:00,28.3419248,77.319699,NO2,19,21,20
India,Haryana,Ballabgarh,"Nathu Colony, Ballabgarh - HSPCB",12-01-2026 08:00:00,28.3419248,77.319699,CO,16,66,38
India,Haryana,Charkhi Dadri,"Mini Secretariat, Charkhi Dadri - HSPCB",12-01-2026 08:00:00,28.593883,76.270653,PM2.5,55,313,208
India,Haryana,Palwal,"Shyam Nagar, Palwal - HSPCB",12-01-2026 08:00:00,28.1485564,77.3320667,PM10,87,103,95
India,Haryana,Palwal,"Shyam Nagar, Palwal - HSPCB",12-01-2026 08:00:00,28.1485564,77.3320667,SO2,12,14,13
India,Haryana,Panchgaon,"Amity University, Panchgaon - IITM",12-01-2026 08:00:00,28.3153,76.9143,NH3,6,10,8
India,Haryana,Panipat,"Sector-18, Panipat - HSPCB",12-01-2026 08:00:00,29.432304,76.972765,PM10,111,169,139
India,Haryana,Panipat,"Sector-18, Panipat - HSPCB",12-01-2026 08:00:00,29.432304,76.972765,NH3,2,3,2
India,Haryana,Panipat,"Sector-18, Panipat - HSPCB",12-01-2026 08:00:00,29.432304,76.972765,OZONE,30,30,30
India,Gujarat,Ahmedabad,"SVPI Airport Hansol, Ahmedabad - IITM",12-01-2026 08:00:00,23.076793,72.627874,SO2,3,9,6
India,Gujarat,Ankleshwar,"GIDC, Ankleshwar - GPCB",12-01-2026 08:00:00,21.613267,73.010555,OZONE,2,60,2
India,Gujarat,Gandhinagar,"IIPHG Lekawada, Gandhinagar - IITM",12-01-2026 08:00:00,23.243639,72.68994,PM2.5,141,251,203
India,Gujarat,Gandhinagar,"IIPHG Lekawada, Gandhinagar - IITM",12-01-2026 08:00:00,23.243639,72.68994,NH3,NA,NA,NA
India,Gujarat,Gandhinagar,"IIPHG Lekawada, Gandhinagar - IITM",12-01-2026 08:00:00,23.243639,72.68994,SO2,8,14,10
India,Gujarat,Ahmedabad,"Rakhial, Ahmedabad - IITM",12-01-2026 08:00:00,23.016834,72.625775,SO2,21,43,28
India,Gujarat,Ahmedabad,"SAC ISRO Bopal, Ahmedabad - IITM",12-01-2026 08:00:00,23.041137,72.456691,PM2.5,NA,NA,NA
India,Gujarat,Ahmedabad,"SAC ISRO Bopal, Ahmedabad - IITM",12-01-2026 08:00:00,23.041137,72.456691,CO,10,34,25
India,Gujarat,Ahmedabad,"SAC ISRO Bopal, Ahmedabad - IITM",12-01-2026 08:00:00,23.041137,72.456691,OZONE,3,70,7
India,Haryana,Dharuhera,"Municipal Corporation Office, Dharuhera -  HSPCB",12-01-2026 08:00:00,28.206800,76.799700,PM2.5,157,317,243
India,Haryana,Dharuhera,"Municipal Corporation Office, Dharuhera -  HSPCB",12-01-2026 08:00:00,28.206800,76.799700,PM10,124,200,157
India,Haryana,Dharuhera,"Municipal Corporation Office, Dharuhera -  HSPCB",12-01-2026 08:00:00,28.206800,76.799700,NO2,18,63,47
India,Haryana,Dharuhera,"Municipal Corporation Office, Dharuhera -  HSPCB",12-01-2026 08:00:00,28.206800,76.799700,SO2,1,1,1
India,Haryana,Manesar,"Sector-2 IMT, Manesar - HSPCB",12-01-2026 08:00:00,28.360699,76.936090,PM10,80,147,117
India,Haryana,Manesar,"Sector-2 IMT, Manesar - HSPCB",12-01-2026 08:00:00,28.360699,76.936090,CO,24,45,34
India,Haryana,Narnaul,"Shastri Nagar, Narnaul - HSPCB",12-01-2026 08:00:00,28.060249,76.113115,NO2,101,159,116
India,Gujarat,Vatva,"Phase-4 GIDC, Vatva - GPCB",12-01-2026 08:00:00,22.969611,72.643500,NO2,49,67,58
India,Haryana,Sirsa,"F-Block, Sirsa - HSPCB",12-01-2026 08:00:00,29.536400,75.015800,NO2,10,29,19
India,Haryana,Sirsa,"F-Block, Sirsa - HSPCB",12-01-2026 08:00:00,29.536400,75.015800,NH3,11,13,12
India,Haryana,Sirsa,"F-Block, Sirsa - HSPCB",12-01-2026 08:00:00,29.536400,75.015800,SO2,4,27,11
India,Haryana,Sonipat,"Murthal, Sonipat - HSPCB",12-01-2026 08:00:00,29.027200,77.062100,NO2,23,43,33
India,Haryana,Sonipat,"Murthal, Sonipat - HSPCB",12-01-2026 08:00:00,29.027200,77.062100,CO,22,34,27
India,Haryana,Sonipat,"Murthal, Sonipat - HSPCB",12-01-2026 08:00:00,29.027200,77.062100,OZONE,25,26,26
India,Haryana,Yamuna Nagar,"Gobind Pura, Yamuna Nagar - HSPCB",12-01-2026 08:00:00,30.1480566,77.2893471,PM10,117,174,149
India,Haryana,Yamuna Nagar,"Gobind Pura, Yamuna Nagar - HSPCB",12-01-2026 08:00:00,30.1480566,77.2893471,NH3,1,6,4
India,Himachal Pradesh,Baddi,"HIMUDA Complex Phase-1, Baddi - HPPCB",12-01-2026 08:00:00,30.943887,76.801991,PM10,97,244,161
India,Himachal Pradesh,Baddi,"HIMUDA Complex Phase-1, Baddi - HPPCB",12-01-2026 08:00:00,30.943887,76.801991,NO2,14,33,22
India,Kerala,Kannur,"Thavakkara, Kannur - Kerala PCB",12-01-2026 08:00:00,11.875000,75.373200,NH3,2,2,2
India,Kerala,Kannur,"Thavakkara, Kannur - Kerala PCB",12-01-2026 08:00:00,11.875000,75.373200,CO,16,19,17
India,Kerala,Kannur,"Thavakkara, Kannur - Kerala PCB",12-01-2026 08:00:00,11.875000,75.373200,OZONE,28,32,28
India,Kerala,Kollam,"Polayathode, Kollam - Kerala PCB",12-01-2026 08:00:00,8.8787,76.6073,NO2,NA,NA,NA
India,Kerala,Kollam,"Polayathode, Kollam - Kerala PCB",12-01-2026 08:00:00,8.8787,76.6073,SO2,NA,NA,NA
India,Kerala,Kollam,"Polayathode, Kollam - Kerala PCB",12-01-2026 08:00:00,8.8787,76.6073,CO,14,18,15
India,Kerala,Kollam,"Polayathode, Kollam - Kerala PCB",12-01-2026 08:00:00,8.8787,76.6073,OZONE,29,33,30
India,Kerala,Thiruvananthapuram,"Kariavattom, Thiruvananthapuram - Kerala PCB",12-01-2026 08:00:00,8.563700,76.886500,NO2,6,7,7
India,Kerala,Thiruvananthapuram,"Kariavattom, Thiruvananthapuram - Kerala PCB",12-01-2026 08:00:00,8.563700,76.886500,SO2,4,5,4
India,Kerala,Thrissur,"Corporation Ground, Thrissur - Kerala PCB",12-01-2026 08:00:00,10.532400,76.215900,NO2,6,8,7
India,Kerala,Thrissur,"Corporation Ground, Thrissur - Kerala PCB",12-01-2026 08:00:00,10.532400,76.215900,OZONE,29,29,29
India,Jammu_and_Kashmir,Pampore,"Khrew, Pampore - JKPCC",12-01-2026 08:00:00,34.031606,75.009712,PM10,60,89,79
India,Jammu_and_Kashmir,Srinagar,"Rajbagh, Srinagar - JKPCC",12-01-2026 08:00:00,34.066206,74.819820,SO2,3,4,3
India,Jharkhand,Dhanbad,"Sardar Patel Nagar, Dhanbad - JSPCB",12-01-2026 08:00:00,23.80569,86.44268,OZONE,1,30,5
India,Karnataka,Bagalkot,"Vidayagiri, Bagalkot - KSPCB",12-01-2026 08:00:00,16.172806,75.659694,PM10,53,54,54
India,Karnataka,Bagalkot,"Vidayagiri, Bagalkot - KSPCB",12-01-2026 08:00:00,16.172806,75.659694,CO,4,37,26
India,Karnataka,Belgaum,"Ramteerth Nagar, Belgaum - KSPCB",12-01-2026 08:00:00,15.888653,74.541751,PM2.5,24,131,44
India,Karnataka,Belgaum,"Ramteerth Nagar, Belgaum - KSPCB",12-01-2026 08:00:00,15.888653,74.541751,PM10,32,134,56
India,Karnataka,Belgaum,"Ramteerth Nagar, Belgaum - KSPCB",12-01-2026 08:00:00,15.888653,74.541751,NH3,9,12,11
India,Karnataka,Shivamogga,"Vinoba Nagara, Shivamogga - KSPCB",12-01-2026 08:00:00,13.940000,75.555917,NH3,NA,NA,NA
India,Karnataka,Shivamogga,"Vinoba Nagara, Shivamogga - KSPCB",12-01-2026 08:00:00,13.940000,75.555917,CO,NA,NA,NA
India,Karnataka,Tumakuru,"Thimmalapura, Tumakuru - KSPCB",12-01-2026 08:00:00,13.377516,77.099072,PM10,86,102,93
India,Karnataka,Tumakuru,"Thimmalapura, Tumakuru - KSPCB",12-01-2026 08:00:00,13.377516,77.099072,NH3,6,6,6
India,Karnataka,Tumakuru,"Thimmalapura, Tumakuru - KSPCB",12-01-2026 08:00:00,13.377516,77.099072,CO,52,54,53
India,Karnataka,Vijayapura,"Ibrahimpur, Vijayapura - KSPCB",12-01-2026 08:00:00,16.802639,75.722694,PM2.5,26,31,30
India,Karnataka,Yadgir,"Collector Office, Yadgir - KSPCB",12-01-2026 08:00:00,16.7602,77.1428,NO2,3,25,14
India,Karnataka,Yadgir,"Collector Office, Yadgir - KSPCB",12-01-2026 08:00:00,16.7602,77.1428,NH3,2,3,2
India,Karnataka,Kalaburagi,"Mahatma Basaveswar Colony, Kalaburgi - KSPCB",12-01-2026 08:00:00,17.336318,76.847397,PM2.5,12,68,40
India,Karnataka,Kalaburagi,"Mahatma Basaveswar Colony, Kalaburgi - KSPCB",12-01-2026 08:00:00,17.336318,76.847397,PM10,18,82,50
India,Karnataka,Kalaburagi,"Mahatma Basaveswar Colony, Kalaburgi - KSPCB",12-01-2026 08:00:00,17.336318,76.847397,SO2,3,4,4
India,Karnataka,Madikeri,"Stuart Hill, Madikeri - KSPCB",12-01-2026 08:00:00,12.415911,75.735050,PM10,6,18,13
India,Karnataka,Mysuru,"Hebbal 1st Stage, Mysuru - KSPCB",12-01-2026 08:00:00,12.21041,76.37376,PM2.5,25,46,37
India,Karnataka,Mysuru,"Hebbal 1st Stage, Mysuru - KSPCB",12-01-2026 08:00:00,12.21041,76.37376,OZONE,9,54,20
India,Karnataka,Bengaluru,"Hebbal, Bengaluru - KSPCB",12-01-2026 08:00:00,13.029152,77.585901,NO2,9,46,15
India,Karnataka,Bengaluru,"Hebbal, Bengaluru - KSPCB",12-01-2026 08:00:00,13.029152,77.585901,CO,16,106,83
India,Karnataka,Bengaluru,"Hombegowda Nagar, Bengaluru - KSPCB",12-01-2026 08:00:00,12.938539,77.590100,PM2.5,8,21,13
India,Karnataka,Bengaluru,"Jayanagar 5th Block, Bengaluru - KSPCB",12-01-2026 08:00:00,12.920984,77.584908,SO2,1,13,6
India,Karnataka,Bengaluru,"Jigani, Bengaluru - KSPCB",12-01-2026 08:00:00,12.7816279,77.6299145,PM2.5,38,55,46
India,Karnataka,Bengaluru,"Jigani, Bengaluru - KSPCB",12-01-2026 08:00:00,12.7816279,77.6299145,NH3,4,5,4
India,Karnataka,Bengaluru,"Kasturi Nagar, Bengaluru - KSPCB",12-01-2026 08:00:00,13.003872,77.664217,NO2,44,45,44
India,Karnataka,Bengaluru,"Kasturi Nagar, Bengaluru - KSPCB",12-01-2026 08:00:00,13.003872,77.664217,CO,40,48,44
India,Karnataka,Bengaluru,"RVCE-Mailasandra, Bengaluru - KSPCB",12-01-2026 08:00:00,12.921418,77.502466,NO2,16,21,21
India,Karnataka,Bengaluru,"RVCE-Mailasandra, Bengaluru - KSPCB",12-01-2026 08:00:00,12.921418,77.502466,SO2,5,6,6
India,Karnataka,Bengaluru,"Shivapura_Peenya, Bengaluru - KSPCB",12-01-2026 08:00:00,13.0246342,77.5080115,NH3,3,4,4
