country,state,city,station,last_update,latitude,longitude,pollutant_id,min_value,max_value,avg_value
India,Andhra_Pradesh,Vijayawada,"HB Colony, Vijayawada - APPCB",08-10-2025 07:00:00,16.536107,80.594233,PM10,52,69,60
India,Andhra_Pradesh,Vijayawada,"HB Colony, Vijayawada - APPCB",08-10-2025 07:00:00,16.536107,80.594233,NO2,12,16,13
India,Andhra_Pradesh,Vijayawada,"Rajiv Gandhi Park, Vijayawada - APPCB",08-10-2025 07:00:00,16.509717,80.612222,PM2.5,39,81,60
India,Andhra_Pradesh,Vijayawada,"Rajiv Gandhi Park, Vijayawada - APPCB",08-10-2025 07:00:00,16.509717,80.612222,PM10,41,84,62
India,Andhra_Pradesh,Vijayawada,"Rajiv Gandhi Park, Vijayawada - APPCB",08-10-2025 07:00:00,16.509717,80.612222,NO2,34,55,43
India,Andhra_Pradesh,Vijayawada,"Rajiv Gandhi Park, Vijayawada - APPCB",08-10-2025 07:00:00,16.509717,80.612222,SO2,10,20,15
India,Andhra_Pradesh,Vijayawada,"Rajiv Nagar, Vijayawada - APPCB",08-10-2025 07:00:00,16.554731,80.649110,PM10,36,55,40
India,Andhra_Pradesh,Rajamahendravaram,"Anand Kala Kshetram, Rajamahendravaram - APPCB",08-10-2025 07:00:00,16.9872867,81.7363176,NO2,8,35,19
India,Andhra_Pradesh,Rajamahendravaram,"Anand Kala Kshetram, Rajamahendravaram - APPCB",08-10-2025 07:00:00,16.9872867,81.7363176,NH3,2,3,3
India,Andhra_Pradesh,Rajamahendravaram,"Anand Kala Kshetram, Rajamahendravaram - APPCB",08-10-2025 07:00:00,16.9872867,81.7363176,CO,7,39,18
India,Andhra_Pradesh,Rajamahendravaram,"Anand Kala Kshetram, Rajamahendravaram - APPCB",08-10-2025 07:00:00,16.9872867,81.7363176,OZONE,8,11,10
India,Andhra_Pradesh,Tirumala,"Toll Gate, Tirumala - APPCB",08-10-2025 07:00:00,13.67,79.35,PM10,43,108,64
India,Andhra_Pradesh,Vijayawada,"Rajiv Nagar, Vijayawada - APPCB",08-10-2025 07:00:00,16.554731,80.649110,NO2,8,8,8
India,Andhra_Pradesh,Vijayawada,"Rajiv Nagar, Vijayawada - APPCB",08-10-2025 07:00:00,16.554731,80.649110,SO2,10,26,18
India,Assam,Byrnihat,"Central Academy for SFS, Byrnihat - PCBA",08-10-2025 07:00:00,26.071318,91.87488,PM2.5,NA,NA,NA
India,Assam,Byrnihat,"Central Academy for SFS, Byrnihat - PCBA",08-10-2025 07:00:00,26.071318,91.87488,PM10,NA,NA,NA
India,Andhra_Pradesh,Visakhapatnam,"GVM Corporation, Visakhapatnam - APPCB",08-10-2025 07:00:00,17.72,83.3,NO2,26,159,81
India,Andhra_Pradesh,Amaravati,"Secretariat, Amaravati - APPCB",08-10-2025 07:00:00,16.5150833,80.5181667,PM2.5,7,31,19
India,Andhra_Pradesh,Anantapur,"Gulzarpet, Anantapur - APPCB",08-10-2025 07:00:00,14.675886,77.593027,PM2.5,54,78,64
India,Andhra_Pradesh,Anantapur,"Gulzarpet, Anantapur - APPCB",08-10-2025 07:00:00,14.675886,77.593027,NO2,16,23,17
India,Arunachal_Pradesh,Naharlagun,"Naharlagun, Naharlagun - APSPCB",08-10-2025 07:00:00,27.103358,93.679645,CO,6,15,10
India,Andhra_Pradesh,Tirupati,"Vaikuntapuram, Tirupati - APPCB",08-10-2025 07:00:00,13.615387,79.409230,NH3,5,5,5
India,Bihar,Katihar,"Mirchaibari, Katihar - BSPCB",08-10-2025 07:00:00,25.560083,87.553265,OZONE,1,41,1
India,Bihar,Kishanganj,"SDM Office_Khagra, Kishanganj - BSPCB",08-10-2025 07:00:00,26.0881305,87.93840336,SO2,7,8,8
India,Bihar,Manguraha,"Forest Rest House, Manguraha - BSPCB",08-10-2025 07:00:00,27.308328,84.531742,NH3,1,3,2
India,Bihar,Manguraha,"Forest Rest House, Manguraha - BSPCB",08-10-2025 07:00:00,27.308328,84.531742,CO,32,37,34
India,Bihar,Manguraha,"Forest Rest House, Manguraha - BSPCB",08-10-2025 07:00:00,27.308328,84.531742,OZONE,8,18,11
India,Bihar,Motihari,"Gandak Colony, Motihari - BSPCB",08-10-2025 07:00:00,26.63086,84.90051,PM10,NA,NA,NA
India,Bihar,Motihari,"Gandak Colony, Motihari - BSPCB",08-10-2025 07:00:00,26.63086,84.90051,NH3,3,3,3
India,Bihar,Motihari,"Gandak Colony, Motihari - BSPCB",08-10-2025 07:00:00,26.63086,84.90051,CO,28,38,32
India,Assam,Silchar,"Tarapur, Silchar - PCBA",08-10-2025 07:00:00,24.82827,92.79525,SO2,5,6,5
India,Assam,Silchar,"Tarapur, Silchar - PCBA",08-10-2025 07:00:00,24.82827,92.79525,CO,32,43,39
India,Assam,Sivasagar,"Girls College, Sivasagar - PCBA",08-10-2025 07:00:00,26.987634,94.636574,PM2.5,17,43,25
India,Assam,Sivasagar,"Girls College, Sivasagar - PCBA",08-10-2025 07:00:00,26.987634,94.636574,OZONE,2,3,2
India,Bihar,Araria,"Kharahiya Basti, Araria - BSPCB",08-10-2025 07:00:00,26.146529,87.454184,PM2.5,45,66,54
India,Bihar,Arrah,"New DM Office, Arrah - BSPCB",08-10-2025 07:00:00,25.5626095,84.663264,SO2,NA,NA,NA
India,Assam,Nalbari,"Bata Chowk, Nalbari - PCBA",08-10-2025 07:00:00,26.446912,91.439057,NO2,3,12,6
India,Assam,Nalbari,"Bata Chowk, Nalbari - PCBA",08-10-2025 07:00:00,26.446912,91.439057,NH3,1,4,2
India,Assam,Silchar,"Tarapur, Silchar - PCBA",08-10-2025 07:00:00,24.82827,92.79525,PM2.5,42,48,43
India,Assam,Silchar,"Tarapur, Silchar - PCBA",08-10-2025 07:00:00,24.82827,92.79525,PM10,49,55,50
India,Assam,Silchar,"Tarapur, Silchar - PCBA",08-10-2025 07:00:00,24.82827,92.79525,NO2,15,17,16
India,Assam,Guwahati,"IITG, Guwahati - PCBA",08-10-2025 07:00:00,26.2028636,91.70046436,NH3,5,5,5
India,Assam,Guwahati,"IITG, Guwahati - PCBA",08-10-2025 07:00:00,26.2028636,91.70046436,OZONE,NA,NA,NA
India,Assam,Guwahati,"LGBI Airport, Guwahati - PCBA",08-10-2025 07:00:00,26.10887,91.589544,NO2,14,32,15
India,Bihar,Bhagalpur,"DM Office_Kachari Chowk, Bhagalpur - BSPCB",08-10-2025 07:00:00,25.251013,86.989001,CO,14,20,16
India,Bihar,Bhagalpur,"Mayaganj, Bhagalpur - BSPCB",08-10-2025 07:00:00,25.265194,87.012947,NO2,9,10,10
India,Bihar,Bhagalpur,"Mayaganj, Bhagalpur - BSPCB",08-10-2025 07:00:00,25.265194,87.012947,OZONE,17,50,32
India,Bihar,Gaya,"Collectorate, Gaya - BSPCB",08-10-2025 07:00:00,24.7955,84.9994,PM2.5,26,142,86
India,Bihar,Gaya,"Collectorate, Gaya - BSPCB",08-10-2025 07:00:00,24.7955,84.9994,NO2,9,10,9
India,Bihar,Gaya,"Collectorate, Gaya - BSPCB",08-10-2025 07:00:00,24.7955,84.9994,SO2,10,14,11
India,Bihar,Gaya,"Collectorate, Gaya - BSPCB",08-10-2025 07:00:00,24.7955,84.9994,CO,43,68,46
India,Assam,Guwahati,"Pan Bazaar, Guwahati - PCBA",08-10-2025 07:00:00,26.187500,91.744194,SO2,30,82,55
India,Assam,Guwahati,"Railway Colony, Guwahati - PCBA",08-10-2025 07:00:00,26.181742,91.78063,PM10,NA,NA,NA
India,Bihar,Begusarai,"Lohiyanagar, Begusarai - BSPCB",08-10-2025 07:00:00,25.42742023,86.13886079,SO2,28,46,37
India,Bihar,Bettiah,"Kamalnath Nagar, Bettiah - BSPCB",08-10-2025 07:00:00,26.80365,84.51954,PM2.5,NA,NA,NA
India,Bihar,Purnia,"Mariam Nagar, Purnia - BSPCB",08-10-2025 07:00:00,25.366336,87.117468,PM2.5,27,85,48
India,Bihar,Purnia,"Mariam Nagar, Purnia - BSPCB",08-10-2025 07:00:00,25.366336,87.117468,SO2,NA,NA,NA
India,Bihar,Purnia,"Mariam Nagar, Purnia - BSPCB",08-10-2025 07:00:00,25.366336,87.117468,CO,4,54,4
India,Bihar,Rajgir,"Dangi Tola, Rajgir - BSPCB",08-10-2025 07:00:00,25.03280,85.41948,NH3,6,7,7
India,Bihar,Rajgir,"Dangi Tola, Rajgir - BSPCB",08-10-2025 07:00:00,25.03280,85.41948,SO2,19,23,21
India,Bihar,Rajgir,"Dangi Tola, Rajgir - BSPCB",08-10-2025 07:00:00,25.03280,85.41948,OZONE,23,38,32
India,Bihar,Patna,"Govt. High School Shikarpur, Patna - BSPCB",08-10-2025 07:00:00,25.592539,85.227158,PM10,35,49,42
India,Bihar,Patna,"Govt. High School Shikarpur, Patna - BSPCB",08-10-2025 07:00:00,25.592539,85.227158,SO2,6,59,10
India,Bihar,Patna,"Govt. High School Shikarpur, Patna - BSPCB",08-10-2025 07:00:00,25.592539,85.227158,OZONE,8,12,11
India,Bihar,Patna,"IGSC Planetarium Complex, Patna - BSPCB",08-10-2025 07:00:00,25.610369,85.132568,PM2.5,26,162,74
India,Bihar,Patna,"Muradpur, Patna - BSPCB",08-10-2025 07:00:00,25.619651,85.147382,PM2.5,46,58,52
India,Bihar,Munger,"Town Hall, Munger - BSPCB",08-10-2025 07:00:00,25.376776,86.471523,NH3,5,7,6
India,Bihar,Muzaffarpur,"MIT-Daudpur Kothi, Muzaffarpur - BSPCB",08-10-2025 07:00:00,26.1403345,85.3650192,NH3,1,2,1
India,Bihar,Muzaffarpur,"MIT-Daudpur Kothi, Muzaffarpur - BSPCB",08-10-2025 07:00:00,26.1403345,85.3650192,OZONE,16,55,16
India,Bihar,Muzaffarpur,"Muzaffarpur Collectorate, Muzaffarpur - BSPCB",08-10-2025 07:00:00,26.1209,85.3647,NO2,9,17,11
India,Bihar,Samastipur,"DM Office_Kasipur, Samastipur - BSPCB",08-10-2025 07:00:00,25.859655,85.77944,CO,1,3,1
India,Bihar,Samastipur,"DM Office_Kasipur, Samastipur - BSPCB",08-10-2025 07:00:00,25.859655,85.77944,OZONE,6,11,8
India,Bihar,Sasaram,"Dada Peer, Sasaram - BSPCB",08-10-2025 07:00:00,24.952822,84.002396,PM10,40,165,88
India,Bihar,Sasaram,"Dada Peer, Sasaram - BSPCB",08-10-2025 07:00:00,24.952822,84.002396,NO2,2,3,2
India,Bihar,Patna,"DRM Office Danapur, Patna - BSPCB",08-10-2025 07:00:00,25.586562,85.043586,SO2,2,2,2
India,Bihar,Patna,"DRM Office Danapur, Patna - BSPCB",08-10-2025 07:00:00,25.586562,85.043586,CO,22,30,27
India,Chandigarh,Chandigarh,"Sector 22, Chandigarh - CPCC",08-10-2025 07:00:00,30.735567,76.775714,OZONE,13,59,38
India,Chandigarh,Chandigarh,"Sector-25, Chandigarh - CPCC",08-10-2025 07:00:00,30.751462,76.762879,OZONE,5,21,7
India,Bihar,Patna,"Muradpur, Patna - BSPCB",08-10-2025 07:00:00,25.619651,85.147382,PM10,62,282,132
India,Bihar,Patna,"Samanpura, Patna - BSPCB",08-10-2025 07:00:00,25.596727,85.085624,CO,8,114,51
India,Chhattisgarh,Kunjemura,"OP Jindal School, Kunjemura - CECB",08-10-2025 07:00:00,22.126650,83.483212,OZONE,2,11,9
India,Chhattisgarh,Milupara,"Govt. Higher Secondary School, Milupara - CECB",08-10-2025 07:00:00,22.1910172,83.5197009,PM10,NA,NA,NA
India,Chhattisgarh,Milupara,"Govt. Higher Secondary School, Milupara - CECB",08-10-2025 07:00:00,22.1910172,83.5197009,NO2,NA,NA,NA
India,Chhattisgarh,Milupara,"Govt. Higher Secondary School, Milupara - CECB",08-10-2025 07:00:00,22.1910172,83.5197009,CO,NA,NA,NA
India,Chhattisgarh,Raipur,"Bhatagaon New ISBT, Raipur - CECB",08-10-2025 07:00:00,21.219665,81.630094,PM2.5,9,23,13
India,Delhi,Delhi,"Alipur, Delhi - DPCC",08-10-2025 07:00:00,28.815329,77.153010,CO,26,68,44
India,Delhi,Delhi,"Alipur, Delhi - DPCC",08-10-2025 07:00:00,28.815329,77.153010,OZONE,2,83,8
India,Delhi,Delhi,"Anand Vihar, Delhi - DPCC",08-10-2025 07:00:00,28.647622,77.3158090,NH3,2,4,3
India,Delhi,Delhi,"Anand Vihar, Delhi - DPCC",08-10-2025 07:00:00,28.647622,77.3158090,CO,42,88,64
India,Chhattisgarh,Bhilai,"Hathkhoj, Bhilai - CECB",08-10-2025 07:00:00,21.224231,81.408350,OZONE,8,22,10
India,Chhattisgarh,Bilaspur,"Mangala, Bilaspur - NTPC",08-10-2025 07:00:00,22.08815,82.13737,SO2,9,17,14
India,Chhattisgarh,Bilaspur,"Mangala, Bilaspur - NTPC",08-10-2025 07:00:00,22.08815,82.13737,CO,20,44,33
India,Chhattisgarh,Korba,"Urja Nagar, Korba - CECB",08-10-2025 07:00:00,22.348441,82.549611,CO,3,36,29
India,Chhattisgarh,Kunjemura,"OP Jindal School, Kunjemura - CECB",08-10-2025 07:00:00,22.126650,83.483212,NO2,2,6,3
India,Chhattisgarh,Bhilai,"Civic Center, Bhilai - Bhilai Steel Plant",08-10-2025 07:00:00,21.185571,81.343175,NH3,2,3,3
India,Chhattisgarh,Chhal,"Nawapara SECL Colony, Chhal - CECB",08-10-2025 07:00:00,22.118125,83.140608,SO2,1,80,21
India,Chhattisgarh,Bhilai,"32Bungalows, Bhilai - CECB",08-10-2025 07:00:00,21.194815,81.314770,SO2,7,11,8
India,Chhattisgarh,Bhilai,"Hathkhoj, Bhilai - CECB",08-10-2025 07:00:00,21.224231,81.408350,PM10,1,58,39
India,Chhattisgarh,Bhilai,"32Bungalows, Bhilai - CECB",08-10-2025 07:00:00,21.194815,81.314770,NH3,5,5,5
India,Delhi,Delhi,"Jawaharlal Nehru Stadium, Delhi - DPCC",08-10-2025 07:00:00,28.580280,77.233829,OZONE,2,8,4
India,Delhi,Delhi,"Lodhi Road, Delhi - IITM",08-10-2025 07:00:00,28.588333,77.221667,PM2.5,16,49,28
India,Delhi,Delhi,"Lodhi Road, Delhi - IMD",08-10-2025 07:00:00,28.5918245,77.2273074,PM2.5,1,86,39
India,Delhi,Delhi,"Lodhi Road, Delhi - IMD",08-10-2025 07:00:00,28.5918245,77.2273074,PM10,1,87,45
India,Delhi,Delhi,"Lodhi Road, Delhi - IMD",08-10-2025 07:00:00,28.5918245,77.2273074,CO,20,57,48
India,Delhi,Delhi,"Major Dhyan Chand National Stadium, Delhi - DPCC",08-10-2025 07:00:00,28.611281,77.237738,PM10,23,84,50
India,Delhi,Delhi,"Ashok Vihar, Delhi - DPCC",08-10-2025 07:00:00,28.695381,77.181665,CO,28,58,41
India,Delhi,Delhi,"Aya Nagar, Delhi - IMD",08-10-2025 07:00:00,28.4706914,77.1099364,PM2.5,5,52,23
India,Delhi,Delhi,"Aya Nagar, Delhi - IMD",08-10-2025 07:00:00,28.4706914,77.1099364,CO,30,60,48
India,Delhi,Delhi,"CRRI Mathura Road, Delhi - IMD",08-10-2025 07:00:00,28.5512005,77.2735737,PM10,12,103,56
India,Delhi,Delhi,"IGI Airport (T3), Delhi - IMD",08-10-2025 07:00:00,28.5627763,77.1180053,NO2,25,114,70
India,Delhi,Delhi,"ITO, Delhi - CPCB",08-10-2025 07:00:00,28.628624,77.241060,PM10,12,98,47
India,Delhi,Delhi,"ITO, Delhi - CPCB",08-10-2025 07:00:00,28.628624,77.241060,CO,26,99,45
India,Delhi,Delhi,"Jahangirpuri, Delhi - DPCC",08-10-2025 07:00:00,28.732820,77.170633,SO2,8,14,11
India,Delhi,Delhi,"DTU, Delhi - CPCB",08-10-2025 07:00:00,28.7500499,77.1112615,CO,10,18,15
India,Delhi,Delhi,"Dr. Karni Singh Shooting Range, Delhi - DPCC",08-10-2025 07:00:00,28.498571,77.264840,SO2,5,9,8
India,Delhi,Delhi,"Dr. Karni Singh Shooting Range, Delhi - DPCC",08-10-2025 07:00:00,28.498571,77.264840,CO,12,76,32
India,Delhi,Delhi,"Najafgarh, Delhi - DPCC",08-10-2025 07:00:00,28.570173,76.933762,OZONE,3,28,6
India,Delhi,Delhi,"Nehru Nagar, Delhi - DPCC",08-10-2025 07:00:00,28.567890,77.250515,PM10,NA,NA,NA
India,Delhi,Delhi,"Dwarka-Sector 8, Delhi - DPCC ",08-10-2025 07:00:00,28.5710274,77.0719006,NO2,25,94,57
India,Delhi,Delhi,"Dwarka-Sector 8, Delhi - DPCC ",08-10-2025 07:00:00,28.5710274,77.0719006,CO,28,100,62
India,Delhi,Delhi,"Chandni Chowk, Delhi - IITM",08-10-2025 07:00:00,28.656756,77.227234,PM2.5,22,70,40
India,Delhi,Delhi,"Chandni Chowk, Delhi - IITM",08-10-2025 07:00:00,28.656756,77.227234,CO,43,64,50
India,Delhi,Delhi,"Nehru Nagar, Delhi - DPCC",08-10-2025 07:00:00,28.567890,77.250515,NH3,NA,NA,NA
India,Delhi,Delhi,"Nehru Nagar, Delhi - DPCC",08-10-2025 07:00:00,28.567890,77.250515,CO,NA,NA,NA
India,Delhi,Delhi,"Mandir Marg, Delhi - DPCC",08-10-2025 07:00:00,28.636429,77.201067,SO2,NA,NA,NA
India,Delhi,Delhi,"R K Puram, Delhi - DPCC",08-10-2025 07:00:00,28.563262,77.186937,CO,6,66,39
India,Delhi,Delhi,"Shadipur, Delhi - CPCB",08-10-2025 07:00:00,28.6514781,77.1473105,NO2,21,65,38
India,Delhi,Delhi,"Shadipur, Delhi - CPCB",08-10-2025 07:00:00,28.6514781,77.1473105,NH3,6,10,7
India,Delhi,Delhi,"Patparganj, Delhi - DPCC",08-10-2025 07:00:00,28.623763,77.287209,NO2,17,90,48
India,Delhi,Delhi,"Patparganj, Delhi - DPCC",08-10-2025 07:00:00,28.623763,77.287209,SO2,6,11,9
India,Delhi,Delhi,"Punjabi Bagh, Delhi - DPCC",08-10-2025 07:00:00,28.674045,77.131023,PM2.5,7,80,43
India,Delhi,Delhi,"Sirifort, Delhi - CPCB",08-10-2025 07:00:00,28.5504249,77.2159377,SO2,22,27,24
India,Delhi,Delhi,"Sirifort, Delhi - CPCB",08-10-2025 07:00:00,28.5504249,77.2159377,CO,4,33,24
India,Delhi,Delhi,"Sri Aurobindo Marg, Delhi - DPCC",08-10-2025 07:00:00,28.531346,77.190156,PM2.5,5,48,29
India,Delhi,Delhi,"Punjabi Bagh, Delhi - DPCC",08-10-2025 07:00:00,28.674045,77.131023,OZONE,1,70,2
India,Delhi,Delhi,"R K Puram, Delhi - DPCC",08-10-2025 07:00:00,28.563262,77.186937,SO2,12,29,20
India,Delhi,Delhi,"Sirifort, Delhi - CPCB",08-10-2025 07:00:00,28.5504249,77.2159377,NO2,29,54,43
India,Delhi,Delhi,"Sirifort, Delhi - CPCB",08-10-2025 07:00:00,28.5504249,77.2159377,NH3,4,11,9
India,Delhi,Delhi,"Pusa, Delhi - DPCC",08-10-2025 07:00:00,28.639652,77.146275,SO2,10,19,14
India,Gujarat,Ahmedabad,"SAC ISRO Bopal, Ahmedabad - IITM",08-10-2025 07:00:00,23.041137,72.456691,OZONE,2,29,6
India,Gujarat,Ahmedabad,"SAC ISRO Satellite, Ahmedabad - IITM",08-10-2025 07:00:00,23.023389,72.515201,PM10,33,118,77
India,Gujarat,Ahmedabad,"SVPI Airport Hansol, Ahmedabad - IITM",08-10-2025 07:00:00,23.076793,72.627874,PM2.5,7,66,33
India,Gujarat,Ahmedabad,"Gyaspur, Ahmedabad - IITM",08-10-2025 07:00:00,22.977134,72.553024,NO2,14,32,22
India,Gujarat,Ahmedabad,"Gyaspur, Ahmedabad - IITM",08-10-2025 07:00:00,22.977134,72.553024,NH3,2,9,4
India,Gujarat,Ahmedabad,"Maninagar, Ahmedabad - GPCB",08-10-2025 07:00:00,23.002657,72.591912,OZONE,NA,NA,NA
India,Gujarat,Ahmedabad,"SVPI Airport Hansol, Ahmedabad - IITM",08-10-2025 07:00:00,23.076793,72.627874,NO2,5,55,25
India,Gujarat,Ahmedabad,"Raikhad, Ahmedabad - IITM",08-10-2025 07:00:00,23.020509,72.579261,OZONE,1,17,3
India,Gujarat,Ahmedabad,"Rakhial, Ahmedabad - IITM",08-10-2025 07:00:00,23.016834,72.625775,OZONE,2,22,3
India,Gujarat,Ankleshwar,"GIDC, Ankleshwar - GPCB",08-10-2025 07:00:00,21.613267,73.010555,CO,39,66,48
India,Delhi,Delhi,"Vivek Vihar, Delhi - DPCC",08-10-2025 07:00:00,28.672342,77.315260,PM2.5,28,155,57
India,Delhi,Delhi,"Vivek Vihar, Delhi - DPCC",08-10-2025 07:00:00,28.672342,77.315260,SO2,11,31,18
India,Delhi,Delhi,"Wazirpur, Delhi - DPCC",08-10-2025 07:00:00,28.699793,77.165453,OZONE,3,94,15
India,Haryana,Charkhi Dadri,"Mini Secretariat, Charkhi Dadri - HSPCB",08-10-2025 07:00:00,28.593883,76.270653,CO,6,25,15
India,Haryana,Charkhi Dadri,"Mini Secretariat, Charkhi Dadri - HSPCB",08-10-2025 07:00:00,28.593883,76.270653,OZONE,13,18,15
India,Haryana,Dharuhera,"Municipal Corporation Office, Dharuhera -  HSPCB",08-10-2025 07:00:00,28.206800,76.799700,NO2,NA,NA,NA
India,Haryana,Dharuhera,"Municipal Corporation Office, Dharuhera -  HSPCB",08-10-2025 07:00:00,28.206800,76.799700,NH3,NA,NA,NA
India,Haryana,Faridabad,"New Industrial Town, Faridabad - HSPCB",08-10-2025 07:00:00,28.39072,77.30059,OZONE,27,32,29
India,Haryana,Faridabad,"Sector 11, Faridabad - HSPCB",08-10-2025 07:00:00,28.376058,77.315741,SO2,8,9,9
India,Haryana,Gurugram,"Vikas Sadan, Gurugram - HSPCB",08-10-2025 07:00:00,28.4501238,77.0263051,PM2.5,NA,NA,NA
India,Haryana,Jind,"Police Lines, Jind - HSPCB",08-10-2025 07:00:00,29.307814,76.337619,PM10,4,30,17
India,Haryana,Kaithal,"Rishi Nagar, Kaithal - HSPCB",08-10-2025 07:00:00,29.8006,76.4155,PM2.5,28,61,43
India,Haryana,Karnal,"Sector-12, Karnal - HSPCB",08-10-2025 07:00:00,29.695300,77.002700,SO2,7,10,9
India,Haryana,Kurukshetra,"Sector-7, Kurukshetra - HSPCB",08-10-2025 07:00:00,29.966942,76.875879,PM2.5,33,45,39
India,Gujarat,Vatva,"Phase-4 GIDC, Vatva - GPCB",08-10-2025 07:00:00,22.969611,72.643500,PM10,57,143,101
India,Gujarat,Vatva,"Phase-4 GIDC, Vatva - GPCB",08-10-2025 07:00:00,22.969611,72.643500,NO2,17,29,23
India,Haryana,Bahadurgarh,"Arya Nagar, Bahadurgarh - HSPCB",08-10-2025 07:00:00,28.6701,76.9254,NH3,11,14,13
India,Haryana,Bahadurgarh,"Arya Nagar, Bahadurgarh - HSPCB",08-10-2025 07:00:00,28.6701,76.9254,SO2,5,8,6
India,Gujarat,Ankleshwar,"GIDC, Ankleshwar - GPCB",08-10-2025 07:00:00,21.613267,73.010555,OZONE,49,55,51
India,Gujarat,Gandhinagar,"GIFT City, Gandhinagar - IITM",08-10-2025 07:00:00,23.163798,72.677768,CO,4,64,9
India,Gujarat,Gandhinagar,"IIPHG Lekawada, Gandhinagar - IITM",08-10-2025 07:00:00,23.243639,72.68994,PM2.5,20,83,55
India,Haryana,Ballabgarh,"Nathu Colony, Ballabgarh - HSPCB",08-10-2025 07:00:00,28.3419248,77.319699,NO2,19,21,20
India,Haryana,Ballabgarh,"Nathu Colony, Ballabgarh - HSPCB",08-10-2025 07:00:00,28.3419248,77.319699,SO2,4,9,7
India,Haryana,Ballabgarh,"Nathu Colony, Ballabgarh - HSPCB",08-10-2025 07:00:00,28.3419248,77.319699,CO,4,197,69
India,Haryana,Faridabad,"Sector 30, Faridabad - HSPCB",08-10-2025 07:00:00,28.4417,77.3217,NH3,10,12,11
India,Haryana,Faridabad,"Sector 30, Faridabad - HSPCB",08-10-2025 07:00:00,28.4417,77.3217,SO2,6,6,6
India,Gujarat,Nandesari,"GIDC, Nandesari - Nandesari Ind. Association",08-10-2025 07:00:00,22.410802,73.097923,PM10,NA,NA,NA
India,Haryana,Faridabad,"Sector 30, Faridabad - HSPCB",08-10-2025 07:00:00,28.4417,77.3217,PM10,93,102,100
India,Gujarat,Gandhinagar,"Sector-10, Gandhinagar - GPCB",08-10-2025 07:00:00,23.221714,72.654328,NH3,1,2,1
India,Haryana,Palwal,"Shyam Nagar, Palwal - HSPCB",08-10-2025 07:00:00,28.1485564,77.3320667,NO2,23,24,24
India,Haryana,Rohtak,"MD University, Rohtak - HSPCB",08-10-2025 07:00:00,28.52123,76.37138,PM10,28,52,39
India,Haryana,Rohtak,"MD University, Rohtak - HSPCB",08-10-2025 07:00:00,28.52123,76.37138,SO2,5,8,7
India,Karnataka,Bengaluru,"Jayanagar 5th Block, Bengaluru - KSPCB",08-10-2025 07:00:00,12.920984,77.584908,OZONE,4,49,15
India,Karnataka,Bengaluru,"Peenya, Bengaluru - CPCB",08-10-2025 07:00:00,13.0270199,77.494094,NO2,16,24,21
India,Karnataka,Bengaluru,"Peenya, Bengaluru - CPCB",08-10-2025 07:00:00,13.0270199,77.494094,NH3,2,3,2
India,Haryana,Mandikhera,"General Hospital, Mandikhera - HSPCB",08-10-2025 07:00:00,27.9002,76.9938,PM2.5,14,39,22
India,Haryana,Mandikhera,"General Hospital, Mandikhera - HSPCB",08-10-2025 07:00:00,27.9002,76.9938,OZONE,16,19,16
India,Haryana,Manesar,"Sector-2 IMT, Manesar - HSPCB",08-10-2025 07:00:00,28.360699,76.936090,PM2.5,10,44,26
India,Haryana,Manesar,"Sector-2 IMT, Manesar - HSPCB",08-10-2025 07:00:00,28.360699,76.936090,OZONE,30,31,31
India,Haryana,Narnaul,"Shastri Nagar, Narnaul - HSPCB",08-10-2025 07:00:00,28.060249,76.113115,NO2,34,45,38
India,Haryana,Narnaul,"Shastri Nagar, Narnaul - HSPCB",08-10-2025 07:00:00,28.060249,76.113115,SO2,10,12,11
India,Karnataka,Bengaluru,"Jayanagar 5th Block, Bengaluru - KSPCB",08-10-2025 07:00:00,12.920984,77.584908,SO2,NA,NA,NA
India,Karnataka,Bengaluru,"Hombegowda Nagar, Bengaluru - KSPCB",08-10-2025 07:00:00,12.938539,77.590100,SO2,5,15,11
India,Karnataka,Bengaluru,"Bapuji Nagar, Bengaluru - KSPCB",08-10-2025 07:00:00,12.951913,77.539784,CO,36,117,60
India,Jharkhand,Dhanbad,"Sardar Patel Nagar, Dhanbad - JSPCB",08-10-2025 07:00:00,23.80569,86.44268,SO2,NA,NA,NA
India,Karnataka,Bengaluru,"Hebbal, Bengaluru - KSPCB",08-10-2025 07:00:00,13.029152,77.585901,OZONE,7,9,8
India,Karnataka,Chikkamagaluru,"Kalyana Nagara, Chikkamagaluru - KSPCB",08-10-2025 07:00:00,13.328028,75.797056,SO2,2,8,4
India,Karnataka,Chikkamagaluru,"Kalyana Nagara, Chikkamagaluru - KSPCB",08-10-2025 07:00:00,13.328028,75.797056,OZONE,22,23,22
India,Karnataka,Davanagere,"Devaraj Urs Badavane, Davanagere - KSPCB",08-10-2025 07:00:00,14.475800,75.905200,PM2.5,11,39,24
India,Karnataka,Davanagere,"Devaraj Urs Badavane, Davanagere - KSPCB",08-10-2025 07:00:00,14.475800,75.905200,NO2,10,27,17
India,Karnataka,Davanagere,"Devaraj Urs Badavane, Davanagere - KSPCB",08-10-2025 07:00:00,14.475800,75.905200,CO,10,29,21
India,Karnataka,Dharwad,"Kalabhavan, Dharwad - KSPCB",08-10-2025 07:00:00,15.459706,75.008381,SO2,NA,NA,NA
India,Karnataka,Dharwad,"Kalabhavan, Dharwad - KSPCB",08-10-2025 07:00:00,15.459706,75.008381,OZONE,11,24,12
India,Karnataka,Haveri,"Ashwini Nagar, Haveri - KSPCB",08-10-2025 07:00:00,14.791800,75.389600,PM10,NA,NA,NA
India,Karnataka,Haveri,"Ashwini Nagar, Haveri - KSPCB",08-10-2025 07:00:00,14.791800,75.389600,OZONE,NA,NA,NA
India,Kerala,Eloor,"Udyogamandal, Eloor - Kerala PCB",08-10-2025 07:00:00,10.073232,76.302765,NO2,7,8,7
India,Kerala,Eloor,"Udyogamandal, Eloor - Kerala PCB",08-10-2025 07:00:00,10.073232,76.302765,SO2,1,1,1
India,Kerala,Thiruvananthapuram,"Kariavattom, Thiruvananthapuram - Kerala PCB",08-10-2025 07:00:00,8.563700,76.886500,PM10,54,65,61
India,Kerala,Thiruvananthapuram,"Kariavattom, Thiruvananthapuram - Kerala PCB",08-10-2025 07:00:00,8.563700,76.886500,NO2,6,7,7
India,Karnataka,Bengaluru,"Shivapura_Peenya, Bengaluru - KSPCB",08-10-2025 07:00:00,13.0246342,77.5080115,NH3,4,4,4
India,Karnataka,Bengaluru,"Shivapura_Peenya, Bengaluru - KSPCB",08-10-2025 07:00:00,13.0246342,77.5080115,CO,28,50,48
India,Karnataka,Chamarajanagar,"Urban, Chamarajanagar - KSPCB",08-10-2025 07:00:00,11.55358,76.55521,PM10,30,50,40
India,Karnataka,Koppal,"Diwator Nagar, Koppal - KSPCB",08-10-2025 07:00:00,15.347630,76.181767,OZONE,10,15,14
India,Karnataka,Mysuru,"Hebbal 1st Stage, Mysuru - KSPCB",08-10-2025 07:00:00,12.21041,76.37376,NH3,4,5,4
India,Karnataka,Mysuru,"Hebbal 1st Stage, Mysuru - KSPCB",08-10-2025 07:00:00,12.21041,76.37376,CO,7,52,11
India,Karnataka,Karwar,"KHB Colony, Karwar - KSPCB",08-10-2025 07:00:00,14.816666,74.141003,PM2.5,2,24,8
India,Karnataka,Karwar,"KHB Colony, Karwar - KSPCB",08-10-2025 07:00:00,14.816666,74.141003,NH3,1,1,1
India,Karnataka,Koppal,"Diwator Nagar, Koppal - KSPCB",08-10-2025 07:00:00,15.347630,76.181767,NO2,NA,NA,NA
India,Karnataka,Vijayapura,"Ibrahimpur, Vijayapura - KSPCB",08-10-2025 07:00:00,16.802639,75.722694,NO2,9,10,9
India,Karnataka,Yadgir,"Collector Office, Yadgir - KSPCB",08-10-2025 07:00:00,16.7602,77.1428,SO2,13,36,18
India,Karnataka,Chikkaballapur,"Chikkaballapur Rural, Chikkaballapur - KSPCB",08-10-2025 07:00:00,13.428828,77.731418,PM10,NA,NA,NA
India,Karnataka,Bengaluru,"RVCE-Mailasandra, Bengaluru - KSPCB",08-10-2025 07:00:00,12.921418,77.502466,CO,22,68,46
India,Karnataka,Bengaluru,"RVCE-Mailasandra, Bengaluru - KSPCB",08-10-2025 07:00:00,12.921418,77.502466,PM2.5,NA,NA,NA
India,Madhya Pradesh,Indore,"Regional Park, Indore - IMC",08-10-2025 07:00:00,22.6780,75.8559,CO,14,19,17
India,Madhya Pradesh,Jabalpur,"Govindh Bhavan Colony, Jabalpur - JMC",08-10-2025 07:00:00,23.163174,79.973061,PM2.5,35,63,46
India,Madhya Pradesh,Jabalpur,"Govindh Bhavan Colony, Jabalpur - JMC",08-10-2025 07:00:00,23.163174,79.973061,NH3,1,2,2
India,Madhya Pradesh,Jabalpur,"Govindh Bhavan Colony, Jabalpur - JMC",08-10-2025 07:00:00,23.163174,79.973061,CO,32,155,49
India,Madhya Pradesh,Jabalpur,"Gupteshwar, Jabalpur - JMC",08-10-2025 07:00:00,23.142888,79.916147,PM2.5,18,42,28
India,Madhya Pradesh,Dewas,"Bhopal Chauraha, Dewas - MPPCB",08-10-2025 07:00:00,22.9682591,76.064118,OZONE,28,32,30
India,Madhya Pradesh,Gwalior,"City Center, Gwalior - MPPCB",08-10-2025 07:00:00,26.203442,78.193251,SO2,13,23,17
India,Madhya Pradesh,Jabalpur,"Gupteshwar, Jabalpur - JMC",08-10-2025 07:00:00,23.142888,79.916147,CO,32,75,45
India,Madhya Pradesh,Jabalpur,"Marhatal, Jabalpur - MPPCB",08-10-2025 07:00:00,23.168606,79.932247,PM10,50,118,68
India,Kerala,Thiruvananthapuram,"Plammoodu, Thiruvananthapuram - Kerala PCB",08-10-2025 07:00:00,8.5149093,76.9435879,PM10,1,191,53
India,Kerala,Thiruvananthapuram,"Plammoodu, Thiruvananthapuram - Kerala PCB",08-10-2025 07:00:00,8.5149093,76.9435879,NO2,33,78,49
India,Madhya Pradesh,Bhopal,"Idgah Hills, Bhopal - MPPCB",08-10-2025 07:00:00,23.264759,77.381568,PM10,28,128,69
India,Madhya Pradesh,Bhopal,"Idgah Hills, Bhopal - MPPCB",08-10-2025 07:00:00,23.264759,77.381568,NH3,3,5,4
India,Madhya Pradesh,Gwalior,"Deen Dayal Nagar, Gwalior - MPPCB",08-10-2025 07:00:00,26.259242,78.216432,NO2,5,48,21
India,Madhya Pradesh,Bhopal,"Paryavaran Parisar, Bhopal - MPPCB",08-10-2025 07:00:00,23.210494,77.425409,NO2,7,20,10
India,Madhya Pradesh,Gwalior,"Maharaj Bada, Gwalior - MPPCB",08-10-2025 07:00:00,26.200388,78.147714,NO2,14,41,24
India,Madhya Pradesh,Indore,"Maguda Nagar, Indore - IMC",08-10-2025 07:00:00,22.7524,75.8872,SO2,39,43,41
India,Madhya Pradesh,Singrauli,"Suryakiran Bhawan NCL, Singrauli - MPPCB",08-10-2025 07:00:00,24.108970,82.645580,PM2.5,38,124,76
India,Madhya Pradesh,Singrauli,"Suryakiran Bhawan NCL, Singrauli - MPPCB",08-10-2025 07:00:00,24.108970,82.645580,NH3,6,6,6
India,Madhya Pradesh,Singrauli,"Suryakiran Bhawan NCL, Singrauli - MPPCB",08-10-2025 07:00:00,24.108970,82.645580,SO2,20,94,44
India,Maharashtra,Ahmednagar,"Tarakpur, Ahmednagar - MPCB",08-10-2025 07:00:00,19.10122,74.73339,NH3,4,7,6
India,Maharashtra,Ahmednagar,"Tarakpur, Ahmednagar - MPCB",08-10-2025 07:00:00,19.10122,74.73339,CO,1,17,7
India,Maharashtra,Akola,"Ramdaspeth, Akola - MPCB",08-10-2025 07:00:00,20.719516,77.000253,PM10,30,66,47
India,Maharashtra,Akola,"Ramdaspeth, Akola - MPCB",08-10-2025 07:00:00,20.719516,77.000253,SO2,5,12,9
India,Maharashtra,Aurangabad,"MIDC Chilkalthana, Aurangabad - MPCB",08-10-2025 07:00:00,19.875620,75.387310,CO,6,37,29
India,Maharashtra,Aurangabad,"More Chowk Waluj, Aurangabad - MPCB",08-10-2025 07:00:00,19.8389439,75.244448,NO2,16,23,19
India,Maharashtra,Aurangabad,"Rachnakar Colony, Aurangabad - MPCB",08-10-2025 07:00:00,19.863756,75.321188,NH3,1,5,4
India,Madhya Pradesh,Katni,"Gole Bazar, Katni - MPPCB",08-10-2025 07:00:00,23.50016,80.23284,PM10,50,140,81
India,Madhya Pradesh,Katni,"Gole Bazar, Katni - MPPCB",08-10-2025 07:00:00,23.50016,80.23284,NO2,31,49,34
India,Madhya Pradesh,Maihar,"Sahilara, Maihar - KJS Cements",08-10-2025 07:00:00,24.2613009,80.7231783,NO2,13,13,13
India,Madhya Pradesh,Mandideep,"Sector-D Industrial Area, Mandideep - MPPCB",08-10-2025 07:00:00,23.108440,77.511428,OZONE,18,60,37
India,Madhya Pradesh,Pithampur,"Sector-2 Industrial Area, Pithampur - MPPCB",08-10-2025 07:00:00,22.624758,75.675238,SO2,14,25,19
India,Madhya Pradesh,Pithampur,"Sector-2 Industrial Area, Pithampur - MPPCB",08-10-2025 07:00:00,22.624758,75.675238,CO,26,52,37
India,Madhya Pradesh,Maihar,"Sahilara, Maihar - KJS Cements",08-10-2025 07:00:00,24.2613009,80.7231783,CO,42,46,43
India,Madhya Pradesh,Mandideep,"Sector-D Industrial Area, Mandideep - MPPCB",08-10-2025 07:00:00,23.108440,77.511428,NH3,3,4,3
India,Maharashtra,Badlapur,"Katrap, Badlapur - MPCB",08-10-2025 07:00:00,19.16485,73.23409,PM10,19,331,65
India,Maharashtra,Badlapur,"Katrap, Badlapur - MPCB",08-10-2025 07:00:00,19.16485,73.23409,NO2,2,40,18
India,Maharashtra,Badlapur,"Katrap, Badlapur - MPCB",08-10-2025 07:00:00,19.16485,73.23409,CO,16,52,29
India,Madhya Pradesh,Jabalpur,"Suhagi, Jabalpur - JMC",08-10-2025 07:00:00,23.218135,79.957770,NH3,2,2,2
India,Madhya Pradesh,Jabalpur,"Suhagi, Jabalpur - JMC",08-10-2025 07:00:00,23.218135,79.957770,SO2,10,33,19
India,Madhya Pradesh,Mandideep,"Sector-D Industrial Area, Mandideep - MPPCB",08-10-2025 07:00:00,23.108440,77.511428,SO2,8,15,11
India,Maharashtra,Aurangabad,"MIDC Chilkalthana, Aurangabad - MPCB",08-10-2025 07:00:00,19.875620,75.387310,NH3,1,2,2
India,Maharashtra,Malegaon,"Mahesh Nagar, Malegaon - MPCB",08-10-2025 07:00:00,20.555712,74.529236,SO2,4,107,14
India,Maharashtra,Mira-Bhayandar,"Bhayandar West, Mira-Bhayandar - MPCB",08-10-2025 07:00:00,19.296481,72.840923,PM2.5,11,48,25
India,Maharashtra,Mumbai,"Bandra Kurla Complex, Mumbai - IITM",08-10-2025 07:00:00,19.053536,72.84643,PM10,48,145,105
India,Maharashtra,Mumbai,"Bandra Kurla Complex, Mumbai - MPCB",08-10-2025 07:00:00,19.065931,72.862131,PM2.5,14,54,34
India,Maharashtra,Mumbai,"Bandra Kurla Complex, Mumbai - MPCB",08-10-2025 07:00:00,19.065931,72.862131,PM10,45,148,83
India,Maharashtra,Mumbai,"Bandra Kurla Complex, Mumbai - MPCB",08-10-2025 07:00:00,19.065931,72.862131,NO2,10,30,19
India,Maharashtra,Kolhapur,"Sinchan Bhavan, Kolhapur - MPCB",08-10-2025 07:00:00,16.7143745,74.2426398,NO2,3,8,5
India,Maharashtra,Kolhapur,"Sinchan Bhavan, Kolhapur - MPCB",08-10-2025 07:00:00,16.7143745,74.2426398,SO2,1,2,1
India,Maharashtra,Latur,"Sawe Wadi, Latur - MPCB",08-10-2025 07:00:00,18.39963,76.57452,PM2.5,5,59,21
India,Maharashtra,Mahad,"Kamble Tarf Birwadi, Mahad - MPCB",08-10-2025 07:00:00,18.1023399,73.4783687,PM10,14,70,34
India,Maharashtra,Mahad,"Kamble Tarf Birwadi, Mahad - MPCB",08-10-2025 07:00:00,18.1023399,73.4783687,NO2,24,50,30
India,Maharashtra,Mumbai,"Byculla, Mumbai - BMC",08-10-2025 07:00:00,18.9767,72.8380,NH3,1,19,7
India,Maharashtra,Mumbai,"Byculla, Mumbai - BMC",08-10-2025 07:00:00,18.9767,72.8380,SO2,10,12,11
India,Maharashtra,Mumbai,"Chakala-Andheri East, Mumbai - IITM",08-10-2025 07:00:00,19.11074,72.86084,NO2,26,65,38
India,Maharashtra,Mumbai,"Chakala-Andheri East, Mumbai - IITM",08-10-2025 07:00:00,19.11074,72.86084,CO,10,43,21
India,Maharashtra,Mumbai,"Chembur, Mumbai - MPCB",08-10-2025 07:00:00,19.0364585,72.8954371,CO,11,48,41
India,Maharashtra,Chandrapur,"MIDC Khutala, Chandrapur - MPCB",08-10-2025 07:00:00,19.9775302,79.2337086,SO2,8,9,9
India,Maharashtra,Dhule,"Deopur, Dhule - MPCB",08-10-2025 07:00:00,20.918946,74.776388,PM2.5,25,113,52
India,Maharashtra,Dhule,"Deopur, Dhule - MPCB",08-10-2025 07:00:00,20.918946,74.776388,NO2,6,48,18
India,Maharashtra,Jalgaon,"Prabhat Colony, Jalgaon - MPCB",08-10-2025 07:00:00,21.001264,75.565602,PM2.5,23,46,31
India,Maharashtra,Jalna,"Old MIDC, Jalna - MPCB",08-10-2025 07:00:00,19.854616,75.905894,PM2.5,NA,NA,NA
India,Maharashtra,Jalna,"Old MIDC, Jalna - MPCB",08-10-2025 07:00:00,19.854616,75.905894,OZONE,21,74,31
India,Maharashtra,Kalyan,"Pimpleshwar Mandir, Kalyan - MPCB",08-10-2025 07:00:00,19.192056,72.9585188,PM10,NA,NA,NA
India,Maharashtra,Kalyan,"Pimpleshwar Mandir, Kalyan - MPCB",08-10-2025 07:00:00,19.192056,72.9585188,OZONE,NA,NA,NA
India,Maharashtra,Kolhapur,"Shivaji University, Kolhapur - MPCB",08-10-2025 07:00:00,16.6870449,74.2505872,PM2.5,NA,NA,NA
India,Maharashtra,Jalgaon,"Prabhat Colony, Jalgaon - MPCB",08-10-2025 07:00:00,21.001264,75.565602,OZONE,11,61,12
India,Maharashtra,Chandrapur,"MIDC Khutala, Chandrapur - MPCB",08-10-2025 07:00:00,19.9775302,79.2337086,NO2,2,8,5
India,Maharashtra,Bhiwandi,"Gokul Nagar, Bhiwandi - MPCB",08-10-2025 07:00:00,19.309073,73.057223,NO2,18,33,26
India,Maharashtra,Mumbai,"Chhatrapati Shivaji Intl. Airport (T2), Mumbai - MPCB",08-10-2025 07:00:00,19.10078,72.87462,NO2,33,43,38
India,Maharashtra,Mumbai,"Chhatrapati Shivaji Intl. Airport (T2), Mumbai - MPCB",08-10-2025 07:00:00,19.10078,72.87462,CO,26,34,32
India,Maharashtra,Mumbai,"Colaba, Mumbai - MPCB",08-10-2025 07:00:00,18.910000,72.820000,NO2,24,27,25
India,Maharashtra,Mumbai,"Colaba, Mumbai - MPCB",08-10-2025 07:00:00,18.910000,72.820000,NH3,3,3,3
India,Maharashtra,Mumbai,"Colaba, Mumbai - MPCB",08-10-2025 07:00:00,18.910000,72.820000,OZONE,7,12,10
India,Maharashtra,Mumbai,"Deonar, Mumbai - IITM",08-10-2025 07:00:00,19.04946,72.9230,NO2,9,29,17
India,Maharashtra,Mumbai,"Deonar, Mumbai - IITM",08-10-2025 07:00:00,19.04946,72.9230,NH3,7,14,11
India,Maharashtra,Mumbai,"Deonar, Mumbai - IITM",08-10-2025 07:00:00,19.04946,72.9230,SO2,NA,NA,NA
India,Maharashtra,Mumbai,"Ghatkopar, Mumbai - BMC",08-10-2025 07:00:00,19.083694,72.920967,NO2,17,34,25
India,Maharashtra,Mumbai,"Ghatkopar, Mumbai - BMC",08-10-2025 07:00:00,19.083694,72.920967,OZONE,3,3,3
India,Maharashtra,Mumbai,"Kandivali East, Mumbai - MPCB",08-10-2025 07:00:00,19.205800,72.868200,SO2,NA,NA,NA
India,Maharashtra,Mumbai,"Siddharth Nagar-Worli, Mumbai - IITM",08-10-2025 07:00:00,19.000083,72.813993,OZONE,2,39,8
India,Maharashtra,Mumbai,"Sion, Mumbai - MPCB",08-10-2025 07:00:00,19.047000,72.874600,NH3,2,2,2
India,Maharashtra,Mumbai,"Vile Parle West, Mumbai - MPCB",08-10-2025 07:00:00,19.10861,72.83622,PM2.5,5,44,20
India,Maharashtra,Mumbai,"Vile Parle West, Mumbai - MPCB",08-10-2025 07:00:00,19.10861,72.83622,NO2,3,30,26
India,Maharashtra,Mumbai,"Vile Parle West, Mumbai - MPCB",08-10-2025 07:00:00,19.10861,72.83622,SO2,6,59,51
India,Maharashtra,Mumbai,"Vile Parle West, Mumbai - MPCB",08-10-2025 07:00:00,19.10861,72.83622,CO,20,26,24
India,Maharashtra,Mumbai,"Vile Parle West, Mumbai - MPCB",08-10-2025 07:00:00,19.10861,72.83622,OZONE,3,27,27
India,Maharashtra,Mumbai,"Worli, Mumbai - MPCB",08-10-2025 07:00:00,18.9936162,72.8128113,NO2,3,15,6
India,Maharashtra,Mumbai,"Worli, Mumbai - MPCB",08-10-2025 07:00:00,18.9936162,72.8128113,NH3,1,2,1
India,Maharashtra,Mumbai,"Kandivali West, Mumbai - BMC",08-10-2025 07:00:00,19.215859,72.831718,PM10,32,42,36
India,Maharashtra,Mumbai,"Kandivali West, Mumbai - BMC",08-10-2025 07:00:00,19.215859,72.831718,NO2,4,24,12
India,Maharashtra,Mumbai,"Kherwadi_Bandra East, Mumbai - MPCB",08-10-2025 07:00:00,19.0632143,72.8456324,NO2,10,113,23
India,Maharashtra,Mumbai,"Kherwadi_Bandra East, Mumbai - MPCB",08-10-2025 07:00:00,19.0632143,72.8456324,OZONE,2,60,1
India,Maharashtra,Mumbai,"Khindipada-Bhandup West, Mumbai - IITM",08-10-2025 07:00:00,19.1653323,72.922099,NH3,4,5,4
India,Maharashtra,Mumbai,"Kurla, Mumbai - MPCB",08-10-2025 07:00:00,19.0863,72.8888,PM10,50,95,75
India,Maharashtra,Nagpur,"Mahal, Nagpur - MPCB",08-10-2025 07:00:00,21.14472,79.107595,OZONE,5,36,9
India,Maharashtra,Nagpur,"Opp GPO Civil Lines, Nagpur - MPCB",08-10-2025 07:00:00,21.152875,79.0517531,NO2,9,41,17
India,Maharashtra,Nagpur,"Ram Nagar, Nagpur - MPCB",08-10-2025 07:00:00,21.143383,79.048912,SO2,3,17,12
India,Maharashtra,Nagpur,"Ram Nagar, Nagpur - MPCB",08-10-2025 07:00:00,21.143383,79.048912,CO,7,23,14
India,Maharashtra,Mumbai,"Mazgaon, Mumbai - IITM",08-10-2025 07:00:00,18.96702,72.84214,PM10,84,154,111
India,Maharashtra,Mumbai,"Mazgaon, Mumbai - IITM",08-10-2025 07:00:00,18.96702,72.84214,SO2,9,13,11
India,Maharashtra,Mumbai,"Mindspace-Malad West, Mumbai - MPCB",08-10-2025 07:00:00,19.1878657,72.8304069,PM2.5,32,34,33
India,Maharashtra,Mumbai,"Navy Nagar-Colaba, Mumbai - IITM",08-10-2025 07:00:00,18.897756,72.813320,PM10,NA,NA,NA
India,Maharashtra,Mumbai,"Navy Nagar-Colaba, Mumbai - IITM",08-10-2025 07:00:00,18.897756,72.813320,OZONE,NA,NA,NA
India,Maharashtra,Mumbai,"Mulund West, Mumbai - MPCB",08-10-2025 07:00:00,19.1750,72.9419,PM10,NA,NA,NA
India,Maharashtra,Mumbai,"Mulund West, Mumbai - MPCB",08-10-2025 07:00:00,19.1750,72.9419,SO2,NA,NA,NA
India,Maharashtra,Mumbai,"Sewri, Mumbai - BMC",08-10-2025 07:00:00,19.000084,72.856730,NH3,4,12,7
India,Maharashtra,Mumbai,"Sewri, Mumbai - BMC",08-10-2025 07:00:00,19.000084,72.856730,PM10,NA,NA,NA
India,Maharashtra,Nashik,"Pandav Nagari, Nashik - MPCB",08-10-2025 07:00:00,19.9591346,73.7788008,SO2,1,6,4
India,Maharashtra,Navi Mumbai,"Kopripada-Vashi, Navi Mumbai - MPCB",08-10-2025 07:00:00,19.090337,73.014232,NO2,NA,NA,NA
India,Maharashtra,Navi Mumbai,"Kopripada-Vashi, Navi Mumbai - MPCB",08-10-2025 07:00:00,19.090337,73.014232,SO2,NA,NA,NA
India,Maharashtra,Navi Mumbai,"Mahape, Navi Mumbai - MPCB",08-10-2025 07:00:00,19.1135051,73.008978,PM2.5,NA,NA,NA
India,Maharashtra,Nashik,"Gangapur Road, Nashik - MPCB",08-10-2025 07:00:00,20.0073285,73.7762427,NO2,5,5,5
India,Maharashtra,Nashik,"Gangapur Road, Nashik - MPCB",08-10-2025 07:00:00,20.0073285,73.7762427,OZONE,11,14,12
India,Maharashtra,Nashik,"Hirawadi, Nashik - MPCB",08-10-2025 07:00:00,20.021503,73.813844,PM2.5,9,40,23
India,Maharashtra,Nashik,"MIDC Ambad, Nashik - MPCB",08-10-2025 07:00:00,19.950220,73.731480,SO2,4,9,6
India,Maharashtra,Pimpri-Chinchwad,"Park Street Wakad, Pimpri Chinchwad - MPCB",08-10-2025 07:00:00,18.59051,73.77946,SO2,3,4,3
India,Maharashtra,Pimpri-Chinchwad,"Park Street Wakad, Pimpri Chinchwad - MPCB",08-10-2025 07:00:00,18.59051,73.77946,OZONE,1,46,4
India,Maharashtra,Pimpri-Chinchwad,"Thergaon, Pimpri Chinchwad - MPCB",08-10-2025 07:00:00,18.616318,73.765797,SO2,1,3,1
India,Maharashtra,Parbhani,"Masoom Colony, Parbhani - MPCB",08-10-2025 07:00:00,19.265594,76.761463,SO2,5,34,14
India,Maharashtra,Pimpri-Chinchwad,"Gavalinagar, Pimpri Chinchwad - MPCB",08-10-2025 07:00:00,18.63673,73.82487,SO2,1,3,2
India,Maharashtra,Navi Mumbai,"Sector-2E Kalamboli, Navi Mumbai - MPCB",08-10-2025 07:00:00,19.02579,73.10297,PM2.5,27,93,60
India,Maharashtra,Navi Mumbai,"Tondare-Taloja, Navi Mumbai - MPCB",08-10-2025 07:00:00,19.0630,73.1209,PM10,44,92,65
India,Maharashtra,Navi Mumbai,"Nerul, Navi Mumbai - MPCB",08-10-2025 07:00:00,19.008751,73.016620,NH3,4,4,4
India,Maharashtra,Navi Mumbai,"Sanpada, Navi Mumbai - MPCB",08-10-2025 07:00:00,19.0575752,73.0151367,NO2,NA,NA,NA
India,Maharashtra,Pimpri-Chinchwad,"Thergaon, Pimpri Chinchwad - MPCB",08-10-2025 07:00:00,18.616318,73.765797,OZONE,1,34,3
India,Maharashtra,Navi Mumbai,"Sanpada, Navi Mumbai - MPCB",08-10-2025 07:00:00,19.0575752,73.0151367,OZONE,15,15,15
India,Maharashtra,Nagpur,"Ram Nagar, Nagpur - MPCB",08-10-2025 07:00:00,21.143383,79.048912,OZONE,5,30,8
India,Odisha,Baripada,"Meher Colony, Baripada - OSPCB",08-10-2025 07:00:00,21.941841,86.728318,CO,37,51,42
India,Odisha,Bhubaneswar,"Lingraj Mandir, Bhubaneswar - OSPCB",08-10-2025 07:00:00,20.240790,85.836784,PM2.5,2,72,22
India,Odisha,Bhubaneswar,"Lingraj Mandir, Bhubaneswar - OSPCB",08-10-2025 07:00:00,20.240790,85.836784,NO2,6,34,18
India,Odisha,Bhubaneswar,"Lingraj Mandir, Bhubaneswar - OSPCB",08-10-2025 07:00:00,20.240790,85.836784,NH3,1,5,3
India,Odisha,Bhubaneswar,"Lingraj Mandir, Bhubaneswar - OSPCB",08-10-2025 07:00:00,20.240790,85.836784,SO2,6,8,7
India,Odisha,Bhubaneswar,"Lingraj Mandir, Bhubaneswar - OSPCB",08-10-2025 07:00:00,20.240790,85.836784,OZONE,2,92,24
India,Odisha,Bhubaneswar,"Patia, Bhubaneswar - OSPCB",08-10-2025 07:00:00,20.34652,85.81630,PM2.5,13,22,17
India,Odisha,Bhubaneswar,"Patia, Bhubaneswar - OSPCB",08-10-2025 07:00:00,20.34652,85.81630,NO2,10,26,14
India,Odisha,Bhubaneswar,"Patia, Bhubaneswar - OSPCB",08-10-2025 07:00:00,20.34652,85.81630,NH3,10,15,12
India,Maharashtra,Virar,"Bolinj, Virar - MPCB",08-10-2025 07:00:00,19.4458210,72.7988231,NH3,1,3,1
India,Meghalaya,Shillong,"JN Stadium, Shillong - Meghalaya PCB",08-10-2025 07:00:00,25.5803419,91.8942571,PM2.5,NA,NA,NA
India,Meghalaya,Shillong,"Lumpyngngad, Shillong - Meghalaya PCB",08-10-2025 07:00:00,25.5586,91.8985,CO,2,10,3
India,Odisha,Angul,"Hakimapada, Angul - OSPCB",08-10-2025 07:00:00,20.832874,85.104082,PM2.5,5,117,29
India,Maharashtra,Sangli,"Vijay Nagar, Sangli - MPCB",08-10-2025 07:00:00, 16.5038,74.3623,PM10,22,70,44
India,Maharashtra,Solapur,"Dnyaneshwar Nagar, Solapur - MPCB",08-10-2025 07:00:00,17.6336264,75.9132495,OZONE,3,25,5
India,Maharashtra,Solapur,"Ratandeep Housing Society, Solapur - MPCB",08-10-2025 07:00:00,17.65439,75.90649,NO2,15,68,32
India,Maharashtra,Solapur,"Ratandeep Housing Society, Solapur - MPCB",08-10-2025 07:00:00,17.65439,75.90649,NH3,2,18,7
India,Maharashtra,Thane,"Kasarvadavali, Thane - MPCB",08-10-2025 07:00:00,19.26777,72.97182,SO2,1,2,1
India,Maharashtra,Ulhasnagar,"Sidhi Vinayak Nagar, Ulhasnagar - MPCB",08-10-2025 07:00:00,19.235581,73.159121,PM10,38,107,67
India,Maharashtra,Ulhasnagar,"Sidhi Vinayak Nagar, Ulhasnagar - MPCB",08-10-2025 07:00:00,19.235581,73.159121,NO2,10,23,16
India,Maharashtra,Pune,"Katraj Dairy, Pune - MPCB",08-10-2025 07:00:00,18.454450,73.854155,PM10,20,47,31
India,Maharashtra,Pune,"Mhada Colony, Pune - IITM",08-10-2025 07:00:00,18.573040,73.927715,CO,18,88,42
India,Maharashtra,Pune,"Savitribai Phule Pune University, Pune - MPCB",08-10-2025 07:00:00,18.547056,73.826908,NH3,1,1,1
India,Maharashtra,Pune,"Savitribai Phule Pune University, Pune - MPCB",08-10-2025 07:00:00,18.547056,73.826908,OZONE,8,38,8
India,Odisha,Baripada,"Meher Colony, Baripada - OSPCB",08-10-2025 07:00:00,21.941841,86.728318,PM2.5,40,67,51
India,Maharashtra,Pune,"Hadapsar, Pune - IITM",08-10-2025 07:00:00,18.501793,73.927532,PM2.5,6,27,17
India,Maharashtra,Pune,"Hadapsar, Pune - IITM",08-10-2025 07:00:00,18.501793,73.927532,NO2,26,31,27
India,Odisha,Rourkela,"Raghunathpali, Rourkela - OSPCB",08-10-2025 07:00:00,22.220833,84.809444,PM2.5,19,91,44
India,Odisha,Rourkela,"Raghunathpali, Rourkela - OSPCB",08-10-2025 07:00:00,22.220833,84.809444,PM10,37,268,76
India,Odisha,Talcher,"Talcher Coalfields,Talcher - OSPCB",08-10-2025 07:00:00,20.9360711,85.1707021,NO2,NA,NA,NA
India,Odisha,Talcher,"Talcher Coalfields,Talcher - OSPCB",08-10-2025 07:00:00,20.9360711,85.1707021,NH3,NA,NA,NA
India,Odisha,Talcher,"Talcher Coalfields,Talcher - OSPCB",08-10-2025 07:00:00,20.9360711,85.1707021,SO2,NA,NA,NA
India,Odisha,Talcher,"Talcher Coalfields,Talcher - OSPCB",08-10-2025 07:00:00,20.9360711,85.1707021,CO,NA,NA,NA
India,Punjab,Amritsar,"Golden Temple, Amritsar - PPCB",08-10-2025 07:00:00,31.620000,74.876512,NH3,8,10,8
India,Punjab,Amritsar,"Golden Temple, Amritsar - PPCB",08-10-2025 07:00:00,31.620000,74.876512,CO,44,51,48
India,Punjab,Bathinda,"Hardev Nagar, Bathinda - PPCB",08-10-2025 07:00:00,30.233011,74.907758,CO,2,24,14
India,Punjab,Jalandhar,"Civil Line, Jalandhar - PPCB",08-10-2025 07:00:00,31.321907,75.578914,PM10,45,87,63
India,Punjab,Mandi Gobindgarh,"RIMT University, Mandi Gobindgarh - PPCB",08-10-2025 07:00:00,30.649961,76.331442,CO,8,32,17
India,Punjab,Patiala,"Model Town, Patiala - PPCB",08-10-2025 07:00:00,30.349388,76.366642,PM10,11,59,22
India,Punjab,Rupnagar,"Ratanpura, Rupnagar - Ambuja Cements",08-10-2025 07:00:00,31.0325454,76.5623046,NO2,8,10,9
India,Rajasthan,Ajmer,"Civil Lines,  Ajmer - RSPCB",08-10-2025 07:00:00,26.470859,74.646594,NO2,6,13,8
India,Odisha,Cuttack,"CDA Area, Cuttack - OSPCB",08-10-2025 07:00:00,20.48891     ,85.84768     ,SO2,NA,NA,NA
India,Odisha,Keonjhar,"Jagamohanpur, Keonjhar - OSPCB",08-10-2025 07:00:00,21.643900,85.599355,CO,2,107,19
India,Odisha,Nayagarh,"Dabuna, Nayagarh - OSPCB",08-10-2025 07:00:00,21.847279,85.416905,PM10,23,35,27
India,Odisha,Bhubaneswar,"Patia, Bhubaneswar - OSPCB",08-10-2025 07:00:00,20.34652,85.81630,OZONE,5,28,12
India,Odisha,Bileipada,"Tata Township, Bileipada - OSPCB",08-10-2025 07:00:00,22.06156703,85.47409613,PM10,13,183,92
India,Odisha,Byasanagar,"Ferro Chrome Colony, Byasanagar - OSPCB",08-10-2025 07:00:00,20.94185,86.11510,NO2,6,36,19
India,Odisha,Byasanagar,"Ferro Chrome Colony, Byasanagar - OSPCB",08-10-2025 07:00:00,20.94185,86.11510,NH3,1,3,2
India,Odisha,Rairangpur,"Divisional Forest Office, Rairangpur - OSPCB",08-10-2025 07:00:00,22.265816,86.174829,SO2,NA,NA,NA
India,Punjab,Ludhiana,"Punjab Agricultural University, Ludhiana - PPCB",08-10-2025 07:00:00,30.9028,75.8086,SO2,3,17,11
India,Odisha,Bileipada,"Tata Township, Bileipada - OSPCB",08-10-2025 07:00:00,22.06156703,85.47409613,OZONE,11,13,11
India,Odisha,Cuttack,"CDA Area, Cuttack - OSPCB",08-10-2025 07:00:00,20.48891     ,85.84768     ,NH3,NA,NA,NA
India,Rajasthan,Dungarpur,"Bhoiwada, Dungarpur - RSPCB",08-10-2025 07:00:00,23.837789,73.714926,NO2,4,24,10
India,Rajasthan,Dungarpur,"Bhoiwada, Dungarpur - RSPCB",08-10-2025 07:00:00,23.837789,73.714926,OZONE,2,63,6
India,Rajasthan,Hanumangarh,"Housing Board, Hanumangarh - RSPCB",08-10-2025 07:00:00,29.610750,74.283608,PM2.5,33,297,68
India,Rajasthan,Hanumangarh,"Housing Board, Hanumangarh - RSPCB",08-10-2025 07:00:00,29.610750,74.283608,PM10,34,179,72
India,Rajasthan,Hanumangarh,"Housing Board, Hanumangarh - RSPCB",08-10-2025 07:00:00,29.610750,74.283608,NH3,5,49,8
India,Rajasthan,Jaipur,"Adarsh Nagar, Jaipur - RSPCB",08-10-2025 07:00:00,26.902909,75.836858,NO2,9,67,40
India,Rajasthan,Jaipur,"Mansarovar Sector-12, Jaipur - RSPCB",08-10-2025 07:00:00,26.843698,75.766894,NH3,6,9,7
India,Rajasthan,Jaipur,"Mansarovar Sector-12, Jaipur - RSPCB",08-10-2025 07:00:00,26.843698,75.766894,OZONE,3,121,18
India,Rajasthan,Jaipur,"Police Commissionerate, Jaipur - RSPCB",08-10-2025 07:00:00,26.9164092,75.7994901,NH3,5,13,11
India,Rajasthan,Jaipur,"RIICO Sitapura, Jaipur - RSPCB",08-10-2025 07:00:00,26.786682,75.827928,PM2.5,12,227,89
India,Rajasthan,Banswara,"Rati Talai, Banswara - RSPCB",08-10-2025 07:00:00,23.555190,74.440010,NH3,NA,NA,NA
India,Rajasthan,Banswara,"Rati Talai, Banswara - RSPCB",08-10-2025 07:00:00,23.555190,74.440010,SO2,NA,NA,NA
India,Rajasthan,Baran,"Bamboliya, Baran - RSPCB",08-10-2025 07:00:00,25.106006,76.469948,SO2,2,5,4
India,Rajasthan,Baran,"Bamboliya, Baran - RSPCB",08-10-2025 07:00:00,25.106006,76.469948,CO,13,21,15
India,Rajasthan,Barmer,"Railway Colony, Barmer - RSPCB",08-10-2025 07:00:00,25.747299,71.393989,PM2.5,22,270,120
India,Rajasthan,Chittorgarh,"Shastri Nagar, Chittorgarh - RSPCB",08-10-2025 07:00:00,24.892047,74.623527,OZONE,3,69,6
India,Rajasthan,Churu,"Subash Chowk, Churu - RSPCB",08-10-2025 07:00:00,28.296139,74.961696,NO2,4,13,6
India,Rajasthan,Churu,"Subash Chowk, Churu - RSPCB",08-10-2025 07:00:00,28.296139,74.961696,OZONE,32,66,48
India,Rajasthan,Dausa,"Khatikan Mohalla, Dausa - RSPCB",08-10-2025 07:00:00,26.895552,76.334753,SO2,1,4,3
India,Rajasthan,Bikaner,"MM Ground, Bikaner - RSPCB",08-10-2025 07:00:00,28.018792,73.292658,NH3,3,6,4
India,Rajasthan,Bikaner,"MM Ground, Bikaner - RSPCB",08-10-2025 07:00:00,28.018792,73.292658,SO2,2,6,4
India,Rajasthan,Bundi,"New Colony, Bundi - RSPCB",08-10-2025 07:00:00,25.435774,75.644272,PM2.5,5,107,54
India,Rajasthan,Bundi,"New Colony, Bundi - RSPCB",08-10-2025 07:00:00,25.435774,75.644272,OZONE,11,85,26
India,Rajasthan,Barmer,"Railway Colony, Barmer - RSPCB",08-10-2025 07:00:00,25.747299,71.393989,CO,13,34,15
India,Rajasthan,Bharatpur,"Krishna Nagar, Bharatpur - RSPCB",08-10-2025 07:00:00,27.215415,77.50873,PM10,8,68,37
India,Rajasthan,Bharatpur,"Krishna Nagar, Bharatpur - RSPCB",08-10-2025 07:00:00,27.215415,77.50873,NO2,3,23,12
India,Rajasthan,Bharatpur,"Krishna Nagar, Bharatpur - RSPCB",08-10-2025 07:00:00,27.215415,77.50873,SO2,1,3,2
India,Rajasthan,Bharatpur,"Krishna Nagar, Bharatpur - RSPCB",08-10-2025 07:00:00,27.215415,77.50873,CO,10,34,13
India,Rajasthan,Bharatpur,"Krishna Nagar, Bharatpur - RSPCB",08-10-2025 07:00:00,27.215415,77.50873,OZONE,38,72,51
India,Rajasthan,Bhiwadi,"RIICO Ind. Area III, Bhiwadi - RSPCB",08-10-2025 07:00:00,28.194909,76.862296,CO,2,58,32
India,Rajasthan,Bhiwadi,"RIICO Ind. Area III, Bhiwadi - RSPCB",08-10-2025 07:00:00,28.194909,76.862296,OZONE,2,50,6
India,Rajasthan,Bhiwadi,"RIICO Ind. Area III, Bhiwadi - RSPCB",08-10-2025 07:00:00,28.194909,76.862296,NO2,2,38,30
India,Rajasthan,Chittorgarh,"Shastri Nagar, Chittorgarh - RSPCB",08-10-2025 07:00:00,24.892047,74.623527,NH3,1,11,4
India,Rajasthan,Jodhpur,"Jhalamand, Jodhpur - RSPCB",08-10-2025 07:00:00,26.215415,73.070156,NH3,NA,NA,NA
India,Rajasthan,Jodhpur,"Jhalamand, Jodhpur - RSPCB",08-10-2025 07:00:00,26.215415,73.070156,OZONE,11,60,28
India,Rajasthan,Jodhpur,"Samrat Ashok Udhyan, Jodhpur - RSPCB",08-10-2025 07:00:00,26.253384,72.976571,OZONE,19,65,46
India,Rajasthan,Karauli,"Satyawati Vihar, Karauli - RSPCB",08-10-2025 07:00:00,26.506177,77.025989,PM2.5,3,233,51
India,Rajasthan,Karauli,"Satyawati Vihar, Karauli - RSPCB",08-10-2025 07:00:00,26.506177,77.025989,NO2,7,24,14
India,Rajasthan,Kota,"Dhanmandi, Kota - RSPCB",08-10-2025 07:00:00,25.164090,75.858137,PM2.5,20,170,64
India,Rajasthan,Kota,"Dhanmandi, Kota - RSPCB",08-10-2025 07:00:00,25.164090,75.858137,SO2,5,10,7
India,Rajasthan,Kota,"Dhanmandi, Kota - RSPCB",08-10-2025 07:00:00,25.164090,75.858137,OZONE,12,75,19
India,Rajasthan,Jaipur,"RIICO Sitapura, Jaipur - RSPCB",08-10-2025 07:00:00,26.786682,75.827928,NH3,2,3,2
India,Rajasthan,Jaipur,"Sector-2 Murlipura, Jaipur - RSPCB",08-10-2025 07:00:00,26.960669,75.771817,PM2.5,17,98,69
India,Rajasthan,Jaipur,"Sector-2 Murlipura, Jaipur - RSPCB",08-10-2025 07:00:00,26.960669,75.771817,NO2,19,53,33
India,Rajasthan,Jaipur,"Sector-2 Murlipura, Jaipur - RSPCB",08-10-2025 07:00:00,26.960669,75.771817,NH3,3,9,7
India,Rajasthan,Jaipur,"Shastri Nagar, Jaipur - RSPCB",08-10-2025 07:00:00,26.9502929,75.730943,PM10,39,161,122
India,Rajasthan,Jaipur,"Shastri Nagar, Jaipur - RSPCB",08-10-2025 07:00:00,26.9502929,75.730943,NH3,2,16,7
India,Rajasthan,Jaisalmer,"Sadar Bazar, Jaisalmer - RSPCB",08-10-2025 07:00:00,26.912329,70.909168,PM10,24,198,100
India,Rajasthan,Jalore,"Mudtra Sili, Jalore - RSPCB",08-10-2025 07:00:00,25.344694,72.626208,PM10,105,401,252
India,Rajasthan,Jhalawar,"Rajlaxmi Nagar, Jhalawar - RSPCB",08-10-2025 07:00:00,24.588397,76.172782,NO2,31,74,46
India,Rajasthan,Jhunjhunu,"Indra Nagar, Jhunjhunu - RSPCB",08-10-2025 07:00:00,28.108988,75.386577,PM2.5,10,38,19
India,Rajasthan,Jhunjhunu,"Indra Nagar, Jhunjhunu - RSPCB",08-10-2025 07:00:00,28.108988,75.386577,NO2,3,34,10
India,Rajasthan,Jhunjhunu,"Indra Nagar, Jhunjhunu - RSPCB",08-10-2025 07:00:00,28.108988,75.386577,NH3,3,9,5
India,Rajasthan,Jhunjhunu,"Indra Nagar, Jhunjhunu - RSPCB",08-10-2025 07:00:00,28.108988,75.386577,CO,7,21,9
India,Rajasthan,Jhunjhunu,"Indra Nagar, Jhunjhunu - RSPCB",08-10-2025 07:00:00,28.108988,75.386577,OZONE,32,69,44
India,Rajasthan,Kota,"Shrinath Puram, Kota - RSPCB",08-10-2025 07:00:00,25.14389,75.821256,SO2,4,7,5
India,Rajasthan,Kota,"Shrinath Puram, Kota - RSPCB",08-10-2025 07:00:00,25.14389,75.821256,OZONE,21,44,23
India,Rajasthan,Kota,"Nayapura, Kota - RSPCB",08-10-2025 07:00:00,25.196024,75.855668,PM10,51,209,126
India,Rajasthan,Kota,"Nayapura, Kota - RSPCB",08-10-2025 07:00:00,25.196024,75.855668,CO,14,44,32
India,Rajasthan,Jodhpur,"Digari Kalan, Jodhpur - RSPCB",08-10-2025 07:00:00,26.295810,73.082283,PM10,44,358,139
India,Rajasthan,Jodhpur,"Jhalamand, Jodhpur - RSPCB",08-10-2025 07:00:00,26.215415,73.070156,PM10,30,204,101
India,Rajasthan,Kota,"Shrinath Puram, Kota - RSPCB",08-10-2025 07:00:00,25.14389,75.821256,NO2,12,15,14
India,Rajasthan,Pratapgarh,"Pragati Nagar, Pratapgarh - RSPCB",08-10-2025 07:00:00,24.041198,74.780702,OZONE,18,69,30
India,Rajasthan,Rajsamand,"Dhoinda, Rajsamand - RSPCB",08-10-2025 07:00:00,25.036360,73.883502,NO2,1,16,5
India,Rajasthan,Rajsamand,"Dhoinda, Rajsamand - RSPCB",08-10-2025 07:00:00,25.036360,73.883502,CO,1,52,13
India,Rajasthan,Rajsamand,"Dhoinda, Rajsamand - RSPCB",08-10-2025 07:00:00,25.036360,73.883502,OZONE,25,73,28
India,Rajasthan,Sawai Madhopur,"Sahu Nagar, Sawai Madhopur - RSPCB",08-10-2025 07:00:00,26.031443,76.359327,PM10,25,192,128
India,Rajasthan,Sawai Madhopur,"Sahu Nagar, Sawai Madhopur - RSPCB",08-10-2025 07:00:00,26.031443,76.359327,SO2,1,4,2
India,Rajasthan,Sawai Madhopur,"Sahu Nagar, Sawai Madhopur - RSPCB",08-10-2025 07:00:00,26.031443,76.359327,OZONE,8,45,15
India,Rajasthan,Sikar,"Radhakishan Pura, Sikar - RSPCB",08-10-2025 07:00:00,27.608912,75.153302,PM2.5,13,73,37
India,Rajasthan,Sikar,"Radhakishan Pura, Sikar - RSPCB",08-10-2025 07:00:00,27.608912,75.153302,PM10,26,115,65
India,Rajasthan,Sikar,"Radhakishan Pura, Sikar - RSPCB",08-10-2025 07:00:00,27.608912,75.153302,CO,8,54,21
India,Rajasthan,Sri Ganganagar,"Old City, Sri Ganganagar - RSPCB",08-10-2025 07:00:00,29.931624,73.864511,PM2.5,25,137,63
India,Rajasthan,Tonk,"Shastri Nagar, Tonk - RSPCB",08-10-2025 07:00:00,26.159933,75.780517,NH3,2,3,3
India,Rajasthan,Tonk,"Shastri Nagar, Tonk - RSPCB",08-10-2025 07:00:00,26.159933,75.780517,OZONE,11,36,19
India,Rajasthan,Udaipur,"Ashok Nagar, Udaipur - RSPCB",08-10-2025 07:00:00,24.5886166,73.6321397,NO2,3,47,22
India,Sikkim,Gangtok,"Zero Point GICI, Gangtok - SSPCB",08-10-2025 07:00:00,27.338530,88.614099,NO2,1,2,1
India,Sikkim,Gangtok,"Zero Point GICI, Gangtok - SSPCB",08-10-2025 07:00:00,27.338530,88.614099,SO2,1,1,1
India,TamilNadu,Chennai,"Manali Village, Chennai - TNPCB",08-10-2025 07:00:00,13.1662,80.2584,SO2,23,30,26
India,TamilNadu,Chennai,"Manali, Chennai - CPCB",08-10-2025 07:00:00,13.164544,80.26285,PM2.5,NA,NA,NA
India,Rajasthan,Pratapgarh,"Pragati Nagar, Pratapgarh - RSPCB",08-10-2025 07:00:00,24.041198,74.780702,PM10,36,168,115
India,Rajasthan,Pratapgarh,"Pragati Nagar, Pratapgarh - RSPCB",08-10-2025 07:00:00,24.041198,74.780702,NH3,2,4,3
India,Rajasthan,Sirohi,"Vedhaynath Colony, Sirohi - RSPCB",08-10-2025 07:00:00,24.885261,72.857549,NO2,5,48,15
India,Sikkim,Gangtok,"Zero Point GICI, Gangtok - SSPCB",08-10-2025 07:00:00,27.338530,88.614099,OZONE,15,34,17
India,TamilNadu,Chennai,"Kodungaiyur, Chennai - TNPCB",08-10-2025 07:00:00,13.1278,80.2642,PM2.5,23,63,45
India,TamilNadu,Chennai,"Manali Village, Chennai - TNPCB",08-10-2025 07:00:00,13.1662,80.2584,NO2,2,5,4
India,TamilNadu,Ariyalur,"Keelapalur, Ariyalur - TNPCB",08-10-2025 07:00:00,11.06825,79.07033,SO2,12,13,13
India,TamilNadu,Chennai,"Manali, Chennai - CPCB",08-10-2025 07:00:00,13.164544,80.26285,NH3,NA,NA,NA
India,TamilNadu,Chennai,"Manali, Chennai - CPCB",08-10-2025 07:00:00,13.164544,80.26285,CO,11,46,32
India,TamilNadu,Chennai,"Velachery Res. Area, Chennai - CPCB",08-10-2025 07:00:00,13.0052189,80.2398125,PM2.5,27,69,44
India,TamilNadu,Chennai,"Velachery Res. Area, Chennai - CPCB",08-10-2025 07:00:00,13.0052189,80.2398125,SO2,7,13,9
India,TamilNadu,Chennai,"Velachery Res. Area, Chennai - CPCB",08-10-2025 07:00:00,13.0052189,80.2398125,CO,40,86,45
India,TamilNadu,Coimbatore,"SIDCO Kurichi, Coimbatore - TNPCB",08-10-2025 07:00:00,10.942451,76.978996,PM10,68,123,93
India,TamilNadu,Cuddalore,"Kudikadu, Cuddalore - TNPCB",08-10-2025 07:00:00,11.6829898,79.7532099,NH3,3,4,4
India,TamilNadu,Cuddalore,"Kudikadu, Cuddalore - TNPCB",08-10-2025 07:00:00,11.6829898,79.7532099,SO2,18,19,18
India,TamilNadu,Namakkal,"Ponnusamy Nagar, Namakkal - TNPCB",08-10-2025 07:00:00,11.273992,78.163545,PM2.5,8,44,28
India,TamilNadu,Namakkal,"Ponnusamy Nagar, Namakkal - TNPCB",08-10-2025 07:00:00,11.273992,78.163545,OZONE,6,37,17
India,TamilNadu,Ooty,"Bombay Castel, Ooty - TNPCB",08-10-2025 07:00:00,11.4068288,76.7138973,PM10,NA,NA,NA
India,TamilNadu,Ooty,"Bombay Castel, Ooty - TNPCB",08-10-2025 07:00:00,11.4068288,76.7138973,NO2,2,5,4
India,TamilNadu,Palkalaiperur,"Bharathidasan University, Palkalaiperur - TNPCB",08-10-2025 07:00:00,10.681158,78.741746,NH3,1,1,1
India,TamilNadu,Perundurai,"SIPCOT Industrial Park, Perundurai - TNPCB",08-10-2025 07:00:00,11.258242,77.552761,NO2,6,9,7
India,TamilNadu,Salem,"Sona College of Technology, Salem - TNPCB",08-10-2025 07:00:00,11.679111,78.125052,NO2,NA,NA,NA
India,TamilNadu,Salem,"Sona College of Technology, Salem - TNPCB",08-10-2025 07:00:00,11.679111,78.125052,CO,NA,NA,NA
India,TamilNadu,Thanjavur,"Parisutham Nagar, Thanjavur - TNPCB",08-10-2025 07:00:00,10.7654824,79.1389968,PM10,NA,NA,NA
India,TamilNadu,Thanjavur,"Parisutham Nagar, Thanjavur - TNPCB",08-10-2025 07:00:00,10.7654824,79.1389968,SO2,NA,NA,NA
India,TamilNadu,Thoothukudi,"Meelavittan, Thoothukudi - TNPCB",08-10-2025 07:00:00,8.816428 ,78.099039,NO2,11,23,15
India,TamilNadu,Tirunelveli,"Municipal Corporation Office, Tirunelveli - TNPCB",08-10-2025 07:00:00,8.728442,77.6962,SO2,16,19,19
India,TamilNadu,Virudhunagar,"Collectorate Office, Virudhunagar - TNPCB",08-10-2025 07:00:00,9.559382,77.948828,OZONE,3,4,3
India,Telangana,Hyderabad,"Bollaram Industrial Area, Hyderabad - TSPCB",08-10-2025 07:00:00,17.540891,78.358528,CO,6,39,35
India,Telangana,Hyderabad,"Central University, Hyderabad - TSPCB",08-10-2025 07:00:00,17.460103,78.334361,PM10,17,60,36
India,Telangana,Hyderabad,"Central University, Hyderabad - TSPCB",08-10-2025 07:00:00,17.460103,78.334361,CO,12,32,25
India,Telangana,Hyderabad,"Central University, Hyderabad - TSPCB",08-10-2025 07:00:00,17.460103,78.334361,OZONE,9,25,22
India,TamilNadu,Ramanathapuram,"Chalai Bazaar, Ramanathapuram - TNPCB",08-10-2025 07:00:00,9.36399,78.831977,SO2,4,15,13
India,TamilNadu,Ranipet,"VOC Nagar_SIPCOT, Ranipet - TNPCB",08-10-2025 07:00:00,12.952707,79.30394,NO2,1,3,1
India,TamilNadu,Ranipet,"VOC Nagar_SIPCOT, Ranipet - TNPCB",08-10-2025 07:00:00,12.952707,79.30394,SO2,19,100,26
India,TamilNadu,Karur,"Kamadenu Nagar, Karur - TNPCB",08-10-2025 07:00:00,10.967820,78.080882,CO,8,20,11
India,TamilNadu,Madurai,"Uchapatti, Madurai - TNPCB",08-10-2025 07:00:00,9.865935,78.022669,NH3,4,4,4
India,TamilNadu,Madurai,"Uchapatti, Madurai - TNPCB",08-10-2025 07:00:00,9.865935,78.022669,SO2,13,14,13
India,Telangana,Hyderabad,"New Malakpet, Hyderabad - TSPCB",08-10-2025 07:00:00,17.37206,78.50864,PM10,62,87,71
India,Telangana,Hyderabad,"New Malakpet, Hyderabad - TSPCB",08-10-2025 07:00:00,17.37206,78.50864,CO,22,33,23
India,TamilNadu,Hosur,"SIPCOT Phase-1, Hosur - TNPCB",08-10-2025 07:00:00,12.746998,77.813811,NH3,NA,NA,NA
India,TamilNadu,Hosur,"SIPCOT Phase-1, Hosur - TNPCB",08-10-2025 07:00:00,12.746998,77.813811,SO2,NA,NA,NA
India,Telangana,Hyderabad,"IDA Pashamylaram, Hyderabad - TSPCB",08-10-2025 07:00:00,17.5316895,78.218939,NO2,NA,NA,NA
India,Uttar_Pradesh,Bareilly,"Civil Lines, Bareilly - UPPCB",08-10-2025 07:00:00,28.359581,79.414455,PM2.5,3,17,9
India,Uttar_Pradesh,Bareilly,"Civil Lines, Bareilly - UPPCB",08-10-2025 07:00:00,28.359581,79.414455,SO2,25,30,27
India,Uttar_Pradesh,Bareilly,"Rajendra Nagar, Bareilly - UPPCB",08-10-2025 07:00:00,28.38910936,79.42963708,PM2.5,19,86,42
India,Uttar_Pradesh,Bareilly,"Rajendra Nagar, Bareilly - UPPCB",08-10-2025 07:00:00,28.38910936,79.42963708,PM10,29,105,54
India,Uttar_Pradesh,Bareilly,"Rajendra Nagar, Bareilly - UPPCB",08-10-2025 07:00:00,28.38910936,79.42963708,NH3,1,1,1
India,Uttar_Pradesh,Bareilly,"Rajendra Nagar, Bareilly - UPPCB",08-10-2025 07:00:00,28.38910936,79.42963708,SO2,37,43,40
India,Uttar_Pradesh,Ghaziabad,"Sanjay Nagar, Ghaziabad - UPPCB",08-10-2025 07:00:00,28.685382,77.453839,NH3,4,6,5
India,Uttar_Pradesh,Ghaziabad,"Sanjay Nagar, Ghaziabad - UPPCB",08-10-2025 07:00:00,28.685382,77.453839,OZONE,11,62,17
India,Uttar_Pradesh,Ghaziabad,"Vasundhara, Ghaziabad - UPPCB",08-10-2025 07:00:00,28.6603346,77.3572563,PM2.5,10,95,43
India,Uttar_Pradesh,Ghaziabad,"Vasundhara, Ghaziabad - UPPCB",08-10-2025 07:00:00,28.6603346,77.3572563,PM10,20,94,50
India,Uttar_Pradesh,Ghaziabad,"Vasundhara, Ghaziabad - UPPCB",08-10-2025 07:00:00,28.6603346,77.3572563,NO2,8,20,13
India,Uttar_Pradesh,Agra,"Sector-3B Avas Vikas Colony, Agra - UPPCB",08-10-2025 07:00:00,27.19412,77.96237,CO,19,30,23
India,Uttar_Pradesh,Agra,"Sector-3B Avas Vikas Colony, Agra - UPPCB",08-10-2025 07:00:00,27.19412,77.96237,OZONE,7,9,7
India,Uttar_Pradesh,Agra,"Shahjahan Garden, Agra - UPPCB",08-10-2025 07:00:00,27.169338,78.03582,PM2.5,8,61,38
India,Uttar_Pradesh,Agra,"Shahjahan Garden, Agra - UPPCB",08-10-2025 07:00:00,27.169338,78.03582,SO2,26,34,29
India,Uttar_Pradesh,Agra,"Shahjahan Garden, Agra - UPPCB",08-10-2025 07:00:00,27.169338,78.03582,CO,6,18,9
India,Telangana,Hyderabad,"Ramachandrapuram, Hyderabad - TSPCB",08-10-2025 07:00:00,17.528544,78.286195,NO2,8,9,9
India,Telangana,Hyderabad,"Ramachandrapuram, Hyderabad - TSPCB",08-10-2025 07:00:00,17.528544,78.286195,NH3,3,4,4
India,Telangana,Hyderabad,"Somajiguda, Hyderabad - TSPCB",08-10-2025 07:00:00,17.417094,78.457437,PM2.5,37,200,89
India,Telangana,Hyderabad,"Somajiguda, Hyderabad - TSPCB",08-10-2025 07:00:00,17.417094,78.457437,PM10,70,144,105
India,Telangana,Hyderabad,"Somajiguda, Hyderabad - TSPCB",08-10-2025 07:00:00,17.417094,78.457437,NH3,3,4,3
India,Uttar_Pradesh,Firozabad,"Vibhab Nagar, Firozabad - UPPCB",08-10-2025 07:00:00,27.1594,78.3953,NH3,2,2,2
India,Uttar_Pradesh,Firozabad,"Vibhab Nagar, Firozabad - UPPCB",08-10-2025 07:00:00,27.1594,78.3953,CO,8,17,12
India,Uttar_Pradesh,Ghaziabad,"Indirapuram, Ghaziabad - UPPCB",08-10-2025 07:00:00,28.646233,77.358075,PM10,15,78,46
India,Uttar_Pradesh,Ghaziabad,"Indirapuram, Ghaziabad - UPPCB",08-10-2025 07:00:00,28.646233,77.358075,NH3,13,18,15
India,Telangana,Hyderabad,"Zoo Park, Hyderabad - TSPCB",08-10-2025 07:00:00,17.349694,78.451437,PM2.5,52,188,127
India,Tripura,Agartala,"Bardowali, Agartala - Tripura SPCB",08-10-2025 07:00:00,23.8175497,91.2726974,OZONE,7,30,11
India,Uttar_Pradesh,Agra,"Rohta, Agra - UPPCB",08-10-2025 07:00:00,27.106972,78.000111,SO2,12,16,14
India,Uttar_Pradesh,Agra,"Rohta, Agra - UPPCB",08-10-2025 07:00:00,27.106972,78.000111,CO,20,29,24
India,Uttar_Pradesh,Agra,"Sanjay Palace, Agra - UPPCB",08-10-2025 07:00:00,27.19865833,78.00598056,PM10,6,54,24
India,Uttar_Pradesh,Agra,"Sector-3B Avas Vikas Colony, Agra - UPPCB",08-10-2025 07:00:00,27.19412,77.96237,PM10,39,85,57
India,Uttar_Pradesh,Agra,"Sector-3B Avas Vikas Colony, Agra - UPPCB",08-10-2025 07:00:00,27.19412,77.96237,NO2,24,28,27
India,Uttar_Pradesh,Ghaziabad,"Vasundhara, Ghaziabad - UPPCB",08-10-2025 07:00:00,28.6603346,77.3572563,OZONE,18,73,21
India,Uttar_Pradesh,Jhansi,"Shivaji Nagar, Jhansi - UPPCB",08-10-2025 07:00:00,25.4547,78.6039,NH3,4,4,4
India,Uttar_Pradesh,Kanpur,"FTI Kidwai Nagar, Kanpur - UPPCB",08-10-2025 07:00:00,26.428282,80.327067,CO,28,34,30
India,Uttar_Pradesh,Kanpur,"FTI Kidwai Nagar, Kanpur - UPPCB",08-10-2025 07:00:00,26.428282,80.327067,OZONE,32,35,34
India,Uttar_Pradesh,Kanpur,"Nehru Nagar, Kanpur - UPPCB",08-10-2025 07:00:00,26.4703136,80.3229863,CO,52,76,73
India,Uttar_Pradesh,Khurja,"Kalindi Kunj, Khurja - UPPCB",08-10-2025 07:00:00,28.2348927,77.8683002,OZONE,4,12,5
India,Uttar_Pradesh,Meerut,"Pallavpuram Phase 2, Meerut - UPPCB",08-10-2025 07:00:00,29.063510,77.709723,PM2.5,9,37,24
India,Uttar_Pradesh,Meerut,"Pallavpuram Phase 2, Meerut - UPPCB",08-10-2025 07:00:00,29.063510,77.709723,NO2,10,20,14
India,Uttar_Pradesh,Meerut,"Pallavpuram Phase 2, Meerut - UPPCB",08-10-2025 07:00:00,29.063510,77.709723,CO,20,33,26
India,Uttar_Pradesh,Lucknow,"Talkatora District Industries Center, Lucknow - CPCB",08-10-2025 07:00:00,26.83399722,80.8917361,PM2.5,31,66,51
India,Uttar_Pradesh,Lucknow,"Talkatora District Industries Center, Lucknow - CPCB",08-10-2025 07:00:00,26.83399722,80.8917361,CO,54,74,60
India,Uttar_Pradesh,Hapur,"Anand Vihar, Hapur - UPPCB",08-10-2025 07:00:00,28.725645,77.749675,NH3,1,38,21
India,Uttar_Pradesh,Hapur,"Anand Vihar, Hapur - UPPCB",08-10-2025 07:00:00,28.725645,77.749675,OZONE,12,42,32
India,Uttar_Pradesh,Greater Noida,"Knowledge Park - V, Greater Noida - UPPCB",08-10-2025 07:00:00,28.557054,77.453663,NO2,13,63,37
India,Uttar_Pradesh,Lucknow,"Kendriya Vidyalaya, Lucknow - CPCB",08-10-2025 07:00:00,26.906111,80.948222,OZONE,10,79,14
India,Uttar_Pradesh,Kanpur,"Nehru Nagar, Kanpur - UPPCB",08-10-2025 07:00:00,26.4703136,80.3229863,PM10,23,86,53
India,Uttar_Pradesh,Hapur,"Anand Vihar, Hapur - UPPCB",08-10-2025 07:00:00,28.725645,77.749675,NO2,4,264,73
India,Uttar_Pradesh,Varanasi,"Ardhali Bazar, Varanasi - UPPCB",08-10-2025 07:00:00,25.3505986,82.9083074,PM10,20,71,47
India,Uttar_Pradesh,Varanasi,"Ardhali Bazar, Varanasi - UPPCB",08-10-2025 07:00:00,25.3505986,82.9083074,NO2,66,76,70
India,Uttar_Pradesh,Varanasi,"Ardhali Bazar, Varanasi - UPPCB",08-10-2025 07:00:00,25.3505986,82.9083074,SO2,17,18,18
India,Uttar_Pradesh,Varanasi,"Ardhali Bazar, Varanasi - UPPCB",08-10-2025 07:00:00,25.3505986,82.9083074,CO,1,12,10
India,Uttar_Pradesh,Varanasi,"Bhelupur, Varanasi - UPPCB",08-10-2025 07:00:00,25.301778,82.996789,CO,10,24,16
India,Uttar_Pradesh,Varanasi,"IESD Banaras Hindu University, Varanasi - UPPCB",08-10-2025 07:00:00,25.262326,82.995408,NH3,1,3,2
India,Uttar_Pradesh,Varanasi,"Maldahiya, Varanasi - UPPCB",08-10-2025 07:00:00,25.32393,82.99687,PM2.5,6,41,18
India,Uttar_Pradesh,Vrindavan,"Omex Eternity, Vrindavan - UPPCB",08-10-2025 07:00:00,27.5714090,77.6557570,NO2,12,12,12
India,Uttar_Pradesh,Vrindavan,"Omex Eternity, Vrindavan - UPPCB",08-10-2025 07:00:00,27.5714090,77.6557570,SO2,8,21,12
India,Uttar_Pradesh,Vrindavan,"Omex Eternity, Vrindavan - UPPCB",08-10-2025 07:00:00,27.5714090,77.6557570,OZONE,14,17,15
India,Uttarakhand,Dehradun,"Doon University, Dehradun - UKPCB",08-10-2025 07:00:00,30.269444,78.044167,CO,11,24,19
India,Uttar_Pradesh,Prayagraj,"Motilal Nehru NIT, Prayagraj - UPPCB",08-10-2025 07:00:00,25.494,81.863,PM2.5,17,36,24
India,Uttar_Pradesh,Prayagraj,"Motilal Nehru NIT, Prayagraj - UPPCB",08-10-2025 07:00:00,25.494,81.863,NO2,12,12,12
India,Uttar_Pradesh,Prayagraj,"Nagar Nigam, Prayagraj - UPPCB",08-10-2025 07:00:00,25.44919916 ,81.82735986 ,PM2.5,25,47,35
India,Uttar_Pradesh,Moradabad,"Employment Office, Moradabad - UPPCB",08-10-2025 07:00:00,28.88528,78.73880,OZONE,13,19,15
India,Uttar_Pradesh,Moradabad,"Kashiram Nagar, Moradabad - UPPCB",08-10-2025 07:00:00,28.849399,78.742362,PM10,NA,NA,NA
India,Uttar_Pradesh,Moradabad,"Eco Herbal Park, Moradabad - UPPCB",08-10-2025 07:00:00,28.840739,78.697531,PM10,9,54,24
India,Uttar_Pradesh,Moradabad,"Eco Herbal Park, Moradabad - UPPCB",08-10-2025 07:00:00,28.840739,78.697531,CO,24,50,26
India,Uttar_Pradesh,Moradabad,"Eco Herbal Park, Moradabad - UPPCB",08-10-2025 07:00:00,28.840739,78.697531,OZONE,14,94,35
India,Uttar_Pradesh,Moradabad,"Transport Nagar, Moradabad - UPPCB",08-10-2025 07:00:00,28.802625,78.753728,NH3,5,6,5
India,Uttar_Pradesh,Moradabad,"Transport Nagar, Moradabad - UPPCB",08-10-2025 07:00:00,28.802625,78.753728,SO2,28,41,32
India,Uttarakhand,Kashipur,"Govt. Girls Inter College, Kashipur - UKPCB",08-10-2025 07:00:00,29.2124114,78.9611753,NO2,8,43,18
India,Uttar_Pradesh,Prayagraj,"Jhunsi, Prayagraj - UPPCB",08-10-2025 07:00:00,25.425602,81.917152,PM10,14,72,35
India,Uttar_Pradesh,Noida,"Sector - 62, Noida - IMD",08-10-2025 07:00:00,28.6245479,77.3577104,CO,2,12,9
India,West_Bengal,Howrah,"Ghusuri, Howrah - WBPCB",08-10-2025 07:00:00,22.611968,88.347422,PM10,NA,NA,NA
India,West_Bengal,Howrah,"Ghusuri, Howrah - WBPCB",08-10-2025 07:00:00,22.611968,88.347422,OZONE,14,75,29
India,West_Bengal,Howrah,"Padmapukur, Howrah - WBPCB",08-10-2025 07:00:00,22.5687319,88.2797276,PM10,54,401,85
India,West_Bengal,Howrah,"Padmapukur, Howrah - WBPCB",08-10-2025 07:00:00,22.5687319,88.2797276,SO2,5,9,7
India,West_Bengal,Kolkata,"Ballygunge, Kolkata - WBPCB",08-10-2025 07:00:00,22.5367507,88.3638022,NO2,27,64,47
India,West_Bengal,Durgapur,"Womens College_City Center, Durgapur - WBPCB (Formerly known as Sidhu Kanhu Indoor Stadium)",08-10-2025 07:00:00,23.549395,87.300496,NO2,22,42,30
India,West_Bengal,Howrah,"Belur Math, Howrah - WBPCB",08-10-2025 07:00:00,22.629801,88.352017,PM2.5,49,87,69
India,West_Bengal,Howrah,"Belur Math, Howrah - WBPCB",08-10-2025 07:00:00,22.629801,88.352017,CO,10,50,27
India,West_Bengal,Durgapur,"Mahishkapur Road_B-Zone, Durgapur - WBPCB",08-10-2025 07:00:00,23.567923,87.306843,CO,26,88,41
India,West_Bengal,Durgapur,"PCBL Residential Complex, Durgapur - WBPCB",08-10-2025 07:00:00,23.5087640,87.3544400,NO2,9,38,16
India,West_Bengal,Asansol,"Mahabir Colliery, Asansol - WBPCB",08-10-2025 07:00:00,23.6181830,87.1057180,PM2.5,21,88,52
India,West_Bengal,Asansol,"Mahabir Colliery, Asansol - WBPCB",08-10-2025 07:00:00,23.6181830,87.1057180,PM10,23,115,54
India,West_Bengal,Asansol,"Mahabir Colliery, Asansol - WBPCB",08-10-2025 07:00:00,23.6181830,87.1057180,SO2,5,8,6
India,West_Bengal,Asansol,"Asansol Court Area, Asansol - WBPCB",08-10-2025 07:00:00,23.685297,86.945968,PM2.5,40,110,77
India,West_Bengal,Asansol,"Asansol Court Area, Asansol - WBPCB",08-10-2025 07:00:00,23.685297,86.945968,PM10,43,86,69
India,West_Bengal,Barrackpore,"SVSPA Campus, Barrackpore - WBPCB",08-10-2025 07:00:00,22.7605581,88.3617589,CO,40,58,54
India,West_Bengal,Kolkata,"Fort William, Kolkata - WBPCB",08-10-2025 07:00:00,22.556640,88.342674,PM2.5,30,53,43
India,West_Bengal,Kolkata,"Bidhannagar, Kolkata - WBPCB",08-10-2025 07:00:00,22.58157048,88.41002457,NO2,3,20,13
India,West_Bengal,Kolkata,"Ballygunge, Kolkata - WBPCB",08-10-2025 07:00:00,22.5367507,88.3638022,NH3,6,8,8
India,West_Bengal,Kolkata,"Jadavpur, Kolkata - WBPCB",08-10-2025 07:00:00,22.49929,88.36917,PM10,72,104,88
India,West_Bengal,Kolkata,"Jadavpur, Kolkata - WBPCB",08-10-2025 07:00:00,22.49929,88.36917,OZONE,9,71,14
India,West_Bengal,Kolkata,"Rabindra Sarobar, Kolkata - WBPCB",08-10-2025 07:00:00,22.51106,88.35142,PM2.5,21,56,37
India,West_Bengal,Kolkata,"Rabindra Sarobar, Kolkata - WBPCB",08-10-2025 07:00:00,22.51106,88.35142,PM10,33,49,40
India,West_Bengal,Kolkata,"Rabindra Sarobar, Kolkata - WBPCB",08-10-2025 07:00:00,22.51106,88.35142,NH3,7,11,8
India,West_Bengal,Kolkata,"Rabindra Sarobar, Kolkata - WBPCB",08-10-2025 07:00:00,22.51106,88.35142,OZONE,3,30,3
India,West_Bengal,Kolkata,"Victoria, Kolkata - WBPCB",08-10-2025 07:00:00,22.5448082,88.3403691,PM2.5,39,149,67
India,West_Bengal,Kolkata,"Victoria, Kolkata - WBPCB",08-10-2025 07:00:00,22.5448082,88.3403691,NO2,12,25,18
India,West_Bengal,Kolkata,"Victoria, Kolkata - WBPCB",08-10-2025 07:00:00,22.5448082,88.3403691,NH3,4,5,4
India,West_Bengal,Kolkata,"Victoria, Kolkata - WBPCB",08-10-2025 07:00:00,22.5448082,88.3403691,SO2,1,21,11
India,West_Bengal,Siliguri,"Ward-32 Bapupara, Siliguri - WBPCB",08-10-2025 07:00:00,26.6879226,88.4152495,NH3,11,11,11
India,Andhra_Pradesh,Tirumala,"Toll Gate, Tirumala - APPCB",08-10-2025 07:00:00,13.67,79.35,OZONE,7,30,22
India,Andhra_Pradesh,Tirupati,"Vaikuntapuram, Tirupati - APPCB",08-10-2025 07:00:00,13.615387,79.409230,PM2.5,72,153,97
India,Andhra_Pradesh,Vijayawada,"HB Colony, Vijayawada - APPCB",08-10-2025 07:00:00,16.536107,80.594233,PM2.5,52,72,62
India,Andhra_Pradesh,Vijayawada,"HB Colony, Vijayawada - APPCB",08-10-2025 07:00:00,16.536107,80.594233,SO2,8,20,12
India,Andhra_Pradesh,Vijayawada,"HB Colony, Vijayawada - APPCB",08-10-2025 07:00:00,16.536107,80.594233,CO,32,44,32
India,Andhra_Pradesh,Vijayawada,"HB Colony, Vijayawada - APPCB",08-10-2025 07:00:00,16.536107,80.594233,OZONE,28,28,28
India,Andhra_Pradesh,Vijayawada,"Rajiv Gandhi Park, Vijayawada - APPCB",08-10-2025 07:00:00,16.509717,80.612222,OZONE,25,46,26
India,Andhra_Pradesh,Anantapur,"Gulzarpet, Anantapur - APPCB",08-10-2025 07:00:00,14.675886,77.593027,SO2,14,20,16
India,Andhra_Pradesh,Anantapur,"Gulzarpet, Anantapur - APPCB",08-10-2025 07:00:00,14.675886,77.593027,OZONE,9,21,10
India,Andhra_Pradesh,Chittoor,"Gangineni Cheruvu, Chittoor - APPCB",08-10-2025 07:00:00,13.204880,79.097889,PM2.5,63,318,154
India,Andhra_Pradesh,Chittoor,"Gangineni Cheruvu, Chittoor - APPCB",08-10-2025 07:00:00,13.204880,79.097889,CO,30,52,46
India,Andhra_Pradesh,Kadapa,"Yerramukkapalli, Kadapa - APPCB",08-10-2025 07:00:00,14.465052,78.824187,NH3,2,3,2
India,Andhra_Pradesh,Rajamahendravaram,"Anand Kala Kshetram, Rajamahendravaram - APPCB",08-10-2025 07:00:00,16.9872867,81.7363176,PM10,34,82,49
India,Assam,Guwahati,"Pan Bazaar, Guwahati - PCBA",08-10-2025 07:00:00,26.187500,91.744194,CO,9,40,28
India,Assam,Nagaon,"Christianpatty, Nagaon - PCBA",08-10-2025 07:00:00,26.349082,92.68449,PM2.5,54,60,56
India,Assam,Nagaon,"Christianpatty, Nagaon - PCBA",08-10-2025 07:00:00,26.349082,92.68449,NO2,1,1,1
India,Andhra_Pradesh,Visakhapatnam,"GVM Corporation, Visakhapatnam - APPCB",08-10-2025 07:00:00,17.72,83.3,OZONE,5,56,7
India,Arunachal_Pradesh,Naharlagun,"Naharlagun, Naharlagun - APSPCB",08-10-2025 07:00:00,27.103358,93.679645,PM2.5,2,98,44
India,Andaman and Nicobar,Sri Vijaya Puram,"Police Line, Sri Vijaya Puram - ANPCC",08-10-2025 07:00:00,11.654054,92.734055,PM2.5,NA,NA,NA
India,Andaman and Nicobar,Sri Vijaya Puram,"Police Line, Sri Vijaya Puram - ANPCC",08-10-2025 07:00:00,11.654054,92.734055,NH3,NA,NA,NA
India,Andaman and Nicobar,Sri Vijaya Puram,"Police Line, Sri Vijaya Puram - ANPCC",08-10-2025 07:00:00,11.654054,92.734055,CO,NA,NA,NA
India,Arunachal_Pradesh,Naharlagun,"Naharlagun, Naharlagun - APSPCB",08-10-2025 07:00:00,27.103358,93.679645,PM10,21,103,51
India,Arunachal_Pradesh,Naharlagun,"Naharlagun, Naharlagun - APSPCB",08-10-2025 07:00:00,27.103358,93.679645,NO2,5,6,6
India,Assam,Byrnihat,"Central Academy for SFS, Byrnihat - PCBA",08-10-2025 07:00:00,26.071318,91.87488,CO,28,68,54
India,Assam,Byrnihat,"Central Academy for SFS, Byrnihat - PCBA",08-10-2025 07:00:00,26.071318,91.87488,OZONE,18,52,21
India,Andhra_Pradesh,Tirumala,"Toll Gate, Tirumala - APPCB",08-10-2025 07:00:00,13.67,79.35,NO2,9,20,15
India,Andhra_Pradesh,Tirumala,"Toll Gate, Tirumala - APPCB",08-10-2025 07:00:00,13.67,79.35,NH3,1,2,1
India,Assam,Silchar,"Tarapur, Silchar - PCBA",08-10-2025 07:00:00,24.82827,92.79525,OZONE,NA,NA,NA
India,Assam,Sivasagar,"Girls College, Sivasagar - PCBA",08-10-2025 07:00:00,26.987634,94.636574,NO2,18,25,20
India,Assam,Sivasagar,"Girls College, Sivasagar - PCBA",08-10-2025 07:00:00,26.987634,94.636574,SO2,9,11,10
India,Assam,Sivasagar,"Girls College, Sivasagar - PCBA",08-10-2025 07:00:00,26.987634,94.636574,CO,8,44,23
India,Bihar,Araria,"Kharahiya Basti, Araria - BSPCB",08-10-2025 07:00:00,26.146529,87.454184,PM10,34,60,44
India,Bihar,Arrah,"New DM Office, Arrah - BSPCB",08-10-2025 07:00:00,25.5626095,84.663264,NO2,5,9,7
India,Bihar,Aurangabad,"Gurdeo Nagar, Aurangabad - BSPCB",08-10-2025 07:00:00,24.75746,84.366208,PM2.5,5,13,9
India,Bihar,Bhagalpur,"DM Office_Kachari Chowk, Bhagalpur - BSPCB",08-10-2025 07:00:00,25.251013,86.989001,PM2.5,30,82,53
India,Bihar,Bhagalpur,"DM Office_Kachari Chowk, Bhagalpur - BSPCB",08-10-2025 07:00:00,25.251013,86.989001,OZONE,8,25,17
India,Bihar,Bihar Sharif,"D M Colony, Bihar Sharif - BSPCB",08-10-2025 07:00:00,25.204762,85.514960,PM10,59,73,69
India,Bihar,Bihar Sharif,"D M Colony, Bihar Sharif - BSPCB",08-10-2025 07:00:00,25.204762,85.514960,NO2,9,10,9
India,Bihar,Bihar Sharif,"D M Colony, Bihar Sharif - BSPCB",08-10-2025 07:00:00,25.204762,85.514960,NH3,2,3,2
India,Bihar,Buxar,"Charitra Van, Buxar - BSPCB",08-10-2025 07:00:00,25.567520,83.966379,PM2.5,63,64,63
India,Bihar,Buxar,"Charitra Van, Buxar - BSPCB",08-10-2025 07:00:00,25.567520,83.966379,NO2,5,10,9
India,Bihar,Gaya,"SFTI Kusdihra, Gaya - BSPCB",08-10-2025 07:00:00,24.762518,84.982348,PM2.5,14,47,30
India,Bihar,Gaya,"SFTI Kusdihra, Gaya - BSPCB",08-10-2025 07:00:00,24.762518,84.982348,SO2,4,12,8
India,Bihar,Hajipur,"Industrial Area, Hajipur - BSPCB",08-10-2025 07:00:00,25.697189,85.245900,SO2,2,7,4
India,Bihar,Hajipur,"Industrial Area, Hajipur - BSPCB",08-10-2025 07:00:00,25.697189,85.245900,OZONE,6,53,9
India,Bihar,Katihar,"Mirchaibari, Katihar - BSPCB",08-10-2025 07:00:00,25.560083,87.553265,NH3,1,1,1
India,Bihar,Kishanganj,"SDM Office_Khagra, Kishanganj - BSPCB",08-10-2025 07:00:00,26.0881305,87.93840336,OZONE,15,20,16
India,Bihar,Manguraha,"Forest Rest House, Manguraha - BSPCB",08-10-2025 07:00:00,27.308328,84.531742,PM10,16,86,38
India,Bihar,Motihari,"Gandak Colony, Motihari - BSPCB",08-10-2025 07:00:00,26.63086,84.90051,PM2.5,NA,NA,NA
India,Bihar,Motihari,"Gandak Colony, Motihari - BSPCB",08-10-2025 07:00:00,26.63086,84.90051,OZONE,2,2,2
India,Bihar,Begusarai,"Lohiyanagar, Begusarai - BSPCB",08-10-2025 07:00:00,25.42742023,86.13886079,PM2.5,13,38,19
India,Bihar,Begusarai,"Lohiyanagar, Begusarai - BSPCB",08-10-2025 07:00:00,25.42742023,86.13886079,PM10,6,47,24
India,Bihar,Begusarai,"Lohiyanagar, Begusarai - BSPCB",08-10-2025 07:00:00,25.42742023,86.13886079,NO2,10,72,18
India,Assam,Nalbari,"Bata Chowk, Nalbari - PCBA",08-10-2025 07:00:00,26.446912,91.439057,PM10,43,93,64
India,Assam,Nalbari,"Bata Chowk, Nalbari - PCBA",08-10-2025 07:00:00,26.446912,91.439057,SO2,17,21,21
India,Assam,Nalbari,"Bata Chowk, Nalbari - PCBA",08-10-2025 07:00:00,26.446912,91.439057,OZONE,11,322,12
India,Bihar,Begusarai,"Lohiyanagar, Begusarai - BSPCB",08-10-2025 07:00:00,25.42742023,86.13886079,CO,40,67,52
India,Bihar,Aurangabad,"Gurdeo Nagar, Aurangabad - BSPCB",08-10-2025 07:00:00,24.75746,84.366208,NO2,7,8,8
India,Assam,Nagaon,"Christianpatty, Nagaon - PCBA",08-10-2025 07:00:00,26.349082,92.68449,SO2,9,14,12
India,Bihar,Muzaffarpur,"Muzaffarpur Collectorate, Muzaffarpur - BSPCB",08-10-2025 07:00:00,26.1209,85.3647,SO2,3,6,4
India,Bihar,Patna,"DRM Office Danapur, Patna - BSPCB",08-10-2025 07:00:00,25.586562,85.043586,PM10,9,55,28
India,Bihar,Patna,"DRM Office Danapur, Patna - BSPCB",08-10-2025 07:00:00,25.586562,85.043586,NO2,22,29,26
India,Bihar,Patna,"Rajbansi Nagar, Patna - BSPCB",08-10-2025 07:00:00,25.599486,85.113666,OZONE,6,33,7
India,Bihar,Patna,"Samanpura, Patna - BSPCB",08-10-2025 07:00:00,25.596727,85.085624,PM2.5,2,188,105
India,Bihar,Patna,"Samanpura, Patna - BSPCB",08-10-2025 07:00:00,25.596727,85.085624,PM10,3,439,166
India,Bihar,Patna,"DRM Office Danapur, Patna - BSPCB",08-10-2025 07:00:00,25.586562,85.043586,OZONE,9,13,11
India,Bihar,Patna,"Govt. High School Shikarpur, Patna - BSPCB",08-10-2025 07:00:00,25.592539,85.227158,NH3,4,5,4
India,Bihar,Munger,"Town Hall, Munger - BSPCB",08-10-2025 07:00:00,25.376776,86.471523,SO2,17,20,19
India,Bihar,Munger,"Town Hall, Munger - BSPCB",08-10-2025 07:00:00,25.376776,86.471523,CO,4,52,32
India,Bihar,Patna,"IGSC Planetarium Complex, Patna - BSPCB",08-10-2025 07:00:00,25.610369,85.132568,OZONE,44,48,47
India,Bihar,Patna,"Rajbansi Nagar, Patna - BSPCB",08-10-2025 07:00:00,25.599486,85.113666,PM2.5,28,79,52
India,Bihar,Patna,"Samanpura, Patna - BSPCB",08-10-2025 07:00:00,25.596727,85.085624,OZONE,20,77,22
India,Bihar,Patna,"Rajbansi Nagar, Patna - BSPCB",08-10-2025 07:00:00,25.599486,85.113666,NH3,2,3,3
India,Bihar,Patna,"Muradpur, Patna - BSPCB",08-10-2025 07:00:00,25.619651,85.147382,CO,31,56,46
India,Bihar,Purnia,"Mariam Nagar, Purnia - BSPCB",08-10-2025 07:00:00,25.366336,87.117468,NO2,5,7,6
India,Bihar,Purnia,"Mariam Nagar, Purnia - BSPCB",08-10-2025 07:00:00,25.366336,87.117468,NH3,3,3,3
India,Bihar,Rajgir,"Dangi Tola, Rajgir - BSPCB",08-10-2025 07:00:00,25.03280,85.41948,NO2,8,10,9
India,Bihar,Rajgir,"Dangi Tola, Rajgir - BSPCB",08-10-2025 07:00:00,25.03280,85.41948,CO,83,98,91
India,Bihar,Saharsa,"Police Line, Saharsa - BSPCB",08-10-2025 07:00:00,25.892357,86.590325,SO2,12,18,14
India,Bihar,Siwan,"Chitragupta Nagar, Siwan - BSPCB",08-10-2025 07:00:00,26.2271665,84.3570427,CO,67,106,89
India,Chandigarh,Chandigarh,"Sector 22, Chandigarh - CPCC",08-10-2025 07:00:00,30.735567,76.775714,PM10,1,37,12
India,Chandigarh,Chandigarh,"Sector 22, Chandigarh - CPCC",08-10-2025 07:00:00,30.735567,76.775714,SO2,3,7,5
India,Chandigarh,Chandigarh,"Sector 22, Chandigarh - CPCC",08-10-2025 07:00:00,30.735567,76.775714,CO,22,50,37
India,Chhattisgarh,Bhilai,"32Bungalows, Bhilai - CECB",08-10-2025 07:00:00,21.194815,81.314770,OZONE,1,26,5
India,Chhattisgarh,Bhilai,"Civic Center, Bhilai - Bhilai Steel Plant",08-10-2025 07:00:00,21.185571,81.343175,PM2.5,20,78,35
India,Chhattisgarh,Bhilai,"Civic Center, Bhilai - Bhilai Steel Plant",08-10-2025 07:00:00,21.185571,81.343175,PM10,30,57,41
India,Chhattisgarh,Bhilai,"Civic Center, Bhilai - Bhilai Steel Plant",08-10-2025 07:00:00,21.185571,81.343175,NO2,7,22,14
India,Chhattisgarh,Bilaspur,"Mangala, Bilaspur - NTPC",08-10-2025 07:00:00,22.08815,82.13737,PM10,22,98,49
India,Chhattisgarh,Korba,"Rampur, Korba - CECB",08-10-2025 07:00:00,22.368195,82.746431,PM2.5,11,11,11
India,Chhattisgarh,Korba,"Rampur, Korba - CECB",08-10-2025 07:00:00,22.368195,82.746431,NH3,2,2,2
India,Bihar,Samastipur,"DM Office_Kasipur, Samastipur - BSPCB",08-10-2025 07:00:00,25.859655,85.77944,SO2,28,35,31
India,Bihar,Siwan,"Chitragupta Nagar, Siwan - BSPCB",08-10-2025 07:00:00,26.2271665,84.3570427,PM2.5,10,87,45
India,Chhattisgarh,Bhilai,"Civic Center, Bhilai - Bhilai Steel Plant",08-10-2025 07:00:00,21.185571,81.343175,OZONE,7,13,10
India,Chhattisgarh,Bhilai,"Hathkhoj, Bhilai - CECB",08-10-2025 07:00:00,21.224231,81.408350,PM2.5,26,39,33
India,Chandigarh,Chandigarh,"Sector-25, Chandigarh - CPCC",08-10-2025 07:00:00,30.751462,76.762879,PM10,10,22,13
India,Chandigarh,Chandigarh,"Sector-25, Chandigarh - CPCC",08-10-2025 07:00:00,30.751462,76.762879,SO2,6,9,7
India,Chhattisgarh,Kunjemura,"OP Jindal School, Kunjemura - CECB",08-10-2025 07:00:00,22.126650,83.483212,NH3,2,2,2
India,Chhattisgarh,Bhilai,"32Bungalows, Bhilai - CECB",08-10-2025 07:00:00,21.194815,81.314770,NO2,3,34,9
India,Chhattisgarh,Tumidih,"OP Jindal Industrial Park, Tumidih - CECB",08-10-2025 07:00:00,22.06631475,83.33820077,NO2,NA,NA,NA
India,Chhattisgarh,Tumidih,"OP Jindal Industrial Park, Tumidih - CECB",08-10-2025 07:00:00,22.06631475,83.33820077,NH3,NA,NA,NA
India,Delhi,Delhi,"Alipur, Delhi - DPCC",08-10-2025 07:00:00,28.815329,77.153010,NO2,23,49,31
India,Delhi,Delhi,"Anand Vihar, Delhi - DPCC",08-10-2025 07:00:00,28.647622,77.3158090,PM10,24,160,63
India,Delhi,Delhi,"Anand Vihar, Delhi - DPCC",08-10-2025 07:00:00,28.647622,77.3158090,OZONE,1,19,11
India,Delhi,Delhi,"Ashok Vihar, Delhi - DPCC",08-10-2025 07:00:00,28.695381,77.181665,PM2.5,28,120,56
India,Delhi,Delhi,"Ashok Vihar, Delhi - DPCC",08-10-2025 07:00:00,28.695381,77.181665,PM10,23,101,53
India,Delhi,Delhi,"Ashok Vihar, Delhi - DPCC",08-10-2025 07:00:00,28.695381,77.181665,NH3,1,1,1
India,Delhi,Delhi,"Aya Nagar, Delhi - IMD",08-10-2025 07:00:00,28.4706914,77.1099364,PM10,13,83,38
India,Delhi,Delhi,"Aya Nagar, Delhi - IMD",08-10-2025 07:00:00,28.4706914,77.1099364,OZONE,11,71,14
India,Chhattisgarh,Milupara,"Govt. Higher Secondary School, Milupara - CECB",08-10-2025 07:00:00,22.1910172,83.5197009,OZONE,NA,NA,NA
India,Chhattisgarh,Raipur,"Bhatagaon New ISBT, Raipur - CECB",08-10-2025 07:00:00,21.219665,81.630094,PM10,36,68,52
India,Chhattisgarh,Raipur,"Bhatagaon New ISBT, Raipur - CECB",08-10-2025 07:00:00,21.219665,81.630094,SO2,5,7,6
India,Chhattisgarh,Raipur,"Bhatagaon New ISBT, Raipur - CECB",08-10-2025 07:00:00,21.219665,81.630094,OZONE,9,27,16
India,Chhattisgarh,Raipur,"Siltara Phase-II, Raipur - CECB",08-10-2025 07:00:00,21.371751,81.664929,PM10,17,128,62
India,Chhattisgarh,Raipur,"Siltara Phase-II, Raipur - CECB",08-10-2025 07:00:00,21.371751,81.664929,NO2,11,45,20
India,Chhattisgarh,Raipur,"Siltara Phase-II, Raipur - CECB",08-10-2025 07:00:00,21.371751,81.664929,SO2,7,18,10
India,Chhattisgarh,Tumidih,"OP Jindal Industrial Park, Tumidih - CECB",08-10-2025 07:00:00,22.06631475,83.33820077,PM10,NA,NA,NA
India,Delhi,Delhi,"Dr. Karni Singh Shooting Range, Delhi - DPCC",08-10-2025 07:00:00,28.498571,77.264840,OZONE,4,82,10
India,Delhi,Delhi,"Dwarka-Sector 8, Delhi - DPCC ",08-10-2025 07:00:00,28.5710274,77.0719006,PM10,7,137,57
India,Delhi,Delhi,"Dwarka-Sector 8, Delhi - DPCC ",08-10-2025 07:00:00,28.5710274,77.0719006,SO2,12,20,16
India,Delhi,Delhi,"IGI Airport (T3), Delhi - IMD",08-10-2025 07:00:00,28.5627763,77.1180053,PM2.5,7,73,34
India,Delhi,Delhi,"IGI Airport (T3), Delhi - IMD",08-10-2025 07:00:00,28.5627763,77.1180053,PM10,18,98,51
India,Delhi,Delhi,"IGI Airport (T3), Delhi - IMD",08-10-2025 07:00:00,28.5627763,77.1180053,OZONE,1,3,2
India,Delhi,Delhi,"ITO, Delhi - CPCB",08-10-2025 07:00:00,28.628624,77.241060,PM2.5,13,104,50
India,Delhi,Delhi,"ITO, Delhi - CPCB",08-10-2025 07:00:00,28.628624,77.241060,NH3,3,6,4
India,Delhi,Delhi,"Jahangirpuri, Delhi - DPCC",08-10-2025 07:00:00,28.732820,77.170633,NO2,28,72,47
India,Delhi,Delhi,"Jahangirpuri, Delhi - DPCC",08-10-2025 07:00:00,28.732820,77.170633,CO,47,80,62
India,Delhi,Delhi,"Jawaharlal Nehru Stadium, Delhi - DPCC",08-10-2025 07:00:00,28.580280,77.233829,PM2.5,8,52,33
India,Delhi,Delhi,"Jawaharlal Nehru Stadium, Delhi - DPCC",08-10-2025 07:00:00,28.580280,77.233829,NH3,4,6,5
India,Delhi,Delhi,"Jawaharlal Nehru Stadium, Delhi - DPCC",08-10-2025 07:00:00,28.580280,77.233829,CO,25,84,58
India,Delhi,Delhi,"DTU, Delhi - CPCB",08-10-2025 07:00:00,28.7500499,77.1112615,PM10,18,85,44
India,Delhi,Delhi,"DTU, Delhi - CPCB",08-10-2025 07:00:00,28.7500499,77.1112615,NO2,47,71,57
India,Delhi,Delhi,"Dr. Karni Singh Shooting Range, Delhi - DPCC",08-10-2025 07:00:00,28.498571,77.264840,PM10,12,61,37
India,Delhi,Delhi,"Dr. Karni Singh Shooting Range, Delhi - DPCC",08-10-2025 07:00:00,28.498571,77.264840,NH3,5,7,6
India,Delhi,Delhi,"Burari Crossing, Delhi - IMD",08-10-2025 07:00:00,28.7256504,77.2011573,PM2.5,2,138,51
India,Delhi,Delhi,"Burari Crossing, Delhi - IMD",08-10-2025 07:00:00,28.7256504,77.2011573,PM10,8,84,49
India,Delhi,Delhi,"Burari Crossing, Delhi - IMD",08-10-2025 07:00:00,28.7256504,77.2011573,OZONE,11,265,16
India,Delhi,Delhi,"CRRI Mathura Road, Delhi - IMD",08-10-2025 07:00:00,28.5512005,77.2735737,PM2.5,8,64,31
India,Delhi,Delhi,"Najafgarh, Delhi - DPCC",08-10-2025 07:00:00,28.570173,76.933762,CO,20,57,45
India,Delhi,Delhi,"Narela, Delhi - DPCC",08-10-2025 07:00:00,28.822836,77.101981,PM2.5,13,62,42
India,Delhi,Delhi,"Narela, Delhi - DPCC",08-10-2025 07:00:00,28.822836,77.101981,CO,30,42,34
India,Delhi,Delhi,"Narela, Delhi - DPCC",08-10-2025 07:00:00,28.822836,77.101981,OZONE,3,121,7
India,Delhi,Delhi,"NSIT Dwarka, Delhi - CPCB",08-10-2025 07:00:00,28.60909,77.0325413,NO2,30,79,49
India,Delhi,Delhi,"NSIT Dwarka, Delhi - CPCB",08-10-2025 07:00:00,28.60909,77.0325413,CO,16,103,35
India,Delhi,Delhi,"Najafgarh, Delhi - DPCC",08-10-2025 07:00:00,28.570173,76.933762,PM10,23,66,48
India,Delhi,Delhi,"Major Dhyan Chand National Stadium, Delhi - DPCC",08-10-2025 07:00:00,28.611281,77.237738,SO2,6,15,10
India,Delhi,Delhi,"Nehru Nagar, Delhi - DPCC",08-10-2025 07:00:00,28.567890,77.250515,OZONE,NA,NA,NA
India,Delhi,Delhi,"North Campus, DU, Delhi - IMD",08-10-2025 07:00:00,28.6573814,77.1585447,PM10,4,96,52
India,Delhi,Delhi,"North Campus, DU, Delhi - IMD",08-10-2025 07:00:00,28.6573814,77.1585447,NO2,31,72,53
India,Delhi,Delhi,"Okhla Phase-2, Delhi - DPCC",08-10-2025 07:00:00,28.530785,77.271255,PM10,22,70,51
India,Delhi,Delhi,"Shadipur, Delhi - CPCB",08-10-2025 07:00:00,28.6514781,77.1473105,SO2,6,14,9
India,Delhi,Delhi,"Sirifort, Delhi - CPCB",08-10-2025 07:00:00,28.5504249,77.2159377,PM2.5,21,64,36
India,Delhi,Delhi,"Sirifort, Delhi - CPCB",08-10-2025 07:00:00,28.5504249,77.2159377,PM10,25,82,50
India,Delhi,Delhi,"Sonia Vihar, Delhi - DPCC",08-10-2025 07:00:00,28.710508,77.249485,CO,34,76,56
India,Delhi,Delhi,"Sonia Vihar, Delhi - DPCC",08-10-2025 07:00:00,28.710508,77.249485,OZONE,3,122,13
India,Delhi,Delhi,"Punjabi Bagh, Delhi - DPCC",08-10-2025 07:00:00,28.674045,77.131023,SO2,13,14,14
India,Delhi,Delhi,"Nehru Nagar, Delhi - DPCC",08-10-2025 07:00:00,28.567890,77.250515,SO2,NA,NA,NA
India,Delhi,Delhi,"Rohini, Delhi - DPCC",08-10-2025 07:00:00,28.732528,77.119920,OZONE,4,84,12
India,Delhi,Delhi,"Pusa, Delhi - DPCC",08-10-2025 07:00:00,28.639652,77.146275,OZONE,5,84,6
India,Delhi,Delhi,"Pusa, Delhi - IMD",08-10-2025 07:00:00,28.636110,77.173332,PM10,12,83,46
India,Delhi,Delhi,"Pusa, Delhi - IMD",08-10-2025 07:00:00,28.636110,77.173332,CO,1,78,38
India,Gujarat,Ahmedabad,"Chandkheda, Ahmedabad - IITM",08-10-2025 07:00:00,23.107969,72.574648,NH3,6,22,12
India,Gujarat,Ahmedabad,"Chandkheda, Ahmedabad - IITM",08-10-2025 07:00:00,23.107969,72.574648,OZONE,2,20,7
India,Gujarat,Ahmedabad,"Gyaspur, Ahmedabad - IITM",08-10-2025 07:00:00,22.977134,72.553024,PM2.5,7,90,49
India,Gujarat,Ahmedabad,"Gyaspur, Ahmedabad - IITM",08-10-2025 07:00:00,22.977134,72.553024,PM10,36,167,106
India,Gujarat,Ahmedabad,"Maninagar, Ahmedabad - GPCB",08-10-2025 07:00:00,23.002657,72.591912,PM10,NA,NA,NA
India,Gujarat,Ahmedabad,"Maninagar, Ahmedabad - GPCB",08-10-2025 07:00:00,23.002657,72.591912,CO,NA,NA,NA
India,Gujarat,Ahmedabad,"Raikhad, Ahmedabad - IITM",08-10-2025 07:00:00,23.020509,72.579261,NO2,NA,NA,NA
India,Gujarat,Ahmedabad,"Rakhial, Ahmedabad - IITM",08-10-2025 07:00:00,23.016834,72.625775,NO2,10,344,71
India,Gujarat,Ahmedabad,"SAC ISRO Bopal, Ahmedabad - IITM",08-10-2025 07:00:00,23.041137,72.456691,NH3,2,3,3
India,Gujarat,Ahmedabad,"SAC ISRO Bopal, Ahmedabad - IITM",08-10-2025 07:00:00,23.041137,72.456691,SO2,1,2,1
India,Gujarat,Ahmedabad,"SAC ISRO Satellite, Ahmedabad - IITM",08-10-2025 07:00:00,23.023389,72.515201,PM2.5,28,106,66
India,Gujarat,Ahmedabad,"SAC ISRO Satellite, Ahmedabad - IITM",08-10-2025 07:00:00,23.023389,72.515201,CO,2,104,17
India,Gujarat,Ahmedabad,"SAC ISRO Satellite, Ahmedabad - IITM",08-10-2025 07:00:00,23.023389,72.515201,OZONE,1,23,2
India,Gujarat,Ahmedabad,"SVPI Airport Hansol, Ahmedabad - IITM",08-10-2025 07:00:00,23.076793,72.627874,NH3,1,2,1
India,Gujarat,Ahmedabad,"SVPI Airport Hansol, Ahmedabad - IITM",08-10-2025 07:00:00,23.076793,72.627874,CO,6,45,20
India,Gujarat,Ahmedabad,"Rakhial, Ahmedabad - IITM",08-10-2025 07:00:00,23.016834,72.625775,NH3,2,7,4
India,Gujarat,Ahmedabad,"Rakhial, Ahmedabad - IITM",08-10-2025 07:00:00,23.016834,72.625775,SO2,11,116,33
India,Gujarat,Ankleshwar,"GIDC, Ankleshwar - GPCB",08-10-2025 07:00:00,21.613267,73.010555,NO2,22,23,22
India,Gujarat,Ankleshwar,"GIDC, Ankleshwar - GPCB",08-10-2025 07:00:00,21.613267,73.010555,NH3,5,6,6
India,Delhi,Delhi,"Sri Aurobindo Marg, Delhi - DPCC",08-10-2025 07:00:00,28.531346,77.190156,NO2,4,54,27
India,Delhi,Delhi,"Sri Aurobindo Marg, Delhi - DPCC",08-10-2025 07:00:00,28.531346,77.190156,NH3,3,5,4
India,Delhi,Delhi,"Wazirpur, Delhi - DPCC",08-10-2025 07:00:00,28.699793,77.165453,NO2,37,81,58
India,Delhi,Delhi,"Wazirpur, Delhi - DPCC",08-10-2025 07:00:00,28.699793,77.165453,NH3,8,15,10
India,Gujarat,Ahmedabad,"SAC ISRO Bopal, Ahmedabad - IITM",08-10-2025 07:00:00,23.041137,72.456691,PM2.5,14,217,62
India,Delhi,Delhi,"Sri Aurobindo Marg, Delhi - DPCC",08-10-2025 07:00:00,28.531346,77.190156,OZONE,5,58,6
India,Haryana,Dharuhera,"Municipal Corporation Office, Dharuhera -  HSPCB",08-10-2025 07:00:00,28.206800,76.799700,PM10,NA,NA,NA
India,Haryana,Dharuhera,"Municipal Corporation Office, Dharuhera -  HSPCB",08-10-2025 07:00:00,28.206800,76.799700,CO,13,54,20
India,Haryana,Faridabad,"New Industrial Town, Faridabad - HSPCB",08-10-2025 07:00:00,28.39072,77.30059,PM2.5,124,139,132
India,Haryana,Faridabad,"New Industrial Town, Faridabad - HSPCB",08-10-2025 07:00:00,28.39072,77.30059,PM10,110,115,113
India,Haryana,Faridabad,"Sector 11, Faridabad - HSPCB",08-10-2025 07:00:00,28.376058,77.315741,PM2.5,48,53,50
India,Gujarat,Surat,"Science Center, Surat - SMC",08-10-2025 07:00:00,21.170046,72.795405,NO2,6,21,15
India,Gujarat,Vatva,"Phase-4 GIDC, Vatva - GPCB",08-10-2025 07:00:00,22.969611,72.643500,SO2,18,28,24
India,Haryana,Bahadurgarh,"Arya Nagar, Bahadurgarh - HSPCB",08-10-2025 07:00:00,28.6701,76.9254,OZONE,12,21,16
India,Haryana,Ballabgarh,"Nathu Colony, Ballabgarh - HSPCB",08-10-2025 07:00:00,28.3419248,77.319699,PM2.5,19,54,31
India,Gujarat,Nandesari,"GIDC, Nandesari - Nandesari Ind. Association",08-10-2025 07:00:00,22.410802,73.097923,NO2,NA,NA,NA
India,Gujarat,Nandesari,"GIDC, Nandesari - Nandesari Ind. Association",08-10-2025 07:00:00,22.410802,73.097923,SO2,NA,NA,NA
India,Gujarat,Surat,"Science Center, Surat - SMC",08-10-2025 07:00:00,21.170046,72.795405,PM10,3,111,35
India,Haryana,Gurugram,"NISE Gwal Pahari, Gurugram - IMD",08-10-2025 07:00:00,28.422681,77.148944,OZONE,11,33,14
India,Haryana,Gurugram,"Sector-51, Gurugram - HSPCB",08-10-2025 07:00:00,28.4227,77.0667,PM10,31,101,58
India,Gujarat,Gandhinagar,"Sector-10, Gandhinagar - GPCB",08-10-2025 07:00:00,23.221714,72.654328,CO,29,38,34
India,Gujarat,Gandhinagar,"Sector-10, Gandhinagar - GPCB",08-10-2025 07:00:00,23.221714,72.654328,OZONE,8,36,14
India,Gujarat,Gandhinagar,"GIFT City, Gandhinagar - IITM",08-10-2025 07:00:00,23.163798,72.677768,NO2,5,43,21
India,Gujarat,Gandhinagar,"GIFT City, Gandhinagar - IITM",08-10-2025 07:00:00,23.163798,72.677768,NH3,1,12,5
India,Haryana,Charkhi Dadri,"Mini Secretariat, Charkhi Dadri - HSPCB",08-10-2025 07:00:00,28.593883,76.270653,PM10,3,87,33
India,Haryana,Ballabgarh,"Nathu Colony, Ballabgarh - HSPCB",08-10-2025 07:00:00,28.3419248,77.319699,NH3,3,3,3
India,Haryana,Faridabad,"Sector 30, Faridabad - HSPCB",08-10-2025 07:00:00,28.4417,77.3217,NO2,36,41,37
India,Haryana,Sirsa,"F-Block, Sirsa - HSPCB",08-10-2025 07:00:00,29.536400,75.015800,NH3,1,17,5
India,Himachal Pradesh,Baddi,"HIMUDA Complex Phase-1, Baddi - HPPCB",08-10-2025 07:00:00,30.943887,76.801991,PM2.5,3,88,28
India,Himachal Pradesh,Baddi,"HIMUDA Complex Phase-1, Baddi - HPPCB",08-10-2025 07:00:00,30.943887,76.801991,SO2,18,79,32
India,Himachal Pradesh,Baddi,"HIMUDA Complex Phase-1, Baddi - HPPCB",08-10-2025 07:00:00,30.943887,76.801991,CO,35,57,39
India,Himachal Pradesh,Baddi,"HIMUDA Complex Phase-1, Baddi - HPPCB",08-10-2025 07:00:00,30.943887,76.801991,OZONE,29,80,67
India,Jharkhand,Dhanbad,"Sardar Patel Nagar, Dhanbad - JSPCB",08-10-2025 07:00:00,23.80569,86.44268,PM10,16,92,63
India,Karnataka,Bagalkot,"Vidayagiri, Bagalkot - KSPCB",08-10-2025 07:00:00,16.172806,75.659694,NH3,1,2,1
India,Karnataka,Bagalkot,"Vidayagiri, Bagalkot - KSPCB",08-10-2025 07:00:00,16.172806,75.659694,OZONE,12,16,16
India,Karnataka,Bengaluru,"Bapuji Nagar, Bengaluru - KSPCB",08-10-2025 07:00:00,12.951913,77.539784,PM2.5,56,236,122
India,Karnataka,Bengaluru,"Hebbal, Bengaluru - KSPCB",08-10-2025 07:00:00,13.029152,77.585901,NO2,20,24,22
India,Haryana,Narnaul,"Shastri Nagar, Narnaul - HSPCB",08-10-2025 07:00:00,28.060249,76.113115,NH3,11,14,12
India,Haryana,Narnaul,"Shastri Nagar, Narnaul - HSPCB",08-10-2025 07:00:00,28.060249,76.113115,CO,22,34,32
India,Haryana,Narnaul,"Shastri Nagar, Narnaul - HSPCB",08-10-2025 07:00:00,28.060249,76.113115,OZONE,12,20,13
India,Haryana,Panipat,"Sector-18, Panipat - HSPCB",08-10-2025 07:00:00,29.432304,76.972765,PM10,15,55,32
India,Haryana,Panipat,"Sector-18, Panipat - HSPCB",08-10-2025 07:00:00,29.432304,76.972765,NO2,2,13,5
India,Haryana,Mandikhera,"General Hospital, Mandikhera - HSPCB",08-10-2025 07:00:00,27.9002,76.9938,SO2,1,34,13
India,Haryana,Manesar,"Sector-2 IMT, Manesar - HSPCB",08-10-2025 07:00:00,28.360699,76.936090,CO,24,59,48
India,Haryana,Narnaul,"Shastri Nagar, Narnaul - HSPCB",08-10-2025 07:00:00,28.060249,76.113115,PM10,60,89,79
India,Haryana,Rohtak,"MD University, Rohtak - HSPCB",08-10-2025 07:00:00,28.52123,76.37138,CO,10,37,30
India,Haryana,Sirsa,"F-Block, Sirsa - HSPCB",08-10-2025 07:00:00,29.536400,75.015800,PM10,13,36,23
India,Karnataka,Bengaluru,"Hombegowda Nagar, Bengaluru - KSPCB",08-10-2025 07:00:00,12.938539,77.590100,PM10,59,120,78
India,Karnataka,Bengaluru,"Jayanagar 5th Block, Bengaluru - KSPCB",08-10-2025 07:00:00,12.920984,77.584908,NH3,1,2,1
India,Karnataka,Bengaluru,"Hombegowda Nagar, Bengaluru - KSPCB",08-10-2025 07:00:00,12.938539,77.590100,NH3,1,2,2
India,Haryana,Gurugram,"Vikas Sadan, Gurugram - HSPCB",08-10-2025 07:00:00,28.4501238,77.0263051,SO2,3,8,5
India,Karnataka,Chikkaballapur,"Chikkaballapur Rural, Chikkaballapur - KSPCB",08-10-2025 07:00:00,13.428828,77.731418,NO2,NA,NA,NA
India,Karnataka,Chikkaballapur,"Chikkaballapur Rural, Chikkaballapur - KSPCB",08-10-2025 07:00:00,13.428828,77.731418,OZONE,NA,NA,NA
India,Karnataka,Chikkamagaluru,"Kalyana Nagara, Chikkamagaluru - KSPCB",08-10-2025 07:00:00,13.328028,75.797056,NO2,20,24,23
India,Karnataka,Davanagere,"Devaraj Urs Badavane, Davanagere - KSPCB",08-10-2025 07:00:00,14.475800,75.905200,PM10,18,97,40
India,Karnataka,Dharwad,"Kalabhavan, Dharwad - KSPCB",08-10-2025 07:00:00,15.459706,75.008381,NH3,3,3,3
India,Karnataka,Dharwad,"Kalabhavan, Dharwad - KSPCB",08-10-2025 07:00:00,15.459706,75.008381,CO,NA,NA,NA
India,Karnataka,Haveri,"Ashwini Nagar, Haveri - KSPCB",08-10-2025 07:00:00,14.791800,75.389600,PM2.5,NA,NA,NA
India,Karnataka,Hubballi,"Lingaraj Nagar, Hubballi - KSPCB",08-10-2025 07:00:00,15.3714823,75.1160168,PM10,43,55,49
India,Karnataka,Vijayapura,"Ibrahimpur, Vijayapura - KSPCB",08-10-2025 07:00:00,16.802639,75.722694,CO,14,118,36
India,Karnataka,Yadgir,"Collector Office, Yadgir - KSPCB",08-10-2025 07:00:00,16.7602,77.1428,PM10,19,66,40
India,Kerala,Eloor,"Udyogamandal, Eloor - Kerala PCB",08-10-2025 07:00:00,10.073232,76.302765,PM2.5,47,92,62
India,Kerala,Eloor,"Udyogamandal, Eloor - Kerala PCB",08-10-2025 07:00:00,10.073232,76.302765,OZONE,10,14,12
India,Kerala,Kannur,"Thavakkara, Kannur - Kerala PCB",08-10-2025 07:00:00,11.875000,75.373200,PM10,58,63,59
India,Karnataka,Bengaluru,"Sanegurava Halli, Bengaluru - KSPCB",08-10-2025 07:00:00,12.990328,77.5431385,SO2,7,7,7
India,Karnataka,Bengaluru,"Shivapura_Peenya, Bengaluru - KSPCB",08-10-2025 07:00:00,13.0246342,77.5080115,PM10,NA,NA,NA
India,Karnataka,Bengaluru,"Shivapura_Peenya, Bengaluru - KSPCB",08-10-2025 07:00:00,13.0246342,77.5080115,NO2,24,26,25
India,Karnataka,Chamarajanagar,"Urban, Chamarajanagar - KSPCB",08-10-2025 07:00:00,11.55358,76.55521,NH3,1,2,2
India,Karnataka,Hubballi,"Lingaraj Nagar, Hubballi - KSPCB",08-10-2025 07:00:00,15.3714823,75.1160168,NO2,7,11,9
India,Karnataka,Kalaburagi,"Mahatma Basaveswar Colony, Kalaburgi - KSPCB",08-10-2025 07:00:00,17.336318,76.847397,PM10,45,63,48
India,Karnataka,Karwar,"KHB Colony, Karwar - KSPCB",08-10-2025 07:00:00,14.816666,74.141003,SO2,26,27,26
India,Kerala,Kannur,"Thavakkara, Kannur - Kerala PCB",08-10-2025 07:00:00,11.875000,75.373200,CO,13,15,14
India,Kerala,Kannur,"Thavakkara, Kannur - Kerala PCB",08-10-2025 07:00:00,11.875000,75.373200,OZONE,28,32,28
India,Kerala,Thiruvananthapuram,"Kariavattom, Thiruvananthapuram - Kerala PCB",08-10-2025 07:00:00,8.563700,76.886500,NH3,1,1,1
India,Karnataka,Shivamogga,"Vinoba Nagara, Shivamogga - KSPCB",08-10-2025 07:00:00,13.940000,75.555917,PM10,40,48,41
India,Karnataka,Shivamogga,"Vinoba Nagara, Shivamogga - KSPCB",08-10-2025 07:00:00,13.940000,75.555917,NH3,2,4,3
India,Karnataka,Bengaluru,"Peenya, Bengaluru - CPCB",08-10-2025 07:00:00,13.0270199,77.494094,SO2,1,11,5
India,Karnataka,Bengaluru,"Peenya, Bengaluru - CPCB",08-10-2025 07:00:00,13.0270199,77.494094,CO,18,42,23
India,Kerala,Thiruvananthapuram,"Kariavattom, Thiruvananthapuram - Kerala PCB",08-10-2025 07:00:00,8.563700,76.886500,SO2,1,10,5
India,Karnataka,Mysuru,"Hebbal 1st Stage, Mysuru - KSPCB",08-10-2025 07:00:00,12.21041,76.37376,NO2,15,24,19
India,Madhya Pradesh,Bhopal,"Idgah Hills, Bhopal - MPPCB",08-10-2025 07:00:00,23.264759,77.381568,NO2,11,29,19
India,Madhya Pradesh,Bhopal,"Idgah Hills, Bhopal - MPPCB",08-10-2025 07:00:00,23.264759,77.381568,CO,16,38,22
India,Madhya Pradesh,Bhopal,"Paryavaran Parisar, Bhopal - MPPCB",08-10-2025 07:00:00,23.210494,77.425409,NH3,2,3,2
India,Madhya Pradesh,Bhopal,"Paryavaran Parisar, Bhopal - MPPCB",08-10-2025 07:00:00,23.210494,77.425409,SO2,1,15,7
India,Madhya Pradesh,Bhopal,"T T Nagar, Bhopal - MPPCB",08-10-2025 07:00:00,23.233584,77.400574,PM2.5,30,54,39
India,Madhya Pradesh,Bhopal,"T T Nagar, Bhopal - MPPCB",08-10-2025 07:00:00,23.233584,77.400574,PM10,50,128,70
India,Kerala,Thiruvananthapuram,"Plammoodu, Thiruvananthapuram - Kerala PCB",08-10-2025 07:00:00,8.5149093,76.9435879,PM2.5,5,321,201
India,Kerala,Thiruvananthapuram,"Plammoodu, Thiruvananthapuram - Kerala PCB",08-10-2025 07:00:00,8.5149093,76.9435879,CO,4,43,8
India,Madhya Pradesh,Gwalior,"Deen Dayal Nagar, Gwalior - MPPCB",08-10-2025 07:00:00,26.259242,78.216432,PM10,34,142,73
India,Madhya Pradesh,Damoh,"Shrivastav Colony, Damoh - MPPCB",08-10-2025 07:00:00,23.81748678,79.446246,PM10,26,96,52
India,Madhya Pradesh,Gwalior,"Maharaj Bada, Gwalior - MPPCB",08-10-2025 07:00:00,26.200388,78.147714,PM10,12,112,55
