country,state,city,station,last_update,latitude,longitude,pollutant_id,min_value,max_value,avg_value
India,Arunachal_Pradesh,Naharlagun,"Naharlagun, Naharlagun - APSPCB",07-10-2025 07:00:00,27.103358,93.679645,NO2,5,6,5
India,Arunachal_Pradesh,Naharlagun,"Naharlagun, Naharlagun - APSPCB",07-10-2025 07:00:00,27.103358,93.679645,CO,5,18,10
India,Assam,Byrnihat,"Central Academy for SFS, Byrnihat - PCBA",07-10-2025 07:00:00,26.071318,91.87488,PM2.5,78,293,135
India,Assam,Byrnihat,"Central Academy for SFS, Byrnihat - PCBA",07-10-2025 07:00:00,26.071318,91.87488,SO2,6,15,9
India,Assam,Byrnihat,"Central Academy for SFS, Byrnihat - PCBA",07-10-2025 07:00:00,26.071318,91.87488,CO,40,68,48
India,Andhra_Pradesh,Vijayawada,"Rajiv Nagar, Vijayawada - APPCB",07-10-2025 07:00:00,16.554731,80.649110,OZONE,59,87,71
India,Andhra_Pradesh,Visakhapatnam,"GVM Corporation, Visakhapatnam - APPCB",07-10-2025 07:00:00,17.72,83.3,NH3,3,3,3
India,Andhra_Pradesh,Visakhapatnam,"GVM Corporation, Visakhapatnam - APPCB",07-10-2025 07:00:00,17.72,83.3,CO,18,61,35
India,Andhra_Pradesh,Rajamahendravaram,"Anand Kala Kshetram, Rajamahendravaram - APPCB",07-10-2025 07:00:00,16.9872867,81.7363176,CO,4,37,14
India,Andhra_Pradesh,Rajamahendravaram,"Anand Kala Kshetram, Rajamahendravaram - APPCB",07-10-2025 07:00:00,16.9872867,81.7363176,OZONE,9,11,10
India,Andhra_Pradesh,Tirumala,"Toll Gate, Tirumala - APPCB",07-10-2025 07:00:00,13.67,79.35,PM2.5,5,62,35
India,Andhra_Pradesh,Vijayawada,"HB Colony, Vijayawada - APPCB",07-10-2025 07:00:00,16.536107,80.594233,SO2,8,17,10
India,Andhra_Pradesh,Vijayawada,"Rajiv Gandhi Park, Vijayawada - APPCB",07-10-2025 07:00:00,16.509717,80.612222,NH3,3,5,4
India,Andaman and Nicobar,Sri Vijaya Puram,"Police Line, Sri Vijaya Puram - ANPCC",07-10-2025 07:00:00,11.654054,92.734055,PM2.5,NA,NA,NA
India,Andaman and Nicobar,Sri Vijaya Puram,"Police Line, Sri Vijaya Puram - ANPCC",07-10-2025 07:00:00,11.654054,92.734055,SO2,NA,NA,NA
India,Andhra_Pradesh,Tirumala,"Toll Gate, Tirumala - APPCB",07-10-2025 07:00:00,13.67,79.35,PM10,23,72,48
India,Andhra_Pradesh,Tirumala,"Toll Gate, Tirumala - APPCB",07-10-2025 07:00:00,13.67,79.35,SO2,2,4,3
India,Andhra_Pradesh,Chittoor,"Gangineni Cheruvu, Chittoor - APPCB",07-10-2025 07:00:00,13.204880,79.097889,CO,32,54,40
India,Andhra_Pradesh,Amaravati,"Secretariat, Amaravati - APPCB",07-10-2025 07:00:00,16.5150833,80.5181667,OZONE,6,26,16
India,Andhra_Pradesh,Vijayawada,"Rajiv Nagar, Vijayawada - APPCB",07-10-2025 07:00:00,16.554731,80.649110,CO,22,36,24
India,Andhra_Pradesh,Tirupati,"Vaikuntapuram, Tirupati - APPCB",07-10-2025 07:00:00,13.615387,79.409230,NO2,4,7,6
India,Assam,Guwahati,"LGBI Airport, Guwahati - PCBA",07-10-2025 07:00:00,26.10887,91.589544,NO2,11,154,23
India,Assam,Guwahati,"LGBI Airport, Guwahati - PCBA",07-10-2025 07:00:00,26.10887,91.589544,OZONE,14,16,15
India,Assam,Guwahati,"Pan Bazaar, Guwahati - PCBA",07-10-2025 07:00:00,26.187500,91.744194,PM2.5,9,62,31
India,Assam,Guwahati,"Railway Colony, Guwahati - PCBA",07-10-2025 07:00:00,26.181742,91.78063,PM2.5,18,190,60
India,Assam,Nagaon,"Christianpatty, Nagaon - PCBA",07-10-2025 07:00:00,26.349082,92.68449,PM2.5,53,59,56
India,Assam,Nagaon,"Christianpatty, Nagaon - PCBA",07-10-2025 07:00:00,26.349082,92.68449,NO2,1,1,1
India,Assam,Nagaon,"Christianpatty, Nagaon - PCBA",07-10-2025 07:00:00,26.349082,92.68449,NH3,4,4,4
India,Assam,Nagaon,"Christianpatty, Nagaon - PCBA",07-10-2025 07:00:00,26.349082,92.68449,OZONE,8,9,9
India,Assam,Silchar,"Tarapur, Silchar - PCBA",07-10-2025 07:00:00,24.82827,92.79525,PM2.5,38,43,42
India,Bihar,Arrah,"New DM Office, Arrah - BSPCB",07-10-2025 07:00:00,25.5626095,84.663264,SO2,8,10,10
India,Bihar,Arrah,"New DM Office, Arrah - BSPCB",07-10-2025 07:00:00,25.5626095,84.663264,CO,44,66,55
India,Bihar,Arrah,"New DM Office, Arrah - BSPCB",07-10-2025 07:00:00,25.5626095,84.663264,OZONE,7,17,8
India,Bihar,Aurangabad,"Gurdeo Nagar, Aurangabad - BSPCB",07-10-2025 07:00:00,24.75746,84.366208,PM10,3,14,8
India,Bihar,Araria,"Kharahiya Basti, Araria - BSPCB",07-10-2025 07:00:00,26.146529,87.454184,NO2,13,111,43
India,Assam,Guwahati,"LGBI Airport, Guwahati - PCBA",07-10-2025 07:00:00,26.10887,91.589544,PM10,25,36,31
India,Bihar,Araria,"Kharahiya Basti, Araria - BSPCB",07-10-2025 07:00:00,26.146529,87.454184,CO,8,40,29
India,Assam,Guwahati,"IITG, Guwahati - PCBA",07-10-2025 07:00:00,26.2028636,91.70046436,PM2.5,2,61,31
India,Assam,Silchar,"Tarapur, Silchar - PCBA",07-10-2025 07:00:00,24.82827,92.79525,SO2,3,6,5
India,Bihar,Aurangabad,"Gurdeo Nagar, Aurangabad - BSPCB",07-10-2025 07:00:00,24.75746,84.366208,OZONE,3,27,8
India,Bihar,Begusarai,"Lohiyanagar, Begusarai - BSPCB",07-10-2025 07:00:00,25.42742023,86.13886079,PM2.5,12,35,20
India,Bihar,Begusarai,"Lohiyanagar, Begusarai - BSPCB",07-10-2025 07:00:00,25.42742023,86.13886079,NO2,10,25,16
India,Bihar,Begusarai,"Lohiyanagar, Begusarai - BSPCB",07-10-2025 07:00:00,25.42742023,86.13886079,SO2,28,47,38
India,Bihar,Bhagalpur,"DM Office_Kachari Chowk, Bhagalpur - BSPCB",07-10-2025 07:00:00,25.251013,86.989001,PM2.5,37,80,52
India,Bihar,Bhagalpur,"DM Office_Kachari Chowk, Bhagalpur - BSPCB",07-10-2025 07:00:00,25.251013,86.989001,NO2,15,19,17
India,Bihar,Bhagalpur,"DM Office_Kachari Chowk, Bhagalpur - BSPCB",07-10-2025 07:00:00,25.251013,86.989001,OZONE,4,28,15
India,Bihar,Gaya,"SFTI Kusdihra, Gaya - BSPCB",07-10-2025 07:00:00,24.762518,84.982348,OZONE,8,19,11
India,Bihar,Hajipur,"Industrial Area, Hajipur - BSPCB",07-10-2025 07:00:00,25.697189,85.245900,PM2.5,26,92,51
India,Bihar,Bihar Sharif,"D M Colony, Bihar Sharif - BSPCB",07-10-2025 07:00:00,25.204762,85.514960,CO,2,20,8
India,Bihar,Bihar Sharif,"D M Colony, Bihar Sharif - BSPCB",07-10-2025 07:00:00,25.204762,85.514960,OZONE,19,54,32
India,Bihar,Kishanganj,"SDM Office_Khagra, Kishanganj - BSPCB",07-10-2025 07:00:00,26.0881305,87.93840336,PM10,NA,NA,NA
India,Bihar,Kishanganj,"SDM Office_Khagra, Kishanganj - BSPCB",07-10-2025 07:00:00,26.0881305,87.93840336,NH3,NA,NA,NA
India,Bihar,Manguraha,"Forest Rest House, Manguraha - BSPCB",07-10-2025 07:00:00,27.308328,84.531742,SO2,16,19,17
India,Bihar,Bihar Sharif,"D M Colony, Bihar Sharif - BSPCB",07-10-2025 07:00:00,25.204762,85.514960,PM10,62,76,68
India,Bihar,Bhagalpur,"Mayaganj, Bhagalpur - BSPCB",07-10-2025 07:00:00,25.265194,87.012947,OZONE,18,46,27
India,Bihar,Katihar,"Mirchaibari, Katihar - BSPCB",07-10-2025 07:00:00,25.560083,87.553265,NO2,NA,NA,NA
India,Bihar,Gaya,"Kareemganj, Gaya - BSPCB",07-10-2025 07:00:00,24.792403,84.992416,NH3,4,6,5
India,Bihar,Samastipur,"DM Office_Kasipur, Samastipur - BSPCB",07-10-2025 07:00:00,25.859655,85.77944,PM10,6,125,57
India,Bihar,Sasaram,"Dada Peer, Sasaram - BSPCB",07-10-2025 07:00:00,24.952822,84.002396,PM10,29,111,65
India,Bihar,Siwan,"Chitragupta Nagar, Siwan - BSPCB",07-10-2025 07:00:00,26.2271665,84.3570427,PM2.5,7,85,44
India,Bihar,Siwan,"Chitragupta Nagar, Siwan - BSPCB",07-10-2025 07:00:00,26.2271665,84.3570427,NH3,1,1,1
India,Bihar,Siwan,"Chitragupta Nagar, Siwan - BSPCB",07-10-2025 07:00:00,26.2271665,84.3570427,SO2,4,6,5
India,Chandigarh,Chandigarh,"Sector 22, Chandigarh - CPCC",07-10-2025 07:00:00,30.735567,76.775714,NH3,7,13,10
India,Chandigarh,Chandigarh,"Sector 22, Chandigarh - CPCC",07-10-2025 07:00:00,30.735567,76.775714,CO,28,86,48
India,Chandigarh,Chandigarh,"Sector 22, Chandigarh - CPCC",07-10-2025 07:00:00,30.735567,76.775714,OZONE,5,47,21
India,Bihar,Munger,"Town Hall, Munger - BSPCB",07-10-2025 07:00:00,25.376776,86.471523,OZONE,9,26,10
India,Bihar,Muzaffarpur,"MIT-Daudpur Kothi, Muzaffarpur - BSPCB",07-10-2025 07:00:00,26.1403345,85.3650192,NH3,NA,NA,NA
India,Bihar,Muzaffarpur,"Muzaffarpur Collectorate, Muzaffarpur - BSPCB",07-10-2025 07:00:00,26.1209,85.3647,PM2.5,28,63,43
India,Bihar,Muzaffarpur,"Muzaffarpur Collectorate, Muzaffarpur - BSPCB",07-10-2025 07:00:00,26.1209,85.3647,CO,16,48,21
India,Bihar,Purnia,"Mariam Nagar, Purnia - BSPCB",07-10-2025 07:00:00,25.366336,87.117468,SO2,NA,NA,NA
India,Bihar,Rajgir,"Dangi Tola, Rajgir - BSPCB",07-10-2025 07:00:00,25.03280,85.41948,OZONE,31,35,32
India,Bihar,Saharsa,"Police Line, Saharsa - BSPCB",07-10-2025 07:00:00,25.892357,86.590325,PM2.5,NA,NA,NA
India,Bihar,Motihari,"Gandak Colony, Motihari - BSPCB",07-10-2025 07:00:00,26.63086,84.90051,NH3,3,3,3
India,Bihar,Motihari,"Gandak Colony, Motihari - BSPCB",07-10-2025 07:00:00,26.63086,84.90051,CO,30,38,34
India,Bihar,Patna,"Govt. High School Shikarpur, Patna - BSPCB",07-10-2025 07:00:00,25.592539,85.227158,CO,16,32,24
India,Bihar,Patna,"Rajbansi Nagar, Patna - BSPCB",07-10-2025 07:00:00,25.599486,85.113666,PM2.5,19,48,28
India,Chandigarh,Chandigarh,"Sector-25, Chandigarh - CPCC",07-10-2025 07:00:00,30.751462,76.762879,NH3,6,8,7
India,Bihar,Patna,"DRM Office Danapur, Patna - BSPCB",07-10-2025 07:00:00,25.586562,85.043586,SO2,1,2,2
India,Bihar,Patna,"Muradpur, Patna - BSPCB",07-10-2025 07:00:00,25.619651,85.147382,PM2.5,47,60,53
India,Chhattisgarh,Korba,"Urja Nagar, Korba - CECB",07-10-2025 07:00:00,22.348441,82.549611,NO2,21,25,23
India,Chhattisgarh,Kunjemura,"OP Jindal School, Kunjemura - CECB",07-10-2025 07:00:00,22.126650,83.483212,PM10,13,68,31
India,Chhattisgarh,Kunjemura,"OP Jindal School, Kunjemura - CECB",07-10-2025 07:00:00,22.126650,83.483212,NO2,3,3,3
India,Chhattisgarh,Kunjemura,"OP Jindal School, Kunjemura - CECB",07-10-2025 07:00:00,22.126650,83.483212,OZONE,6,11,9
India,Chhattisgarh,Milupara,"Govt. Higher Secondary School, Milupara - CECB",07-10-2025 07:00:00,22.1910172,83.5197009,NO2,NA,NA,NA
India,Chhattisgarh,Milupara,"Govt. Higher Secondary School, Milupara - CECB",07-10-2025 07:00:00,22.1910172,83.5197009,OZONE,NA,NA,NA
India,Chhattisgarh,Raipur,"AIIMS, Raipur - CECB",07-10-2025 07:00:00,21.258815,81.578979,PM2.5,NA,NA,NA
India,Chhattisgarh,Chhal,"Nawapara SECL Colony, Chhal - CECB",07-10-2025 07:00:00,22.118125,83.140608,OZONE,NA,NA,NA
India,Chhattisgarh,Korba,"Rampur, Korba - CECB",07-10-2025 07:00:00,22.368195,82.746431,PM2.5,11,11,11
India,Chhattisgarh,Bilaspur,"Mangala, Bilaspur - NTPC",07-10-2025 07:00:00,22.08815,82.13737,SO2,10,16,12
India,Chhattisgarh,Bilaspur,"Mangala, Bilaspur - NTPC",07-10-2025 07:00:00,22.08815,82.13737,CO,20,32,21
India,Chhattisgarh,Bhilai,"Civic Center, Bhilai - Bhilai Steel Plant",07-10-2025 07:00:00,21.185571,81.343175,OZONE,5,13,10
India,Chhattisgarh,Chhal,"Nawapara SECL Colony, Chhal - CECB",07-10-2025 07:00:00,22.118125,83.140608,PM10,NA,NA,NA
India,Chandigarh,Chandigarh,"Sector-53, Chandigarh - CPCC",07-10-2025 07:00:00,30.719859,76.738637,OZONE,2,15,4
India,Chandigarh,Chandigarh,"Sector-53, Chandigarh - CPCC",07-10-2025 07:00:00,30.719859,76.738637,SO2,6,21,13
India,Chandigarh,Chandigarh,"Sector-53, Chandigarh - CPCC",07-10-2025 07:00:00,30.719859,76.738637,PM2.5,NA,NA,NA
India,Chhattisgarh,Bilaspur,"Mangala, Bilaspur - NTPC",07-10-2025 07:00:00,22.08815,82.13737,NO2,18,21,19
India,Chhattisgarh,Raipur,"Siltara Phase-II, Raipur - CECB",07-10-2025 07:00:00,21.371751,81.664929,CO,12,36,34
India,Chhattisgarh,Tumidih,"OP Jindal Industrial Park, Tumidih - CECB",07-10-2025 07:00:00,22.06631475,83.33820077,NO2,NA,NA,NA
India,Chhattisgarh,Tumidih,"OP Jindal Industrial Park, Tumidih - CECB",07-10-2025 07:00:00,22.06631475,83.33820077,SO2,NA,NA,NA
India,Delhi,Delhi,"Alipur, Delhi - DPCC",07-10-2025 07:00:00,28.815329,77.153010,SO2,3,6,4
India,Delhi,Delhi,"Anand Vihar, Delhi - DPCC",07-10-2025 07:00:00,28.647622,77.3158090,CO,44,68,54
India,Delhi,Delhi,"Anand Vihar, Delhi - DPCC",07-10-2025 07:00:00,28.647622,77.3158090,OZONE,1,15,2
India,Delhi,Delhi,"Ashok Vihar, Delhi - DPCC",07-10-2025 07:00:00,28.695381,77.181665,PM10,28,126,67
India,Chhattisgarh,Raipur,"AIIMS, Raipur - CECB",07-10-2025 07:00:00,21.258815,81.578979,NO2,9,12,10
India,Chhattisgarh,Raipur,"AIIMS, Raipur - CECB",07-10-2025 07:00:00,21.258815,81.578979,OZONE,5,7,5
India,Chhattisgarh,Raipur,"Bhatagaon New ISBT, Raipur - CECB",07-10-2025 07:00:00,21.219665,81.630094,NH3,2,2,2
India,Chhattisgarh,Raipur,"Siltara Phase-II, Raipur - CECB",07-10-2025 07:00:00,21.371751,81.664929,NH3,3,3,3
India,Delhi,Delhi,"Burari Crossing, Delhi - IMD",07-10-2025 07:00:00,28.7256504,77.2011573,NO2,17,29,21
India,Delhi,Delhi,"Burari Crossing, Delhi - IMD",07-10-2025 07:00:00,28.7256504,77.2011573,CO,16,38,24
India,Delhi,Delhi,"DTU, Delhi - CPCB",07-10-2025 07:00:00,28.7500499,77.1112615,PM2.5,8,46,28
India,Delhi,Delhi,"DTU, Delhi - CPCB",07-10-2025 07:00:00,28.7500499,77.1112615,SO2,19,28,26
India,Delhi,Delhi,"Dr. Karni Singh Shooting Range, Delhi - DPCC",07-10-2025 07:00:00,28.498571,77.264840,CO,1,36,12
India,Delhi,Delhi,"Dwarka-Sector 8, Delhi - DPCC ",07-10-2025 07:00:00,28.5710274,77.0719006,NH3,4,6,5
India,Delhi,Delhi,"Aya Nagar, Delhi - IMD",07-10-2025 07:00:00,28.4706914,77.1099364,OZONE,12,49,28
India,Delhi,Delhi,"Bawana, Delhi - DPCC",07-10-2025 07:00:00,28.776200,77.051074,NO2,6,27,15
India,Delhi,Delhi,"IHBAS, Dilshad Garden, Delhi - CPCB",07-10-2025 07:00:00,28.6811736,77.3025234,OZONE,9,14,10
India,Delhi,Delhi,"Lodhi Road, Delhi - IITM",07-10-2025 07:00:00,28.588333,77.221667,PM2.5,24,76,40
India,Delhi,Delhi,"Ashok Vihar, Delhi - DPCC",07-10-2025 07:00:00,28.695381,77.181665,CO,28,52,37
India,Delhi,Delhi,"ITO, Delhi - CPCB",07-10-2025 07:00:00,28.628624,77.241060,NO2,73,96,84
India,Delhi,Delhi,"Major Dhyan Chand National Stadium, Delhi - DPCC",07-10-2025 07:00:00,28.611281,77.237738,OZONE,5,39,14
India,Delhi,Delhi,"Mandir Marg, Delhi - DPCC",07-10-2025 07:00:00,28.636429,77.201067,PM10,NA,NA,NA
India,Delhi,Delhi,"Mandir Marg, Delhi - DPCC",07-10-2025 07:00:00,28.636429,77.201067,SO2,NA,NA,NA
India,Delhi,Delhi,"Mundka, Delhi - DPCC",07-10-2025 07:00:00,28.684678,77.076574,PM2.5,18,83,48
India,Delhi,Delhi,"Mundka, Delhi - DPCC",07-10-2025 07:00:00,28.684678,77.076574,NH3,3,4,4
India,Delhi,Delhi,"Mundka, Delhi - DPCC",07-10-2025 07:00:00,28.684678,77.076574,OZONE,7,36,15
India,Delhi,Delhi,"Najafgarh, Delhi - DPCC",07-10-2025 07:00:00,28.570173,76.933762,PM10,24,72,50
India,Delhi,Delhi,"Najafgarh, Delhi - DPCC",07-10-2025 07:00:00,28.570173,76.933762,NO2,26,102,78
India,Delhi,Delhi,"Najafgarh, Delhi - DPCC",07-10-2025 07:00:00,28.570173,76.933762,NH3,2,3,2
India,Delhi,Delhi,"Narela, Delhi - DPCC",07-10-2025 07:00:00,28.822836,77.101981,NH3,15,17,15
India,Delhi,Delhi,"Narela, Delhi - DPCC",07-10-2025 07:00:00,28.822836,77.101981,OZONE,2,30,7
India,Delhi,Delhi,"Nehru Nagar, Delhi - DPCC",07-10-2025 07:00:00,28.567890,77.250515,PM10,14,102,60
India,Delhi,Delhi,"Nehru Nagar, Delhi - DPCC",07-10-2025 07:00:00,28.567890,77.250515,NO2,19,62,44
India,Delhi,Delhi,"Okhla Phase-2, Delhi - DPCC",07-10-2025 07:00:00,28.530785,77.271255,NO2,NA,NA,NA
India,Delhi,Delhi,"Okhla Phase-2, Delhi - DPCC",07-10-2025 07:00:00,28.530785,77.271255,NH3,NA,NA,NA
India,Delhi,Delhi,"Pusa, Delhi - IMD",07-10-2025 07:00:00,28.636110,77.173332,OZONE,4,38,17
India,Delhi,Delhi,"R K Puram, Delhi - DPCC",07-10-2025 07:00:00,28.563262,77.186937,PM2.5,22,120,65
India,Delhi,Delhi,"R K Puram, Delhi - DPCC",07-10-2025 07:00:00,28.563262,77.186937,NO2,31,75,52
India,Delhi,Delhi,"Shadipur, Delhi - CPCB",07-10-2025 07:00:00,28.6514781,77.1473105,PM10,NA,NA,NA
India,Delhi,Delhi,"Shadipur, Delhi - CPCB",07-10-2025 07:00:00,28.6514781,77.1473105,OZONE,9,41,9
India,Delhi,Delhi,"Sirifort, Delhi - CPCB",07-10-2025 07:00:00,28.5504249,77.2159377,NO2,28,55,45
India,Delhi,Delhi,"Sirifort, Delhi - CPCB",07-10-2025 07:00:00,28.5504249,77.2159377,SO2,19,25,23
India,Delhi,Delhi,"Lodhi Road, Delhi - IITM",07-10-2025 07:00:00,28.588333,77.221667,NO2,8,45,22
India,Delhi,Delhi,"Lodhi Road, Delhi - IMD",07-10-2025 07:00:00,28.5918245,77.2273074,PM10,24,118,58
India,Delhi,Delhi,"Sonia Vihar, Delhi - DPCC",07-10-2025 07:00:00,28.710508,77.249485,PM10,23,108,60
India,Delhi,Delhi,"Sri Aurobindo Marg, Delhi - DPCC",07-10-2025 07:00:00,28.531346,77.190156,SO2,16,17,16
India,Delhi,Delhi,"Punjabi Bagh, Delhi - DPCC",07-10-2025 07:00:00,28.674045,77.131023,OZONE,6,44,15
India,Delhi,Delhi,"Vivek Vihar, Delhi - DPCC",07-10-2025 07:00:00,28.672342,77.315260,PM10,28,144,70
India,Delhi,Delhi,"Pusa, Delhi - DPCC",07-10-2025 07:00:00,28.639652,77.146275,NH3,10,24,20
India,Gujarat,Ankleshwar,"GIDC, Ankleshwar - GPCB",07-10-2025 07:00:00,21.613267,73.010555,NH3,5,6,6
India,Gujarat,Ankleshwar,"GIDC, Ankleshwar - GPCB",07-10-2025 07:00:00,21.613267,73.010555,CO,34,50,46
India,Gujarat,Ankleshwar,"GIDC, Ankleshwar - GPCB",07-10-2025 07:00:00,21.613267,73.010555,OZONE,49,55,50
India,Gujarat,Gandhinagar,"GIFT City, Gandhinagar - IITM",07-10-2025 07:00:00,23.163798,72.677768,PM10,21,45,33
India,Gujarat,Gandhinagar,"GIFT City, Gandhinagar - IITM",07-10-2025 07:00:00,23.163798,72.677768,SO2,3,10,6
India,Gujarat,Ahmedabad,"Chandkheda, Ahmedabad - IITM",07-10-2025 07:00:00,23.107969,72.574648,NO2,7,32,15
India,Gujarat,Ahmedabad,"Gyaspur, Ahmedabad - IITM",07-10-2025 07:00:00,22.977134,72.553024,PM10,20,147,56
India,Gujarat,Ahmedabad,"Rakhial, Ahmedabad - IITM",07-10-2025 07:00:00,23.016834,72.625775,NO2,10,81,25
India,Gujarat,Ahmedabad,"SAC ISRO Bopal, Ahmedabad - IITM",07-10-2025 07:00:00,23.041137,72.456691,PM2.5,1,32,12
India,Gujarat,Ahmedabad,"SVPI Airport Hansol, Ahmedabad - IITM",07-10-2025 07:00:00,23.076793,72.627874,NO2,9,49,19
India,Gujarat,Ahmedabad,"SVPI Airport Hansol, Ahmedabad - IITM",07-10-2025 07:00:00,23.076793,72.627874,NH3,1,2,1
India,Gujarat,Ahmedabad,"Maninagar, Ahmedabad - GPCB",07-10-2025 07:00:00,23.002657,72.591912,NO2,30,43,35
India,Gujarat,Ahmedabad,"Maninagar, Ahmedabad - GPCB",07-10-2025 07:00:00,23.002657,72.591912,SO2,24,37,29
India,Gujarat,Ahmedabad,"SAC ISRO Satellite, Ahmedabad - IITM",07-10-2025 07:00:00,23.023389,72.515201,OZONE,1,18,5
India,Gujarat,Ahmedabad,"Chandkheda, Ahmedabad - IITM",07-10-2025 07:00:00,23.107969,72.574648,PM10,19,67,32
India,Gujarat,Ahmedabad,"Gyaspur, Ahmedabad - IITM",07-10-2025 07:00:00,22.977134,72.553024,OZONE,44,81,56
India,Gujarat,Ahmedabad,"Gyaspur, Ahmedabad - IITM",07-10-2025 07:00:00,22.977134,72.553024,SO2,2,63,13
India,Haryana,Charkhi Dadri,"Mini Secretariat, Charkhi Dadri - HSPCB",07-10-2025 07:00:00,28.593883,76.270653,NH3,5,8,6
India,Haryana,Charkhi Dadri,"Mini Secretariat, Charkhi Dadri - HSPCB",07-10-2025 07:00:00,28.593883,76.270653,CO,8,25,15
India,Haryana,Dharuhera,"Municipal Corporation Office, Dharuhera -  HSPCB",07-10-2025 07:00:00,28.206800,76.799700,NO2,25,25,25
India,Haryana,Dharuhera,"Municipal Corporation Office, Dharuhera -  HSPCB",07-10-2025 07:00:00,28.206800,76.799700,NH3,10,10,10
India,Haryana,Dharuhera,"Municipal Corporation Office, Dharuhera -  HSPCB",07-10-2025 07:00:00,28.206800,76.799700,SO2,7,49,23
India,Gujarat,Vatva,"Phase-4 GIDC, Vatva - GPCB",07-10-2025 07:00:00,22.969611,72.643500,OZONE,15,28,23
India,Haryana,Ballabgarh,"Nathu Colony, Ballabgarh - HSPCB",07-10-2025 07:00:00,28.3419248,77.319699,PM10,23,77,41
India,Haryana,Ballabgarh,"Nathu Colony, Ballabgarh - HSPCB",07-10-2025 07:00:00,28.3419248,77.319699,NO2,19,21,20
India,Gujarat,Gandhinagar,"GIFT City, Gandhinagar - IITM",07-10-2025 07:00:00,23.163798,72.677768,OZONE,1,13,3
India,Gujarat,Gandhinagar,"IIPHG Lekawada, Gandhinagar - IITM",07-10-2025 07:00:00,23.243639,72.68994,PM2.5,13,35,21
India,Gujarat,Gandhinagar,"IIPHG Lekawada, Gandhinagar - IITM",07-10-2025 07:00:00,23.243639,72.68994,PM10,26,50,35
India,Gujarat,Vapi,"Phase-1 GIDC, Vapi - GPCB",07-10-2025 07:00:00,20.362421,72.918013,SO2,40,43,42
India,Gujarat,Vatva,"Phase-4 GIDC, Vatva - GPCB",07-10-2025 07:00:00,22.969611,72.643500,NO2,9,25,18
India,Gujarat,Vatva,"Phase-4 GIDC, Vatva - GPCB",07-10-2025 07:00:00,22.969611,72.643500,NH3,1,3,2
India,Haryana,Faridabad,"New Industrial Town, Faridabad - HSPCB",07-10-2025 07:00:00,28.39072,77.30059,PM2.5,121,147,132
India,Haryana,Faridabad,"New Industrial Town, Faridabad - HSPCB",07-10-2025 07:00:00,28.39072,77.30059,NO2,24,26,25
India,Haryana,Faridabad,"New Industrial Town, Faridabad - HSPCB",07-10-2025 07:00:00,28.39072,77.30059,NH3,11,12,11
India,Haryana,Gurugram,"Vikas Sadan, Gurugram - HSPCB",07-10-2025 07:00:00,28.4501238,77.0263051,PM2.5,33,33,33
India,Haryana,Kurukshetra,"Sector-7, Kurukshetra - HSPCB",07-10-2025 07:00:00,29.966942,76.875879,NO2,16,22,19
India,Gujarat,Nandesari,"GIDC, Nandesari - Nandesari Ind. Association",07-10-2025 07:00:00,22.410802,73.097923,PM10,NA,NA,NA
India,Haryana,Faridabad,"New Industrial Town, Faridabad - HSPCB",07-10-2025 07:00:00,28.39072,77.30059,SO2,8,9,8
India,Haryana,Bhiwani,"H.B. Colony, Bhiwani - HSPCB",07-10-2025 07:00:00,28.806223,76.141105,CO,5,14,13
India,Jammu_and_Kashmir,Srinagar,"Rajbagh, Srinagar - JKSPCB",07-10-2025 07:00:00,34.066206,74.819820,SO2,3,4,3
India,Jharkhand,Dhanbad,"Sardar Patel Nagar, Dhanbad - JSPCB",07-10-2025 07:00:00,23.80569,86.44268,SO2,NA,NA,NA
India,Haryana,Mandikhera,"General Hospital, Mandikhera - HSPCB",07-10-2025 07:00:00,27.9002,76.9938,PM10,20,180,53
India,Haryana,Mandikhera,"General Hospital, Mandikhera - HSPCB",07-10-2025 07:00:00,27.9002,76.9938,CO,100,102,102
India,Haryana,Mandikhera,"General Hospital, Mandikhera - HSPCB",07-10-2025 07:00:00,27.9002,76.9938,OZONE,16,25,16
India,Haryana,Palwal,"Shyam Nagar, Palwal - HSPCB",07-10-2025 07:00:00,28.1485564,77.3320667,SO2,NA,NA,NA
India,Haryana,Panchgaon,"Amity University, Panchgaon - IITM",07-10-2025 07:00:00,28.3153,76.9143,PM10,10,85,30
India,Haryana,Narnaul,"Shastri Nagar, Narnaul - HSPCB",07-10-2025 07:00:00,28.060249,76.113115,CO,24,34,28
India,Haryana,Palwal,"Shyam Nagar, Palwal - HSPCB",07-10-2025 07:00:00,28.1485564,77.3320667,NH3,NA,NA,NA
India,Himachal Pradesh,Baddi,"HIMUDA Complex Phase-1, Baddi - HPPCB",07-10-2025 07:00:00,30.943887,76.801991,PM2.5,3,247,74
India,Himachal Pradesh,Baddi,"HIMUDA Complex Phase-1, Baddi - HPPCB",07-10-2025 07:00:00,30.943887,76.801991,NH3,3,12,4
India,Karnataka,Bengaluru,"Bapuji Nagar, Bengaluru - KSPCB",07-10-2025 07:00:00,12.951913,77.539784,PM2.5,23,278,82
India,Haryana,Manesar,"Sector-2 IMT, Manesar - HSPCB",07-10-2025 07:00:00,28.360699,76.936090,PM10,17,67,42
India,Haryana,Panchgaon,"Amity University, Panchgaon - IITM",07-10-2025 07:00:00,28.3153,76.9143,SO2,2,7,5
India,Karnataka,Davanagere,"Devaraj Urs Badavane, Davanagere - KSPCB",07-10-2025 07:00:00,14.475800,75.905200,SO2,4,8,5
India,Karnataka,Dharwad,"Kalabhavan, Dharwad - KSPCB",07-10-2025 07:00:00,15.459706,75.008381,SO2,2,3,3
India,Karnataka,Haveri,"Ashwini Nagar, Haveri - KSPCB",07-10-2025 07:00:00,14.791800,75.389600,PM10,35,53,41
India,Karnataka,Haveri,"Ashwini Nagar, Haveri - KSPCB",07-10-2025 07:00:00,14.791800,75.389600,NH3,3,3,3
India,Karnataka,Kalaburagi,"Mahatma Basaveswar Colony, Kalaburgi - KSPCB",07-10-2025 07:00:00,17.336318,76.847397,NO2,11,19,14
India,Karnataka,Kalaburagi,"Mahatma Basaveswar Colony, Kalaburgi - KSPCB",07-10-2025 07:00:00,17.336318,76.847397,OZONE,13,13,13
India,Karnataka,Koppal,"Diwator Nagar, Koppal - KSPCB",07-10-2025 07:00:00,15.347630,76.181767,NO2,NA,NA,NA
India,Karnataka,Koppal,"Diwator Nagar, Koppal - KSPCB",07-10-2025 07:00:00,15.347630,76.181767,NH3,NA,NA,NA
India,Karnataka,Bengaluru,"Hebbal, Bengaluru - KSPCB",07-10-2025 07:00:00,13.029152,77.585901,PM10,18,60,37
India,Karnataka,Bengaluru,"Hebbal, Bengaluru - KSPCB",07-10-2025 07:00:00,13.029152,77.585901,SO2,1,7,2
India,Karnataka,Bengaluru,"Hombegowda Nagar, Bengaluru - KSPCB",07-10-2025 07:00:00,12.938539,77.590100,PM10,31,89,52
India,Karnataka,Bengaluru,"Hombegowda Nagar, Bengaluru - KSPCB",07-10-2025 07:00:00,12.938539,77.590100,NO2,7,43,22
India,Karnataka,Chamarajanagar,"Urban, Chamarajanagar - KSPCB",07-10-2025 07:00:00,11.55358,76.55521,SO2,2,7,4
India,Karnataka,Chamarajanagar,"Urban, Chamarajanagar - KSPCB",07-10-2025 07:00:00,11.55358,76.55521,OZONE,14,38,15
India,Karnataka,Chikkamagaluru,"Kalyana Nagara, Chikkamagaluru - KSPCB",07-10-2025 07:00:00,13.328028,75.797056,PM2.5,NA,NA,NA
India,Karnataka,Bengaluru,"Jayanagar 5th Block, Bengaluru - KSPCB",07-10-2025 07:00:00,12.920984,77.584908,CO,4,119,48
India,Karnataka,Bengaluru,"Silk Board, Bengaluru - KSPCB",07-10-2025 07:00:00,12.917348,77.622813,PM2.5,23,77,46
India,Karnataka,Mysuru,"Hebbal 1st Stage, Mysuru - KSPCB",07-10-2025 07:00:00,12.21041,76.37376,PM2.5,14,45,26
India,Karnataka,Bengaluru,"Silk Board, Bengaluru - KSPCB",07-10-2025 07:00:00,12.917348,77.622813,OZONE,10,17,10
India,Karnataka,Bengaluru,"Peenya, Bengaluru - CPCB",07-10-2025 07:00:00,13.0270199,77.494094,NO2,17,24,21
India,Karnataka,Mysuru,"Hebbal 1st Stage, Mysuru - KSPCB",07-10-2025 07:00:00,12.21041,76.37376,OZONE,7,67,10
India,Karnataka,Shivamogga,"Vinoba Nagara, Shivamogga - KSPCB",07-10-2025 07:00:00,13.940000,75.555917,PM10,33,68,47
India,Karnataka,Shivamogga,"Vinoba Nagara, Shivamogga - KSPCB",07-10-2025 07:00:00,13.940000,75.555917,CO,20,39,34
India,Madhya Pradesh,Bhopal,"Idgah Hills, Bhopal - MPPCB",07-10-2025 07:00:00,23.264759,77.381568,CO,19,38,25
India,Madhya Pradesh,Bhopal,"Idgah Hills, Bhopal - MPPCB",07-10-2025 07:00:00,23.264759,77.381568,OZONE,12,23,17
India,Madhya Pradesh,Bhopal,"Paryavaran Parisar, Bhopal - MPPCB",07-10-2025 07:00:00,23.210494,77.425409,NH3,2,3,2
India,Kerala,Kollam,"Polayathode, Kollam - Kerala PCB",07-10-2025 07:00:00,8.8787,76.6073,PM2.5,NA,NA,NA
India,Kerala,Thiruvananthapuram,"Kariavattom, Thiruvananthapuram - Kerala PCB",07-10-2025 07:00:00,8.563700,76.886500,PM10,45,62,57
India,Kerala,Thiruvananthapuram,"Plammoodu, Thiruvananthapuram - Kerala PCB",07-10-2025 07:00:00,8.5149093,76.9435879,NO2,34,78,53
India,Kerala,Thiruvananthapuram,"Plammoodu, Thiruvananthapuram - Kerala PCB",07-10-2025 07:00:00,8.5149093,76.9435879,SO2,10,19,15
India,Kerala,Thiruvananthapuram,"Plammoodu, Thiruvananthapuram - Kerala PCB",07-10-2025 07:00:00,8.5149093,76.9435879,OZONE,14,16,15
India,Madhya Pradesh,Bhopal,"T T Nagar, Bhopal - MPPCB",07-10-2025 07:00:00,23.233584,77.400574,CO,24,46,33
India,Madhya Pradesh,Dewas,"Bhopal Chauraha, Dewas - MPPCB",07-10-2025 07:00:00,22.9682591,76.064118,SO2,14,35,21
India,Karnataka,Mysuru,"Hebbal 1st Stage, Mysuru - KSPCB",07-10-2025 07:00:00,12.21041,76.37376,NO2,12,33,20
India,Karnataka,Yadgir,"Collector Office, Yadgir - KSPCB",07-10-2025 07:00:00,16.7602,77.1428,SO2,5,35,16
India,Kerala,Eloor,"Udyogamandal, Eloor - Kerala PCB",07-10-2025 07:00:00,10.073232,76.302765,OZONE,10,13,11
India,Kerala,Kannur,"Thavakkara, Kannur - Kerala PCB",07-10-2025 07:00:00,11.875000,75.373200,NH3,2,2,2
India,Madhya Pradesh,Katni,"Gole Bazar, Katni - MPPCB",07-10-2025 07:00:00,23.50016,80.23284,OZONE,14,76,21
India,Madhya Pradesh,Mandideep,"Sector-D Industrial Area, Mandideep - MPPCB",07-10-2025 07:00:00,23.108440,77.511428,OZONE,17,53,26
India,Madhya Pradesh,Pithampur,"Sector-2 Industrial Area, Pithampur - MPPCB",07-10-2025 07:00:00,22.624758,75.675238,NO2,11,43,20
India,Madhya Pradesh,Gwalior,"City Center, Gwalior - MPPCB",07-10-2025 07:00:00,26.203442,78.193251,OZONE,3,31,14
India,Madhya Pradesh,Gwalior,"Deen Dayal Nagar, Gwalior - MPPCB",07-10-2025 07:00:00,26.259242,78.216432,PM10,41,96,66
India,Madhya Pradesh,Gwalior,"Deen Dayal Nagar, Gwalior - MPPCB",07-10-2025 07:00:00,26.259242,78.216432,NO2,5,19,10
India,Madhya Pradesh,Jabalpur,"Gupteshwar, Jabalpur - JMC",07-10-2025 07:00:00,23.142888,79.916147,NO2,10,38,18
India,Madhya Pradesh,Jabalpur,"Marhatal, Jabalpur - MPPCB",07-10-2025 07:00:00,23.168606,79.932247,PM10,39,91,58
India,Madhya Pradesh,Jabalpur,"Marhatal, Jabalpur - MPPCB",07-10-2025 07:00:00,23.168606,79.932247,NO2,12,44,24
India,Madhya Pradesh,Jabalpur,"Suhagi, Jabalpur - JMC",07-10-2025 07:00:00,23.218135,79.957770,CO,6,96,25
India,Madhya Pradesh,Katni,"Gole Bazar, Katni - MPPCB",07-10-2025 07:00:00,23.50016,80.23284,NH3,3,3,3
India,Madhya Pradesh,Gwalior,"Maharaj Bada, Gwalior - MPPCB",07-10-2025 07:00:00,26.200388,78.147714,PM2.5,23,63,40
India,Madhya Pradesh,Gwalior,"Maharaj Bada, Gwalior - MPPCB",07-10-2025 07:00:00,26.200388,78.147714,NO2,14,39,22
India,Madhya Pradesh,Gwalior,"Maharaj Bada, Gwalior - MPPCB",07-10-2025 07:00:00,26.200388,78.147714,CO,3,50,24
India,Madhya Pradesh,Jabalpur,"Govindh Bhavan Colony, Jabalpur - JMC",07-10-2025 07:00:00,23.163174,79.973061,CO,12,66,54
India,Madhya Pradesh,Jabalpur,"Gupteshwar, Jabalpur - JMC",07-10-2025 07:00:00,23.142888,79.916147,PM2.5,15,33,24
India,Madhya Pradesh,Indore,"Chhoti Gwaltoli, Indore - MPPCB",07-10-2025 07:00:00,22.4310,75.5213,PM2.5,23,82,48
India,Madhya Pradesh,Indore,"Chhoti Gwaltoli, Indore - MPPCB",07-10-2025 07:00:00,22.4310,75.5213,CO,20,74,38
India,Madhya Pradesh,Gwalior,"City Center, Gwalior - MPPCB",07-10-2025 07:00:00,26.203442,78.193251,SO2,4,57,26
India,Madhya Pradesh,Indore,"Regional Park, Indore - IMC",07-10-2025 07:00:00,22.6780,75.8559,CO,14,22,19
India,Maharashtra,Amravati,"Shivneri Colony, Amravati - MPCB",07-10-2025 07:00:00,20.9402359,77.7895248,SO2,1,6,4
India,Maharashtra,Amravati,"Shri Shivaji Science College, Amravati - MPCB",07-10-2025 07:00:00,20.939198,77.765701,NO2,3,26,8
India,Maharashtra,Aurangabad,"MIDC Chilkalthana, Aurangabad - MPCB",07-10-2025 07:00:00,19.875620,75.387310,SO2,1,2,1
India,Maharashtra,Aurangabad,"MIDC Chilkalthana, Aurangabad - MPCB",07-10-2025 07:00:00,19.875620,75.387310,OZONE,3,66,15
India,Maharashtra,Boisar,"Khaira, Boisar - MPCB",07-10-2025 07:00:00,19.786089,72.757971,CO,2,48,21
India,Maharashtra,Chandrapur,"Chauhan Colony, Chandrapur - MPCB",07-10-2025 07:00:00,19.962900,79.298714,SO2,34,34,34
India,Maharashtra,Chandrapur,"Chauhan Colony, Chandrapur - MPCB",07-10-2025 07:00:00,19.962900,79.298714,CO,34,56,36
India,Maharashtra,Chandrapur,"MIDC Khutala, Chandrapur - MPCB",07-10-2025 07:00:00,19.9775302,79.2337086,NO2,1,6,4
India,Maharashtra,Aurangabad,"Rachnakar Colony, Aurangabad - MPCB",07-10-2025 07:00:00,19.863756,75.321188,SO2,8,29,16
India,Maharashtra,Aurangabad,"Rachnakar Colony, Aurangabad - MPCB",07-10-2025 07:00:00,19.863756,75.321188,CO,8,29,12
India,Maharashtra,Badlapur,"Katrap, Badlapur - MPCB",07-10-2025 07:00:00,19.16485,73.23409,SO2,4,20,8
India,Maharashtra,Badlapur,"Katrap, Badlapur - MPCB",07-10-2025 07:00:00,19.16485,73.23409,CO,23,46,33
India,Madhya Pradesh,Satna,"Bandhavgar Colony, Satna - Birla Cement",07-10-2025 07:00:00,24.58434363,80.8549414,PM2.5,42,46,44
India,Madhya Pradesh,Singrauli,"Suryakiran Bhawan NCL, Singrauli - MPPCB",07-10-2025 07:00:00,24.108970,82.645580,SO2,35,67,45
India,Madhya Pradesh,Singrauli,"Suryakiran Bhawan NCL, Singrauli - MPPCB",07-10-2025 07:00:00,24.108970,82.645580,OZONE,10,77,11
India,Madhya Pradesh,Ratlam,"Shasthri Nagar, Ratlam - IPCA Lab",07-10-2025 07:00:00,23.331731,75.045981,SO2,40,64,48
India,Madhya Pradesh,Sagar,"Civil Lines, Sagar - MPPCB",07-10-2025 07:00:00,23.838586,78.759431,SO2,7,12,10
India,Maharashtra,Belapur,"CBD Belapur, Belapur - MPCB",07-10-2025 07:00:00,19.0243902,73.0406721,PM2.5,25,44,33
India,Maharashtra,Belapur,"CBD Belapur, Belapur - MPCB",07-10-2025 07:00:00,19.0243902,73.0406721,PM10,36,64,47
India,Madhya Pradesh,Pithampur,"Sector-2 Industrial Area, Pithampur - MPPCB",07-10-2025 07:00:00,22.624758,75.675238,CO,24,60,35
India,Maharashtra,Aurangabad,"More Chowk Waluj, Aurangabad - MPCB",07-10-2025 07:00:00,19.8389439,75.244448,NH3,10,11,11
India,Maharashtra,Bhiwandi,"Gokul Nagar, Bhiwandi - MPCB",07-10-2025 07:00:00,19.309073,73.057223,SO2,4,27,12
India,Maharashtra,Mahad,"Kamble Tarf Birwadi, Mahad - MPCB",07-10-2025 07:00:00,18.1023399,73.4783687,PM2.5,14,123,37
India,Maharashtra,Mahad,"Kamble Tarf Birwadi, Mahad - MPCB",07-10-2025 07:00:00,18.1023399,73.4783687,NH3,3,6,4
India,Maharashtra,Malegaon,"Mahesh Nagar, Malegaon - MPCB",07-10-2025 07:00:00,20.555712,74.529236,OZONE,3,55,16
India,Maharashtra,Mumbai,"Bandra Kurla Complex, Mumbai - MPCB",07-10-2025 07:00:00,19.065931,72.862131,NH3,1,15,4
India,Maharashtra,Mumbai,"Chakala-Andheri East, Mumbai - IITM",07-10-2025 07:00:00,19.11074,72.86084,PM10,16,105,49
India,Maharashtra,Mumbai,"Chakala-Andheri East, Mumbai - IITM",07-10-2025 07:00:00,19.11074,72.86084,NH3,NA,NA,NA
India,Maharashtra,Mumbai,"Byculla, Mumbai - BMC",07-10-2025 07:00:00,18.9767,72.8380,PM10,21,67,36
India,Maharashtra,Mumbai,"Byculla, Mumbai - BMC",07-10-2025 07:00:00,18.9767,72.8380,NH3,2,12,5
India,Maharashtra,Dhule,"Deopur, Dhule - MPCB",07-10-2025 07:00:00,20.918946,74.776388,NO2,NA,NA,NA
India,Maharashtra,Dhule,"Deopur, Dhule - MPCB",07-10-2025 07:00:00,20.918946,74.776388,OZONE,3,88,19
India,Maharashtra,Kolhapur,"Sinchan Bhavan, Kolhapur - MPCB",07-10-2025 07:00:00,16.7143745,74.2426398,NO2,3,9,6
India,Maharashtra,Kolhapur,"Sinchan Bhavan, Kolhapur - MPCB",07-10-2025 07:00:00,16.7143745,74.2426398,SO2,1,2,1
India,Maharashtra,Kalyan,"Pimpleshwar Mandir, Kalyan - MPCB",07-10-2025 07:00:00,19.192056,72.9585188,CO,44,46,45
India,Maharashtra,Kolhapur,"Sinchan Bhavan, Kolhapur - MPCB",07-10-2025 07:00:00,16.7143745,74.2426398,CO,9,14,10
India,Maharashtra,Mumbai,"Borivali East, Mumbai - IITM",07-10-2025 07:00:00,19.23241,72.86895,CO,22,56,30
India,Maharashtra,Jalna,"Old MIDC, Jalna - MPCB",07-10-2025 07:00:00,19.854616,75.905894,NO2,NA,NA,NA
India,Maharashtra,Mumbai,"Khindipada-Bhandup West, Mumbai - IITM",07-10-2025 07:00:00,19.1653323,72.922099,NH3,4,6,5
India,Maharashtra,Mumbai,"Kurla, Mumbai - MPCB",07-10-2025 07:00:00,19.0863,72.8888,PM10,47,98,73
India,Maharashtra,Mumbai,"Kurla, Mumbai - MPCB",07-10-2025 07:00:00,19.0863,72.8888,NH3,1,2,1
India,Maharashtra,Mumbai,"Malad West, Mumbai - IITM",07-10-2025 07:00:00,19.19709,72.82204,PM2.5,6,46,17
India,Maharashtra,Mumbai,"Malad West, Mumbai - IITM",07-10-2025 07:00:00,19.19709,72.82204,SO2,6,10,8
India,Maharashtra,Mumbai,"Malad West, Mumbai - IITM",07-10-2025 07:00:00,19.19709,72.82204,CO,2,13,3
India,Maharashtra,Mumbai,"Malad West, Mumbai - IITM",07-10-2025 07:00:00,19.19709,72.82204,OZONE,3,46,4
India,Maharashtra,Mumbai,"Mazgaon, Mumbai - IITM",07-10-2025 07:00:00,18.96702,72.84214,SO2,5,13,8
India,Maharashtra,Mumbai,"Mazgaon, Mumbai - IITM",07-10-2025 07:00:00,18.96702,72.84214,OZONE,11,42,20
India,Maharashtra,Mumbai,"Mindspace-Malad West, Mumbai - MPCB",07-10-2025 07:00:00,19.1878657,72.8304069,SO2,15,15,15
India,Maharashtra,Mumbai,"Chembur, Mumbai - MPCB",07-10-2025 07:00:00,19.0364585,72.8954371,CO,18,44,25
India,Maharashtra,Mumbai,"Chhatrapati Shivaji Intl. Airport (T2), Mumbai - MPCB",07-10-2025 07:00:00,19.10078,72.87462,NH3,1,2,1
India,Maharashtra,Mumbai,"Colaba, Mumbai - MPCB",07-10-2025 07:00:00,18.910000,72.820000,PM10,26,133,56
India,Maharashtra,Mumbai,"Colaba, Mumbai - MPCB",07-10-2025 07:00:00,18.910000,72.820000,CO,23,26,24
India,Maharashtra,Mumbai,"Siddharth Nagar-Worli, Mumbai - IITM",07-10-2025 07:00:00,19.000083,72.813993,CO,2,47,35
India,Maharashtra,Mumbai,"Siddharth Nagar-Worli, Mumbai - IITM",07-10-2025 07:00:00,19.000083,72.813993,OZONE,1,28,6
India,Maharashtra,Mumbai,"Sion, Mumbai - MPCB",07-10-2025 07:00:00,19.047000,72.874600,NO2,12,20,15
India,Maharashtra,Mumbai,"Sion, Mumbai - MPCB",07-10-2025 07:00:00,19.047000,72.874600,NH3,1,2,2
India,Maharashtra,Mumbai,"Sion, Mumbai - MPCB",07-10-2025 07:00:00,19.047000,72.874600,CO,14,20,19
India,Maharashtra,Mumbai,"Kandivali East, Mumbai - MPCB",07-10-2025 07:00:00,19.205800,72.868200,PM2.5,27,75,46
India,Maharashtra,Mumbai,"Kandivali East, Mumbai - MPCB",07-10-2025 07:00:00,19.205800,72.868200,PM10,40,91,60
India,Maharashtra,Mumbai,"Kandivali East, Mumbai - MPCB",07-10-2025 07:00:00,19.205800,72.868200,NO2,6,14,9
India,Maharashtra,Mumbai,"Kandivali East, Mumbai - MPCB",07-10-2025 07:00:00,19.205800,72.868200,NH3,1,2,1
India,Maharashtra,Mumbai,"Kandivali East, Mumbai - MPCB",07-10-2025 07:00:00,19.205800,72.868200,CO,14,44,15
India,Maharashtra,Mumbai,"Kandivali West, Mumbai - BMC",07-10-2025 07:00:00,19.215859,72.831718,PM10,25,57,40
India,Maharashtra,Mumbai,"Kandivali West, Mumbai - BMC",07-10-2025 07:00:00,19.215859,72.831718,NO2,7,22,14
India,Maharashtra,Mumbai,"Khindipada-Bhandup West, Mumbai - IITM",07-10-2025 07:00:00,19.1653323,72.922099,NO2,5,20,10
India,Maharashtra,Mumbai,"Shivaji Nagar, Mumbai - BMC",07-10-2025 07:00:00,19.060498,72.923356,SO2,10,70,14
India,Maharashtra,Mumbai,"Sewri, Mumbai - BMC",07-10-2025 07:00:00,19.000084,72.856730,CO,2,130,62
India,Maharashtra,Mumbai,"Deonar, Mumbai - IITM",07-10-2025 07:00:00,19.04946,72.9230,SO2,3,27,6
India,Maharashtra,Nagpur,"Ram Nagar, Nagpur - MPCB",07-10-2025 07:00:00,21.143383,79.048912,NO2,15,16,16
India,Maharashtra,Nagpur,"Ram Nagar, Nagpur - MPCB",07-10-2025 07:00:00,21.143383,79.048912,NH3,2,7,4
India,Maharashtra,Nagpur,"Ram Nagar, Nagpur - MPCB",07-10-2025 07:00:00,21.143383,79.048912,SO2,5,23,8
India,Maharashtra,Nashik,"Gangapur Road, Nashik - MPCB",07-10-2025 07:00:00,20.0073285,73.7762427,PM2.5,18,67,43
India,Maharashtra,Nashik,"Gangapur Road, Nashik - MPCB",07-10-2025 07:00:00,20.0073285,73.7762427,SO2,1,6,3
India,Maharashtra,Nashik,"MIDC Ambad, Nashik - MPCB",07-10-2025 07:00:00,19.950220,73.731480,NO2,5,16,8
India,Maharashtra,Navi Mumbai,"Tondare-Taloja, Navi Mumbai - MPCB",07-10-2025 07:00:00,19.0630,73.1209,PM10,25,82,62
India,Maharashtra,Navi Mumbai,"Tondare-Taloja, Navi Mumbai - MPCB",07-10-2025 07:00:00,19.0630,73.1209,NO2,14,30,21
India,Maharashtra,Navi Mumbai,"Tondare-Taloja, Navi Mumbai - MPCB",07-10-2025 07:00:00,19.0630,73.1209,SO2,2,4,4
India,Maharashtra,Navi Mumbai,"Tondare-Taloja, Navi Mumbai - MPCB",07-10-2025 07:00:00,19.0630,73.1209,CO,12,42,30
India,Maharashtra,Parbhani,"Masoom Colony, Parbhani - MPCB",07-10-2025 07:00:00,19.265594,76.761463,OZONE,2,15,13
India,Maharashtra,Navi Mumbai,"Kopripada-Vashi, Navi Mumbai - MPCB",07-10-2025 07:00:00,19.090337,73.014232,CO,10,50,28
India,Maharashtra,Navi Mumbai,"Kopripada-Vashi, Navi Mumbai - MPCB",07-10-2025 07:00:00,19.090337,73.014232,OZONE,1,39,5
India,Maharashtra,Navi Mumbai,"Mahape, Navi Mumbai - MPCB",07-10-2025 07:00:00,19.1135051,73.008978,PM10,49,126,75
India,Maharashtra,Pimpri-Chinchwad,"Savta Mali Nagar, Pimpri-Chinchwad - IITM",07-10-2025 07:00:00,18.614767,73.799516,PM2.5,7,26,13
India,Maharashtra,Pimpri-Chinchwad,"Savta Mali Nagar, Pimpri-Chinchwad - IITM",07-10-2025 07:00:00,18.614767,73.799516,PM10,24,102,52
India,Maharashtra,Nagpur,"Ambazari, Nagpur - MPCB",07-10-2025 07:00:00,21.121801,79.04952,CO,6,46,13
India,Maharashtra,Nagpur,"Mahal, Nagpur - MPCB",07-10-2025 07:00:00,21.14472,79.107595,CO,26,112,44
India,Maharashtra,Nagpur,"Opp GPO Civil Lines, Nagpur - MPCB",07-10-2025 07:00:00,21.152875,79.0517531,PM2.5,5,67,41
India,Maharashtra,Nagpur,"Opp GPO Civil Lines, Nagpur - MPCB",07-10-2025 07:00:00,21.152875,79.0517531,CO,1,72,19
India,Maharashtra,Mumbai,"Worli, Mumbai - MPCB",07-10-2025 07:00:00,18.9936162,72.8128113,NH3,1,3,1
India,Maharashtra,Mumbai,"Worli, Mumbai - MPCB",07-10-2025 07:00:00,18.9936162,72.8128113,SO2,18,25,21
India,Maharashtra,Navi Mumbai,"Sector-2E Kalamboli, Navi Mumbai - MPCB",07-10-2025 07:00:00,19.02579,73.10297,NO2,NA,NA,NA
India,Maharashtra,Mumbai,"Vasai West, Mumbai - MPCB",07-10-2025 07:00:00,19.383200,72.820400,PM2.5,15,68,40
India,Maharashtra,Pune,"Mhada Colony, Pune - IITM",07-10-2025 07:00:00,18.573040,73.927715,PM10,66,97,79
India,Maharashtra,Pune,"Mhada Colony, Pune - IITM",07-10-2025 07:00:00,18.573040,73.927715,NO2,39,51,44
India,Maharashtra,Pune,"Mhada Colony, Pune - IITM",07-10-2025 07:00:00,18.573040,73.927715,OZONE,11,40,12
India,Maharashtra,Pune,"Panchawati_Pashan, Pune - IITM",07-10-2025 07:00:00,18.536457,73.805454,OZONE,7,49,11
India,Maharashtra,Pune,"Bhumkar Nagar, Pune - IITM",07-10-2025 07:00:00,18.605770,73.749976,PM10,35,106,66
India,Maharashtra,Pune,"Bhumkar Nagar, Pune - IITM",07-10-2025 07:00:00,18.605770,73.749976,CO,31,66,39
India,Maharashtra,Pune,"Hadapsar, Pune - IITM",07-10-2025 07:00:00,18.501793,73.927532,CO,11,24,14
India,Maharashtra,Pune,"Revenue Colony-Shivajinagar, Pune - IITM",07-10-2025 07:00:00,18.530085,73.849598,PM10,NA,NA,NA
India,Maharashtra,Pune,"Revenue Colony-Shivajinagar, Pune - IITM",07-10-2025 07:00:00,18.530085,73.849598,CO,1,200,151
India,Maharashtra,Solapur,"Ratandeep Housing Society, Solapur - MPCB",07-10-2025 07:00:00,17.65439,75.90649,PM2.5,29,113,56
India,Maharashtra,Pune,"Savitribai Phule Pune University, Pune - MPCB",07-10-2025 07:00:00,18.547056,73.826908,OZONE,8,21,8
India,Maharashtra,Pimpri-Chinchwad,"Thergaon, Pimpri Chinchwad - MPCB",07-10-2025 07:00:00,18.616318,73.765797,CO,8,41,16
India,Maharashtra,Pune,"Transport Nagar-Nigdi, Pune - IITM",07-10-2025 07:00:00,18.664282,73.763966,NO2,14,39,27
India,Maharashtra,Pune,"Katraj Dairy, Pune - MPCB",07-10-2025 07:00:00,18.454450,73.854155,CO,6,68,16
India,Maharashtra,Sangli,"Vijay Nagar, Sangli - MPCB",07-10-2025 07:00:00, 16.5038,74.3623,CO,25,50,25
India,Maharashtra,Thane,"Kasarvadavali, Thane - MPCB",07-10-2025 07:00:00,19.26777,72.97182,OZONE,22,37,32
India,Maharashtra,Thane,"Upvan Fort, Thane - MPCB",07-10-2025 07:00:00,19.222279,72.957979,PM10,38,87,57
India,Maharashtra,Thane,"Upvan Fort, Thane - MPCB",07-10-2025 07:00:00,19.222279,72.957979,NH3,NA,NA,NA
India,Maharashtra,Thane,"Upvan Fort, Thane - MPCB",07-10-2025 07:00:00,19.222279,72.957979,SO2,1,7,4
India,Maharashtra,Ulhasnagar,"Sidhi Vinayak Nagar, Ulhasnagar - MPCB",07-10-2025 07:00:00,19.235581,73.159121,OZONE,11,37,13
India,Maharashtra,Virar,"Bolinj, Virar - MPCB",07-10-2025 07:00:00,19.4458210,72.7988231,CO,17,92,46
India,Meghalaya,Shillong,"Lumpyngngad, Shillong - Meghalaya PCB",07-10-2025 07:00:00,25.5586,91.8985,CO,2,14,2
India,Nagaland,Kohima,"PWD Junction, Kohima - NPCB",07-10-2025 07:00:00,25.6635413,94.0989878,PM10,12,100,40
India,Nagaland,Kohima,"PWD Junction, Kohima - NPCB",07-10-2025 07:00:00,25.6635413,94.0989878,CO,4,12,5
India,Odisha,Angul,"Hakimapada, Angul - OSPCB",07-10-2025 07:00:00,20.832874,85.104082,SO2,6,12,9
India,Odisha,Talcher,"Talcher Coalfields,Talcher - OSPCB",07-10-2025 07:00:00,20.9360711,85.1707021,PM10,2,163,78
India,Odisha,Talcher,"Talcher Coalfields,Talcher - OSPCB",07-10-2025 07:00:00,20.9360711,85.1707021,OZONE,1,24,16
India,Punjab,Amritsar,"Golden Temple, Amritsar - PPCB",07-10-2025 07:00:00,31.620000,74.876512,NO2,4,10,6
India,Maharashtra,Solapur,"Ratandeep Housing Society, Solapur - MPCB",07-10-2025 07:00:00,17.65439,75.90649,NO2,9,55,25
India,Maharashtra,Solapur,"Ratandeep Housing Society, Solapur - MPCB",07-10-2025 07:00:00,17.65439,75.90649,CO,8,133,35
India,Maharashtra,Thane,"Kasarvadavali, Thane - MPCB",07-10-2025 07:00:00,19.26777,72.97182,NO2,10,31,18
India,Odisha,Nayagarh,"Dabuna, Nayagarh - OSPCB",07-10-2025 07:00:00,21.847279,85.416905,OZONE,12,17,16
India,Odisha,Rairangpur,"Divisional Forest Office, Rairangpur - OSPCB",07-10-2025 07:00:00,22.265816,86.174829,CO,18,46,28
India,Odisha,Rairangpur,"Divisional Forest Office, Rairangpur - OSPCB",07-10-2025 07:00:00,22.265816,86.174829,OZONE,17,25,18
India,Punjab,Bathinda,"Hardev Nagar, Bathinda - PPCB",07-10-2025 07:00:00,30.233011,74.907758,SO2,1,23,8
India,Punjab,Jalandhar,"Civil Line, Jalandhar - PPCB",07-10-2025 07:00:00,31.321907,75.578914,PM2.5,NA,NA,NA
India,Punjab,Jalandhar,"Civil Line, Jalandhar - PPCB",07-10-2025 07:00:00,31.321907,75.578914,NH3,NA,NA,NA
India,Odisha,Barbil,"Forest Office, Barbil - OSPCB",07-10-2025 07:00:00,22.1166054,85.3945546,PM2.5,17,67,38
India,Odisha,Barbil,"Forest Office, Barbil - OSPCB",07-10-2025 07:00:00,22.1166054,85.3945546,NH3,2,4,3
India,Odisha,Barbil,"Forest Office, Barbil - OSPCB",07-10-2025 07:00:00,22.1166054,85.3945546,SO2,8,21,11
India,Odisha,Baripada,"Meher Colony, Baripada - OSPCB",07-10-2025 07:00:00,21.941841,86.728318,NH3,1,2,1
India,Odisha,Bhubaneswar,"Patia, Bhubaneswar - OSPCB",07-10-2025 07:00:00,20.34652,85.81630,SO2,2,4,3
India,Punjab,Mandi Gobindgarh,"RIMT University, Mandi Gobindgarh - PPCB",07-10-2025 07:00:00,30.649961,76.331442,NH3,6,6,6
India,Punjab,Mandi Gobindgarh,"RIMT University, Mandi Gobindgarh - PPCB",07-10-2025 07:00:00,30.649961,76.331442,OZONE,46,55,48
India,Punjab,Patiala,"Model Town, Patiala - PPCB",07-10-2025 07:00:00,30.349388,76.366642,PM2.5,9,27,17
India,Punjab,Patiala,"Model Town, Patiala - PPCB",07-10-2025 07:00:00,30.349388,76.366642,PM10,16,58,33
India,Punjab,Patiala,"Model Town, Patiala - PPCB",07-10-2025 07:00:00,30.349388,76.366642,CO,12,22,14
India,Rajasthan,Banswara,"Rati Talai, Banswara - RSPCB",07-10-2025 07:00:00,23.555190,74.440010,PM2.5,12,60,46
India,Rajasthan,Banswara,"Rati Talai, Banswara - RSPCB",07-10-2025 07:00:00,23.555190,74.440010,PM10,27,121,81
India,Rajasthan,Banswara,"Rati Talai, Banswara - RSPCB",07-10-2025 07:00:00,23.555190,74.440010,NO2,4,21,9
India,Rajasthan,Banswara,"Rati Talai, Banswara - RSPCB",07-10-2025 07:00:00,23.555190,74.440010,CO,2,96,25
India,Rajasthan,Banswara,"Rati Talai, Banswara - RSPCB",07-10-2025 07:00:00,23.555190,74.440010,OZONE,11,82,23
India,Punjab,Khanna,"Kalal Majra, Khanna - PPCB",07-10-2025 07:00:00,30.736056 ,76.209694,SO2,4,7,6
India,Punjab,Ludhiana,"Punjab Agricultural University, Ludhiana - PPCB",07-10-2025 07:00:00,30.9028,75.8086,SO2,1,25,12
India,Punjab,Rupnagar,"Ratanpura, Rupnagar - Ambuja Cements",07-10-2025 07:00:00,31.0325454,76.5623046,PM2.5,17,69,34
India,Punjab,Rupnagar,"Ratanpura, Rupnagar - Ambuja Cements",07-10-2025 07:00:00,31.0325454,76.5623046,NO2,9,41,18
India,Punjab,Rupnagar,"Ratanpura, Rupnagar - Ambuja Cements",07-10-2025 07:00:00,31.0325454,76.5623046,SO2,8,14,11
India,Rajasthan,Bhiwadi,"RIICO Ind. Area III, Bhiwadi - RSPCB",07-10-2025 07:00:00,28.194909,76.862296,OZONE,7,43,8
India,Rajasthan,Bhiwadi,"Vasundhara Nagar_UIT, Bhiwadi - RSPCB",07-10-2025 07:00:00,28.207266,76.829265,SO2,2,12,8
India,Rajasthan,Alwar,"Moti Doongri, Alwar - RSPCB",07-10-2025 07:00:00,27.554793,76.611536,NH3,4,10,9
India,Rajasthan,Alwar,"Moti Doongri, Alwar - RSPCB",07-10-2025 07:00:00,27.554793,76.611536,SO2,4,70,26
India,Rajasthan,Alwar,"Moti Doongri, Alwar - RSPCB",07-10-2025 07:00:00,27.554793,76.611536,CO,8,47,30
India,Rajasthan,Bikaner,"MM Ground, Bikaner - RSPCB",07-10-2025 07:00:00,28.018792,73.292658,NH3,5,9,7
India,Rajasthan,Bikaner,"MM Ground, Bikaner - RSPCB",07-10-2025 07:00:00,28.018792,73.292658,SO2,2,6,4
India,Rajasthan,Bharatpur,"Krishna Nagar, Bharatpur - RSPCB",07-10-2025 07:00:00,27.215415,77.50873,OZONE,30,84,41
India,Rajasthan,Bikaner,"MM Ground, Bikaner - RSPCB",07-10-2025 07:00:00,28.018792,73.292658,PM10,6,130,36
India,Rajasthan,Dholpur,"Raja Ganj, Dholpur - RSPCB",07-10-2025 07:00:00,26.699557,77.898881,CO,20,36,30
India,Rajasthan,Hanumangarh,"Housing Board, Hanumangarh - RSPCB",07-10-2025 07:00:00,29.610750,74.283608,PM10,13,69,36
India,Rajasthan,Jaipur,"Adarsh Nagar, Jaipur - RSPCB",07-10-2025 07:00:00,26.902909,75.836858,PM2.5,16,74,31
India,Rajasthan,Jaipur,"Adarsh Nagar, Jaipur - RSPCB",07-10-2025 07:00:00,26.902909,75.836858,SO2,13,25,20
India,Rajasthan,Jaipur,"Police Commissionerate, Jaipur - RSPCB",07-10-2025 07:00:00,26.9164092,75.7994901,PM10,NA,NA,NA
India,Rajasthan,Jaipur,"Police Commissionerate, Jaipur - RSPCB",07-10-2025 07:00:00,26.9164092,75.7994901,NO2,83,110,98
India,Rajasthan,Jaipur,"Police Commissionerate, Jaipur - RSPCB",07-10-2025 07:00:00,26.9164092,75.7994901,SO2,7,22,15
India,Rajasthan,Jaipur,"RIICO Sitapura, Jaipur - RSPCB",07-10-2025 07:00:00,26.786682,75.827928,NH3,1,4,2
India,Rajasthan,Jaipur,"Sector-2 Murlipura, Jaipur - RSPCB",07-10-2025 07:00:00,26.960669,75.771817,SO2,4,8,6
India,Rajasthan,Jaipur,"Sector-2 Murlipura, Jaipur - RSPCB",07-10-2025 07:00:00,26.960669,75.771817,OZONE,16,48,38
India,Rajasthan,Jaipur,"Shastri Nagar, Jaipur - RSPCB",07-10-2025 07:00:00,26.9502929,75.730943,PM2.5,20,57,36
India,Rajasthan,Churu,"Subash Chowk, Churu - RSPCB",07-10-2025 07:00:00,28.296139,74.961696,NO2,5,20,10
India,Rajasthan,Dausa,"Khatikan Mohalla, Dausa - RSPCB",07-10-2025 07:00:00,26.895552,76.334753,PM10,NA,NA,NA
India,Rajasthan,Bundi,"New Colony, Bundi - RSPCB",07-10-2025 07:00:00,25.435774,75.644272,SO2,3,11,6
India,Rajasthan,Chittorgarh,"Shastri Nagar, Chittorgarh - RSPCB",07-10-2025 07:00:00,24.892047,74.623527,NO2,6,23,9
India,Rajasthan,Dausa,"Khatikan Mohalla, Dausa - RSPCB",07-10-2025 07:00:00,26.895552,76.334753,NO2,NA,NA,NA
India,Rajasthan,Dausa,"Khatikan Mohalla, Dausa - RSPCB",07-10-2025 07:00:00,26.895552,76.334753,NH3,NA,NA,NA
India,Rajasthan,Jaipur,"Mansarovar Sector-12, Jaipur - RSPCB",07-10-2025 07:00:00,26.843698,75.766894,NO2,3,27,14
India,Rajasthan,Jhalawar,"Rajlaxmi Nagar, Jhalawar - RSPCB",07-10-2025 07:00:00,24.588397,76.172782,PM2.5,7,28,19
India,Rajasthan,Jaisalmer,"Sadar Bazar, Jaisalmer - RSPCB",07-10-2025 07:00:00,26.912329,70.909168,PM10,5,371,128
India,Rajasthan,Nagaur,"Karni Colony, Nagaur - RSPCB",07-10-2025 07:00:00,27.213494,73.734444,NH3,3,7,5
India,Rajasthan,Pali,"Indira Colony Vistar, Pali - RSPCB",07-10-2025 07:00:00,25.771061, 73.340227,PM10,45,117,73
India,Rajasthan,Pali,"Indira Colony Vistar, Pali - RSPCB",07-10-2025 07:00:00,25.771061, 73.340227,NO2,30,38,34
India,Rajasthan,Pali,"Indira Colony Vistar, Pali - RSPCB",07-10-2025 07:00:00,25.771061, 73.340227,CO,2,36,23
India,Rajasthan,Pali,"Indira Colony Vistar, Pali - RSPCB",07-10-2025 07:00:00,25.771061, 73.340227,OZONE,5,51,7
India,Rajasthan,Pratapgarh,"Pragati Nagar, Pratapgarh - RSPCB",07-10-2025 07:00:00,24.041198,74.780702,PM2.5,20,79,41
India,Rajasthan,Pratapgarh,"Pragati Nagar, Pratapgarh - RSPCB",07-10-2025 07:00:00,24.041198,74.780702,SO2,3,5,4
India,Rajasthan,Rajsamand,"Dhoinda, Rajsamand - RSPCB",07-10-2025 07:00:00,25.036360,73.883502,PM10,34,60,44
India,Rajasthan,Jhalawar,"Rajlaxmi Nagar, Jhalawar - RSPCB",07-10-2025 07:00:00,24.588397,76.172782,OZONE,23,71,33
India,Rajasthan,Jhunjhunu,"Indra Nagar, Jhunjhunu - RSPCB",07-10-2025 07:00:00,28.108988,75.386577,NO2,3,34,14
India,Rajasthan,Jhunjhunu,"Indra Nagar, Jhunjhunu - RSPCB",07-10-2025 07:00:00,28.108988,75.386577,SO2,2,3,3
India,Rajasthan,Jhunjhunu,"Indra Nagar, Jhunjhunu - RSPCB",07-10-2025 07:00:00,28.108988,75.386577,OZONE,29,70,49
India,Rajasthan,Jodhpur,"Collectorate, Jodhpur - RSPCB",07-10-2025 07:00:00,26.268249,73.0193853,PM2.5,15,149,53
India,Rajasthan,Sikar,"Radhakishan Pura, Sikar - RSPCB",07-10-2025 07:00:00,27.608912,75.153302,PM10,6,31,21
India,Rajasthan,Sikar,"Radhakishan Pura, Sikar - RSPCB",07-10-2025 07:00:00,27.608912,75.153302,NH3,NA,NA,NA
India,Rajasthan,Sirohi,"Vedhaynath Colony, Sirohi - RSPCB",07-10-2025 07:00:00,24.885261,72.857549,PM10,22,72,42
India,Rajasthan,Sirohi,"Vedhaynath Colony, Sirohi - RSPCB",07-10-2025 07:00:00,24.885261,72.857549,NO2,3,11,6
India,Rajasthan,Kota,"Dhanmandi, Kota - RSPCB",07-10-2025 07:00:00,25.164090,75.858137,CO,8,53,12
India,Rajasthan,Kota,"Nayapura, Kota - RSPCB",07-10-2025 07:00:00,25.196024,75.855668,PM2.5,7,67,28
India,Rajasthan,Kota,"Shrinath Puram, Kota - RSPCB",07-10-2025 07:00:00,25.14389,75.821256,PM10,20,65,47
India,Rajasthan,Sawai Madhopur,"Sahu Nagar, Sawai Madhopur - RSPCB",07-10-2025 07:00:00,26.031443,76.359327,PM10,3,72,23
India,Rajasthan,Karauli,"Satyawati Vihar, Karauli - RSPCB",07-10-2025 07:00:00,26.506177,77.025989,OZONE,9,46,25
India,Rajasthan,Jhalawar,"Rajlaxmi Nagar, Jhalawar - RSPCB",07-10-2025 07:00:00,24.588397,76.172782,SO2,6,12,8
India,Rajasthan,Nagaur,"Karni Colony, Nagaur - RSPCB",07-10-2025 07:00:00,27.213494,73.734444,PM2.5,2,28,14
India,Rajasthan,Jodhpur,"Mandor, Jodhpur - RSPCB",07-10-2025 07:00:00,26.358805,73.047444,OZONE,13,47,26
India,TamilNadu,Ariyalur,"Keelapalur, Ariyalur - TNPCB",07-10-2025 07:00:00,11.06825,79.07033,PM10,35,58,46
India,TamilNadu,Ariyalur,"Keelapalur, Ariyalur - TNPCB",07-10-2025 07:00:00,11.06825,79.07033,NH3,1,1,1
India,TamilNadu,Chennai,"Alandur Bus Depot, Chennai - CPCB",07-10-2025 07:00:00,12.9099161,80.1076538,PM2.5,15,74,52
India,TamilNadu,Chennai,"Alandur Bus Depot, Chennai - CPCB",07-10-2025 07:00:00,12.9099161,80.1076538,PM10,23,105,75
India,TamilNadu,Chennai,"Alandur Bus Depot, Chennai - CPCB",07-10-2025 07:00:00,12.9099161,80.1076538,NO2,15,39,18
India,TamilNadu,Chennai,"Alandur Bus Depot, Chennai - CPCB",07-10-2025 07:00:00,12.9099161,80.1076538,OZONE,8,24,13
India,TamilNadu,Chennai,"Arumbakkam, Chennai - TNPCB",07-10-2025 07:00:00,13.0664,80.2112 ,NO2,13,34,22
India,TamilNadu,Chennai,"Arumbakkam, Chennai - TNPCB",07-10-2025 07:00:00,13.0664,80.2112 ,SO2,1,4,2
India,TamilNadu,Coimbatore,"PSG College of Arts and Science, Coimbatore - TNPCB",07-10-2025 07:00:00,11.0328,77.0349,SO2,9,18,10
India,TamilNadu,Coimbatore,"SIDCO Kurichi, Coimbatore - TNPCB",07-10-2025 07:00:00,10.942451,76.978996,OZONE,2,11,2
India,Rajasthan,Udaipur,"Ashok Nagar, Udaipur - RSPCB",07-10-2025 07:00:00,24.5886166,73.6321397,CO,5,74,19
India,Sikkim,Gangtok,"Zero Point GICI, Gangtok - SSPCB",07-10-2025 07:00:00,27.338530,88.614099,PM10,9,27,16
India,TamilNadu,Chennai,"Manali Village, Chennai - TNPCB",07-10-2025 07:00:00,13.1662,80.2584,PM10,NA,NA,NA
India,TamilNadu,Chennai,"Manali, Chennai - CPCB",07-10-2025 07:00:00,13.164544,80.26285,NO2,NA,NA,NA
India,TamilNadu,Chennai,"Manali, Chennai - CPCB",07-10-2025 07:00:00,13.164544,80.26285,CO,13,56,40
India,Rajasthan,Tonk,"Shastri Nagar, Tonk - RSPCB",07-10-2025 07:00:00,26.159933,75.780517,NH3,2,4,3
India,Rajasthan,Tonk,"Shastri Nagar, Tonk - RSPCB",07-10-2025 07:00:00,26.159933,75.780517,CO,14,50,19
India,Rajasthan,Sri Ganganagar,"Old City, Sri Ganganagar - RSPCB",07-10-2025 07:00:00,29.931624,73.864511,NH3,3,5,3
India,Rajasthan,Udaipur,"Ashok Nagar, Udaipur - RSPCB",07-10-2025 07:00:00,24.5886166,73.6321397,PM10,24,114,63
India,Rajasthan,Tonk,"Shastri Nagar, Tonk - RSPCB",07-10-2025 07:00:00,26.159933,75.780517,OZONE,15,32,20
India,TamilNadu,Chennai,"Perungudi, Chennai - TNPCB",07-10-2025 07:00:00,12.9533,80.2357,NO2,NA,NA,NA
India,TamilNadu,Thanjavur,"Parisutham Nagar, Thanjavur - TNPCB",07-10-2025 07:00:00,10.7654824,79.1389968,SO2,NA,NA,NA
India,TamilNadu,Thanjavur,"Parisutham Nagar, Thanjavur - TNPCB",07-10-2025 07:00:00,10.7654824,79.1389968,OZONE,NA,NA,NA
India,TamilNadu,Thoothukudi,"Meelavittan, Thoothukudi - TNPCB",07-10-2025 07:00:00,8.816428 ,78.099039,SO2,2,6,4
India,TamilNadu,Tiruchirappalli,"St Joseph College, Tiruchirappalli - TNPCB",07-10-2025 07:00:00,10.830158,78.691849,NO2,2,13,6
India,TamilNadu,Tiruchirappalli,"St Joseph College, Tiruchirappalli - TNPCB",07-10-2025 07:00:00,10.830158,78.691849,NH3,2,2,2
India,TamilNadu,Tirunelveli,"Municipal Corporation Office, Tirunelveli - TNPCB",07-10-2025 07:00:00,8.728442,77.6962,PM2.5,17,34,27
India,TamilNadu,Tirunelveli,"Municipal Corporation Office, Tirunelveli - TNPCB",07-10-2025 07:00:00,8.728442,77.6962,PM10,22,37,31
India,TamilNadu,Cuddalore,"Kudikadu, Cuddalore - TNPCB",07-10-2025 07:00:00,11.6829898,79.7532099,OZONE,5,13,12
India,TamilNadu,Cuddalore,"Semmandalam, Cuddalore - TNPCB",07-10-2025 07:00:00,11.7637683,79.7499835,PM10,13,70,34
India,TamilNadu,Dindigul,"Mendonsa Colony, Dindigul - TNPCB",07-10-2025 07:00:00,10.358535,77.984321,PM10,29,64,46
India,TamilNadu,Gummidipoondi,"Anthoni Pillai Nagar, Gummidipoondi - TNPCB",07-10-2025 07:00:00,13.4127,80.1081,PM2.5,61,381,166
India,TamilNadu,Hosur,"SIPCOT Phase-1, Hosur - TNPCB",07-10-2025 07:00:00,12.746998,77.813811,NO2,1,2,2
India,TamilNadu,Hosur,"SIPCOT Phase-1, Hosur - TNPCB",07-10-2025 07:00:00,12.746998,77.813811,OZONE,9,11,10
India,TamilNadu,Kanchipuram,"Kilambi, Kanchipuram - TNPCB",07-10-2025 07:00:00,12.864618,79.659968,PM10,NA,NA,NA
India,TamilNadu,Kanchipuram,"Kilambi, Kanchipuram - TNPCB",07-10-2025 07:00:00,12.864618,79.659968,NO2,NA,NA,NA
India,TamilNadu,Kanchipuram,"Kilambi, Kanchipuram - TNPCB",07-10-2025 07:00:00,12.864618,79.659968,CO,19,20,20
India,TamilNadu,Karur,"Kamadenu Nagar, Karur - TNPCB",07-10-2025 07:00:00,10.967820,78.080882,NO2,5,6,6
India,TamilNadu,Karur,"Kamadenu Nagar, Karur - TNPCB",07-10-2025 07:00:00,10.967820,78.080882,NH3,3,3,3
India,TamilNadu,Karur,"Kamadenu Nagar, Karur - TNPCB",07-10-2025 07:00:00,10.967820,78.080882,SO2,14,26,15
India,TamilNadu,Virudhunagar,"Collectorate Office, Virudhunagar - TNPCB",07-10-2025 07:00:00,9.559382,77.948828,CO,18,22,19
India,Telangana,Hyderabad,"Bollaram Industrial Area, Hyderabad - TSPCB",07-10-2025 07:00:00,17.540891,78.358528,PM10,10,66,28
India,Telangana,Hyderabad,"Bollaram Industrial Area, Hyderabad - TSPCB",07-10-2025 07:00:00,17.540891,78.358528,NH3,3,6,4
India,Telangana,Hyderabad,"Bollaram Industrial Area, Hyderabad - TSPCB",07-10-2025 07:00:00,17.540891,78.358528,OZONE,48,55,50
India,TamilNadu,Madurai,"Uchapatti, Madurai - TNPCB",07-10-2025 07:00:00,9.865935,78.022669,PM2.5,10,49,24
India,TamilNadu,Nagapattinam,"Velippalayam, Nagapattinam - TNPCB",07-10-2025 07:00:00,10.798548,79.838212,PM2.5,3,85,21
India,TamilNadu,Nagapattinam,"Velippalayam, Nagapattinam - TNPCB",07-10-2025 07:00:00,10.798548,79.838212,PM10,8,500,61
India,TamilNadu,Nagapattinam,"Velippalayam, Nagapattinam - TNPCB",07-10-2025 07:00:00,10.798548,79.838212,NH3,2,2,2
India,TamilNadu,Nagapattinam,"Velippalayam, Nagapattinam - TNPCB",07-10-2025 07:00:00,10.798548,79.838212,SO2,4,7,5
India,TamilNadu,Pudukottai,"SIPCOT Nathampannai, Pudukottai - TNPCB",07-10-2025 07:00:00,10.423417,78.784889,NO2,11,27,14
India,TamilNadu,Ranipet,"VOC Nagar_SIPCOT, Ranipet - TNPCB",07-10-2025 07:00:00,12.952707,79.30394,CO,18,20,20
India,TamilNadu,Salem,"Sona College of Technology, Salem - TNPCB",07-10-2025 07:00:00,11.679111,78.125052,PM2.5,NA,NA,NA
India,TamilNadu,Salem,"Sona College of Technology, Salem - TNPCB",07-10-2025 07:00:00,11.679111,78.125052,SO2,NA,NA,NA
India,TamilNadu,Tirunelveli,"Municipal Corporation Office, Tirunelveli - TNPCB",07-10-2025 07:00:00,8.728442,77.6962,OZONE,6,7,6
India,TamilNadu,Tirupur,"Kumaran College, Tirupur - TNPCB",07-10-2025 07:00:00,11.0973603,77.3228673,PM10,22,57,37
India,TamilNadu,Tirupur,"Kumaran College, Tirupur - TNPCB",07-10-2025 07:00:00,11.0973603,77.3228673,SO2,4,5,4
India,TamilNadu,Tirupur,"Kumaran College, Tirupur - TNPCB",07-10-2025 07:00:00,11.0973603,77.3228673,OZONE,3,3,3
India,TamilNadu,Namakkal,"Ponnusamy Nagar, Namakkal - TNPCB",07-10-2025 07:00:00,11.273992,78.163545,PM10,48,104,78
India,TamilNadu,Cuddalore,"Kudikadu, Cuddalore - TNPCB",07-10-2025 07:00:00,11.6829898,79.7532099,PM2.5,27,83,46
India,Tripura,Agartala,"Bardowali, Agartala - Tripura SPCB",07-10-2025 07:00:00,23.8175497,91.2726974,NH3,2,2,2
India,Tripura,Agartala,"Bardowali, Agartala - Tripura SPCB",07-10-2025 07:00:00,23.8175497,91.2726974,OZONE,20,25,24
India,Uttar_Pradesh,Agra,"Manoharpur, Agra - UPPCB",07-10-2025 07:00:00,27.23711,78.01936,PM2.5,7,86,47
India,Uttar_Pradesh,Agra,"Manoharpur, Agra - UPPCB",07-10-2025 07:00:00,27.23711,78.01936,OZONE,8,29,8
India,Uttar_Pradesh,Agra,"Rohta, Agra - UPPCB",07-10-2025 07:00:00,27.106972,78.000111,NH3,6,6,6
India,Uttar_Pradesh,Agra,"Sanjay Palace, Agra - UPPCB",07-10-2025 07:00:00,27.19865833,78.00598056,NO2,2,6,4
India,Uttar_Pradesh,Agra,"Sanjay Palace, Agra - UPPCB",07-10-2025 07:00:00,27.19865833,78.00598056,CO,30,40,32
India,Uttar_Pradesh,Agra,"Sector-3B Avas Vikas Colony, Agra - UPPCB",07-10-2025 07:00:00,27.19412,77.96237,CO,20,28,26
India,Uttar_Pradesh,Agra,"Shahjahan Garden, Agra - UPPCB",07-10-2025 07:00:00,27.169338,78.03582,NH3,1,1,1
India,Uttar_Pradesh,Agra,"Shahjahan Garden, Agra - UPPCB",07-10-2025 07:00:00,27.169338,78.03582,CO,5,14,10
India,Uttar_Pradesh,Agra,"Shastripuram, Agra - UPPCB",07-10-2025 07:00:00,27.19862,77.92066,NO2,32,34,33
India,Uttar_Pradesh,Agra,"Shastripuram, Agra - UPPCB",07-10-2025 07:00:00,27.19862,77.92066,OZONE,2,4,3
India,Telangana,Hyderabad,"Sanathnagar, Hyderabad - TSPCB",07-10-2025 07:00:00,17.4559458,78.4332152,PM2.5,10,60,27
India,Telangana,Hyderabad,"Sanathnagar, Hyderabad - TSPCB",07-10-2025 07:00:00,17.4559458,78.4332152,NO2,25,30,28
India,Telangana,Hyderabad,"Sanathnagar, Hyderabad - TSPCB",07-10-2025 07:00:00,17.4559458,78.4332152,CO,1,13,8
India,Telangana,Hyderabad,"Zoo Park, Hyderabad - TSPCB",07-10-2025 07:00:00,17.349694,78.451437,CO,10,18,14
India,Telangana,Hyderabad,"Zoo Park, Hyderabad - TSPCB",07-10-2025 07:00:00,17.349694,78.451437,OZONE,21,25,23
India,Uttar_Pradesh,Bareilly,"Civil Lines, Bareilly - UPPCB",07-10-2025 07:00:00,28.359581,79.414455,SO2,25,40,32
India,Uttar_Pradesh,Bareilly,"Civil Lines, Bareilly - UPPCB",07-10-2025 07:00:00,28.359581,79.414455,CO,1,22,4
India,Uttar_Pradesh,Bareilly,"Rajendra Nagar, Bareilly - UPPCB",07-10-2025 07:00:00,28.38910936,79.42963708,PM2.5,23,164,72
India,Uttar_Pradesh,Bareilly,"Rajendra Nagar, Bareilly - UPPCB",07-10-2025 07:00:00,28.38910936,79.42963708,PM10,32,181,84
India,Telangana,Hyderabad,"ECIL Kapra, Hyderabad - TSPCB",07-10-2025 07:00:00,17.470431,78.566959,NH3,3,5,4
India,Telangana,Hyderabad,"IDA Pashamylaram, Hyderabad - TSPCB",07-10-2025 07:00:00,17.5316895,78.218939,PM10,60,150,88
India,Telangana,Hyderabad,"IDA Pashamylaram, Hyderabad - TSPCB",07-10-2025 07:00:00,17.5316895,78.218939,SO2,1,27,11
India,Telangana,Hyderabad,"Kompally Municipal Office, Hyderabad - TSPCB",07-10-2025 07:00:00,17.544899,78.486949,PM10,NA,NA,NA
India,Telangana,Hyderabad,"Kompally Municipal Office, Hyderabad - TSPCB",07-10-2025 07:00:00,17.544899,78.486949,SO2,NA,NA,NA
India,Telangana,Hyderabad,"Kokapet, Hyderabad - TSPCB",07-10-2025 07:00:00,17.393559,78.339194,CO,16,26,17
India,Telangana,Hyderabad,"Kokapet, Hyderabad - TSPCB",07-10-2025 07:00:00,17.393559,78.339194,NH3,2,4,3
India,Uttar_Pradesh,Bareilly,"Rajendra Nagar, Bareilly - UPPCB",07-10-2025 07:00:00,28.38910936,79.42963708,OZONE,1,11,4
India,Uttar_Pradesh,Bulandshahr,"Yamunapuram, Bulandshahr - UPPCB",07-10-2025 07:00:00,28.406963,77.849831,PM2.5,12,102,45
India,Uttar_Pradesh,Bulandshahr,"Yamunapuram, Bulandshahr - UPPCB",07-10-2025 07:00:00,28.406963,77.849831,NO2,12,37,26
India,Uttar_Pradesh,Bulandshahr,"Yamunapuram, Bulandshahr - UPPCB",07-10-2025 07:00:00,28.406963,77.849831,CO,18,34,21
India,Uttar_Pradesh,Firozabad,"Nagla Bhau, Firozabad - UPPCB",07-10-2025 07:00:00,27.168897,78.376960,SO2,14,32,24
India,Uttar_Pradesh,Firozabad,"Vibhab Nagar, Firozabad - UPPCB",07-10-2025 07:00:00,27.1594,78.3953,PM10,20,53,36
India,Uttar_Pradesh,Kanpur,"FTI Kidwai Nagar, Kanpur - UPPCB",07-10-2025 07:00:00,26.428282,80.327067,PM10,21,67,41
India,Uttar_Pradesh,Kanpur,"FTI Kidwai Nagar, Kanpur - UPPCB",07-10-2025 07:00:00,26.428282,80.327067,SO2,17,20,18
India,Uttar_Pradesh,Kanpur,"FTI Kidwai Nagar, Kanpur - UPPCB",07-10-2025 07:00:00,26.428282,80.327067,OZONE,31,35,34
India,Uttar_Pradesh,Kanpur,"NSI Kalyanpur, Kanpur - UPPCB",07-10-2025 07:00:00,26.509954,80.249612,NH3,2,3,3
India,Uttar_Pradesh,Kanpur,"Nehru Nagar, Kanpur - UPPCB",07-10-2025 07:00:00,26.4703136,80.3229863,PM10,32,68,45
India,Uttar_Pradesh,Kanpur,"Nehru Nagar, Kanpur - UPPCB",07-10-2025 07:00:00,26.4703136,80.3229863,SO2,12,14,13
India,Uttar_Pradesh,Kanpur,"Nehru Nagar, Kanpur - UPPCB",07-10-2025 07:00:00,26.4703136,80.3229863,OZONE,6,57,6
India,Uttar_Pradesh,Lucknow,"B R Ambedkar University, Lucknow - UPPCB",07-10-2025 07:00:00,26.766433,80.927299,NO2,11,12,12
India,Uttar_Pradesh,Lucknow,"Gomti Nagar, Lucknow - UPPCB",07-10-2025 07:00:00,26.868120,81.005119,NO2,8,10,9
India,Uttar_Pradesh,Lucknow,"Kendriya Vidyalaya, Lucknow - CPCB",07-10-2025 07:00:00,26.906111,80.948222,NH3,8,14,12
India,Uttar_Pradesh,Lucknow,"Kendriya Vidyalaya, Lucknow - CPCB",07-10-2025 07:00:00,26.906111,80.948222,SO2,8,21,15
India,Uttar_Pradesh,Lucknow,"Kukrail Picnic Spot-1, Lucknow - UPPCB",07-10-2025 07:00:00,26.90723,80.98579,SO2,24,25,24
India,Uttar_Pradesh,Ghaziabad,"Sanjay Nagar, Ghaziabad - UPPCB",07-10-2025 07:00:00,28.685382,77.453839,PM2.5,30,170,60
India,Uttar_Pradesh,Ghaziabad,"Sanjay Nagar, Ghaziabad - UPPCB",07-10-2025 07:00:00,28.685382,77.453839,NH3,4,13,6
India,Uttar_Pradesh,Ghaziabad,"Vasundhara, Ghaziabad - UPPCB",07-10-2025 07:00:00,28.6603346,77.3572563,NO2,9,16,12
India,Uttar_Pradesh,Khurja,"Kalindi Kunj, Khurja - UPPCB",07-10-2025 07:00:00,28.2348927,77.8683002,NO2,3,4,3
India,Uttar_Pradesh,Lucknow,"B R Ambedkar University, Lucknow - UPPCB",07-10-2025 07:00:00,26.766433,80.927299,PM2.5,32,309,86
India,Uttar_Pradesh,Ghaziabad,"Indirapuram, Ghaziabad - UPPCB",07-10-2025 07:00:00,28.646233,77.358075,CO,34,75,40
India,Uttar_Pradesh,Ghaziabad,"Loni, Ghaziabad - UPPCB",07-10-2025 07:00:00,28.757294,77.278792,NH3,2,6,3
India,Uttar_Pradesh,Gorakhpur,"Madan Mohan Malaviya University of Technology, Gorakhpur - UPPCB",07-10-2025 07:00:00,26.730136,83.433859,PM10,NA,NA,NA
India,Uttar_Pradesh,Gorakhpur,"Madan Mohan Malaviya University of Technology, Gorakhpur - UPPCB",07-10-2025 07:00:00,26.730136,83.433859,SO2,26,29,28
India,Uttar_Pradesh,Ghaziabad,"Indirapuram, Ghaziabad - UPPCB",07-10-2025 07:00:00,28.646233,77.358075,PM2.5,21,215,68
India,Uttar_Pradesh,Jhansi,"Shivaji Nagar, Jhansi - UPPCB",07-10-2025 07:00:00,25.4547,78.6039,OZONE,2,18,6
India,Uttar_Pradesh,Lucknow,"Talkatora District Industries Center, Lucknow - CPCB",07-10-2025 07:00:00,26.83399722,80.8917361,NO2,44,53,47
India,Uttar_Pradesh,Lucknow,"Talkatora District Industries Center, Lucknow - CPCB",07-10-2025 07:00:00,26.83399722,80.8917361,NH3,10,15,11
India,Uttar_Pradesh,Meerut,"Ganga Nagar, Meerut - UPPCB",07-10-2025 07:00:00,28.999264,77.7590354,PM2.5,5,119,36
India,Uttar_Pradesh,Meerut,"Pallavpuram Phase 2, Meerut - UPPCB",07-10-2025 07:00:00,29.063510,77.709723,CO,18,50,24
India,Uttar_Pradesh,Moradabad,"Buddhi Vihar, Moradabad - UPPCB",07-10-2025 07:00:00,28.83526,78.74460,OZONE,17,49,25
India,Uttar_Pradesh,Moradabad,"Eco Herbal Park, Moradabad - UPPCB",07-10-2025 07:00:00,28.840739,78.697531,PM10,16,188,69
India,Uttar_Pradesh,Moradabad,"Eco Herbal Park, Moradabad - UPPCB",07-10-2025 07:00:00,28.840739,78.697531,SO2,9,23,15
India,Uttar_Pradesh,Moradabad,"Eco Herbal Park, Moradabad - UPPCB",07-10-2025 07:00:00,28.840739,78.697531,OZONE,33,117,50
India,Uttar_Pradesh,Moradabad,"Kashiram Nagar, Moradabad - UPPCB",07-10-2025 07:00:00,28.849399,78.742362,PM10,30,154,77
India,Uttar_Pradesh,Moradabad,"Transport Nagar, Moradabad - UPPCB",07-10-2025 07:00:00,28.802625,78.753728,NO2,24,30,29
India,Uttar_Pradesh,Meerut,"Jai Bhim Nagar, Meerut - UPPCB",07-10-2025 07:00:00,28.9535882,77.7622941,SO2,2,30,9
India,Uttar_Pradesh,Noida,"Sector - 125, Noida - UPPCB",07-10-2025 07:00:00,28.5447608,77.3231257,PM2.5,32,82,52
India,Uttar_Pradesh,Noida,"Sector - 62, Noida - IMD",07-10-2025 07:00:00,28.6245479,77.3577104,CO,6,13,7
India,Uttar_Pradesh,Prayagraj,"Jhunsi, Prayagraj - UPPCB",07-10-2025 07:00:00,25.425602,81.917152,PM10,29,68,50
India,Uttar_Pradesh,Prayagraj,"Jhunsi, Prayagraj - UPPCB",07-10-2025 07:00:00,25.425602,81.917152,NO2,6,6,6
India,Uttar_Pradesh,Prayagraj,"Motilal Nehru NIT, Prayagraj - UPPCB",07-10-2025 07:00:00,25.494,81.863,PM2.5,3,48,33
India,Uttar_Pradesh,Prayagraj,"Motilal Nehru NIT, Prayagraj - UPPCB",07-10-2025 07:00:00,25.494,81.863,NO2,12,12,12
India,Uttar_Pradesh,Prayagraj,"Motilal Nehru NIT, Prayagraj - UPPCB",07-10-2025 07:00:00,25.494,81.863,NH3,8,8,8
India,Uttar_Pradesh,Prayagraj,"Motilal Nehru NIT, Prayagraj - UPPCB",07-10-2025 07:00:00,25.494,81.863,SO2,24,54,47
India,Uttar_Pradesh,Prayagraj,"Motilal Nehru NIT, Prayagraj - UPPCB",07-10-2025 07:00:00,25.494,81.863,CO,2,17,14
India,Uttar_Pradesh,Prayagraj,"Nagar Nigam, Prayagraj - UPPCB",07-10-2025 07:00:00,25.44919916 ,81.82735986 ,NH3,1,3,2
India,Uttarakhand,Kashipur,"Govt. Girls Inter College, Kashipur - UKPCB",07-10-2025 07:00:00,29.2124114,78.9611753,PM2.5,9,188,49
India,Uttarakhand,Kashipur,"Govt. Girls Inter College, Kashipur - UKPCB",07-10-2025 07:00:00,29.2124114,78.9611753,NH3,NA,NA,NA
India,Uttarakhand,Kashipur,"Govt. Girls Inter College, Kashipur - UKPCB",07-10-2025 07:00:00,29.2124114,78.9611753,SO2,NA,NA,NA
India,Uttar_Pradesh,Noida,"Sector-1, Noida - UPPCB",07-10-2025 07:00:00,28.5898,77.3101,NO2,15,70,35
India,Uttar_Pradesh,Noida,"Sector-116, Noida - UPPCB",07-10-2025 07:00:00,28.569230,77.393848,NH3,5,13,9
India,Uttar_Pradesh,Varanasi,"Maldahiya, Varanasi - UPPCB",07-10-2025 07:00:00,25.32393,82.99687,PM2.5,NA,NA,NA
India,Uttar_Pradesh,Varanasi,"Maldahiya, Varanasi - UPPCB",07-10-2025 07:00:00,25.32393,82.99687,CO,15,65,46
India,Uttar_Pradesh,Varanasi,"IESD Banaras Hindu University, Varanasi - UPPCB",07-10-2025 07:00:00,25.262326,82.995408,PM10,21,92,61
India,Uttarakhand,Kashipur,"Govt. Girls Inter College, Kashipur - UKPCB",07-10-2025 07:00:00,29.2124114,78.9611753,OZONE,1,4,2
India,Uttar_Pradesh,Prayagraj,"Nagar Nigam, Prayagraj - UPPCB",07-10-2025 07:00:00,25.44919916 ,81.82735986 ,CO,16,32,23
India,Uttarakhand,Rishikesh,"Shivaji Nagar, Rishikesh - UKPCB",07-10-2025 07:00:00,30.075911,78.2859547,NH3,5,9,6
India,West_Bengal,Asansol,"Mahabir Colliery, Asansol - WBPCB",07-10-2025 07:00:00,23.6181830,87.1057180,OZONE,13,62,21
India,West_Bengal,Asansol,"Trivenidevi Bhalotia College, Asansol - WBPCB",07-10-2025 07:00:00,23.616515,87.119133,PM2.5,NA,NA,NA
India,West_Bengal,Asansol,"Trivenidevi Bhalotia College, Asansol - WBPCB",07-10-2025 07:00:00,23.616515,87.119133,SO2,15,27,18
India,West_Bengal,Asansol,"Trivenidevi Bhalotia College, Asansol - WBPCB",07-10-2025 07:00:00,23.616515,87.119133,OZONE,19,283,29
India,West_Bengal,Barrackpore,"SVSPA Campus, Barrackpore - WBPCB",07-10-2025 07:00:00,22.7605581,88.3617589,PM2.5,31,72,51
India,West_Bengal,Barrackpore,"SVSPA Campus, Barrackpore - WBPCB",07-10-2025 07:00:00,22.7605581,88.3617589,PM10,53,118,73
India,West_Bengal,Howrah,"Padmapukur, Howrah - WBPCB",07-10-2025 07:00:00,22.5687319,88.2797276,NO2,11,23,16
India,West_Bengal,Kolkata,"Bidhannagar, Kolkata - WBPCB",07-10-2025 07:00:00,22.58157048,88.41002457,NH3,4,10,7
India,West_Bengal,Kolkata,"Fort William, Kolkata - WBPCB",07-10-2025 07:00:00,22.556640,88.342674,PM10,40,62,54
India,West_Bengal,Kolkata,"Fort William, Kolkata - WBPCB",07-10-2025 07:00:00,22.556640,88.342674,NO2,19,20,19
India,West_Bengal,Kolkata,"Fort William, Kolkata - WBPCB",07-10-2025 07:00:00,22.556640,88.342674,NH3,5,5,5
India,West_Bengal,Durgapur,"PCBL Residential Complex, Durgapur - WBPCB",07-10-2025 07:00:00,23.5087640,87.3544400,SO2,5,6,5
India,West_Bengal,Durgapur,"Womens College_City Center, Durgapur - WBPCB (Formerly known as Sidhu Kanhu Indoor Stadium)",07-10-2025 07:00:00,23.549395,87.300496,PM10,50,150,93
India,West_Bengal,Durgapur,"Womens College_City Center, Durgapur - WBPCB (Formerly known as Sidhu Kanhu Indoor Stadium)",07-10-2025 07:00:00,23.549395,87.300496,NO2,23,35,28
India,West_Bengal,Durgapur,"Womens College_City Center, Durgapur - WBPCB (Formerly known as Sidhu Kanhu Indoor Stadium)",07-10-2025 07:00:00,23.549395,87.300496,OZONE,7,35,12
India,West_Bengal,Haldia,"Priyambada Housing Estate, Haldia - WBPCB",07-10-2025 07:00:00,22.06047,88.109737,SO2,11,21,14
India,West_Bengal,Haldia,"Priyambada Housing Estate, Haldia - WBPCB",07-10-2025 07:00:00,22.06047,88.109737,OZONE,19,32,24
India,West_Bengal,Howrah,"Botanical Garden, Howrah - WBPCB",07-10-2025 07:00:00,22.554954,88.292568,NO2,9,32,18
India,West_Bengal,Howrah,"Botanical Garden, Howrah - WBPCB",07-10-2025 07:00:00,22.554954,88.292568,SO2,14,15,15
India,West_Bengal,Durgapur,"Mahishkapur Road_B-Zone, Durgapur - WBPCB",07-10-2025 07:00:00,23.567923,87.306843,CO,30,63,42
India,West_Bengal,Asansol,"Asansol Court Area, Asansol - WBPCB",07-10-2025 07:00:00,23.685297,86.945968,OZONE,12,23,16
India,West_Bengal,Asansol,"Evelyn Lodge, Asansol - WBPCB",07-10-2025 07:00:00,23.6979360,86.9443950,NO2,5,33,10
India,West_Bengal,Kolkata,"Fort William, Kolkata - WBPCB",07-10-2025 07:00:00,22.556640,88.342674,CO,26,39,32
India,West_Bengal,Kolkata,"Jadavpur, Kolkata - WBPCB",07-10-2025 07:00:00,22.49929,88.36917,NH3,14,19,16
India,West_Bengal,Kolkata,"Jadavpur, Kolkata - WBPCB",07-10-2025 07:00:00,22.49929,88.36917,OZONE,9,41,15
India,West_Bengal,Kolkata,"Rabindra Bharati University, Kolkata - WBPCB",07-10-2025 07:00:00,22.627847,88.380669,NO2,NA,NA,NA
India,West_Bengal,Kolkata,"Rabindra Sarobar, Kolkata - WBPCB",07-10-2025 07:00:00,22.51106,88.35142,PM10,33,51,44
India,West_Bengal,Kolkata,"Victoria, Kolkata - WBPCB",07-10-2025 07:00:00,22.5448082,88.3403691,NH3,4,5,4
India,West_Bengal,Kolkata,"Victoria, Kolkata - WBPCB",07-10-2025 07:00:00,22.5448082,88.3403691,CO,50,68,58
India,West_Bengal,Kolkata,"Victoria, Kolkata - WBPCB",07-10-2025 07:00:00,22.5448082,88.3403691,OZONE,10,45,12
India,West_Bengal,Siliguri,"Ward-32 Bapupara, Siliguri - WBPCB",07-10-2025 07:00:00,26.6879226,88.4152495,NO2,18,22,20
India,West_Bengal,Siliguri,"Ward-32 Bapupara, Siliguri - WBPCB",07-10-2025 07:00:00,26.6879226,88.4152495,CO,23,76,56
India,Assam,Guwahati,"IITG, Guwahati - PCBA",07-10-2025 07:00:00,26.2028636,91.70046436,SO2,22,25,24
India,Assam,Guwahati,"LGBI Airport, Guwahati - PCBA",07-10-2025 07:00:00,26.10887,91.589544,PM2.5,20,35,29
India,Andhra_Pradesh,Vijayawada,"HB Colony, Vijayawada - APPCB",07-10-2025 07:00:00,16.536107,80.594233,NO2,12,15,13
India,Andhra_Pradesh,Vijayawada,"HB Colony, Vijayawada - APPCB",07-10-2025 07:00:00,16.536107,80.594233,NH3,4,5,4
India,Andhra_Pradesh,Tirupati,"Vaikuntapuram, Tirupati - APPCB",07-10-2025 07:00:00,13.615387,79.409230,PM10,51,83,64
India,Andhra_Pradesh,Tirupati,"Vaikuntapuram, Tirupati - APPCB",07-10-2025 07:00:00,13.615387,79.409230,OZONE,33,36,34
India,Andhra_Pradesh,Tirumala,"Toll Gate, Tirumala - APPCB",07-10-2025 07:00:00,13.67,79.35,NO2,14,20,17
India,Andhra_Pradesh,Tirumala,"Toll Gate, Tirumala - APPCB",07-10-2025 07:00:00,13.67,79.35,NH3,1,2,1
India,Andhra_Pradesh,Anantapur,"Gulzarpet, Anantapur - APPCB",07-10-2025 07:00:00,14.675886,77.593027,PM10,46,68,58
India,Andhra_Pradesh,Anantapur,"Gulzarpet, Anantapur - APPCB",07-10-2025 07:00:00,14.675886,77.593027,NO2,17,22,18
India,Andaman and Nicobar,Sri Vijaya Puram,"Police Line, Sri Vijaya Puram - ANPCC",07-10-2025 07:00:00,11.654054,92.734055,CO,NA,NA,NA
India,Andhra_Pradesh,Vijayawada,"Rajiv Gandhi Park, Vijayawada - APPCB",07-10-2025 07:00:00,16.509717,80.612222,CO,30,56,32
India,Andhra_Pradesh,Chittoor,"Gangineni Cheruvu, Chittoor - APPCB",07-10-2025 07:00:00,13.204880,79.097889,OZONE,45,61,52
India,Assam,Byrnihat,"Central Academy for SFS, Byrnihat - PCBA",07-10-2025 07:00:00,26.071318,91.87488,NO2,5,9,7
India,Assam,Guwahati,"IITG, Guwahati - PCBA",07-10-2025 07:00:00,26.2028636,91.70046436,NO2,1,4,2
India,Bihar,Begusarai,"Lohiyanagar, Begusarai - BSPCB",07-10-2025 07:00:00,25.42742023,86.13886079,CO,41,68,53
India,Bihar,Bettiah,"Kamalnath Nagar, Bettiah - BSPCB",07-10-2025 07:00:00,26.80365,84.51954,NO2,5,12,8
India,Bihar,Bettiah,"Kamalnath Nagar, Bettiah - BSPCB",07-10-2025 07:00:00,26.80365,84.51954,CO,42,101,80
India,Bihar,Bhagalpur,"DM Office_Kachari Chowk, Bhagalpur - BSPCB",07-10-2025 07:00:00,25.251013,86.989001,NH3,3,6,4
India,Bihar,Bhagalpur,"Mayaganj, Bhagalpur - BSPCB",07-10-2025 07:00:00,25.265194,87.012947,PM10,48,110,76
India,Bihar,Bihar Sharif,"D M Colony, Bihar Sharif - BSPCB",07-10-2025 07:00:00,25.204762,85.514960,PM2.5,51,63,56
India,Assam,Guwahati,"LGBI Airport, Guwahati - PCBA",07-10-2025 07:00:00,26.10887,91.589544,SO2,8,14,12
India,Assam,Guwahati,"LGBI Airport, Guwahati - PCBA",07-10-2025 07:00:00,26.10887,91.589544,CO,14,144,34
India,Assam,Guwahati,"Pan Bazaar, Guwahati - PCBA",07-10-2025 07:00:00,26.187500,91.744194,SO2,26,47,36
India,Assam,Guwahati,"Pan Bazaar, Guwahati - PCBA",07-10-2025 07:00:00,26.187500,91.744194,CO,12,50,33
India,Assam,Nagaon,"Christianpatty, Nagaon - PCBA",07-10-2025 07:00:00,26.349082,92.68449,PM10,34,51,48
India,Assam,Nagaon,"Christianpatty, Nagaon - PCBA",07-10-2025 07:00:00,26.349082,92.68449,SO2,11,14,12
India,Assam,Nalbari,"Bata Chowk, Nalbari - PCBA",07-10-2025 07:00:00,26.446912,91.439057,NH3,1,3,2
India,Assam,Nalbari,"Bata Chowk, Nalbari - PCBA",07-10-2025 07:00:00,26.446912,91.439057,SO2,21,21,21
India,Assam,Nalbari,"Bata Chowk, Nalbari - PCBA",07-10-2025 07:00:00,26.446912,91.439057,CO,28,28,28
India,Bihar,Buxar,"Charitra Van, Buxar - BSPCB",07-10-2025 07:00:00,25.567520,83.966379,PM2.5,62,63,63
India,Bihar,Buxar,"Charitra Van, Buxar - BSPCB",07-10-2025 07:00:00,25.567520,83.966379,PM10,69,71,71
India,Bihar,Buxar,"Charitra Van, Buxar - BSPCB",07-10-2025 07:00:00,25.567520,83.966379,CO,15,28,25
India,Assam,Sivasagar,"Girls College, Sivasagar - PCBA",07-10-2025 07:00:00,26.987634,94.636574,NO2,12,21,18
India,Assam,Sivasagar,"Girls College, Sivasagar - PCBA",07-10-2025 07:00:00,26.987634,94.636574,NH3,3,6,4
India,Bihar,Aurangabad,"Gurdeo Nagar, Aurangabad - BSPCB",07-10-2025 07:00:00,24.75746,84.366208,CO,11,140,104
India,Bihar,Aurangabad,"Gurdeo Nagar, Aurangabad - BSPCB",07-10-2025 07:00:00,24.75746,84.366208,NH3,1,2,1
India,Assam,Silchar,"Tarapur, Silchar - PCBA",07-10-2025 07:00:00,24.82827,92.79525,NH3,1,1,1
India,Bihar,Gaya,"Collectorate, Gaya - BSPCB",07-10-2025 07:00:00,24.7955,84.9994,NO2,9,9,9
India,Bihar,Gaya,"Collectorate, Gaya - BSPCB",07-10-2025 07:00:00,24.7955,84.9994,SO2,10,13,11
India,Bihar,Gaya,"Collectorate, Gaya - BSPCB",07-10-2025 07:00:00,24.7955,84.9994,CO,43,57,46
India,Bihar,Gaya,"Kareemganj, Gaya - BSPCB",07-10-2025 07:00:00,24.792403,84.992416,NO2,2,7,4
India,Bihar,Gaya,"Kareemganj, Gaya - BSPCB",07-10-2025 07:00:00,24.792403,84.992416,SO2,16,16,16
India,Bihar,Gaya,"SFTI Kusdihra, Gaya - BSPCB",07-10-2025 07:00:00,24.762518,84.982348,PM2.5,20,37,28
India,Bihar,Gaya,"SFTI Kusdihra, Gaya - BSPCB",07-10-2025 07:00:00,24.762518,84.982348,PM10,28,39,33
India,Bihar,Purnia,"Mariam Nagar, Purnia - BSPCB",07-10-2025 07:00:00,25.366336,87.117468,PM2.5,NA,NA,NA
India,Bihar,Rajgir,"Dangi Tola, Rajgir - BSPCB",07-10-2025 07:00:00,25.03280,85.41948,NO2,8,10,9
India,Bihar,Rajgir,"Dangi Tola, Rajgir - BSPCB",07-10-2025 07:00:00,25.03280,85.41948,CO,74,100,90
India,Bihar,Saharsa,"Police Line, Saharsa - BSPCB",07-10-2025 07:00:00,25.892357,86.590325,PM10,NA,NA,NA
India,Bihar,Saharsa,"Police Line, Saharsa - BSPCB",07-10-2025 07:00:00,25.892357,86.590325,SO2,NA,NA,NA
India,Bihar,Hajipur,"Industrial Area, Hajipur - BSPCB",07-10-2025 07:00:00,25.697189,85.245900,OZONE,2,51,5
India,Bihar,Katihar,"Mirchaibari, Katihar - BSPCB",07-10-2025 07:00:00,25.560083,87.553265,NH3,NA,NA,NA
India,Bihar,Katihar,"Mirchaibari, Katihar - BSPCB",07-10-2025 07:00:00,25.560083,87.553265,SO2,NA,NA,NA
India,Bihar,Katihar,"Mirchaibari, Katihar - BSPCB",07-10-2025 07:00:00,25.560083,87.553265,CO,NA,NA,NA
India,Bihar,Katihar,"Mirchaibari, Katihar - BSPCB",07-10-2025 07:00:00,25.560083,87.553265,OZONE,NA,NA,NA
India,Bihar,Motihari,"Gandak Colony, Motihari - BSPCB",07-10-2025 07:00:00,26.63086,84.90051,SO2,2,3,2
India,Bihar,Munger,"Town Hall, Munger - BSPCB",07-10-2025 07:00:00,25.376776,86.471523,PM2.5,3,35,17
India,Bihar,Patna,"DRM Office Danapur, Patna - BSPCB",07-10-2025 07:00:00,25.586562,85.043586,CO,24,28,27
India,Bihar,Patna,"Govt. High School Shikarpur, Patna - BSPCB",07-10-2025 07:00:00,25.592539,85.227158,PM10,31,40,34
India,Bihar,Patna,"IGSC Planetarium Complex, Patna - BSPCB",07-10-2025 07:00:00,25.610369,85.132568,NO2,NA,NA,NA
India,Bihar,Patna,"IGSC Planetarium Complex, Patna - BSPCB",07-10-2025 07:00:00,25.610369,85.132568,OZONE,NA,NA,NA
India,Bihar,Manguraha,"Forest Rest House, Manguraha - BSPCB",07-10-2025 07:00:00,27.308328,84.531742,NO2,5,14,9
India,Bihar,Patna,"DRM Office Danapur, Patna - BSPCB",07-10-2025 07:00:00,25.586562,85.043586,PM10,9,54,28
India,Bihar,Patna,"Samanpura, Patna - BSPCB",07-10-2025 07:00:00,25.596727,85.085624,NH3,6,8,6
India,Chhattisgarh,Korba,"Rampur, Korba - CECB",07-10-2025 07:00:00,22.368195,82.746431,NH3,2,2,2
India,Chhattisgarh,Korba,"Urja Nagar, Korba - CECB",07-10-2025 07:00:00,22.348441,82.549611,PM2.5,16,22,17
India,Chhattisgarh,Korba,"Urja Nagar, Korba - CECB",07-10-2025 07:00:00,22.348441,82.549611,NH3,1,2,2
India,Chhattisgarh,Korba,"Urja Nagar, Korba - CECB",07-10-2025 07:00:00,22.348441,82.549611,SO2,5,11,8
India,Chhattisgarh,Kunjemura,"OP Jindal School, Kunjemura - CECB",07-10-2025 07:00:00,22.126650,83.483212,NH3,2,2,2
India,Chhattisgarh,Milupara,"Govt. Higher Secondary School, Milupara - CECB",07-10-2025 07:00:00,22.1910172,83.5197009,SO2,NA,NA,NA
India,Bihar,Samastipur,"DM Office_Kasipur, Samastipur - BSPCB",07-10-2025 07:00:00,25.859655,85.77944,NO2,6,9,8
India,Bihar,Siwan,"Chitragupta Nagar, Siwan - BSPCB",07-10-2025 07:00:00,26.2271665,84.3570427,PM10,36,257,99
India,Bihar,Siwan,"Chitragupta Nagar, Siwan - BSPCB",07-10-2025 07:00:00,26.2271665,84.3570427,CO,79,121,91
India,Chandigarh,Chandigarh,"Sector 22, Chandigarh - CPCC",07-10-2025 07:00:00,30.735567,76.775714,NO2,11,77,38
India,Chandigarh,Chandigarh,"Sector 22, Chandigarh - CPCC",07-10-2025 07:00:00,30.735567,76.775714,SO2,2,6,4
India,Chhattisgarh,Raipur,"AIIMS, Raipur - CECB",07-10-2025 07:00:00,21.258815,81.578979,PM10,NA,NA,NA
India,Chhattisgarh,Raipur,"Bhatagaon New ISBT, Raipur - CECB",07-10-2025 07:00:00,21.219665,81.630094,PM2.5,8,17,12
India,Chhattisgarh,Raipur,"Bhatagaon New ISBT, Raipur - CECB",07-10-2025 07:00:00,21.219665,81.630094,CO,18,58,39
India,Chhattisgarh,Raipur,"Siltara Phase-II, Raipur - CECB",07-10-2025 07:00:00,21.371751,81.664929,OZONE,3,46,6
India,Chandigarh,Chandigarh,"Sector-25, Chandigarh - CPCC",07-10-2025 07:00:00,30.751462,76.762879,PM2.5,12,47,29
India,Chandigarh,Chandigarh,"Sector-25, Chandigarh - CPCC",07-10-2025 07:00:00,30.751462,76.762879,OZONE,3,12,7
India,Chandigarh,Chandigarh,"Sector-53, Chandigarh - CPCC",07-10-2025 07:00:00,30.719859,76.738637,NH3,3,22,11
India,Chhattisgarh,Bhilai,"Hathkhoj, Bhilai - CECB",07-10-2025 07:00:00,21.224231,81.408350,PM10,20,38,27
India,Chandigarh,Chandigarh,"Sector-53, Chandigarh - CPCC",07-10-2025 07:00:00,30.719859,76.738637,PM10,NA,NA,NA
India,Delhi,Delhi,"Dr. Karni Singh Shooting Range, Delhi - DPCC",07-10-2025 07:00:00,28.498571,77.264840,SO2,4,12,8
India,Delhi,Delhi,"Dwarka-Sector 8, Delhi - DPCC ",07-10-2025 07:00:00,28.5710274,77.0719006,PM2.5,8,67,43
India,Delhi,Delhi,"Dwarka-Sector 8, Delhi - DPCC ",07-10-2025 07:00:00,28.5710274,77.0719006,PM10,7,152,58
India,Delhi,Delhi,"Dwarka-Sector 8, Delhi - DPCC ",07-10-2025 07:00:00,28.5710274,77.0719006,NO2,29,79,54
India,Delhi,Delhi,"IGI Airport (T3), Delhi - IMD",07-10-2025 07:00:00,28.5627763,77.1180053,PM2.5,4,67,40
India,Delhi,Delhi,"Burari Crossing, Delhi - IMD",07-10-2025 07:00:00,28.7256504,77.2011573,PM10,24,103,61
India,Delhi,Delhi,"Chandni Chowk, Delhi - IITM",07-10-2025 07:00:00,28.656756,77.227234,SO2,NA,NA,NA
India,Delhi,Delhi,"Jahangirpuri, Delhi - DPCC",07-10-2025 07:00:00,28.732820,77.170633,OZONE,9,44,17
India,Delhi,Delhi,"Jawaharlal Nehru Stadium, Delhi - DPCC",07-10-2025 07:00:00,28.580280,77.233829,PM2.5,20,60,42
India,Delhi,Delhi,"Aya Nagar, Delhi - IMD",07-10-2025 07:00:00,28.4706914,77.1099364,NO2,18,40,28
India,Delhi,Delhi,"Bawana, Delhi - DPCC",07-10-2025 07:00:00,28.776200,77.051074,CO,48,78,55
India,Delhi,Delhi,"IHBAS, Dilshad Garden, Delhi - CPCB",07-10-2025 07:00:00,28.6811736,77.3025234,NH3,2,3,2
India,Delhi,Delhi,"ITO, Delhi - CPCB",07-10-2025 07:00:00,28.628624,77.241060,NH3,4,6,4
India,Delhi,Delhi,"Jawaharlal Nehru Stadium, Delhi - DPCC",07-10-2025 07:00:00,28.580280,77.233829,CO,30,60,35
India,Delhi,Delhi,"IGI Airport (T3), Delhi - IMD",07-10-2025 07:00:00,28.5627763,77.1180053,NO2,41,128,76
India,Delhi,Delhi,"Lodhi Road, Delhi - IITM",07-10-2025 07:00:00,28.588333,77.221667,PM10,21,85,45
India,Delhi,Delhi,"Jahangirpuri, Delhi - DPCC",07-10-2025 07:00:00,28.732820,77.170633,NO2,30,57,40
India,Delhi,Delhi,"NSIT Dwarka, Delhi - CPCB",07-10-2025 07:00:00,28.60909,77.0325413,SO2,8,31,15
India,Delhi,Delhi,"NSIT Dwarka, Delhi - CPCB",07-10-2025 07:00:00,28.60909,77.0325413,CO,12,104,76
India,Delhi,Delhi,"Najafgarh, Delhi - DPCC",07-10-2025 07:00:00,28.570173,76.933762,PM2.5,3,60,33
India,Delhi,Delhi,"Najafgarh, Delhi - DPCC",07-10-2025 07:00:00,28.570173,76.933762,SO2,6,11,9
India,Delhi,Delhi,"Najafgarh, Delhi - DPCC",07-10-2025 07:00:00,28.570173,76.933762,OZONE,4,33,9
India,Delhi,Delhi,"Narela, Delhi - DPCC",07-10-2025 07:00:00,28.822836,77.101981,PM2.5,27,73,50
India,Delhi,Delhi,"North Campus, DU, Delhi - IMD",07-10-2025 07:00:00,28.6573814,77.1585447,PM2.5,24,94,50
India,Delhi,Delhi,"North Campus, DU, Delhi - IMD",07-10-2025 07:00:00,28.6573814,77.1585447,NO2,62,107,80
India,Delhi,Delhi,"North Campus, DU, Delhi - IMD",07-10-2025 07:00:00,28.6573814,77.1585447,CO,1,40,7
India,Delhi,Delhi,"Okhla Phase-2, Delhi - DPCC",07-10-2025 07:00:00,28.530785,77.271255,PM2.5,NA,NA,NA
India,Delhi,Delhi,"Okhla Phase-2, Delhi - DPCC",07-10-2025 07:00:00,28.530785,77.271255,CO,NA,NA,NA
India,Delhi,Delhi,"Okhla Phase-2, Delhi - DPCC",07-10-2025 07:00:00,28.530785,77.271255,OZONE,NA,NA,NA
India,Delhi,Delhi,"Patparganj, Delhi - DPCC",07-10-2025 07:00:00,28.623763,77.287209,SO2,6,8,7
India,Delhi,Delhi,"Punjabi Bagh, Delhi - DPCC",07-10-2025 07:00:00,28.674045,77.131023,PM2.5,10,93,56
India,Delhi,Delhi,"Punjabi Bagh, Delhi - DPCC",07-10-2025 07:00:00,28.674045,77.131023,SO2,NA,NA,NA
India,Delhi,Delhi,"Lodhi Road, Delhi - IMD",07-10-2025 07:00:00,28.5918245,77.2273074,OZONE,1,38,1
India,Delhi,Delhi,"Mandir Marg, Delhi - DPCC",07-10-2025 07:00:00,28.636429,77.201067,OZONE,NA,NA,NA
India,Delhi,Delhi,"Mundka, Delhi - DPCC",07-10-2025 07:00:00,28.684678,77.076574,NO2,21,50,36
India,Delhi,Delhi,"Rohini, Delhi - DPCC",07-10-2025 07:00:00,28.732528,77.119920,PM10,30,133,69
India,Delhi,Delhi,"Rohini, Delhi - DPCC",07-10-2025 07:00:00,28.732528,77.119920,NO2,6,72,19
India,Delhi,Delhi,"Rohini, Delhi - DPCC",07-10-2025 07:00:00,28.732528,77.119920,SO2,3,15,4
India,Delhi,Delhi,"Rohini, Delhi - DPCC",07-10-2025 07:00:00,28.732528,77.119920,CO,6,19,13
India,Delhi,Delhi,"Sri Aurobindo Marg, Delhi - DPCC",07-10-2025 07:00:00,28.531346,77.190156,PM2.5,23,75,46
India,Delhi,Delhi,"Vivek Vihar, Delhi - DPCC",07-10-2025 07:00:00,28.672342,77.315260,PM2.5,32,226,70
India,Delhi,Delhi,"Sonia Vihar, Delhi - DPCC",07-10-2025 07:00:00,28.710508,77.249485,NH3,5,7,6
India,Delhi,Delhi,"Sonia Vihar, Delhi - DPCC",07-10-2025 07:00:00,28.710508,77.249485,CO,42,84,47
India,Delhi,Delhi,"Pusa, Delhi - DPCC",07-10-2025 07:00:00,28.639652,77.146275,CO,18,92,36
India,Delhi,Delhi,"Pusa, Delhi - DPCC",07-10-2025 07:00:00,28.639652,77.146275,OZONE,13,36,22
India,Delhi,Delhi,"Vivek Vihar, Delhi - DPCC",07-10-2025 07:00:00,28.672342,77.315260,SO2,16,61,23
India,Delhi,Delhi,"Sirifort, Delhi - CPCB",07-10-2025 07:00:00,28.5504249,77.2159377,CO,9,29,17
India,Delhi,Delhi,"Vivek Vihar, Delhi - DPCC",07-10-2025 07:00:00,28.672342,77.315260,CO,42,64,45
India,Delhi,Delhi,"Wazirpur, Delhi - DPCC",07-10-2025 07:00:00,28.699793,77.165453,PM10,58,148,95
India,Delhi,Delhi,"Wazirpur, Delhi - DPCC",07-10-2025 07:00:00,28.699793,77.165453,NO2,37,80,55
India,Delhi,Delhi,"Wazirpur, Delhi - DPCC",07-10-2025 07:00:00,28.699793,77.165453,SO2,12,22,16
India,Gujarat,Ahmedabad,"Raikhad, Ahmedabad - IITM",07-10-2025 07:00:00,23.020509,72.579261,NH3,11,14,12
India,Gujarat,Ahmedabad,"Raikhad, Ahmedabad - IITM",07-10-2025 07:00:00,23.020509,72.579261,CO,3,34,12
India,Gujarat,Ahmedabad,"Rakhial, Ahmedabad - IITM",07-10-2025 07:00:00,23.016834,72.625775,PM2.5,16,39,28
India,Gujarat,Ahmedabad,"SAC ISRO Bopal, Ahmedabad - IITM",07-10-2025 07:00:00,23.041137,72.456691,NH3,2,3,3
India,Gujarat,Ahmedabad,"SAC ISRO Bopal, Ahmedabad - IITM",07-10-2025 07:00:00,23.041137,72.456691,SO2,1,2,1
India,Gujarat,Ahmedabad,"SVPI Airport Hansol, Ahmedabad - IITM",07-10-2025 07:00:00,23.076793,72.627874,OZONE,1,23,4
India,Gujarat,Ahmedabad,"SVPI Airport Hansol, Ahmedabad - IITM",07-10-2025 07:00:00,23.076793,72.627874,PM2.5,5,15,10
India,Gujarat,Ahmedabad,"Chandkheda, Ahmedabad - IITM",07-10-2025 07:00:00,23.107969,72.574648,PM2.5,6,45,17
India,Gujarat,Ahmedabad,"Maninagar, Ahmedabad - GPCB",07-10-2025 07:00:00,23.002657,72.591912,OZONE,44,67,50
India,Gujarat,Ahmedabad,"Maninagar, Ahmedabad - GPCB",07-10-2025 07:00:00,23.002657,72.591912,PM10,21,52,35
India,Gujarat,Ahmedabad,"Chandkheda, Ahmedabad - IITM",07-10-2025 07:00:00,23.107969,72.574648,CO,20,62,45
India,Gujarat,Vatva,"Phase-4 GIDC, Vatva - GPCB",07-10-2025 07:00:00,22.969611,72.643500,PM10,52,66,61
India,Gujarat,Vatva,"Phase-4 GIDC, Vatva - GPCB",07-10-2025 07:00:00,22.969611,72.643500,SO2,20,27,24
India,Haryana,Bahadurgarh,"Arya Nagar, Bahadurgarh - HSPCB",07-10-2025 07:00:00,28.6701,76.9254,NO2,11,15,14
India,Haryana,Bahadurgarh,"Arya Nagar, Bahadurgarh - HSPCB",07-10-2025 07:00:00,28.6701,76.9254,NH3,11,14,13
India,Haryana,Bahadurgarh,"Arya Nagar, Bahadurgarh - HSPCB",07-10-2025 07:00:00,28.6701,76.9254,OZONE,14,21,18
India,Gujarat,Gandhinagar,"Sector-10, Gandhinagar - GPCB",07-10-2025 07:00:00,23.221714,72.654328,CO,30,43,37
India,Gujarat,Gandhinagar,"Sector-10, Gandhinagar - GPCB",07-10-2025 07:00:00,23.221714,72.654328,OZONE,6,33,16
India,Gujarat,Surat,"Science Center, Surat - SMC",07-10-2025 07:00:00,21.170046,72.795405,PM10,5,87,39
India,Gujarat,Surat,"Science Center, Surat - SMC",07-10-2025 07:00:00,21.170046,72.795405,NO2,12,23,17
India,Gujarat,Surat,"Science Center, Surat - SMC",07-10-2025 07:00:00,21.170046,72.795405,SO2,16,19,18
India,Gujarat,Ankleshwar,"GIDC, Ankleshwar - GPCB",07-10-2025 07:00:00,21.613267,73.010555,SO2,53,54,54
India,Gujarat,Gandhinagar,"GIFT City, Gandhinagar - IITM",07-10-2025 07:00:00,23.163798,72.677768,PM2.5,9,38,19
India,Haryana,Charkhi Dadri,"Mini Secretariat, Charkhi Dadri - HSPCB",07-10-2025 07:00:00,28.593883,76.270653,OZONE,13,17,15
India,Gujarat,Gandhinagar,"IIPHG Lekawada, Gandhinagar - IITM",07-10-2025 07:00:00,23.243639,72.68994,SO2,2,79,11
India,Gujarat,Gandhinagar,"GIFT City, Gandhinagar - IITM",07-10-2025 07:00:00,23.163798,72.677768,NH3,1,8,3
India,Haryana,Bhiwani,"H.B. Colony, Bhiwani - HSPCB",07-10-2025 07:00:00,28.806223,76.141105,NO2,31,35,33
India,Gujarat,Gandhinagar,"Sector-10, Gandhinagar - GPCB",07-10-2025 07:00:00,23.221714,72.654328,SO2,2,10,7
India,Gujarat,Vapi,"Phase-1 GIDC, Vapi - GPCB",07-10-2025 07:00:00,20.362421,72.918013,NH3,10,10,10
India,Haryana,Manesar,"Sector-2 IMT, Manesar - HSPCB",07-10-2025 07:00:00,28.360699,76.936090,CO,28,50,36
India,Haryana,Narnaul,"Shastri Nagar, Narnaul - HSPCB",07-10-2025 07:00:00,28.060249,76.113115,NH3,9,15,12
India,Haryana,Narnaul,"Shastri Nagar, Narnaul - HSPCB",07-10-2025 07:00:00,28.060249,76.113115,SO2,10,12,11
India,Haryana,Narnaul,"Shastri Nagar, Narnaul - HSPCB",07-10-2025 07:00:00,28.060249,76.113115,OZONE,12,14,13
India,Haryana,Karnal,"Sector-12, Karnal - HSPCB",07-10-2025 07:00:00,29.695300,77.002700,NO2,12,12,12
India,Haryana,Karnal,"Sector-12, Karnal - HSPCB",07-10-2025 07:00:00,29.695300,77.002700,NH3,2,2,2
India,Haryana,Kurukshetra,"Sector-7, Kurukshetra - HSPCB",07-10-2025 07:00:00,29.966942,76.875879,OZONE,13,42,16
India,Haryana,Faridabad,"Sector 11, Faridabad - HSPCB",07-10-2025 07:00:00,28.376058,77.315741,PM2.5,48,52,50
India,Haryana,Faridabad,"Sector 11, Faridabad - HSPCB",07-10-2025 07:00:00,28.376058,77.315741,PM10,86,94,90
India,Haryana,Faridabad,"Sector 30, Faridabad - HSPCB",07-10-2025 07:00:00,28.4417,77.3217,PM10,97,102,100
India,Haryana,Panchgaon,"Amity University, Panchgaon - IITM",07-10-2025 07:00:00,28.3153,76.9143,PM2.5,13,56,31
India,Haryana,Panchgaon,"Amity University, Panchgaon - IITM",07-10-2025 07:00:00,28.3153,76.9143,CO,2,32,16
India,Haryana,Gurugram,"Sector-51, Gurugram - HSPCB",07-10-2025 07:00:00,28.4227,77.0667,CO,10,56,29
India,Haryana,Gurugram,"Sector-51, Gurugram - HSPCB",07-10-2025 07:00:00,28.4227,77.0667,OZONE,4,25,23
India,Haryana,Faridabad,"New Industrial Town, Faridabad - HSPCB",07-10-2025 07:00:00,28.39072,77.30059,PM10,109,118,113
India,Haryana,Faridabad,"New Industrial Town, Faridabad - HSPCB",07-10-2025 07:00:00,28.39072,77.30059,OZONE,26,35,29
India,Haryana,Panipat,"Sector-18, Panipat - HSPCB",07-10-2025 07:00:00,29.432304,76.972765,PM2.5,11,86,32
India,Haryana,Panipat,"Sector-18, Panipat - HSPCB",07-10-2025 07:00:00,29.432304,76.972765,NO2,2,18,10
India,Himachal Pradesh,Baddi,"HIMUDA Complex Phase-1, Baddi - HPPCB",07-10-2025 07:00:00,30.943887,76.801991,CO,39,68,51
India,Jammu_and_Kashmir,Srinagar,"Rajbagh, Srinagar - JKSPCB",07-10-2025 07:00:00,34.066206,74.819820,CO,11,17,13
India,Jharkhand,Jorapokhar,"Tata Stadium, Jorapokhar - JSPCB",07-10-2025 07:00:00,23.707909,86.414670,OZONE,6,28,6
India,Karnataka,Bagalkot,"Vidayagiri, Bagalkot - KSPCB",07-10-2025 07:00:00,16.172806,75.659694,PM2.5,33,34,34
India,Karnataka,Bagalkot,"Vidayagiri, Bagalkot - KSPCB",07-10-2025 07:00:00,16.172806,75.659694,NO2,9,10,9
India,Karnataka,Bagalkot,"Vidayagiri, Bagalkot - KSPCB",07-10-2025 07:00:00,16.172806,75.659694,SO2,7,7,7
India,Karnataka,Bengaluru,"Shivapura_Peenya, Bengaluru - KSPCB",07-10-2025 07:00:00,13.0246342,77.5080115,PM10,48,102,67
India,Karnataka,Bengaluru,"Silk Board, Bengaluru - KSPCB",07-10-2025 07:00:00,12.917348,77.622813,PM10,54,426,201
India,Karnataka,Bengaluru,"Jayanagar 5th Block, Bengaluru - KSPCB",07-10-2025 07:00:00,12.920984,77.584908,NO2,22,84,47
India,Karnataka,Bengaluru,"Jayanagar 5th Block, Bengaluru - KSPCB",07-10-2025 07:00:00,12.920984,77.584908,OZONE,1,37,9
India,Karnataka,Bengaluru,"Bapuji Nagar, Bengaluru - KSPCB",07-10-2025 07:00:00,12.951913,77.539784,NH3,1,3,1
India,Karnataka,Bengaluru,"Bapuji Nagar, Bengaluru - KSPCB",07-10-2025 07:00:00,12.951913,77.539784,CO,24,112,62
India,Karnataka,Bengaluru,"Sanegurava Halli, Bengaluru - KSPCB",07-10-2025 07:00:00,12.990328,77.5431385,NO2,16,20,18
India,Karnataka,Bengaluru,"Hombegowda Nagar, Bengaluru - KSPCB",07-10-2025 07:00:00,12.938539,77.590100,NH3,1,2,1
India,Karnataka,Bengaluru,"Peenya, Bengaluru - CPCB",07-10-2025 07:00:00,13.0270199,77.494094,OZONE,27,28,28
India,Haryana,Panipat,"Sector-18, Panipat - HSPCB",07-10-2025 07:00:00,29.432304,76.972765,CO,1,11,2
India,Haryana,Sirsa,"F-Block, Sirsa - HSPCB",07-10-2025 07:00:00,29.536400,75.015800,SO2,5,8,7
India,Karnataka,Karwar,"KHB Colony, Karwar - KSPCB",07-10-2025 07:00:00,14.816666,74.141003,PM2.5,7,28,16
India,Karnataka,Koppal,"Diwator Nagar, Koppal - KSPCB",07-10-2025 07:00:00,15.347630,76.181767,OZONE,10,15,12
India,Karnataka,Madikeri,"Stuart Hill, Madikeri - KSPCB",07-10-2025 07:00:00,12.415911,75.735050,CO,NA,NA,NA
India,Karnataka,Madikeri,"Stuart Hill, Madikeri - KSPCB",07-10-2025 07:00:00,12.415911,75.735050,OZONE,3,8,5
India,Karnataka,Mangalore,"Kadri, Mangalore - KSPCB",07-10-2025 07:00:00,12.889250,74.853000,SO2,NA,NA,NA
India,Karnataka,Davanagere,"Devaraj Urs Badavane, Davanagere - KSPCB",07-10-2025 07:00:00,14.475800,75.905200,CO,14,26,19
India,Karnataka,Dharwad,"Kalabhavan, Dharwad - KSPCB",07-10-2025 07:00:00,15.459706,75.008381,NO2,12,12,12
India,Karnataka,Dharwad,"Kalabhavan, Dharwad - KSPCB",07-10-2025 07:00:00,15.459706,75.008381,CO,28,48,37
India,Karnataka,Haveri,"Ashwini Nagar, Haveri - KSPCB",07-10-2025 07:00:00,14.791800,75.389600,SO2,NA,NA,NA
India,Karnataka,Hubballi,"Lingaraj Nagar, Hubballi - KSPCB",07-10-2025 07:00:00,15.3714823,75.1160168,CO,6,14,11
India,Karnataka,Kalaburagi,"Mahatma Basaveswar Colony, Kalaburgi - KSPCB",07-10-2025 07:00:00,17.336318,76.847397,PM2.5,19,39,32
India,Karnataka,Kalaburagi,"Mahatma Basaveswar Colony, Kalaburgi - KSPCB",07-10-2025 07:00:00,17.336318,76.847397,PM10,25,53,43
India,Karnataka,Mysuru,"Hebbal 1st Stage, Mysuru - KSPCB",07-10-2025 07:00:00,12.21041,76.37376,CO,2,42,7
India,Karnataka,Shivamogga,"Vinoba Nagara, Shivamogga - KSPCB",07-10-2025 07:00:00,13.940000,75.555917,PM2.5,30,44,36
India,Karnataka,Shivamogga,"Vinoba Nagara, Shivamogga - KSPCB",07-10-2025 07:00:00,13.940000,75.555917,OZONE,9,48,16
India,Karnataka,Haveri,"Ashwini Nagar, Haveri - KSPCB",07-10-2025 07:00:00,14.791800,75.389600,OZONE,15,38,21
India,Karnataka,Hubballi,"Lingaraj Nagar, Hubballi - KSPCB",07-10-2025 07:00:00,15.3714823,75.1160168,PM10,43,54,48
India,Karnataka,Hubballi,"Lingaraj Nagar, Hubballi - KSPCB",07-10-2025 07:00:00,15.3714823,75.1160168,NO2,7,8,7
India,Karnataka,Chikkaballapur,"Chikkaballapur Rural, Chikkaballapur - KSPCB",07-10-2025 07:00:00,13.428828,77.731418,NH3,NA,NA,NA
India,Karnataka,Chikkaballapur,"Chikkaballapur Rural, Chikkaballapur - KSPCB",07-10-2025 07:00:00,13.428828,77.731418,OZONE,NA,NA,NA
India,Karnataka,Chikkamagaluru,"Kalyana Nagara, Chikkamagaluru - KSPCB",07-10-2025 07:00:00,13.328028,75.797056,NO2,NA,NA,NA
India,Karnataka,Chamarajanagar,"Urban, Chamarajanagar - KSPCB",07-10-2025 07:00:00,11.55358,76.55521,NH3,1,3,2
India,Karnataka,Chikkaballapur,"Chikkaballapur Rural, Chikkaballapur - KSPCB",07-10-2025 07:00:00,13.428828,77.731418,PM10,NA,NA,NA
India,Karnataka,Bengaluru,"Silk Board, Bengaluru - KSPCB",07-10-2025 07:00:00,12.917348,77.622813,NO2,5,19,10
India,Karnataka,Bengaluru,"Silk Board, Bengaluru - KSPCB",07-10-2025 07:00:00,12.917348,77.622813,CO,2,62,8
India,Karnataka,Vijayapura,"Ibrahimpur, Vijayapura - KSPCB",07-10-2025 07:00:00,16.802639,75.722694,PM10,43,44,44
India,Karnataka,Vijayapura,"Ibrahimpur, Vijayapura - KSPCB",07-10-2025 07:00:00,16.802639,75.722694,NO2,9,10,9
India,Karnataka,Yadgir,"Collector Office, Yadgir - KSPCB",07-10-2025 07:00:00,16.7602,77.1428,PM2.5,6,30,18
India,Karnataka,Yadgir,"Collector Office, Yadgir - KSPCB",07-10-2025 07:00:00,16.7602,77.1428,NO2,27,48,35
India,Kerala,Eloor,"Udyogamandal, Eloor - Kerala PCB",07-10-2025 07:00:00,10.073232,76.302765,PM2.5,44,67,52
India,Kerala,Thiruvananthapuram,"Kariavattom, Thiruvananthapuram - Kerala PCB",07-10-2025 07:00:00,8.563700,76.886500,PM2.5,38,50,46
India,Kerala,Thiruvananthapuram,"Kariavattom, Thiruvananthapuram - Kerala PCB",07-10-2025 07:00:00,8.563700,76.886500,CO,26,77,34
India,Kerala,Thiruvananthapuram,"Kariavattom, Thiruvananthapuram - Kerala PCB",07-10-2025 07:00:00,8.563700,76.886500,OZONE,36,37,36
India,Kerala,Thrissur,"Corporation Ground, Thrissur - Kerala PCB",07-10-2025 07:00:00,10.532400,76.215900,NO2,9,11,9
India,Madhya Pradesh,Bhopal,"T T Nagar, Bhopal - MPPCB",07-10-2025 07:00:00,23.233584,77.400574,OZONE,27,49,34
India,Madhya Pradesh,Damoh,"Shrivastav Colony, Damoh - MPPCB",07-10-2025 07:00:00,23.81748678,79.446246,PM10,27,500,75
India,Madhya Pradesh,Dewas,"Bhopal Chauraha, Dewas - MPPCB",07-10-2025 07:00:00,22.9682591,76.064118,NH3,1,3,3
India,Kerala,Eloor,"Udyogamandal, Eloor - Kerala PCB",07-10-2025 07:00:00,10.073232,76.302765,SO2,1,1,1
India,Kerala,Kannur,"Thavakkara, Kannur - Kerala PCB",07-10-2025 07:00:00,11.875000,75.373200,PM10,58,63,59
India,Kerala,Kannur,"Thavakkara, Kannur - Kerala PCB",07-10-2025 07:00:00,11.875000,75.373200,OZONE,27,32,28
India,Madhya Pradesh,Bhopal,"Paryavaran Parisar, Bhopal - MPPCB",07-10-2025 07:00:00,23.210494,77.425409,SO2,11,16,14
India,Madhya Pradesh,Bhopal,"Paryavaran Parisar, Bhopal - MPPCB",07-10-2025 07:00:00,23.210494,77.425409,CO,15,26,18
India,Kerala,Kollam,"Polayathode, Kollam - Kerala PCB",07-10-2025 07:00:00,8.8787,76.6073,SO2,NA,NA,NA
India,Kerala,Kollam,"Polayathode, Kollam - Kerala PCB",07-10-2025 07:00:00,8.8787,76.6073,CO,NA,NA,NA
India,Madhya Pradesh,Bhopal,"Paryavaran Parisar, Bhopal - MPPCB",07-10-2025 07:00:00,23.210494,77.425409,NO2,7,16,10
India,Madhya Pradesh,Gwalior,"City Center, Gwalior - MPPCB",07-10-2025 07:00:00,26.203442,78.193251,CO,20,38,25
India,Madhya Pradesh,Bhopal,"Idgah Hills, Bhopal - MPPCB",07-10-2025 07:00:00,23.264759,77.381568,SO2,10,13,11
India,Madhya Pradesh,Gwalior,"Deen Dayal Nagar, Gwalior - MPPCB",07-10-2025 07:00:00,26.259242,78.216432,SO2,10,16,13
India,Madhya Pradesh,Gwalior,"Maharaj Bada, Gwalior - MPPCB",07-10-2025 07:00:00,26.200388,78.147714,PM10,36,107,55
India,Madhya Pradesh,Gwalior,"Maharaj Bada, Gwalior - MPPCB",07-10-2025 07:00:00,26.200388,78.147714,SO2,4,9,7
India,Madhya Pradesh,Indore,"Chhoti Gwaltoli, Indore - MPPCB",07-10-2025 07:00:00,22.4310,75.5213,NH3,4,8,7
India,Madhya Pradesh,Maihar,"Sahilara, Maihar - KJS Cements",07-10-2025 07:00:00,24.2613009,80.7231783,CO,44,48,45
India,Madhya Pradesh,Mandideep,"Sector-D Industrial Area, Mandideep - MPPCB",07-10-2025 07:00:00,23.108440,77.511428,SO2,6,21,9
India,Madhya Pradesh,Pithampur,"Sector-2 Industrial Area, Pithampur - MPPCB",07-10-2025 07:00:00,22.624758,75.675238,PM10,46,235,106
India,Madhya Pradesh,Jabalpur,"Suhagi, Jabalpur - JMC",07-10-2025 07:00:00,23.218135,79.957770,PM2.5,22,57,36
India,Madhya Pradesh,Jabalpur,"Suhagi, Jabalpur - JMC",07-10-2025 07:00:00,23.218135,79.957770,NH3,2,2,2
India,Madhya Pradesh,Jabalpur,"Suhagi, Jabalpur - JMC",07-10-2025 07:00:00,23.218135,79.957770,SO2,10,37,22
India,Madhya Pradesh,Katni,"Gole Bazar, Katni - MPPCB",07-10-2025 07:00:00,23.50016,80.23284,PM2.5,27,48,36
India,Madhya Pradesh,Katni,"Gole Bazar, Katni - MPPCB",07-10-2025 07:00:00,23.50016,80.23284,NO2,31,37,33
India,Madhya Pradesh,Indore,"Regional Park, Indore - IMC",07-10-2025 07:00:00,22.6780,75.8559,PM2.5,16,44,28
