country,state,city,station,last_update,latitude,longitude,pollutant_id,min_value,max_value,avg_value
India,Andhra_Pradesh,Kadapa,"Yerramukkapalli, Kadapa - APPCB",04-09-2025 07:00:00,14.465052,78.824187,PM2.5,62,79,69
India,Andhra_Pradesh,Rajamahendravaram,"Anand Kala Kshetram, Rajamahendravaram - APPCB",04-09-2025 07:00:00,16.9872867,81.7363176,OZONE,8,13,10
India,Andhra_Pradesh,Tirumala,"Toll Gate, Tirumala - APPCB",04-09-2025 07:00:00,13.67,79.35,PM2.5,17,41,26
India,Andhra_Pradesh,Tirumala,"Toll Gate, Tirumala - APPCB",04-09-2025 07:00:00,13.67,79.35,CO,4,102,20
India,Andhra_Pradesh,Tirupati,"Vaikuntapuram, Tirupati - APPCB",04-09-2025 07:00:00,13.615387,79.409230,PM10,NA,NA,NA
India,Andhra_Pradesh,Tirupati,"Vaikuntapuram, Tirupati - APPCB",04-09-2025 07:00:00,13.615387,79.409230,CO,NA,NA,NA
India,Andhra_Pradesh,Vijayawada,"HB Colony, Vijayawada - APPCB",04-09-2025 07:00:00,16.536107,80.594233,NH3,4,5,5
India,Andhra_Pradesh,Vijayawada,"Rajiv Gandhi Park, Vijayawada - APPCB",04-09-2025 07:00:00,16.509717,80.612222,NH3,3,5,5
India,Andhra_Pradesh,Vijayawada,"Rajiv Gandhi Park, Vijayawada - APPCB",04-09-2025 07:00:00,16.509717,80.612222,SO2,25,27,26
India,Andhra_Pradesh,Vijayawada,"Rajiv Nagar, Vijayawada - APPCB",04-09-2025 07:00:00,16.554731,80.649110,PM10,NA,NA,NA
India,Assam,Guwahati,"IITG, Guwahati - PCBA",04-09-2025 07:00:00,26.2028636,91.70046436,NH3,5,5,5
India,Assam,Guwahati,"LGBI Airport, Guwahati - PCBA",04-09-2025 07:00:00,26.10887,91.589544,NO2,11,40,17
India,Assam,Guwahati,"LGBI Airport, Guwahati - PCBA",04-09-2025 07:00:00,26.10887,91.589544,SO2,6,14,11
India,Andhra_Pradesh,Chittoor,"Gangineni Cheruvu, Chittoor - APPCB",04-09-2025 07:00:00,13.204880,79.097889,PM2.5,57,85,71
India,Andhra_Pradesh,Chittoor,"Gangineni Cheruvu, Chittoor - APPCB",04-09-2025 07:00:00,13.204880,79.097889,NH3,9,10,9
India,Andhra_Pradesh,Chittoor,"Gangineni Cheruvu, Chittoor - APPCB",04-09-2025 07:00:00,13.204880,79.097889,SO2,24,26,25
India,Bihar,Araria,"Kharahiya Basti, Araria - BSPCB",04-09-2025 07:00:00,26.146529,87.454184,PM10,NA,NA,NA
India,Bihar,Arrah,"New DM Office, Arrah - BSPCB",04-09-2025 07:00:00,25.5626095,84.663264,NH3,1,1,1
India,Assam,Silchar,"Tarapur, Silchar - PCBA",04-09-2025 07:00:00,24.82827,92.79525,OZONE,1,15,2
India,Assam,Sivasagar,"Girls College, Sivasagar - PCBA",04-09-2025 07:00:00,26.987634,94.636574,OZONE,2,7,3
India,Arunachal_Pradesh,Naharlagun,"Naharlagun, Naharlagun - APSPCB",04-09-2025 07:00:00,27.103358,93.679645,PM2.5,2,73,36
India,Assam,Byrnihat,"Central Academy for SFS, Byrnihat - PCBA",04-09-2025 07:00:00,26.071318,91.87488,SO2,NA,NA,NA
India,Assam,Nalbari,"Bata Chowk, Nalbari - PCBA",04-09-2025 07:00:00,26.446912,91.439057,PM2.5,25,500,84
India,Bihar,Bettiah,"Kamalnath Nagar, Bettiah - BSPCB",04-09-2025 07:00:00,26.80365,84.51954,NO2,5,13,9
India,Bihar,Gaya,"Kareemganj, Gaya - BSPCB",04-09-2025 07:00:00,24.792403,84.992416,CO,32,42,36
India,Bihar,Gaya,"SFTI Kusdihra, Gaya - BSPCB",04-09-2025 07:00:00,24.762518,84.982348,PM2.5,3,39,11
India,Bihar,Gaya,"SFTI Kusdihra, Gaya - BSPCB",04-09-2025 07:00:00,24.762518,84.982348,SO2,2,29,8
India,Bihar,Gaya,"SFTI Kusdihra, Gaya - BSPCB",04-09-2025 07:00:00,24.762518,84.982348,CO,16,25,22
India,Bihar,Hajipur,"Industrial Area, Hajipur - BSPCB",04-09-2025 07:00:00,25.697189,85.245900,PM2.5,NA,NA,NA
India,Bihar,Hajipur,"Industrial Area, Hajipur - BSPCB",04-09-2025 07:00:00,25.697189,85.245900,PM10,NA,NA,NA
India,Bihar,Hajipur,"Industrial Area, Hajipur - BSPCB",04-09-2025 07:00:00,25.697189,85.245900,NO2,NA,NA,NA
India,Bihar,Hajipur,"Industrial Area, Hajipur - BSPCB",04-09-2025 07:00:00,25.697189,85.245900,CO,13,18,16
India,Bihar,Katihar,"Mirchaibari, Katihar - BSPCB",04-09-2025 07:00:00,25.560083,87.553265,PM10,29,37,32
India,Bihar,Katihar,"Mirchaibari, Katihar - BSPCB",04-09-2025 07:00:00,25.560083,87.553265,NO2,12,18,14
India,Bihar,Manguraha,"Forest Rest House, Manguraha - BSPCB",04-09-2025 07:00:00,27.308328,84.531742,SO2,6,7,6
India,Bihar,Motihari,"Gandak Colony, Motihari - BSPCB",04-09-2025 07:00:00,26.63086,84.90051,NO2,1,4,1
India,Bihar,Motihari,"Gandak Colony, Motihari - BSPCB",04-09-2025 07:00:00,26.63086,84.90051,SO2,1,2,2
India,Bihar,Munger,"Town Hall, Munger - BSPCB",04-09-2025 07:00:00,25.376776,86.471523,NH3,3,6,6
India,Bihar,Munger,"Town Hall, Munger - BSPCB",04-09-2025 07:00:00,25.376776,86.471523,OZONE,9,13,10
India,Bihar,Buxar,"Charitra Van, Buxar - BSPCB",04-09-2025 07:00:00,25.567520,83.966379,OZONE,1,164,2
India,Bihar,Chhapra,"Darshan Nagar, Chhapra - BSPCB",04-09-2025 07:00:00,25.7808257,84.7446768,SO2,NA,NA,NA
India,Bihar,Gaya,"Kareemganj, Gaya - BSPCB",04-09-2025 07:00:00,24.792403,84.992416,PM10,10,58,31
India,Bihar,Gaya,"Kareemganj, Gaya - BSPCB",04-09-2025 07:00:00,24.792403,84.992416,NO2,3,7,5
India,Bihar,Muzaffarpur,"MIT-Daudpur Kothi, Muzaffarpur - BSPCB",04-09-2025 07:00:00,26.1403345,85.3650192,OZONE,30,75,59
India,Bihar,Muzaffarpur,"Muzaffarpur Collectorate, Muzaffarpur - BSPCB",04-09-2025 07:00:00,26.1209,85.3647,PM2.5,30,63,43
India,Bihar,Bhagalpur,"Mayaganj, Bhagalpur - BSPCB",04-09-2025 07:00:00,25.265194,87.012947,OZONE,25,47,27
India,Bihar,Bihar Sharif,"D M Colony, Bihar Sharif - BSPCB",04-09-2025 07:00:00,25.204762,85.514960,PM2.5,81,93,87
India,Bihar,Kishanganj,"SDM Office_Khagra, Kishanganj - BSPCB",04-09-2025 07:00:00,26.0881305,87.93840336,PM2.5,NA,NA,NA
India,Bihar,Muzaffarpur,"Buddha Colony, Muzaffarpur - BSPCB",04-09-2025 07:00:00,26.11442,85.39813,CO,19,32,23
India,Bihar,Bihar Sharif,"D M Colony, Bihar Sharif - BSPCB",04-09-2025 07:00:00,25.204762,85.514960,NO2,8,10,10
India,Bihar,Patna,"DRM Office Danapur, Patna - BSPCB",04-09-2025 07:00:00,25.586562,85.043586,SO2,5,8,7
India,Bihar,Patna,"IGSC Planetarium Complex, Patna - BSPCB",04-09-2025 07:00:00,25.610369,85.132568,SO2,24,28,26
India,Bihar,Patna,"IGSC Planetarium Complex, Patna - BSPCB",04-09-2025 07:00:00,25.610369,85.132568,OZONE,34,41,40
India,Bihar,Patna,"Muradpur, Patna - BSPCB",04-09-2025 07:00:00,25.619651,85.147382,PM2.5,48,77,61
India,Bihar,Patna,"Muradpur, Patna - BSPCB",04-09-2025 07:00:00,25.619651,85.147382,NH3,4,5,5
India,Bihar,Patna,"Rajbansi Nagar, Patna - BSPCB",04-09-2025 07:00:00,25.599486,85.113666,CO,8,29,13
India,Bihar,Patna,"Samanpura, Patna - BSPCB",04-09-2025 07:00:00,25.596727,85.085624,CO,36,52,40
India,Bihar,Patna,"Samanpura, Patna - BSPCB",04-09-2025 07:00:00,25.596727,85.085624,OZONE,4,95,7
India,Bihar,Purnia,"Mariam Nagar, Purnia - BSPCB",04-09-2025 07:00:00,25.366336,87.117468,NH3,3,3,3
India,Bihar,Saharsa,"Police Line, Saharsa - BSPCB",04-09-2025 07:00:00,25.892357,86.590325,NH3,4,4,4
India,Bihar,Sasaram,"Dada Peer, Sasaram - BSPCB",04-09-2025 07:00:00,24.952822,84.002396,NO2,1,46,5
India,Bihar,Sasaram,"Dada Peer, Sasaram - BSPCB",04-09-2025 07:00:00,24.952822,84.002396,NH3,2,4,3
India,Bihar,Siwan,"Chitragupta Nagar, Siwan - BSPCB",04-09-2025 07:00:00,26.2271665,84.3570427,PM10,11,350,65
India,Bihar,Saharsa,"Police Line, Saharsa - BSPCB",04-09-2025 07:00:00,25.892357,86.590325,CO,32,39,38
India,Bihar,Samastipur,"DM Office_Kasipur, Samastipur - BSPCB",04-09-2025 07:00:00,25.859655,85.77944,SO2,26,40,35
India,Bihar,Samastipur,"DM Office_Kasipur, Samastipur - BSPCB",04-09-2025 07:00:00,25.859655,85.77944,CO,1,8,4
India,Chhattisgarh,Chhal,"Nawapara SECL Colony, Chhal - CECB",04-09-2025 07:00:00,22.118125,83.140608,NO2,6,14,8
India,Chhattisgarh,Chhal,"Nawapara SECL Colony, Chhal - CECB",04-09-2025 07:00:00,22.118125,83.140608,CO,10,25,24
India,Chhattisgarh,Bhilai,"32Bungalows, Bhilai - CECB",04-09-2025 07:00:00,21.194815,81.314770,PM10,5,33,17
India,Chhattisgarh,Bhilai,"32Bungalows, Bhilai - CECB",04-09-2025 07:00:00,21.194815,81.314770,NH3,3,4,3
India,Bihar,Patna,"Samanpura, Patna - BSPCB",04-09-2025 07:00:00,25.596727,85.085624,PM10,30,67,51
India,Bihar,Patna,"Samanpura, Patna - BSPCB",04-09-2025 07:00:00,25.596727,85.085624,NO2,36,50,43
India,Chhattisgarh,Bhilai,"Civic Center, Bhilai - Bhilai Steel Plant",04-09-2025 07:00:00,21.185571,81.343175,NH3,1,3,1
India,Bihar,Patna,"IGSC Planetarium Complex, Patna - BSPCB",04-09-2025 07:00:00,25.610369,85.132568,PM2.5,15,48,33
India,Delhi,Delhi,"CRRI Mathura Road, Delhi - IMD",04-09-2025 07:00:00,28.5512005,77.2735737,PM10,NA,NA,NA
India,Delhi,Delhi,"CRRI Mathura Road, Delhi - IMD",04-09-2025 07:00:00,28.5512005,77.2735737,NO2,14,48,27
India,Delhi,Delhi,"CRRI Mathura Road, Delhi - IMD",04-09-2025 07:00:00,28.5512005,77.2735737,CO,2,160,36
India,Delhi,Delhi,"DTU, Delhi - CPCB",04-09-2025 07:00:00,28.7500499,77.1112615,CO,13,20,16
India,Delhi,Delhi,"Dr. Karni Singh Shooting Range, Delhi - DPCC",04-09-2025 07:00:00,28.498571,77.264840,PM10,7,56,36
India,Chhattisgarh,Tumidih,"OP Jindal Industrial Park, Tumidih - CECB",04-09-2025 07:00:00,22.06631475,83.33820077,PM2.5,3,26,12
India,Chhattisgarh,Tumidih,"OP Jindal Industrial Park, Tumidih - CECB",04-09-2025 07:00:00,22.06631475,83.33820077,NO2,5,36,11
India,Delhi,Delhi,"Alipur, Delhi - DPCC",04-09-2025 07:00:00,28.815329,77.153010,SO2,NA,NA,NA
India,Chhattisgarh,Raipur,"AIIMS, Raipur - CECB",04-09-2025 07:00:00,21.258815,81.578979,PM2.5,10,40,21
India,Chhattisgarh,Raipur,"Bhatagaon New ISBT, Raipur - CECB",04-09-2025 07:00:00,21.219665,81.630094,PM2.5,1,83,19
India,Chhattisgarh,Raipur,"Krishak Nagar, Raipur - CECB",04-09-2025 07:00:00,21.237755,81.705301,SO2,5,7,6
India,Delhi,Delhi,"IHBAS, Dilshad Garden, Delhi - CPCB",04-09-2025 07:00:00,28.6811736,77.3025234,NH3,1,5,2
India,Delhi,Delhi,"Jahangirpuri, Delhi - DPCC",04-09-2025 07:00:00,28.732820,77.170633,PM2.5,NA,NA,NA
India,Delhi,Delhi,"Jahangirpuri, Delhi - DPCC",04-09-2025 07:00:00,28.732820,77.170633,CO,8,91,21
India,Chhattisgarh,Kunjemura,"OP Jindal School, Kunjemura - CECB",04-09-2025 07:00:00,22.126650,83.483212,PM10,1,7,4
India,Chhattisgarh,Milupara,"Govt. Higher Secondary School, Milupara - CECB",04-09-2025 07:00:00,22.1910172,83.5197009,PM10,NA,NA,NA
India,Delhi,Delhi,"Anand Vihar, Delhi - DPCC",04-09-2025 07:00:00,28.647622,77.3158090,PM10,29,145,78
India,Delhi,Delhi,"Aya Nagar, Delhi - IMD",04-09-2025 07:00:00,28.4706914,77.1099364,OZONE,5,48,12
India,Delhi,Delhi,"Burari Crossing, Delhi - IMD",04-09-2025 07:00:00,28.7256504,77.2011573,PM2.5,3,127,35
India,Delhi,Delhi,"Burari Crossing, Delhi - IMD",04-09-2025 07:00:00,28.7256504,77.2011573,NO2,22,51,37
India,Delhi,Delhi,"IGI Airport (T3), Delhi - IMD",04-09-2025 07:00:00,28.5627763,77.1180053,NO2,40,113,70
India,Chhattisgarh,Korba,"Rampur, Korba - CECB",04-09-2025 07:00:00,22.368195,82.746431,NO2,3,6,5
India,Delhi,Delhi,"Narela, Delhi - DPCC",04-09-2025 07:00:00,28.822836,77.101981,OZONE,1,63,3
India,Delhi,Delhi,"Nehru Nagar, Delhi - DPCC",04-09-2025 07:00:00,28.567890,77.250515,PM2.5,3,83,33
India,Delhi,Delhi,"Nehru Nagar, Delhi - DPCC",04-09-2025 07:00:00,28.567890,77.250515,CO,9,45,17
India,Delhi,Delhi,"Nehru Nagar, Delhi - DPCC",04-09-2025 07:00:00,28.567890,77.250515,OZONE,3,81,5
India,Delhi,Delhi,"North Campus, DU, Delhi - IMD",04-09-2025 07:00:00,28.6573814,77.1585447,PM10,NA,NA,NA
India,Delhi,Delhi,"North Campus, DU, Delhi - IMD",04-09-2025 07:00:00,28.6573814,77.1585447,NO2,7,66,28
India,Delhi,Delhi,"Jawaharlal Nehru Stadium, Delhi - DPCC",04-09-2025 07:00:00,28.580280,77.233829,PM10,6,57,34
India,Delhi,Delhi,"Lodhi Road, Delhi - IITM",04-09-2025 07:00:00,28.588333,77.221667,PM10,17,51,32
India,Delhi,Delhi,"Major Dhyan Chand National Stadium, Delhi - DPCC",04-09-2025 07:00:00,28.611281,77.237738,NO2,18,65,39
India,Delhi,Delhi,"Mandir Marg, Delhi - DPCC",04-09-2025 07:00:00,28.636429,77.201067,SO2,1,45,9
India,Delhi,Delhi,"R K Puram, Delhi - DPCC",04-09-2025 07:00:00,28.563262,77.186937,OZONE,6,59,8
India,Delhi,Delhi,"Rohini, Delhi - DPCC",04-09-2025 07:00:00,28.732528,77.119920,PM10,9,108,42
India,Delhi,Delhi,"Rohini, Delhi - DPCC",04-09-2025 07:00:00,28.732528,77.119920,NO2,5,25,12
India,Delhi,Delhi,"Shadipur, Delhi - CPCB",04-09-2025 07:00:00,28.6514781,77.1473105,PM2.5,32,70,50
India,Delhi,Delhi,"Pusa, Delhi - DPCC",04-09-2025 07:00:00,28.639652,77.146275,PM2.5,8,47,26
India,Delhi,Delhi,"Pusa, Delhi - DPCC",04-09-2025 07:00:00,28.639652,77.146275,PM10,12,137,49
India,Delhi,Delhi,"R K Puram, Delhi - DPCC",04-09-2025 07:00:00,28.563262,77.186937,PM2.5,8,75,42
India,Delhi,Delhi,"R K Puram, Delhi - DPCC",04-09-2025 07:00:00,28.563262,77.186937,PM10,23,73,41
India,Delhi,Delhi,"Najafgarh, Delhi - DPCC",04-09-2025 07:00:00,28.570173,76.933762,NH3,1,1,1
India,Delhi,Delhi,"Najafgarh, Delhi - DPCC",04-09-2025 07:00:00,28.570173,76.933762,SO2,52,64,58
India,Delhi,Delhi,"Narela, Delhi - DPCC",04-09-2025 07:00:00,28.822836,77.101981,PM2.5,2,81,37
India,Delhi,Delhi,"Shadipur, Delhi - CPCB",04-09-2025 07:00:00,28.6514781,77.1473105,CO,37,89,54
India,Delhi,Delhi,"Shadipur, Delhi - CPCB",04-09-2025 07:00:00,28.6514781,77.1473105,OZONE,7,9,8
India,Delhi,Delhi,"Patparganj, Delhi - DPCC",04-09-2025 07:00:00,28.623763,77.287209,PM2.5,12,170,39
India,Delhi,Delhi,"Patparganj, Delhi - DPCC",04-09-2025 07:00:00,28.623763,77.287209,NH3,4,4,4
India,Delhi,Delhi,"NSIT Dwarka, Delhi - CPCB",04-09-2025 07:00:00,28.60909,77.0325413,PM10,28,57,40
India,Delhi,Delhi,"NSIT Dwarka, Delhi - CPCB",04-09-2025 07:00:00,28.60909,77.0325413,OZONE,10,14,12
India,Delhi,Delhi,"Mundka, Delhi - DPCC",04-09-2025 07:00:00,28.684678,77.076574,PM2.5,10,57,29
India,Delhi,Delhi,"Mundka, Delhi - DPCC",04-09-2025 07:00:00,28.684678,77.076574,OZONE,6,72,7
India,Karnataka,Bagalkot,"Vidayagiri, Bagalkot - KSPCB",04-09-2025 07:00:00,16.172806,75.659694,SO2,7,7,7
India,Karnataka,Bagalkot,"Vidayagiri, Bagalkot - KSPCB",04-09-2025 07:00:00,16.172806,75.659694,OZONE,10,16,15
India,Karnataka,Bengaluru,"BTM Layout, Bengaluru - CPCB",04-09-2025 07:00:00,12.9135218,77.5950804,PM10,NA,NA,NA
India,Karnataka,Bengaluru,"BTM Layout, Bengaluru - CPCB",04-09-2025 07:00:00,12.9135218,77.5950804,SO2,NA,NA,NA
India,Karnataka,Bengaluru,"BTM Layout, Bengaluru - CPCB",04-09-2025 07:00:00,12.9135218,77.5950804,CO,17,28,18
India,Karnataka,Bengaluru,"Bapuji Nagar, Bengaluru - KSPCB",04-09-2025 07:00:00,12.951913,77.539784,PM10,16,64,32
India,Karnataka,Bengaluru,"Bapuji Nagar, Bengaluru - KSPCB",04-09-2025 07:00:00,12.951913,77.539784,OZONE,1,28,1
India,Karnataka,Bengaluru,"City Railway Station, Bengaluru - KSPCB",04-09-2025 07:00:00,12.9756843,77.5660749,PM10,82,94,87
India,Karnataka,Bengaluru,"City Railway Station, Bengaluru - KSPCB",04-09-2025 07:00:00,12.9756843,77.5660749,SO2,6,14,9
India,Haryana,Panchgaon,"Amity University, Panchgaon - IITM",04-09-2025 07:00:00,28.3153,76.9143,NO2,1,8,4
India,Haryana,Panchgaon,"Amity University, Panchgaon - IITM",04-09-2025 07:00:00,28.3153,76.9143,CO,48,70,59
India,Himachal Pradesh,Baddi,"HIMUDA Complex Phase-1, Baddi - HPPCB",04-09-2025 07:00:00,30.943887,76.801991,PM10,8,113,44
India,Himachal Pradesh,Baddi,"HIMUDA Complex Phase-1, Baddi - HPPCB",04-09-2025 07:00:00,30.943887,76.801991,OZONE,5,35,8
India,Jharkhand,Jorapokhar,"Tata Stadium, Jorapokhar - JSPCB",04-09-2025 07:00:00,23.707909,86.414670,PM10,23,57,38
India,Delhi,Delhi,"Sri Aurobindo Marg, Delhi - DPCC",04-09-2025 07:00:00,28.531346,77.190156,NO2,7,53,24
India,Delhi,Delhi,"Sri Aurobindo Marg, Delhi - DPCC",04-09-2025 07:00:00,28.531346,77.190156,NH3,3,5,4
India,Delhi,Delhi,"Vivek Vihar, Delhi - DPCC",04-09-2025 07:00:00,28.672342,77.315260,NO2,8,96,47
India,Gujarat,Ahmedabad,"Chandkheda, Ahmedabad - IITM",04-09-2025 07:00:00,23.107969,72.574648,NH3,1,1,1
India,Gujarat,Surat,"Science Center, Surat - SMC",04-09-2025 07:00:00,21.170046,72.795405,NO2,8,18,13
India,Gujarat,Vapi,"Phase-1 GIDC, Vapi - GPCB",04-09-2025 07:00:00,20.362421,72.918013,NO2,13,14,14
India,Haryana,Gurugram,"NISE Gwal Pahari, Gurugram - IMD",04-09-2025 07:00:00,28.422681,77.148944,PM10,4,91,42
India,Gujarat,Ahmedabad,"SAC ISRO Bopal, Ahmedabad - IITM",04-09-2025 07:00:00,23.041137,72.456691,OZONE,4,59,39
India,Gujarat,Ahmedabad,"SAC ISRO Satellite, Ahmedabad - IITM",04-09-2025 07:00:00,23.023389,72.515201,CO,4,53,16
India,Gujarat,Ahmedabad,"SAC ISRO Satellite, Ahmedabad - IITM",04-09-2025 07:00:00,23.023389,72.515201,OZONE,5,33,20
India,Gujarat,Gandhinagar,"IIPHG Lekawada, Gandhinagar - IITM",04-09-2025 07:00:00,23.243639,72.68994,NO2,5,13,7
India,Gujarat,Ahmedabad,"Chandkheda, Ahmedabad - IITM",04-09-2025 07:00:00,23.107969,72.574648,CO,26,50,37
India,Gujarat,Ahmedabad,"Rakhial, Ahmedabad - IITM",04-09-2025 07:00:00,23.016834,72.625775,CO,66,109,81
India,Gujarat,Ahmedabad,"Gyaspur, Ahmedabad - IITM",04-09-2025 07:00:00,22.977134,72.553024,CO,26,56,50
India,Kerala,Thiruvananthapuram,"Plammoodu, Thiruvananthapuram - Kerala PCB",04-09-2025 07:00:00,8.5149093,76.9435879,PM10,1,58,22
India,Kerala,Thiruvananthapuram,"Plammoodu, Thiruvananthapuram - Kerala PCB",04-09-2025 07:00:00,8.5149093,76.9435879,NO2,54,105,76
India,Kerala,Thiruvananthapuram,"Plammoodu, Thiruvananthapuram - Kerala PCB",04-09-2025 07:00:00,8.5149093,76.9435879,OZONE,12,16,14
India,Kerala,Thrissur,"Corporation Ground, Thrissur - Kerala PCB",04-09-2025 07:00:00,10.532400,76.215900,CO,28,38,35
India,Kerala,Thrissur,"Corporation Ground, Thrissur - Kerala PCB",04-09-2025 07:00:00,10.532400,76.215900,OZONE,30,30,30
India,Madhya Pradesh,Bhopal,"Idgah Hills, Bhopal - MPPCB",04-09-2025 07:00:00,23.264759,77.381568,PM2.5,12,30,18
India,Karnataka,Shivamogga,"Vinoba Nagara, Shivamogga - KSPCB",04-09-2025 07:00:00,13.940000,75.555917,PM10,33,49,36
India,Karnataka,Vijayapura,"Ibrahimpur, Vijayapura - KSPCB",04-09-2025 07:00:00,16.802639,75.722694,PM2.5,31,38,37
India,Karnataka,Yadgir,"Collector Office, Yadgir - KSPCB",04-09-2025 07:00:00,16.7602,77.1428,PM2.5,4,21,10
India,Kerala,Eloor,"Udyogamandal, Eloor - Kerala PCB",04-09-2025 07:00:00,10.073232,76.302765,PM2.5,44,89,64
India,Kerala,Eloor,"Udyogamandal, Eloor - Kerala PCB",04-09-2025 07:00:00,10.073232,76.302765,PM10,42,68,54
India,Karnataka,Chikkamagaluru,"Kalyana Nagara, Chikkamagaluru - KSPCB",04-09-2025 07:00:00,13.328028,75.797056,NO2,18,26,19
India,Karnataka,Chikkamagaluru,"Kalyana Nagara, Chikkamagaluru - KSPCB",04-09-2025 07:00:00,13.328028,75.797056,NH3,2,3,3
India,Karnataka,Davanagere,"Devaraj Urs Badavane, Davanagere - KSPCB",04-09-2025 07:00:00,14.475800,75.905200,NH3,1,3,2
India,Karnataka,Haveri,"Ashwini Nagar, Haveri - KSPCB",04-09-2025 07:00:00,14.791800,75.389600,PM10,NA,NA,NA
India,Karnataka,Haveri,"Ashwini Nagar, Haveri - KSPCB",04-09-2025 07:00:00,14.791800,75.389600,CO,24,25,24
India,Karnataka,Madikeri,"Stuart Hill, Madikeri - KSPCB",04-09-2025 07:00:00,12.415911,75.735050,OZONE,3,6,4
India,Karnataka,Mangalore,"Kadri, Mangalore - KSPCB",04-09-2025 07:00:00,12.889250,74.853000,NH3,2,4,4
India,Karnataka,Mysuru,"Hebbal 1st Stage, Mysuru - KSPCB",04-09-2025 07:00:00,12.21041,76.37376,OZONE,8,48,10
India,Karnataka,Ramanagara,"Vijay Nagar, Ramanagara - KSPCB",04-09-2025 07:00:00,12.733409,77.298051,NO2,NA,NA,NA
India,Karnataka,Bengaluru,"Shivapura_Peenya, Bengaluru - KSPCB",04-09-2025 07:00:00,13.0246342,77.5080115,NO2,24,25,25
India,Karnataka,Bengaluru,"Silk Board, Bengaluru - KSPCB",04-09-2025 07:00:00,12.917348,77.622813,NO2,5,18,12
India,Karnataka,Bengaluru,"Silk Board, Bengaluru - KSPCB",04-09-2025 07:00:00,12.917348,77.622813,CO,30,42,32
India,Karnataka,Bengaluru,"Silk Board, Bengaluru - KSPCB",04-09-2025 07:00:00,12.917348,77.622813,OZONE,19,22,20
India,Karnataka,Chamarajanagar,"Urban, Chamarajanagar - KSPCB",04-09-2025 07:00:00,11.55358,76.55521,PM2.5,19,52,30
India,Karnataka,Hubballi,"Lingaraj Nagar, Hubballi - KSPCB",04-09-2025 07:00:00,15.3714823,75.1160168,SO2,1,2,1
India,Karnataka,Kalaburagi,"Lal Bahadur Shastri Nagar, Kalaburagi - KSPCB",04-09-2025 07:00:00,17.321993,76.822628,NH3,1,1,1
India,Karnataka,Kalaburagi,"Lal Bahadur Shastri Nagar, Kalaburagi - KSPCB",04-09-2025 07:00:00,17.321993,76.822628,SO2,50,52,51
India,Karnataka,Bengaluru,"Jigani, Bengaluru - KSPCB",04-09-2025 07:00:00,12.7816279,77.6299145,NH3,4,5,5
India,Karnataka,Bengaluru,"Jigani, Bengaluru - KSPCB",04-09-2025 07:00:00,12.7816279,77.6299145,CO,27,43,27
India,Karnataka,Bengaluru,"Peenya, Bengaluru - CPCB",04-09-2025 07:00:00,13.0270199,77.494094,PM10,59,66,63
India,Karnataka,Kalaburagi,"Mahatma Basaveswar Colony, Kalaburgi - KSPCB",04-09-2025 07:00:00,17.336318,76.847397,OZONE,12,14,12
India,Karnataka,Madikeri,"Stuart Hill, Madikeri - KSPCB",04-09-2025 07:00:00,12.415911,75.735050,PM2.5,3,11,6
India,Kerala,Kollam,"Polayathode, Kollam - Kerala PCB",04-09-2025 07:00:00,8.8787,76.6073,OZONE,29,34,30
India,Madhya Pradesh,Indore,"Chhoti Gwaltoli, Indore - MPPCB",04-09-2025 07:00:00,22.4310,75.5213,NH3,3,6,4
India,Madhya Pradesh,Indore,"Chhoti Gwaltoli, Indore - MPPCB",04-09-2025 07:00:00,22.4310,75.5213,CO,24,67,32
India,Madhya Pradesh,Indore,"Chhoti Gwaltoli, Indore - MPPCB",04-09-2025 07:00:00,22.4310,75.5213,OZONE,21,36,31
India,Madhya Pradesh,Indore,"Maguda Nagar, Indore - IMC",04-09-2025 07:00:00,22.7524,75.8872,SO2,35,37,36
India,Madhya Pradesh,Indore,"Maguda Nagar, Indore - IMC",04-09-2025 07:00:00,22.7524,75.8872,CO,20,23,22
India,Madhya Pradesh,Indore,"Regional Park, Indore - IMC",04-09-2025 07:00:00,22.6780,75.8559,SO2,52,54,53
India,Madhya Pradesh,Indore,"Regional Park, Indore - IMC",04-09-2025 07:00:00,22.6780,75.8559,OZONE,5,7,6
India,Madhya Pradesh,Indore,"Residency Area, Indore - IMC",04-09-2025 07:00:00,22.7084,75.8815,CO,12,15,14
India,Madhya Pradesh,Bhopal,"T T Nagar, Bhopal - MPPCB",04-09-2025 07:00:00,23.233584,77.400574,PM10,18,42,29
India,Madhya Pradesh,Bhopal,"T T Nagar, Bhopal - MPPCB",04-09-2025 07:00:00,23.233584,77.400574,NH3,5,6,5
India,Madhya Pradesh,Bhopal,"T T Nagar, Bhopal - MPPCB",04-09-2025 07:00:00,23.233584,77.400574,SO2,7,27,15
India,Madhya Pradesh,Damoh,"Shrivastav Colony, Damoh - MPPCB",04-09-2025 07:00:00,23.81748678,79.446246,PM2.5,1,32,13
India,Madhya Pradesh,Damoh,"Shrivastav Colony, Damoh - MPPCB",04-09-2025 07:00:00,23.81748678,79.446246,PM10,15,56,25
India,Madhya Pradesh,Dewas,"Bhopal Chauraha, Dewas - MPPCB",04-09-2025 07:00:00,22.9682591,76.064118,PM10,8,68,26
India,Madhya Pradesh,Dewas,"Bhopal Chauraha, Dewas - MPPCB",04-09-2025 07:00:00,22.9682591,76.064118,NH3,2,3,3
India,Madhya Pradesh,Satna,"Bandhavgar Colony, Satna - Birla Cement",04-09-2025 07:00:00,24.58434363,80.8549414,PM2.5,48,51,49
India,Madhya Pradesh,Satna,"Bandhavgar Colony, Satna - Birla Cement",04-09-2025 07:00:00,24.58434363,80.8549414,CO,11,34,16
India,Madhya Pradesh,Singrauli,"Suryakiran Bhawan NCL, Singrauli - MPPCB",04-09-2025 07:00:00,24.108970,82.645580,PM10,43,87,59
India,Madhya Pradesh,Singrauli,"Suryakiran Bhawan NCL, Singrauli - MPPCB",04-09-2025 07:00:00,24.108970,82.645580,OZONE,10,34,11
India,Maharashtra,Ahmednagar,"Tarakpur, Ahmednagar - MPCB",04-09-2025 07:00:00,19.10122,74.73339,PM10,28,92,49
India,Maharashtra,Ahmednagar,"Tarakpur, Ahmednagar - MPCB",04-09-2025 07:00:00,19.10122,74.73339,NO2,17,29,22
India,Madhya Pradesh,Pithampur,"Sector-2 Industrial Area, Pithampur - MPPCB",04-09-2025 07:00:00,22.624758,75.675238,OZONE,20,44,40
India,Madhya Pradesh,Sagar,"Civil Lines, Sagar - MPPCB",04-09-2025 07:00:00,23.838586,78.759431,PM2.5,7,77,28
India,Madhya Pradesh,Dewas,"Bhopal Chauraha, Dewas - MPPCB",04-09-2025 07:00:00,22.9682591,76.064118,SO2,9,42,29
India,Madhya Pradesh,Gwalior,"Maharaj Bada, Gwalior - MPPCB",04-09-2025 07:00:00,26.200388,78.147714,NO2,6,53,15
India,Madhya Pradesh,Sagar,"Civil Lines, Sagar - MPPCB",04-09-2025 07:00:00,23.838586,78.759431,NO2,3,4,3
India,Madhya Pradesh,Sagar,"Civil Lines, Sagar - MPPCB",04-09-2025 07:00:00,23.838586,78.759431,CO,21,40,33
India,Madhya Pradesh,Bhopal,"Paryavaran Parisar, Bhopal - MPPCB",04-09-2025 07:00:00,23.210494,77.425409,PM2.5,13,38,28
India,Madhya Pradesh,Jabalpur,"Gupteshwar, Jabalpur - JMC",04-09-2025 07:00:00,23.142888,79.916147,PM2.5,10,48,28
India,Madhya Pradesh,Gwalior,"Maharaj Bada, Gwalior - MPPCB",04-09-2025 07:00:00,26.200388,78.147714,CO,3,54,19
India,Maharashtra,Dhule,"Deopur, Dhule - MPCB",04-09-2025 07:00:00,20.918946,74.776388,NO2,4,14,8
India,Maharashtra,Dhule,"Deopur, Dhule - MPCB",04-09-2025 07:00:00,20.918946,74.776388,SO2,4,12,9
India,Maharashtra,Dhule,"Deopur, Dhule - MPCB",04-09-2025 07:00:00,20.918946,74.776388,CO,7,18,9
India,Maharashtra,Dhule,"Deopur, Dhule - MPCB",04-09-2025 07:00:00,20.918946,74.776388,OZONE,12,34,17
India,Maharashtra,Jalgaon,"Prabhat Colony, Jalgaon - MPCB",04-09-2025 07:00:00,21.001264,75.565602,PM10,19,49,36
India,Maharashtra,Jalna,"Old MIDC, Jalna - MPCB",04-09-2025 07:00:00,19.854616,75.905894,NH3,NA,NA,NA
India,Maharashtra,Jalna,"Old MIDC, Jalna - MPCB",04-09-2025 07:00:00,19.854616,75.905894,SO2,NA,NA,NA
India,Maharashtra,Akola,"Ramdaspeth, Akola - MPCB",04-09-2025 07:00:00,20.719516,77.000253,NH3,6,8,7
India,Maharashtra,Amravati,"Shivneri Colony, Amravati - MPCB",04-09-2025 07:00:00,20.9402359,77.7895248,NH3,1,6,3
India,Maharashtra,Amravati,"Shivneri Colony, Amravati - MPCB",04-09-2025 07:00:00,20.9402359,77.7895248,OZONE,12,28,25
India,Maharashtra,Aurangabad,"MIDC Chilkalthana, Aurangabad - MPCB",04-09-2025 07:00:00,19.875620,75.387310,PM10,18,24,22
India,Maharashtra,Aurangabad,"MIDC Chilkalthana, Aurangabad - MPCB",04-09-2025 07:00:00,19.875620,75.387310,NO2,7,28,15
India,Maharashtra,Aurangabad,"Rachnakar Colony, Aurangabad - MPCB",04-09-2025 07:00:00,19.863756,75.321188,OZONE,11,48,14
India,Maharashtra,Badlapur,"Katrap, Badlapur - MPCB",04-09-2025 07:00:00,19.16485,73.23409,NH3,6,9,7
India,Maharashtra,Badlapur,"Katrap, Badlapur - MPCB",04-09-2025 07:00:00,19.16485,73.23409,SO2,6,17,11
India,Maharashtra,Belapur,"CBD Belapur, Belapur - MPCB",04-09-2025 07:00:00,19.0243902,73.0406721,PM2.5,26,49,35
India,Maharashtra,Belapur,"CBD Belapur, Belapur - MPCB",04-09-2025 07:00:00,19.0243902,73.0406721,PM10,38,72,52
India,Maharashtra,Boisar,"Khaira, Boisar - MPCB",04-09-2025 07:00:00,19.786089,72.757971,PM2.5,10,99,50
India,Maharashtra,Boisar,"Khaira, Boisar - MPCB",04-09-2025 07:00:00,19.786089,72.757971,PM10,56,123,96
India,Maharashtra,Chandrapur,"Chauhan Colony, Chandrapur - MPCB",04-09-2025 07:00:00,19.962900,79.298714,PM10,26,62,40
India,Maharashtra,Belapur,"CBD Belapur, Belapur - MPCB",04-09-2025 07:00:00,19.0243902,73.0406721,SO2,1,4,3
India,Maharashtra,Bhiwandi,"Gokul Nagar, Bhiwandi - MPCB",04-09-2025 07:00:00,19.309073,73.057223,PM2.5,19,55,39
India,Maharashtra,Kolhapur,"Shivaji University, Kolhapur - MPCB",04-09-2025 07:00:00,16.6870449,74.2505872,CO,2,26,8
India,Maharashtra,Kolhapur,"Sinchan Bhavan, Kolhapur - MPCB",04-09-2025 07:00:00,16.7143745,74.2426398,NO2,2,10,6
India,Maharashtra,Aurangabad,"More Chowk Waluj, Aurangabad - MPCB",04-09-2025 07:00:00,19.8389439,75.244448,PM10,4,38,16
India,Maharashtra,Chandrapur,"Chauhan Colony, Chandrapur - MPCB",04-09-2025 07:00:00,19.962900,79.298714,CO,27,40,31
India,Maharashtra,Latur,"Sawe Wadi, Latur - MPCB",04-09-2025 07:00:00,18.39963,76.57452,PM2.5,19,40,30
India,Maharashtra,Mahad,"Kamble Tarf Birwadi, Mahad - MPCB",04-09-2025 07:00:00,18.1023399,73.4783687,CO,2,38,25
India,Maharashtra,Malegaon,"Mahesh Nagar, Malegaon - MPCB",04-09-2025 07:00:00,20.555712,74.529236,OZONE,12,33,16
India,Maharashtra,Mira-Bhayandar,"Bhayandar West, Mira-Bhayandar - MPCB",04-09-2025 07:00:00,19.296481,72.840923,PM2.5,14,41,25
India,Maharashtra,Mira-Bhayandar,"Bhayandar West, Mira-Bhayandar - MPCB",04-09-2025 07:00:00,19.296481,72.840923,NO2,6,35,15
India,Maharashtra,Mira-Bhayandar,"Bhayandar West, Mira-Bhayandar - MPCB",04-09-2025 07:00:00,19.296481,72.840923,NH3,1,3,2
India,Maharashtra,Mira-Bhayandar,"Bhayandar West, Mira-Bhayandar - MPCB",04-09-2025 07:00:00,19.296481,72.840923,CO,25,32,29
India,Maharashtra,Mumbai,"Bandra Kurla Complex, Mumbai - IITM",04-09-2025 07:00:00,19.053536,72.84643,NO2,9,35,13
India,Maharashtra,Mumbai,"Bandra Kurla Complex, Mumbai - IITM",04-09-2025 07:00:00,19.053536,72.84643,SO2,3,5,4
India,Maharashtra,Mumbai,"Bandra Kurla Complex, Mumbai - MPCB",04-09-2025 07:00:00,19.065931,72.862131,NO2,7,22,15
India,Maharashtra,Mumbai,"Bandra Kurla Complex, Mumbai - MPCB",04-09-2025 07:00:00,19.065931,72.862131,SO2,1,3,3
India,Maharashtra,Mumbai,"Borivali East, Mumbai - IITM",04-09-2025 07:00:00,19.23241,72.86895,NO2,30,57,41
India,Maharashtra,Mumbai,"Borivali East, Mumbai - IITM",04-09-2025 07:00:00,19.23241,72.86895,NH3,1,2,2
India,Maharashtra,Mumbai,"Mulund West, Mumbai - MPCB",04-09-2025 07:00:00,19.1750,72.9419,SO2,NA,NA,NA
India,Maharashtra,Mumbai,"Navy Nagar-Colaba, Mumbai - IITM",04-09-2025 07:00:00,18.897756,72.813320,NH3,2,3,2
India,Maharashtra,Mumbai,"Sewri, Mumbai - BMC",04-09-2025 07:00:00,19.000084,72.856730,PM10,36,59,49
India,Maharashtra,Mumbai,"Sewri, Mumbai - BMC",04-09-2025 07:00:00,19.000084,72.856730,OZONE,3,14,5
India,Maharashtra,Mumbai,"Chakala-Andheri East, Mumbai - IITM",04-09-2025 07:00:00,19.11074,72.86084,NO2,4,7,6
India,Maharashtra,Mumbai,"Chembur, Mumbai - MPCB",04-09-2025 07:00:00,19.0364585,72.8954371,CO,28,40,32
India,Maharashtra,Mumbai,"Chhatrapati Shivaji Intl. Airport (T2), Mumbai - MPCB",04-09-2025 07:00:00,19.10078,72.87462,PM10,63,73,68
India,Maharashtra,Mumbai,"Kandivali West, Mumbai - BMC",04-09-2025 07:00:00,19.215859,72.831718,PM10,14,34,23
India,Maharashtra,Mumbai,"Kandivali West, Mumbai - BMC",04-09-2025 07:00:00,19.215859,72.831718,NH3,2,3,3
India,Maharashtra,Mumbai,"Kherwadi_Bandra East, Mumbai - MPCB",04-09-2025 07:00:00,19.0632143,72.8456324,NO2,6,16,15
India,Maharashtra,Mumbai,"Kherwadi_Bandra East, Mumbai - MPCB",04-09-2025 07:00:00,19.0632143,72.8456324,NH3,1,2,2
India,Maharashtra,Mumbai,"Kurla, Mumbai - MPCB",04-09-2025 07:00:00,19.0863,72.8888,PM2.5,57,76,66
India,Maharashtra,Mumbai,"Malad West, Mumbai - IITM",04-09-2025 07:00:00,19.19709,72.82204,OZONE,10,21,15
India,Maharashtra,Mumbai,"Mazgaon, Mumbai - IITM",04-09-2025 07:00:00,18.96702,72.84214,NO2,18,40,26
India,Maharashtra,Mumbai,"Kandivali East, Mumbai - MPCB",04-09-2025 07:00:00,19.205800,72.868200,PM2.5,30,30,30
India,Maharashtra,Mumbai,"Mazgaon, Mumbai - IITM",04-09-2025 07:00:00,18.96702,72.84214,OZONE,8,22,12
India,Maharashtra,Mumbai,"Deonar, Mumbai - IITM",04-09-2025 07:00:00,19.04946,72.9230,PM2.5,4,28,15
India,Maharashtra,Nagpur,"Opp GPO Civil Lines, Nagpur - MPCB",04-09-2025 07:00:00,21.152875,79.0517531,SO2,3,9,5
India,Maharashtra,Nagpur,"Opp GPO Civil Lines, Nagpur - MPCB",04-09-2025 07:00:00,21.152875,79.0517531,OZONE,2,8,5
India,Maharashtra,Nanded,"Sneh Nagar, Nanded - MPCB",04-09-2025 07:00:00,19.173852,77.296291,NO2,NA,NA,NA
India,Maharashtra,Nashik,"Gangapur Road, Nashik - MPCB",04-09-2025 07:00:00,20.0073285,73.7762427,PM10,32,76,54
India,Maharashtra,Navi Mumbai,"Mahape, Navi Mumbai - MPCB",04-09-2025 07:00:00,19.1135051,73.008978,PM2.5,8,13,11
India,Maharashtra,Navi Mumbai,"Nerul, Navi Mumbai - MPCB",04-09-2025 07:00:00,19.008751,73.016620,PM10,NA,NA,NA
India,Maharashtra,Navi Mumbai,"Sanpada, Navi Mumbai - MPCB",04-09-2025 07:00:00,19.0575752,73.0151367,OZONE,5,81,14
India,Maharashtra,Nagpur,"Ambazari, Nagpur - MPCB",04-09-2025 07:00:00,21.121801,79.04952,SO2,4,15,12
India,Maharashtra,Nagpur,"Ambazari, Nagpur - MPCB",04-09-2025 07:00:00,21.121801,79.04952,CO,4,39,8
India,Maharashtra,Nagpur,"Mahal, Nagpur - MPCB",04-09-2025 07:00:00,21.14472,79.107595,OZONE,9,13,10
India,Maharashtra,Navi Mumbai,"Tondare-Taloja, Navi Mumbai - MPCB",04-09-2025 07:00:00,19.0630,73.1209,PM10,20,232,45
India,Maharashtra,Navi Mumbai,"Tondare-Taloja, Navi Mumbai - MPCB",04-09-2025 07:00:00,19.0630,73.1209,NH3,2,5,4
India,Maharashtra,Nashik,"MIDC Ambad, Nashik - MPCB",04-09-2025 07:00:00,19.950220,73.731480,NO2,6,19,9
India,Maharashtra,Nashik,"MIDC Ambad, Nashik - MPCB",04-09-2025 07:00:00,19.950220,73.731480,SO2,1,10,4
India,Maharashtra,Nashik,"Pandav Nagari, Nashik - MPCB",04-09-2025 07:00:00,19.9591346,73.7788008,PM2.5,20,40,30
India,Maharashtra,Nashik,"Pandav Nagari, Nashik - MPCB",04-09-2025 07:00:00,19.9591346,73.7788008,OZONE,11,26,18
India,Maharashtra,Mumbai,"Shivaji Nagar, Mumbai - BMC",04-09-2025 07:00:00,19.060498,72.923356,CO,4,28,13
India,Maharashtra,Mumbai,"Worli, Mumbai - MPCB",04-09-2025 07:00:00,18.9936162,72.8128113,OZONE,20,20,20
India,Maharashtra,Pune,"Dhankawadi, Pune - IITM",04-09-2025 07:00:00,18.459883,73.852193,PM2.5,17,17,17
India,Maharashtra,Pune,"Dhankawadi, Pune - IITM",04-09-2025 07:00:00,18.459883,73.852193,OZONE,1,1,1
India,Maharashtra,Pune,"Katraj Dairy, Pune - MPCB",04-09-2025 07:00:00,18.454450,73.854155,PM2.5,NA,NA,NA
India,Maharashtra,Pune,"Mhada Colony, Pune - IITM",04-09-2025 07:00:00,18.573040,73.927715,CO,64,109,92
India,Maharashtra,Pune,"Mhada Colony, Pune - IITM",04-09-2025 07:00:00,18.573040,73.927715,OZONE,4,28,14
India,Maharashtra,Pune,"Panchawati_Pashan, Pune - IITM",04-09-2025 07:00:00,18.536457,73.805454,OZONE,5,25,9
India,Maharashtra,Pune,"Savitribai Phule Pune University, Pune - MPCB",04-09-2025 07:00:00,18.547056,73.826908,CO,10,16,13
India,Maharashtra,Parbhani,"Masoom Colony, Parbhani - MPCB",04-09-2025 07:00:00,19.265594,76.761463,OZONE,10,10,10
India,Maharashtra,Pimpri-Chinchwad,"Gavalinagar, Pimpri Chinchwad - MPCB",04-09-2025 07:00:00,18.63673,73.82487,PM2.5,22,35,28
India,Maharashtra,Pimpri-Chinchwad,"Gavalinagar, Pimpri Chinchwad - MPCB",04-09-2025 07:00:00,18.63673,73.82487,PM10,56,84,69
India,Maharashtra,Pimpri-Chinchwad,"Gavalinagar, Pimpri Chinchwad - MPCB",04-09-2025 07:00:00,18.63673,73.82487,NO2,17,27,21
India,Maharashtra,Pimpri-Chinchwad,"Gavalinagar, Pimpri Chinchwad - MPCB",04-09-2025 07:00:00,18.63673,73.82487,NH3,3,3,3
India,Maharashtra,Pimpri-Chinchwad,"Park Street Wakad, Pimpri Chinchwad - MPCB",04-09-2025 07:00:00,18.59051,73.77946,PM2.5,12,51,36
India,Maharashtra,Solapur,"Dnyaneshwar Nagar, Solapur - MPCB",04-09-2025 07:00:00,17.6336264,75.9132495,SO2,1,3,2
India,Maharashtra,Solapur,"Ratandeep Housing Society, Solapur - MPCB",04-09-2025 07:00:00,17.65439,75.90649,NH3,2,5,3
India,Maharashtra,Thane,"Kasarvadavali, Thane - MPCB",04-09-2025 07:00:00,19.26777,72.97182,PM2.5,8,36,24
India,Maharashtra,Thane,"Kasarvadavali, Thane - MPCB",04-09-2025 07:00:00,19.26777,72.97182,NH3,1,4,2
India,Maharashtra,Thane,"Kasarvadavali, Thane - MPCB",04-09-2025 07:00:00,19.26777,72.97182,SO2,NA,NA,NA
India,Maharashtra,Thane,"Kasarvadavali, Thane - MPCB",04-09-2025 07:00:00,19.26777,72.97182,OZONE,6,6,6
India,Maharashtra,Pimpri-Chinchwad,"Thergaon, Pimpri Chinchwad - MPCB",04-09-2025 07:00:00,18.616318,73.765797,OZONE,3,11,7
India,Maharashtra,Pune,"Bhosari, Pune - IITM",04-09-2025 07:00:00,18.640051,73.848956,OZONE,2,29,17
India,Maharashtra,Pune,"Bhumkar Nagar, Pune - IITM",04-09-2025 07:00:00,18.605770,73.749976,PM2.5,11,84,30
India,Maharashtra,Ulhasnagar,"Sidhi Vinayak Nagar, Ulhasnagar - MPCB",04-09-2025 07:00:00,19.235581,73.159121,CO,18,60,33
India,Maharashtra,Ulhasnagar,"Sidhi Vinayak Nagar, Ulhasnagar - MPCB",04-09-2025 07:00:00,19.235581,73.159121,OZONE,12,43,14
India,Maharashtra,Pune,"Transport Nagar-Nigdi, Pune - IITM",04-09-2025 07:00:00,18.664282,73.763966,OZONE,13,36,22
India,Maharashtra,Pune,"Bhumkar Nagar, Pune - IITM",04-09-2025 07:00:00,18.605770,73.749976,CO,18,42,27
India,Maharashtra,Sangli,"Vijay Nagar, Sangli - MPCB",04-09-2025 07:00:00, 16.5038,74.3623,CO,14,18,15
India,Maharashtra,Thane,"Upvan Fort, Thane - MPCB",04-09-2025 07:00:00,19.222279,72.957979,SO2,2,7,4
India,Odisha,Keonjhar,"Jagamohanpur, Keonjhar - OSPCB",04-09-2025 07:00:00,21.643900,85.599355,CO,2,109,43
India,Odisha,Nayagarh,"Dabuna, Nayagarh - OSPCB",04-09-2025 07:00:00,21.847279,85.416905,PM10,21,21,21
India,Odisha,Rairangpur,"Divisional Forest Office, Rairangpur - OSPCB",04-09-2025 07:00:00,22.265816,86.174829,NH3,3,3,3
India,Odisha,Rourkela,"Raghunathpali, Rourkela - OSPCB",04-09-2025 07:00:00,22.220833,84.809444,NO2,8,67,17
India,Odisha,Rourkela,"Raghunathpali, Rourkela - OSPCB",04-09-2025 07:00:00,22.220833,84.809444,NH3,3,9,4
India,Odisha,Suakati,"OMC Colony, Suakati - OSPCB",04-09-2025 07:00:00,21.606865,85.510538,NO2,12,13,13
India,Odisha,Suakati,"OMC Colony, Suakati - OSPCB",04-09-2025 07:00:00,21.606865,85.510538,SO2,20,22,21
India,Odisha,Tensa,"Barsua Iron Ore Mines, Tensa - OSPCB",04-09-2025 07:00:00,21.869985,85.167016,SO2,15,47,19
India,Punjab,Amritsar,"Golden Temple, Amritsar - PPCB",04-09-2025 07:00:00,31.620000,74.876512,PM10,40,58,45
India,Punjab,Bathinda,"Hardev Nagar, Bathinda - PPCB",04-09-2025 07:00:00,30.233011,74.907758,PM2.5,5,34,14
India,Punjab,Jalandhar,"Civil Line, Jalandhar - PPCB",04-09-2025 07:00:00,31.321907,75.578914,PM10,36,68,49
India,Punjab,Jalandhar,"Civil Line, Jalandhar - PPCB",04-09-2025 07:00:00,31.321907,75.578914,NO2,30,35,32
India,Punjab,Jalandhar,"Civil Line, Jalandhar - PPCB",04-09-2025 07:00:00,31.321907,75.578914,NH3,1,4,4
India,Odisha,Barbil,"Forest Office, Barbil - OSPCB",04-09-2025 07:00:00,22.1166054,85.3945546,PM2.5,2,28,12
India,Odisha,Barbil,"Forest Office, Barbil - OSPCB",04-09-2025 07:00:00,22.1166054,85.3945546,CO,21,38,24
India,Odisha,Baripada,"Meher Colony, Baripada - OSPCB",04-09-2025 07:00:00,21.941841,86.728318,PM2.5,NA,NA,NA
India,Odisha,Byasanagar,"Ferro Chrome Colony, Byasanagar - OSPCB",04-09-2025 07:00:00,20.94185,86.11510,NO2,16,23,19
India,Odisha,Keonjhar,"Jagamohanpur, Keonjhar - OSPCB",04-09-2025 07:00:00,21.643900,85.599355,PM10,24,55,34
India,Punjab,Amritsar,"Golden Temple, Amritsar - PPCB",04-09-2025 07:00:00,31.620000,74.876512,NH3,3,6,4
India,Punjab,Amritsar,"Golden Temple, Amritsar - PPCB",04-09-2025 07:00:00,31.620000,74.876512,SO2,14,20,16
India,Odisha,Bhubaneswar,"Lingraj Mandir, Bhubaneswar - OSPCB",04-09-2025 07:00:00,20.240790,85.836784,PM2.5,NA,NA,NA
India,Odisha,Brajrajnagar,"GM Office, Brajrajnagar - OSPCB",04-09-2025 07:00:00,21.8004996,83.8396977,NH3,6,11,9
India,Odisha,Balasore,"Kalidaspur, Balasore - OSPCB",04-09-2025 07:00:00,21.51161,86.89088,NO2,2,22,8
India,Punjab,Ludhiana,"Punjab Agricultural University, Ludhiana - PPCB",04-09-2025 07:00:00,30.9028,75.8086,PM10,44,60,52
India,Punjab,Ludhiana,"Punjab Agricultural University, Ludhiana - PPCB",04-09-2025 07:00:00,30.9028,75.8086,SO2,2,10,6
India,Punjab,Mandi Gobindgarh,"RIMT University, Mandi Gobindgarh - PPCB",04-09-2025 07:00:00,30.649961,76.331442,PM2.5,21,31,24
India,Punjab,Mandi Gobindgarh,"RIMT University, Mandi Gobindgarh - PPCB",04-09-2025 07:00:00,30.649961,76.331442,PM10,35,52,39
India,Punjab,Patiala,"Model Town, Patiala - PPCB",04-09-2025 07:00:00,30.349388,76.366642,SO2,NA,NA,NA
India,Punjab,Patiala,"Model Town, Patiala - PPCB",04-09-2025 07:00:00,30.349388,76.366642,CO,NA,NA,NA
India,Rajasthan,Bundi,"New Colony, Bundi - RSPCB",04-09-2025 07:00:00,25.435774,75.644272,PM10,4,28,13
India,Rajasthan,Bundi,"New Colony, Bundi - RSPCB",04-09-2025 07:00:00,25.435774,75.644272,NO2,3,17,7
India,Rajasthan,Bundi,"New Colony, Bundi - RSPCB",04-09-2025 07:00:00,25.435774,75.644272,NH3,1,3,2
India,Rajasthan,Bundi,"New Colony, Bundi - RSPCB",04-09-2025 07:00:00,25.435774,75.644272,SO2,3,7,5
India,Rajasthan,Bundi,"New Colony, Bundi - RSPCB",04-09-2025 07:00:00,25.435774,75.644272,CO,20,42,21
India,Rajasthan,Bundi,"New Colony, Bundi - RSPCB",04-09-2025 07:00:00,25.435774,75.644272,OZONE,14,45,24
India,Rajasthan,Churu,"Subash Chowk, Churu - RSPCB",04-09-2025 07:00:00,28.296139,74.961696,OZONE,3,60,11
India,Rajasthan,Dholpur,"Raja Ganj, Dholpur - RSPCB",04-09-2025 07:00:00,26.699557,77.898881,PM10,NA,NA,NA
India,Rajasthan,Dholpur,"Raja Ganj, Dholpur - RSPCB",04-09-2025 07:00:00,26.699557,77.898881,NO2,8,13,10
India,Rajasthan,Dholpur,"Raja Ganj, Dholpur - RSPCB",04-09-2025 07:00:00,26.699557,77.898881,CO,11,67,25
India,Rajasthan,Dungarpur,"Bhoiwada, Dungarpur - RSPCB",04-09-2025 07:00:00,23.837789,73.714926,PM2.5,12,47,26
India,Rajasthan,Dungarpur,"Bhoiwada, Dungarpur - RSPCB",04-09-2025 07:00:00,23.837789,73.714926,NH3,3,3,3
India,Rajasthan,Hanumangarh,"Housing Board, Hanumangarh - RSPCB",04-09-2025 07:00:00,29.610750,74.283608,PM10,18,71,40
India,Rajasthan,Hanumangarh,"Housing Board, Hanumangarh - RSPCB",04-09-2025 07:00:00,29.610750,74.283608,NH3,4,12,6
India,Rajasthan,Hanumangarh,"Housing Board, Hanumangarh - RSPCB",04-09-2025 07:00:00,29.610750,74.283608,OZONE,14,25,15
India,Rajasthan,Jaipur,"Adarsh Nagar, Jaipur - RSPCB",04-09-2025 07:00:00,26.902909,75.836858,NO2,15,51,27
India,Rajasthan,Barmer,"Railway Colony, Barmer - RSPCB",04-09-2025 07:00:00,25.747299,71.393989,SO2,4,6,5
India,Rajasthan,Bharatpur,"Krishna Nagar, Bharatpur - RSPCB",04-09-2025 07:00:00,27.215415,77.50873,PM10,7,34,16
India,Rajasthan,Bhilwara,"Pratap Nagar, Bhilwara - RSPCB",04-09-2025 07:00:00,25.339605,74.618883,SO2,12,14,13
India,Rajasthan,Alwar,"Moti Doongri, Alwar - RSPCB",04-09-2025 07:00:00,27.554793,76.611536,OZONE,16,33,18
India,Rajasthan,Banswara,"Rati Talai, Banswara - RSPCB",04-09-2025 07:00:00,23.555190,74.440010,CO,NA,NA,NA
India,Rajasthan,Baran,"Bamboliya, Baran - RSPCB",04-09-2025 07:00:00,25.106006,76.469948,NO2,3,5,4
India,Rajasthan,Bhiwadi,"Vasundhara Nagar_UIT, Bhiwadi - RSPCB",04-09-2025 07:00:00,28.207266,76.829265,SO2,1,13,7
India,Rajasthan,Bikaner,"MM Ground, Bikaner - RSPCB",04-09-2025 07:00:00,28.018792,73.292658,SO2,1,2,1
India,Rajasthan,Bikaner,"MM Ground, Bikaner - RSPCB",04-09-2025 07:00:00,28.018792,73.292658,OZONE,1,53,13
India,Rajasthan,Bhiwadi,"RIICO Ind. Area III, Bhiwadi - RSPCB",04-09-2025 07:00:00,28.194909,76.862296,NO2,3,29,14
India,Rajasthan,Bhiwadi,"RIICO Ind. Area III, Bhiwadi - RSPCB",04-09-2025 07:00:00,28.194909,76.862296,SO2,5,21,9
India,Rajasthan,Dausa,"Khatikan Mohalla, Dausa - RSPCB",04-09-2025 07:00:00,26.895552,76.334753,NO2,5,13,9
India,Rajasthan,Jhunjhunu,"Indra Nagar, Jhunjhunu - RSPCB",04-09-2025 07:00:00,28.108988,75.386577,PM10,32,89,56
India,Rajasthan,Jhunjhunu,"Indra Nagar, Jhunjhunu - RSPCB",04-09-2025 07:00:00,28.108988,75.386577,SO2,1,2,1
India,Rajasthan,Jhunjhunu,"Indra Nagar, Jhunjhunu - RSPCB",04-09-2025 07:00:00,28.108988,75.386577,CO,15,35,18
India,Rajasthan,Jhunjhunu,"Indra Nagar, Jhunjhunu - RSPCB",04-09-2025 07:00:00,28.108988,75.386577,OZONE,8,60,14
India,Rajasthan,Jodhpur,"Collectorate, Jodhpur - RSPCB",04-09-2025 07:00:00,26.268249,73.0193853,PM2.5,27,102,54
India,Rajasthan,Jodhpur,"Collectorate, Jodhpur - RSPCB",04-09-2025 07:00:00,26.268249,73.0193853,PM10,34,357,68
India,Rajasthan,Jodhpur,"Digari Kalan, Jodhpur - RSPCB",04-09-2025 07:00:00,26.295810,73.082283,PM2.5,13,40,27
India,Rajasthan,Jodhpur,"Samrat Ashok Udhyan, Jodhpur - RSPCB",04-09-2025 07:00:00,26.253384,72.976571,NH3,2,6,5
India,Rajasthan,Kota,"Dhanmandi, Kota - RSPCB",04-09-2025 07:00:00,25.164090,75.858137,CO,4,60,30
India,Rajasthan,Kota,"Nayapura, Kota - RSPCB",04-09-2025 07:00:00,25.196024,75.855668,PM2.5,5,40,22
India,Rajasthan,Kota,"Nayapura, Kota - RSPCB",04-09-2025 07:00:00,25.196024,75.855668,PM10,20,60,31
India,Rajasthan,Kota,"Nayapura, Kota - RSPCB",04-09-2025 07:00:00,25.196024,75.855668,NO2,8,31,17
India,Rajasthan,Jaipur,"Sector-2 Murlipura, Jaipur - RSPCB",04-09-2025 07:00:00,26.960669,75.771817,SO2,4,10,6
India,Rajasthan,Jaipur,"Shastri Nagar, Jaipur - RSPCB",04-09-2025 07:00:00,26.9502929,75.730943,SO2,8,32,22
India,Rajasthan,Jaisalmer,"Sadar Bazar, Jaisalmer - RSPCB",04-09-2025 07:00:00,26.912329,70.909168,SO2,3,6,4
India,Rajasthan,Jaisalmer,"Sadar Bazar, Jaisalmer - RSPCB",04-09-2025 07:00:00,26.912329,70.909168,CO,6,28,10
India,Rajasthan,Jodhpur,"Digari Kalan, Jodhpur - RSPCB",04-09-2025 07:00:00,26.295810,73.082283,OZONE,4,42,8
India,Rajasthan,Jodhpur,"Jhalamand, Jodhpur - RSPCB",04-09-2025 07:00:00,26.215415,73.070156,PM10,16,88,53
India,Rajasthan,Jodhpur,"Mandor, Jodhpur - RSPCB",04-09-2025 07:00:00,26.358805,73.047444,NH3,2,5,3
India,Rajasthan,Jodhpur,"Mandor, Jodhpur - RSPCB",04-09-2025 07:00:00,26.358805,73.047444,SO2,2,4,3
India,Rajasthan,Nagaur,"Karni Colony, Nagaur - RSPCB",04-09-2025 07:00:00,27.213494,73.734444,PM2.5,25,63,41
India,Rajasthan,Nagaur,"Karni Colony, Nagaur - RSPCB",04-09-2025 07:00:00,27.213494,73.734444,PM10,36,123,73
India,Rajasthan,Nagaur,"Karni Colony, Nagaur - RSPCB",04-09-2025 07:00:00,27.213494,73.734444,OZONE,6,65,17
India,Rajasthan,Jodhpur,"Samrat Ashok Udhyan, Jodhpur - RSPCB",04-09-2025 07:00:00,26.253384,72.976571,NO2,1,31,8
India,Rajasthan,Jaisalmer,"Sadar Bazar, Jaisalmer - RSPCB",04-09-2025 07:00:00,26.912329,70.909168,OZONE,25,70,44
India,Rajasthan,Pali,"Indira Colony Vistar, Pali - RSPCB",04-09-2025 07:00:00,25.771061, 73.340227,CO,6,96,42
India,Rajasthan,Kota,"Nayapura, Kota - RSPCB",04-09-2025 07:00:00,25.196024,75.855668,CO,33,55,40
India,TamilNadu,Chennai,"Royapuram, Chennai - TNPCB",04-09-2025 07:00:00,13.1036,80.2909,CO,15,40,23
India,TamilNadu,Chennai,"Velachery Res. Area, Chennai - CPCB",04-09-2025 07:00:00,13.0052189,80.2398125,PM2.5,37,58,47
India,TamilNadu,Coimbatore,"PSG College of Arts and Science, Coimbatore - TNPCB",04-09-2025 07:00:00,11.0328,77.0349,OZONE,4,6,5
India,TamilNadu,Coimbatore,"SIDCO Kurichi, Coimbatore - TNPCB",04-09-2025 07:00:00,10.942451,76.978996,CO,1,137,31
India,TamilNadu,Cuddalore,"Kudikadu, Cuddalore - TNPCB",04-09-2025 07:00:00,11.6829898,79.7532099,SO2,17,18,17
India,Rajasthan,Sikar,"Radhakishan Pura, Sikar - RSPCB",04-09-2025 07:00:00,27.608912,75.153302,SO2,2,4,3
India,Rajasthan,Sirohi,"Vedhaynath Colony, Sirohi - RSPCB",04-09-2025 07:00:00,24.885261,72.857549,PM2.5,22,48,33
India,Rajasthan,Sri Ganganagar,"Old City, Sri Ganganagar - RSPCB",04-09-2025 07:00:00,29.931624,73.864511,NO2,42,70,54
India,Rajasthan,Tonk,"Shastri Nagar, Tonk - RSPCB",04-09-2025 07:00:00,26.159933,75.780517,PM10,27,60,39
India,Rajasthan,Tonk,"Shastri Nagar, Tonk - RSPCB",04-09-2025 07:00:00,26.159933,75.780517,CO,10,28,14
India,Rajasthan,Pratapgarh,"Pragati Nagar, Pratapgarh - RSPCB",04-09-2025 07:00:00,24.041198,74.780702,NH3,2,6,3
India,Rajasthan,Rajsamand,"Dhoinda, Rajsamand - RSPCB",04-09-2025 07:00:00,25.036360,73.883502,PM10,34,103,60
India,Rajasthan,Sawai Madhopur,"Sahu Nagar, Sawai Madhopur - RSPCB",04-09-2025 07:00:00,26.031443,76.359327,NO2,1,7,2
India,Rajasthan,Sawai Madhopur,"Sahu Nagar, Sawai Madhopur - RSPCB",04-09-2025 07:00:00,26.031443,76.359327,CO,5,104,100
India,Rajasthan,Sikar,"Radhakishan Pura, Sikar - RSPCB",04-09-2025 07:00:00,27.608912,75.153302,NO2,11,41,19
India,Sikkim,Gangtok,"Zero Point GICI, Gangtok - SSPCB",04-09-2025 07:00:00,27.338530,88.614099,NH3,1,1,1
India,TamilNadu,Ariyalur,"Keelapalur, Ariyalur - TNPCB",04-09-2025 07:00:00,11.06825,79.07033,PM10,48,82,67
India,TamilNadu,Chengalpattu,"Crescent University, Chengalpattu - TNPCB",04-09-2025 07:00:00,12.8777316,80.0834807,PM2.5,17,75,44
India,TamilNadu,Chengalpattu,"Crescent University, Chengalpattu - TNPCB",04-09-2025 07:00:00,12.8777316,80.0834807,NO2,4,13,7
India,TamilNadu,Chengalpattu,"Crescent University, Chengalpattu - TNPCB",04-09-2025 07:00:00,12.8777316,80.0834807,SO2,4,12,10
India,TamilNadu,Chennai,"Kodungaiyur, Chennai - TNPCB",04-09-2025 07:00:00,13.1278,80.2642,NO2,5,19,9
India,TamilNadu,Chennai,"Kodungaiyur, Chennai - TNPCB",04-09-2025 07:00:00,13.1278,80.2642,SO2,1,4,2
India,TamilNadu,Chennai,"Manali Village, Chennai - TNPCB",04-09-2025 07:00:00,13.1662,80.2584,NO2,1,5,4
India,TamilNadu,Chennai,"Manali, Chennai - CPCB",04-09-2025 07:00:00,13.164544,80.26285,NH3,6,6,6
India,TamilNadu,Chennai,"Manali, Chennai - CPCB",04-09-2025 07:00:00,13.164544,80.26285,SO2,11,21,16
India,TamilNadu,Cuddalore,"Semmandalam, Cuddalore - TNPCB",04-09-2025 07:00:00,11.7637683,79.7499835,NH3,2,3,3
India,TamilNadu,Hosur,"SIPCOT Phase-1, Hosur - TNPCB",04-09-2025 07:00:00,12.746998,77.813811,NH3,1,1,1
India,TamilNadu,Chennai,"Perungudi, Chennai - TNPCB",04-09-2025 07:00:00,12.9533,80.2357,PM2.5,12,53,30
India,TamilNadu,Chennai,"Perungudi, Chennai - TNPCB",04-09-2025 07:00:00,12.9533,80.2357,PM10,15,110,59
India,TamilNadu,Cuddalore,"Kudikadu, Cuddalore - TNPCB",04-09-2025 07:00:00,11.6829898,79.7532099,OZONE,7,9,8
India,TamilNadu,Chennai,"Royapuram, Chennai - TNPCB",04-09-2025 07:00:00,13.1036,80.2909,NO2,8,26,18
India,TamilNadu,Namakkal,"Ponnusamy Nagar, Namakkal - TNPCB",04-09-2025 07:00:00,11.273992,78.163545,CO,3,20,15
India,TamilNadu,Ooty,"Bombay Castel, Ooty - TNPCB",04-09-2025 07:00:00,11.4068288,76.7138973,PM2.5,1,59,29
India,TamilNadu,Ooty,"Bombay Castel, Ooty - TNPCB",04-09-2025 07:00:00,11.4068288,76.7138973,NO2,2,4,3
India,TamilNadu,Palkalaiperur,"Bharathidasan University, Palkalaiperur - TNPCB",04-09-2025 07:00:00,10.681158,78.741746,PM10,27,64,46
India,TamilNadu,Perundurai,"SIPCOT Industrial Park, Perundurai - TNPCB",04-09-2025 07:00:00,11.258242,77.552761,NH3,2,3,2
India,TamilNadu,Perundurai,"SIPCOT Industrial Park, Perundurai - TNPCB",04-09-2025 07:00:00,11.258242,77.552761,SO2,21,23,22
India,TamilNadu,Thanjavur,"Parisutham Nagar, Thanjavur - TNPCB",04-09-2025 07:00:00,10.7654824,79.1389968,OZONE,2,27,16
India,TamilNadu,Tiruchirappalli,"St Joseph College, Tiruchirappalli - TNPCB",04-09-2025 07:00:00,10.830158,78.691849,NO2,10,10,10
India,TamilNadu,Tirunelveli,"Municipal Corporation Office, Tirunelveli - TNPCB",04-09-2025 07:00:00,8.728442,77.6962,PM2.5,20,35,29
India,TamilNadu,Tirupur,"Kumaran College, Tirupur - TNPCB",04-09-2025 07:00:00,11.0973603,77.3228673,PM2.5,NA,NA,NA
India,TamilNadu,Hosur,"SIPCOT Phase-1, Hosur - TNPCB",04-09-2025 07:00:00,12.746998,77.813811,OZONE,9,19,9
India,TamilNadu,Kanchipuram,"Kilambi, Kanchipuram - TNPCB",04-09-2025 07:00:00,12.864618,79.659968,NH3,7,8,8
India,TamilNadu,Karur,"Kamadenu Nagar, Karur - TNPCB",04-09-2025 07:00:00,10.967820,78.080882,NH3,3,3,3
India,TamilNadu,Madurai,"Uchapatti, Madurai - TNPCB",04-09-2025 07:00:00,9.865935,78.022669,NO2,16,16,16
India,TamilNadu,Vellore,"Vasanthapuram, Vellore - TNPCB",04-09-2025 07:00:00,12.909494,79.131861,SO2,19,20,19
India,TamilNadu,Vellore,"Vasanthapuram, Vellore - TNPCB",04-09-2025 07:00:00,12.909494,79.131861,OZONE,10,18,16
India,TamilNadu,Virudhunagar,"Collectorate Office, Virudhunagar - TNPCB",04-09-2025 07:00:00,9.559382,77.948828,CO,17,20,18
India,Telangana,Hyderabad,"Bollaram Industrial Area, Hyderabad - TSPCB",04-09-2025 07:00:00,17.540891,78.358528,PM10,27,109,71
India,Telangana,Hyderabad,"Kokapet, Hyderabad - TSPCB",04-09-2025 07:00:00,17.393559,78.339194,CO,NA,NA,NA
India,Telangana,Hyderabad,"Kompally Municipal Office, Hyderabad - TSPCB",04-09-2025 07:00:00,17.544899,78.486949,CO,8,8,8
India,Telangana,Hyderabad,"Kompally Municipal Office, Hyderabad - TSPCB",04-09-2025 07:00:00,17.544899,78.486949,OZONE,32,44,43
India,Telangana,Hyderabad,"Nacharam_TSIIC IALA, Hyderabad - TSPCB",04-09-2025 07:00:00,17.429398,78.569354,PM10,75,98,88
India,TamilNadu,Nagapattinam,"Velippalayam, Nagapattinam - TNPCB",04-09-2025 07:00:00,10.798548,79.838212,PM2.5,5,36,18
India,TamilNadu,Nagapattinam,"Velippalayam, Nagapattinam - TNPCB",04-09-2025 07:00:00,10.798548,79.838212,SO2,3,8,5
India,TamilNadu,Nagapattinam,"Velippalayam, Nagapattinam - TNPCB",04-09-2025 07:00:00,10.798548,79.838212,CO,12,22,14
India,TamilNadu,Nagapattinam,"Velippalayam, Nagapattinam - TNPCB",04-09-2025 07:00:00,10.798548,79.838212,OZONE,18,72,42
India,Telangana,Hyderabad,"ECIL Kapra, Hyderabad - TSPCB",04-09-2025 07:00:00,17.470431,78.566959,NO2,11,29,19
India,Telangana,Hyderabad,"ECIL Kapra, Hyderabad - TSPCB",04-09-2025 07:00:00,17.470431,78.566959,CO,7,33,14
India,Telangana,Hyderabad,"IITH Kandi, Hyderabad - TSPCB",04-09-2025 07:00:00,17.585705,78.126199,PM2.5,30,43,34
India,TamilNadu,Pudukottai,"SIPCOT Nathampannai, Pudukottai - TNPCB",04-09-2025 07:00:00,10.423417,78.784889,NO2,12,21,16
India,TamilNadu,Ramanathapuram,"Chalai Bazaar, Ramanathapuram - TNPCB",04-09-2025 07:00:00,9.36399,78.831977,SO2,9,21,14
India,TamilNadu,Namakkal,"Ponnusamy Nagar, Namakkal - TNPCB",04-09-2025 07:00:00,11.273992,78.163545,PM10,32,60,47
India,TamilNadu,Namakkal,"Ponnusamy Nagar, Namakkal - TNPCB",04-09-2025 07:00:00,11.273992,78.163545,NO2,NA,NA,NA
India,Telangana,Hyderabad,"Ramachandrapuram, Hyderabad - TSPCB",04-09-2025 07:00:00,17.528544,78.286195,PM10,58,69,64
India,Telangana,Hyderabad,"Ramachandrapuram, Hyderabad - TSPCB",04-09-2025 07:00:00,17.528544,78.286195,NO2,17,17,17
India,Telangana,Hyderabad,"Ramachandrapuram, Hyderabad - TSPCB",04-09-2025 07:00:00,17.528544,78.286195,SO2,12,17,14
India,Telangana,Hyderabad,"Sanathnagar, Hyderabad - TSPCB",04-09-2025 07:00:00,17.4559458,78.4332152,NO2,24,30,28
India,Telangana,Hyderabad,"Sanathnagar, Hyderabad - TSPCB",04-09-2025 07:00:00,17.4559458,78.4332152,CO,2,18,9
India,Telangana,Hyderabad,"Zoo Park, Hyderabad - TSPCB",04-09-2025 07:00:00,17.349694,78.451437,NO2,4,15,11
India,Telangana,Hyderabad,"Zoo Park, Hyderabad - TSPCB",04-09-2025 07:00:00,17.349694,78.451437,CO,6,26,12
India,Uttar_Pradesh,Bareilly,"Rajendra Nagar, Bareilly - UPPCB",04-09-2025 07:00:00,28.38910936,79.42963708,PM2.5,22,66,40
India,Uttar_Pradesh,Bareilly,"Rajendra Nagar, Bareilly - UPPCB",04-09-2025 07:00:00,28.38910936,79.42963708,PM10,27,87,48
India,Uttar_Pradesh,Bulandshahr,"Yamunapuram, Bulandshahr - UPPCB",04-09-2025 07:00:00,28.406963,77.849831,OZONE,4,16,6
India,Uttar_Pradesh,Firozabad,"Nagla Bhau, Firozabad - UPPCB",04-09-2025 07:00:00,27.168897,78.376960,PM10,8,27,14
India,Tripura,Agartala,"Bardowali, Agartala - Tripura SPCB",04-09-2025 07:00:00,23.8175497,91.2726974,NH3,8,10,9
India,Uttar_Pradesh,Agra,"Manoharpur, Agra - UPPCB",04-09-2025 07:00:00,27.23711,78.01936,PM2.5,6,61,29
India,Uttar_Pradesh,Agra,"Manoharpur, Agra - UPPCB",04-09-2025 07:00:00,27.23711,78.01936,PM10,5,53,25
India,Uttar_Pradesh,Agra,"Manoharpur, Agra - UPPCB",04-09-2025 07:00:00,27.23711,78.01936,NH3,1,2,1
India,Uttar_Pradesh,Agra,"Shastripuram, Agra - UPPCB",04-09-2025 07:00:00,27.19862,77.92066,NH3,NA,NA,NA
India,Uttar_Pradesh,Baghpat,"Sardar Patel Inter College, Baghpat - UPPCB",04-09-2025 07:00:00,28.964949,77.278761,PM10,NA,NA,NA
India,Uttar_Pradesh,Baghpat,"Sardar Patel Inter College, Baghpat - UPPCB",04-09-2025 07:00:00,28.964949,77.278761,CO,47,86,74
India,Uttar_Pradesh,Baghpat,"Sardar Patel Inter College, Baghpat - UPPCB",04-09-2025 07:00:00,28.964949,77.278761,OZONE,8,92,19
India,Uttar_Pradesh,Firozabad,"Nagla Bhau, Firozabad - UPPCB",04-09-2025 07:00:00,27.168897,78.376960,SO2,14,29,18
India,Uttar_Pradesh,Firozabad,"Vibhab Nagar, Firozabad - UPPCB",04-09-2025 07:00:00,27.1594,78.3953,PM2.5,8,32,20
India,Uttar_Pradesh,Ghaziabad,"Loni, Ghaziabad - UPPCB",04-09-2025 07:00:00,28.757294,77.278792,PM10,6,104,43
India,Uttar_Pradesh,Agra,"Sector-3B Avas Vikas Colony, Agra - UPPCB",04-09-2025 07:00:00,27.19412,77.96237,SO2,11,12,12
India,Uttar_Pradesh,Ghaziabad,"Sanjay Nagar, Ghaziabad - UPPCB",04-09-2025 07:00:00,28.685382,77.453839,NO2,18,34,24
India,Uttar_Pradesh,Ghaziabad,"Sanjay Nagar, Ghaziabad - UPPCB",04-09-2025 07:00:00,28.685382,77.453839,SO2,9,29,19
India,Uttar_Pradesh,Ghaziabad,"Loni, Ghaziabad - UPPCB",04-09-2025 07:00:00,28.757294,77.278792,NH3,2,4,3
India,Uttar_Pradesh,Gorakhpur,"Madan Mohan Malaviya University of Technology, Gorakhpur - UPPCB",04-09-2025 07:00:00,26.730136,83.433859,NH3,1,1,1
India,Uttar_Pradesh,Gorakhpur,"Madan Mohan Malaviya University of Technology, Gorakhpur - UPPCB",04-09-2025 07:00:00,26.730136,83.433859,SO2,23,24,23
India,Uttar_Pradesh,Gorakhpur,"Madan Mohan Malaviya University of Technology, Gorakhpur - UPPCB",04-09-2025 07:00:00,26.730136,83.433859,OZONE,49,203,85
India,Uttar_Pradesh,Greater Noida,"Knowledge Park - III, Greater Noida - UPPCB",04-09-2025 07:00:00,28.47272,77.482000,NH3,3,39,8
India,Uttar_Pradesh,Greater Noida,"Knowledge Park - III, Greater Noida - UPPCB",04-09-2025 07:00:00,28.47272,77.482000,SO2,NA,NA,NA
India,Uttar_Pradesh,Greater Noida,"Knowledge Park - V, Greater Noida - UPPCB",04-09-2025 07:00:00,28.557054,77.453663,PM2.5,2,61,25
India,Uttar_Pradesh,Greater Noida,"Knowledge Park - V, Greater Noida - UPPCB",04-09-2025 07:00:00,28.557054,77.453663,OZONE,10,77,23
India,Uttar_Pradesh,Lucknow,"Lalbagh, Lucknow - CPCB",04-09-2025 07:00:00,26.8458805,80.9365541,OZONE,35,66,59
India,Uttar_Pradesh,Lucknow,"Talkatora District Industries Center, Lucknow - CPCB",04-09-2025 07:00:00,26.83399722,80.8917361,SO2,1,19,7
India,Uttar_Pradesh,Lucknow,"Talkatora District Industries Center, Lucknow - CPCB",04-09-2025 07:00:00,26.83399722,80.8917361,CO,4,53,32
India,Uttar_Pradesh,Meerut,"Ganga Nagar, Meerut - UPPCB",04-09-2025 07:00:00,28.999264,77.7590354,PM2.5,3,29,13
India,Uttar_Pradesh,Meerut,"Ganga Nagar, Meerut - UPPCB",04-09-2025 07:00:00,28.999264,77.7590354,SO2,14,18,16
India,Uttar_Pradesh,Kanpur,"Nehru Nagar, Kanpur - UPPCB",04-09-2025 07:00:00,26.4703136,80.3229863,NO2,48,63,54
India,Uttar_Pradesh,Kanpur,"Nehru Nagar, Kanpur - UPPCB",04-09-2025 07:00:00,26.4703136,80.3229863,CO,52,78,69
India,Uttar_Pradesh,Khurja,"Kalindi Kunj, Khurja - UPPCB",04-09-2025 07:00:00,28.2348927,77.8683002,PM2.5,6,55,18
India,Uttar_Pradesh,Lucknow,"B R Ambedkar University, Lucknow - UPPCB",04-09-2025 07:00:00,26.766433,80.927299,NO2,11,12,11
India,Uttar_Pradesh,Lucknow,"B R Ambedkar University, Lucknow - UPPCB",04-09-2025 07:00:00,26.766433,80.927299,SO2,9,12,11
India,Uttar_Pradesh,Meerut,"Ganga Nagar, Meerut - UPPCB",04-09-2025 07:00:00,28.999264,77.7590354,OZONE,19,62,25
India,Uttar_Pradesh,Meerut,"Jai Bhim Nagar, Meerut - UPPCB",04-09-2025 07:00:00,28.9535882,77.7622941,PM2.5,3,39,14
India,Uttar_Pradesh,Meerut,"Jai Bhim Nagar, Meerut - UPPCB",04-09-2025 07:00:00,28.9535882,77.7622941,NO2,11,43,16
India,Uttar_Pradesh,Meerut,"Pallavpuram Phase 2, Meerut - UPPCB",04-09-2025 07:00:00,29.063510,77.709723,CO,16,46,32
India,Uttar_Pradesh,Moradabad,"Buddhi Vihar, Moradabad - UPPCB",04-09-2025 07:00:00,28.83526,78.74460,NH3,5,5,5
India,Uttar_Pradesh,Moradabad,"Buddhi Vihar, Moradabad - UPPCB",04-09-2025 07:00:00,28.83526,78.74460,OZONE,11,27,13
India,Uttar_Pradesh,Kanpur,"FTI Kidwai Nagar, Kanpur - UPPCB",04-09-2025 07:00:00,26.428282,80.327067,OZONE,16,17,16
India,Uttar_Pradesh,Lucknow,"Gomti Nagar, Lucknow - UPPCB",04-09-2025 07:00:00,26.868120,81.005119,PM10,16,60,33
India,Uttar_Pradesh,Lucknow,"Gomti Nagar, Lucknow - UPPCB",04-09-2025 07:00:00,26.868120,81.005119,SO2,10,12,11
India,Uttar_Pradesh,Lucknow,"Lalbagh, Lucknow - CPCB",04-09-2025 07:00:00,26.8458805,80.9365541,NO2,34,39,37
India,Uttar_Pradesh,Muzaffarnagar,"New Mandi, Muzaffarnagar - UPPCB",04-09-2025 07:00:00,29.4723508,77.7194031,PM10,8,69,31
India,Uttar_Pradesh,Muzaffarnagar,"New Mandi, Muzaffarnagar - UPPCB",04-09-2025 07:00:00,29.4723508,77.7194031,NH3,3,5,4
India,Uttar_Pradesh,Noida,"Sector - 125, Noida - UPPCB",04-09-2025 07:00:00,28.5447608,77.3231257,SO2,6,12,9
India,Uttar_Pradesh,Noida,"Sector - 62, Noida - IMD",04-09-2025 07:00:00,28.6245479,77.3577104,PM2.5,9,51,28
India,Uttar_Pradesh,Noida,"Sector - 62, Noida - IMD",04-09-2025 07:00:00,28.6245479,77.3577104,PM10,17,59,35
India,Uttar_Pradesh,Noida,"Sector-1, Noida - UPPCB",04-09-2025 07:00:00,28.5898,77.3101,PM10,26,94,47
India,Uttar_Pradesh,Noida,"Sector-1, Noida - UPPCB",04-09-2025 07:00:00,28.5898,77.3101,CO,6,57,14
India,Uttar_Pradesh,Noida,"Sector-116, Noida - UPPCB",04-09-2025 07:00:00,28.569230,77.393848,CO,6,27,20
India,Uttar_Pradesh,Prayagraj,"Jhunsi, Prayagraj - UPPCB",04-09-2025 07:00:00,25.425602,81.917152,PM2.5,4,48,20
India,Uttar_Pradesh,Prayagraj,"Jhunsi, Prayagraj - UPPCB",04-09-2025 07:00:00,25.425602,81.917152,PM10,13,64,40
India,Uttar_Pradesh,Prayagraj,"Jhunsi, Prayagraj - UPPCB",04-09-2025 07:00:00,25.425602,81.917152,NH3,5,5,5
India,Uttar_Pradesh,Prayagraj,"Jhunsi, Prayagraj - UPPCB",04-09-2025 07:00:00,25.425602,81.917152,SO2,28,47,30
India,Uttar_Pradesh,Prayagraj,"Jhunsi, Prayagraj - UPPCB",04-09-2025 07:00:00,25.425602,81.917152,CO,6,18,12
India,Uttar_Pradesh,Vrindavan,"Omex Eternity, Vrindavan - UPPCB",04-09-2025 07:00:00,27.5714090,77.6557570,PM10,5,65,28
India,Uttar_Pradesh,Vrindavan,"Omex Eternity, Vrindavan - UPPCB",04-09-2025 07:00:00,27.5714090,77.6557570,NO2,12,12,12
India,Uttarakhand,Dehradun,"Doon University, Dehradun - UKPCB",04-09-2025 07:00:00,30.269444,78.044167,NO2,1,5,2
India,Uttarakhand,Dehradun,"Doon University, Dehradun - UKPCB",04-09-2025 07:00:00,30.269444,78.044167,CO,1,19,7
India,Uttarakhand,Dehradun,"Doon University, Dehradun - UKPCB",04-09-2025 07:00:00,30.269444,78.044167,OZONE,13,25,13
India,West_Bengal,Asansol,"Asansol Court Area, Asansol - WBPCB",04-09-2025 07:00:00,23.685297,86.945968,NO2,18,44,28
India,West_Bengal,Asansol,"Asansol Court Area, Asansol - WBPCB",04-09-2025 07:00:00,23.685297,86.945968,NH3,4,7,6
India,West_Bengal,Asansol,"Evelyn Lodge, Asansol - WBPCB",04-09-2025 07:00:00,23.6979360,86.9443950,PM2.5,7,18,13
India,West_Bengal,Asansol,"Evelyn Lodge, Asansol - WBPCB",04-09-2025 07:00:00,23.6979360,86.9443950,NH3,1,1,1
India,Uttar_Pradesh,Varanasi,"IESD Banaras Hindu University, Varanasi - UPPCB",04-09-2025 07:00:00,25.262326,82.995408,OZONE,9,15,11
India,Uttar_Pradesh,Varanasi,"Maldahiya, Varanasi - UPPCB",04-09-2025 07:00:00,25.32393,82.99687,PM2.5,3,28,10
India,Uttar_Pradesh,Varanasi,"Maldahiya, Varanasi - UPPCB",04-09-2025 07:00:00,25.32393,82.99687,CO,5,31,12
India,Uttar_Pradesh,Moradabad,"Jigar Colony, Moradabad - UPPCB",04-09-2025 07:00:00,28.856664,78.772638,OZONE,18,21,19
India,Uttar_Pradesh,Moradabad,"Transport Nagar, Moradabad - UPPCB",04-09-2025 07:00:00,28.802625,78.753728,PM10,25,90,56
India,Uttar_Pradesh,Moradabad,"Transport Nagar, Moradabad - UPPCB",04-09-2025 07:00:00,28.802625,78.753728,NO2,27,28,27
India,Uttar_Pradesh,Varanasi,"Bhelupur, Varanasi - UPPCB",04-09-2025 07:00:00,25.301778,82.996789,PM2.5,5,34,16
India,Uttar_Pradesh,Varanasi,"Bhelupur, Varanasi - UPPCB",04-09-2025 07:00:00,25.301778,82.996789,PM10,7,52,25
India,Uttar_Pradesh,Varanasi,"Bhelupur, Varanasi - UPPCB",04-09-2025 07:00:00,25.301778,82.996789,NO2,8,8,8
India,West_Bengal,Barrackpore,"SVSPA Campus, Barrackpore - WBPCB",04-09-2025 07:00:00,22.7605581,88.3617589,NO2,9,18,13
India,West_Bengal,Barrackpore,"SVSPA Campus, Barrackpore - WBPCB",04-09-2025 07:00:00,22.7605581,88.3617589,SO2,13,14,13
India,Uttar_Pradesh,Prayagraj,"Nagar Nigam, Prayagraj - UPPCB",04-09-2025 07:00:00,25.44919916 ,81.82735986 ,PM10,11,39,29
India,West_Bengal,Durgapur,"Mahishkapur Road_B-Zone, Durgapur - WBPCB",04-09-2025 07:00:00,23.567923,87.306843,NH3,2,2,2
India,West_Bengal,Durgapur,"PCBL Residential Complex, Durgapur - WBPCB",04-09-2025 07:00:00,23.5087640,87.3544400,OZONE,2,10,6
India,West_Bengal,Durgapur,"Womens College_City Center, Durgapur - WBPCB (Formerly known as Sidhu Kanhu Indoor Stadium)",04-09-2025 07:00:00,23.549395,87.300496,CO,12,20,18
India,West_Bengal,Haldia,"Priyambada Housing Estate, Haldia - WBPCB",04-09-2025 07:00:00,22.06047,88.109737,SO2,10,17,13
India,West_Bengal,Haldia,"Priyambada Housing Estate, Haldia - WBPCB",04-09-2025 07:00:00,22.06047,88.109737,CO,11,50,30
India,West_Bengal,Howrah,"Belur Math, Howrah - WBPCB",04-09-2025 07:00:00,22.629801,88.352017,NH3,9,10,10
India,West_Bengal,Howrah,"Botanical Garden, Howrah - WBPCB",04-09-2025 07:00:00,22.554954,88.292568,PM10,15,26,21
India,West_Bengal,Howrah,"Botanical Garden, Howrah - WBPCB",04-09-2025 07:00:00,22.554954,88.292568,CO,60,66,62
India,West_Bengal,Howrah,"Dasnagar, Howrah - WBPCB",04-09-2025 07:00:00,22.6025571,88.3105664,PM2.5,6,51,29
India,West_Bengal,Howrah,"Dasnagar, Howrah - WBPCB",04-09-2025 07:00:00,22.6025571,88.3105664,OZONE,4,25,14
India,West_Bengal,Howrah,"Ghusuri, Howrah - WBPCB",04-09-2025 07:00:00,22.611968,88.347422,CO,9,10,9
India,West_Bengal,Howrah,"Padmapukur, Howrah - WBPCB",04-09-2025 07:00:00,22.5687319,88.2797276,NO2,11,23,16
India,West_Bengal,Kolkata,"Ballygunge, Kolkata - WBPCB",04-09-2025 07:00:00,22.5367507,88.3638022,CO,4,24,7
India,West_Bengal,Kolkata,"Bidhannagar, Kolkata - WBPCB",04-09-2025 07:00:00,22.58157048,88.41002457,PM10,21,28,25
India,West_Bengal,Kolkata,"Jadavpur, Kolkata - WBPCB",04-09-2025 07:00:00,22.49929,88.36917,PM2.5,28,41,33
India,West_Bengal,Kolkata,"Rabindra Sarobar, Kolkata - WBPCB",04-09-2025 07:00:00,22.51106,88.35142,PM10,21,24,23
India,West_Bengal,Kolkata,"Rabindra Sarobar, Kolkata - WBPCB",04-09-2025 07:00:00,22.51106,88.35142,NH3,3,9,7
India,West_Bengal,Kolkata,"Rabindra Sarobar, Kolkata - WBPCB",04-09-2025 07:00:00,22.51106,88.35142,SO2,4,6,5
India,West_Bengal,Kolkata,"Victoria, Kolkata - WBPCB",04-09-2025 07:00:00,22.5448082,88.3403691,NO2,13,25,18
India,West_Bengal,Kolkata,"Victoria, Kolkata - WBPCB",04-09-2025 07:00:00,22.5448082,88.3403691,OZONE,8,28,21
India,West_Bengal,Siliguri,"Ward-32 Bapupara, Siliguri - WBPCB",04-09-2025 07:00:00,26.6879226,88.4152495,PM2.5,26,37,31
India,West_Bengal,Siliguri,"Ward-32 Bapupara, Siliguri - WBPCB",04-09-2025 07:00:00,26.6879226,88.4152495,CO,32,52,41
India,Bihar,Begusarai,"Lohiyanagar, Begusarai - BSPCB",04-09-2025 07:00:00,25.42742023,86.13886079,PM10,16,67,45
India,Bihar,Begusarai,"Lohiyanagar, Begusarai - BSPCB",04-09-2025 07:00:00,25.42742023,86.13886079,CO,19,62,55
India,Bihar,Bettiah,"Kamalnath Nagar, Bettiah - BSPCB",04-09-2025 07:00:00,26.80365,84.51954,CO,36,70,40
India,Bihar,Bhagalpur,"DM Office_Kachari Chowk, Bhagalpur - BSPCB",04-09-2025 07:00:00,25.251013,86.989001,NO2,19,26,23
India,Bihar,Bhagalpur,"DM Office_Kachari Chowk, Bhagalpur - BSPCB",04-09-2025 07:00:00,25.251013,86.989001,NH3,2,3,3
India,Bihar,Bhagalpur,"DM Office_Kachari Chowk, Bhagalpur - BSPCB",04-09-2025 07:00:00,25.251013,86.989001,SO2,48,96,68
India,Assam,Nalbari,"Bata Chowk, Nalbari - PCBA",04-09-2025 07:00:00,26.446912,91.439057,NO2,3,13,5
India,Assam,Nalbari,"Bata Chowk, Nalbari - PCBA",04-09-2025 07:00:00,26.446912,91.439057,OZONE,6,64,15
India,Assam,Silchar,"Tarapur, Silchar - PCBA",04-09-2025 07:00:00,24.82827,92.79525,PM2.5,41,43,42
India,Assam,Sivasagar,"Girls College, Sivasagar - PCBA",04-09-2025 07:00:00,26.987634,94.636574,PM10,27,63,39
India,Assam,Sivasagar,"Girls College, Sivasagar - PCBA",04-09-2025 07:00:00,26.987634,94.636574,NH3,3,5,4
India,Assam,Sivasagar,"Girls College, Sivasagar - PCBA",04-09-2025 07:00:00,26.987634,94.636574,SO2,7,13,9
India,Bihar,Araria,"Kharahiya Basti, Araria - BSPCB",04-09-2025 07:00:00,26.146529,87.454184,CO,8,34,26
India,Bihar,Aurangabad,"Gurdeo Nagar, Aurangabad - BSPCB",04-09-2025 07:00:00,24.75746,84.366208,PM2.5,NA,NA,NA
India,Bihar,Aurangabad,"Gurdeo Nagar, Aurangabad - BSPCB",04-09-2025 07:00:00,24.75746,84.366208,CO,4,40,13
India,Bihar,Begusarai,"Lohiyanagar, Begusarai - BSPCB",04-09-2025 07:00:00,25.42742023,86.13886079,PM2.5,37,60,43
India,Andhra_Pradesh,Tirumala,"Toll Gate, Tirumala - APPCB",04-09-2025 07:00:00,13.67,79.35,NO2,7,16,13
India,Andhra_Pradesh,Tirumala,"Toll Gate, Tirumala - APPCB",04-09-2025 07:00:00,13.67,79.35,SO2,2,4,3
India,Andhra_Pradesh,Tirumala,"Toll Gate, Tirumala - APPCB",04-09-2025 07:00:00,13.67,79.35,OZONE,7,13,11
India,Andhra_Pradesh,Tirupati,"Vaikuntapuram, Tirupati - APPCB",04-09-2025 07:00:00,13.615387,79.409230,PM2.5,NA,NA,NA
India,Andhra_Pradesh,Vijayawada,"Rajiv Nagar, Vijayawada - APPCB",04-09-2025 07:00:00,16.554731,80.649110,NO2,NA,NA,NA
India,Andhra_Pradesh,Vijayawada,"Rajiv Nagar, Vijayawada - APPCB",04-09-2025 07:00:00,16.554731,80.649110,NH3,NA,NA,NA
India,Andhra_Pradesh,Vijayawada,"Rajiv Nagar, Vijayawada - APPCB",04-09-2025 07:00:00,16.554731,80.649110,SO2,NA,NA,NA
India,Andhra_Pradesh,Visakhapatnam,"GVM Corporation, Visakhapatnam - APPCB",04-09-2025 07:00:00,17.72,83.3,OZONE,9,33,10
India,Assam,Guwahati,"Pan Bazaar, Guwahati - PCBA",04-09-2025 07:00:00,26.187500,91.744194,CO,4,30,21
India,Assam,Nagaon,"Christianpatty, Nagaon - PCBA",04-09-2025 07:00:00,26.349082,92.68449,PM10,16,207,46
India,Assam,Nagaon,"Christianpatty, Nagaon - PCBA",04-09-2025 07:00:00,26.349082,92.68449,NO2,1,9,1
India,Andhra_Pradesh,Anantapur,"Gulzarpet, Anantapur - APPCB",04-09-2025 07:00:00,14.675886,77.593027,SO2,13,16,14
India,Andhra_Pradesh,Chittoor,"Gangineni Cheruvu, Chittoor - APPCB",04-09-2025 07:00:00,13.204880,79.097889,PM10,59,85,71
India,Andhra_Pradesh,Rajamahendravaram,"Anand Kala Kshetram, Rajamahendravaram - APPCB",04-09-2025 07:00:00,16.9872867,81.7363176,NO2,6,33,15
India,Assam,Byrnihat,"Central Academy for SFS, Byrnihat - PCBA",04-09-2025 07:00:00,26.071318,91.87488,OZONE,4,23,21
India,Arunachal_Pradesh,Naharlagun,"Naharlagun, Naharlagun - APSPCB",04-09-2025 07:00:00,27.103358,93.679645,OZONE,5,5,5
India,Bihar,Kishanganj,"SDM Office_Khagra, Kishanganj - BSPCB",04-09-2025 07:00:00,26.0881305,87.93840336,NH3,2,3,3
India,Bihar,Kishanganj,"SDM Office_Khagra, Kishanganj - BSPCB",04-09-2025 07:00:00,26.0881305,87.93840336,SO2,5,9,7
India,Bihar,Kishanganj,"SDM Office_Khagra, Kishanganj - BSPCB",04-09-2025 07:00:00,26.0881305,87.93840336,CO,NA,NA,NA
India,Bihar,Manguraha,"Forest Rest House, Manguraha - BSPCB",04-09-2025 07:00:00,27.308328,84.531742,PM10,6,150,48
India,Bihar,Manguraha,"Forest Rest House, Manguraha - BSPCB",04-09-2025 07:00:00,27.308328,84.531742,CO,4,104,55
India,Bihar,Motihari,"Gandak Colony, Motihari - BSPCB",04-09-2025 07:00:00,26.63086,84.90051,NH3,3,3,3
India,Bihar,Motihari,"Gandak Colony, Motihari - BSPCB",04-09-2025 07:00:00,26.63086,84.90051,CO,1,20,2
India,Bihar,Munger,"Town Hall, Munger - BSPCB",04-09-2025 07:00:00,25.376776,86.471523,SO2,17,22,19
India,Bihar,Munger,"Town Hall, Munger - BSPCB",04-09-2025 07:00:00,25.376776,86.471523,CO,16,36,24
India,Bihar,Muzaffarpur,"Buddha Colony, Muzaffarpur - BSPCB",04-09-2025 07:00:00,26.11442,85.39813,PM2.5,10,32,17
India,Bihar,Muzaffarpur,"Buddha Colony, Muzaffarpur - BSPCB",04-09-2025 07:00:00,26.11442,85.39813,PM10,25,62,38
India,Bihar,Muzaffarpur,"Buddha Colony, Muzaffarpur - BSPCB",04-09-2025 07:00:00,26.11442,85.39813,OZONE,35,106,63
India,Bihar,Muzaffarpur,"MIT-Daudpur Kothi, Muzaffarpur - BSPCB",04-09-2025 07:00:00,26.1403345,85.3650192,PM2.5,40,82,64
India,Bihar,Muzaffarpur,"MIT-Daudpur Kothi, Muzaffarpur - BSPCB",04-09-2025 07:00:00,26.1403345,85.3650192,SO2,8,19,16
India,Bihar,Gaya,"SFTI Kusdihra, Gaya - BSPCB",04-09-2025 07:00:00,24.762518,84.982348,NO2,17,20,18
India,Bihar,Gaya,"SFTI Kusdihra, Gaya - BSPCB",04-09-2025 07:00:00,24.762518,84.982348,OZONE,9,21,10
India,Bihar,Katihar,"Mirchaibari, Katihar - BSPCB",04-09-2025 07:00:00,25.560083,87.553265,PM2.5,32,60,41
India,Bihar,Buxar,"Charitra Van, Buxar - BSPCB",04-09-2025 07:00:00,25.567520,83.966379,NH3,3,3,3
India,Bihar,Chhapra,"Darshan Nagar, Chhapra - BSPCB",04-09-2025 07:00:00,25.7808257,84.7446768,NH3,NA,NA,NA
India,Bihar,Bhagalpur,"Mayaganj, Bhagalpur - BSPCB",04-09-2025 07:00:00,25.265194,87.012947,NH3,2,5,4
India,Bihar,Bhagalpur,"Mayaganj, Bhagalpur - BSPCB",04-09-2025 07:00:00,25.265194,87.012947,CO,41,78,45
India,Bihar,Katihar,"Mirchaibari, Katihar - BSPCB",04-09-2025 07:00:00,25.560083,87.553265,NH3,1,1,1
India,Bihar,Katihar,"Mirchaibari, Katihar - BSPCB",04-09-2025 07:00:00,25.560083,87.553265,CO,54,99,69
India,Bihar,Muzaffarpur,"Muzaffarpur Collectorate, Muzaffarpur - BSPCB",04-09-2025 07:00:00,26.1209,85.3647,SO2,4,9,7
India,Bihar,Bihar Sharif,"D M Colony, Bihar Sharif - BSPCB",04-09-2025 07:00:00,25.204762,85.514960,SO2,9,10,10
India,Bihar,Bhagalpur,"Mayaganj, Bhagalpur - BSPCB",04-09-2025 07:00:00,25.265194,87.012947,PM10,7,43,18
India,Bihar,Patna,"Samanpura, Patna - BSPCB",04-09-2025 07:00:00,25.596727,85.085624,NH3,6,7,6
India,Bihar,Patna,"Samanpura, Patna - BSPCB",04-09-2025 07:00:00,25.596727,85.085624,SO2,1,3,1
India,Bihar,Purnia,"Mariam Nagar, Purnia - BSPCB",04-09-2025 07:00:00,25.366336,87.117468,PM10,28,85,41
India,Bihar,Purnia,"Mariam Nagar, Purnia - BSPCB",04-09-2025 07:00:00,25.366336,87.117468,SO2,NA,NA,NA
India,Bihar,Purnia,"Mariam Nagar, Purnia - BSPCB",04-09-2025 07:00:00,25.366336,87.117468,OZONE,15,41,25
India,Bihar,Rajgir,"Dangi Tola, Rajgir - BSPCB",04-09-2025 07:00:00,25.03280,85.41948,PM2.5,NA,NA,NA
India,Bihar,Rajgir,"Dangi Tola, Rajgir - BSPCB",04-09-2025 07:00:00,25.03280,85.41948,OZONE,28,40,32
India,Bihar,Saharsa,"Police Line, Saharsa - BSPCB",04-09-2025 07:00:00,25.892357,86.590325,SO2,14,17,16
India,Bihar,Samastipur,"DM Office_Kasipur, Samastipur - BSPCB",04-09-2025 07:00:00,25.859655,85.77944,PM10,37,144,72
India,Bihar,Samastipur,"DM Office_Kasipur, Samastipur - BSPCB",04-09-2025 07:00:00,25.859655,85.77944,NH3,2,2,2
India,Bihar,Samastipur,"DM Office_Kasipur, Samastipur - BSPCB",04-09-2025 07:00:00,25.859655,85.77944,OZONE,7,11,8
India,Bihar,Patna,"Muradpur, Patna - BSPCB",04-09-2025 07:00:00,25.619651,85.147382,NO2,8,11,9
India,Bihar,Patna,"Rajbansi Nagar, Patna - BSPCB",04-09-2025 07:00:00,25.599486,85.113666,PM2.5,9,35,20
India,Bihar,Patna,"Rajbansi Nagar, Patna - BSPCB",04-09-2025 07:00:00,25.599486,85.113666,SO2,5,7,6
India,Chhattisgarh,Bilaspur,"Mangala, Bilaspur - NTPC",04-09-2025 07:00:00,22.08815,82.13737,CO,20,30,27
India,Chhattisgarh,Chhal,"Nawapara SECL Colony, Chhal - CECB",04-09-2025 07:00:00,22.118125,83.140608,PM2.5,3,27,11
India,Chhattisgarh,Bhilai,"Hathkhoj, Bhilai - CECB",04-09-2025 07:00:00,21.224231,81.408350,NH3,3,5,4
India,Chhattisgarh,Bilaspur,"Mangala, Bilaspur - NTPC",04-09-2025 07:00:00,22.08815,82.13737,PM2.5,8,46,28
India,Chandigarh,Chandigarh,"Sector 22, Chandigarh - CPCC",04-09-2025 07:00:00,30.735567,76.775714,SO2,1,5,3
India,Chandigarh,Chandigarh,"Sector 22, Chandigarh - CPCC",04-09-2025 07:00:00,30.735567,76.775714,CO,30,101,54
India,Bihar,Patna,"DRM Office Danapur, Patna - BSPCB",04-09-2025 07:00:00,25.586562,85.043586,PM2.5,11,34,22
India,Bihar,Patna,"DRM Office Danapur, Patna - BSPCB",04-09-2025 07:00:00,25.586562,85.043586,NO2,29,36,32
India,Chhattisgarh,Bhilai,"32Bungalows, Bhilai - CECB",04-09-2025 07:00:00,21.194815,81.314770,NO2,5,47,14
India,Bihar,Patna,"Samanpura, Patna - BSPCB",04-09-2025 07:00:00,25.596727,85.085624,PM2.5,10,73,44
India,Delhi,Delhi,"Dwarka-Sector 8, Delhi - DPCC ",04-09-2025 07:00:00,28.5710274,77.0719006,OZONE,9,46,15
India,Delhi,Delhi,"IGI Airport (T3), Delhi - IMD",04-09-2025 07:00:00,28.5627763,77.1180053,OZONE,1,2,1
India,Delhi,Delhi,"IHBAS, Dilshad Garden, Delhi - CPCB",04-09-2025 07:00:00,28.6811736,77.3025234,NO2,40,61,48
India,Delhi,Delhi,"IHBAS, Dilshad Garden, Delhi - CPCB",04-09-2025 07:00:00,28.6811736,77.3025234,OZONE,13,19,13
India,Delhi,Delhi,"ITO, Delhi - CPCB",04-09-2025 07:00:00,28.628624,77.241060,PM2.5,10,61,36
India,Delhi,Delhi,"Jahangirpuri, Delhi - DPCC",04-09-2025 07:00:00,28.732820,77.170633,NO2,12,29,19
India,Delhi,Delhi,"Jahangirpuri, Delhi - DPCC",04-09-2025 07:00:00,28.732820,77.170633,SO2,4,11,8
India,Delhi,Delhi,"Jahangirpuri, Delhi - DPCC",04-09-2025 07:00:00,28.732820,77.170633,OZONE,9,37,16
India,Chhattisgarh,Raipur,"Bhatagaon New ISBT, Raipur - CECB",04-09-2025 07:00:00,21.219665,81.630094,NO2,7,28,14
India,Chhattisgarh,Raipur,"Bhatagaon New ISBT, Raipur - CECB",04-09-2025 07:00:00,21.219665,81.630094,SO2,5,6,6
India,Chhattisgarh,Raipur,"Bhatagaon New ISBT, Raipur - CECB",04-09-2025 07:00:00,21.219665,81.630094,CO,8,98,26
India,Chhattisgarh,Raipur,"Krishak Nagar, Raipur - CECB",04-09-2025 07:00:00,21.237755,81.705301,PM10,8,74,27
India,Chhattisgarh,Raipur,"Siltara Phase-II, Raipur - CECB",04-09-2025 07:00:00,21.371751,81.664929,PM2.5,8,32,18
India,Chhattisgarh,Raipur,"Siltara Phase-II, Raipur - CECB",04-09-2025 07:00:00,21.371751,81.664929,NO2,NA,NA,NA
India,Chhattisgarh,Raipur,"Siltara Phase-II, Raipur - CECB",04-09-2025 07:00:00,21.371751,81.664929,NH3,3,3,3
India,Chhattisgarh,Raipur,"Siltara Phase-II, Raipur - CECB",04-09-2025 07:00:00,21.371751,81.664929,SO2,3,9,7
India,Delhi,Delhi,"Burari Crossing, Delhi - IMD",04-09-2025 07:00:00,28.7256504,77.2011573,CO,46,82,56
India,Delhi,Delhi,"CRRI Mathura Road, Delhi - IMD",04-09-2025 07:00:00,28.5512005,77.2735737,PM2.5,4,81,34
India,Delhi,Delhi,"CRRI Mathura Road, Delhi - IMD",04-09-2025 07:00:00,28.5512005,77.2735737,OZONE,7,44,11
India,Delhi,Delhi,"DTU, Delhi - CPCB",04-09-2025 07:00:00,28.7500499,77.1112615,NO2,59,79,61
India,Delhi,Delhi,"DTU, Delhi - CPCB",04-09-2025 07:00:00,28.7500499,77.1112615,NH3,8,12,10
India,Delhi,Delhi,"DTU, Delhi - CPCB",04-09-2025 07:00:00,28.7500499,77.1112615,SO2,29,35,30
India,Chhattisgarh,Kunjemura,"OP Jindal School, Kunjemura - CECB",04-09-2025 07:00:00,22.126650,83.483212,NH3,2,2,2
India,Chhattisgarh,Milupara,"Govt. Higher Secondary School, Milupara - CECB",04-09-2025 07:00:00,22.1910172,83.5197009,NH3,NA,NA,NA
India,Chhattisgarh,Raipur,"AIIMS, Raipur - CECB",04-09-2025 07:00:00,21.258815,81.578979,PM10,11,41,23
India,Chhattisgarh,Korba,"Rampur, Korba - CECB",04-09-2025 07:00:00,22.368195,82.746431,PM10,25,40,27
India,Chhattisgarh,Korba,"Rampur, Korba - CECB",04-09-2025 07:00:00,22.368195,82.746431,SO2,5,10,7
India,Chhattisgarh,Korba,"Rampur, Korba - CECB",04-09-2025 07:00:00,22.368195,82.746431,OZONE,2,13,3
India,Chhattisgarh,Kunjemura,"OP Jindal School, Kunjemura - CECB",04-09-2025 07:00:00,22.126650,83.483212,PM2.5,1,1,1
India,Chhattisgarh,Tumidih,"OP Jindal Industrial Park, Tumidih - CECB",04-09-2025 07:00:00,22.06631475,83.33820077,SO2,5,6,5
India,Delhi,Delhi,"Alipur, Delhi - DPCC",04-09-2025 07:00:00,28.815329,77.153010,PM2.5,NA,NA,NA
India,Delhi,Delhi,"Alipur, Delhi - DPCC",04-09-2025 07:00:00,28.815329,77.153010,NO2,NA,NA,NA
India,Delhi,Delhi,"Anand Vihar, Delhi - DPCC",04-09-2025 07:00:00,28.647622,77.3158090,PM2.5,17,177,82
India,Delhi,Delhi,"Anand Vihar, Delhi - DPCC",04-09-2025 07:00:00,28.647622,77.3158090,NH3,3,8,5
India,Delhi,Delhi,"Ashok Vihar, Delhi - DPCC",04-09-2025 07:00:00,28.695381,77.181665,PM10,12,80,41
India,Delhi,Delhi,"Ashok Vihar, Delhi - DPCC",04-09-2025 07:00:00,28.695381,77.181665,NH3,4,8,5
India,Delhi,Delhi,"Dwarka-Sector 8, Delhi - DPCC ",04-09-2025 07:00:00,28.5710274,77.0719006,PM2.5,5,47,28
India,Delhi,Delhi,"Bawana, Delhi - DPCC",04-09-2025 07:00:00,28.776200,77.051074,CO,7,44,36
India,Delhi,Delhi,"R K Puram, Delhi - DPCC",04-09-2025 07:00:00,28.563262,77.186937,NH3,3,4,3
India,Delhi,Delhi,"Rohini, Delhi - DPCC",04-09-2025 07:00:00,28.732528,77.119920,NH3,2,11,4
India,Delhi,Delhi,"Shadipur, Delhi - CPCB",04-09-2025 07:00:00,28.6514781,77.1473105,NO2,59,94,72
India,Delhi,Delhi,"Shadipur, Delhi - CPCB",04-09-2025 07:00:00,28.6514781,77.1473105,NH3,7,11,9
India,Delhi,Delhi,"Sirifort, Delhi - CPCB",04-09-2025 07:00:00,28.5504249,77.2159377,PM2.5,22,55,35
India,Delhi,Delhi,"Sirifort, Delhi - CPCB",04-09-2025 07:00:00,28.5504249,77.2159377,NO2,46,49,48
India,Delhi,Delhi,"Sirifort, Delhi - CPCB",04-09-2025 07:00:00,28.5504249,77.2159377,NH3,9,12,11
India,Delhi,Delhi,"Patparganj, Delhi - DPCC",04-09-2025 07:00:00,28.623763,77.287209,OZONE,12,63,14
India,Delhi,Delhi,"Punjabi Bagh, Delhi - DPCC",04-09-2025 07:00:00,28.674045,77.131023,PM2.5,3,120,37
India,Delhi,Delhi,"Punjabi Bagh, Delhi - DPCC",04-09-2025 07:00:00,28.674045,77.131023,NO2,13,34,25
India,Delhi,Delhi,"Pusa, Delhi - DPCC",04-09-2025 07:00:00,28.639652,77.146275,OZONE,2,67,3
India,Delhi,Delhi,"Pusa, Delhi - IMD",04-09-2025 07:00:00,28.636110,77.173332,PM10,NA,NA,NA
India,Delhi,Delhi,"NSIT Dwarka, Delhi - CPCB",04-09-2025 07:00:00,28.60909,77.0325413,SO2,2,14,6
India,Delhi,Delhi,"Najafgarh, Delhi - DPCC",04-09-2025 07:00:00,28.570173,76.933762,PM2.5,3,48,25
India,Delhi,Delhi,"Najafgarh, Delhi - DPCC",04-09-2025 07:00:00,28.570173,76.933762,PM10,22,51,38
India,Delhi,Delhi,"Najafgarh, Delhi - DPCC",04-09-2025 07:00:00,28.570173,76.933762,NO2,32,58,45
India,Delhi,Delhi,"Major Dhyan Chand National Stadium, Delhi - DPCC",04-09-2025 07:00:00,28.611281,77.237738,OZONE,4,62,6
India,Delhi,Delhi,"Mandir Marg, Delhi - DPCC",04-09-2025 07:00:00,28.636429,77.201067,PM2.5,NA,NA,NA
India,Delhi,Delhi,"Mundka, Delhi - DPCC",04-09-2025 07:00:00,28.684678,77.076574,PM10,9,113,40
India,Delhi,Delhi,"NSIT Dwarka, Delhi - CPCB",04-09-2025 07:00:00,28.60909,77.0325413,PM2.5,21,55,34
India,Delhi,Delhi,"Patparganj, Delhi - DPCC",04-09-2025 07:00:00,28.623763,77.287209,PM10,14,141,57
India,Delhi,Delhi,"Patparganj, Delhi - DPCC",04-09-2025 07:00:00,28.623763,77.287209,NO2,17,48,33
India,Delhi,Delhi,"Patparganj, Delhi - DPCC",04-09-2025 07:00:00,28.623763,77.287209,SO2,5,10,8
India,Delhi,Delhi,"Jawaharlal Nehru Stadium, Delhi - DPCC",04-09-2025 07:00:00,28.580280,77.233829,PM2.5,6,36,20
India,Delhi,Delhi,"Okhla Phase-2, Delhi - DPCC",04-09-2025 07:00:00,28.530785,77.271255,NH3,5,20,7
India,Delhi,Delhi,"Narela, Delhi - DPCC",04-09-2025 07:00:00,28.822836,77.101981,NH3,4,8,5
India,Gujarat,Gandhinagar,"IIPHG Lekawada, Gandhinagar - IITM",04-09-2025 07:00:00,23.243639,72.68994,SO2,6,8,7
India,Gujarat,Gandhinagar,"Sector-10, Gandhinagar - GPCB",04-09-2025 07:00:00,23.221714,72.654328,NH3,3,5,3
India,Gujarat,Surat,"Science Center, Surat - SMC",04-09-2025 07:00:00,21.170046,72.795405,PM2.5,4,45,21
India,Gujarat,Vapi,"Phase-1 GIDC, Vapi - GPCB",04-09-2025 07:00:00,20.362421,72.918013,SO2,43,46,45
India,Haryana,Gurugram,"NISE Gwal Pahari, Gurugram - IMD",04-09-2025 07:00:00,28.422681,77.148944,NO2,1,8,6
India,Gujarat,Ahmedabad,"Rakhial, Ahmedabad - IITM",04-09-2025 07:00:00,23.016834,72.625775,NO2,11,61,26
India,Gujarat,Ahmedabad,"Rakhial, Ahmedabad - IITM",04-09-2025 07:00:00,23.016834,72.625775,SO2,12,18,15
India,Gujarat,Ahmedabad,"SAC ISRO Satellite, Ahmedabad - IITM",04-09-2025 07:00:00,23.023389,72.515201,PM2.5,22,114,58
India,Gujarat,Ahmedabad,"SVPI Airport Hansol, Ahmedabad - IITM",04-09-2025 07:00:00,23.076793,72.627874,NO2,6,60,21
India,Gujarat,Ahmedabad,"SVPI Airport Hansol, Ahmedabad - IITM",04-09-2025 07:00:00,23.076793,72.627874,SO2,1,31,6
India,Gujarat,Ahmedabad,"SVPI Airport Hansol, Ahmedabad - IITM",04-09-2025 07:00:00,23.076793,72.627874,OZONE,1,46,13
India,Gujarat,Ankleshwar,"GIDC, Ankleshwar - GPCB",04-09-2025 07:00:00,21.613267,73.010555,PM2.5,33,65,47
India,Gujarat,Ankleshwar,"GIDC, Ankleshwar - GPCB",04-09-2025 07:00:00,21.613267,73.010555,OZONE,45,57,56
India,Gujarat,Ahmedabad,"Maninagar, Ahmedabad - GPCB",04-09-2025 07:00:00,23.002657,72.591912,CO,12,24,17
India,Gujarat,Ahmedabad,"Raikhad, Ahmedabad - IITM",04-09-2025 07:00:00,23.020509,72.579261,PM10,44,96,81
India,Gujarat,Ahmedabad,"Raikhad, Ahmedabad - IITM",04-09-2025 07:00:00,23.020509,72.579261,CO,22,94,42
India,Gujarat,Ahmedabad,"Chandkheda, Ahmedabad - IITM",04-09-2025 07:00:00,23.107969,72.574648,SO2,1,10,4
India,Gujarat,Ahmedabad,"Gyaspur, Ahmedabad - IITM",04-09-2025 07:00:00,22.977134,72.553024,NO2,58,86,78
India,Delhi,Delhi,"Sirifort, Delhi - CPCB",04-09-2025 07:00:00,28.5504249,77.2159377,SO2,24,29,27
India,Delhi,Delhi,"Sirifort, Delhi - CPCB",04-09-2025 07:00:00,28.5504249,77.2159377,OZONE,19,34,23
India,Gujarat,Gandhinagar,"GIFT City, Gandhinagar - IITM",04-09-2025 07:00:00,23.163798,72.677768,NH3,1,4,3
India,Delhi,Delhi,"Vivek Vihar, Delhi - DPCC",04-09-2025 07:00:00,28.672342,77.315260,PM2.5,20,207,55
India,Delhi,Delhi,"Vivek Vihar, Delhi - DPCC",04-09-2025 07:00:00,28.672342,77.315260,CO,24,104,72
India,Himachal Pradesh,Baddi,"HIMUDA Complex Phase-1, Baddi - HPPCB",04-09-2025 07:00:00,30.943887,76.801991,PM2.5,3,60,22
India,Himachal Pradesh,Baddi,"HIMUDA Complex Phase-1, Baddi - HPPCB",04-09-2025 07:00:00,30.943887,76.801991,SO2,28,122,53
India,Himachal Pradesh,Baddi,"HIMUDA Complex Phase-1, Baddi - HPPCB",04-09-2025 07:00:00,30.943887,76.801991,CO,44,102,56
India,Jharkhand,Dhanbad,"Sardar Patel Nagar, Dhanbad - JSPCB",04-09-2025 07:00:00,23.80569,86.44268,NO2,98,146,106
India,Jharkhand,Dhanbad,"Sardar Patel Nagar, Dhanbad - JSPCB",04-09-2025 07:00:00,23.80569,86.44268,OZONE,NA,NA,NA
India,Karnataka,Bagalkot,"Vidayagiri, Bagalkot - KSPCB",04-09-2025 07:00:00,16.172806,75.659694,PM2.5,33,34,33
India,Karnataka,Bengaluru,"Silk Board, Bengaluru - KSPCB",04-09-2025 07:00:00,12.917348,77.622813,SO2,7,12,10
India,Karnataka,Chamarajanagar,"Urban, Chamarajanagar - KSPCB",04-09-2025 07:00:00,11.55358,76.55521,NO2,14,36,23
India,Karnataka,Chikkamagaluru,"Kalyana Nagara, Chikkamagaluru - KSPCB",04-09-2025 07:00:00,13.328028,75.797056,CO,11,11,11
India,Karnataka,Davanagere,"Devaraj Urs Badavane, Davanagere - KSPCB",04-09-2025 07:00:00,14.475800,75.905200,PM10,18,46,28
India,Karnataka,Davanagere,"Devaraj Urs Badavane, Davanagere - KSPCB",04-09-2025 07:00:00,14.475800,75.905200,OZONE,24,25,24
India,Karnataka,Bengaluru,"Hebbal, Bengaluru - KSPCB",04-09-2025 07:00:00,13.029152,77.585901,OZONE,7,8,8
India,Karnataka,Bengaluru,"Hombegowda Nagar, Bengaluru - KSPCB",04-09-2025 07:00:00,12.938539,77.590100,NO2,6,28,15
India,Karnataka,Bengaluru,"Hombegowda Nagar, Bengaluru - KSPCB",04-09-2025 07:00:00,12.938539,77.590100,NH3,1,2,2
India,Karnataka,Bengaluru,"Jayanagar 5th Block, Bengaluru - KSPCB",04-09-2025 07:00:00,12.920984,77.584908,NH3,1,1,1
India,Karnataka,Bengaluru,"Jayanagar 5th Block, Bengaluru - KSPCB",04-09-2025 07:00:00,12.920984,77.584908,SO2,2,7,5
India,Karnataka,Bengaluru,"Jayanagar 5th Block, Bengaluru - KSPCB",04-09-2025 07:00:00,12.920984,77.584908,CO,2,30,10
India,Karnataka,Kalaburagi,"Mahatma Basaveswar Colony, Kalaburgi - KSPCB",04-09-2025 07:00:00,17.336318,76.847397,NO2,11,17,13
India,Karnataka,Karwar,"KHB Colony, Karwar - KSPCB",04-09-2025 07:00:00,14.816666,74.141003,NH3,1,2,1
India,Karnataka,Karwar,"KHB Colony, Karwar - KSPCB",04-09-2025 07:00:00,14.816666,74.141003,CO,8,10,8
India,Karnataka,Koppal,"Diwator Nagar, Koppal - KSPCB",04-09-2025 07:00:00,15.347630,76.181767,PM2.5,NA,NA,NA
India,Karnataka,Koppal,"Diwator Nagar, Koppal - KSPCB",04-09-2025 07:00:00,15.347630,76.181767,NH3,NA,NA,NA
India,Karnataka,Haveri,"Ashwini Nagar, Haveri - KSPCB",04-09-2025 07:00:00,14.791800,75.389600,SO2,NA,NA,NA
India,Karnataka,Hubballi,"Deshpande Nagar, Hubballi - KSPCB",04-09-2025 07:00:00,15.351773,75.140726,PM2.5,NA,NA,NA
India,Karnataka,Hubballi,"Deshpande Nagar, Hubballi - KSPCB",04-09-2025 07:00:00,15.351773,75.140726,NH3,NA,NA,NA
India,Karnataka,Kalaburagi,"Lal Bahadur Shastri Nagar, Kalaburagi - KSPCB",04-09-2025 07:00:00,17.321993,76.822628,PM10,37,71,58
India,Karnataka,Kalaburagi,"Lal Bahadur Shastri Nagar, Kalaburagi - KSPCB",04-09-2025 07:00:00,17.321993,76.822628,NO2,12,12,12
India,Karnataka,Bengaluru,"Sanegurava Halli, Bengaluru - KSPCB",04-09-2025 07:00:00,12.990328,77.5431385,CO,22,34,24
India,Karnataka,Bengaluru,"Shivapura_Peenya, Bengaluru - KSPCB",04-09-2025 07:00:00,13.0246342,77.5080115,NH3,4,4,4
India,Karnataka,Bengaluru,"Shivapura_Peenya, Bengaluru - KSPCB",04-09-2025 07:00:00,13.0246342,77.5080115,CO,20,32,27
India,Karnataka,Bengaluru,"Bapuji Nagar, Bengaluru - KSPCB",04-09-2025 07:00:00,12.951913,77.539784,PM2.5,10,43,21
India,Karnataka,Bengaluru,"Bapuji Nagar, Bengaluru - KSPCB",04-09-2025 07:00:00,12.951913,77.539784,CO,4,58,20
India,Karnataka,Bengaluru,"Hebbal, Bengaluru - KSPCB",04-09-2025 07:00:00,13.029152,77.585901,PM2.5,2,14,8
India,Karnataka,Bengaluru,"Jigani, Bengaluru - KSPCB",04-09-2025 07:00:00,12.7816279,77.6299145,OZONE,21,24,21
India,Karnataka,Bengaluru,"RVCE-Mailasandra, Bengaluru - KSPCB",04-09-2025 07:00:00,12.921418,77.502466,NO2,31,32,31
India,Haryana,Panchgaon,"Amity University, Panchgaon - IITM",04-09-2025 07:00:00,28.3153,76.9143,PM10,18,43,28
India,Karnataka,Vijayapura,"Ibrahimpur, Vijayapura - KSPCB",04-09-2025 07:00:00,16.802639,75.722694,NH3,1,2,1
India,Karnataka,Yadgir,"Collector Office, Yadgir - KSPCB",04-09-2025 07:00:00,16.7602,77.1428,PM10,17,46,28
India,Karnataka,Yadgir,"Collector Office, Yadgir - KSPCB",04-09-2025 07:00:00,16.7602,77.1428,SO2,13,18,16
India,Karnataka,Yadgir,"Collector Office, Yadgir - KSPCB",04-09-2025 07:00:00,16.7602,77.1428,OZONE,18,20,19
India,Kerala,Kannur,"Thavakkara, Kannur - Kerala PCB",04-09-2025 07:00:00,11.875000,75.373200,CO,18,20,18
India,Kerala,Kollam,"Polayathode, Kollam - Kerala PCB",04-09-2025 07:00:00,8.8787,76.6073,PM2.5,21,27,24
India,Madhya Pradesh,Dewas,"Bhopal Chauraha, Dewas - MPPCB",04-09-2025 07:00:00,22.9682591,76.064118,PM2.5,8,39,20
India,Madhya Pradesh,Dewas,"Bhopal Chauraha, Dewas - MPPCB",04-09-2025 07:00:00,22.9682591,76.064118,NO2,36,51,43
India,Madhya Pradesh,Dewas,"Bhopal Chauraha, Dewas - MPPCB",04-09-2025 07:00:00,22.9682591,76.064118,OZONE,29,32,30
India,Madhya Pradesh,Gwalior,"City Center, Gwalior - MPPCB",04-09-2025 07:00:00,26.203442,78.193251,PM10,28,52,33
India,Madhya Pradesh,Gwalior,"City Center, Gwalior - MPPCB",04-09-2025 07:00:00,26.203442,78.193251,NO2,6,8,7
India,Madhya Pradesh,Gwalior,"City Center, Gwalior - MPPCB",04-09-2025 07:00:00,26.203442,78.193251,SO2,5,52,28
India,Madhya Pradesh,Gwalior,"Deen Dayal Nagar, Gwalior - MPPCB",04-09-2025 07:00:00,26.259242,78.216432,NO2,6,26,12
India,Karnataka,Mangalore,"Kadri, Mangalore - KSPCB",04-09-2025 07:00:00,12.889250,74.853000,NO2,12,26,22
India,Karnataka,Ramanagara,"Vijay Nagar, Ramanagara - KSPCB",04-09-2025 07:00:00,12.733409,77.298051,CO,NA,NA,NA
India,Karnataka,Shivamogga,"Vinoba Nagara, Shivamogga - KSPCB",04-09-2025 07:00:00,13.940000,75.555917,NH3,2,4,3
India,Kerala,Kollam,"Polayathode, Kollam - Kerala PCB",04-09-2025 07:00:00,8.8787,76.6073,CO,14,18,16
India,Kerala,Thiruvananthapuram,"Kariavattom, Thiruvananthapuram - Kerala PCB",04-09-2025 07:00:00,8.563700,76.886500,NO2,6,7,6
India,Kerala,Thiruvananthapuram,"Kariavattom, Thiruvananthapuram - Kerala PCB",04-09-2025 07:00:00,8.563700,76.886500,SO2,1,9,3
India,Madhya Pradesh,Gwalior,"Maharaj Bada, Gwalior - MPPCB",04-09-2025 07:00:00,26.200388,78.147714,SO2,4,10,7
India,Madhya Pradesh,Indore,"Airport Area, Indore - IMC",04-09-2025 07:00:00,22.7289,75.8076,PM10,7,51,17
India,Madhya Pradesh,Bhopal,"Paryavaran Parisar, Bhopal - MPPCB",04-09-2025 07:00:00,23.210494,77.425409,NH3,3,4,4
India,Madhya Pradesh,Bhopal,"T T Nagar, Bhopal - MPPCB",04-09-2025 07:00:00,23.233584,77.400574,CO,14,77,23
India,Madhya Pradesh,Bhopal,"Paryavaran Parisar, Bhopal - MPPCB",04-09-2025 07:00:00,23.210494,77.425409,PM10,14,49,31
India,Madhya Pradesh,Bhopal,"Idgah Hills, Bhopal - MPPCB",04-09-2025 07:00:00,23.264759,77.381568,PM10,12,28,18
India,Madhya Pradesh,Bhopal,"Idgah Hills, Bhopal - MPPCB",04-09-2025 07:00:00,23.264759,77.381568,CO,18,44,21
India,Madhya Pradesh,Indore,"Chhoti Gwaltoli, Indore - MPPCB",04-09-2025 07:00:00,22.4310,75.5213,PM2.5,13,50,33
India,Madhya Pradesh,Indore,"Maguda Nagar, Indore - IMC",04-09-2025 07:00:00,22.7524,75.8872,NH3,NA,NA,NA
India,Madhya Pradesh,Indore,"Regional Park, Indore - IMC",04-09-2025 07:00:00,22.6780,75.8559,PM10,2,47,14
India,Madhya Pradesh,Indore,"Residency Area, Indore - IMC",04-09-2025 07:00:00,22.7084,75.8815,PM10,5,54,19
India,Madhya Pradesh,Indore,"Residency Area, Indore - IMC",04-09-2025 07:00:00,22.7084,75.8815,SO2,32,37,35
India,Madhya Pradesh,Indore,"Residency Area, Indore - IMC",04-09-2025 07:00:00,22.7084,75.8815,OZONE,10,12,10
India,Maharashtra,Aurangabad,"More Chowk Waluj, Aurangabad - MPCB",04-09-2025 07:00:00,19.8389439,75.244448,NH3,10,12,11
India,Maharashtra,Aurangabad,"Rachnakar Colony, Aurangabad - MPCB",04-09-2025 07:00:00,19.863756,75.321188,PM10,40,70,53
India,Maharashtra,Aurangabad,"Rachnakar Colony, Aurangabad - MPCB",04-09-2025 07:00:00,19.863756,75.321188,NH3,2,6,3
India,Maharashtra,Badlapur,"Katrap, Badlapur - MPCB",04-09-2025 07:00:00,19.16485,73.23409,PM2.5,32,54,45
India,Madhya Pradesh,Jabalpur,"Gupteshwar, Jabalpur - JMC",04-09-2025 07:00:00,23.142888,79.916147,OZONE,7,32,12
India,Madhya Pradesh,Katni,"Gole Bazar, Katni - MPPCB",04-09-2025 07:00:00,23.50016,80.23284,NO2,25,38,30
India,Madhya Pradesh,Katni,"Gole Bazar, Katni - MPPCB",04-09-2025 07:00:00,23.50016,80.23284,SO2,9,27,19
India,Madhya Pradesh,Katni,"Gole Bazar, Katni - MPPCB",04-09-2025 07:00:00,23.50016,80.23284,OZONE,16,42,19
India,Maharashtra,Amravati,"Shivneri Colony, Amravati - MPCB",04-09-2025 07:00:00,20.9402359,77.7895248,PM10,15,53,35
India,Maharashtra,Aurangabad,"MIDC Chilkalthana, Aurangabad - MPCB",04-09-2025 07:00:00,19.875620,75.387310,PM2.5,17,38,26
India,Maharashtra,Belapur,"CBD Belapur, Belapur - MPCB",04-09-2025 07:00:00,19.0243902,73.0406721,OZONE,12,33,14
India,Maharashtra,Bhiwandi,"Gokul Nagar, Bhiwandi - MPCB",04-09-2025 07:00:00,19.309073,73.057223,SO2,7,18,11
India,Madhya Pradesh,Pithampur,"Sector-2 Industrial Area, Pithampur - MPPCB",04-09-2025 07:00:00,22.624758,75.675238,CO,13,20,18
India,Madhya Pradesh,Sagar,"Civil Lines, Sagar - MPPCB",04-09-2025 07:00:00,23.838586,78.759431,PM10,55,71,60
India,Madhya Pradesh,Singrauli,"Suryakiran Bhawan NCL, Singrauli - MPPCB",04-09-2025 07:00:00,24.108970,82.645580,NH3,5,6,5
India,Madhya Pradesh,Singrauli,"Suryakiran Bhawan NCL, Singrauli - MPPCB",04-09-2025 07:00:00,24.108970,82.645580,CO,14,16,15
India,Maharashtra,Badlapur,"Katrap, Badlapur - MPCB",04-09-2025 07:00:00,19.16485,73.23409,OZONE,13,43,15
India,Madhya Pradesh,Sagar,"Civil Lines, Sagar - MPPCB",04-09-2025 07:00:00,23.838586,78.759431,NH3,1,1,1
India,Maharashtra,Kolhapur,"Shivaji University, Kolhapur - MPCB",04-09-2025 07:00:00,16.6870449,74.2505872,NO2,2,16,9
India,Maharashtra,Kolhapur,"Shivaji University, Kolhapur - MPCB",04-09-2025 07:00:00,16.6870449,74.2505872,SO2,2,3,2
India,Maharashtra,Kolhapur,"Shivaji University, Kolhapur - MPCB",04-09-2025 07:00:00,16.6870449,74.2505872,OZONE,8,20,13
India,Maharashtra,Kolhapur,"Sinchan Bhavan, Kolhapur - MPCB",04-09-2025 07:00:00,16.7143745,74.2426398,NH3,4,6,5
India,Maharashtra,Mahad,"Kamble Tarf Birwadi, Mahad - MPCB",04-09-2025 07:00:00,18.1023399,73.4783687,NH3,4,8,5
India,Maharashtra,Mahad,"Kamble Tarf Birwadi, Mahad - MPCB",04-09-2025 07:00:00,18.1023399,73.4783687,SO2,NA,NA,NA
India,Maharashtra,Malegaon,"Mahesh Nagar, Malegaon - MPCB",04-09-2025 07:00:00,20.555712,74.529236,PM2.5,57,82,69
India,Maharashtra,Mumbai,"Borivali East, Mumbai - MPCB",04-09-2025 07:00:00,19.2243333,72.8658113,NH3,1,1,1
India,Maharashtra,Mumbai,"Borivali East, Mumbai - MPCB",04-09-2025 07:00:00,19.2243333,72.8658113,SO2,5,6,5
India,Maharashtra,Mumbai,"Byculla, Mumbai - BMC",04-09-2025 07:00:00,18.9767,72.8380,PM2.5,26,49,34
India,Maharashtra,Jalgaon,"Prabhat Colony, Jalgaon - MPCB",04-09-2025 07:00:00,21.001264,75.565602,NH3,2,3,3
India,Maharashtra,Jalna,"Old MIDC, Jalna - MPCB",04-09-2025 07:00:00,19.854616,75.905894,PM2.5,NA,NA,NA
India,Maharashtra,Jalna,"Old MIDC, Jalna - MPCB",04-09-2025 07:00:00,19.854616,75.905894,PM10,NA,NA,NA
India,Maharashtra,Mumbai,"Bandra Kurla Complex, Mumbai - MPCB",04-09-2025 07:00:00,19.065931,72.862131,NH3,3,4,3
India,Maharashtra,Mumbai,"Borivali East, Mumbai - MPCB",04-09-2025 07:00:00,19.2243333,72.8658113,PM2.5,13,37,22
India,Maharashtra,Boisar,"Khaira, Boisar - MPCB",04-09-2025 07:00:00,19.786089,72.757971,SO2,11,12,11
India,Maharashtra,Chandrapur,"MIDC Khutala, Chandrapur - MPCB",04-09-2025 07:00:00,19.9775302,79.2337086,SO2,NA,NA,NA
India,Maharashtra,Mumbai,"Bandra Kurla Complex, Mumbai - IITM",04-09-2025 07:00:00,19.053536,72.84643,PM10,54,107,86
India,Maharashtra,Mumbai,"Bandra Kurla Complex, Mumbai - IITM",04-09-2025 07:00:00,19.053536,72.84643,CO,48,68,59
India,Maharashtra,Mahad,"Kamble Tarf Birwadi, Mahad - MPCB",04-09-2025 07:00:00,18.1023399,73.4783687,NO2,10,18,15
India,Maharashtra,Chandrapur,"MIDC Khutala, Chandrapur - MPCB",04-09-2025 07:00:00,19.9775302,79.2337086,CO,38,48,39
India,Maharashtra,Mumbai,"Chakala-Andheri East, Mumbai - IITM",04-09-2025 07:00:00,19.11074,72.86084,PM2.5,18,31,26
India,Maharashtra,Mumbai,"Chembur, Mumbai - MPCB",04-09-2025 07:00:00,19.0364585,72.8954371,NH3,12,21,19
India,Maharashtra,Mumbai,"Chembur, Mumbai - MPCB",04-09-2025 07:00:00,19.0364585,72.8954371,OZONE,6,42,13
India,Maharashtra,Mumbai,"Chhatrapati Shivaji Intl. Airport (T2), Mumbai - MPCB",04-09-2025 07:00:00,19.10078,72.87462,NH3,1,1,1
India,Maharashtra,Mumbai,"Chhatrapati Shivaji Intl. Airport (T2), Mumbai - MPCB",04-09-2025 07:00:00,19.10078,72.87462,CO,22,24,24
India,Maharashtra,Mumbai,"Mindspace-Malad West, Mumbai - MPCB",04-09-2025 07:00:00,19.1878657,72.8304069,CO,29,31,30
India,Maharashtra,Mumbai,"Navy Nagar-Colaba, Mumbai - IITM",04-09-2025 07:00:00,18.897756,72.813320,PM2.5,30,106,56
India,Maharashtra,Mumbai,"Sewri, Mumbai - BMC",04-09-2025 07:00:00,19.000084,72.856730,PM2.5,20,34,25
India,Maharashtra,Mumbai,"Sewri, Mumbai - BMC",04-09-2025 07:00:00,19.000084,72.856730,CO,12,12,12
India,Maharashtra,Mumbai,"Shivaji Nagar, Mumbai - BMC",04-09-2025 07:00:00,19.060498,72.923356,PM10,56,109,87
India,Maharashtra,Mumbai,"Kherwadi_Bandra East, Mumbai - MPCB",04-09-2025 07:00:00,19.0632143,72.8456324,CO,18,28,21
India,Maharashtra,Mumbai,"Kherwadi_Bandra East, Mumbai - MPCB",04-09-2025 07:00:00,19.0632143,72.8456324,OZONE,6,17,8
India,Maharashtra,Mumbai,"Khindipada-Bhandup West, Mumbai - IITM",04-09-2025 07:00:00,19.1653323,72.922099,NH3,3,4,4
India,Maharashtra,Mumbai,"Kurla, Mumbai - MPCB",04-09-2025 07:00:00,19.0863,72.8888,NH3,1,1,1
India,Maharashtra,Mumbai,"Kurla, Mumbai - MPCB",04-09-2025 07:00:00,19.0863,72.8888,CO,2,10,4
India,Maharashtra,Mumbai,"Mazgaon, Mumbai - IITM",04-09-2025 07:00:00,18.96702,72.84214,PM2.5,6,51,28
India,Maharashtra,Mumbai,"Colaba, Mumbai - MPCB",04-09-2025 07:00:00,18.910000,72.820000,OZONE,10,11,11
India,Maharashtra,Mumbai,"Deonar, Mumbai - IITM",04-09-2025 07:00:00,19.04946,72.9230,PM10,60,110,83
India,Maharashtra,Mumbai,"Ghatkopar, Mumbai - BMC",04-09-2025 07:00:00,19.083694,72.920967,NO2,11,20,13
India,Maharashtra,Mumbai,"Kandivali East, Mumbai - MPCB",04-09-2025 07:00:00,19.205800,72.868200,PM10,34,76,62
India,Maharashtra,Mumbai,"Kandivali East, Mumbai - MPCB",04-09-2025 07:00:00,19.205800,72.868200,SO2,NA,NA,NA
India,Maharashtra,Mumbai,"Kandivali West, Mumbai - BMC",04-09-2025 07:00:00,19.215859,72.831718,NO2,2,13,6
India,Maharashtra,Mumbai,"Mindspace-Malad West, Mumbai - MPCB",04-09-2025 07:00:00,19.1878657,72.8304069,PM10,35,37,36
India,Maharashtra,Mumbai,"Mindspace-Malad West, Mumbai - MPCB",04-09-2025 07:00:00,19.1878657,72.8304069,NO2,15,16,16
India,Maharashtra,Mumbai,"Mazgaon, Mumbai - IITM",04-09-2025 07:00:00,18.96702,72.84214,NH3,7,8,7
India,Maharashtra,Navi Mumbai,"Sanpada, Navi Mumbai - MPCB",04-09-2025 07:00:00,19.0575752,73.0151367,PM2.5,12,30,20
India,Maharashtra,Navi Mumbai,"Sanpada, Navi Mumbai - MPCB",04-09-2025 07:00:00,19.0575752,73.0151367,PM10,27,68,52
India,Maharashtra,Navi Mumbai,"Sector-2E Kalamboli, Navi Mumbai - MPCB",04-09-2025 07:00:00,19.02579,73.10297,PM2.5,22,45,34
India,Maharashtra,Navi Mumbai,"Sector-2E Kalamboli, Navi Mumbai - MPCB",04-09-2025 07:00:00,19.02579,73.10297,NH3,7,7,7
India,Maharashtra,Navi Mumbai,"Sector-2E Kalamboli, Navi Mumbai - MPCB",04-09-2025 07:00:00,19.02579,73.10297,OZONE,20,50,22
India,Maharashtra,Navi Mumbai,"Tondare-Taloja, Navi Mumbai - MPCB",04-09-2025 07:00:00,19.0630,73.1209,PM2.5,18,46,30
India,Maharashtra,Navi Mumbai,"Tondare-Taloja, Navi Mumbai - MPCB",04-09-2025 07:00:00,19.0630,73.1209,NO2,10,61,31
India,Maharashtra,Navi Mumbai,"Tondare-Taloja, Navi Mumbai - MPCB",04-09-2025 07:00:00,19.0630,73.1209,SO2,2,3,2
India,Maharashtra,Navi Mumbai,"Kopripada-Vashi, Navi Mumbai - MPCB",04-09-2025 07:00:00,19.090337,73.014232,PM2.5,13,40,22
India,Maharashtra,Navi Mumbai,"Kopripada-Vashi, Navi Mumbai - MPCB",04-09-2025 07:00:00,19.090337,73.014232,PM10,21,39,30
India,Maharashtra,Navi Mumbai,"Kopripada-Vashi, Navi Mumbai - MPCB",04-09-2025 07:00:00,19.090337,73.014232,OZONE,2,39,7
India,Maharashtra,Navi Mumbai,"Mahape, Navi Mumbai - MPCB",04-09-2025 07:00:00,19.1135051,73.008978,NO2,34,36,35
India,Maharashtra,Navi Mumbai,"Mahape, Navi Mumbai - MPCB",04-09-2025 07:00:00,19.1135051,73.008978,SO2,26,26,26
India,Maharashtra,Navi Mumbai,"Nerul, Navi Mumbai - MPCB",04-09-2025 07:00:00,19.008751,73.016620,PM2.5,17,43,32
India,Maharashtra,Navi Mumbai,"Nerul, Navi Mumbai - MPCB",04-09-2025 07:00:00,19.008751,73.016620,NO2,27,28,27
India,Maharashtra,Parbhani,"Masoom Colony, Parbhani - MPCB",04-09-2025 07:00:00,19.265594,76.761463,NO2,2,3,3
India,Maharashtra,Pimpri-Chinchwad,"Park Street Wakad, Pimpri Chinchwad - MPCB",04-09-2025 07:00:00,18.59051,73.77946,PM10,17,66,54
India,Maharashtra,Pimpri-Chinchwad,"Park Street Wakad, Pimpri Chinchwad - MPCB",04-09-2025 07:00:00,18.59051,73.77946,OZONE,3,27,8
India,Maharashtra,Pimpri-Chinchwad,"Savta Mali Nagar, Pimpri-Chinchwad - IITM",04-09-2025 07:00:00,18.614767,73.799516,PM10,46,95,60
India,Maharashtra,Pimpri-Chinchwad,"Savta Mali Nagar, Pimpri-Chinchwad - IITM",04-09-2025 07:00:00,18.614767,73.799516,CO,39,73,53
India,Maharashtra,Pimpri-Chinchwad,"Savta Mali Nagar, Pimpri-Chinchwad - IITM",04-09-2025 07:00:00,18.614767,73.799516,OZONE,3,23,11
India,Maharashtra,Pimpri-Chinchwad,"Thergaon, Pimpri Chinchwad - MPCB",04-09-2025 07:00:00,18.616318,73.765797,NO2,7,21,13
India,Maharashtra,Pune,"Bhosari, Pune - IITM",04-09-2025 07:00:00,18.640051,73.848956,PM10,12,73,49
India,Maharashtra,Pune,"Bhosari, Pune - IITM",04-09-2025 07:00:00,18.640051,73.848956,NO2,10,27,19
