country,state,city,station,last_update,latitude,longitude,pollutant_id,min_value,max_value,avg_value
India,Bihar,Hajipur,"Industrial Area, Hajipur - BSPCB",12-09-2025 07:00:00,25.697189,85.245900,PM10,14,56,35
India,Bihar,Hajipur,"Industrial Area, Hajipur - BSPCB",12-09-2025 07:00:00,25.697189,85.245900,CO,38,50,45
India,Bihar,Katihar,"Mirchaibari, Katihar - BSPCB",12-09-2025 07:00:00,25.560083,87.553265,SO2,20,26,24
India,Bihar,Kishanganj,"SDM Office_Khagra, Kishanganj - BSPCB",12-09-2025 07:00:00,26.0881305,87.93840336,NO2,6,8,8
India,Bihar,Kishanganj,"SDM Office_Khagra, Kishanganj - BSPCB",12-09-2025 07:00:00,26.0881305,87.93840336,NH3,3,3,3
India,Bihar,Kishanganj,"SDM Office_Khagra, Kishanganj - BSPCB",12-09-2025 07:00:00,26.0881305,87.93840336,OZONE,15,20,17
India,Bihar,Manguraha,"Forest Rest House, Manguraha - BSPCB",12-09-2025 07:00:00,27.308328,84.531742,PM2.5,15,110,31
India,Bihar,Manguraha,"Forest Rest House, Manguraha - BSPCB",12-09-2025 07:00:00,27.308328,84.531742,NO2,3,10,5
India,Bihar,Manguraha,"Forest Rest House, Manguraha - BSPCB",12-09-2025 07:00:00,27.308328,84.531742,NH3,1,2,1
India,Bihar,Manguraha,"Forest Rest House, Manguraha - BSPCB",12-09-2025 07:00:00,27.308328,84.531742,SO2,6,8,7
India,Bihar,Motihari,"Gandak Colony, Motihari - BSPCB",12-09-2025 07:00:00,26.63086,84.90051,SO2,2,3,2
India,Andhra_Pradesh,Visakhapatnam,"GVM Corporation, Visakhapatnam - APPCB",12-09-2025 07:00:00,17.72,83.3,PM2.5,60,208,112
India,Andhra_Pradesh,Visakhapatnam,"GVM Corporation, Visakhapatnam - APPCB",12-09-2025 07:00:00,17.72,83.3,PM10,65,219,134
India,Andhra_Pradesh,Visakhapatnam,"GVM Corporation, Visakhapatnam - APPCB",12-09-2025 07:00:00,17.72,83.3,NO2,15,108,52
India,Arunachal_Pradesh,Naharlagun,"Naharlagun, Naharlagun - APSPCB",12-09-2025 07:00:00,27.103358,93.679645,PM2.5,2,62,38
India,Arunachal_Pradesh,Naharlagun,"Naharlagun, Naharlagun - APSPCB",12-09-2025 07:00:00,27.103358,93.679645,OZONE,4,5,5
India,Assam,Byrnihat,"Central Academy for SFS, Byrnihat - PCBA",12-09-2025 07:00:00,26.071318,91.87488,PM2.5,83,223,112
India,Assam,Byrnihat,"Central Academy for SFS, Byrnihat - PCBA",12-09-2025 07:00:00,26.071318,91.87488,PM10,79,137,94
India,Assam,Byrnihat,"Central Academy for SFS, Byrnihat - PCBA",12-09-2025 07:00:00,26.071318,91.87488,NH3,4,4,4
India,Assam,Byrnihat,"Central Academy for SFS, Byrnihat - PCBA",12-09-2025 07:00:00,26.071318,91.87488,CO,34,66,51
India,Assam,Guwahati,"IITG, Guwahati - PCBA",12-09-2025 07:00:00,26.2028636,91.70046436,PM2.5,22,79,40
India,Bihar,Aurangabad,"Gurdeo Nagar, Aurangabad - BSPCB",12-09-2025 07:00:00,24.75746,84.366208,CO,5,42,34
India,Bihar,Aurangabad,"Gurdeo Nagar, Aurangabad - BSPCB",12-09-2025 07:00:00,24.75746,84.366208,OZONE,3,22,8
India,Bihar,Begusarai,"Lohiyanagar, Begusarai - BSPCB",12-09-2025 07:00:00,25.42742023,86.13886079,NH3,3,5,4
India,Bihar,Begusarai,"Lohiyanagar, Begusarai - BSPCB",12-09-2025 07:00:00,25.42742023,86.13886079,OZONE,7,59,23
India,Bihar,Bhagalpur,"Mayaganj, Bhagalpur - BSPCB",12-09-2025 07:00:00,25.265194,87.012947,PM2.5,12,30,19
India,Bihar,Bhagalpur,"Mayaganj, Bhagalpur - BSPCB",12-09-2025 07:00:00,25.265194,87.012947,CO,15,52,37
India,Bihar,Bihar Sharif,"D M Colony, Bihar Sharif - BSPCB",12-09-2025 07:00:00,25.204762,85.514960,PM2.5,NA,NA,NA
India,Bihar,Bihar Sharif,"D M Colony, Bihar Sharif - BSPCB",12-09-2025 07:00:00,25.204762,85.514960,PM10,NA,NA,NA
India,Bihar,Bihar Sharif,"D M Colony, Bihar Sharif - BSPCB",12-09-2025 07:00:00,25.204762,85.514960,SO2,NA,NA,NA
India,Assam,Silchar,"Tarapur, Silchar - PCBA",12-09-2025 07:00:00,24.82827,92.79525,PM10,39,44,43
India,Assam,Silchar,"Tarapur, Silchar - PCBA",12-09-2025 07:00:00,24.82827,92.79525,CO,24,46,36
India,Assam,Sivasagar,"Girls College, Sivasagar - PCBA",12-09-2025 07:00:00,26.987634,94.636574,PM2.5,35,68,47
India,Assam,Sivasagar,"Girls College, Sivasagar - PCBA",12-09-2025 07:00:00,26.987634,94.636574,CO,8,34,18
India,Assam,Sivasagar,"Girls College, Sivasagar - PCBA",12-09-2025 07:00:00,26.987634,94.636574,OZONE,2,6,3
India,Bihar,Araria,"Kharahiya Basti, Araria - BSPCB",12-09-2025 07:00:00,26.146529,87.454184,NO2,3,199,59
India,Bihar,Araria,"Kharahiya Basti, Araria - BSPCB",12-09-2025 07:00:00,26.146529,87.454184,SO2,3,25,18
India,Bihar,Arrah,"New DM Office, Arrah - BSPCB",12-09-2025 07:00:00,25.5626095,84.663264,CO,40,69,54
India,Assam,Guwahati,"IITG, Guwahati - PCBA",12-09-2025 07:00:00,26.2028636,91.70046436,NH3,5,5,5
India,Assam,Guwahati,"IITG, Guwahati - PCBA",12-09-2025 07:00:00,26.2028636,91.70046436,SO2,22,27,24
India,Assam,Guwahati,"LGBI Airport, Guwahati - PCBA",12-09-2025 07:00:00,26.10887,91.589544,NO2,13,25,16
India,Assam,Guwahati,"LGBI Airport, Guwahati - PCBA",12-09-2025 07:00:00,26.10887,91.589544,NH3,6,6,6
India,Assam,Guwahati,"Pan Bazaar, Guwahati - PCBA",12-09-2025 07:00:00,26.187500,91.744194,PM2.5,15,70,40
India,Assam,Nagaon,"Christianpatty, Nagaon - PCBA",12-09-2025 07:00:00,26.349082,92.68449,NH3,4,4,4
India,Assam,Nalbari,"Bata Chowk, Nalbari - PCBA",12-09-2025 07:00:00,26.446912,91.439057,SO2,4,8,8
India,Andhra_Pradesh,Amaravati,"Secretariat, Amaravati - APPCB",12-09-2025 07:00:00,16.5150833,80.5181667,PM10,18,69,39
India,Andhra_Pradesh,Amaravati,"Secretariat, Amaravati - APPCB",12-09-2025 07:00:00,16.5150833,80.5181667,CO,13,20,17
India,Andhra_Pradesh,Amaravati,"Secretariat, Amaravati - APPCB",12-09-2025 07:00:00,16.5150833,80.5181667,OZONE,9,29,14
India,Andhra_Pradesh,Chittoor,"Gangineni Cheruvu, Chittoor - APPCB",12-09-2025 07:00:00,13.204880,79.097889,PM2.5,56,130,84
India,Andhra_Pradesh,Chittoor,"Gangineni Cheruvu, Chittoor - APPCB",12-09-2025 07:00:00,13.204880,79.097889,SO2,20,22,21
India,Andhra_Pradesh,Kadapa,"Yerramukkapalli, Kadapa - APPCB",12-09-2025 07:00:00,14.465052,78.824187,NH3,4,4,4
India,Andhra_Pradesh,Kadapa,"Yerramukkapalli, Kadapa - APPCB",12-09-2025 07:00:00,14.465052,78.824187,OZONE,31,43,36
India,Bihar,Munger,"Town Hall, Munger - BSPCB",12-09-2025 07:00:00,25.376776,86.471523,PM10,2,64,19
India,Bihar,Munger,"Town Hall, Munger - BSPCB",12-09-2025 07:00:00,25.376776,86.471523,NO2,4,5,5
India,Bihar,Muzaffarpur,"MIT-Daudpur Kothi, Muzaffarpur - BSPCB",12-09-2025 07:00:00,26.1403345,85.3650192,PM2.5,25,60,42
India,Bihar,Muzaffarpur,"Muzaffarpur Collectorate, Muzaffarpur - BSPCB",12-09-2025 07:00:00,26.1209,85.3647,NO2,10,13,10
India,Bihar,Muzaffarpur,"Muzaffarpur Collectorate, Muzaffarpur - BSPCB",12-09-2025 07:00:00,26.1209,85.3647,OZONE,11,37,14
India,Bihar,Patna,"Govt. High School Shikarpur, Patna - BSPCB",12-09-2025 07:00:00,25.592539,85.227158,NO2,5,6,5
India,Andhra_Pradesh,Rajamahendravaram,"Anand Kala Kshetram, Rajamahendravaram - APPCB",12-09-2025 07:00:00,16.9872867,81.7363176,NO2,7,27,14
India,Andhra_Pradesh,Tirupati,"Vaikuntapuram, Tirupati - APPCB",12-09-2025 07:00:00,13.615387,79.409230,PM2.5,NA,NA,NA
India,Andhra_Pradesh,Vijayawada,"HB Colony, Vijayawada - APPCB",12-09-2025 07:00:00,16.536107,80.594233,PM2.5,63,153,84
India,Andhra_Pradesh,Vijayawada,"HB Colony, Vijayawada - APPCB",12-09-2025 07:00:00,16.536107,80.594233,NH3,5,5,5
India,Andhra_Pradesh,Vijayawada,"HB Colony, Vijayawada - APPCB",12-09-2025 07:00:00,16.536107,80.594233,SO2,23,23,23
India,Andhra_Pradesh,Vijayawada,"HB Colony, Vijayawada - APPCB",12-09-2025 07:00:00,16.536107,80.594233,CO,39,40,39
India,Bihar,Buxar,"Charitra Van, Buxar - BSPCB",12-09-2025 07:00:00,25.567520,83.966379,SO2,NA,NA,NA
India,Bihar,Gaya,"Kareemganj, Gaya - BSPCB",12-09-2025 07:00:00,24.792403,84.992416,NH3,4,6,5
India,Bihar,Gaya,"Kareemganj, Gaya - BSPCB",12-09-2025 07:00:00,24.792403,84.992416,OZONE,4,98,30
India,Bihar,Gaya,"SFTI Kusdihra, Gaya - BSPCB",12-09-2025 07:00:00,24.762518,84.982348,NH3,3,4,3
India,Bihar,Gaya,"SFTI Kusdihra, Gaya - BSPCB",12-09-2025 07:00:00,24.762518,84.982348,CO,20,32,28
India,Bihar,Patna,"Muradpur, Patna - BSPCB",12-09-2025 07:00:00,25.619651,85.147382,SO2,7,12,9
India,Bihar,Patna,"Rajbansi Nagar, Patna - BSPCB",12-09-2025 07:00:00,25.599486,85.113666,NO2,19,27,23
India,Bihar,Purnia,"Mariam Nagar, Purnia - BSPCB",12-09-2025 07:00:00,25.366336,87.117468,PM10,30,82,50
India,Chhattisgarh,Kunjemura,"OP Jindal School, Kunjemura - CECB",12-09-2025 07:00:00,22.126650,83.483212,CO,20,28,21
India,Chhattisgarh,Kunjemura,"OP Jindal School, Kunjemura - CECB",12-09-2025 07:00:00,22.126650,83.483212,OZONE,4,10,8
India,Chhattisgarh,Milupara,"Govt. Higher Secondary School, Milupara - CECB",12-09-2025 07:00:00,22.1910172,83.5197009,PM2.5,NA,NA,NA
India,Chhattisgarh,Milupara,"Govt. Higher Secondary School, Milupara - CECB",12-09-2025 07:00:00,22.1910172,83.5197009,PM10,NA,NA,NA
India,Chhattisgarh,Milupara,"Govt. Higher Secondary School, Milupara - CECB",12-09-2025 07:00:00,22.1910172,83.5197009,CO,5,18,5
India,Chhattisgarh,Raipur,"AIIMS, Raipur - CECB",12-09-2025 07:00:00,21.258815,81.578979,OZONE,6,13,6
India,Chhattisgarh,Raipur,"Krishak Nagar, Raipur - CECB",12-09-2025 07:00:00,21.237755,81.705301,PM2.5,4,6,5
India,Chhattisgarh,Raipur,"Krishak Nagar, Raipur - CECB",12-09-2025 07:00:00,21.237755,81.705301,NO2,9,14,12
India,Chhattisgarh,Raipur,"Krishak Nagar, Raipur - CECB",12-09-2025 07:00:00,21.237755,81.705301,CO,7,16,13
India,Chhattisgarh,Raipur,"Siltara Phase-II, Raipur - CECB",12-09-2025 07:00:00,21.371751,81.664929,NO2,4,82,14
India,Chhattisgarh,Bhilai,"Civic Center, Bhilai - Bhilai Steel Plant",12-09-2025 07:00:00,21.185571,81.343175,SO2,6,25,9
India,Chhattisgarh,Bhilai,"Civic Center, Bhilai - Bhilai Steel Plant",12-09-2025 07:00:00,21.185571,81.343175,OZONE,8,12,10
India,Chhattisgarh,Bhilai,"Hathkhoj, Bhilai - CECB",12-09-2025 07:00:00,21.224231,81.408350,SO2,4,9,6
India,Chhattisgarh,Bilaspur,"Mangala, Bilaspur - NTPC",12-09-2025 07:00:00,22.08815,82.13737,PM2.5,15,313,45
India,Chhattisgarh,Korba,"Rampur, Korba - CECB",12-09-2025 07:00:00,22.368195,82.746431,PM2.5,25,39,26
India,Chhattisgarh,Korba,"Rampur, Korba - CECB",12-09-2025 07:00:00,22.368195,82.746431,PM10,25,40,26
India,Chhattisgarh,Korba,"Rampur, Korba - CECB",12-09-2025 07:00:00,22.368195,82.746431,NH3,1,1,1
India,Chhattisgarh,Kunjemura,"OP Jindal School, Kunjemura - CECB",12-09-2025 07:00:00,22.126650,83.483212,NO2,3,3,3
India,Chhattisgarh,Kunjemura,"OP Jindal School, Kunjemura - CECB",12-09-2025 07:00:00,22.126650,83.483212,NH3,2,2,2
India,Delhi,Delhi,"Aya Nagar, Delhi - IMD",12-09-2025 07:00:00,28.4706914,77.1099364,CO,12,23,19
India,Delhi,Delhi,"Aya Nagar, Delhi - IMD",12-09-2025 07:00:00,28.4706914,77.1099364,OZONE,16,55,22
India,Delhi,Delhi,"Bawana, Delhi - DPCC",12-09-2025 07:00:00,28.776200,77.051074,PM2.5,33,98,63
India,Delhi,Delhi,"CRRI Mathura Road, Delhi - IMD",12-09-2025 07:00:00,28.5512005,77.2735737,NO2,13,55,33
India,Delhi,Delhi,"Chandni Chowk, Delhi - IITM",12-09-2025 07:00:00,28.656756,77.227234,NH3,NA,NA,NA
India,Delhi,Delhi,"DTU, Delhi - CPCB",12-09-2025 07:00:00,28.7500499,77.1112615,PM2.5,8,117,30
India,Bihar,Rajgir,"Dangi Tola, Rajgir - BSPCB",12-09-2025 07:00:00,25.03280,85.41948,NH3,6,7,6
India,Bihar,Rajgir,"Dangi Tola, Rajgir - BSPCB",12-09-2025 07:00:00,25.03280,85.41948,CO,84,96,88
India,Bihar,Samastipur,"DM Office_Kasipur, Samastipur - BSPCB",12-09-2025 07:00:00,25.859655,85.77944,CO,1,38,11
India,Bihar,Sasaram,"Dada Peer, Sasaram - BSPCB",12-09-2025 07:00:00,24.952822,84.002396,SO2,2,5,4
India,Bihar,Siwan,"Chitragupta Nagar, Siwan - BSPCB",12-09-2025 07:00:00,26.2271665,84.3570427,CO,61,104,84
India,Chandigarh,Chandigarh,"Sector 22, Chandigarh - CPCC",12-09-2025 07:00:00,30.735567,76.775714,CO,28,72,55
India,Chandigarh,Chandigarh,"Sector 22, Chandigarh - CPCC",12-09-2025 07:00:00,30.735567,76.775714,OZONE,4,48,11
India,Chandigarh,Chandigarh,"Sector-25, Chandigarh - CPCC",12-09-2025 07:00:00,30.751462,76.762879,NH3,10,17,12
India,Chandigarh,Chandigarh,"Sector-25, Chandigarh - CPCC",12-09-2025 07:00:00,30.751462,76.762879,CO,14,20,16
India,Chandigarh,Chandigarh,"Sector-25, Chandigarh - CPCC",12-09-2025 07:00:00,30.751462,76.762879,OZONE,14,82,23
India,Chandigarh,Chandigarh,"Sector-53, Chandigarh - CPCC",12-09-2025 07:00:00,30.719859,76.738637,PM2.5,13,30,22
India,Chandigarh,Chandigarh,"Sector-53, Chandigarh - CPCC",12-09-2025 07:00:00,30.719859,76.738637,NH3,2,9,5
India,Delhi,Delhi,"Dr. Karni Singh Shooting Range, Delhi - DPCC",12-09-2025 07:00:00,28.498571,77.264840,PM2.5,30,57,42
India,Delhi,Delhi,"Dwarka-Sector 8, Delhi - DPCC ",12-09-2025 07:00:00,28.5710274,77.0719006,CO,34,101,45
India,Delhi,Delhi,"Dwarka-Sector 8, Delhi - DPCC ",12-09-2025 07:00:00,28.5710274,77.0719006,OZONE,6,40,9
India,Delhi,Delhi,"IHBAS, Dilshad Garden, Delhi - CPCB",12-09-2025 07:00:00,28.6811736,77.3025234,CO,12,47,31
India,Delhi,Delhi,"ITO, Delhi - CPCB",12-09-2025 07:00:00,28.628624,77.241060,NH3,4,7,5
India,Delhi,Delhi,"Jahangirpuri, Delhi - DPCC",12-09-2025 07:00:00,28.732820,77.170633,PM10,105,257,145
India,Delhi,Delhi,"Jahangirpuri, Delhi - DPCC",12-09-2025 07:00:00,28.732820,77.170633,CO,14,64,31
India,Delhi,Delhi,"Lodhi Road, Delhi - IITM",12-09-2025 07:00:00,28.588333,77.221667,NO2,NA,NA,NA
India,Delhi,Delhi,"Major Dhyan Chand National Stadium, Delhi - DPCC",12-09-2025 07:00:00,28.611281,77.237738,NH3,13,15,14
India,Delhi,Delhi,"Major Dhyan Chand National Stadium, Delhi - DPCC",12-09-2025 07:00:00,28.611281,77.237738,OZONE,4,48,6
India,Delhi,Delhi,"Alipur, Delhi - DPCC",12-09-2025 07:00:00,28.815329,77.153010,NH3,10,11,11
India,Delhi,Delhi,"Anand Vihar, Delhi - DPCC",12-09-2025 07:00:00,28.647622,77.3158090,SO2,26,44,37
India,Chhattisgarh,Bhilai,"32Bungalows, Bhilai - CECB",12-09-2025 07:00:00,21.194815,81.314770,PM2.5,12,26,18
India,Chhattisgarh,Bhilai,"32Bungalows, Bhilai - CECB",12-09-2025 07:00:00,21.194815,81.314770,SO2,6,10,7
India,Gujarat,Gandhinagar,"Sector-10, Gandhinagar - GPCB",12-09-2025 07:00:00,23.221714,72.654328,CO,4,72,21
India,Gujarat,Vapi,"Phase-1 GIDC, Vapi - GPCB",12-09-2025 07:00:00,20.362421,72.918013,NO2,13,14,14
India,Gujarat,Vatva,"Phase-4 GIDC, Vatva - GPCB",12-09-2025 07:00:00,22.969611,72.643500,PM10,50,91,71
India,Gujarat,Vatva,"Phase-4 GIDC, Vatva - GPCB",12-09-2025 07:00:00,22.969611,72.643500,SO2,9,13,11
India,Haryana,Gurugram,"NISE Gwal Pahari, Gurugram - IMD",12-09-2025 07:00:00,28.422681,77.148944,NO2,7,14,11
India,Haryana,Panchgaon,"Amity University, Panchgaon - IITM",12-09-2025 07:00:00,28.3153,76.9143,NO2,5,44,23
India,Haryana,Panchgaon,"Amity University, Panchgaon - IITM",12-09-2025 07:00:00,28.3153,76.9143,SO2,5,19,10
India,Haryana,Panchgaon,"Amity University, Panchgaon - IITM",12-09-2025 07:00:00,28.3153,76.9143,CO,16,82,42
India,Haryana,Panchgaon,"Amity University, Panchgaon - IITM",12-09-2025 07:00:00,28.3153,76.9143,OZONE,2,52,3
India,Delhi,Delhi,"Nehru Nagar, Delhi - DPCC",12-09-2025 07:00:00,28.567890,77.250515,SO2,6,13,8
India,Delhi,Delhi,"North Campus, DU, Delhi - IMD",12-09-2025 07:00:00,28.6573814,77.1585447,PM2.5,14,87,48
India,Delhi,Delhi,"Okhla Phase-2, Delhi - DPCC",12-09-2025 07:00:00,28.530785,77.271255,PM2.5,22,48,34
India,Delhi,Delhi,"Okhla Phase-2, Delhi - DPCC",12-09-2025 07:00:00,28.530785,77.271255,NH3,6,6,6
India,Delhi,Delhi,"Okhla Phase-2, Delhi - DPCC",12-09-2025 07:00:00,28.530785,77.271255,SO2,4,7,5
India,Delhi,Delhi,"Patparganj, Delhi - DPCC",12-09-2025 07:00:00,28.623763,77.287209,PM2.5,32,77,61
India,Delhi,Delhi,"Punjabi Bagh, Delhi - DPCC",12-09-2025 07:00:00,28.674045,77.131023,NH3,2,6,3
India,Delhi,Delhi,"Punjabi Bagh, Delhi - DPCC",12-09-2025 07:00:00,28.674045,77.131023,SO2,8,11,10
India,Delhi,Delhi,"Punjabi Bagh, Delhi - DPCC",12-09-2025 07:00:00,28.674045,77.131023,CO,12,58,37
India,Delhi,Delhi,"Pusa, Delhi - DPCC",12-09-2025 07:00:00,28.639652,77.146275,CO,18,111,44
India,Delhi,Delhi,"Pusa, Delhi - IMD",12-09-2025 07:00:00,28.636110,77.173332,PM10,51,159,79
India,Delhi,Delhi,"R K Puram, Delhi - DPCC",12-09-2025 07:00:00,28.563262,77.186937,SO2,1,15,8
India,Delhi,Delhi,"Rohini, Delhi - DPCC",12-09-2025 07:00:00,28.732528,77.119920,NO2,1,21,8
India,Delhi,Delhi,"Rohini, Delhi - DPCC",12-09-2025 07:00:00,28.732528,77.119920,OZONE,4,19,6
India,Delhi,Delhi,"Shadipur, Delhi - CPCB",12-09-2025 07:00:00,28.6514781,77.1473105,PM10,72,108,93
India,Delhi,Delhi,"Shadipur, Delhi - CPCB",12-09-2025 07:00:00,28.6514781,77.1473105,NO2,54,100,77
India,Delhi,Delhi,"Shadipur, Delhi - CPCB",12-09-2025 07:00:00,28.6514781,77.1473105,NH3,6,9,7
India,Gujarat,Ankleshwar,"GIDC, Ankleshwar - GPCB",12-09-2025 07:00:00,21.613267,73.010555,NO2,22,23,22
India,Gujarat,Ankleshwar,"GIDC, Ankleshwar - GPCB",12-09-2025 07:00:00,21.613267,73.010555,NH3,5,5,5
India,Gujarat,Gandhinagar,"GIFT City, Gandhinagar - IITM",12-09-2025 07:00:00,23.163798,72.677768,PM2.5,20,59,37
India,Gujarat,Gandhinagar,"GIFT City, Gandhinagar - IITM",12-09-2025 07:00:00,23.163798,72.677768,OZONE,1,19,2
India,Gujarat,Gandhinagar,"IIPHG Lekawada, Gandhinagar - IITM",12-09-2025 07:00:00,23.243639,72.68994,NH3,1,1,1
India,Gujarat,Gandhinagar,"Sector-10, Gandhinagar - GPCB",12-09-2025 07:00:00,23.221714,72.654328,PM2.5,23,68,42
India,Gujarat,Gandhinagar,"Sector-10, Gandhinagar - GPCB",12-09-2025 07:00:00,23.221714,72.654328,NO2,9,22,14
India,Delhi,Delhi,"Sirifort, Delhi - CPCB",12-09-2025 07:00:00,28.5504249,77.2159377,PM10,68,170,99
India,Delhi,Delhi,"Sirifort, Delhi - CPCB",12-09-2025 07:00:00,28.5504249,77.2159377,NO2,33,35,34
India,Delhi,Delhi,"Sirifort, Delhi - CPCB",12-09-2025 07:00:00,28.5504249,77.2159377,SO2,25,29,26
India,Delhi,Delhi,"Sirifort, Delhi - CPCB",12-09-2025 07:00:00,28.5504249,77.2159377,OZONE,24,38,33
India,Delhi,Delhi,"Sonia Vihar, Delhi - DPCC",12-09-2025 07:00:00,28.710508,77.249485,OZONE,3,36,4
India,Delhi,Delhi,"Wazirpur, Delhi - DPCC",12-09-2025 07:00:00,28.699793,77.165453,NO2,15,53,28
India,Gujarat,Ahmedabad,"Rakhial, Ahmedabad - IITM",12-09-2025 07:00:00,23.016834,72.625775,NO2,3,74,25
India,Gujarat,Ahmedabad,"Rakhial, Ahmedabad - IITM",12-09-2025 07:00:00,23.016834,72.625775,OZONE,2,15,4
India,Gujarat,Ahmedabad,"SAC ISRO Bopal, Ahmedabad - IITM",12-09-2025 07:00:00,23.041137,72.456691,SO2,1,1,1
India,Gujarat,Ahmedabad,"SAC ISRO Satellite, Ahmedabad - IITM",12-09-2025 07:00:00,23.023389,72.515201,PM2.5,32,89,53
India,Gujarat,Ahmedabad,"SAC ISRO Satellite, Ahmedabad - IITM",12-09-2025 07:00:00,23.023389,72.515201,OZONE,1,37,12
India,Gujarat,Ahmedabad,"Gyaspur, Ahmedabad - IITM",12-09-2025 07:00:00,22.977134,72.553024,NH3,1,11,2
India,Gujarat,Ahmedabad,"Maninagar, Ahmedabad - GPCB",12-09-2025 07:00:00,23.002657,72.591912,CO,NA,NA,NA
India,Gujarat,Ahmedabad,"Raikhad, Ahmedabad - IITM",12-09-2025 07:00:00,23.020509,72.579261,PM10,52,133,69
India,Delhi,Delhi,"Mandir Marg, Delhi - DPCC",12-09-2025 07:00:00,28.636429,77.201067,OZONE,11,77,18
India,Delhi,Delhi,"Mundka, Delhi - DPCC",12-09-2025 07:00:00,28.684678,77.076574,CO,20,46,30
India,Delhi,Delhi,"Narela, Delhi - DPCC",12-09-2025 07:00:00,28.822836,77.101981,PM10,59,126,95
India,Gujarat,Ahmedabad,"Chandkheda, Ahmedabad - IITM",12-09-2025 07:00:00,23.107969,72.574648,SO2,1,20,9
India,Gujarat,Ahmedabad,"Gyaspur, Ahmedabad - IITM",12-09-2025 07:00:00,22.977134,72.553024,PM2.5,NA,NA,NA
India,Kerala,Thrissur,"Corporation Ground, Thrissur - Kerala PCB",12-09-2025 07:00:00,10.532400,76.215900,OZONE,29,30,29
India,Madhya Pradesh,Bhopal,"Idgah Hills, Bhopal - MPPCB",12-09-2025 07:00:00,23.264759,77.381568,NH3,3,5,4
India,Madhya Pradesh,Bhopal,"Paryavaran Parisar, Bhopal - MPPCB",12-09-2025 07:00:00,23.210494,77.425409,PM10,48,138,80
India,Madhya Pradesh,Bhopal,"Paryavaran Parisar, Bhopal - MPPCB",12-09-2025 07:00:00,23.210494,77.425409,CO,12,54,19
India,Madhya Pradesh,Bhopal,"T T Nagar, Bhopal - MPPCB",12-09-2025 07:00:00,23.233584,77.400574,PM10,57,122,84
India,Madhya Pradesh,Bhopal,"T T Nagar, Bhopal - MPPCB",12-09-2025 07:00:00,23.233584,77.400574,NO2,15,39,23
India,Madhya Pradesh,Bhopal,"T T Nagar, Bhopal - MPPCB",12-09-2025 07:00:00,23.233584,77.400574,NH3,5,6,5
India,Madhya Pradesh,Damoh,"Shrivastav Colony, Damoh - MPPCB",12-09-2025 07:00:00,23.81748678,79.446246,CO,20,26,26
India,Madhya Pradesh,Dewas,"Bhopal Chauraha, Dewas - MPPCB",12-09-2025 07:00:00,22.9682591,76.064118,PM10,56,96,78
India,Karnataka,Kalaburagi,"Mahatma Basaveswar Colony, Kalaburgi - KSPCB",12-09-2025 07:00:00,17.336318,76.847397,NH3,2,3,3
India,Karnataka,Kalaburagi,"Mahatma Basaveswar Colony, Kalaburgi - KSPCB",12-09-2025 07:00:00,17.336318,76.847397,SO2,3,6,4
India,Karnataka,Kalaburagi,"Mahatma Basaveswar Colony, Kalaburgi - KSPCB",12-09-2025 07:00:00,17.336318,76.847397,CO,34,52,36
India,Karnataka,Karwar,"KHB Colony, Karwar - KSPCB",12-09-2025 07:00:00,14.816666,74.141003,PM2.5,2,20,10
India,Karnataka,Karwar,"KHB Colony, Karwar - KSPCB",12-09-2025 07:00:00,14.816666,74.141003,NH3,1,2,1
India,Karnataka,Koppal,"Diwator Nagar, Koppal - KSPCB",12-09-2025 07:00:00,15.347630,76.181767,OZONE,NA,NA,NA
India,Karnataka,Mangalore,"Kadri, Mangalore - KSPCB",12-09-2025 07:00:00,12.889250,74.853000,SO2,6,7,6
India,Karnataka,Mysuru,"Hebbal 1st Stage, Mysuru - KSPCB",12-09-2025 07:00:00,12.21041,76.37376,NH3,3,7,5
India,Karnataka,Mysuru,"Hebbal 1st Stage, Mysuru - KSPCB",12-09-2025 07:00:00,12.21041,76.37376,SO2,1,24,12
India,Karnataka,Mysuru,"Hebbal 1st Stage, Mysuru - KSPCB",12-09-2025 07:00:00,12.21041,76.37376,CO,7,64,17
India,Kerala,Kannur,"Thavakkara, Kannur - Kerala PCB",12-09-2025 07:00:00,11.875000,75.373200,PM10,NA,NA,NA
India,Kerala,Kollam,"Polayathode, Kollam - Kerala PCB",12-09-2025 07:00:00,8.8787,76.6073,NH3,1,1,1
India,Kerala,Thiruvananthapuram,"Plammoodu, Thiruvananthapuram - Kerala PCB",12-09-2025 07:00:00,8.5149093,76.9435879,PM10,1,101,32
India,Kerala,Thiruvananthapuram,"Plammoodu, Thiruvananthapuram - Kerala PCB",12-09-2025 07:00:00,8.5149093,76.9435879,NO2,58,112,76
India,Kerala,Thiruvananthapuram,"Plammoodu, Thiruvananthapuram - Kerala PCB",12-09-2025 07:00:00,8.5149093,76.9435879,NH3,7,19,9
India,Kerala,Thiruvananthapuram,"Plammoodu, Thiruvananthapuram - Kerala PCB",12-09-2025 07:00:00,8.5149093,76.9435879,CO,6,70,8
India,Kerala,Thrissur,"Corporation Ground, Thrissur - Kerala PCB",12-09-2025 07:00:00,10.532400,76.215900,NO2,5,7,6
India,Karnataka,Bidar,"Naubad, Bidar - KSPCB",12-09-2025 07:00:00,17.930306,77.482194,SO2,NA,NA,NA
India,Karnataka,Bidar,"Naubad, Bidar - KSPCB",12-09-2025 07:00:00,17.930306,77.482194,CO,NA,NA,NA
India,Karnataka,Chikkaballapur,"Chikkaballapur Rural, Chikkaballapur - KSPCB",12-09-2025 07:00:00,13.428828,77.731418,PM10,20,60,38
India,Karnataka,Chikkamagaluru,"Kalyana Nagara, Chikkamagaluru - KSPCB",12-09-2025 07:00:00,13.328028,75.797056,PM2.5,11,44,26
India,Karnataka,Davanagere,"Devaraj Urs Badavane, Davanagere - KSPCB",12-09-2025 07:00:00,14.475800,75.905200,PM10,32,80,54
India,Karnataka,Davanagere,"Devaraj Urs Badavane, Davanagere - KSPCB",12-09-2025 07:00:00,14.475800,75.905200,SO2,1,5,3
India,Karnataka,Davanagere,"Devaraj Urs Badavane, Davanagere - KSPCB",12-09-2025 07:00:00,14.475800,75.905200,CO,8,14,11
India,Karnataka,Bengaluru,"Jigani, Bengaluru - KSPCB",12-09-2025 07:00:00,12.7816279,77.6299145,OZONE,NA,NA,NA
India,Karnataka,Bengaluru,"RVCE-Mailasandra, Bengaluru - KSPCB",12-09-2025 07:00:00,12.921418,77.502466,NO2,36,38,37
India,Karnataka,Bengaluru,"RVCE-Mailasandra, Bengaluru - KSPCB",12-09-2025 07:00:00,12.921418,77.502466,NH3,5,6,5
India,Karnataka,Bengaluru,"Sanegurava Halli, Bengaluru - KSPCB",12-09-2025 07:00:00,12.990328,77.5431385,NO2,17,21,19
India,Karnataka,Bengaluru,"Shivapura_Peenya, Bengaluru - KSPCB",12-09-2025 07:00:00,13.0246342,77.5080115,PM10,61,77,68
India,Karnataka,Bengaluru,"Shivapura_Peenya, Bengaluru - KSPCB",12-09-2025 07:00:00,13.0246342,77.5080115,NO2,24,25,25
India,Karnataka,Bengaluru,"Shivapura_Peenya, Bengaluru - KSPCB",12-09-2025 07:00:00,13.0246342,77.5080115,CO,28,52,39
India,Karnataka,Ramanagara,"Vijay Nagar, Ramanagara - KSPCB",12-09-2025 07:00:00,12.733409,77.298051,SO2,NA,NA,NA
India,Karnataka,Tumakuru,"Thimmalapura, Tumakuru - KSPCB",12-09-2025 07:00:00,13.377516,77.099072,NO2,NA,NA,NA
India,Karnataka,Vijayapura,"Ibrahimpur, Vijayapura - KSPCB",12-09-2025 07:00:00,16.802639,75.722694,PM10,43,44,44
India,Karnataka,Vijayapura,"Ibrahimpur, Vijayapura - KSPCB",12-09-2025 07:00:00,16.802639,75.722694,NO2,9,10,9
India,Karnataka,Vijayapura,"Ibrahimpur, Vijayapura - KSPCB",12-09-2025 07:00:00,16.802639,75.722694,CO,15,120,33
India,Kerala,Eloor,"Udyogamandal, Eloor - Kerala PCB",12-09-2025 07:00:00,10.073232,76.302765,NO2,7,8,8
India,Karnataka,Bengaluru,"BTM Layout, Bengaluru - CPCB",12-09-2025 07:00:00,12.9135218,77.5950804,NH3,NA,NA,NA
India,Karnataka,Bengaluru,"BTM Layout, Bengaluru - CPCB",12-09-2025 07:00:00,12.9135218,77.5950804,SO2,19,20,19
India,Karnataka,Bengaluru,"Bapuji Nagar, Bengaluru - KSPCB",12-09-2025 07:00:00,12.951913,77.539784,NH3,1,2,1
India,Karnataka,Bengaluru,"Bapuji Nagar, Bengaluru - KSPCB",12-09-2025 07:00:00,12.951913,77.539784,SO2,1,17,8
India,Karnataka,Bengaluru,"City Railway Station, Bengaluru - KSPCB",12-09-2025 07:00:00,12.9756843,77.5660749,CO,58,62,61
India,Karnataka,Bengaluru,"Jayanagar 5th Block, Bengaluru - KSPCB",12-09-2025 07:00:00,12.920984,77.584908,CO,1,60,10
India,Himachal Pradesh,Baddi,"HIMUDA Complex Phase-1, Baddi - HPPCB",12-09-2025 07:00:00,30.943887,76.801991,SO2,18,46,29
India,Jharkhand,Dhanbad,"Sardar Patel Nagar, Dhanbad - JSPCB",12-09-2025 07:00:00,23.80569,86.44268,SO2,1,106,38
India,Jharkhand,Jorapokhar,"Tata Stadium, Jorapokhar - JSPCB",12-09-2025 07:00:00,23.707909,86.414670,OZONE,NA,NA,NA
India,Karnataka,Bengaluru,"BTM Layout, Bengaluru - CPCB",12-09-2025 07:00:00,12.9135218,77.5950804,PM10,47,49,48
India,Karnataka,Dharwad,"Kalabhavan, Dharwad - KSPCB",12-09-2025 07:00:00,15.459706,75.008381,SO2,1,3,2
India,Karnataka,Hassan,"B.Katihalli, Hassan - KSPCB",12-09-2025 07:00:00,13.008556,76.125258,PM10,8,47,29
India,Karnataka,Haveri,"Ashwini Nagar, Haveri - KSPCB",12-09-2025 07:00:00,14.791800,75.389600,PM2.5,NA,NA,NA
India,Karnataka,Haveri,"Ashwini Nagar, Haveri - KSPCB",12-09-2025 07:00:00,14.791800,75.389600,SO2,NA,NA,NA
India,Karnataka,Kalaburagi,"Lal Bahadur Shastri Nagar, Kalaburagi - KSPCB",12-09-2025 07:00:00,17.321993,76.822628,NH3,1,1,1
India,Madhya Pradesh,Indore,"Chhoti Gwaltoli, Indore - MPPCB",12-09-2025 07:00:00,22.4310,75.5213,SO2,11,13,12
India,Madhya Pradesh,Indore,"Maguda Nagar, Indore - IMC",12-09-2025 07:00:00,22.7524,75.8872,PM10,29,62,42
India,Madhya Pradesh,Indore,"Regional Park, Indore - IMC",12-09-2025 07:00:00,22.6780,75.8559,NO2,13,19,16
India,Madhya Pradesh,Jabalpur,"Govindh Bhavan Colony, Jabalpur - JMC",12-09-2025 07:00:00,23.163174,79.973061,NH3,1,2,2
India,Madhya Pradesh,Jabalpur,"Govindh Bhavan Colony, Jabalpur - JMC",12-09-2025 07:00:00,23.163174,79.973061,CO,22,32,29
India,Madhya Pradesh,Jabalpur,"Gupteshwar, Jabalpur - JMC",12-09-2025 07:00:00,23.142888,79.916147,PM2.5,NA,NA,NA
India,Madhya Pradesh,Jabalpur,"Gupteshwar, Jabalpur - JMC",12-09-2025 07:00:00,23.142888,79.916147,NH3,5,7,6
India,Madhya Pradesh,Jabalpur,"Marhatal, Jabalpur - MPPCB",12-09-2025 07:00:00,23.168606,79.932247,NH3,1,2,1
India,Madhya Pradesh,Jabalpur,"Marhatal, Jabalpur - MPPCB",12-09-2025 07:00:00,23.168606,79.932247,OZONE,11,20,13
India,Madhya Pradesh,Jabalpur,"Suhagi, Jabalpur - JMC",12-09-2025 07:00:00,23.218135,79.957770,OZONE,18,52,28
India,Madhya Pradesh,Katni,"Gole Bazar, Katni - MPPCB",12-09-2025 07:00:00,23.50016,80.23284,NH3,3,3,3
India,Madhya Pradesh,Mandideep,"Sector-D Industrial Area, Mandideep - MPPCB",12-09-2025 07:00:00,23.108440,77.511428,SO2,7,88,26
India,Madhya Pradesh,Gwalior,"City Center, Gwalior - MPPCB",12-09-2025 07:00:00,26.203442,78.193251,NO2,8,8,8
India,Madhya Pradesh,Gwalior,"Deen Dayal Nagar, Gwalior - MPPCB",12-09-2025 07:00:00,26.259242,78.216432,PM10,6,142,62
India,Madhya Pradesh,Gwalior,"Maharaj Bada, Gwalior - MPPCB",12-09-2025 07:00:00,26.200388,78.147714,CO,6,80,20
India,Madhya Pradesh,Indore,"Airport Area, Indore - IMC",12-09-2025 07:00:00,22.7289,75.8076,PM2.5,24,38,31
India,Madhya Pradesh,Indore,"Airport Area, Indore - IMC",12-09-2025 07:00:00,22.7289,75.8076,PM10,35,57,45
India,Maharashtra,Kalyan,"Khadakpada, Kalyan - MPCB",12-09-2025 07:00:00,19.25292,73.142019,NH3,1,2,2
India,Maharashtra,Kolhapur,"Shivaji University, Kolhapur - MPCB",12-09-2025 07:00:00,16.6870449,74.2505872,SO2,NA,NA,NA
India,Maharashtra,Kolhapur,"Sinchan Bhavan, Kolhapur - MPCB",12-09-2025 07:00:00,16.7143745,74.2426398,SO2,NA,NA,NA
India,Maharashtra,Latur,"Sawe Wadi, Latur - MPCB",12-09-2025 07:00:00,18.39963,76.57452,PM2.5,21,40,30
India,Maharashtra,Latur,"Sawe Wadi, Latur - MPCB",12-09-2025 07:00:00,18.39963,76.57452,NO2,5,15,9
India,Maharashtra,Aurangabad,"Rachnakar Colony, Aurangabad - MPCB",12-09-2025 07:00:00,19.863756,75.321188,SO2,7,28,18
India,Maharashtra,Badlapur,"Katrap, Badlapur - MPCB",12-09-2025 07:00:00,19.16485,73.23409,PM2.5,45,67,53
India,Maharashtra,Badlapur,"Katrap, Badlapur - MPCB",12-09-2025 07:00:00,19.16485,73.23409,PM10,53,100,75
India,Maharashtra,Badlapur,"Katrap, Badlapur - MPCB",12-09-2025 07:00:00,19.16485,73.23409,SO2,6,23,13
India,Maharashtra,Boisar,"Khaira, Boisar - MPCB",12-09-2025 07:00:00,19.786089,72.757971,OZONE,29,31,31
India,Maharashtra,Mahad,"Kamble Tarf Birwadi, Mahad - MPCB",12-09-2025 07:00:00,18.1023399,73.4783687,CO,30,57,36
India,Maharashtra,Mahad,"Kamble Tarf Birwadi, Mahad - MPCB",12-09-2025 07:00:00,18.1023399,73.4783687,OZONE,16,53,23
India,Maharashtra,Malegaon,"Mahesh Nagar, Malegaon - MPCB",12-09-2025 07:00:00,20.555712,74.529236,PM10,53,103,74
India,Maharashtra,Mira-Bhayandar,"Bhayandar West, Mira-Bhayandar - MPCB",12-09-2025 07:00:00,19.296481,72.840923,CO,28,68,37
India,Madhya Pradesh,Ratlam,"Shasthri Nagar, Ratlam - IPCA Lab",12-09-2025 07:00:00,23.331731,75.045981,PM2.5,8,118,48
India,Madhya Pradesh,Satna,"Bandhavgar Colony, Satna - Birla Cement",12-09-2025 07:00:00,24.58434363,80.8549414,PM2.5,45,47,46
India,Madhya Pradesh,Singrauli,"Suryakiran Bhawan NCL, Singrauli - MPPCB",12-09-2025 07:00:00,24.108970,82.645580,NH3,6,6,6
India,Maharashtra,Amravati,"Shivneri Colony, Amravati - MPCB",12-09-2025 07:00:00,20.9402359,77.7895248,PM10,41,93,65
India,Maharashtra,Amravati,"Shri Shivaji Science College, Amravati - MPCB",12-09-2025 07:00:00,20.939198,77.765701,NH3,1,4,2
India,Maharashtra,Aurangabad,"MIDC Chilkalthana, Aurangabad - MPCB",12-09-2025 07:00:00,19.875620,75.387310,PM10,NA,NA,NA
India,Maharashtra,Chandrapur,"MIDC Khutala, Chandrapur - MPCB",12-09-2025 07:00:00,19.9775302,79.2337086,NO2,2,6,4
India,Maharashtra,Chandrapur,"MIDC Khutala, Chandrapur - MPCB",12-09-2025 07:00:00,19.9775302,79.2337086,OZONE,16,44,24
India,Maharashtra,Jalgaon,"Prabhat Colony, Jalgaon - MPCB",12-09-2025 07:00:00,21.001264,75.565602,CO,13,24,16
India,Maharashtra,Mumbai,"Bandra Kurla Complex, Mumbai - MPCB",12-09-2025 07:00:00,19.065931,72.862131,NH3,2,16,6
India,Maharashtra,Mumbai,"Borivali East, Mumbai - IITM",12-09-2025 07:00:00,19.23241,72.86895,NO2,24,70,36
India,Maharashtra,Mumbai,"Borivali East, Mumbai - IITM",12-09-2025 07:00:00,19.23241,72.86895,CO,10,44,15
India,Maharashtra,Mumbai,"Borivali East, Mumbai - MPCB",12-09-2025 07:00:00,19.2243333,72.8658113,PM2.5,14,29,22
India,Maharashtra,Mumbai,"Borivali East, Mumbai - MPCB",12-09-2025 07:00:00,19.2243333,72.8658113,NH3,1,1,1
India,Maharashtra,Mumbai,"Borivali East, Mumbai - MPCB",12-09-2025 07:00:00,19.2243333,72.8658113,SO2,3,5,4
India,Maharashtra,Mumbai,"Byculla, Mumbai - BMC",12-09-2025 07:00:00,18.9767,72.8380,NO2,1,22,8
India,Maharashtra,Mumbai,"Byculla, Mumbai - BMC",12-09-2025 07:00:00,18.9767,72.8380,CO,3,6,5
India,Maharashtra,Mumbai,"Byculla, Mumbai - BMC",12-09-2025 07:00:00,18.9767,72.8380,OZONE,8,32,16
India,Maharashtra,Mumbai,"Chakala-Andheri East, Mumbai - IITM",12-09-2025 07:00:00,19.11074,72.86084,PM2.5,3,31,19
India,Maharashtra,Mumbai,"Chakala-Andheri East, Mumbai - IITM",12-09-2025 07:00:00,19.11074,72.86084,NO2,NA,NA,NA
India,Maharashtra,Mumbai,"Chakala-Andheri East, Mumbai - IITM",12-09-2025 07:00:00,19.11074,72.86084,CO,9,41,19
India,Maharashtra,Navi Mumbai,"Sector-2E Kalamboli, Navi Mumbai - MPCB",12-09-2025 07:00:00,19.02579,73.10297,SO2,7,9,8
India,Maharashtra,Parbhani,"Masoom Colony, Parbhani - MPCB",12-09-2025 07:00:00,19.265594,76.761463,PM10,19,81,55
India,Maharashtra,Parbhani,"Masoom Colony, Parbhani - MPCB",12-09-2025 07:00:00,19.265594,76.761463,OZONE,12,30,13
India,Maharashtra,Pimpri-Chinchwad,"Gavalinagar, Pimpri Chinchwad - MPCB",12-09-2025 07:00:00,18.63673,73.82487,PM2.5,6,21,14
India,Maharashtra,Pimpri-Chinchwad,"Gavalinagar, Pimpri Chinchwad - MPCB",12-09-2025 07:00:00,18.63673,73.82487,OZONE,2,59,10
India,Maharashtra,Pimpri-Chinchwad,"Park Street Wakad, Pimpri Chinchwad - MPCB",12-09-2025 07:00:00,18.59051,73.77946,CO,8,26,12
India,Maharashtra,Pimpri-Chinchwad,"Park Street Wakad, Pimpri Chinchwad - MPCB",12-09-2025 07:00:00,18.59051,73.77946,OZONE,4,58,7
India,Maharashtra,Pimpri-Chinchwad,"Savta Mali Nagar, Pimpri-Chinchwad - IITM",12-09-2025 07:00:00,18.614767,73.799516,PM2.5,16,64,38
India,Maharashtra,Pimpri-Chinchwad,"Savta Mali Nagar, Pimpri-Chinchwad - IITM",12-09-2025 07:00:00,18.614767,73.799516,CO,42,73,58
India,Maharashtra,Nanded,"Sneh Nagar, Nanded - MPCB",12-09-2025 07:00:00,19.173852,77.296291,PM10,34,61,48
India,Maharashtra,Nashik,"Gangapur Road, Nashik - MPCB",12-09-2025 07:00:00,20.0073285,73.7762427,NH3,2,2,2
India,Maharashtra,Nashik,"Gangapur Road, Nashik - MPCB",12-09-2025 07:00:00,20.0073285,73.7762427,CO,8,10,9
India,Maharashtra,Nashik,"Hirawadi, Nashik - MPCB",12-09-2025 07:00:00,20.021503,73.813844,NO2,1,5,3
India,Maharashtra,Nashik,"Hirawadi, Nashik - MPCB",12-09-2025 07:00:00,20.021503,73.813844,NH3,1,2,1
India,Maharashtra,Nashik,"Hirawadi, Nashik - MPCB",12-09-2025 07:00:00,20.021503,73.813844,CO,8,17,10
India,Maharashtra,Nashik,"MIDC Ambad, Nashik - MPCB",12-09-2025 07:00:00,19.950220,73.731480,NH3,2,2,2
India,Maharashtra,Nashik,"MIDC Ambad, Nashik - MPCB",12-09-2025 07:00:00,19.950220,73.731480,SO2,6,11,9
India,Maharashtra,Nashik,"MIDC Ambad, Nashik - MPCB",12-09-2025 07:00:00,19.950220,73.731480,CO,10,16,14
India,Maharashtra,Mumbai,"Sewri, Mumbai - BMC",12-09-2025 07:00:00,19.000084,72.856730,SO2,NA,NA,NA
India,Maharashtra,Mumbai,"Sewri, Mumbai - BMC",12-09-2025 07:00:00,19.000084,72.856730,OZONE,NA,NA,NA
India,Maharashtra,Mumbai,"Shivaji Nagar, Mumbai - BMC",12-09-2025 07:00:00,19.060498,72.923356,SO2,12,14,13
India,Maharashtra,Mumbai,"Shivaji Nagar, Mumbai - BMC",12-09-2025 07:00:00,19.060498,72.923356,OZONE,1,25,2
India,Maharashtra,Mumbai,"Siddharth Nagar-Worli, Mumbai - IITM",12-09-2025 07:00:00,19.000083,72.813993,NO2,19,96,63
India,Maharashtra,Mumbai,"Siddharth Nagar-Worli, Mumbai - IITM",12-09-2025 07:00:00,19.000083,72.813993,CO,17,78,71
India,Maharashtra,Mumbai,"Vasai West, Mumbai - MPCB",12-09-2025 07:00:00,19.383200,72.820400,NO2,16,20,17
India,Maharashtra,Mumbai,"Worli, Mumbai - MPCB",12-09-2025 07:00:00,18.9936162,72.8128113,PM2.5,63,74,67
India,Maharashtra,Mumbai,"Malad West, Mumbai - IITM",12-09-2025 07:00:00,19.19709,72.82204,CO,10,42,30
India,Maharashtra,Mumbai,"Mazgaon, Mumbai - IITM",12-09-2025 07:00:00,18.96702,72.84214,PM2.5,12,57,33
India,Maharashtra,Mumbai,"Mazgaon, Mumbai - IITM",12-09-2025 07:00:00,18.96702,72.84214,CO,22,66,43
India,Maharashtra,Mumbai,"Mindspace-Malad West, Mumbai - MPCB",12-09-2025 07:00:00,19.1878657,72.8304069,PM10,35,37,36
India,Maharashtra,Mumbai,"Mulund West, Mumbai - MPCB",12-09-2025 07:00:00,19.1750,72.9419,PM2.5,21,41,32
India,Maharashtra,Mumbai,"Navy Nagar-Colaba, Mumbai - IITM",12-09-2025 07:00:00,18.897756,72.813320,PM2.5,30,71,51
India,Maharashtra,Mumbai,"Navy Nagar-Colaba, Mumbai - IITM",12-09-2025 07:00:00,18.897756,72.813320,NO2,15,32,20
India,Maharashtra,Mumbai,"Kandivali West, Mumbai - BMC",12-09-2025 07:00:00,19.215859,72.831718,PM2.5,5,20,12
India,Maharashtra,Mumbai,"Kandivali West, Mumbai - BMC",12-09-2025 07:00:00,19.215859,72.831718,NO2,2,15,7
India,Maharashtra,Mumbai,"Kandivali West, Mumbai - BMC",12-09-2025 07:00:00,19.215859,72.831718,NH3,2,3,3
India,Maharashtra,Mumbai,"Kherwadi_Bandra East, Mumbai - MPCB",12-09-2025 07:00:00,19.0632143,72.8456324,SO2,3,3,3
India,Maharashtra,Mumbai,"Khindipada-Bhandup West, Mumbai - IITM",12-09-2025 07:00:00,19.1653323,72.922099,NO2,NA,NA,NA
India,Maharashtra,Mumbai,"Kurla, Mumbai - MPCB",12-09-2025 07:00:00,19.0863,72.8888,OZONE,24,29,28
India,Maharashtra,Navi Mumbai,"Kopripada-Vashi, Navi Mumbai - MPCB",12-09-2025 07:00:00,19.090337,73.014232,PM2.5,11,118,43
India,Maharashtra,Navi Mumbai,"Nerul, Navi Mumbai - MPCB",12-09-2025 07:00:00,19.008751,73.016620,PM2.5,26,120,44
India,Maharashtra,Navi Mumbai,"Nerul, Navi Mumbai - MPCB",12-09-2025 07:00:00,19.008751,73.016620,PM10,NA,NA,NA
India,Maharashtra,Navi Mumbai,"Nerul, Navi Mumbai - MPCB",12-09-2025 07:00:00,19.008751,73.016620,NO2,28,29,28
India,Maharashtra,Navi Mumbai,"Sanpada, Navi Mumbai - MPCB",12-09-2025 07:00:00,19.0575752,73.0151367,PM10,47,91,64
India,Maharashtra,Navi Mumbai,"Sanpada, Navi Mumbai - MPCB",12-09-2025 07:00:00,19.0575752,73.0151367,NH3,8,17,11
India,Maharashtra,Mumbai,"Chembur, Mumbai - MPCB",12-09-2025 07:00:00,19.0364585,72.8954371,PM10,37,57,46
India,Maharashtra,Mumbai,"Chembur, Mumbai - MPCB",12-09-2025 07:00:00,19.0364585,72.8954371,NH3,4,6,5
India,Maharashtra,Mumbai,"Chhatrapati Shivaji Intl. Airport (T2), Mumbai - MPCB",12-09-2025 07:00:00,19.10078,72.87462,CO,24,30,27
India,Maharashtra,Mumbai,"Colaba, Mumbai - MPCB",12-09-2025 07:00:00,18.910000,72.820000,PM10,NA,NA,NA
India,Maharashtra,Mumbai,"Deonar, Mumbai - IITM",12-09-2025 07:00:00,19.04946,72.9230,PM10,75,129,100
India,Maharashtra,Nagpur,"Ambazari, Nagpur - MPCB",12-09-2025 07:00:00,21.121801,79.04952,NH3,2,4,2
India,Maharashtra,Nagpur,"Ambazari, Nagpur - MPCB",12-09-2025 07:00:00,21.121801,79.04952,CO,6,62,13
India,Maharashtra,Nagpur,"Opp GPO Civil Lines, Nagpur - MPCB",12-09-2025 07:00:00,21.152875,79.0517531,NO2,4,34,16
India,Maharashtra,Nagpur,"Ram Nagar, Nagpur - MPCB",12-09-2025 07:00:00,21.143383,79.048912,SO2,1,5,2
India,Maharashtra,Nagpur,"Ram Nagar, Nagpur - MPCB",12-09-2025 07:00:00,21.143383,79.048912,OZONE,2,21,10
India,Maharashtra,Pimpri-Chinchwad,"Thergaon, Pimpri Chinchwad - MPCB",12-09-2025 07:00:00,18.616318,73.765797,PM10,65,93,83
India,Maharashtra,Pimpri-Chinchwad,"Thergaon, Pimpri Chinchwad - MPCB",12-09-2025 07:00:00,18.616318,73.765797,NO2,12,37,21
India,Maharashtra,Pimpri-Chinchwad,"Thergaon, Pimpri Chinchwad - MPCB",12-09-2025 07:00:00,18.616318,73.765797,SO2,1,3,2
India,Maharashtra,Pimpri-Chinchwad,"Thergaon, Pimpri Chinchwad - MPCB",12-09-2025 07:00:00,18.616318,73.765797,OZONE,12,47,17
India,Maharashtra,Pune,"Bhosari, Pune - IITM",12-09-2025 07:00:00,18.640051,73.848956,PM2.5,20,57,36
India,Maharashtra,Pune,"Bhosari, Pune - IITM",12-09-2025 07:00:00,18.640051,73.848956,NO2,18,45,28
India,Maharashtra,Pune,"Bhosari, Pune - IITM",12-09-2025 07:00:00,18.640051,73.848956,OZONE,4,82,16
India,Maharashtra,Pune,"Dhankawadi, Pune - IITM",12-09-2025 07:00:00,18.459883,73.852193,CO,4,4,4
India,Maharashtra,Pune,"Katraj Dairy, Pune - MPCB",12-09-2025 07:00:00,18.454450,73.854155,PM10,33,60,46
India,Maharashtra,Pune,"Mhada Colony, Pune - IITM",12-09-2025 07:00:00,18.573040,73.927715,OZONE,13,49,20
India,Maharashtra,Pune,"Panchawati_Pashan, Pune - IITM",12-09-2025 07:00:00,18.536457,73.805454,PM2.5,25,58,40
India,Maharashtra,Pune,"Savitribai Phule Pune University, Pune - MPCB",12-09-2025 07:00:00,18.547056,73.826908,PM10,57,97,79
India,Maharashtra,Pune,"Savitribai Phule Pune University, Pune - MPCB",12-09-2025 07:00:00,18.547056,73.826908,SO2,2,5,4
India,Maharashtra,Pune,"Savitribai Phule Pune University, Pune - MPCB",12-09-2025 07:00:00,18.547056,73.826908,OZONE,1,235,3
India,Maharashtra,Sangli,"Vijay Nagar, Sangli - MPCB",12-09-2025 07:00:00, 16.5038,74.3623,NH3,1,2,2
India,Maharashtra,Sangli,"Vijay Nagar, Sangli - MPCB",12-09-2025 07:00:00, 16.5038,74.3623,OZONE,23,35,27
India,Maharashtra,Solapur,"Dnyaneshwar Nagar, Solapur - MPCB",12-09-2025 07:00:00,17.6336264,75.9132495,NH3,6,24,11
India,Maharashtra,Solapur,"Dnyaneshwar Nagar, Solapur - MPCB",12-09-2025 07:00:00,17.6336264,75.9132495,CO,10,52,20
India,Maharashtra,Solapur,"Ratandeep Housing Society, Solapur - MPCB",12-09-2025 07:00:00,17.65439,75.90649,SO2,1,3,2
India,Maharashtra,Thane,"Kasarvadavali, Thane - MPCB",12-09-2025 07:00:00,19.26777,72.97182,PM2.5,44,75,66
India,Odisha,Cuttack,"CDA Area, Cuttack - OSPCB",12-09-2025 07:00:00,20.48891     ,85.84768     ,CO,42,51,46
India,Odisha,Cuttack,"CDA Area, Cuttack - OSPCB",12-09-2025 07:00:00,20.48891     ,85.84768     ,OZONE,7,32,10
India,Odisha,Keonjhar,"Jagamohanpur, Keonjhar - OSPCB",12-09-2025 07:00:00,21.643900,85.599355,PM10,53,127,98
India,Odisha,Keonjhar,"Jagamohanpur, Keonjhar - OSPCB",12-09-2025 07:00:00,21.643900,85.599355,SO2,4,8,5
India,Odisha,Keonjhar,"Jagamohanpur, Keonjhar - OSPCB",12-09-2025 07:00:00,21.643900,85.599355,CO,2,186,35
India,Odisha,Keonjhar,"Jagamohanpur, Keonjhar - OSPCB",12-09-2025 07:00:00,21.643900,85.599355,OZONE,9,21,18
India,Odisha,Nayagarh,"Dabuna, Nayagarh - OSPCB",12-09-2025 07:00:00,21.847279,85.416905,NO2,11,34,23
India,Odisha,Nayagarh,"Dabuna, Nayagarh - OSPCB",12-09-2025 07:00:00,21.847279,85.416905,SO2,2,4,3
India,Odisha,Nayagarh,"Dabuna, Nayagarh - OSPCB",12-09-2025 07:00:00,21.847279,85.416905,CO,19,23,21
India,Odisha,Rourkela,"Fertilizer Township, Rourkela - OSPCB",12-09-2025 07:00:00,22.18972222,84.86277778,CO,17,30,23
India,Maharashtra,Thane,"Kasarvadavali, Thane - MPCB",12-09-2025 07:00:00,19.26777,72.97182,NH3,2,9,4
India,Maharashtra,Thane,"Upvan Fort, Thane - MPCB",12-09-2025 07:00:00,19.222279,72.957979,OZONE,1,14,2
India,Maharashtra,Virar,"Bolinj, Virar - MPCB",12-09-2025 07:00:00,19.4458210,72.7988231,PM2.5,8,87,35
India,Maharashtra,Virar,"Bolinj, Virar - MPCB",12-09-2025 07:00:00,19.4458210,72.7988231,NH3,1,2,1
India,Maharashtra,Virar,"Bolinj, Virar - MPCB",12-09-2025 07:00:00,19.4458210,72.7988231,CO,8,103,64
India,Meghalaya,Shillong,"Lumpyngngad, Shillong - Meghalaya PCB",12-09-2025 07:00:00,25.5586,91.8985,OZONE,1,21,5
India,Nagaland,Kohima,"PWD Junction, Kohima - NPCB",12-09-2025 07:00:00,25.6635413,94.0989878,PM2.5,4,67,24
India,Nagaland,Kohima,"PWD Junction, Kohima - NPCB",12-09-2025 07:00:00,25.6635413,94.0989878,SO2,67,72,69
India,Punjab,Ludhiana,"Punjab Agricultural University, Ludhiana - PPCB",12-09-2025 07:00:00,30.9028,75.8086,PM2.5,32,86,47
India,Punjab,Ludhiana,"Punjab Agricultural University, Ludhiana - PPCB",12-09-2025 07:00:00,30.9028,75.8086,SO2,4,11,8
India,Punjab,Ludhiana,"Punjab Agricultural University, Ludhiana - PPCB",12-09-2025 07:00:00,30.9028,75.8086,CO,14,136,25
India,Punjab,Mandi Gobindgarh,"RIMT University, Mandi Gobindgarh - PPCB",12-09-2025 07:00:00,30.649961,76.331442,CO,8,101,14
India,Punjab,Patiala,"Model Town, Patiala - PPCB",12-09-2025 07:00:00,30.349388,76.366642,NH3,6,7,6
India,Punjab,Patiala,"Model Town, Patiala - PPCB",12-09-2025 07:00:00,30.349388,76.366642,CO,8,25,16
India,Rajasthan,Ajmer,"Civil Lines,  Ajmer - RSPCB",12-09-2025 07:00:00,26.470859,74.646594,NH3,2,4,2
India,Rajasthan,Ajmer,"Civil Lines,  Ajmer - RSPCB",12-09-2025 07:00:00,26.470859,74.646594,OZONE,14,68,39
India,Odisha,Bhubaneswar,"Lingraj Mandir, Bhubaneswar - OSPCB",12-09-2025 07:00:00,20.240790,85.836784,NH3,1,4,2
India,Odisha,Bhubaneswar,"Lingraj Mandir, Bhubaneswar - OSPCB",12-09-2025 07:00:00,20.240790,85.836784,SO2,2,14,9
India,Odisha,Bhubaneswar,"Lingraj Mandir, Bhubaneswar - OSPCB",12-09-2025 07:00:00,20.240790,85.836784,OZONE,4,47,23
India,Odisha,Bileipada,"Tata Township, Bileipada - OSPCB",12-09-2025 07:00:00,22.06156703,85.47409613,PM10,47,115,86
India,Odisha,Brajrajnagar,"GM Office, Brajrajnagar - OSPCB",12-09-2025 07:00:00,21.8004996,83.8396977,PM2.5,1,82,20
India,Odisha,Brajrajnagar,"GM Office, Brajrajnagar - OSPCB",12-09-2025 07:00:00,21.8004996,83.8396977,PM10,1,110,27
India,Odisha,Brajrajnagar,"GM Office, Brajrajnagar - OSPCB",12-09-2025 07:00:00,21.8004996,83.8396977,NO2,8,34,17
India,Odisha,Brajrajnagar,"GM Office, Brajrajnagar - OSPCB",12-09-2025 07:00:00,21.8004996,83.8396977,SO2,15,17,16
India,Odisha,Angul,"Hakimapada, Angul - OSPCB",12-09-2025 07:00:00,20.832874,85.104082,PM10,18,174,83
India,Odisha,Balasore,"Kalidaspur, Balasore - OSPCB",12-09-2025 07:00:00,21.51161,86.89088,NH3,2,4,3
India,Odisha,Balasore,"Kalidaspur, Balasore - OSPCB",12-09-2025 07:00:00,21.51161,86.89088,OZONE,5,37,8
India,Odisha,Barbil,"Forest Office, Barbil - OSPCB",12-09-2025 07:00:00,22.1166054,85.3945546,PM2.5,7,107,51
India,Odisha,Barbil,"Forest Office, Barbil - OSPCB",12-09-2025 07:00:00,22.1166054,85.3945546,NH3,1,5,3
India,Odisha,Barbil,"Forest Office, Barbil - OSPCB",12-09-2025 07:00:00,22.1166054,85.3945546,OZONE,3,60,10
India,Odisha,Baripada,"Meher Colony, Baripada - OSPCB",12-09-2025 07:00:00,21.941841,86.728318,PM10,39,63,53
India,Odisha,Tensa,"Barsua Iron Ore Mines, Tensa - OSPCB",12-09-2025 07:00:00,21.869985,85.167016,NO2,NA,NA,NA
India,Odisha,Tensa,"Barsua Iron Ore Mines, Tensa - OSPCB",12-09-2025 07:00:00,21.869985,85.167016,CO,34,55,45
India,Punjab,Bathinda,"Hardev Nagar, Bathinda - PPCB",12-09-2025 07:00:00,30.233011,74.907758,PM2.5,8,21,13
India,Punjab,Bathinda,"Hardev Nagar, Bathinda - PPCB",12-09-2025 07:00:00,30.233011,74.907758,SO2,2,34,15
India,Punjab,Jalandhar,"Civil Line, Jalandhar - PPCB",12-09-2025 07:00:00,31.321907,75.578914,PM2.5,31,54,43
India,Punjab,Jalandhar,"Civil Line, Jalandhar - PPCB",12-09-2025 07:00:00,31.321907,75.578914,OZONE,43,50,48
India,Rajasthan,Banswara,"Rati Talai, Banswara - RSPCB",12-09-2025 07:00:00,23.555190,74.440010,OZONE,9,92,34
India,Rajasthan,Barmer,"Railway Colony, Barmer - RSPCB",12-09-2025 07:00:00,25.747299,71.393989,NO2,2,14,7
India,Rajasthan,Bharatpur,"Krishna Nagar, Bharatpur - RSPCB",12-09-2025 07:00:00,27.215415,77.50873,NO2,10,28,16
India,Rajasthan,Bharatpur,"Krishna Nagar, Bharatpur - RSPCB",12-09-2025 07:00:00,27.215415,77.50873,OZONE,34,48,38
India,Rajasthan,Bhilwara,"Pratap Nagar, Bhilwara - RSPCB",12-09-2025 07:00:00,25.339605,74.618883,PM2.5,20,50,41
India,Rajasthan,Churu,"Subash Chowk, Churu - RSPCB",12-09-2025 07:00:00,28.296139,74.961696,NH3,2,3,2
India,Rajasthan,Churu,"Subash Chowk, Churu - RSPCB",12-09-2025 07:00:00,28.296139,74.961696,CO,9,16,11
India,Rajasthan,Churu,"Subash Chowk, Churu - RSPCB",12-09-2025 07:00:00,28.296139,74.961696,OZONE,20,47,23
India,Rajasthan,Dausa,"Khatikan Mohalla, Dausa - RSPCB",12-09-2025 07:00:00,26.895552,76.334753,PM10,39,116,74
India,Rajasthan,Dholpur,"Raja Ganj, Dholpur - RSPCB",12-09-2025 07:00:00,26.699557,77.898881,NH3,2,4,2
India,Rajasthan,Dholpur,"Raja Ganj, Dholpur - RSPCB",12-09-2025 07:00:00,26.699557,77.898881,OZONE,8,22,11
India,Rajasthan,Dungarpur,"Bhoiwada, Dungarpur - RSPCB",12-09-2025 07:00:00,23.837789,73.714926,SO2,1,4,2
India,Rajasthan,Hanumangarh,"Housing Board, Hanumangarh - RSPCB",12-09-2025 07:00:00,29.610750,74.283608,NO2,58,168,80
India,Rajasthan,Pali,"Indira Colony Vistar, Pali - RSPCB",12-09-2025 07:00:00,25.771061, 73.340227,NO2,19,88,45
India,Rajasthan,Pali,"Indira Colony Vistar, Pali - RSPCB",12-09-2025 07:00:00,25.771061, 73.340227,CO,6,52,36
India,Rajasthan,Pratapgarh,"Pragati Nagar, Pratapgarh - RSPCB",12-09-2025 07:00:00,24.041198,74.780702,NH3,4,6,5
India,Rajasthan,Rajsamand,"Dhoinda, Rajsamand - RSPCB",12-09-2025 07:00:00,25.036360,73.883502,PM2.5,15,73,32
India,Rajasthan,Rajsamand,"Dhoinda, Rajsamand - RSPCB",12-09-2025 07:00:00,25.036360,73.883502,NH3,NA,NA,NA
India,Rajasthan,Sawai Madhopur,"Sahu Nagar, Sawai Madhopur - RSPCB",12-09-2025 07:00:00,26.031443,76.359327,CO,16,44,24
India,Rajasthan,Sawai Madhopur,"Sahu Nagar, Sawai Madhopur - RSPCB",12-09-2025 07:00:00,26.031443,76.359327,OZONE,8,51,16
India,Rajasthan,Jaipur,"Shastri Nagar, Jaipur - RSPCB",12-09-2025 07:00:00,26.9502929,75.730943,CO,44,130,72
India,Rajasthan,Jaisalmer,"Sadar Bazar, Jaisalmer - RSPCB",12-09-2025 07:00:00,26.912329,70.909168,NH3,4,11,7
India,Rajasthan,Jalore,"Mudtra Sili, Jalore - RSPCB",12-09-2025 07:00:00,25.344694,72.626208,PM2.5,20,50,33
India,Rajasthan,Jalore,"Mudtra Sili, Jalore - RSPCB",12-09-2025 07:00:00,25.344694,72.626208,SO2,1,4,2
India,Rajasthan,Jhalawar,"Rajlaxmi Nagar, Jhalawar - RSPCB",12-09-2025 07:00:00,24.588397,76.172782,PM2.5,22,78,46
India,Rajasthan,Jhunjhunu,"Indra Nagar, Jhunjhunu - RSPCB",12-09-2025 07:00:00,28.108988,75.386577,PM2.5,27,51,38
India,Rajasthan,Sirohi,"Vedhaynath Colony, Sirohi - RSPCB",12-09-2025 07:00:00,24.885261,72.857549,SO2,3,6,5
India,Rajasthan,Sri Ganganagar,"Old City, Sri Ganganagar - RSPCB",12-09-2025 07:00:00,29.931624,73.864511,PM2.5,20,100,54
India,Rajasthan,Sri Ganganagar,"Old City, Sri Ganganagar - RSPCB",12-09-2025 07:00:00,29.931624,73.864511,PM10,26,122,71
India,Rajasthan,Sri Ganganagar,"Old City, Sri Ganganagar - RSPCB",12-09-2025 07:00:00,29.931624,73.864511,CO,2,50,44
India,Rajasthan,Tonk,"Shastri Nagar, Tonk - RSPCB",12-09-2025 07:00:00,26.159933,75.780517,PM2.5,47,83,67
India,Rajasthan,Tonk,"Shastri Nagar, Tonk - RSPCB",12-09-2025 07:00:00,26.159933,75.780517,PM10,67,146,106
India,Rajasthan,Karauli,"Satyawati Vihar, Karauli - RSPCB",12-09-2025 07:00:00,26.506177,77.025989,PM2.5,21,47,35
India,Rajasthan,Kota,"Dhanmandi, Kota - RSPCB",12-09-2025 07:00:00,25.164090,75.858137,NO2,10,57,26
India,Rajasthan,Kota,"Dhanmandi, Kota - RSPCB",12-09-2025 07:00:00,25.164090,75.858137,NH3,2,3,3
India,Rajasthan,Kota,"Shrinath Puram, Kota - RSPCB",12-09-2025 07:00:00,25.14389,75.821256,NH3,1,2,1
India,Rajasthan,Nagaur,"Karni Colony, Nagaur - RSPCB",12-09-2025 07:00:00,27.213494,73.734444,PM10,26,106,79
India,Rajasthan,Hanumangarh,"Housing Board, Hanumangarh - RSPCB",12-09-2025 07:00:00,29.610750,74.283608,OZONE,14,27,18
India,Rajasthan,Jaipur,"Mansarovar Sector-12, Jaipur - RSPCB",12-09-2025 07:00:00,26.843698,75.766894,PM10,50,121,83
India,Rajasthan,Jaipur,"Mansarovar Sector-12, Jaipur - RSPCB",12-09-2025 07:00:00,26.843698,75.766894,SO2,1,2,1
India,Rajasthan,Jaipur,"Sector-2 Murlipura, Jaipur - RSPCB",12-09-2025 07:00:00,26.960669,75.771817,PM10,NA,NA,NA
India,Rajasthan,Jodhpur,"Jhalamand, Jodhpur - RSPCB",12-09-2025 07:00:00,26.215415,73.070156,OZONE,11,35,16
India,Rajasthan,Jodhpur,"Mandor, Jodhpur - RSPCB",12-09-2025 07:00:00,26.358805,73.047444,SO2,2,4,4
India,Rajasthan,Jodhpur,"Samrat Ashok Udhyan, Jodhpur - RSPCB",12-09-2025 07:00:00,26.253384,72.976571,PM2.5,8,43,19
India,Rajasthan,Jodhpur,"Samrat Ashok Udhyan, Jodhpur - RSPCB",12-09-2025 07:00:00,26.253384,72.976571,NH3,3,4,3
India,Rajasthan,Bhiwadi,"RIICO Ind. Area III, Bhiwadi - RSPCB",12-09-2025 07:00:00,28.194909,76.862296,OZONE,8,48,9
India,Rajasthan,Bikaner,"MM Ground, Bikaner - RSPCB",12-09-2025 07:00:00,28.018792,73.292658,NO2,5,19,10
India,Rajasthan,Bikaner,"MM Ground, Bikaner - RSPCB",12-09-2025 07:00:00,28.018792,73.292658,SO2,1,3,2
India,Rajasthan,Chittorgarh,"Shastri Nagar, Chittorgarh - RSPCB",12-09-2025 07:00:00,24.892047,74.623527,PM2.5,19,118,59
India,TamilNadu,Perundurai,"SIPCOT Industrial Park, Perundurai - TNPCB",12-09-2025 07:00:00,11.258242,77.552761,SO2,18,22,20
India,TamilNadu,Perundurai,"SIPCOT Industrial Park, Perundurai - TNPCB",12-09-2025 07:00:00,11.258242,77.552761,CO,29,41,37
India,TamilNadu,Pudukottai,"SIPCOT Nathampannai, Pudukottai - TNPCB",12-09-2025 07:00:00,10.423417,78.784889,NO2,12,22,15
India,TamilNadu,Ramanathapuram,"Chalai Bazaar, Ramanathapuram - TNPCB",12-09-2025 07:00:00,9.36399,78.831977,OZONE,4,5,5
India,TamilNadu,Salem,"Sona College of Technology, Salem - TNPCB",12-09-2025 07:00:00,11.679111,78.125052,NH3,3,3,3
India,TamilNadu,Salem,"Sona College of Technology, Salem - TNPCB",12-09-2025 07:00:00,11.679111,78.125052,OZONE,20,20,20
India,TamilNadu,Thoothukudi,"Meelavittan, Thoothukudi - TNPCB",12-09-2025 07:00:00,8.816428 ,78.099039,OZONE,1,11,3
India,TamilNadu,Tiruchirappalli,"St Joseph College, Tiruchirappalli - TNPCB",12-09-2025 07:00:00,10.830158,78.691849,PM2.5,35,73,51
India,TamilNadu,Tiruchirappalli,"St Joseph College, Tiruchirappalli - TNPCB",12-09-2025 07:00:00,10.830158,78.691849,NO2,3,4,4
India,TamilNadu,Tirunelveli,"Municipal Corporation Office, Tirunelveli - TNPCB",12-09-2025 07:00:00,8.728442,77.6962,PM2.5,19,37,28
India,TamilNadu,Tirupur,"Kumaran College, Tirupur - TNPCB",12-09-2025 07:00:00,11.0973603,77.3228673,CO,14,17,15
India,TamilNadu,Tirupur,"Kumaran College, Tirupur - TNPCB",12-09-2025 07:00:00,11.0973603,77.3228673,OZONE,3,3,3
India,TamilNadu,Virudhunagar,"Collectorate Office, Virudhunagar - TNPCB",12-09-2025 07:00:00,9.559382,77.948828,NO2,19,20,19
India,TamilNadu,Chennai,"Manali Village, Chennai - TNPCB",12-09-2025 07:00:00,13.1662,80.2584,PM2.5,2,133,55
India,TamilNadu,Chennai,"Manali, Chennai - CPCB",12-09-2025 07:00:00,13.164544,80.26285,PM10,65,66,66
India,TamilNadu,Chennai,"Manali, Chennai - CPCB",12-09-2025 07:00:00,13.164544,80.26285,NH3,6,7,6
India,TamilNadu,Chennai,"Manali, Chennai - CPCB",12-09-2025 07:00:00,13.164544,80.26285,SO2,13,33,21
India,TamilNadu,Chennai,"Manali, Chennai - CPCB",12-09-2025 07:00:00,13.164544,80.26285,CO,11,59,14
India,TamilNadu,Chennai,"Perungudi, Chennai - TNPCB",12-09-2025 07:00:00,12.9533,80.2357,NO2,2,10,4
India,TamilNadu,Chennai,"Royapuram, Chennai - TNPCB",12-09-2025 07:00:00,13.1036,80.2909,NO2,3,38,23
India,TamilNadu,Madurai,"Uchapatti, Madurai - TNPCB",12-09-2025 07:00:00,9.865935,78.022669,PM10,18,52,31
India,TamilNadu,Ooty,"Bombay Castel, Ooty - TNPCB",12-09-2025 07:00:00,11.4068288,76.7138973,SO2,23,24,24
India,TamilNadu,Palkalaiperur,"Bharathidasan University, Palkalaiperur - TNPCB",12-09-2025 07:00:00,10.681158,78.741746,SO2,5,5,5
India,TamilNadu,Perundurai,"SIPCOT Industrial Park, Perundurai - TNPCB",12-09-2025 07:00:00,11.258242,77.552761,PM2.5,29,69,42
India,TamilNadu,Perundurai,"SIPCOT Industrial Park, Perundurai - TNPCB",12-09-2025 07:00:00,11.258242,77.552761,NO2,7,10,8
India,Telangana,Hyderabad,"IITH Kandi, Hyderabad - TSPCB",12-09-2025 07:00:00,17.585705,78.126199,OZONE,NA,NA,NA
India,Telangana,Hyderabad,"Kompally Municipal Office, Hyderabad - TSPCB",12-09-2025 07:00:00,17.544899,78.486949,OZONE,NA,NA,NA
India,Telangana,Hyderabad,"Nacharam_TSIIC IALA, Hyderabad - TSPCB",12-09-2025 07:00:00,17.429398,78.569354,NH3,NA,NA,NA
India,Telangana,Hyderabad,"New Malakpet, Hyderabad - TSPCB",12-09-2025 07:00:00,17.37206,78.50864,PM2.5,42,132,65
India,Telangana,Hyderabad,"New Malakpet, Hyderabad - TSPCB",12-09-2025 07:00:00,17.37206,78.50864,OZONE,27,55,34
India,Telangana,Hyderabad,"Ramachandrapuram, Hyderabad - TSPCB",12-09-2025 07:00:00,17.528544,78.286195,NO2,NA,NA,NA
India,TamilNadu,Gummidipoondi,"Anthoni Pillai Nagar, Gummidipoondi - TNPCB",12-09-2025 07:00:00,13.4127,80.1081,PM2.5,25,335,141
India,TamilNadu,Hosur,"SIPCOT Phase-1, Hosur - TNPCB",12-09-2025 07:00:00,12.746998,77.813811,NO2,1,2,2
India,TamilNadu,Hosur,"SIPCOT Phase-1, Hosur - TNPCB",12-09-2025 07:00:00,12.746998,77.813811,CO,15,32,22
India,TamilNadu,Hosur,"SIPCOT Phase-1, Hosur - TNPCB",12-09-2025 07:00:00,12.746998,77.813811,OZONE,9,24,11
India,TamilNadu,Karur,"Kamadenu Nagar, Karur - TNPCB",12-09-2025 07:00:00,10.967820,78.080882,PM10,9,41,20
India,TamilNadu,Karur,"Kamadenu Nagar, Karur - TNPCB",12-09-2025 07:00:00,10.967820,78.080882,NO2,5,6,6
India,TamilNadu,Chennai,"Velachery Res. Area, Chennai - CPCB",12-09-2025 07:00:00,13.0052189,80.2398125,PM2.5,36,60,48
India,TamilNadu,Coimbatore,"SIDCO Kurichi, Coimbatore - TNPCB",12-09-2025 07:00:00,10.942451,76.978996,NH3,1,1,1
India,TamilNadu,Coimbatore,"SIDCO Kurichi, Coimbatore - TNPCB",12-09-2025 07:00:00,10.942451,76.978996,CO,1,143,61
India,TamilNadu,Coimbatore,"SIDCO Kurichi, Coimbatore - TNPCB",12-09-2025 07:00:00,10.942451,76.978996,OZONE,2,46,4
India,TamilNadu,Cuddalore,"Kudikadu, Cuddalore - TNPCB",12-09-2025 07:00:00,11.6829898,79.7532099,SO2,17,18,17
India,Telangana,Hyderabad,"Bollaram Industrial Area, Hyderabad - TSPCB",12-09-2025 07:00:00,17.540891,78.358528,CO,14,52,17
India,Telangana,Hyderabad,"Bollaram Industrial Area, Hyderabad - TSPCB",12-09-2025 07:00:00,17.540891,78.358528,OZONE,47,52,48
India,Telangana,Hyderabad,"ICRISAT Patancheru, Hyderabad - TSPCB",12-09-2025 07:00:00,17.518400,78.278777,PM2.5,35,103,64
India,Telangana,Hyderabad,"IITH Kandi, Hyderabad - TSPCB",12-09-2025 07:00:00,17.585705,78.126199,PM10,NA,NA,NA
India,Telangana,Hyderabad,"IITH Kandi, Hyderabad - TSPCB",12-09-2025 07:00:00,17.585705,78.126199,CO,NA,NA,NA
India,Sikkim,Gangtok,"Zero Point GICI, Gangtok - SSPCB",12-09-2025 07:00:00,27.338530,88.614099,NH3,1,13,2
India,TamilNadu,Chennai,"Alandur Bus Depot, Chennai - CPCB",12-09-2025 07:00:00,12.9099161,80.1076538,PM2.5,17,18,17
India,TamilNadu,Chennai,"Alandur Bus Depot, Chennai - CPCB",12-09-2025 07:00:00,12.9099161,80.1076538,PM10,48,52,50
India,Uttar_Pradesh,Meerut,"Ganga Nagar, Meerut - UPPCB",12-09-2025 07:00:00,28.999264,77.7590354,PM10,60,117,94
India,Uttar_Pradesh,Meerut,"Ganga Nagar, Meerut - UPPCB",12-09-2025 07:00:00,28.999264,77.7590354,NH3,4,4,4
India,Uttar_Pradesh,Meerut,"Ganga Nagar, Meerut - UPPCB",12-09-2025 07:00:00,28.999264,77.7590354,SO2,12,16,14
India,Uttar_Pradesh,Meerut,"Ganga Nagar, Meerut - UPPCB",12-09-2025 07:00:00,28.999264,77.7590354,CO,30,42,35
India,Uttar_Pradesh,Meerut,"Pallavpuram Phase 2, Meerut - UPPCB",12-09-2025 07:00:00,29.063510,77.709723,NH3,4,8,6
India,Uttar_Pradesh,Meerut,"Pallavpuram Phase 2, Meerut - UPPCB",12-09-2025 07:00:00,29.063510,77.709723,OZONE,21,63,23
India,Uttar_Pradesh,Moradabad,"Buddhi Vihar, Moradabad - UPPCB",12-09-2025 07:00:00,28.83526,78.74460,PM2.5,28,59,42
India,Uttar_Pradesh,Moradabad,"Buddhi Vihar, Moradabad - UPPCB",12-09-2025 07:00:00,28.83526,78.74460,NO2,24,31,26
India,Uttar_Pradesh,Moradabad,"Eco Herbal Park, Moradabad - UPPCB",12-09-2025 07:00:00,28.840739,78.697531,NH3,3,3,3
India,Uttar_Pradesh,Moradabad,"Eco Herbal Park, Moradabad - UPPCB",12-09-2025 07:00:00,28.840739,78.697531,SO2,13,20,17
India,Uttar_Pradesh,Firozabad,"Vibhab Nagar, Firozabad - UPPCB",12-09-2025 07:00:00,27.1594,78.3953,PM10,52,150,80
India,Uttar_Pradesh,Ghaziabad,"Indirapuram, Ghaziabad - UPPCB",12-09-2025 07:00:00,28.646233,77.358075,PM2.5,35,52,44
India,Uttar_Pradesh,Ghaziabad,"Indirapuram, Ghaziabad - UPPCB",12-09-2025 07:00:00,28.646233,77.358075,SO2,13,18,15
India,Uttar_Pradesh,Ghaziabad,"Loni, Ghaziabad - UPPCB",12-09-2025 07:00:00,28.757294,77.278792,NO2,16,49,28
India,Uttar_Pradesh,Ghaziabad,"Loni, Ghaziabad - UPPCB",12-09-2025 07:00:00,28.757294,77.278792,NH3,2,4,3
India,Uttar_Pradesh,Ghaziabad,"Sanjay Nagar, Ghaziabad - UPPCB",12-09-2025 07:00:00,28.685382,77.453839,NO2,NA,NA,NA
India,Uttar_Pradesh,Ghaziabad,"Sanjay Nagar, Ghaziabad - UPPCB",12-09-2025 07:00:00,28.685382,77.453839,NH3,NA,NA,NA
India,Uttar_Pradesh,Ghaziabad,"Sanjay Nagar, Ghaziabad - UPPCB",12-09-2025 07:00:00,28.685382,77.453839,SO2,21,34,28
India,Uttar_Pradesh,Ghaziabad,"Sanjay Nagar, Ghaziabad - UPPCB",12-09-2025 07:00:00,28.685382,77.453839,CO,18,52,31
India,Uttar_Pradesh,Ghaziabad,"Sanjay Nagar, Ghaziabad - UPPCB",12-09-2025 07:00:00,28.685382,77.453839,OZONE,9,67,17
India,Telangana,Hyderabad,"Ramachandrapuram, Hyderabad - TSPCB",12-09-2025 07:00:00,17.528544,78.286195,CO,NA,NA,NA
India,Telangana,Hyderabad,"Sanathnagar, Hyderabad - TSPCB",12-09-2025 07:00:00,17.4559458,78.4332152,SO2,NA,NA,NA
India,Telangana,Hyderabad,"Somajiguda, Hyderabad - TSPCB",12-09-2025 07:00:00,17.417094,78.457437,NH3,NA,NA,NA
India,Telangana,Hyderabad,"Somajiguda, Hyderabad - TSPCB",12-09-2025 07:00:00,17.417094,78.457437,SO2,NA,NA,NA
India,Telangana,Hyderabad,"Zoo Park, Hyderabad - TSPCB",12-09-2025 07:00:00,17.349694,78.451437,PM10,58,94,77
India,Tripura,Agartala,"Bardowali, Agartala - Tripura SPCB",12-09-2025 07:00:00,23.8175497,91.2726974,SO2,26,26,26
India,Uttar_Pradesh,Agra,"Manoharpur, Agra - UPPCB",12-09-2025 07:00:00,27.23711,78.01936,PM2.5,39,171,60
India,Uttar_Pradesh,Agra,"Shastripuram, Agra - UPPCB",12-09-2025 07:00:00,27.19862,77.92066,PM10,70,156,99
India,Uttar_Pradesh,Agra,"Shastripuram, Agra - UPPCB",12-09-2025 07:00:00,27.19862,77.92066,SO2,13,31,21
India,Uttar_Pradesh,Bareilly,"Civil Lines, Bareilly - UPPCB",12-09-2025 07:00:00,28.359581,79.414455,NO2,2,3,2
India,Uttar_Pradesh,Bareilly,"Rajendra Nagar, Bareilly - UPPCB",12-09-2025 07:00:00,28.38910936,79.42963708,PM10,77,143,110
India,Uttar_Pradesh,Bareilly,"Rajendra Nagar, Bareilly - UPPCB",12-09-2025 07:00:00,28.38910936,79.42963708,NO2,9,10,9
India,Uttar_Pradesh,Bareilly,"Rajendra Nagar, Bareilly - UPPCB",12-09-2025 07:00:00,28.38910936,79.42963708,NH3,1,1,1
India,Uttar_Pradesh,Bareilly,"Rajendra Nagar, Bareilly - UPPCB",12-09-2025 07:00:00,28.38910936,79.42963708,OZONE,NA,NA,NA
India,Uttar_Pradesh,Bulandshahr,"Yamunapuram, Bulandshahr - UPPCB",12-09-2025 07:00:00,28.406963,77.849831,NO2,12,54,27
India,Uttar_Pradesh,Moradabad,"Eco Herbal Park, Moradabad - UPPCB",12-09-2025 07:00:00,28.840739,78.697531,OZONE,15,86,26
India,Uttar_Pradesh,Moradabad,"Employment Office, Moradabad - UPPCB",12-09-2025 07:00:00,28.88528,78.73880,PM2.5,61,121,86
India,Uttar_Pradesh,Moradabad,"Employment Office, Moradabad - UPPCB",12-09-2025 07:00:00,28.88528,78.73880,SO2,37,38,37
India,Uttar_Pradesh,Moradabad,"Employment Office, Moradabad - UPPCB",12-09-2025 07:00:00,28.88528,78.73880,OZONE,19,41,21
India,Uttar_Pradesh,Moradabad,"Jigar Colony, Moradabad - UPPCB",12-09-2025 07:00:00,28.856664,78.772638,PM2.5,38,74,54
India,Uttar_Pradesh,Moradabad,"Jigar Colony, Moradabad - UPPCB",12-09-2025 07:00:00,28.856664,78.772638,NH3,6,9,6
India,Uttar_Pradesh,Moradabad,"Jigar Colony, Moradabad - UPPCB",12-09-2025 07:00:00,28.856664,78.772638,CO,26,40,40
India,Uttar_Pradesh,Moradabad,"Kashiram Nagar, Moradabad - UPPCB",12-09-2025 07:00:00,28.849399,78.742362,SO2,40,80,57
India,Uttar_Pradesh,Kanpur,"FTI Kidwai Nagar, Kanpur - UPPCB",12-09-2025 07:00:00,26.428282,80.327067,PM2.5,18,138,55
India,Uttar_Pradesh,Kanpur,"NSI Kalyanpur, Kanpur - UPPCB",12-09-2025 07:00:00,26.509954,80.249612,PM2.5,39,83,55
India,Uttar_Pradesh,Kanpur,"Nehru Nagar, Kanpur - UPPCB",12-09-2025 07:00:00,26.4703136,80.3229863,PM10,31,132,69
India,Uttar_Pradesh,Khurja,"Kalindi Kunj, Khurja - UPPCB",12-09-2025 07:00:00,28.2348927,77.8683002,PM10,27,83,51
India,Uttar_Pradesh,Lucknow,"B R Ambedkar University, Lucknow - UPPCB",12-09-2025 07:00:00,26.766433,80.927299,PM2.5,52,173,100
India,Uttar_Pradesh,Agra,"Manoharpur, Agra - UPPCB",12-09-2025 07:00:00,27.23711,78.01936,PM10,34,112,51
India,Uttar_Pradesh,Agra,"Manoharpur, Agra - UPPCB",12-09-2025 07:00:00,27.23711,78.01936,NO2,24,24,24
India,Uttar_Pradesh,Agra,"Manoharpur, Agra - UPPCB",12-09-2025 07:00:00,27.23711,78.01936,CO,8,18,13
India,Uttar_Pradesh,Agra,"Sector-3B Avas Vikas Colony, Agra - UPPCB",12-09-2025 07:00:00,27.19412,77.96237,NO2,19,23,21
India,Uttar_Pradesh,Agra,"Sector-3B Avas Vikas Colony, Agra - UPPCB",12-09-2025 07:00:00,27.19412,77.96237,NH3,3,4,3
India,Uttar_Pradesh,Agra,"Sector-3B Avas Vikas Colony, Agra - UPPCB",12-09-2025 07:00:00,27.19412,77.96237,SO2,8,9,9
India,Uttar_Pradesh,Agra,"Shahjahan Garden, Agra - UPPCB",12-09-2025 07:00:00,27.169338,78.03582,NH3,1,1,1
India,Uttar_Pradesh,Ghaziabad,"Vasundhara, Ghaziabad - UPPCB",12-09-2025 07:00:00,28.6603346,77.3572563,PM10,94,157,127
India,Uttar_Pradesh,Greater Noida,"Knowledge Park - III, Greater Noida - UPPCB",12-09-2025 07:00:00,28.47272,77.482000,CO,19,118,100
India,Uttar_Pradesh,Greater Noida,"Knowledge Park - V, Greater Noida - UPPCB",12-09-2025 07:00:00,28.557054,77.453663,NH3,6,8,7
India,Uttar_Pradesh,Greater Noida,"Knowledge Park - V, Greater Noida - UPPCB",12-09-2025 07:00:00,28.557054,77.453663,OZONE,10,78,16
India,Uttar_Pradesh,Hapur,"Anand Vihar, Hapur - UPPCB",12-09-2025 07:00:00,28.725645,77.749675,OZONE,6,35,8
India,Uttar_Pradesh,Lucknow,"Gomti Nagar, Lucknow - UPPCB",12-09-2025 07:00:00,26.868120,81.005119,PM10,66,104,84
India,Uttar_Pradesh,Lucknow,"Kukrail Picnic Spot-1, Lucknow - UPPCB",12-09-2025 07:00:00,26.90723,80.98579,OZONE,29,60,40
India,Uttar_Pradesh,Lucknow,"Lalbagh, Lucknow - CPCB",12-09-2025 07:00:00,26.8458805,80.9365541,NH3,16,25,19
India,Uttar_Pradesh,Muzaffarnagar,"New Mandi, Muzaffarnagar - UPPCB",12-09-2025 07:00:00,29.4723508,77.7194031,SO2,15,22,18
India,Uttar_Pradesh,Noida,"Sector - 125, Noida - UPPCB",12-09-2025 07:00:00,28.5447608,77.3231257,PM2.5,28,65,41
India,Uttar_Pradesh,Noida,"Sector - 62, Noida - IMD",12-09-2025 07:00:00,28.6245479,77.3577104,CO,15,36,33
India,Uttar_Pradesh,Noida,"Sector - 62, Noida - IMD",12-09-2025 07:00:00,28.6245479,77.3577104,OZONE,2,63,10
India,Uttar_Pradesh,Noida,"Sector-1, Noida - UPPCB",12-09-2025 07:00:00,28.5898,77.3101,PM2.5,32,59,45
India,Uttar_Pradesh,Noida,"Sector-1, Noida - UPPCB",12-09-2025 07:00:00,28.5898,77.3101,SO2,4,9,6
India,Uttar_Pradesh,Noida,"Sector-1, Noida - UPPCB",12-09-2025 07:00:00,28.5898,77.3101,OZONE,14,24,17
India,Uttar_Pradesh,Noida,"Sector-116, Noida - UPPCB",12-09-2025 07:00:00,28.569230,77.393848,PM10,65,122,104
India,West_Bengal,Howrah,"Ghusuri, Howrah - WBPCB",12-09-2025 07:00:00,22.611968,88.347422,OZONE,13,72,18
India,West_Bengal,Howrah,"Padmapukur, Howrah - WBPCB",12-09-2025 07:00:00,22.5687319,88.2797276,PM10,58,89,71
India,West_Bengal,Kolkata,"Ballygunge, Kolkata - WBPCB",12-09-2025 07:00:00,22.5367507,88.3638022,PM10,16,44,30
India,West_Bengal,Kolkata,"Ballygunge, Kolkata - WBPCB",12-09-2025 07:00:00,22.5367507,88.3638022,SO2,2,6,4
India,West_Bengal,Kolkata,"Fort William, Kolkata - WBPCB",12-09-2025 07:00:00,22.556640,88.342674,PM2.5,23,48,33
India,West_Bengal,Kolkata,"Fort William, Kolkata - WBPCB",12-09-2025 07:00:00,22.556640,88.342674,SO2,8,9,8
India,West_Bengal,Kolkata,"Fort William, Kolkata - WBPCB",12-09-2025 07:00:00,22.556640,88.342674,OZONE,14,50,16
India,West_Bengal,Kolkata,"Jadavpur, Kolkata - WBPCB",12-09-2025 07:00:00,22.49929,88.36917,NH3,6,14,11
India,Uttar_Pradesh,Varanasi,"Bhelupur, Varanasi - UPPCB",12-09-2025 07:00:00,25.301778,82.996789,SO2,27,28,28
India,Uttar_Pradesh,Varanasi,"Bhelupur, Varanasi - UPPCB",12-09-2025 07:00:00,25.301778,82.996789,OZONE,3,5,4
India,Uttar_Pradesh,Varanasi,"IESD Banaras Hindu University, Varanasi - UPPCB",12-09-2025 07:00:00,25.262326,82.995408,NO2,2,3,2
India,Uttar_Pradesh,Vrindavan,"Omex Eternity, Vrindavan - UPPCB",12-09-2025 07:00:00,27.5714090,77.6557570,PM2.5,14,102,29
India,Uttar_Pradesh,Vrindavan,"Omex Eternity, Vrindavan - UPPCB",12-09-2025 07:00:00,27.5714090,77.6557570,NH3,1,2,2
India,Uttarakhand,Kashipur,"Govt. Girls Inter College, Kashipur - UKPCB",12-09-2025 07:00:00,29.2124114,78.9611753,CO,11,18,14
India,Uttarakhand,Kashipur,"Govt. Girls Inter College, Kashipur - UKPCB",12-09-2025 07:00:00,29.2124114,78.9611753,OZONE,1,8,4
India,West_Bengal,Haldia,"Priyambada Housing Estate, Haldia - WBPCB",12-09-2025 07:00:00,22.06047,88.109737,PM2.5,18,80,45
India,West_Bengal,Haldia,"Priyambada Housing Estate, Haldia - WBPCB",12-09-2025 07:00:00,22.06047,88.109737,PM10,31,112,70
India,West_Bengal,Howrah,"Belur Math, Howrah - WBPCB",12-09-2025 07:00:00,22.629801,88.352017,PM2.5,10,50,21
India,West_Bengal,Howrah,"Botanical Garden, Howrah - WBPCB",12-09-2025 07:00:00,22.554954,88.292568,PM2.5,30,57,40
India,West_Bengal,Howrah,"Botanical Garden, Howrah - WBPCB",12-09-2025 07:00:00,22.554954,88.292568,SO2,13,15,14
India,West_Bengal,Howrah,"Dasnagar, Howrah - WBPCB",12-09-2025 07:00:00,22.6025571,88.3105664,PM10,NA,NA,NA
India,West_Bengal,Howrah,"Ghusuri, Howrah - WBPCB",12-09-2025 07:00:00,22.611968,88.347422,PM10,28,178,86
India,Uttar_Pradesh,Prayagraj,"Jhunsi, Prayagraj - UPPCB",12-09-2025 07:00:00,25.425602,81.917152,PM10,23,50,35
India,Uttar_Pradesh,Prayagraj,"Jhunsi, Prayagraj - UPPCB",12-09-2025 07:00:00,25.425602,81.917152,NH3,5,5,5
India,Uttar_Pradesh,Prayagraj,"Motilal Nehru NIT, Prayagraj - UPPCB",12-09-2025 07:00:00,25.494,81.863,NO2,12,12,12
India,Uttar_Pradesh,Varanasi,"Ardhali Bazar, Varanasi - UPPCB",12-09-2025 07:00:00,25.3505986,82.9083074,PM2.5,18,52,32
India,Uttar_Pradesh,Varanasi,"Bhelupur, Varanasi - UPPCB",12-09-2025 07:00:00,25.301778,82.996789,PM10,40,121,83
India,West_Bengal,Asansol,"Asansol Court Area, Asansol - WBPCB",12-09-2025 07:00:00,23.685297,86.945968,PM2.5,53,99,72
India,West_Bengal,Asansol,"Evelyn Lodge, Asansol - WBPCB",12-09-2025 07:00:00,23.6979360,86.9443950,SO2,4,11,6
India,West_Bengal,Asansol,"Mahabir Colliery, Asansol - WBPCB",12-09-2025 07:00:00,23.6181830,87.1057180,CO,36,111,59
India,West_Bengal,Kolkata,"Rabindra Bharati University, Kolkata - WBPCB",12-09-2025 07:00:00,22.627847,88.380669,NO2,26,48,36
India,West_Bengal,Kolkata,"Rabindra Bharati University, Kolkata - WBPCB",12-09-2025 07:00:00,22.627847,88.380669,NH3,7,8,8
India,West_Bengal,Kolkata,"Rabindra Sarobar, Kolkata - WBPCB",12-09-2025 07:00:00,22.51106,88.35142,NO2,18,57,30
India,West_Bengal,Kolkata,"Rabindra Sarobar, Kolkata - WBPCB",12-09-2025 07:00:00,22.51106,88.35142,NH3,6,8,7
India,West_Bengal,Durgapur,"Mahishkapur Road_B-Zone, Durgapur - WBPCB",12-09-2025 07:00:00,23.567923,87.306843,NH3,1,2,1
India,West_Bengal,Durgapur,"Mahishkapur Road_B-Zone, Durgapur - WBPCB",12-09-2025 07:00:00,23.567923,87.306843,SO2,11,16,12
India,West_Bengal,Siliguri,"Ward-32 Bapupara, Siliguri - WBPCB",12-09-2025 07:00:00,26.6879226,88.4152495,SO2,10,13,11
India,West_Bengal,Siliguri,"Ward-32 Bapupara, Siliguri - WBPCB",12-09-2025 07:00:00,26.6879226,88.4152495,OZONE,27,37,29
India,Assam,Guwahati,"LGBI Airport, Guwahati - PCBA",12-09-2025 07:00:00,26.10887,91.589544,OZONE,12,18,15
India,Assam,Guwahati,"Pan Bazaar, Guwahati - PCBA",12-09-2025 07:00:00,26.187500,91.744194,OZONE,18,18,18
India,Assam,Guwahati,"Railway Colony, Guwahati - PCBA",12-09-2025 07:00:00,26.181742,91.78063,PM2.5,42,77,58
India,Assam,Guwahati,"Railway Colony, Guwahati - PCBA",12-09-2025 07:00:00,26.181742,91.78063,PM10,38,71,53
India,Assam,Guwahati,"Railway Colony, Guwahati - PCBA",12-09-2025 07:00:00,26.181742,91.78063,CO,28,40,34
India,Assam,Nagaon,"Christianpatty, Nagaon - PCBA",12-09-2025 07:00:00,26.349082,92.68449,PM2.5,5,69,54
India,Assam,Nagaon,"Christianpatty, Nagaon - PCBA",12-09-2025 07:00:00,26.349082,92.68449,SO2,1,15,7
India,Assam,Nagaon,"Christianpatty, Nagaon - PCBA",12-09-2025 07:00:00,26.349082,92.68449,OZONE,6,18,9
India,Assam,Nalbari,"Bata Chowk, Nalbari - PCBA",12-09-2025 07:00:00,26.446912,91.439057,CO,8,28,25
India,Assam,Silchar,"Tarapur, Silchar - PCBA",12-09-2025 07:00:00,24.82827,92.79525,PM2.5,29,46,37
India,Assam,Silchar,"Tarapur, Silchar - PCBA",12-09-2025 07:00:00,24.82827,92.79525,NO2,13,15,13
India,Assam,Silchar,"Tarapur, Silchar - PCBA",12-09-2025 07:00:00,24.82827,92.79525,SO2,4,22,12
India,Bihar,Muzaffarpur,"MIT-Daudpur Kothi, Muzaffarpur - BSPCB",12-09-2025 07:00:00,26.1403345,85.3650192,SO2,6,11,8
India,Bihar,Muzaffarpur,"MIT-Daudpur Kothi, Muzaffarpur - BSPCB",12-09-2025 07:00:00,26.1403345,85.3650192,OZONE,20,39,38
India,Bihar,Muzaffarpur,"Muzaffarpur Collectorate, Muzaffarpur - BSPCB",12-09-2025 07:00:00,26.1209,85.3647,PM2.5,25,52,40
India,Bihar,Muzaffarpur,"Muzaffarpur Collectorate, Muzaffarpur - BSPCB",12-09-2025 07:00:00,26.1209,85.3647,SO2,4,6,6
India,Bihar,Patna,"IGSC Planetarium Complex, Patna - BSPCB",12-09-2025 07:00:00,25.610369,85.132568,NO2,10,13,12
India,Bihar,Patna,"IGSC Planetarium Complex, Patna - BSPCB",12-09-2025 07:00:00,25.610369,85.132568,SO2,14,23,20
India,Bihar,Patna,"IGSC Planetarium Complex, Patna - BSPCB",12-09-2025 07:00:00,25.610369,85.132568,OZONE,45,48,46
India,Bihar,Patna,"Muradpur, Patna - BSPCB",12-09-2025 07:00:00,25.619651,85.147382,CO,34,64,47
India,Bihar,Patna,"Muradpur, Patna - BSPCB",12-09-2025 07:00:00,25.619651,85.147382,OZONE,5,40,5
India,Bihar,Katihar,"Mirchaibari, Katihar - BSPCB",12-09-2025 07:00:00,25.560083,87.553265,OZONE,1,35,2
India,Bihar,Kishanganj,"SDM Office_Khagra, Kishanganj - BSPCB",12-09-2025 07:00:00,26.0881305,87.93840336,PM2.5,NA,NA,NA
India,Bihar,Motihari,"Gandak Colony, Motihari - BSPCB",12-09-2025 07:00:00,26.63086,84.90051,OZONE,1,5,2
India,Bihar,Munger,"Town Hall, Munger - BSPCB",12-09-2025 07:00:00,25.376776,86.471523,NH3,4,6,6
India,Bihar,Munger,"Town Hall, Munger - BSPCB",12-09-2025 07:00:00,25.376776,86.471523,CO,18,34,31
India,Bihar,Munger,"Town Hall, Munger - BSPCB",12-09-2025 07:00:00,25.376776,86.471523,OZONE,6,12,11
India,Bihar,Muzaffarpur,"Buddha Colony, Muzaffarpur - BSPCB",12-09-2025 07:00:00,26.11442,85.39813,NH3,5,6,5
India,Bihar,Muzaffarpur,"Buddha Colony, Muzaffarpur - BSPCB",12-09-2025 07:00:00,26.11442,85.39813,SO2,1,4,3
India,Andhra_Pradesh,Anantapur,"Gulzarpet, Anantapur - APPCB",12-09-2025 07:00:00,14.675886,77.593027,PM2.5,48,96,66
India,Andhra_Pradesh,Anantapur,"Gulzarpet, Anantapur - APPCB",12-09-2025 07:00:00,14.675886,77.593027,NO2,18,22,20
India,Andhra_Pradesh,Anantapur,"Gulzarpet, Anantapur - APPCB",12-09-2025 07:00:00,14.675886,77.593027,OZONE,9,17,10
India,Andhra_Pradesh,Chittoor,"Gangineni Cheruvu, Chittoor - APPCB",12-09-2025 07:00:00,13.204880,79.097889,NH3,6,7,6
India,Andhra_Pradesh,Chittoor,"Gangineni Cheruvu, Chittoor - APPCB",12-09-2025 07:00:00,13.204880,79.097889,OZONE,46,62,56
India,Andhra_Pradesh,Kadapa,"Yerramukkapalli, Kadapa - APPCB",12-09-2025 07:00:00,14.465052,78.824187,CO,2,44,7
India,Andhra_Pradesh,Tirumala,"Toll Gate, Tirumala - APPCB",12-09-2025 07:00:00,13.67,79.35,PM2.5,10,51,29
India,Andhra_Pradesh,Tirumala,"Toll Gate, Tirumala - APPCB",12-09-2025 07:00:00,13.67,79.35,NO2,13,19,15
India,Bihar,Bettiah,"Kamalnath Nagar, Bettiah - BSPCB",12-09-2025 07:00:00,26.80365,84.51954,NO2,5,12,8
India,Bihar,Bettiah,"Kamalnath Nagar, Bettiah - BSPCB",12-09-2025 07:00:00,26.80365,84.51954,OZONE,13,28,22
India,Bihar,Bhagalpur,"DM Office_Kachari Chowk, Bhagalpur - BSPCB",12-09-2025 07:00:00,25.251013,86.989001,NH3,3,7,5
India,Bihar,Bhagalpur,"DM Office_Kachari Chowk, Bhagalpur - BSPCB",12-09-2025 07:00:00,25.251013,86.989001,CO,16,19,17
India,Bihar,Bihar Sharif,"D M Colony, Bihar Sharif - BSPCB",12-09-2025 07:00:00,25.204762,85.514960,NH3,NA,NA,NA
India,Bihar,Buxar,"Charitra Van, Buxar - BSPCB",12-09-2025 07:00:00,25.567520,83.966379,PM2.5,NA,NA,NA
India,Andhra_Pradesh,Tirupati,"Vaikuntapuram, Tirupati - APPCB",12-09-2025 07:00:00,13.615387,79.409230,PM10,NA,NA,NA
India,Andhra_Pradesh,Tirupati,"Vaikuntapuram, Tirupati - APPCB",12-09-2025 07:00:00,13.615387,79.409230,NO2,6,6,6
India,Andhra_Pradesh,Vijayawada,"HB Colony, Vijayawada - APPCB",12-09-2025 07:00:00,16.536107,80.594233,PM10,61,116,80
India,Andhra_Pradesh,Vijayawada,"Rajiv Gandhi Park, Vijayawada - APPCB",12-09-2025 07:00:00,16.509717,80.612222,NH3,4,4,4
India,Andhra_Pradesh,Vijayawada,"Rajiv Gandhi Park, Vijayawada - APPCB",12-09-2025 07:00:00,16.509717,80.612222,CO,17,40,40
India,Andhra_Pradesh,Vijayawada,"Rajiv Nagar, Vijayawada - APPCB",12-09-2025 07:00:00,16.554731,80.649110,NO2,8,8,8
India,Assam,Sivasagar,"Girls College, Sivasagar - PCBA",12-09-2025 07:00:00,26.987634,94.636574,NH3,3,5,4
India,Bihar,Arrah,"New DM Office, Arrah - BSPCB",12-09-2025 07:00:00,25.5626095,84.663264,PM10,27,28,27
India,Bihar,Arrah,"New DM Office, Arrah - BSPCB",12-09-2025 07:00:00,25.5626095,84.663264,NO2,5,9,7
India,Bihar,Arrah,"New DM Office, Arrah - BSPCB",12-09-2025 07:00:00,25.5626095,84.663264,NH3,1,1,1
India,Bihar,Arrah,"New DM Office, Arrah - BSPCB",12-09-2025 07:00:00,25.5626095,84.663264,SO2,9,10,9
India,Bihar,Begusarai,"Lohiyanagar, Begusarai - BSPCB",12-09-2025 07:00:00,25.42742023,86.13886079,SO2,5,89,30
India,Arunachal_Pradesh,Naharlagun,"Naharlagun, Naharlagun - APSPCB",12-09-2025 07:00:00,27.103358,93.679645,PM10,20,73,45
India,Arunachal_Pradesh,Naharlagun,"Naharlagun, Naharlagun - APSPCB",12-09-2025 07:00:00,27.103358,93.679645,SO2,7,8,8
India,Assam,Byrnihat,"Central Academy for SFS, Byrnihat - PCBA",12-09-2025 07:00:00,26.071318,91.87488,OZONE,19,38,20
India,Assam,Guwahati,"LGBI Airport, Guwahati - PCBA",12-09-2025 07:00:00,26.10887,91.589544,PM2.5,21,338,87
India,Bihar,Gaya,"SFTI Kusdihra, Gaya - BSPCB",12-09-2025 07:00:00,24.762518,84.982348,PM10,20,42,31
India,Bihar,Gaya,"SFTI Kusdihra, Gaya - BSPCB",12-09-2025 07:00:00,24.762518,84.982348,OZONE,9,18,10
India,Bihar,Hajipur,"Industrial Area, Hajipur - BSPCB",12-09-2025 07:00:00,25.697189,85.245900,NO2,6,33,11
India,Bihar,Katihar,"Mirchaibari, Katihar - BSPCB",12-09-2025 07:00:00,25.560083,87.553265,NH3,1,1,1
India,Andhra_Pradesh,Amaravati,"Secretariat, Amaravati - APPCB",12-09-2025 07:00:00,16.5150833,80.5181667,PM2.5,3,43,24
India,Andhra_Pradesh,Amaravati,"Secretariat, Amaravati - APPCB",12-09-2025 07:00:00,16.5150833,80.5181667,NO2,14,25,18
India,Andhra_Pradesh,Amaravati,"Secretariat, Amaravati - APPCB",12-09-2025 07:00:00,16.5150833,80.5181667,NH3,4,5,5
India,Andhra_Pradesh,Amaravati,"Secretariat, Amaravati - APPCB",12-09-2025 07:00:00,16.5150833,80.5181667,SO2,11,15,12
India,Bihar,Patna,"Samanpura, Patna - BSPCB",12-09-2025 07:00:00,25.596727,85.085624,PM2.5,43,145,82
India,Bihar,Patna,"Samanpura, Patna - BSPCB",12-09-2025 07:00:00,25.596727,85.085624,OZONE,10,34,24
India,Bihar,Purnia,"Mariam Nagar, Purnia - BSPCB",12-09-2025 07:00:00,25.366336,87.117468,OZONE,18,50,33
India,Bihar,Rajgir,"Dangi Tola, Rajgir - BSPCB",12-09-2025 07:00:00,25.03280,85.41948,PM10,14,31,23
India,Bihar,Rajgir,"Dangi Tola, Rajgir - BSPCB",12-09-2025 07:00:00,25.03280,85.41948,NO2,8,10,9
India,Bihar,Rajgir,"Dangi Tola, Rajgir - BSPCB",12-09-2025 07:00:00,25.03280,85.41948,SO2,20,22,21
India,Bihar,Saharsa,"Police Line, Saharsa - BSPCB",12-09-2025 07:00:00,25.892357,86.590325,PM10,1,126,50
India,Bihar,Saharsa,"Police Line, Saharsa - BSPCB",12-09-2025 07:00:00,25.892357,86.590325,SO2,16,17,16
India,Bihar,Samastipur,"DM Office_Kasipur, Samastipur - BSPCB",12-09-2025 07:00:00,25.859655,85.77944,PM2.5,8,360,74
India,Delhi,Delhi,"IGI Airport (T3), Delhi - IMD",12-09-2025 07:00:00,28.5627763,77.1180053,OZONE,NA,NA,NA
India,Delhi,Delhi,"IHBAS, Dilshad Garden, Delhi - CPCB",12-09-2025 07:00:00,28.6811736,77.3025234,PM2.5,23,119,70
India,Delhi,Delhi,"IHBAS, Dilshad Garden, Delhi - CPCB",12-09-2025 07:00:00,28.6811736,77.3025234,PM10,23,98,71
India,Delhi,Delhi,"IHBAS, Dilshad Garden, Delhi - CPCB",12-09-2025 07:00:00,28.6811736,77.3025234,NH3,1,3,2
India,Delhi,Delhi,"Jahangirpuri, Delhi - DPCC",12-09-2025 07:00:00,28.732820,77.170633,NH3,6,6,6
India,Delhi,Delhi,"Jahangirpuri, Delhi - DPCC",12-09-2025 07:00:00,28.732820,77.170633,SO2,4,16,9
India,Delhi,Delhi,"Jawaharlal Nehru Stadium, Delhi - DPCC",12-09-2025 07:00:00,28.580280,77.233829,PM10,68,157,114
India,Delhi,Delhi,"Jawaharlal Nehru Stadium, Delhi - DPCC",12-09-2025 07:00:00,28.580280,77.233829,NO2,52,129,83
India,Delhi,Delhi,"Anand Vihar, Delhi - DPCC",12-09-2025 07:00:00,28.647622,77.3158090,NH3,2,5,4
India,Delhi,Delhi,"Anand Vihar, Delhi - DPCC",12-09-2025 07:00:00,28.647622,77.3158090,CO,62,92,80
India,Delhi,Delhi,"Ashok Vihar, Delhi - DPCC",12-09-2025 07:00:00,28.695381,77.181665,NO2,8,61,25
India,Delhi,Delhi,"Aya Nagar, Delhi - IMD",12-09-2025 07:00:00,28.4706914,77.1099364,PM10,41,95,66
India,Delhi,Delhi,"Bawana, Delhi - DPCC",12-09-2025 07:00:00,28.776200,77.051074,NH3,2,6,4
India,Delhi,Delhi,"Bawana, Delhi - DPCC",12-09-2025 07:00:00,28.776200,77.051074,SO2,6,11,8
India,Delhi,Delhi,"Bawana, Delhi - DPCC",12-09-2025 07:00:00,28.776200,77.051074,CO,82,106,90
India,Delhi,Delhi,"CRRI Mathura Road, Delhi - IMD",12-09-2025 07:00:00,28.5512005,77.2735737,PM10,56,200,138
India,Delhi,Delhi,"Chandni Chowk, Delhi - IITM",12-09-2025 07:00:00,28.656756,77.227234,PM2.5,NA,NA,NA
India,Delhi,Delhi,"Chandni Chowk, Delhi - IITM",12-09-2025 07:00:00,28.656756,77.227234,CO,54,66,62
India,Delhi,Delhi,"Chandni Chowk, Delhi - IITM",12-09-2025 07:00:00,28.656756,77.227234,OZONE,5,16,6
India,Delhi,Delhi,"DTU, Delhi - CPCB",12-09-2025 07:00:00,28.7500499,77.1112615,NO2,NA,NA,NA
India,Delhi,Delhi,"DTU, Delhi - CPCB",12-09-2025 07:00:00,28.7500499,77.1112615,SO2,26,31,28
India,Delhi,Delhi,"DTU, Delhi - CPCB",12-09-2025 07:00:00,28.7500499,77.1112615,CO,14,28,24
India,Delhi,Delhi,"Dr. Karni Singh Shooting Range, Delhi - DPCC",12-09-2025 07:00:00,28.498571,77.264840,NH3,3,7,4
India,Delhi,Delhi,"IGI Airport (T3), Delhi - IMD",12-09-2025 07:00:00,28.5627763,77.1180053,PM10,70,135,100
India,Bihar,Samastipur,"DM Office_Kasipur, Samastipur - BSPCB",12-09-2025 07:00:00,25.859655,85.77944,SO2,15,31,23
India,Bihar,Sasaram,"Dada Peer, Sasaram - BSPCB",12-09-2025 07:00:00,24.952822,84.002396,PM10,32,110,71
India,Bihar,Siwan,"Chitragupta Nagar, Siwan - BSPCB",12-09-2025 07:00:00,26.2271665,84.3570427,PM2.5,5,48,24
India,Bihar,Siwan,"Chitragupta Nagar, Siwan - BSPCB",12-09-2025 07:00:00,26.2271665,84.3570427,NO2,1,1,1
India,Bihar,Siwan,"Chitragupta Nagar, Siwan - BSPCB",12-09-2025 07:00:00,26.2271665,84.3570427,SO2,6,8,7
India,Chandigarh,Chandigarh,"Sector-25, Chandigarh - CPCC",12-09-2025 07:00:00,30.751462,76.762879,PM10,44,84,62
India,Chhattisgarh,Raipur,"Siltara Phase-II, Raipur - CECB",12-09-2025 07:00:00,21.371751,81.664929,NH3,3,3,3
India,Chhattisgarh,Tumidih,"OP Jindal Industrial Park, Tumidih - CECB",12-09-2025 07:00:00,22.06631475,83.33820077,NH3,1,2,1
India,Chhattisgarh,Tumidih,"OP Jindal Industrial Park, Tumidih - CECB",12-09-2025 07:00:00,22.06631475,83.33820077,OZONE,5,29,7
India,Delhi,Delhi,"Alipur, Delhi - DPCC",12-09-2025 07:00:00,28.815329,77.153010,PM2.5,30,77,51
India,Delhi,Delhi,"Alipur, Delhi - DPCC",12-09-2025 07:00:00,28.815329,77.153010,PM10,66,139,95
India,Delhi,Delhi,"Major Dhyan Chand National Stadium, Delhi - DPCC",12-09-2025 07:00:00,28.611281,77.237738,CO,8,54,26
India,Delhi,Delhi,"Mandir Marg, Delhi - DPCC",12-09-2025 07:00:00,28.636429,77.201067,NO2,NA,NA,NA
India,Delhi,Delhi,"NSIT Dwarka, Delhi - CPCB",12-09-2025 07:00:00,28.60909,77.0325413,NH3,6,9,7
India,Delhi,Delhi,"NSIT Dwarka, Delhi - CPCB",12-09-2025 07:00:00,28.60909,77.0325413,CO,12,136,37
India,Delhi,Delhi,"Najafgarh, Delhi - DPCC",12-09-2025 07:00:00,28.570173,76.933762,PM2.5,18,40,28
India,Chhattisgarh,Chhal,"Nawapara SECL Colony, Chhal - CECB",12-09-2025 07:00:00,22.118125,83.140608,PM2.5,8,71,23
India,Chhattisgarh,Chhal,"Nawapara SECL Colony, Chhal - CECB",12-09-2025 07:00:00,22.118125,83.140608,OZONE,16,54,19
India,Chhattisgarh,Kunjemura,"OP Jindal School, Kunjemura - CECB",12-09-2025 07:00:00,22.126650,83.483212,PM10,6,21,14
India,Chhattisgarh,Milupara,"Govt. Higher Secondary School, Milupara - CECB",12-09-2025 07:00:00,22.1910172,83.5197009,NH3,NA,NA,NA
India,Chhattisgarh,Bhilai,"32Bungalows, Bhilai - CECB",12-09-2025 07:00:00,21.194815,81.314770,PM10,19,42,28
India,Chhattisgarh,Bhilai,"32Bungalows, Bhilai - CECB",12-09-2025 07:00:00,21.194815,81.314770,NO2,10,66,27
India,Chhattisgarh,Bhilai,"Civic Center, Bhilai - Bhilai Steel Plant",12-09-2025 07:00:00,21.185571,81.343175,PM2.5,22,66,36
India,Chhattisgarh,Bhilai,"Civic Center, Bhilai - Bhilai Steel Plant",12-09-2025 07:00:00,21.185571,81.343175,NO2,8,10,8
India,Chhattisgarh,Bhilai,"Civic Center, Bhilai - Bhilai Steel Plant",12-09-2025 07:00:00,21.185571,81.343175,NH3,3,3,3
India,Himachal Pradesh,Baddi,"HIMUDA Complex Phase-1, Baddi - HPPCB",12-09-2025 07:00:00,30.943887,76.801991,PM2.5,35,93,56
India,Himachal Pradesh,Baddi,"HIMUDA Complex Phase-1, Baddi - HPPCB",12-09-2025 07:00:00,30.943887,76.801991,CO,40,56,48
India,Jammu_and_Kashmir,Srinagar,"Rajbagh, Srinagar - JKSPCB",12-09-2025 07:00:00,34.066206,74.819820,PM10,32,49,41
India,Jammu_and_Kashmir,Srinagar,"Rajbagh, Srinagar - JKSPCB",12-09-2025 07:00:00,34.066206,74.819820,SO2,NA,NA,NA
India,Jharkhand,Dhanbad,"Sardar Patel Nagar, Dhanbad - JSPCB",12-09-2025 07:00:00,23.80569,86.44268,PM2.5,NA,NA,NA
India,Jharkhand,Dhanbad,"Sardar Patel Nagar, Dhanbad - JSPCB",12-09-2025 07:00:00,23.80569,86.44268,PM10,NA,NA,NA
India,Jharkhand,Jorapokhar,"Tata Stadium, Jorapokhar - JSPCB",12-09-2025 07:00:00,23.707909,86.414670,PM10,NA,NA,NA
India,Jharkhand,Jorapokhar,"Tata Stadium, Jorapokhar - JSPCB",12-09-2025 07:00:00,23.707909,86.414670,SO2,NA,NA,NA
India,Karnataka,Bagalkot,"Vidayagiri, Bagalkot - KSPCB",12-09-2025 07:00:00,16.172806,75.659694,PM10,42,43,42
India,Gujarat,Gandhinagar,"IIPHG Lekawada, Gandhinagar - IITM",12-09-2025 07:00:00,23.243639,72.68994,CO,14,60,35
India,Gujarat,Gandhinagar,"IIPHG Lekawada, Gandhinagar - IITM",12-09-2025 07:00:00,23.243639,72.68994,OZONE,NA,NA,NA
India,Gujarat,Nandesari,"GIDC, Nandesari - Nandesari Ind. Association",12-09-2025 07:00:00,22.410802,73.097923,PM2.5,60,412,164
India,Gujarat,Vapi,"Phase-1 GIDC, Vapi - GPCB",12-09-2025 07:00:00,20.362421,72.918013,PM2.5,44,124,69
India,Gujarat,Vatva,"Phase-4 GIDC, Vatva - GPCB",12-09-2025 07:00:00,22.969611,72.643500,PM2.5,21,37,29
India,Gujarat,Vatva,"Phase-4 GIDC, Vatva - GPCB",12-09-2025 07:00:00,22.969611,72.643500,NH3,2,3,2
India,Gujarat,Vatva,"Phase-4 GIDC, Vatva - GPCB",12-09-2025 07:00:00,22.969611,72.643500,OZONE,6,32,12
India,Haryana,Gurugram,"NISE Gwal Pahari, Gurugram - IMD",12-09-2025 07:00:00,28.422681,77.148944,PM2.5,24,94,57
India,Delhi,Delhi,"Patparganj, Delhi - DPCC",12-09-2025 07:00:00,28.623763,77.287209,SO2,2,12,6
India,Delhi,Delhi,"Patparganj, Delhi - DPCC",12-09-2025 07:00:00,28.623763,77.287209,OZONE,2,57,5
India,Delhi,Delhi,"Punjabi Bagh, Delhi - DPCC",12-09-2025 07:00:00,28.674045,77.131023,OZONE,16,60,21
India,Delhi,Delhi,"Pusa, Delhi - DPCC",12-09-2025 07:00:00,28.639652,77.146275,PM2.5,28,65,43
India,Delhi,Delhi,"Pusa, Delhi - DPCC",12-09-2025 07:00:00,28.639652,77.146275,PM10,73,188,129
India,Delhi,Delhi,"Pusa, Delhi - IMD",12-09-2025 07:00:00,28.636110,77.173332,PM2.5,1,365,81
India,Delhi,Delhi,"R K Puram, Delhi - DPCC",12-09-2025 07:00:00,28.563262,77.186937,CO,12,70,29
India,Delhi,Delhi,"R K Puram, Delhi - DPCC",12-09-2025 07:00:00,28.563262,77.186937,OZONE,17,60,19
India,Delhi,Delhi,"Rohini, Delhi - DPCC",12-09-2025 07:00:00,28.732528,77.119920,PM2.5,28,80,44
India,Delhi,Delhi,"Najafgarh, Delhi - DPCC",12-09-2025 07:00:00,28.570173,76.933762,CO,6,24,20
India,Delhi,Delhi,"Narela, Delhi - DPCC",12-09-2025 07:00:00,28.822836,77.101981,PM2.5,23,96,49
India,Delhi,Delhi,"Narela, Delhi - DPCC",12-09-2025 07:00:00,28.822836,77.101981,NH3,NA,NA,NA
India,Delhi,Delhi,"Narela, Delhi - DPCC",12-09-2025 07:00:00,28.822836,77.101981,SO2,NA,NA,NA
India,Delhi,Delhi,"Nehru Nagar, Delhi - DPCC",12-09-2025 07:00:00,28.567890,77.250515,PM10,58,131,90
India,Delhi,Delhi,"Nehru Nagar, Delhi - DPCC",12-09-2025 07:00:00,28.567890,77.250515,NO2,6,33,16
India,Delhi,Delhi,"Okhla Phase-2, Delhi - DPCC",12-09-2025 07:00:00,28.530785,77.271255,CO,38,102,61
India,Delhi,Delhi,"Patparganj, Delhi - DPCC",12-09-2025 07:00:00,28.623763,77.287209,PM10,79,131,111
India,Delhi,Delhi,"Patparganj, Delhi - DPCC",12-09-2025 07:00:00,28.623763,77.287209,NO2,14,69,36
India,Delhi,Delhi,"Shadipur, Delhi - CPCB",12-09-2025 07:00:00,28.6514781,77.1473105,SO2,5,15,12
India,Delhi,Delhi,"Sirifort, Delhi - CPCB",12-09-2025 07:00:00,28.5504249,77.2159377,CO,4,56,39
India,Delhi,Delhi,"Sonia Vihar, Delhi - DPCC",12-09-2025 07:00:00,28.710508,77.249485,PM2.5,20,65,38
India,Delhi,Delhi,"Sonia Vihar, Delhi - DPCC",12-09-2025 07:00:00,28.710508,77.249485,PM10,63,124,91
India,Delhi,Delhi,"Sonia Vihar, Delhi - DPCC",12-09-2025 07:00:00,28.710508,77.249485,NH3,6,9,7
India,Delhi,Delhi,"Sonia Vihar, Delhi - DPCC",12-09-2025 07:00:00,28.710508,77.249485,SO2,14,19,16
India,Delhi,Delhi,"Sonia Vihar, Delhi - DPCC",12-09-2025 07:00:00,28.710508,77.249485,CO,44,93,66
India,Delhi,Delhi,"Sri Aurobindo Marg, Delhi - DPCC",12-09-2025 07:00:00,28.531346,77.190156,NO2,2,16,9
India,Gujarat,Ahmedabad,"SAC ISRO Satellite, Ahmedabad - IITM",12-09-2025 07:00:00,23.023389,72.515201,SO2,3,5,4
India,Gujarat,Ahmedabad,"SAC ISRO Satellite, Ahmedabad - IITM",12-09-2025 07:00:00,23.023389,72.515201,CO,4,57,14
India,Gujarat,Ahmedabad,"SVPI Airport Hansol, Ahmedabad - IITM",12-09-2025 07:00:00,23.076793,72.627874,SO2,2,34,9
India,Gujarat,Ahmedabad,"SVPI Airport Hansol, Ahmedabad - IITM",12-09-2025 07:00:00,23.076793,72.627874,OZONE,1,24,4
India,Gujarat,Ankleshwar,"GIDC, Ankleshwar - GPCB",12-09-2025 07:00:00,21.613267,73.010555,PM2.5,36,76,51
India,Gujarat,Ankleshwar,"GIDC, Ankleshwar - GPCB",12-09-2025 07:00:00,21.613267,73.010555,SO2,65,65,65
India,Gujarat,Ahmedabad,"Maninagar, Ahmedabad - GPCB",12-09-2025 07:00:00,23.002657,72.591912,SO2,NA,NA,NA
India,Gujarat,Ahmedabad,"Raikhad, Ahmedabad - IITM",12-09-2025 07:00:00,23.020509,72.579261,PM2.5,26,126,51
India,Gujarat,Ahmedabad,"Raikhad, Ahmedabad - IITM",12-09-2025 07:00:00,23.020509,72.579261,SO2,9,12,10
India,Gujarat,Ahmedabad,"Rakhial, Ahmedabad - IITM",12-09-2025 07:00:00,23.016834,72.625775,CO,24,97,38
India,Gujarat,Ahmedabad,"SAC ISRO Bopal, Ahmedabad - IITM",12-09-2025 07:00:00,23.041137,72.456691,PM2.5,29,130,53
India,Gujarat,Ahmedabad,"SAC ISRO Bopal, Ahmedabad - IITM",12-09-2025 07:00:00,23.041137,72.456691,CO,20,52,30
India,Delhi,Delhi,"Wazirpur, Delhi - DPCC",12-09-2025 07:00:00,28.699793,77.165453,PM2.5,33,81,52
India,Gujarat,Ahmedabad,"Chandkheda, Ahmedabad - IITM",12-09-2025 07:00:00,23.107969,72.574648,PM2.5,17,41,29
India,Gujarat,Ahmedabad,"Chandkheda, Ahmedabad - IITM",12-09-2025 07:00:00,23.107969,72.574648,NO2,8,43,23
India,Gujarat,Ahmedabad,"Chandkheda, Ahmedabad - IITM",12-09-2025 07:00:00,23.107969,72.574648,NH3,3,14,8
India,Gujarat,Ahmedabad,"Maninagar, Ahmedabad - GPCB",12-09-2025 07:00:00,23.002657,72.591912,PM2.5,NA,NA,NA
India,Karnataka,Bengaluru,"Jayanagar 5th Block, Bengaluru - KSPCB",12-09-2025 07:00:00,12.920984,77.584908,PM10,28,72,51
India,Karnataka,Bengaluru,"Jayanagar 5th Block, Bengaluru - KSPCB",12-09-2025 07:00:00,12.920984,77.584908,NO2,16,77,35
India,Karnataka,Bengaluru,"Jigani, Bengaluru - KSPCB",12-09-2025 07:00:00,12.7816279,77.6299145,PM10,NA,NA,NA
India,Karnataka,Bengaluru,"Jigani, Bengaluru - KSPCB",12-09-2025 07:00:00,12.7816279,77.6299145,NO2,NA,NA,NA
India,Karnataka,Bengaluru,"RVCE-Mailasandra, Bengaluru - KSPCB",12-09-2025 07:00:00,12.921418,77.502466,PM10,71,85,76
India,Karnataka,Bengaluru,"RVCE-Mailasandra, Bengaluru - KSPCB",12-09-2025 07:00:00,12.921418,77.502466,CO,22,54,31
India,Karnataka,Bengaluru,"RVCE-Mailasandra, Bengaluru - KSPCB",12-09-2025 07:00:00,12.921418,77.502466,OZONE,21,22,21
India,Karnataka,Bengaluru,"Sanegurava Halli, Bengaluru - KSPCB",12-09-2025 07:00:00,12.990328,77.5431385,PM10,39,56,40
India,Karnataka,Bengaluru,"Shivapura_Peenya, Bengaluru - KSPCB",12-09-2025 07:00:00,13.0246342,77.5080115,NH3,4,4,4
India,Karnataka,Bidar,"Naubad, Bidar - KSPCB",12-09-2025 07:00:00,17.930306,77.482194,NO2,NA,NA,NA
India,Karnataka,Chamarajanagar,"Urban, Chamarajanagar - KSPCB",12-09-2025 07:00:00,11.55358,76.55521,NH3,1,3,2
India,Karnataka,Chamarajanagar,"Urban, Chamarajanagar - KSPCB",12-09-2025 07:00:00,11.55358,76.55521,CO,15,120,33
India,Karnataka,Chamarajanagar,"Urban, Chamarajanagar - KSPCB",12-09-2025 07:00:00,11.55358,76.55521,OZONE,15,38,25
India,Karnataka,Chikkaballapur,"Chikkaballapur Rural, Chikkaballapur - KSPCB",12-09-2025 07:00:00,13.428828,77.731418,PM2.5,13,40,25
India,Karnataka,Chikkaballapur,"Chikkaballapur Rural, Chikkaballapur - KSPCB",12-09-2025 07:00:00,13.428828,77.731418,NH3,1,2,1
India,Karnataka,Chikkamagaluru,"Kalyana Nagara, Chikkamagaluru - KSPCB",12-09-2025 07:00:00,13.328028,75.797056,PM10,29,68,40
India,Karnataka,Davanagere,"Devaraj Urs Badavane, Davanagere - KSPCB",12-09-2025 07:00:00,14.475800,75.905200,NO2,11,21,15
India,Karnataka,Dharwad,"Kalabhavan, Dharwad - KSPCB",12-09-2025 07:00:00,15.459706,75.008381,CO,16,48,25
India,Karnataka,Dharwad,"Kalabhavan, Dharwad - KSPCB",12-09-2025 07:00:00,15.459706,75.008381,OZONE,13,25,14
India,Karnataka,Hassan,"B.Katihalli, Hassan - KSPCB",12-09-2025 07:00:00,13.008556,76.125258,NH3,1,3,2
India,Karnataka,Hassan,"B.Katihalli, Hassan - KSPCB",12-09-2025 07:00:00,13.008556,76.125258,CO,12,44,27
India,Karnataka,Haveri,"Ashwini Nagar, Haveri - KSPCB",12-09-2025 07:00:00,14.791800,75.389600,NH3,NA,NA,NA
India,Karnataka,Haveri,"Ashwini Nagar, Haveri - KSPCB",12-09-2025 07:00:00,14.791800,75.389600,CO,25,26,25
India,Karnataka,Hubballi,"Lingaraj Nagar, Hubballi - KSPCB",12-09-2025 07:00:00,15.3714823,75.1160168,PM2.5,35,42,38
India,Karnataka,Kalaburagi,"Lal Bahadur Shastri Nagar, Kalaburagi - KSPCB",12-09-2025 07:00:00,17.321993,76.822628,NO2,12,12,12
India,Kerala,Eloor,"Udyogamandal, Eloor - Kerala PCB",12-09-2025 07:00:00,10.073232,76.302765,PM2.5,54,240,94
India,Kerala,Eloor,"Udyogamandal, Eloor - Kerala PCB",12-09-2025 07:00:00,10.073232,76.302765,CO,11,115,35
India,Kerala,Eloor,"Udyogamandal, Eloor - Kerala PCB",12-09-2025 07:00:00,10.073232,76.302765,OZONE,11,17,12
India,Kerala,Kannur,"Thavakkara, Kannur - Kerala PCB",12-09-2025 07:00:00,11.875000,75.373200,PM2.5,NA,NA,NA
India,Kerala,Kannur,"Thavakkara, Kannur - Kerala PCB",12-09-2025 07:00:00,11.875000,75.373200,NH3,NA,NA,NA
India,Kerala,Kollam,"Polayathode, Kollam - Kerala PCB",12-09-2025 07:00:00,8.8787,76.6073,PM2.5,21,26,24
India,Kerala,Thiruvananthapuram,"Kariavattom, Thiruvananthapuram - Kerala PCB",12-09-2025 07:00:00,8.563700,76.886500,PM10,67,75,71
India,Kerala,Thrissur,"Corporation Ground, Thrissur - Kerala PCB",12-09-2025 07:00:00,10.532400,76.215900,PM10,51,61,55
India,Madhya Pradesh,Dewas,"Bhopal Chauraha, Dewas - MPPCB",12-09-2025 07:00:00,22.9682591,76.064118,SO2,24,28,26
India,Madhya Pradesh,Dewas,"Bhopal Chauraha, Dewas - MPPCB",12-09-2025 07:00:00,22.9682591,76.064118,OZONE,28,30,30
India,Madhya Pradesh,Gwalior,"City Center, Gwalior - MPPCB",12-09-2025 07:00:00,26.203442,78.193251,PM2.5,23,52,34
India,Madhya Pradesh,Gwalior,"City Center, Gwalior - MPPCB",12-09-2025 07:00:00,26.203442,78.193251,PM10,42,70,52
India,Madhya Pradesh,Gwalior,"City Center, Gwalior - MPPCB",12-09-2025 07:00:00,26.203442,78.193251,OZONE,23,57,23
India,Madhya Pradesh,Gwalior,"Maharaj Bada, Gwalior - MPPCB",12-09-2025 07:00:00,26.200388,78.147714,NO2,8,28,13
India,Madhya Pradesh,Indore,"Airport Area, Indore - IMC",12-09-2025 07:00:00,22.7289,75.8076,SO2,21,23,22
India,Karnataka,Ramanagara,"Vijay Nagar, Ramanagara - KSPCB",12-09-2025 07:00:00,12.733409,77.298051,PM10,NA,NA,NA
India,Karnataka,Ramanagara,"Vijay Nagar, Ramanagara - KSPCB",12-09-2025 07:00:00,12.733409,77.298051,NH3,NA,NA,NA
India,Karnataka,Tumakuru,"Thimmalapura, Tumakuru - KSPCB",12-09-2025 07:00:00,13.377516,77.099072,SO2,NA,NA,NA
India,Karnataka,Vijayapura,"Ibrahimpur, Vijayapura - KSPCB",12-09-2025 07:00:00,16.802639,75.722694,PM2.5,30,38,37
India,Karnataka,Yadgir,"Collector Office, Yadgir - KSPCB",12-09-2025 07:00:00,16.7602,77.1428,PM2.5,3,44,26
India,Karnataka,Yadgir,"Collector Office, Yadgir - KSPCB",12-09-2025 07:00:00,16.7602,77.1428,NH3,2,5,2
India,Karnataka,Yadgir,"Collector Office, Yadgir - KSPCB",12-09-2025 07:00:00,16.7602,77.1428,CO,19,64,24
India,Karnataka,Bagalkot,"Vidayagiri, Bagalkot - KSPCB",12-09-2025 07:00:00,16.172806,75.659694,NH3,1,2,1
India,Karnataka,Bengaluru,"BTM Layout, Bengaluru - CPCB",12-09-2025 07:00:00,12.9135218,77.5950804,PM2.5,22,35,27
India,Karnataka,Bengaluru,"BTM Layout, Bengaluru - CPCB",12-09-2025 07:00:00,12.9135218,77.5950804,CO,19,28,22
India,Karnataka,Bengaluru,"Bapuji Nagar, Bengaluru - KSPCB",12-09-2025 07:00:00,12.951913,77.539784,OZONE,3,29,10
India,Karnataka,Bengaluru,"City Railway Station, Bengaluru - KSPCB",12-09-2025 07:00:00,12.9756843,77.5660749,SO2,6,12,9
India,Karnataka,Kalaburagi,"Mahatma Basaveswar Colony, Kalaburgi - KSPCB",12-09-2025 07:00:00,17.336318,76.847397,PM10,10,24,17
India,Karnataka,Karwar,"KHB Colony, Karwar - KSPCB",12-09-2025 07:00:00,14.816666,74.141003,PM10,3,25,13
India,Karnataka,Koppal,"Diwator Nagar, Koppal - KSPCB",12-09-2025 07:00:00,15.347630,76.181767,NO2,NA,NA,NA
India,Karnataka,Madikeri,"Stuart Hill, Madikeri - KSPCB",12-09-2025 07:00:00,12.415911,75.735050,PM2.5,13,35,25
India,Karnataka,Madikeri,"Stuart Hill, Madikeri - KSPCB",12-09-2025 07:00:00,12.415911,75.735050,SO2,7,8,8
India,Kerala,Thrissur,"Corporation Ground, Thrissur - Kerala PCB",12-09-2025 07:00:00,10.532400,76.215900,CO,16,29,26
India,Madhya Pradesh,Bhopal,"Paryavaran Parisar, Bhopal - MPPCB",12-09-2025 07:00:00,23.210494,77.425409,NO2,8,44,15
India,Madhya Pradesh,Bhopal,"Paryavaran Parisar, Bhopal - MPPCB",12-09-2025 07:00:00,23.210494,77.425409,NH3,3,5,4
India,Madhya Pradesh,Bhopal,"T T Nagar, Bhopal - MPPCB",12-09-2025 07:00:00,23.233584,77.400574,SO2,4,19,13
India,Madhya Pradesh,Indore,"Chhoti Gwaltoli, Indore - MPPCB",12-09-2025 07:00:00,22.4310,75.5213,OZONE,23,48,38
India,Madhya Pradesh,Indore,"Maguda Nagar, Indore - IMC",12-09-2025 07:00:00,22.7524,75.8872,NO2,2,2,2
India,Madhya Pradesh,Indore,"Maguda Nagar, Indore - IMC",12-09-2025 07:00:00,22.7524,75.8872,SO2,36,39,38
India,Madhya Pradesh,Indore,"Regional Park, Indore - IMC",12-09-2025 07:00:00,22.6780,75.8559,PM2.5,26,46,33
India,Madhya Pradesh,Indore,"Regional Park, Indore - IMC",12-09-2025 07:00:00,22.6780,75.8559,OZONE,5,8,6
India,Madhya Pradesh,Indore,"Residency Area, Indore - IMC",12-09-2025 07:00:00,22.7084,75.8815,NO2,12,18,15
India,Madhya Pradesh,Jabalpur,"Govindh Bhavan Colony, Jabalpur - JMC",12-09-2025 07:00:00,23.163174,79.973061,PM10,18,70,46
India,Madhya Pradesh,Jabalpur,"Govindh Bhavan Colony, Jabalpur - JMC",12-09-2025 07:00:00,23.163174,79.973061,NO2,35,37,36
India,Madhya Pradesh,Jabalpur,"Gupteshwar, Jabalpur - JMC",12-09-2025 07:00:00,23.142888,79.916147,NO2,10,27,16
India,Maharashtra,Akola,"Ramdaspeth, Akola - MPCB",12-09-2025 07:00:00,20.719516,77.000253,NO2,14,28,21
India,Maharashtra,Amravati,"Shri Shivaji Science College, Amravati - MPCB",12-09-2025 07:00:00,20.939198,77.765701,PM2.5,36,67,51
India,Maharashtra,Aurangabad,"MIDC Chilkalthana, Aurangabad - MPCB",12-09-2025 07:00:00,19.875620,75.387310,PM2.5,NA,NA,NA
India,Maharashtra,Aurangabad,"More Chowk Waluj, Aurangabad - MPCB",12-09-2025 07:00:00,19.8389439,75.244448,PM10,28,75,50
India,Maharashtra,Aurangabad,"More Chowk Waluj, Aurangabad - MPCB",12-09-2025 07:00:00,19.8389439,75.244448,OZONE,50,59,53
India,Maharashtra,Aurangabad,"Rachnakar Colony, Aurangabad - MPCB",12-09-2025 07:00:00,19.863756,75.321188,PM2.5,20,69,40
India,Maharashtra,Aurangabad,"Rachnakar Colony, Aurangabad - MPCB",12-09-2025 07:00:00,19.863756,75.321188,NO2,15,23,19
India,Maharashtra,Aurangabad,"Rachnakar Colony, Aurangabad - MPCB",12-09-2025 07:00:00,19.863756,75.321188,NH3,2,5,3
India,Maharashtra,Aurangabad,"Rachnakar Colony, Aurangabad - MPCB",12-09-2025 07:00:00,19.863756,75.321188,OZONE,12,38,14
India,Maharashtra,Badlapur,"Katrap, Badlapur - MPCB",12-09-2025 07:00:00,19.16485,73.23409,CO,26,41,32
India,Maharashtra,Belapur,"CBD Belapur, Belapur - MPCB",12-09-2025 07:00:00,19.0243902,73.0406721,NH3,1,5,3
India,Maharashtra,Belapur,"CBD Belapur, Belapur - MPCB",12-09-2025 07:00:00,19.0243902,73.0406721,SO2,1,6,3
India,Maharashtra,Bhiwandi,"Gokul Nagar, Bhiwandi - MPCB",12-09-2025 07:00:00,19.309073,73.057223,CO,27,43,37
India,Maharashtra,Boisar,"Khaira, Boisar - MPCB",12-09-2025 07:00:00,19.786089,72.757971,PM10,34,152,93
India,Maharashtra,Boisar,"Khaira, Boisar - MPCB",12-09-2025 07:00:00,19.786089,72.757971,SO2,14,15,14
India,Maharashtra,Boisar,"Khaira, Boisar - MPCB",12-09-2025 07:00:00,19.786089,72.757971,CO,26,88,44
India,Madhya Pradesh,Pithampur,"Sector-2 Industrial Area, Pithampur - MPPCB",12-09-2025 07:00:00,22.624758,75.675238,CO,20,24,20
India,Madhya Pradesh,Ratlam,"Shasthri Nagar, Ratlam - IPCA Lab",12-09-2025 07:00:00,23.331731,75.045981,NO2,34,36,35
India,Madhya Pradesh,Sagar,"Civil Lines, Sagar - MPPCB",12-09-2025 07:00:00,23.838586,78.759431,PM10,76,289,103
India,Madhya Pradesh,Sagar,"Civil Lines, Sagar - MPPCB",12-09-2025 07:00:00,23.838586,78.759431,SO2,3,11,7
India,Madhya Pradesh,Singrauli,"Suryakiran Bhawan NCL, Singrauli - MPPCB",12-09-2025 07:00:00,24.108970,82.645580,CO,12,16,13
India,Maharashtra,Ahmednagar,"Tarakpur, Ahmednagar - MPCB",12-09-2025 07:00:00,19.10122,74.73339,NH3,4,8,6
India,Maharashtra,Chandrapur,"Chauhan Colony, Chandrapur - MPCB",12-09-2025 07:00:00,19.962900,79.298714,OZONE,19,19,19
India,Maharashtra,Chandrapur,"MIDC Khutala, Chandrapur - MPCB",12-09-2025 07:00:00,19.9775302,79.2337086,PM2.5,9,55,33
India,Maharashtra,Chandrapur,"MIDC Khutala, Chandrapur - MPCB",12-09-2025 07:00:00,19.9775302,79.2337086,PM10,20,109,53
India,Maharashtra,Jalgaon,"Prabhat Colony, Jalgaon - MPCB",12-09-2025 07:00:00,21.001264,75.565602,PM10,33,61,52
India,Maharashtra,Jalna,"Old MIDC, Jalna - MPCB",12-09-2025 07:00:00,19.854616,75.905894,NO2,37,50,44
India,Maharashtra,Jalna,"Old MIDC, Jalna - MPCB",12-09-2025 07:00:00,19.854616,75.905894,SO2,NA,NA,NA
