country,state,city,station,last_update,latitude,longitude,pollutant_id,min_value,max_value,avg_value
India,Assam,Sivasagar,"Girls College, Sivasagar - PCBA",18-01-2026 08:00:00,26.987634,94.636574,NO2,29,50,38
India,Assam,Sivasagar,"Girls College, Sivasagar - PCBA",18-01-2026 08:00:00,26.987634,94.636574,SO2,12,15,13
India,Assam,Sivasagar,"Girls College, Sivasagar - PCBA",18-01-2026 08:00:00,26.987634,94.636574,OZONE,3,92,4
India,Bihar,Araria,"Kharahiya Basti, Araria - BSPCB",18-01-2026 08:00:00,26.146529,87.454184,PM2.5,32,308,162
India,Bihar,Araria,"Kharahiya Basti, Araria - BSPCB",18-01-2026 08:00:00,26.146529,87.454184,SO2,9,22,15
India,Bihar,Arrah,"New DM Office, Arrah - BSPCB",18-01-2026 08:00:00,25.5626095,84.663264,NH3,1,1,1
India,Bihar,Arrah,"New DM Office, Arrah - BSPCB",18-01-2026 08:00:00,25.5626095,84.663264,OZONE,7,23,11
India,Bihar,Aurangabad,"Gurdeo Nagar, Aurangabad - BSPCB",18-01-2026 08:00:00,24.75746,84.366208,PM2.5,NA,NA,NA
India,Bihar,Aurangabad,"Gurdeo Nagar, Aurangabad - BSPCB",18-01-2026 08:00:00,24.75746,84.366208,SO2,2,14,9
India,Bihar,Begusarai,"Lohiyanagar, Begusarai - BSPCB",18-01-2026 08:00:00,25.42742023,86.13886079,NO2,11,15,13
India,Bihar,Begusarai,"Lohiyanagar, Begusarai - BSPCB",18-01-2026 08:00:00,25.42742023,86.13886079,SO2,26,32,29
India,Bihar,Bettiah,"Kamalnath Nagar, Bettiah - BSPCB",18-01-2026 08:00:00,26.80365,84.51954,PM10,39,154,86
India,Bihar,Bettiah,"Kamalnath Nagar, Bettiah - BSPCB",18-01-2026 08:00:00,26.80365,84.51954,SO2,7,26,16
India,Bihar,Bhagalpur,"DM Office_Kachari Chowk, Bhagalpur - BSPCB",18-01-2026 08:00:00,25.251013,86.989001,PM10,95,138,120
India,Bihar,Bhagalpur,"DM Office_Kachari Chowk, Bhagalpur - BSPCB",18-01-2026 08:00:00,25.251013,86.989001,NO2,6,13,9
India,Bihar,Bhagalpur,"DM Office_Kachari Chowk, Bhagalpur - BSPCB",18-01-2026 08:00:00,25.251013,86.989001,NH3,1,1,1
India,Bihar,Bhagalpur,"Mayaganj, Bhagalpur - BSPCB",18-01-2026 08:00:00,25.265194,87.012947,SO2,43,57,49
India,Bihar,Bhagalpur,"Mayaganj, Bhagalpur - BSPCB",18-01-2026 08:00:00,25.265194,87.012947,CO,64,86,78
India,Bihar,Bhagalpur,"Mayaganj, Bhagalpur - BSPCB",18-01-2026 08:00:00,25.265194,87.012947,OZONE,12,29,16
India,Bihar,Bihar Sharif,"D M Colony, Bihar Sharif - BSPCB",18-01-2026 08:00:00,25.204762,85.514960,CO,2,86,4
India,Bihar,Chhapra,"Darshan Nagar, Chhapra - BSPCB",18-01-2026 08:00:00,25.7808257,84.7446768,PM10,71,184,121
India,Bihar,Chhapra,"Darshan Nagar, Chhapra - BSPCB",18-01-2026 08:00:00,25.7808257,84.7446768,NO2,1,2,1
India,Bihar,Chhapra,"Darshan Nagar, Chhapra - BSPCB",18-01-2026 08:00:00,25.7808257,84.7446768,OZONE,13,21,17
India,Bihar,Gaya,"Collectorate, Gaya - BSPCB",18-01-2026 08:00:00,24.7955,84.9994,SO2,6,11,8
India,Andhra_Pradesh,Visakhapatnam,"GVM Corporation, Visakhapatnam - APPCB",18-01-2026 08:00:00,17.72,83.3,NH3,3,4,4
India,Arunachal_Pradesh,Naharlagun,"Naharlagun, Naharlagun - APSPCB",18-01-2026 08:00:00,27.103358,93.679645,NH3,1,1,1
India,Arunachal_Pradesh,Naharlagun,"Naharlagun, Naharlagun - APSPCB",18-01-2026 08:00:00,27.103358,93.679645,SO2,9,10,10
India,Assam,Byrnihat,"Central Academy for SFS, Byrnihat - PCBA",18-01-2026 08:00:00,26.071318,91.87488,PM10,70,144,96
India,Assam,Guwahati,"LGBI Airport, Guwahati - PCBA",18-01-2026 08:00:00,26.10887,91.589544,SO2,7,14,12
India,Assam,Guwahati,"Pan Bazaar, Guwahati - PCBA",18-01-2026 08:00:00,26.187500,91.744194,SO2,22,44,31
India,Assam,Guwahati,"Railway Colony, Guwahati - PCBA",18-01-2026 08:00:00,26.181742,91.78063,PM10,73,309,168
India,Bihar,Motihari,"Gandak Colony, Motihari - BSPCB",18-01-2026 08:00:00,26.63086,84.90051,PM2.5,27,280,155
India,Bihar,Motihari,"Gandak Colony, Motihari - BSPCB",18-01-2026 08:00:00,26.63086,84.90051,CO,16,31,17
India,Bihar,Munger,"Town Hall, Munger - BSPCB",18-01-2026 08:00:00,25.376776,86.471523,NH3,5,6,6
India,Bihar,Munger,"Town Hall, Munger - BSPCB",18-01-2026 08:00:00,25.376776,86.471523,SO2,35,87,51
India,Bihar,Munger,"Town Hall, Munger - BSPCB",18-01-2026 08:00:00,25.376776,86.471523,CO,20,131,34
India,Bihar,Muzaffarpur,"Buddha Colony, Muzaffarpur - BSPCB",18-01-2026 08:00:00,26.11442,85.39813,SO2,3,6,5
India,Bihar,Muzaffarpur,"MIT-Daudpur Kothi, Muzaffarpur - BSPCB",18-01-2026 08:00:00,26.1403345,85.3650192,NO2,1,4,2
India,Bihar,Muzaffarpur,"MIT-Daudpur Kothi, Muzaffarpur - BSPCB",18-01-2026 08:00:00,26.1403345,85.3650192,NH3,2,2,2
India,Andhra_Pradesh,Anantapur,"Gulzarpet, Anantapur - APPCB",18-01-2026 08:00:00,14.675886,77.593027,SO2,10,10,10
India,Andhra_Pradesh,Chittoor,"Gangineni Cheruvu, Chittoor - APPCB",18-01-2026 08:00:00,13.204880,79.097889,NH3,5,5,5
India,Andhra_Pradesh,Kadapa,"Yerramukkapalli, Kadapa - APPCB",18-01-2026 08:00:00,14.465052,78.824187,OZONE,20,22,22
India,Andhra_Pradesh,Rajamahendravaram,"Anand Kala Kshetram, Rajamahendravaram - APPCB",18-01-2026 08:00:00,16.9872867,81.7363176,PM2.5,120,243,168
India,Andhra_Pradesh,Rajamahendravaram,"Anand Kala Kshetram, Rajamahendravaram - APPCB",18-01-2026 08:00:00,16.9872867,81.7363176,NH3,7,9,8
India,Andhra_Pradesh,Tirupati,"Vaikuntapuram, Tirupati - APPCB",18-01-2026 08:00:00,13.615387,79.409230,PM2.5,72,75,73
India,Bihar,Patna,"DRM Office Danapur, Patna - BSPCB",18-01-2026 08:00:00,25.586562,85.043586,PM2.5,103,320,238
India,Bihar,Patna,"DRM Office Danapur, Patna - BSPCB",18-01-2026 08:00:00,25.586562,85.043586,PM10,102,391,191
India,Bihar,Patna,"DRM Office Danapur, Patna - BSPCB",18-01-2026 08:00:00,25.586562,85.043586,SO2,4,8,6
India,Bihar,Patna,"Govt. High School Shikarpur, Patna - BSPCB",18-01-2026 08:00:00,25.592539,85.227158,PM10,109,122,116
India,Bihar,Patna,"Govt. High School Shikarpur, Patna - BSPCB",18-01-2026 08:00:00,25.592539,85.227158,NO2,14,20,16
India,Bihar,Patna,"IGSC Planetarium Complex, Patna - BSPCB",18-01-2026 08:00:00,25.610369,85.132568,PM2.5,88,322,196
India,Bihar,Patna,"Muradpur, Patna - BSPCB",18-01-2026 08:00:00,25.619651,85.147382,PM2.5,68,316,170
India,Bihar,Patna,"Muradpur, Patna - BSPCB",18-01-2026 08:00:00,25.619651,85.147382,SO2,7,10,8
India,Andhra_Pradesh,Vijayawada,"HB Colony, Vijayawada - APPCB",18-01-2026 08:00:00,16.536107,80.594233,NH3,3,3,3
India,Andhra_Pradesh,Vijayawada,"Kanuru, Vijayawada - APPCB",18-01-2026 08:00:00,16.486692,80.699436,NO2,35,97,39
India,Andhra_Pradesh,Vijayawada,"Rajiv Gandhi Park, Vijayawada - APPCB",18-01-2026 08:00:00,16.509717,80.612222,PM10,NA,NA,NA
India,Andhra_Pradesh,Vijayawada,"Rajiv Gandhi Park, Vijayawada - APPCB",18-01-2026 08:00:00,16.509717,80.612222,NO2,36,73,52
India,Andhra_Pradesh,Visakhapatnam,"GVM Corporation, Visakhapatnam - APPCB",18-01-2026 08:00:00,17.72,83.3,PM2.5,153,354,245
India,Bihar,Gaya,"SFTI Kusdihra, Gaya - BSPCB",18-01-2026 08:00:00,24.762518,84.982348,PM2.5,60,77,67
India,Bihar,Gaya,"SFTI Kusdihra, Gaya - BSPCB",18-01-2026 08:00:00,24.762518,84.982348,PM10,78,107,96
India,Bihar,Gaya,"SFTI Kusdihra, Gaya - BSPCB",18-01-2026 08:00:00,24.762518,84.982348,OZONE,10,54,12
India,Bihar,Hajipur,"Industrial Area, Hajipur - BSPCB",18-01-2026 08:00:00,25.697189,85.245900,PM10,98,211,143
India,Bihar,Katihar,"Mirchaibari, Katihar - BSPCB",18-01-2026 08:00:00,25.560083,87.553265,PM2.5,78,297,144
India,Bihar,Katihar,"Mirchaibari, Katihar - BSPCB",18-01-2026 08:00:00,25.560083,87.553265,SO2,14,21,18
India,Assam,Guwahati,"Railway Colony, Guwahati - PCBA",18-01-2026 08:00:00,26.181742,91.78063,CO,34,106,92
India,Assam,Nalbari,"Bata Chowk, Nalbari - PCBA",18-01-2026 08:00:00,26.446912,91.439057,NO2,14,15,14
India,Assam,Silchar,"Tarapur, Silchar - PCBA",18-01-2026 08:00:00,24.82827,92.79525,NO2,19,26,23
India,Assam,Silchar,"Tarapur, Silchar - PCBA",18-01-2026 08:00:00,24.82827,92.79525,CO,19,32,24
India,Andhra_Pradesh,Amaravati,"Secretariat, Amaravati - APPCB",18-01-2026 08:00:00,16.5150833,80.5181667,SO2,3,43,14
India,Andhra_Pradesh,Amaravati,"Secretariat, Amaravati - APPCB",18-01-2026 08:00:00,16.5150833,80.5181667,OZONE,2,74,5
India,Chhattisgarh,Chhal,"Nawapara SECL Colony, Chhal - CECB",18-01-2026 08:00:00,22.118125,83.140608,CO,26,68,36
India,Chhattisgarh,Korba,"Rampur, Korba - CECB",18-01-2026 08:00:00,22.368195,82.746431,NH3,1,1,1
India,Chhattisgarh,Korba,"Urja Nagar, Korba - CECB",18-01-2026 08:00:00,22.348441,82.549611,NO2,12,24,17
India,Chhattisgarh,Kunjemura,"OP Jindal School, Kunjemura - CECB",18-01-2026 08:00:00,22.126650,83.483212,PM10,34,378,127
India,Chhattisgarh,Kunjemura,"OP Jindal School, Kunjemura - CECB",18-01-2026 08:00:00,22.126650,83.483212,NH3,2,2,2
India,Chhattisgarh,Kunjemura,"OP Jindal School, Kunjemura - CECB",18-01-2026 08:00:00,22.126650,83.483212,SO2,6,30,16
India,Chhattisgarh,Milupara,"Govt. Higher Secondary School, Milupara - CECB",18-01-2026 08:00:00,22.1910172,83.5197009,PM10,NA,NA,NA
India,Chhattisgarh,Raipur,"AIIMS, Raipur - CECB",18-01-2026 08:00:00,21.258815,81.578979,SO2,3,5,4
India,Chhattisgarh,Raipur,"AIIMS, Raipur - CECB",18-01-2026 08:00:00,21.258815,81.578979,CO,42,82,70
India,Bihar,Sasaram,"Dada Peer, Sasaram - BSPCB",18-01-2026 08:00:00,24.952822,84.002396,PM2.5,30,93,55
India,Bihar,Sasaram,"Dada Peer, Sasaram - BSPCB",18-01-2026 08:00:00,24.952822,84.002396,NO2,2,5,2
India,Bihar,Sasaram,"Dada Peer, Sasaram - BSPCB",18-01-2026 08:00:00,24.952822,84.002396,NH3,3,4,3
India,Bihar,Sasaram,"Dada Peer, Sasaram - BSPCB",18-01-2026 08:00:00,24.952822,84.002396,CO,48,82,56
India,Bihar,Sasaram,"Dada Peer, Sasaram - BSPCB",18-01-2026 08:00:00,24.952822,84.002396,OZONE,15,25,17
India,Bihar,Siwan,"Chitragupta Nagar, Siwan - BSPCB",18-01-2026 08:00:00,26.2271665,84.3570427,SO2,8,8,8
India,Chandigarh,Chandigarh,"Sector 22, Chandigarh - CPCC",18-01-2026 08:00:00,30.735567,76.775714,NO2,46,147,84
India,Chandigarh,Chandigarh,"Sector 22, Chandigarh - CPCC",18-01-2026 08:00:00,30.735567,76.775714,NH3,4,17,12
India,Chandigarh,Chandigarh,"Sector-25, Chandigarh - CPCC",18-01-2026 08:00:00,30.751462,76.762879,OZONE,1,47,1
India,Chandigarh,Chandigarh,"Sector-53, Chandigarh - CPCC",18-01-2026 08:00:00,30.719859,76.738637,NO2,33,139,69
India,Chandigarh,Chandigarh,"Sector-53, Chandigarh - CPCC",18-01-2026 08:00:00,30.719859,76.738637,NH3,8,15,12
India,Chhattisgarh,Bhilai,"32Bungalows, Bhilai - CECB",18-01-2026 08:00:00,21.194815,81.314770,NO2,21,88,47
India,Chhattisgarh,Bhilai,"Civic Center, Bhilai - Bhilai Steel Plant",18-01-2026 08:00:00,21.185571,81.343175,CO,27,34,34
India,Chhattisgarh,Bhilai,"Hathkhoj, Bhilai - CECB",18-01-2026 08:00:00,21.224231,81.408350,PM2.5,10,307,112
India,Chhattisgarh,Bhilai,"Hathkhoj, Bhilai - CECB",18-01-2026 08:00:00,21.224231,81.408350,NO2,31,94,72
India,Chhattisgarh,Bilaspur,"Mangala, Bilaspur - NTPC",18-01-2026 08:00:00,22.08815,82.13737,CO,21,113,61
India,Chhattisgarh,Chhal,"Nawapara SECL Colony, Chhal - CECB",18-01-2026 08:00:00,22.118125,83.140608,PM2.5,26,64,43
India,Chhattisgarh,Chhal,"Nawapara SECL Colony, Chhal - CECB",18-01-2026 08:00:00,22.118125,83.140608,PM10,27,110,63
India,Bihar,Patna,"Rajbansi Nagar, Patna - BSPCB",18-01-2026 08:00:00,25.599486,85.113666,NO2,25,119,74
India,Bihar,Patna,"Rajbansi Nagar, Patna - BSPCB",18-01-2026 08:00:00,25.599486,85.113666,NH3,3,7,5
India,Bihar,Patna,"Samanpura, Patna - BSPCB",18-01-2026 08:00:00,25.596727,85.085624,NO2,21,22,22
India,Bihar,Purnia,"Mariam Nagar, Purnia - BSPCB",18-01-2026 08:00:00,25.366336,87.117468,PM2.5,90,200,136
India,Bihar,Rajgir,"Dangi Tola, Rajgir - BSPCB",18-01-2026 08:00:00,25.03280,85.41948,PM2.5,87,324,227
India,Bihar,Rajgir,"Dangi Tola, Rajgir - BSPCB",18-01-2026 08:00:00,25.03280,85.41948,NO2,7,10,9
India,Bihar,Saharsa,"Police Line, Saharsa - BSPCB",18-01-2026 08:00:00,25.892357,86.590325,NO2,6,8,7
India,Bihar,Saharsa,"Police Line, Saharsa - BSPCB",18-01-2026 08:00:00,25.892357,86.590325,NH3,4,4,4
India,Bihar,Saharsa,"Police Line, Saharsa - BSPCB",18-01-2026 08:00:00,25.892357,86.590325,CO,40,48,41
India,Delhi,Delhi,"Mundka, Delhi - DPCC",18-01-2026 08:00:00,28.684678,77.076574,OZONE,4,132,8
India,Delhi,Delhi,"NSIT Dwarka, Delhi - CPCB",18-01-2026 08:00:00,28.60909,77.0325413,PM10,179,461,367
India,Delhi,Delhi,"Najafgarh, Delhi - DPCC",18-01-2026 08:00:00,28.570173,76.933762,SO2,10,27,14
India,Delhi,Delhi,"Narela, Delhi - DPCC",18-01-2026 08:00:00,28.822836,77.101981,PM2.5,319,500,417
India,Delhi,Delhi,"Narela, Delhi - DPCC",18-01-2026 08:00:00,28.822836,77.101981,NH3,8,14,10
India,Delhi,Delhi,"Nehru Nagar, Delhi - DPCC",18-01-2026 08:00:00,28.567890,77.250515,OZONE,3,308,5
India,Delhi,Delhi,"North Campus, DU, Delhi - IMD",18-01-2026 08:00:00,28.6573814,77.1585447,PM10,261,500,451
India,Delhi,Delhi,"Jahangirpuri, Delhi - DPCC",18-01-2026 08:00:00,28.732820,77.170633,PM2.5,NA,NA,NA
India,Delhi,Delhi,"Jahangirpuri, Delhi - DPCC",18-01-2026 08:00:00,28.732820,77.170633,SO2,5,55,27
India,Delhi,Delhi,"Jawaharlal Nehru Stadium, Delhi - DPCC",18-01-2026 08:00:00,28.580280,77.233829,CO,131,192,178
India,Delhi,Delhi,"Lodhi Road, Delhi - IMD",18-01-2026 08:00:00,28.5918245,77.2273074,PM10,236,435,386
India,Delhi,Delhi,"Lodhi Road, Delhi - IMD",18-01-2026 08:00:00,28.5918245,77.2273074,NO2,1,96,40
India,Delhi,Delhi,"Major Dhyan Chand National Stadium, Delhi - DPCC",18-01-2026 08:00:00,28.611281,77.237738,SO2,3,15,9
India,Delhi,Delhi,"Mandir Marg, Delhi - DPCC",18-01-2026 08:00:00,28.636429,77.201067,SO2,3,82,20
India,Delhi,Delhi,"DTU, Delhi - CPCB",18-01-2026 08:00:00,28.7500499,77.1112615,OZONE,6,50,10
India,Delhi,Delhi,"Dr. Karni Singh Shooting Range, Delhi - DPCC",18-01-2026 08:00:00,28.498571,77.264840,PM2.5,363,500,443
India,Delhi,Delhi,"Dr. Karni Singh Shooting Range, Delhi - DPCC",18-01-2026 08:00:00,28.498571,77.264840,PM10,188,467,366
India,Delhi,Delhi,"Dwarka-Sector 8, Delhi - DPCC ",18-01-2026 08:00:00,28.5710274,77.0719006,PM2.5,408,500,467
India,Delhi,Delhi,"Dwarka-Sector 8, Delhi - DPCC ",18-01-2026 08:00:00,28.5710274,77.0719006,PM10,278,500,418
India,Delhi,Delhi,"IGI Airport (T3), Delhi - IMD",18-01-2026 08:00:00,28.5627763,77.1180053,OZONE,8,96,9
India,Chhattisgarh,Raipur,"Siltara Phase-II, Raipur - CECB",18-01-2026 08:00:00,21.371751,81.664929,PM2.5,44,323,160
India,Chhattisgarh,Tumidih,"OP Jindal Industrial Park, Tumidih - CECB",18-01-2026 08:00:00,22.06631475,83.33820077,SO2,5,11,6
India,Delhi,Delhi,"Alipur, Delhi - DPCC",18-01-2026 08:00:00,28.815329,77.153010,PM2.5,305,460,381
India,Delhi,Delhi,"Alipur, Delhi - DPCC",18-01-2026 08:00:00,28.815329,77.153010,NH3,19,24,22
India,Delhi,Delhi,"Anand Vihar, Delhi - DPCC",18-01-2026 08:00:00,28.647622,77.3158090,SO2,9,48,27
India,Delhi,Delhi,"Anand Vihar, Delhi - DPCC",18-01-2026 08:00:00,28.647622,77.3158090,CO,102,183,183
India,Delhi,Delhi,"Ashok Vihar, Delhi - DPCC",18-01-2026 08:00:00,28.695381,77.181665,PM10,309,500,468
India,Delhi,Delhi,"Bawana, Delhi - DPCC",18-01-2026 08:00:00,28.776200,77.051074,SO2,8,19,12
India,Delhi,Delhi,"Burari Crossing, Delhi - IMD",18-01-2026 08:00:00,28.7256504,77.2011573,PM10,178,500,427
India,Delhi,Delhi,"R K Puram, Delhi - DPCC",18-01-2026 08:00:00,28.563262,77.186937,NO2,24,200,90
India,Delhi,Delhi,"Rohini, Delhi - DPCC",18-01-2026 08:00:00,28.732528,77.119920,SO2,6,15,11
India,Delhi,Delhi,"Rohini, Delhi - DPCC",18-01-2026 08:00:00,28.732528,77.119920,CO,75,155,141
India,Delhi,Delhi,"Rohini, Delhi - DPCC",18-01-2026 08:00:00,28.732528,77.119920,OZONE,4,212,8
India,Delhi,Delhi,"Shadipur, Delhi - CPCB",18-01-2026 08:00:00,28.6514781,77.1473105,OZONE,20,40,23
India,Delhi,Delhi,"Sirifort, Delhi - CPCB",18-01-2026 08:00:00,28.5504249,77.2159377,PM10,356,500,428
India,Delhi,Delhi,"Sirifort, Delhi - CPCB",18-01-2026 08:00:00,28.5504249,77.2159377,NO2,2,80,30
India,Delhi,Delhi,"Sirifort, Delhi - CPCB",18-01-2026 08:00:00,28.5504249,77.2159377,SO2,30,41,34
India,Delhi,Delhi,"Sonia Vihar, Delhi - DPCC",18-01-2026 08:00:00,28.710508,77.249485,PM10,NA,NA,NA
India,Delhi,Delhi,"Sri Aurobindo Marg, Delhi - DPCC",18-01-2026 08:00:00,28.531346,77.190156,PM2.5,370,478,424
India,Delhi,Delhi,"Okhla Phase-2, Delhi - DPCC",18-01-2026 08:00:00,28.530785,77.271255,PM2.5,NA,NA,NA
India,Delhi,Delhi,"Patparganj, Delhi - DPCC",18-01-2026 08:00:00,28.623763,77.287209,SO2,6,19,11
India,Delhi,Delhi,"Punjabi Bagh, Delhi - DPCC",18-01-2026 08:00:00,28.674045,77.131023,PM10,221,500,447
India,Delhi,Delhi,"Pusa, Delhi - DPCC",18-01-2026 08:00:00,28.639652,77.146275,NO2,42,209,109
India,Delhi,Delhi,"Pusa, Delhi - DPCC",18-01-2026 08:00:00,28.639652,77.146275,NH3,18,29,23
India,Delhi,Delhi,"Pusa, Delhi - DPCC",18-01-2026 08:00:00,28.639652,77.146275,SO2,4,11,6
India,Delhi,Delhi,"Pusa, Delhi - DPCC",18-01-2026 08:00:00,28.639652,77.146275,OZONE,2,56,3
India,Delhi,Delhi,"Pusa, Delhi - IMD",18-01-2026 08:00:00,28.636110,77.173332,NO2,33,272,126
India,Delhi,Delhi,"Pusa, Delhi - IMD",18-01-2026 08:00:00,28.636110,77.173332,CO,110,191,172
India,Gujarat,Ahmedabad,"Maninagar, Ahmedabad - GPCB",18-01-2026 08:00:00,23.002657,72.591912,CO,28,42,32
India,Gujarat,Ahmedabad,"Maninagar, Ahmedabad - GPCB",18-01-2026 08:00:00,23.002657,72.591912,OZONE,44,105,49
India,Gujarat,Ahmedabad,"Raikhad, Ahmedabad - IITM",18-01-2026 08:00:00,23.020509,72.579261,SO2,12,46,16
India,Gujarat,Ahmedabad,"Rakhial, Ahmedabad - IITM",18-01-2026 08:00:00,23.016834,72.625775,NH3,6,11,8
India,Gujarat,Ahmedabad,"Rakhial, Ahmedabad - IITM",18-01-2026 08:00:00,23.016834,72.625775,CO,4,102,40
India,Gujarat,Ahmedabad,"Rakhial, Ahmedabad - IITM",18-01-2026 08:00:00,23.016834,72.625775,OZONE,1,79,3
India,Gujarat,Ahmedabad,"SAC ISRO Satellite, Ahmedabad - IITM",18-01-2026 08:00:00,23.023389,72.515201,NO2,2,20,8
India,Gujarat,Ahmedabad,"SVPI Airport Hansol, Ahmedabad - IITM",18-01-2026 08:00:00,23.076793,72.627874,NH3,3,12,6
India,Gujarat,Gandhinagar,"IIPHG Lekawada, Gandhinagar - IITM",18-01-2026 08:00:00,23.243639,72.68994,PM10,83,128,109
India,Gujarat,Gandhinagar,"IIPHG Lekawada, Gandhinagar - IITM",18-01-2026 08:00:00,23.243639,72.68994,NH3,NA,NA,NA
India,Gujarat,Gandhinagar,"Sector-10, Gandhinagar - GPCB",18-01-2026 08:00:00,23.221714,72.654328,PM2.5,69,181,112
India,Haryana,Bhiwani,"H.B. Colony, Bhiwani - HSPCB",18-01-2026 08:00:00,28.806223,76.141105,NO2,1,34,31
India,Haryana,Bhiwani,"H.B. Colony, Bhiwani - HSPCB",18-01-2026 08:00:00,28.806223,76.141105,NH3,1,9,8
India,Haryana,Dharuhera,"Municipal Corporation Office, Dharuhera -  HSPCB",18-01-2026 08:00:00,28.206800,76.799700,PM2.5,165,500,368
India,Haryana,Dharuhera,"Municipal Corporation Office, Dharuhera -  HSPCB",18-01-2026 08:00:00,28.206800,76.799700,PM10,127,500,329
India,Haryana,Ambala,"Patti Mehar, Ambala - HSPCB",18-01-2026 08:00:00,30.379589,76.778328,PM2.5,93,394,247
India,Haryana,Ambala,"Patti Mehar, Ambala - HSPCB",18-01-2026 08:00:00,30.379589,76.778328,PM10,45,397,172
India,Haryana,Ambala,"Patti Mehar, Ambala - HSPCB",18-01-2026 08:00:00,30.379589,76.778328,NH3,8,11,10
India,Haryana,Ballabgarh,"Nathu Colony, Ballabgarh - HSPCB",18-01-2026 08:00:00,28.3419248,77.319699,SO2,2,7,5
India,Gujarat,Ahmedabad,"Chandkheda, Ahmedabad - IITM",18-01-2026 08:00:00,23.107969,72.574648,NO2,12,74,34
India,Gujarat,Ahmedabad,"Chandkheda, Ahmedabad - IITM",18-01-2026 08:00:00,23.107969,72.574648,OZONE,1,61,7
India,Gujarat,Ahmedabad,"Gyaspur, Ahmedabad - IITM",18-01-2026 08:00:00,22.977134,72.553024,NO2,42,168,83
India,Gujarat,Ahmedabad,"Maninagar, Ahmedabad - GPCB",18-01-2026 08:00:00,23.002657,72.591912,PM2.5,NA,NA,NA
India,Delhi,Delhi,"Wazirpur, Delhi - DPCC",18-01-2026 08:00:00,28.699793,77.165453,SO2,2,12,6
India,Gujarat,Ahmedabad,"Chandkheda, Ahmedabad - IITM",18-01-2026 08:00:00,23.107969,72.574648,PM2.5,68,199,99
India,Delhi,Delhi,"Sri Aurobindo Marg, Delhi - DPCC",18-01-2026 08:00:00,28.531346,77.190156,PM10,271,470,388
India,Delhi,Delhi,"Sri Aurobindo Marg, Delhi - DPCC",18-01-2026 08:00:00,28.531346,77.190156,NH3,6,11,8
India,Delhi,Delhi,"Sri Aurobindo Marg, Delhi - DPCC",18-01-2026 08:00:00,28.531346,77.190156,OZONE,1,154,2
India,Haryana,Yamuna Nagar,"Gobind Pura, Yamuna Nagar - HSPCB",18-01-2026 08:00:00,30.1480566,77.2893471,CO,24,52,35
India,Himachal Pradesh,Baddi,"HIMUDA Complex Phase-1, Baddi - HPPCB",18-01-2026 08:00:00,30.943887,76.801991,CO,43,138,66
India,Jammu_and_Kashmir,Pampore,"Khrew, Pampore - JKPCC",18-01-2026 08:00:00,34.031606,75.009712,SO2,NA,NA,NA
India,Jammu_and_Kashmir,Srinagar,"Khunmoh, Srinagar - JKPCC",18-01-2026 08:00:00,34.06313,74.96017,PM2.5,71,122,88
India,Jammu_and_Kashmir,Srinagar,"Rajbagh, Srinagar - JKPCC",18-01-2026 08:00:00,34.066206,74.819820,OZONE,NA,NA,NA
India,Jharkhand,Dhanbad,"Sardar Patel Nagar, Dhanbad - JSPCB",18-01-2026 08:00:00,23.80569,86.44268,PM10,96,383,216
India,Karnataka,Bagalkot,"Vidayagiri, Bagalkot - KSPCB",18-01-2026 08:00:00,16.172806,75.659694,PM2.5,35,36,35
India,Haryana,Mandikhera,"General Hospital, Mandikhera(Nuh) - HSPCB",18-01-2026 08:00:00,27.9002,76.9938,NO2,20,23,21
India,Haryana,Mandikhera,"General Hospital, Mandikhera(Nuh) - HSPCB",18-01-2026 08:00:00,27.9002,76.9938,NH3,13,14,13
India,Haryana,Mandikhera,"General Hospital, Mandikhera(Nuh) - HSPCB",18-01-2026 08:00:00,27.9002,76.9938,SO2,31,38,34
India,Haryana,Mandikhera,"General Hospital, Mandikhera(Nuh) - HSPCB",18-01-2026 08:00:00,27.9002,76.9938,OZONE,24,32,26
India,Haryana,Manesar,"Sector-2 IMT, Manesar - HSPCB",18-01-2026 08:00:00,28.360699,76.936090,NO2,46,55,50
India,Haryana,Manesar,"Sector-2 IMT, Manesar - HSPCB",18-01-2026 08:00:00,28.360699,76.936090,SO2,4,12,9
India,Haryana,Narnaul,"Shastri Nagar, Narnaul - HSPCB",18-01-2026 08:00:00,28.060249,76.113115,CO,20,48,46
India,Haryana,Palwal,"Shyam Nagar, Palwal - HSPCB",18-01-2026 08:00:00,28.1485564,77.3320667,PM2.5,87,113,98
India,Haryana,Hisar,"Urban Estate-II, Hisar - HSPCB",18-01-2026 08:00:00,29.140560,75.744941,PM2.5,NA,NA,NA
India,Haryana,Jind,"Police Lines, Jind - HSPCB",18-01-2026 08:00:00,29.307814,76.337619,PM2.5,112,321,220
India,Haryana,Jind,"Police Lines, Jind - HSPCB",18-01-2026 08:00:00,29.307814,76.337619,NO2,35,51,42
India,Haryana,Jind,"Police Lines, Jind - HSPCB",18-01-2026 08:00:00,29.307814,76.337619,CO,22,131,88
India,Haryana,Karnal,"Sector-12, Karnal - HSPCB",18-01-2026 08:00:00,29.695300,77.002700,PM10,108,253,174
India,Haryana,Karnal,"Sector-12, Karnal - HSPCB",18-01-2026 08:00:00,29.695300,77.002700,OZONE,32,33,32
India,Haryana,Kurukshetra,"Sector-7, Kurukshetra - HSPCB",18-01-2026 08:00:00,29.966942,76.875879,PM10,116,267,174
India,Haryana,Panipat,"Sector-18, Panipat - HSPCB",18-01-2026 08:00:00,29.432304,76.972765,NO2,31,32,31
India,Haryana,Panipat,"Sector-18, Panipat - HSPCB",18-01-2026 08:00:00,29.432304,76.972765,CO,9,26,20
India,Haryana,Rohtak,"MD University, Rohtak - HSPCB",18-01-2026 08:00:00,28.52123,76.37138,PM10,NA,NA,NA
India,Haryana,Rohtak,"MD University, Rohtak - HSPCB",18-01-2026 08:00:00,28.52123,76.37138,CO,22,40,36
India,Haryana,Sirsa,"F-Block, Sirsa - HSPCB",18-01-2026 08:00:00,29.536400,75.015800,CO,55,98,85
India,Haryana,Sirsa,"F-Block, Sirsa - HSPCB",18-01-2026 08:00:00,29.536400,75.015800,OZONE,38,70,48
India,Haryana,Sonipat,"Murthal, Sonipat - HSPCB",18-01-2026 08:00:00,29.027200,77.062100,SO2,7,9,8
India,Karnataka,Belgaum,"Ramteerth Nagar, Belgaum - KSPCB",18-01-2026 08:00:00,15.888653,74.541751,CO,2,3,2
India,Karnataka,Bengaluru,"BWSSB Kadabesanahalli, Bengaluru - CPCB",18-01-2026 08:00:00,12.9352049,77.6814488,PM10,107,215,161
India,Karnataka,Bengaluru,"BWSSB Kadabesanahalli, Bengaluru - CPCB",18-01-2026 08:00:00,12.9352049,77.6814488,NO2,12,31,21
India,Karnataka,Bengaluru,"BWSSB Kadabesanahalli, Bengaluru - CPCB",18-01-2026 08:00:00,12.9352049,77.6814488,OZONE,12,64,20
India,Karnataka,Bengaluru,"Bapuji Nagar, Bengaluru - KSPCB",18-01-2026 08:00:00,12.951913,77.539784,NH3,2,2,2
India,Karnataka,Bengaluru,"Hebbal, Bengaluru - KSPCB",18-01-2026 08:00:00,13.029152,77.585901,PM10,59,138,98
India,Karnataka,Bengaluru,"Jayanagar 5th Block, Bengaluru - KSPCB",18-01-2026 08:00:00,12.920984,77.584908,OZONE,1,72,61
India,Karnataka,Bengaluru,"Jigani, Bengaluru - KSPCB",18-01-2026 08:00:00,12.7816279,77.6299145,NO2,24,25,24
India,Karnataka,Bengaluru,"Jigani, Bengaluru - KSPCB",18-01-2026 08:00:00,12.7816279,77.6299145,OZONE,19,21,20
India,Karnataka,Bengaluru,"Kasturi Nagar, Bengaluru - KSPCB",18-01-2026 08:00:00,13.003872,77.664217,PM2.5,NA,NA,NA
India,Karnataka,Bengaluru,"Peenya, Bengaluru - CPCB",18-01-2026 08:00:00,13.0270199,77.494094,SO2,4,19,10
India,Haryana,Gurugram,"NISE Gwal Pahari, Gurugram - IMD",18-01-2026 08:00:00,28.422681,77.148944,NO2,17,50,29
India,Haryana,Gurugram,"Sector-51, Gurugram - HSPCB",18-01-2026 08:00:00,28.4227,77.0667,SO2,1,7,4
India,Haryana,Gurugram,"Vikas Sadan, Gurugram - HSPCB",18-01-2026 08:00:00,28.4501238,77.0263051,NO2,9,45,26
India,Haryana,Faridabad,"New Industrial Town, Faridabad - HSPCB",18-01-2026 08:00:00,28.39072,77.30059,PM2.5,203,223,213
India,Haryana,Faridabad,"Sector 11, Faridabad - HSPCB",18-01-2026 08:00:00,28.376058,77.315741,NO2,29,33,31
India,Karnataka,Bengaluru,"Hombegowda Nagar, Bengaluru - KSPCB",18-01-2026 08:00:00,12.938539,77.590100,PM2.5,40,144,75
India,Karnataka,Kalaburagi,"Mahatma Basaveswar Colony, Kalaburgi - KSPCB",18-01-2026 08:00:00,17.336318,76.847397,NH3,2,3,2
India,Karnataka,Kalaburagi,"Mahatma Basaveswar Colony, Kalaburgi - KSPCB",18-01-2026 08:00:00,17.336318,76.847397,CO,39,84,46
India,Karnataka,Koppal,"Diwator Nagar, Koppal - KSPCB",18-01-2026 08:00:00,15.347630,76.181767,OZONE,NA,NA,NA
India,Karnataka,Madikeri,"Stuart Hill, Madikeri - KSPCB",18-01-2026 08:00:00,12.415911,75.735050,PM10,31,62,42
India,Karnataka,Madikeri,"Stuart Hill, Madikeri - KSPCB",18-01-2026 08:00:00,12.415911,75.735050,SO2,7,7,7
India,Karnataka,Mangalore,"Kadri, Mangalore - KSPCB",18-01-2026 08:00:00,12.889250,74.853000,PM2.5,NA,NA,NA
India,Karnataka,Mangalore,"Kadri, Mangalore - KSPCB",18-01-2026 08:00:00,12.889250,74.853000,NH3,NA,NA,NA
India,Karnataka,Mysuru,"Hebbal 1st Stage, Mysuru - KSPCB",18-01-2026 08:00:00,12.21041,76.37376,PM10,59,108,83
India,Karnataka,Mysuru,"Hebbal 1st Stage, Mysuru - KSPCB",18-01-2026 08:00:00,12.21041,76.37376,NH3,3,7,5
India,Karnataka,Mysuru,"Hebbal 1st Stage, Mysuru - KSPCB",18-01-2026 08:00:00,12.21041,76.37376,SO2,2,18,7
India,Karnataka,Mysuru,"Hebbal 1st Stage, Mysuru - KSPCB",18-01-2026 08:00:00,12.21041,76.37376,OZONE,5,138,12
India,Karnataka,Ramanagara,"Vijay Nagar, Ramanagara - KSPCB",18-01-2026 08:00:00,12.733409,77.298051,NH3,1,1,1
India,Karnataka,Ramanagara,"Vijay Nagar, Ramanagara - KSPCB",18-01-2026 08:00:00,12.733409,77.298051,SO2,14,28,21
India,Madhya Pradesh,Bhopal,"T T Nagar, Bhopal - MPPCB",18-01-2026 08:00:00,23.233584,77.400574,SO2,13,101,35
India,Madhya Pradesh,Damoh,"Shrivastav Colony, Damoh - MPPCB",18-01-2026 08:00:00,23.81748678,79.446246,PM2.5,NA,NA,NA
India,Madhya Pradesh,Damoh,"Shrivastav Colony, Damoh - MPPCB",18-01-2026 08:00:00,23.81748678,79.446246,SO2,41,58,49
India,Madhya Pradesh,Dewas,"Bhopal Chauraha, Dewas - MPPCB",18-01-2026 08:00:00,22.9682591,76.064118,OZONE,20,105,29
India,Madhya Pradesh,Gwalior,"City Center, Gwalior - MPPCB",18-01-2026 08:00:00,26.203442,78.193251,PM2.5,62,319,170
India,Madhya Pradesh,Gwalior,"City Center, Gwalior - MPPCB",18-01-2026 08:00:00,26.203442,78.193251,NO2,20,122,48
India,Madhya Pradesh,Gwalior,"Maharaj Bada, Gwalior - MPPCB",18-01-2026 08:00:00,26.200388,78.147714,NH3,6,6,6
India,Madhya Pradesh,Gwalior,"Maharaj Bada, Gwalior - MPPCB",18-01-2026 08:00:00,26.200388,78.147714,CO,4,109,22
India,Karnataka,Tumakuru,"Thimmalapura, Tumakuru - KSPCB",18-01-2026 08:00:00,13.377516,77.099072,NO2,NA,NA,NA
India,Karnataka,Vijayapura,"Ibrahimpur, Vijayapura - KSPCB",18-01-2026 08:00:00,16.802639,75.722694,PM2.5,30,31,30
India,Karnataka,Vijayapura,"Ibrahimpur, Vijayapura - KSPCB",18-01-2026 08:00:00,16.802639,75.722694,PM10,61,63,62
India,Karnataka,Vijayapura,"Ibrahimpur, Vijayapura - KSPCB",18-01-2026 08:00:00,16.802639,75.722694,OZONE,16,17,16
India,Kerala,Eloor,"Udyogamandal, Eloor - Kerala PCB",18-01-2026 08:00:00,10.073232,76.302765,NO2,6,7,6
India,Kerala,Kannur,"Thavakkara, Kannur - Kerala PCB",18-01-2026 08:00:00,11.875000,75.373200,PM10,60,65,62
India,Kerala,Kannur,"Thavakkara, Kannur - Kerala PCB",18-01-2026 08:00:00,11.875000,75.373200,NH3,2,2,2
India,Kerala,Kannur,"Thavakkara, Kannur - Kerala PCB",18-01-2026 08:00:00,11.875000,75.373200,CO,16,20,17
India,Karnataka,Bengaluru,"Peenya, Bengaluru - CPCB",18-01-2026 08:00:00,13.0270199,77.494094,OZONE,20,21,21
India,Karnataka,Bengaluru,"RVCE-Mailasandra, Bengaluru - KSPCB",18-01-2026 08:00:00,12.921418,77.502466,CO,24,52,34
India,Karnataka,Bengaluru,"Shivapura_Peenya, Bengaluru - KSPCB",18-01-2026 08:00:00,13.0246342,77.5080115,NO2,29,34,32
India,Karnataka,Bengaluru,"Shivapura_Peenya, Bengaluru - KSPCB",18-01-2026 08:00:00,13.0246342,77.5080115,NH3,4,4,4
India,Karnataka,Bengaluru,"Silk Board, Bengaluru - KSPCB",18-01-2026 08:00:00,12.917348,77.622813,NO2,42,114,66
India,Karnataka,Bengaluru,"Silk Board, Bengaluru - KSPCB",18-01-2026 08:00:00,12.917348,77.622813,NH3,3,7,5
India,Karnataka,Chamarajanagar,"Urban, Chamarajanagar - KSPCB",18-01-2026 08:00:00,11.55358,76.55521,OZONE,15,38,25
India,Kerala,Kannur,"Thavakkara, Kannur - Kerala PCB",18-01-2026 08:00:00,11.875000,75.373200,OZONE,28,32,28
India,Kerala,Thiruvananthapuram,"Kariavattom, Thiruvananthapuram - Kerala PCB",18-01-2026 08:00:00,8.563700,76.886500,PM2.5,NA,NA,NA
India,Kerala,Thiruvananthapuram,"Kariavattom, Thiruvananthapuram - Kerala PCB",18-01-2026 08:00:00,8.563700,76.886500,OZONE,NA,NA,NA
India,Kerala,Thrissur,"Corporation Ground, Thrissur - Kerala PCB",18-01-2026 08:00:00,10.532400,76.215900,NO2,8,9,8
India,Madhya Pradesh,Bhopal,"Idgah Hills, Bhopal - MPPCB",18-01-2026 08:00:00,23.264759,77.381568,SO2,14,23,17
India,Madhya Pradesh,Bhopal,"Paryavaran Parisar, Bhopal - MPPCB",18-01-2026 08:00:00,23.210494,77.425409,CO,5,105,28
India,Madhya Pradesh,Gwalior,"Maharaj Bada, Gwalior - MPPCB",18-01-2026 08:00:00,26.200388,78.147714,OZONE,NA,NA,NA
India,Madhya Pradesh,Indore,"Chhoti Gwaltoli, Indore - MPPCB",18-01-2026 08:00:00,22.4310,75.5213,NH3,1,15,8
India,Madhya Pradesh,Indore,"Maguda Nagar, Indore - IMC",18-01-2026 08:00:00,22.7524,75.8872,PM10,NA,NA,NA
India,Madhya Pradesh,Indore,"Maguda Nagar, Indore - IMC",18-01-2026 08:00:00,22.7524,75.8872,NO2,NA,NA,NA
India,Madhya Pradesh,Indore,"Regional Park, Indore - IMC",18-01-2026 08:00:00,22.6780,75.8559,SO2,25,101,48
India,Madhya Pradesh,Jabalpur,"Govindh Bhavan Colony, Jabalpur - JMC",18-01-2026 08:00:00,23.163174,79.973061,PM10,29,77,45
India,Karnataka,Davanagere,"Devaraj Urs Badavane, Davanagere - KSPCB",18-01-2026 08:00:00,14.475800,75.905200,PM10,NA,NA,NA
India,Karnataka,Hubballi,"Lingaraj Nagar, Hubballi - KSPCB",18-01-2026 08:00:00,15.3714823,75.1160168,NH3,1,3,2
India,Karnataka,Hubballi,"Lingaraj Nagar, Hubballi - KSPCB",18-01-2026 08:00:00,15.3714823,75.1160168,CO,16,116,26
India,Karnataka,Hubballi,"Lingaraj Nagar, Hubballi - KSPCB",18-01-2026 08:00:00,15.3714823,75.1160168,OZONE,6,39,7
India,Karnataka,Chikkaballapur,"Chikkaballapur Rural, Chikkaballapur - KSPCB",18-01-2026 08:00:00,13.428828,77.731418,NO2,NA,NA,NA
India,Karnataka,Chikkamagaluru,"Kalyana Nagara, Chikkamagaluru - KSPCB",18-01-2026 08:00:00,13.328028,75.797056,PM2.5,24,42,32
India,Karnataka,Chikkamagaluru,"Kalyana Nagara, Chikkamagaluru - KSPCB",18-01-2026 08:00:00,13.328028,75.797056,SO2,2,8,5
India,Madhya Pradesh,Jabalpur,"Govindh Bhavan Colony, Jabalpur - JMC",18-01-2026 08:00:00,23.163174,79.973061,NO2,10,19,14
India,Maharashtra,Amravati,"Shivneri Colony, Amravati - MPCB",18-01-2026 08:00:00,20.9402359,77.7895248,NO2,13,40,20
India,Maharashtra,Amravati,"Shri Shivaji Science College, Amravati - MPCB",18-01-2026 08:00:00,20.939198,77.765701,CO,40,106,53
India,Maharashtra,Amravati,"Shri Shivaji Science College, Amravati - MPCB",18-01-2026 08:00:00,20.939198,77.765701,OZONE,1,106,43
India,Maharashtra,Aurangabad,"MIDC Chilkalthana, Aurangabad - MPCB",18-01-2026 08:00:00,19.875620,75.387310,NO2,15,305,81
India,Maharashtra,Aurangabad,"More Chowk Waluj, Aurangabad - MPCB",18-01-2026 08:00:00,19.8389439,75.244448,NO2,16,24,19
India,Maharashtra,Aurangabad,"More Chowk Waluj, Aurangabad - MPCB",18-01-2026 08:00:00,19.8389439,75.244448,CO,31,137,93
India,Maharashtra,Aurangabad,"Rachnakar Colony, Aurangabad - MPCB",18-01-2026 08:00:00,19.863756,75.321188,NH3,1,3,2
India,Maharashtra,Aurangabad,"Rachnakar Colony, Aurangabad - MPCB",18-01-2026 08:00:00,19.863756,75.321188,SO2,4,30,17
India,Maharashtra,Badlapur,"Katrap, Badlapur - MPCB",18-01-2026 08:00:00,19.16485,73.23409,NO2,19,37,32
India,Maharashtra,Badlapur,"Katrap, Badlapur - MPCB",18-01-2026 08:00:00,19.16485,73.23409,NH3,3,5,4
India,Madhya Pradesh,Singrauli,"Suryakiran Bhawan NCL, Singrauli - MPPCB",18-01-2026 08:00:00,24.108970,82.645580,PM10,105,500,287
India,Madhya Pradesh,Singrauli,"Suryakiran Bhawan NCL, Singrauli - MPPCB",18-01-2026 08:00:00,24.108970,82.645580,OZONE,8,44,9
India,Madhya Pradesh,Ujjain,"Mahashweta Nagar, Ujjain - MPPCB",18-01-2026 08:00:00,23.1633321,75.800225,PM10,66,500,190
India,Madhya Pradesh,Ujjain,"Mahashweta Nagar, Ujjain - MPPCB",18-01-2026 08:00:00,23.1633321,75.800225,NH3,6,22,14
India,Maharashtra,Ahmednagar,"Tarakpur, Ahmednagar - MPCB",18-01-2026 08:00:00,19.10122,74.73339,PM10,58,313,130
India,Maharashtra,Akola,"Ramdaspeth, Akola - MPCB",18-01-2026 08:00:00,20.719516,77.000253,PM2.5,39,140,76
India,Maharashtra,Akola,"Ramdaspeth, Akola - MPCB",18-01-2026 08:00:00,20.719516,77.000253,CO,16,88,19
India,Maharashtra,Akola,"Ramdaspeth, Akola - MPCB",18-01-2026 08:00:00,20.719516,77.000253,OZONE,6,82,18
India,Madhya Pradesh,Jabalpur,"Gupteshwar, Jabalpur - JMC",18-01-2026 08:00:00,23.142888,79.916147,PM2.5,20,208,73
India,Madhya Pradesh,Jabalpur,"Gupteshwar, Jabalpur - JMC",18-01-2026 08:00:00,23.142888,79.916147,NO2,21,116,45
India,Madhya Pradesh,Jabalpur,"Gupteshwar, Jabalpur - JMC",18-01-2026 08:00:00,23.142888,79.916147,OZONE,6,210,22
India,Madhya Pradesh,Jabalpur,"Marhatal, Jabalpur - MPPCB",18-01-2026 08:00:00,23.168606,79.932247,OZONE,6,160,67
India,Madhya Pradesh,Jabalpur,"Suhagi, Jabalpur - JMC",18-01-2026 08:00:00,23.218135,79.957770,PM10,30,138,77
India,Madhya Pradesh,Jabalpur,"Suhagi, Jabalpur - JMC",18-01-2026 08:00:00,23.218135,79.957770,NO2,9,118,38
India,Madhya Pradesh,Katni,"Gole Bazar, Katni - MPPCB",18-01-2026 08:00:00,23.50016,80.23284,NO2,25,87,56
India,Madhya Pradesh,Katni,"Gole Bazar, Katni - MPPCB",18-01-2026 08:00:00,23.50016,80.23284,CO,5,140,93
India,Madhya Pradesh,Mandideep,"Sector-D Industrial Area, Mandideep - MPPCB",18-01-2026 08:00:00,23.108440,77.511428,PM2.5,NA,NA,NA
India,Madhya Pradesh,Mandideep,"Sector-D Industrial Area, Mandideep - MPPCB",18-01-2026 08:00:00,23.108440,77.511428,PM10,NA,NA,NA
India,Madhya Pradesh,Ratlam,"Shasthri Nagar, Ratlam - IPCA Lab",18-01-2026 08:00:00,23.331731,75.045981,PM10,67,405,161
India,Madhya Pradesh,Satna,"Bandhavgar Colony, Satna - Birla Cement",18-01-2026 08:00:00,24.58434363,80.8549414,NO2,12,13,12
India,Maharashtra,Jalgaon,"Prabhat Colony, Jalgaon - MPCB",18-01-2026 08:00:00,21.001264,75.565602,SO2,1,9,3
India,Maharashtra,Jalna,"Old MIDC, Jalna - MPCB",18-01-2026 08:00:00,19.854616,75.905894,PM2.5,76,153,109
India,Maharashtra,Jalna,"Old MIDC, Jalna - MPCB",18-01-2026 08:00:00,19.854616,75.905894,PM10,78,145,104
India,Maharashtra,Jalna,"Old MIDC, Jalna - MPCB",18-01-2026 08:00:00,19.854616,75.905894,NO2,8,18,14
India,Maharashtra,Jalna,"Old MIDC, Jalna - MPCB",18-01-2026 08:00:00,19.854616,75.905894,OZONE,69,108,86
India,Maharashtra,Boisar,"Khaira, Boisar - MPCB",18-01-2026 08:00:00,19.786089,72.757971,NH3,7,14,9
India,Maharashtra,Chandrapur,"Chauhan Colony, Chandrapur - MPCB",18-01-2026 08:00:00,19.962900,79.298714,PM2.5,37,224,61
India,Maharashtra,Chandrapur,"Chauhan Colony, Chandrapur - MPCB",18-01-2026 08:00:00,19.962900,79.298714,OZONE,25,25,25
India,Maharashtra,Dhule,"Deopur, Dhule - MPCB",18-01-2026 08:00:00,20.918946,74.776388,SO2,8,15,12
India,Maharashtra,Jalgaon,"Prabhat Colony, Jalgaon - MPCB",18-01-2026 08:00:00,21.001264,75.565602,NO2,3,23,9
India,Maharashtra,Bhiwandi,"Gokul Nagar, Bhiwandi - MPCB",18-01-2026 08:00:00,19.309073,73.057223,NO2,16,38,24
India,Maharashtra,Kalyan,"Khadakpada, Kalyan - MPCB",18-01-2026 08:00:00,19.25292,73.142019,PM2.5,NA,NA,NA
India,Maharashtra,Mahad,"Kamble Tarf Birwadi, Mahad - MPCB",18-01-2026 08:00:00,18.1023399,73.4783687,NO2,11,64,22
India,Maharashtra,Mahad,"Kamble Tarf Birwadi, Mahad - MPCB",18-01-2026 08:00:00,18.1023399,73.4783687,OZONE,35,42,40
India,Maharashtra,Malegaon,"Mahesh Nagar, Malegaon - MPCB",18-01-2026 08:00:00,20.555712,74.529236,PM2.5,37,159,86
India,Maharashtra,Malegaon,"Mahesh Nagar, Malegaon - MPCB",18-01-2026 08:00:00,20.555712,74.529236,NH3,2,3,2
India,Maharashtra,Malegaon,"Mahesh Nagar, Malegaon - MPCB",18-01-2026 08:00:00,20.555712,74.529236,SO2,16,25,19
India,Maharashtra,Malegaon,"Mahesh Nagar, Malegaon - MPCB",18-01-2026 08:00:00,20.555712,74.529236,OZONE,3,87,3
India,Maharashtra,Mira-Bhayandar,"Bhayandar West, Mira-Bhayandar - MPCB",18-01-2026 08:00:00,19.296481,72.840923,PM2.5,33,87,59
India,Maharashtra,Mira-Bhayandar,"Bhayandar West, Mira-Bhayandar - MPCB",18-01-2026 08:00:00,19.296481,72.840923,CO,12,48,42
India,Maharashtra,Mumbai,"Bandra Kurla Complex, Mumbai - IITM",18-01-2026 08:00:00,19.053536,72.84643,NO2,69,104,91
India,Maharashtra,Mumbai,"Bandra Kurla Complex, Mumbai - IITM",18-01-2026 08:00:00,19.053536,72.84643,CO,2,54,20
India,Maharashtra,Mumbai,"Bandra Kurla Complex, Mumbai - MPCB",18-01-2026 08:00:00,19.065931,72.862131,PM2.5,46,49,48
India,Maharashtra,Mumbai,"Borivali East, Mumbai - IITM",18-01-2026 08:00:00,19.23241,72.86895,NH3,3,7,6
India,Maharashtra,Mumbai,"Borivali East, Mumbai - IITM",18-01-2026 08:00:00,19.23241,72.86895,OZONE,7,29,16
India,Maharashtra,Mumbai,"Byculla, Mumbai - BMC",18-01-2026 08:00:00,18.9767,72.8380,NH3,6,17,10
India,Maharashtra,Mumbai,"Chakala-Andheri East, Mumbai - IITM",18-01-2026 08:00:00,19.11074,72.86084,PM10,73,119,91
India,Maharashtra,Mumbai,"Chakala-Andheri East, Mumbai - IITM",18-01-2026 08:00:00,19.11074,72.86084,NO2,28,97,63
India,Maharashtra,Mumbai,"Chembur, Mumbai - MPCB",18-01-2026 08:00:00,19.0364585,72.8954371,PM2.5,41,79,57
India,Maharashtra,Mumbai,"Chhatrapati Shivaji Intl. Airport (T2), Mumbai - MPCB",18-01-2026 08:00:00,19.10078,72.87462,PM2.5,56,117,78
India,Maharashtra,Mumbai,"Mazgaon, Mumbai - IITM",18-01-2026 08:00:00,18.96702,72.84214,PM10,NA,NA,NA
India,Maharashtra,Mumbai,"Mulund West, Mumbai - MPCB",18-01-2026 08:00:00,19.1750,72.9419,PM10,60,176,98
India,Maharashtra,Mumbai,"Navy Nagar-Colaba, Mumbai - IITM",18-01-2026 08:00:00,18.897756,72.813320,PM2.5,30,76,49
India,Maharashtra,Mumbai,"Navy Nagar-Colaba, Mumbai - IITM",18-01-2026 08:00:00,18.897756,72.813320,NO2,14,181,55
India,Maharashtra,Mumbai,"Navy Nagar-Colaba, Mumbai - IITM",18-01-2026 08:00:00,18.897756,72.813320,NH3,5,10,6
India,Maharashtra,Mumbai,"Powai, Mumbai - MPCB",18-01-2026 08:00:00,19.137500,72.915056,NO2,7,8,8
India,Maharashtra,Mumbai,"Powai, Mumbai - MPCB",18-01-2026 08:00:00,19.137500,72.915056,NH3,1,2,2
India,Maharashtra,Mumbai,"Sewri, Mumbai - BMC",18-01-2026 08:00:00,19.000084,72.856730,PM10,61,112,85
India,Maharashtra,Mumbai,"Sewri, Mumbai - BMC",18-01-2026 08:00:00,19.000084,72.856730,CO,12,38,24
India,Maharashtra,Mumbai,"Shivaji Nagar, Mumbai - BMC",18-01-2026 08:00:00,19.060498,72.923356,PM10,57,126,85
India,Maharashtra,Mumbai,"Sion, Mumbai - MPCB",18-01-2026 08:00:00,19.047000,72.874600,NH3,6,7,6
India,Maharashtra,Mumbai,"Vile Parle West, Mumbai - MPCB",18-01-2026 08:00:00,19.10861,72.83622,NO2,NA,NA,NA
India,Maharashtra,Nagpur,"Mahal, Nagpur - MPCB",18-01-2026 08:00:00,21.14472,79.107595,NH3,6,8,7
India,Maharashtra,Nagpur,"Ram Nagar, Nagpur - MPCB",18-01-2026 08:00:00,21.143383,79.048912,OZONE,3,77,8
India,Maharashtra,Nanded,"Sneh Nagar, Nanded - MPCB",18-01-2026 08:00:00,19.173852,77.296291,PM10,76,175,124
India,Maharashtra,Nanded,"Sneh Nagar, Nanded - MPCB",18-01-2026 08:00:00,19.173852,77.296291,SO2,13,15,14
India,Maharashtra,Nanded,"Sneh Nagar, Nanded - MPCB",18-01-2026 08:00:00,19.173852,77.296291,OZONE,5,97,32
India,Maharashtra,Mumbai,"Khindipada-Bhandup West, Mumbai - IITM",18-01-2026 08:00:00,19.1653323,72.922099,SO2,NA,NA,NA
India,Maharashtra,Mumbai,"Kurla, Mumbai - MPCB",18-01-2026 08:00:00,19.0863,72.8888,PM2.5,73,123,89
India,Maharashtra,Mumbai,"Malad West, Mumbai - IITM",18-01-2026 08:00:00,19.19709,72.82204,PM10,62,115,89
India,Maharashtra,Mumbai,"Malad West, Mumbai - IITM",18-01-2026 08:00:00,19.19709,72.82204,CO,8,40,21
India,Maharashtra,Mumbai,"Colaba, Mumbai - MPCB",18-01-2026 08:00:00,18.910000,72.820000,SO2,NA,NA,NA
India,Maharashtra,Mumbai,"Colaba, Mumbai - MPCB",18-01-2026 08:00:00,18.910000,72.820000,CO,56,62,57
India,Maharashtra,Mumbai,"Deonar, Mumbai - IITM",18-01-2026 08:00:00,19.04946,72.9230,NO2,16,41,30
India,Maharashtra,Mumbai,"Deonar, Mumbai - IITM",18-01-2026 08:00:00,19.04946,72.9230,CO,22,56,37
India,Maharashtra,Mumbai,"Deonar, Mumbai - IITM",18-01-2026 08:00:00,19.04946,72.9230,OZONE,1,30,4
India,Maharashtra,Kolhapur,"Shivaji University, Kolhapur - MPCB",18-01-2026 08:00:00,16.6870449,74.2505872,PM2.5,35,183,80
India,Maharashtra,Kolhapur,"Sinchan Bhavan, Kolhapur - MPCB",18-01-2026 08:00:00,16.7143745,74.2426398,PM10,NA,NA,NA
India,Maharashtra,Kolhapur,"Sinchan Bhavan, Kolhapur - MPCB",18-01-2026 08:00:00,16.7143745,74.2426398,SO2,2,7,4
India,Maharashtra,Kolhapur,"Sinchan Bhavan, Kolhapur - MPCB",18-01-2026 08:00:00,16.7143745,74.2426398,OZONE,2,66,7
India,Maharashtra,Latur,"Sawe Wadi, Latur - MPCB",18-01-2026 08:00:00,18.39963,76.57452,NO2,NA,NA,NA
India,Maharashtra,Navi Mumbai,"Mahape, Navi Mumbai - MPCB",18-01-2026 08:00:00,19.1135051,73.008978,CO,18,20,18
India,Maharashtra,Navi Mumbai,"Sanpada, Navi Mumbai - MPCB",18-01-2026 08:00:00,19.0575752,73.0151367,NO2,16,31,23
India,Maharashtra,Navi Mumbai,"Sanpada, Navi Mumbai - MPCB",18-01-2026 08:00:00,19.0575752,73.0151367,NH3,13,13,13
India,Maharashtra,Navi Mumbai,"Sanpada, Navi Mumbai - MPCB",18-01-2026 08:00:00,19.0575752,73.0151367,SO2,9,22,14
India,Maharashtra,Navi Mumbai,"Sanpada, Navi Mumbai - MPCB",18-01-2026 08:00:00,19.0575752,73.0151367,OZONE,1,97,4
India,Maharashtra,Navi Mumbai,"Sector-2E Kalamboli, Navi Mumbai - MPCB",18-01-2026 08:00:00,19.02579,73.10297,PM2.5,32,112,52
India,Maharashtra,Navi Mumbai,"Sector-2E Kalamboli, Navi Mumbai - MPCB",18-01-2026 08:00:00,19.02579,73.10297,NH3,6,18,12
India,Maharashtra,Navi Mumbai,"Sector-2E Kalamboli, Navi Mumbai - MPCB",18-01-2026 08:00:00,19.02579,73.10297,OZONE,NA,NA,NA
India,Maharashtra,Navi Mumbai,"Tondare-Taloja, Navi Mumbai - MPCB",18-01-2026 08:00:00,19.0630,73.1209,PM2.5,38,172,94
India,Maharashtra,Navi Mumbai,"Tondare-Taloja, Navi Mumbai - MPCB",18-01-2026 08:00:00,19.0630,73.1209,PM10,59,117,89
India,Maharashtra,Parbhani,"Masoom Colony, Parbhani - MPCB",18-01-2026 08:00:00,19.265594,76.761463,NH3,3,5,4
India,Maharashtra,Pune,"Revenue Colony-Shivajinagar, Pune - IITM",18-01-2026 08:00:00,18.530085,73.849598,PM10,52,118,89
India,Maharashtra,Pune,"Revenue Colony-Shivajinagar, Pune - IITM",18-01-2026 08:00:00,18.530085,73.849598,CO,42,102,50
India,Maharashtra,Pune,"Transport Nagar-Nigdi, Pune - IITM",18-01-2026 08:00:00,18.664282,73.763966,PM10,46,147,96
India,Maharashtra,Solapur,"Dnyaneshwar Nagar, Solapur - MPCB",18-01-2026 08:00:00,17.6336264,75.9132495,PM10,51,254,113
India,Maharashtra,Solapur,"Dnyaneshwar Nagar, Solapur - MPCB",18-01-2026 08:00:00,17.6336264,75.9132495,NH3,8,44,20
India,Maharashtra,Pimpri-Chinchwad,"Savta Mali Nagar, Pimpri-Chinchwad - IITM",18-01-2026 08:00:00,18.614767,73.799516,PM10,42,158,90
India,Maharashtra,Pimpri-Chinchwad,"Savta Mali Nagar, Pimpri-Chinchwad - IITM",18-01-2026 08:00:00,18.614767,73.799516,NO2,20,97,60
India,Maharashtra,Pimpri-Chinchwad,"Savta Mali Nagar, Pimpri-Chinchwad - IITM",18-01-2026 08:00:00,18.614767,73.799516,OZONE,2,59,4
India,Maharashtra,Pimpri-Chinchwad,"Thergaon, Pimpri Chinchwad - MPCB",18-01-2026 08:00:00,18.616318,73.765797,CO,2,102,47
India,Maharashtra,Nashik,"Gangapur Road, Nashik - MPCB",18-01-2026 08:00:00,20.0073285,73.7762427,NH3,3,3,3
India,Maharashtra,Nashik,"Gangapur Road, Nashik - MPCB",18-01-2026 08:00:00,20.0073285,73.7762427,SO2,1,7,2
India,Maharashtra,Nashik,"Hirawadi, Nashik - MPCB",18-01-2026 08:00:00,20.021503,73.813844,NH3,1,7,3
India,Maharashtra,Nashik,"MIDC Ambad, Nashik - MPCB",18-01-2026 08:00:00,19.950220,73.731480,PM2.5,39,101,58
India,Maharashtra,Ulhasnagar,"Sidhi Vinayak Nagar, Ulhasnagar - MPCB",18-01-2026 08:00:00,19.235581,73.159121,NH3,4,5,5
India,Maharashtra,Virar,"Bolinj, Virar - MPCB",18-01-2026 08:00:00,19.4458210,72.7988231,PM2.5,50,151,92
India,Maharashtra,Pune,"Hadapsar, Pune - IITM",18-01-2026 08:00:00,18.501793,73.927532,OZONE,2,91,8
India,Maharashtra,Pune,"Panchawati_Pashan, Pune - IITM",18-01-2026 08:00:00,18.536457,73.805454,NO2,4,23,12
India,Maharashtra,Pune,"Panchawati_Pashan, Pune - IITM",18-01-2026 08:00:00,18.536457,73.805454,OZONE,1,28,1
India,Maharashtra,Virar,"Bolinj, Virar - MPCB",18-01-2026 08:00:00,19.4458210,72.7988231,OZONE,1,40,2
India,Meghalaya,Shillong,"Lumpyngngad, Shillong - Meghalaya PCB",18-01-2026 08:00:00,25.5586,91.8985,OZONE,6,12,10
India,Maharashtra,Thane,"Kasarvadavali, Thane - MPCB",18-01-2026 08:00:00,19.26777,72.97182,SO2,2,7,3
India,Maharashtra,Thane,"Upvan Fort, Thane - MPCB",18-01-2026 08:00:00,19.222279,72.957979,PM2.5,15,122,50
India,Maharashtra,Pimpri-Chinchwad,"Gavalinagar, Pimpri Chinchwad - MPCB",18-01-2026 08:00:00,18.63673,73.82487,OZONE,NA,NA,NA
India,Maharashtra,Pimpri-Chinchwad,"Park Street Wakad, Pimpri Chinchwad - MPCB",18-01-2026 08:00:00,18.59051,73.77946,SO2,NA,NA,NA
India,Odisha,Byasanagar,"Ferro Chrome Colony, Byasanagar - OSPCB",18-01-2026 08:00:00,20.94185,86.11510,NH3,2,3,2
India,Odisha,Cuttack,"CDA Area, Cuttack - OSPCB",18-01-2026 08:00:00,20.48891     ,85.84768     ,PM10,95,229,154
India,Odisha,Cuttack,"CDA Area, Cuttack - OSPCB",18-01-2026 08:00:00,20.48891     ,85.84768     ,OZONE,9,267,44
India,Odisha,Keonjhar,"Jagamohanpur, Keonjhar - OSPCB",18-01-2026 08:00:00,21.643900,85.599355,PM2.5,71,111,84
India,Odisha,Nayagarh,"Dabuna, Nayagarh - OSPCB",18-01-2026 08:00:00,21.847279,85.416905,PM2.5,21,67,42
India,Odisha,Nayagarh,"Dabuna, Nayagarh - OSPCB",18-01-2026 08:00:00,21.847279,85.416905,SO2,6,7,7
India,Odisha,Nayagarh,"Dabuna, Nayagarh - OSPCB",18-01-2026 08:00:00,21.847279,85.416905,CO,16,32,28
India,Odisha,Nayagarh,"Dabuna, Nayagarh - OSPCB",18-01-2026 08:00:00,21.847279,85.416905,OZONE,11,43,11
India,Odisha,Rairangpur,"Divisional Forest Office, Rairangpur - OSPCB",18-01-2026 08:00:00,22.265816,86.174829,PM2.5,38,111,70
India,Odisha,Rairangpur,"Divisional Forest Office, Rairangpur - OSPCB",18-01-2026 08:00:00,22.265816,86.174829,CO,18,53,28
India,Odisha,Rairangpur,"Divisional Forest Office, Rairangpur - OSPCB",18-01-2026 08:00:00,22.265816,86.174829,OZONE,9,63,13
India,Odisha,Rourkela,"Fertilizer Township, Rourkela - OSPCB",18-01-2026 08:00:00,22.18972222,84.86277778,PM2.5,98,145,115
India,Odisha,Rourkela,"Fertilizer Township, Rourkela - OSPCB",18-01-2026 08:00:00,22.18972222,84.86277778,SO2,9,10,9
India,Punjab,Mandi Gobindgarh,"RIMT University, Mandi Gobindgarh - PPCB",18-01-2026 08:00:00,30.649961,76.331442,NH3,6,6,6
India,Punjab,Patiala,"Model Town, Patiala - PPCB",18-01-2026 08:00:00,30.349388,76.366642,PM10,106,191,151
India,Punjab,Patiala,"Model Town, Patiala - PPCB",18-01-2026 08:00:00,30.349388,76.366642,OZONE,12,42,13
India,Rajasthan,Alwar,"Moti Doongri, Alwar - RSPCB",18-01-2026 08:00:00,27.554793,76.611536,NH3,10,14,13
India,Rajasthan,Alwar,"Moti Doongri, Alwar - RSPCB",18-01-2026 08:00:00,27.554793,76.611536,SO2,2,47,26
India,Rajasthan,Alwar,"Moti Doongri, Alwar - RSPCB",18-01-2026 08:00:00,27.554793,76.611536,OZONE,10,71,16
India,Rajasthan,Banswara,"Rati Talai, Banswara - RSPCB",18-01-2026 08:00:00,23.555190,74.440010,PM10,61,217,116
India,Rajasthan,Banswara,"Rati Talai, Banswara - RSPCB",18-01-2026 08:00:00,23.555190,74.440010,NO2,14,134,50
India,Rajasthan,Baran,"Bamboliya, Baran - RSPCB",18-01-2026 08:00:00,25.106006,76.469948,NO2,18,102,48
India,Rajasthan,Baran,"Bamboliya, Baran - RSPCB",18-01-2026 08:00:00,25.106006,76.469948,NH3,8,11,10
India,Rajasthan,Barmer,"Railway Colony, Barmer - RSPCB",18-01-2026 08:00:00,25.747299,71.393989,PM10,50,199,89
India,Rajasthan,Barmer,"Railway Colony, Barmer - RSPCB",18-01-2026 08:00:00,25.747299,71.393989,CO,8,90,22
India,Rajasthan,Bharatpur,"Krishna Nagar, Bharatpur - RSPCB",18-01-2026 08:00:00,27.215415,77.50873,SO2,1,12,4
India,Rajasthan,Bhilwara,"Pratap Nagar, Bhilwara - RSPCB",18-01-2026 08:00:00,25.339605,74.618883,PM2.5,62,346,126
India,Rajasthan,Bhiwadi,"Vasundhara Nagar_UIT, Bhiwadi - RSPCB",18-01-2026 08:00:00,28.207266,76.829265,PM10,79,500,301
India,Odisha,Rourkela,"Raghunathpali, Rourkela - OSPCB",18-01-2026 08:00:00,22.220833,84.809444,PM2.5,107,314,235
India,Odisha,Rourkela,"Raghunathpali, Rourkela - OSPCB",18-01-2026 08:00:00,22.220833,84.809444,NO2,15,25,16
India,Odisha,Rourkela,"Raghunathpali, Rourkela - OSPCB",18-01-2026 08:00:00,22.220833,84.809444,SO2,4,7,5
India,Odisha,Rourkela,"Raghunathpali, Rourkela - OSPCB",18-01-2026 08:00:00,22.220833,84.809444,CO,41,112,79
India,Odisha,Talcher,"Talcher Coalfields,Talcher - OSPCB",18-01-2026 08:00:00,20.9360711,85.1707021,PM2.5,59,429,251
India,Odisha,Talcher,"Talcher Coalfields,Talcher - OSPCB",18-01-2026 08:00:00,20.9360711,85.1707021,SO2,5,41,20
India,Odisha,Tensa,"Barsua Iron Ore Mines, Tensa - OSPCB",18-01-2026 08:00:00,21.869985,85.167016,PM2.5,NA,NA,NA
India,Odisha,Tensa,"Barsua Iron Ore Mines, Tensa - OSPCB",18-01-2026 08:00:00,21.869985,85.167016,NH3,NA,NA,NA
India,Odisha,Bhubaneswar,"Lingraj Mandir, Bhubaneswar - OSPCB",18-01-2026 08:00:00,20.240790,85.836784,PM10,114,260,175
India,Odisha,Bhubaneswar,"Patia, Bhubaneswar - OSPCB",18-01-2026 08:00:00,20.34652,85.81630,OZONE,6,162,22
India,Odisha,Bileipada,"Tata Township, Bileipada - OSPCB",18-01-2026 08:00:00,22.06156703,85.47409613,PM10,100,194,139
India,Odisha,Brajrajnagar,"GM Office, Brajrajnagar - OSPCB",18-01-2026 08:00:00,21.8004996,83.8396977,NH3,10,10,10
India,Odisha,Brajrajnagar,"GM Office, Brajrajnagar - OSPCB",18-01-2026 08:00:00,21.8004996,83.8396977,OZONE,28,32,30
India,Puducherry,Puducherry,"Jawahar Nagar, Puducherry - PPCC",18-01-2026 08:00:00,11.9309,79.8027,CO,12,36,21
India,Punjab,Amritsar,"Golden Temple, Amritsar - PPCB",18-01-2026 08:00:00,31.620000,74.876512,NH3,5,8,7
India,Punjab,Amritsar,"Golden Temple, Amritsar - PPCB",18-01-2026 08:00:00,31.620000,74.876512,OZONE,30,47,39
India,Punjab,Bathinda,"Hardev Nagar, Bathinda - PPCB",18-01-2026 08:00:00,30.233011,74.907758,PM2.5,39,469,92
India,Rajasthan,Bikaner,"MM Ground, Bikaner - RSPCB",18-01-2026 08:00:00,28.018792,73.292658,SO2,2,21,9
India,Rajasthan,Bikaner,"MM Ground, Bikaner - RSPCB",18-01-2026 08:00:00,28.018792,73.292658,CO,16,127,41
India,Rajasthan,Churu,"Subash Chowk, Churu - RSPCB",18-01-2026 08:00:00,28.296139,74.961696,PM2.5,82,341,232
India,Mizoram,Aizawl,"Sikulpuikawn, Aizawl - Mizoram PCB",18-01-2026 08:00:00,23.7176342,92.7192841,PM10,49,53,51
India,Odisha,Barbil,"Forest Office, Barbil - OSPCB",18-01-2026 08:00:00,22.1166054,85.3945546,PM10,53,232,116
India,Rajasthan,Jhunjhunu,"Indra Nagar, Jhunjhunu - RSPCB",18-01-2026 08:00:00,28.108988,75.386577,OZONE,18,140,34
India,Rajasthan,Jodhpur,"Collectorate, Jodhpur - RSPCB",18-01-2026 08:00:00,26.268249,73.0193853,SO2,1,18,10
India,Rajasthan,Jodhpur,"Digari Kalan, Jodhpur - RSPCB",18-01-2026 08:00:00,26.295810,73.082283,PM10,NA,NA,NA
India,Rajasthan,Jodhpur,"Digari Kalan, Jodhpur - RSPCB",18-01-2026 08:00:00,26.295810,73.082283,SO2,1,13,5
India,Rajasthan,Jodhpur,"Jhalamand, Jodhpur - RSPCB",18-01-2026 08:00:00,26.215415,73.070156,SO2,3,29,8
India,Rajasthan,Jodhpur,"Mandor, Jodhpur - RSPCB",18-01-2026 08:00:00,26.358805,73.047444,SO2,3,14,7
India,Rajasthan,Jaipur,"Police Commissionerate, Jaipur - RSPCB",18-01-2026 08:00:00,26.9164092,75.7994901,NO2,114,154,135
India,Rajasthan,Jaipur,"RIICO Sitapura, Jaipur - RSPCB",18-01-2026 08:00:00,26.786682,75.827928,PM2.5,48,348,227
India,Rajasthan,Jaipur,"RIICO Sitapura, Jaipur - RSPCB",18-01-2026 08:00:00,26.786682,75.827928,CO,17,143,47
India,Rajasthan,Jaipur,"Sector-2 Murlipura, Jaipur - RSPCB",18-01-2026 08:00:00,26.960669,75.771817,PM10,64,368,130
India,Rajasthan,Kota,"Nayapura, Kota - RSPCB",18-01-2026 08:00:00,25.196024,75.855668,NH3,13,18,15
India,Rajasthan,Kota,"Shrinath Puram, Kota - RSPCB",18-01-2026 08:00:00,25.14389,75.821256,PM10,76,182,128
India,Rajasthan,Nagaur,"Karni Colony, Nagaur - RSPCB",18-01-2026 08:00:00,27.213494,73.734444,NO2,NA,NA,NA
India,Rajasthan,Hanumangarh,"Housing Board, Hanumangarh - RSPCB",18-01-2026 08:00:00,29.610750,74.283608,CO,NA,NA,NA
India,Rajasthan,Hanumangarh,"Housing Board, Hanumangarh - RSPCB",18-01-2026 08:00:00,29.610750,74.283608,OZONE,NA,NA,NA
India,Rajasthan,Jaipur,"Mansarovar Sector-12, Jaipur - RSPCB",18-01-2026 08:00:00,26.843698,75.766894,PM2.5,43,315,174
India,Rajasthan,Jalore,"Mudtra Sili, Jalore - RSPCB",18-01-2026 08:00:00,25.344694,72.626208,PM10,84,269,134
India,Rajasthan,Jalore,"Mudtra Sili, Jalore - RSPCB",18-01-2026 08:00:00,25.344694,72.626208,NH3,5,9,7
India,Rajasthan,Jalore,"Mudtra Sili, Jalore - RSPCB",18-01-2026 08:00:00,25.344694,72.626208,SO2,3,11,6
India,Rajasthan,Jalore,"Mudtra Sili, Jalore - RSPCB",18-01-2026 08:00:00,25.344694,72.626208,OZONE,9,100,16
India,Rajasthan,Jaipur,"Shastri Nagar, Jaipur - RSPCB",18-01-2026 08:00:00,26.9502929,75.730943,SO2,10,46,25
India,Rajasthan,Jaipur,"Shastri Nagar, Jaipur - RSPCB",18-01-2026 08:00:00,26.9502929,75.730943,OZONE,12,54,23
India,Rajasthan,Jaisalmer,"Sadar Bazar, Jaisalmer - RSPCB",18-01-2026 08:00:00,26.912329,70.909168,NH3,10,14,12
India,Rajasthan,Karauli,"Satyawati Vihar, Karauli - RSPCB",18-01-2026 08:00:00,26.506177,77.025989,PM2.5,26,139,72
India,Rajasthan,Kota,"Dhanmandi, Kota - RSPCB",18-01-2026 08:00:00,25.164090,75.858137,NH3,3,9,6
India,Rajasthan,Jaipur,"Mansarovar Sector-12, Jaipur - RSPCB",18-01-2026 08:00:00,26.843698,75.766894,PM10,83,279,155
India,Rajasthan,Hanumangarh,"Housing Board, Hanumangarh - RSPCB",18-01-2026 08:00:00,29.610750,74.283608,NO2,NA,NA,NA
India,Rajasthan,Pratapgarh,"Pragati Nagar, Pratapgarh - RSPCB",18-01-2026 08:00:00,24.041198,74.780702,NH3,6,10,7
India,Rajasthan,Pratapgarh,"Pragati Nagar, Pratapgarh - RSPCB",18-01-2026 08:00:00,24.041198,74.780702,CO,22,67,25
India,Rajasthan,Rajsamand,"Dhoinda, Rajsamand - RSPCB",18-01-2026 08:00:00,25.036360,73.883502,NO2,14,69,28
India,Rajasthan,Rajsamand,"Dhoinda, Rajsamand - RSPCB",18-01-2026 08:00:00,25.036360,73.883502,SO2,7,30,13
India,Rajasthan,Sawai Madhopur,"Sahu Nagar, Sawai Madhopur - RSPCB",18-01-2026 08:00:00,26.031443,76.359327,PM2.5,34,393,170
India,Rajasthan,Sawai Madhopur,"Sahu Nagar, Sawai Madhopur - RSPCB",18-01-2026 08:00:00,26.031443,76.359327,NO2,4,105,34
India,Rajasthan,Sawai Madhopur,"Sahu Nagar, Sawai Madhopur - RSPCB",18-01-2026 08:00:00,26.031443,76.359327,NH3,7,15,12
India,Rajasthan,Sirohi,"Vedhaynath Colony, Sirohi - RSPCB",18-01-2026 08:00:00,24.885261,72.857549,NO2,13,119,56
India,Rajasthan,Sirohi,"Vedhaynath Colony, Sirohi - RSPCB",18-01-2026 08:00:00,24.885261,72.857549,SO2,3,10,6
India,Telangana,Hyderabad,"ICRISAT Patancheru, Hyderabad - TSPCB",18-01-2026 08:00:00,17.518400,78.278777,SO2,1,32,10
India,Telangana,Hyderabad,"IDA Pashamylaram, Hyderabad - TSPCB",18-01-2026 08:00:00,17.5316895,78.218939,NH3,1,1,1
India,Telangana,Hyderabad,"IDA Pashamylaram, Hyderabad - TSPCB",18-01-2026 08:00:00,17.5316895,78.218939,CO,31,84,58
India,Telangana,Hyderabad,"IDA Pashamylaram, Hyderabad - TSPCB",18-01-2026 08:00:00,17.5316895,78.218939,OZONE,12,13,13
India,Telangana,Hyderabad,"Kokapet, Hyderabad - TSPCB",18-01-2026 08:00:00,17.393559,78.339194,NO2,10,15,12
India,Telangana,Hyderabad,"Kompally Municipal Office, Hyderabad - TSPCB",18-01-2026 08:00:00,17.544899,78.486949,PM2.5,36,54,43
India,Telangana,Hyderabad,"Kompally Municipal Office, Hyderabad - TSPCB",18-01-2026 08:00:00,17.544899,78.486949,NO2,10,13,11
India,Telangana,Hyderabad,"Kompally Municipal Office, Hyderabad - TSPCB",18-01-2026 08:00:00,17.544899,78.486949,SO2,8,13,11
India,TamilNadu,Chennai,"Royapuram, Chennai - TNPCB",18-01-2026 08:00:00,13.1036,80.2909,SO2,5,8,6
India,TamilNadu,Chennai,"Royapuram, Chennai - TNPCB",18-01-2026 08:00:00,13.1036,80.2909,CO,46,62,55
India,TamilNadu,Chennai,"Royapuram, Chennai - TNPCB",18-01-2026 08:00:00,13.1036,80.2909,OZONE,16,18,17
India,TamilNadu,Coimbatore,"PSG College of Arts and Science, Coimbatore - TNPCB",18-01-2026 08:00:00,11.0328,77.0349,PM10,77,110,96
India,TamilNadu,Coimbatore,"PSG College of Arts and Science, Coimbatore - TNPCB",18-01-2026 08:00:00,11.0328,77.0349,NH3,1,1,1
India,TamilNadu,Cuddalore,"Kudikadu, Cuddalore - TNPCB",18-01-2026 08:00:00,11.6829898,79.7532099,NO2,19,20,19
India,TamilNadu,Cuddalore,"Semmandalam, Cuddalore - TNPCB",18-01-2026 08:00:00,11.7637683,79.7499835,NH3,1,3,2
India,TamilNadu,Ramanathapuram,"Chalai Bazaar, Ramanathapuram - TNPCB",18-01-2026 08:00:00,9.36399,78.831977,SO2,2,37,6
India,TamilNadu,Thoothukudi,"Meelavittan, Thoothukudi - TNPCB",18-01-2026 08:00:00,8.816428 ,78.099039,SO2,5,17,12
India,TamilNadu,Thoothukudi,"Meelavittan, Thoothukudi - TNPCB",18-01-2026 08:00:00,8.816428 ,78.099039,OZONE,26,36,30
India,Telangana,Hyderabad,"Bollaram Industrial Area, Hyderabad - TSPCB",18-01-2026 08:00:00,17.540891,78.358528,NH3,3,13,6
India,Telangana,Hyderabad,"Central University, Hyderabad - TSPCB",18-01-2026 08:00:00,17.460103,78.334361,PM2.5,32,119,70
India,TamilNadu,Chennai,"Arumbakkam, Chennai - TNPCB",18-01-2026 08:00:00,13.0664,80.2112 ,PM10,101,160,120
India,TamilNadu,Chennai,"Gandhi Nagar_Ennore, Chennai - TNPCB",18-01-2026 08:00:00,13.218341,80.32027,SO2,22,22,22
India,TamilNadu,Chennai,"Gandhi Nagar_Ennore, Chennai - TNPCB",18-01-2026 08:00:00,13.218341,80.32027,CO,4,10,5
India,TamilNadu,Chennai,"Kodungaiyur, Chennai - TNPCB",18-01-2026 08:00:00,13.1278,80.2642,NH3,2,5,4
India,TamilNadu,Chennai,"Perungudi, Chennai - TNPCB",18-01-2026 08:00:00,12.9533,80.2357,NH3,1,5,2
India,TamilNadu,Chennai,"Royapuram, Chennai - TNPCB",18-01-2026 08:00:00,13.1036,80.2909,PM2.5,30,86,48
India,TamilNadu,Gummidipoondi,"Anthoni Pillai Nagar, Gummidipoondi - TNPCB",18-01-2026 08:00:00,13.4127,80.1081,PM10,79,350,142
India,TamilNadu,Gummidipoondi,"Anthoni Pillai Nagar, Gummidipoondi - TNPCB",18-01-2026 08:00:00,13.4127,80.1081,NO2,1,4,2
India,TamilNadu,Karur,"Kamadenu Nagar, Karur - TNPCB",18-01-2026 08:00:00,10.967820,78.080882,NH3,3,3,3
India,TamilNadu,Madurai,"Uchapatti, Madurai - TNPCB",18-01-2026 08:00:00,9.865935,78.022669,PM10,55,117,83
India,TamilNadu,Madurai,"Uchapatti, Madurai - TNPCB",18-01-2026 08:00:00,9.865935,78.022669,NH3,9,9,9
India,Telangana,Hyderabad,"Nacharam_TSIIC IALA, Hyderabad - TSPCB",18-01-2026 08:00:00,17.429398,78.569354,PM2.5,53,70,66
India,Telangana,Hyderabad,"New Malakpet, Hyderabad - TSPCB",18-01-2026 08:00:00,17.37206,78.50864,PM10,78,116,93
India,Telangana,Hyderabad,"New Malakpet, Hyderabad - TSPCB",18-01-2026 08:00:00,17.37206,78.50864,NH3,2,3,2
India,Telangana,Hyderabad,"Sanathnagar, Hyderabad - TSPCB",18-01-2026 08:00:00,17.4559458,78.4332152,PM2.5,35,183,86
India,Telangana,Hyderabad,"Sanathnagar, Hyderabad - TSPCB",18-01-2026 08:00:00,17.4559458,78.4332152,SO2,7,40,17
India,Rajasthan,Sri Ganganagar,"Old City, Sri Ganganagar - RSPCB",18-01-2026 08:00:00,29.931624,73.864511,PM10,75,183,127
India,Rajasthan,Sri Ganganagar,"Old City, Sri Ganganagar - RSPCB",18-01-2026 08:00:00,29.931624,73.864511,NO2,37,100,70
India,Rajasthan,Tonk,"Shastri Nagar, Tonk - RSPCB",18-01-2026 08:00:00,26.159933,75.780517,SO2,2,8,5
India,Rajasthan,Udaipur,"Ashok Nagar, Udaipur - RSPCB",18-01-2026 08:00:00,24.5886166,73.6321397,NH3,2,19,8
India,Telangana,Hyderabad,"Somajiguda, Hyderabad - TSPCB",18-01-2026 08:00:00,17.417094,78.457437,NH3,4,5,4
India,Uttar_Pradesh,Agra,"Shastripuram, Agra - UPPCB",18-01-2026 08:00:00,27.19862,77.92066,OZONE,11,12,11
India,Uttar_Pradesh,Baghpat,"Sardar Patel Inter College, Baghpat - UPPCB",18-01-2026 08:00:00,28.964949,77.278761,NO2,10,22,13
India,Uttar_Pradesh,Baghpat,"Sardar Patel Inter College, Baghpat - UPPCB",18-01-2026 08:00:00,28.964949,77.278761,CO,2,32,10
India,Uttar_Pradesh,Bareilly,"Civil Lines, Bareilly - UPPCB",18-01-2026 08:00:00,28.359581,79.414455,SO2,28,40,33
India,Uttar_Pradesh,Bareilly,"Rajendra Nagar, Bareilly - UPPCB",18-01-2026 08:00:00,28.38910936,79.42963708,PM10,61,371,155
India,Uttar_Pradesh,Bulandshahr,"Yamunapuram, Bulandshahr - UPPCB",18-01-2026 08:00:00,28.406963,77.849831,PM2.5,91,418,274
India,Uttar_Pradesh,Bulandshahr,"Yamunapuram, Bulandshahr - UPPCB",18-01-2026 08:00:00,28.406963,77.849831,PM10,96,427,205
India,Uttar_Pradesh,Bulandshahr,"Yamunapuram, Bulandshahr - UPPCB",18-01-2026 08:00:00,28.406963,77.849831,OZONE,1,83,4
India,Uttar_Pradesh,Jhansi,"Shivaji Nagar, Jhansi - UPPCB",18-01-2026 08:00:00,25.4547,78.6039,SO2,16,32,18
India,Uttar_Pradesh,Jhansi,"Shivaji Nagar, Jhansi - UPPCB",18-01-2026 08:00:00,25.4547,78.6039,CO,10,36,18
India,Uttar_Pradesh,Kanpur,"FTI Kidwai Nagar, Kanpur - UPPCB",18-01-2026 08:00:00,26.428282,80.327067,CO,42,72,60
India,Uttar_Pradesh,Kanpur,"FTI Kidwai Nagar, Kanpur - UPPCB",18-01-2026 08:00:00,26.428282,80.327067,OZONE,8,11,9
India,Uttar_Pradesh,Kanpur,"NSI Kalyanpur, Kanpur - UPPCB",18-01-2026 08:00:00,26.509954,80.249612,PM10,100,273,154
India,Uttar_Pradesh,Kanpur,"NSI Kalyanpur, Kanpur - UPPCB",18-01-2026 08:00:00,26.509954,80.249612,NH3,5,5,5
India,Uttar_Pradesh,Kanpur,"NSI Kalyanpur, Kanpur - UPPCB",18-01-2026 08:00:00,26.509954,80.249612,SO2,20,22,21
India,Uttar_Pradesh,Khurja,"Kalindi Kunj, Khurja - UPPCB",18-01-2026 08:00:00,28.2348927,77.8683002,OZONE,22,30,28
India,Uttar_Pradesh,Ghaziabad,"Loni, Ghaziabad - UPPCB",18-01-2026 08:00:00,28.757294,77.278792,NH3,3,35,15
India,Uttar_Pradesh,Ghaziabad,"Sanjay Nagar, Ghaziabad - UPPCB",18-01-2026 08:00:00,28.685382,77.453839,PM2.5,184,500,402
India,Uttar_Pradesh,Ghaziabad,"Sanjay Nagar, Ghaziabad - UPPCB",18-01-2026 08:00:00,28.685382,77.453839,PM10,116,499,366
India,Uttar_Pradesh,Ghaziabad,"Vasundhara, Ghaziabad - UPPCB",18-01-2026 08:00:00,28.6603346,77.3572563,PM2.5,382,500,485
India,Uttar_Pradesh,Ghaziabad,"Vasundhara, Ghaziabad - UPPCB",18-01-2026 08:00:00,28.6603346,77.3572563,PM10,300,500,476
India,Uttar_Pradesh,Ghaziabad,"Vasundhara, Ghaziabad - UPPCB",18-01-2026 08:00:00,28.6603346,77.3572563,CO,1,168,152
India,Uttar_Pradesh,Gorakhpur,"Madan Mohan Malaviya University of Technology, Gorakhpur - UPPCB",18-01-2026 08:00:00,26.730136,83.433859,PM10,44,142,92
India,Uttar_Pradesh,Gorakhpur,"Madan Mohan Malaviya University of Technology, Gorakhpur - UPPCB",18-01-2026 08:00:00,26.730136,83.433859,OZONE,2,7,6
India,Uttar_Pradesh,Greater Noida,"Knowledge Park - III, Greater Noida - UPPCB",18-01-2026 08:00:00,28.47272,77.482000,PM2.5,219,456,361
India,Uttar_Pradesh,Greater Noida,"Knowledge Park - III, Greater Noida - UPPCB",18-01-2026 08:00:00,28.47272,77.482000,SO2,3,12,7
India,Uttar_Pradesh,Greater Noida,"Knowledge Park - III, Greater Noida - UPPCB",18-01-2026 08:00:00,28.47272,77.482000,OZONE,1,96,2
India,Uttar_Pradesh,Greater Noida,"Knowledge Park - V, Greater Noida - UPPCB",18-01-2026 08:00:00,28.557054,77.453663,NH3,4,13,9
India,Uttar_Pradesh,Greater Noida,"Knowledge Park - V, Greater Noida - UPPCB",18-01-2026 08:00:00,28.557054,77.453663,OZONE,3,131,4
India,Uttar_Pradesh,Lucknow,"B R Ambedkar University, Lucknow - UPPCB",18-01-2026 08:00:00,26.766433,80.927299,OZONE,17,86,18
India,Uttar_Pradesh,Lucknow,"Gomti Nagar, Lucknow - UPPCB",18-01-2026 08:00:00,26.868120,81.005119,OZONE,19,34,20
India,Uttar_Pradesh,Lucknow,"Kendriya Vidyalaya, Lucknow - CPCB",18-01-2026 08:00:00,26.906111,80.948222,PM10,115,284,188
India,Uttar_Pradesh,Lucknow,"Kendriya Vidyalaya, Lucknow - CPCB",18-01-2026 08:00:00,26.906111,80.948222,NO2,40,42,41
India,Uttar_Pradesh,Lucknow,"Kendriya Vidyalaya, Lucknow - CPCB",18-01-2026 08:00:00,26.906111,80.948222,NH3,12,17,15
India,Uttar_Pradesh,Lucknow,"Kendriya Vidyalaya, Lucknow - CPCB",18-01-2026 08:00:00,26.906111,80.948222,SO2,2,8,5
India,Uttar_Pradesh,Firozabad,"Nagla Bhau, Firozabad - UPPCB",18-01-2026 08:00:00,27.168897,78.376960,NO2,17,17,17
India,Uttar_Pradesh,Firozabad,"Nagla Bhau, Firozabad - UPPCB",18-01-2026 08:00:00,27.168897,78.376960,NH3,2,2,2
India,Uttar_Pradesh,Firozabad,"Vibhab Nagar, Firozabad - UPPCB",18-01-2026 08:00:00,27.1594,78.3953,PM2.5,66,267,119
India,Uttar_Pradesh,Firozabad,"Vibhab Nagar, Firozabad - UPPCB",18-01-2026 08:00:00,27.1594,78.3953,PM10,58,141,92
India,Uttar_Pradesh,Agra,"Manoharpur, Agra - UPPCB",18-01-2026 08:00:00,27.23711,78.01936,PM2.5,69,386,205
India,Uttar_Pradesh,Agra,"Manoharpur, Agra - UPPCB",18-01-2026 08:00:00,27.23711,78.01936,PM10,89,424,172
India,Uttar_Pradesh,Agra,"Manoharpur, Agra - UPPCB",18-01-2026 08:00:00,27.23711,78.01936,NO2,29,32,30
India,Uttar_Pradesh,Agra,"Manoharpur, Agra - UPPCB",18-01-2026 08:00:00,27.23711,78.01936,NH3,4,4,4
India,Uttar_Pradesh,Agra,"Shahjahan Garden, Agra - UPPCB",18-01-2026 08:00:00,27.169338,78.03582,OZONE,1,1,1
India,Uttar_Pradesh,Agra,"Rohta, Agra - UPPCB",18-01-2026 08:00:00,27.106972,78.000111,PM2.5,70,265,159
India,Uttar_Pradesh,Lucknow,"Kukrail Picnic Spot-1, Lucknow - UPPCB",18-01-2026 08:00:00,26.90723,80.98579,CO,12,22,20
India,Uttar_Pradesh,Lucknow,"Lalbagh, Lucknow - CPCB",18-01-2026 08:00:00,26.8458805,80.9365541,CO,2,102,48
India,Uttar_Pradesh,Lucknow,"Talkatora District Industries Center, Lucknow - CPCB",18-01-2026 08:00:00,26.83399722,80.8917361,PM10,146,314,210
India,Uttar_Pradesh,Lucknow,"Talkatora District Industries Center, Lucknow - CPCB",18-01-2026 08:00:00,26.83399722,80.8917361,NO2,40,48,44
India,Uttar_Pradesh,Lucknow,"Talkatora District Industries Center, Lucknow - CPCB",18-01-2026 08:00:00,26.83399722,80.8917361,SO2,1,17,7
India,Uttar_Pradesh,Meerut,"Ganga Nagar, Meerut - UPPCB",18-01-2026 08:00:00,28.999264,77.7590354,PM2.5,74,390,239
India,Uttar_Pradesh,Meerut,"Ganga Nagar, Meerut - UPPCB",18-01-2026 08:00:00,28.999264,77.7590354,NO2,47,148,76
India,Uttar_Pradesh,Meerut,"Ganga Nagar, Meerut - UPPCB",18-01-2026 08:00:00,28.999264,77.7590354,SO2,21,33,26
India,Uttar_Pradesh,Meerut,"Ganga Nagar, Meerut - UPPCB",18-01-2026 08:00:00,28.999264,77.7590354,OZONE,11,34,32
India,Uttar_Pradesh,Meerut,"Jai Bhim Nagar, Meerut - UPPCB",18-01-2026 08:00:00,28.9535882,77.7622941,PM10,94,396,226
India,Uttarakhand,Kashipur,"Govt. Girls Inter College, Kashipur - UKPCB",18-01-2026 08:00:00,29.2124114,78.9611753,PM10,NA,NA,NA
India,Uttarakhand,Kashipur,"Govt. Girls Inter College, Kashipur - UKPCB",18-01-2026 08:00:00,29.2124114,78.9611753,NO2,NA,NA,NA
India,Uttarakhand,Rishikesh,"Shivaji Nagar, Rishikesh - UKPCB",18-01-2026 08:00:00,30.075911,78.2859547,PM10,50,105,83
India,Uttarakhand,Rishikesh,"Shivaji Nagar, Rishikesh - UKPCB",18-01-2026 08:00:00,30.075911,78.2859547,NO2,17,31,24
India,Uttarakhand,Rishikesh,"Shivaji Nagar, Rishikesh - UKPCB",18-01-2026 08:00:00,30.075911,78.2859547,SO2,3,3,3
India,Uttarakhand,Rishikesh,"Shivaji Nagar, Rishikesh - UKPCB",18-01-2026 08:00:00,30.075911,78.2859547,CO,34,61,37
India,West_Bengal,Asansol,"Asansol Court Area, Asansol - WBPCB",18-01-2026 08:00:00,23.685297,86.945968,SO2,14,31,21
India,West_Bengal,Asansol,"Evelyn Lodge, Asansol - WBPCB",18-01-2026 08:00:00,23.6979360,86.9443950,PM2.5,63,322,222
India,West_Bengal,Asansol,"Evelyn Lodge, Asansol - WBPCB",18-01-2026 08:00:00,23.6979360,86.9443950,PM10,78,181,139
India,West_Bengal,Asansol,"Evelyn Lodge, Asansol - WBPCB",18-01-2026 08:00:00,23.6979360,86.9443950,NH3,5,8,6
India,West_Bengal,Asansol,"Evelyn Lodge, Asansol - WBPCB",18-01-2026 08:00:00,23.6979360,86.9443950,OZONE,5,65,16
India,Uttar_Pradesh,Varanasi,"Bhelupur, Varanasi - UPPCB",18-01-2026 08:00:00,25.301778,82.996789,PM10,76,253,141
India,Uttar_Pradesh,Varanasi,"IESD Banaras Hindu University, Varanasi - UPPCB",18-01-2026 08:00:00,25.262326,82.995408,NO2,2,3,2
India,Uttar_Pradesh,Varanasi,"IESD Banaras Hindu University, Varanasi - UPPCB",18-01-2026 08:00:00,25.262326,82.995408,CO,17,57,33
India,Uttar_Pradesh,Varanasi,"Maldahiya, Varanasi - UPPCB",18-01-2026 08:00:00,25.32393,82.99687,NO2,2,2,2
India,Uttar_Pradesh,Varanasi,"Maldahiya, Varanasi - UPPCB",18-01-2026 08:00:00,25.32393,82.99687,SO2,28,28,28
India,Uttar_Pradesh,Vrindavan,"Omex Eternity, Vrindavan - UPPCB",18-01-2026 08:00:00,27.5714090,77.6557570,NO2,12,12,12
India,Uttar_Pradesh,Vrindavan,"Omex Eternity, Vrindavan - UPPCB",18-01-2026 08:00:00,27.5714090,77.6557570,CO,58,85,72
India,Uttarakhand,Dehradun,"Doon University, Dehradun - UKPCB",18-01-2026 08:00:00,30.269444,78.044167,PM10,73,149,110
India,Uttar_Pradesh,Moradabad,"Kashiram Nagar, Moradabad - UPPCB",18-01-2026 08:00:00,28.849399,78.742362,OZONE,10,18,10
India,Uttar_Pradesh,Moradabad,"Transport Nagar, Moradabad - UPPCB",18-01-2026 08:00:00,28.802625,78.753728,NO2,29,30,29
India,Uttar_Pradesh,Moradabad,"Transport Nagar, Moradabad - UPPCB",18-01-2026 08:00:00,28.802625,78.753728,OZONE,26,35,28
India,Uttar_Pradesh,Muzaffarnagar,"New Mandi, Muzaffarnagar - UPPCB",18-01-2026 08:00:00,29.4723508,77.7194031,PM2.5,72,465,324
India,Uttar_Pradesh,Noida,"Sector - 62, Noida - IMD",18-01-2026 08:00:00,28.6245479,77.3577104,NO2,7,101,37
India,Uttar_Pradesh,Moradabad,"Buddhi Vihar, Moradabad - UPPCB",18-01-2026 08:00:00,28.83526,78.74460,PM10,60,408,164
India,Uttar_Pradesh,Moradabad,"Employment Office, Moradabad - UPPCB",18-01-2026 08:00:00,28.88528,78.73880,NH3,4,4,4
India,Uttar_Pradesh,Moradabad,"Employment Office, Moradabad - UPPCB",18-01-2026 08:00:00,28.88528,78.73880,SO2,21,30,25
India,Uttar_Pradesh,Moradabad,"Jigar Colony, Moradabad - UPPCB",18-01-2026 08:00:00,28.856664,78.772638,OZONE,17,23,17
India,Uttar_Pradesh,Moradabad,"Kashiram Nagar, Moradabad - UPPCB",18-01-2026 08:00:00,28.849399,78.742362,PM10,52,449,187
India,Uttar_Pradesh,Noida,"Sector-116, Noida - UPPCB",18-01-2026 08:00:00,28.569230,77.393848,PM2.5,332,500,431
India,Uttar_Pradesh,Noida,"Sector-116, Noida - UPPCB",18-01-2026 08:00:00,28.569230,77.393848,PM10,185,500,393
India,Uttar_Pradesh,Noida,"Sector-116, Noida - UPPCB",18-01-2026 08:00:00,28.569230,77.393848,SO2,5,13,9
India,Uttar_Pradesh,Prayagraj,"Nagar Nigam, Prayagraj - UPPCB",18-01-2026 08:00:00,25.44919916 ,81.82735986 ,NH3,8,25,15
India,Uttar_Pradesh,Prayagraj,"Nagar Nigam, Prayagraj - UPPCB",18-01-2026 08:00:00,25.44919916 ,81.82735986 ,OZONE,9,38,17
India,West_Bengal,Asansol,"Mahabir Colliery, Asansol - WBPCB",18-01-2026 08:00:00,23.6181830,87.1057180,PM10,75,218,145
India,West_Bengal,Barrackpore,"SVSPA Campus, Barrackpore - WBPCB",18-01-2026 08:00:00,22.7605581,88.3617589,OZONE,4,67,7
India,West_Bengal,Howrah,"Botanical Garden, Howrah - WBPCB",18-01-2026 08:00:00,22.554954,88.292568,OZONE,5,46,6
India,West_Bengal,Howrah,"Ghusuri, Howrah - WBPCB",18-01-2026 08:00:00,22.611968,88.347422,NO2,21,38,27
India,West_Bengal,Howrah,"Belur Math, Howrah - WBPCB",18-01-2026 08:00:00,22.629801,88.352017,NO2,91,221,152
India,West_Bengal,Howrah,"Padmapukur, Howrah - WBPCB",18-01-2026 08:00:00,22.5687319,88.2797276,NO2,8,97,50
India,West_Bengal,Howrah,"Padmapukur, Howrah - WBPCB",18-01-2026 08:00:00,22.5687319,88.2797276,SO2,2,20,8
India,West_Bengal,Kolkata,"Ballygunge, Kolkata - WBPCB",18-01-2026 08:00:00,22.5367507,88.3638022,SO2,7,47,22
India,West_Bengal,Kolkata,"Bidhannagar, Kolkata - WBPCB",18-01-2026 08:00:00,22.58157048,88.41002457,CO,20,90,65
India,West_Bengal,Kolkata,"Bidhannagar, Kolkata - WBPCB",18-01-2026 08:00:00,22.58157048,88.41002457,OZONE,14,41,14
India,West_Bengal,Kolkata,"Fort William, Kolkata - WBPCB",18-01-2026 08:00:00,22.556640,88.342674,PM2.5,85,313,220
India,West_Bengal,Kolkata,"Fort William, Kolkata - WBPCB",18-01-2026 08:00:00,22.556640,88.342674,NH3,9,10,9
India,West_Bengal,Kolkata,"Fort William, Kolkata - WBPCB",18-01-2026 08:00:00,22.556640,88.342674,SO2,5,38,12
India,West_Bengal,Kolkata,"Fort William, Kolkata - WBPCB",18-01-2026 08:00:00,22.556640,88.342674,OZONE,25,87,41
India,West_Bengal,Kolkata,"Jadavpur, Kolkata - WBPCB",18-01-2026 08:00:00,22.49929,88.36917,PM10,115,322,199
India,West_Bengal,Kolkata,"Jadavpur, Kolkata - WBPCB",18-01-2026 08:00:00,22.49929,88.36917,OZONE,8,14,9
India,West_Bengal,Kolkata,"Rabindra Bharati University, Kolkata - WBPCB",18-01-2026 08:00:00,22.627847,88.380669,NH3,12,13,12
India,West_Bengal,Siliguri,"Ward-32 Bapupara, Siliguri - WBPCB",18-01-2026 08:00:00,26.6879226,88.4152495,NO2,17,23,19
India,Assam,Sivasagar,"Girls College, Sivasagar - PCBA",18-01-2026 08:00:00,26.987634,94.636574,NH3,4,23,13
India,Bihar,Araria,"Kharahiya Basti, Araria - BSPCB",18-01-2026 08:00:00,26.146529,87.454184,NO2,1,12,4
India,Bihar,Araria,"Kharahiya Basti, Araria - BSPCB",18-01-2026 08:00:00,26.146529,87.454184,CO,14,34,22
India,Bihar,Arrah,"New DM Office, Arrah - BSPCB",18-01-2026 08:00:00,25.5626095,84.663264,CO,12,64,47
India,Bihar,Aurangabad,"Gurdeo Nagar, Aurangabad - BSPCB",18-01-2026 08:00:00,24.75746,84.366208,OZONE,4,104,11
India,Bihar,Begusarai,"Lohiyanagar, Begusarai - BSPCB",18-01-2026 08:00:00,25.42742023,86.13886079,CO,28,32,30
India,Bihar,Begusarai,"Lohiyanagar, Begusarai - BSPCB",18-01-2026 08:00:00,25.42742023,86.13886079,OZONE,3,8,7
India,Bihar,Bettiah,"Kamalnath Nagar, Bettiah - BSPCB",18-01-2026 08:00:00,26.80365,84.51954,NO2,8,9,8
India,Bihar,Bhagalpur,"DM Office_Kachari Chowk, Bhagalpur - BSPCB",18-01-2026 08:00:00,25.251013,86.989001,CO,51,66,59
India,Bihar,Bhagalpur,"DM Office_Kachari Chowk, Bhagalpur - BSPCB",18-01-2026 08:00:00,25.251013,86.989001,OZONE,13,22,17
India,Bihar,Bhagalpur,"Mayaganj, Bhagalpur - BSPCB",18-01-2026 08:00:00,25.265194,87.012947,PM2.5,67,243,109
India,Bihar,Bhagalpur,"Mayaganj, Bhagalpur - BSPCB",18-01-2026 08:00:00,25.265194,87.012947,NO2,7,10,8
India,Bihar,Bhagalpur,"Mayaganj, Bhagalpur - BSPCB",18-01-2026 08:00:00,25.265194,87.012947,NH3,9,12,10
India,Bihar,Bihar Sharif,"D M Colony, Bihar Sharif - BSPCB",18-01-2026 08:00:00,25.204762,85.514960,NO2,9,10,9
India,Bihar,Buxar,"Charitra Van, Buxar - BSPCB",18-01-2026 08:00:00,25.567520,83.966379,PM10,110,165,136
India,Bihar,Chhapra,"Darshan Nagar, Chhapra - BSPCB",18-01-2026 08:00:00,25.7808257,84.7446768,PM2.5,53,300,143
India,Bihar,Manguraha,"Forest Rest House, Manguraha - BSPCB",18-01-2026 08:00:00,27.308328,84.531742,NH3,1,2,1
India,Bihar,Motihari,"Gandak Colony, Motihari - BSPCB",18-01-2026 08:00:00,26.63086,84.90051,PM10,29,175,120
India,Bihar,Motihari,"Gandak Colony, Motihari - BSPCB",18-01-2026 08:00:00,26.63086,84.90051,NH3,3,3,3
India,Bihar,Munger,"Town Hall, Munger - BSPCB",18-01-2026 08:00:00,25.376776,86.471523,PM10,35,143,91
India,Bihar,Muzaffarpur,"Buddha Colony, Muzaffarpur - BSPCB",18-01-2026 08:00:00,26.11442,85.39813,NO2,36,61,45
India,Bihar,Muzaffarpur,"Buddha Colony, Muzaffarpur - BSPCB",18-01-2026 08:00:00,26.11442,85.39813,CO,34,105,63
India,Bihar,Muzaffarpur,"MIT-Daudpur Kothi, Muzaffarpur - BSPCB",18-01-2026 08:00:00,26.1403345,85.3650192,OZONE,5,57,5
India,Arunachal_Pradesh,Naharlagun,"Naharlagun, Naharlagun - APSPCB",18-01-2026 08:00:00,27.103358,93.679645,OZONE,5,6,6
India,Assam,Byrnihat,"Central Academy for SFS, Byrnihat - PCBA",18-01-2026 08:00:00,26.071318,91.87488,SO2,24,32,32
India,Assam,Byrnihat,"Central Academy for SFS, Byrnihat - PCBA",18-01-2026 08:00:00,26.071318,91.87488,CO,36,64,55
India,Assam,Byrnihat,"Central Academy for SFS, Byrnihat - PCBA",18-01-2026 08:00:00,26.071318,91.87488,OZONE,14,33,16
India,Assam,Guwahati,"LGBI Airport, Guwahati - PCBA",18-01-2026 08:00:00,26.10887,91.589544,PM2.5,54,147,97
India,Assam,Guwahati,"LGBI Airport, Guwahati - PCBA",18-01-2026 08:00:00,26.10887,91.589544,NH3,5,24,6
India,Assam,Guwahati,"Pan Bazaar, Guwahati - PCBA",18-01-2026 08:00:00,26.187500,91.744194,PM10,41,137,93
India,Andhra_Pradesh,Tirupati,"Vaikuntapuram, Tirupati - APPCB",18-01-2026 08:00:00,13.615387,79.409230,SO2,15,16,15
India,Andhra_Pradesh,Vijayawada,"HB Colony, Vijayawada - APPCB",18-01-2026 08:00:00,16.536107,80.594233,CO,46,47,46
India,Andhra_Pradesh,Vijayawada,"Kanuru, Vijayawada - APPCB",18-01-2026 08:00:00,16.486692,80.699436,PM10,63,71,68
India,Andhra_Pradesh,Vijayawada,"Rajiv Nagar, Vijayawada - APPCB",18-01-2026 08:00:00,16.554731,80.649110,PM2.5,NA,NA,NA
India,Andhra_Pradesh,Vijayawada,"Rajiv Nagar, Vijayawada - APPCB",18-01-2026 08:00:00,16.554731,80.649110,SO2,NA,NA,NA
India,Andhra_Pradesh,Visakhapatnam,"GVM Corporation, Visakhapatnam - APPCB",18-01-2026 08:00:00,17.72,83.3,PM10,129,473,214
India,Assam,Nagaon,"Christianpatty, Nagaon - PCBA",18-01-2026 08:00:00,26.349082,92.68449,CO,NA,NA,NA
India,Assam,Nalbari,"Bata Chowk, Nalbari - PCBA",18-01-2026 08:00:00,26.446912,91.439057,CO,20,22,21
India,Assam,Silchar,"Tarapur, Silchar - PCBA",18-01-2026 08:00:00,24.82827,92.79525,PM10,40,72,52
India,Assam,Silchar,"Tarapur, Silchar - PCBA",18-01-2026 08:00:00,24.82827,92.79525,NH3,1,2,1
India,Assam,Silchar,"Tarapur, Silchar - PCBA",18-01-2026 08:00:00,24.82827,92.79525,SO2,5,8,7
India,Assam,Sivasagar,"Girls College, Sivasagar - PCBA",18-01-2026 08:00:00,26.987634,94.636574,PM2.5,NA,NA,NA
India,Assam,Sivasagar,"Girls College, Sivasagar - PCBA",18-01-2026 08:00:00,26.987634,94.636574,PM10,NA,NA,NA
India,Andhra_Pradesh,Chittoor,"Gangineni Cheruvu, Chittoor - APPCB",18-01-2026 08:00:00,13.204880,79.097889,SO2,10,36,18
India,Andhra_Pradesh,Kadapa,"Yerramukkapalli, Kadapa - APPCB",18-01-2026 08:00:00,14.465052,78.824187,CO,7,20,9
India,Andhra_Pradesh,Rajamahendravaram,"Anand Kala Kshetram, Rajamahendravaram - APPCB",18-01-2026 08:00:00,16.9872867,81.7363176,PM10,110,156,127
India,Andhra_Pradesh,Tirumala,"Toll Gate, Tirumala - APPCB",18-01-2026 08:00:00,13.67,79.35,PM10,60,150,104
India,Bihar,Muzaffarpur,"Muzaffarpur Collectorate, Muzaffarpur - BSPCB",18-01-2026 08:00:00,26.1209,85.3647,SO2,3,7,5
India,Bihar,Patna,"DRM Office Danapur, Patna - BSPCB",18-01-2026 08:00:00,25.586562,85.043586,NO2,NA,NA,NA
India,Bihar,Patna,"Govt. High School Shikarpur, Patna - BSPCB",18-01-2026 08:00:00,25.592539,85.227158,OZONE,8,12,10
India,Bihar,Patna,"IGSC Planetarium Complex, Patna - BSPCB",18-01-2026 08:00:00,25.610369,85.132568,CO,69,73,72
India,Bihar,Gaya,"Kareemganj, Gaya - BSPCB",18-01-2026 08:00:00,24.792403,84.992416,PM2.5,167,379,258
India,Bihar,Gaya,"Kareemganj, Gaya - BSPCB",18-01-2026 08:00:00,24.792403,84.992416,CO,2,41,37
India,Bihar,Gaya,"Kareemganj, Gaya - BSPCB",18-01-2026 08:00:00,24.792403,84.992416,OZONE,1,80,3
India,Bihar,Kishanganj,"SDM Office_Khagra, Kishanganj - BSPCB",18-01-2026 08:00:00,26.0881305,87.93840336,PM2.5,15,52,37
India,Andhra_Pradesh,Amaravati,"Secretariat, Amaravati - APPCB",18-01-2026 08:00:00,16.5150833,80.5181667,NO2,20,69,38
India,Andhra_Pradesh,Anantapur,"Gulzarpet, Anantapur - APPCB",18-01-2026 08:00:00,14.675886,77.593027,PM2.5,76,98,88
India,Delhi,Delhi,"Ashok Vihar, Delhi - DPCC",18-01-2026 08:00:00,28.695381,77.181665,PM2.5,316,500,448
India,Delhi,Delhi,"Ashok Vihar, Delhi - DPCC",18-01-2026 08:00:00,28.695381,77.181665,NO2,34,167,100
India,Delhi,Delhi,"Ashok Vihar, Delhi - DPCC",18-01-2026 08:00:00,28.695381,77.181665,NH3,7,9,8
India,Delhi,Delhi,"Aya Nagar, Delhi - IMD",18-01-2026 08:00:00,28.4706914,77.1099364,PM2.5,82,439,344
India,Delhi,Delhi,"Aya Nagar, Delhi - IMD",18-01-2026 08:00:00,28.4706914,77.1099364,CO,46,121,103
India,Delhi,Delhi,"Bawana, Delhi - DPCC",18-01-2026 08:00:00,28.776200,77.051074,CO,96,154,116
India,Delhi,Delhi,"Bawana, Delhi - DPCC",18-01-2026 08:00:00,28.776200,77.051074,OZONE,6,201,7
India,Delhi,Delhi,"Burari Crossing, Delhi - IMD",18-01-2026 08:00:00,28.7256504,77.2011573,PM2.5,349,500,465
India,Delhi,Delhi,"Burari Crossing, Delhi - IMD",18-01-2026 08:00:00,28.7256504,77.2011573,CO,92,164,143
India,Delhi,Delhi,"Burari Crossing, Delhi - IMD",18-01-2026 08:00:00,28.7256504,77.2011573,OZONE,38,261,58
India,Delhi,Delhi,"CRRI Mathura Road, Delhi - IMD",18-01-2026 08:00:00,28.5512005,77.2735737,PM10,135,500,375
India,Delhi,Delhi,"CRRI Mathura Road, Delhi - IMD",18-01-2026 08:00:00,28.5512005,77.2735737,NO2,16,49,34
India,Delhi,Delhi,"Chandni Chowk, Delhi - IITM",18-01-2026 08:00:00,28.656756,77.227234,SO2,13,43,30
India,Delhi,Delhi,"DTU, Delhi - CPCB",18-01-2026 08:00:00,28.7500499,77.1112615,PM2.5,324,500,448
India,Delhi,Delhi,"DTU, Delhi - CPCB",18-01-2026 08:00:00,28.7500499,77.1112615,NO2,44,71,52
India,Delhi,Delhi,"DTU, Delhi - CPCB",18-01-2026 08:00:00,28.7500499,77.1112615,NH3,9,11,10
India,Delhi,Delhi,"DTU, Delhi - CPCB",18-01-2026 08:00:00,28.7500499,77.1112615,CO,102,127,123
India,Delhi,Delhi,"Dr. Karni Singh Shooting Range, Delhi - DPCC",18-01-2026 08:00:00,28.498571,77.264840,NH3,13,19,16
India,Delhi,Delhi,"Dr. Karni Singh Shooting Range, Delhi - DPCC",18-01-2026 08:00:00,28.498571,77.264840,SO2,9,18,13
India,Delhi,Delhi,"Dwarka-Sector 8, Delhi - DPCC ",18-01-2026 08:00:00,28.5710274,77.0719006,NO2,78,227,134
India,Delhi,Delhi,"Dwarka-Sector 8, Delhi - DPCC ",18-01-2026 08:00:00,28.5710274,77.0719006,SO2,16,29,24
India,Delhi,Delhi,"IGI Airport (T3), Delhi - IMD",18-01-2026 08:00:00,28.5627763,77.1180053,CO,42,133,107
India,Delhi,Delhi,"IHBAS, Dilshad Garden, Delhi - CPCB",18-01-2026 08:00:00,28.6811736,77.3025234,PM10,198,500,445
India,Delhi,Delhi,"IHBAS, Dilshad Garden, Delhi - CPCB",18-01-2026 08:00:00,28.6811736,77.3025234,OZONE,12,30,15
India,Delhi,Delhi,"IIT Delhi, Delhi - IITM",18-01-2026 08:00:00,28.542460,77.191651,NO2,13,131,62
India,Delhi,Delhi,"IIT Delhi, Delhi - IITM",18-01-2026 08:00:00,28.542460,77.191651,CO,102,140,124
India,Delhi,Delhi,"IIT Delhi, Delhi - IITM",18-01-2026 08:00:00,28.542460,77.191651,OZONE,9,81,11
India,Delhi,Delhi,"ITO, Delhi - CPCB",18-01-2026 08:00:00,28.628624,77.241060,PM2.5,327,500,450
India,Delhi,Delhi,"ITO, Delhi - CPCB",18-01-2026 08:00:00,28.628624,77.241060,NO2,24,135,75
India,Chhattisgarh,Raipur,"Bhatagaon New ISBT, Raipur - CECB",18-01-2026 08:00:00,21.219665,81.630094,NO2,4,63,33
India,Chhattisgarh,Raipur,"Bhatagaon New ISBT, Raipur - CECB",18-01-2026 08:00:00,21.219665,81.630094,OZONE,2,9,2
India,Chhattisgarh,Raipur,"Krishak Nagar, Raipur - CECB",18-01-2026 08:00:00,21.237755,81.705301,PM2.5,59,100,73
India,Chhattisgarh,Raipur,"Krishak Nagar, Raipur - CECB",18-01-2026 08:00:00,21.237755,81.705301,OZONE,13,21,13
India,Chhattisgarh,Raipur,"Siltara Phase-II, Raipur - CECB",18-01-2026 08:00:00,21.371751,81.664929,NH3,2,2,2
India,Chhattisgarh,Raipur,"Siltara Phase-II, Raipur - CECB",18-01-2026 08:00:00,21.371751,81.664929,CO,34,36,35
India,Delhi,Delhi,"Alipur, Delhi - DPCC",18-01-2026 08:00:00,28.815329,77.153010,PM10,141,441,289
India,Delhi,Delhi,"Alipur, Delhi - DPCC",18-01-2026 08:00:00,28.815329,77.153010,OZONE,4,61,4
India,Delhi,Delhi,"Anand Vihar, Delhi - DPCC",18-01-2026 08:00:00,28.647622,77.3158090,NO2,11,106,56
India,Chhattisgarh,Bhilai,"32Bungalows, Bhilai - CECB",18-01-2026 08:00:00,21.194815,81.314770,OZONE,2,60,2
India,Chhattisgarh,Bhilai,"Civic Center, Bhilai - Bhilai Steel Plant",18-01-2026 08:00:00,21.185571,81.343175,PM2.5,18,110,59
India,Chhattisgarh,Bhilai,"Civic Center, Bhilai - Bhilai Steel Plant",18-01-2026 08:00:00,21.185571,81.343175,SO2,8,11,9
India,Chhattisgarh,Bhilai,"Civic Center, Bhilai - Bhilai Steel Plant",18-01-2026 08:00:00,21.185571,81.343175,OZONE,9,16,10
India,Chhattisgarh,Bilaspur,"Mangala, Bilaspur - NTPC",18-01-2026 08:00:00,22.08815,82.13737,NO2,NA,NA,NA
India,Chhattisgarh,Chhal,"Nawapara SECL Colony, Chhal - CECB",18-01-2026 08:00:00,22.118125,83.140608,NO2,9,31,16
India,Delhi,Delhi,"Mundka, Delhi - DPCC",18-01-2026 08:00:00,28.684678,77.076574,CO,54,148,143
India,Delhi,Delhi,"Najafgarh, Delhi - DPCC",18-01-2026 08:00:00,28.570173,76.933762,PM2.5,267,500,407
India,Delhi,Delhi,"Najafgarh, Delhi - DPCC",18-01-2026 08:00:00,28.570173,76.933762,CO,61,146,127
India,Delhi,Delhi,"Narela, Delhi - DPCC",18-01-2026 08:00:00,28.822836,77.101981,PM10,159,495,386
India,Delhi,Delhi,"Narela, Delhi - DPCC",18-01-2026 08:00:00,28.822836,77.101981,SO2,7,48,16
India,Delhi,Delhi,"Nehru Nagar, Delhi - DPCC",18-01-2026 08:00:00,28.567890,77.250515,NH3,8,11,9
India,Delhi,Delhi,"Nehru Nagar, Delhi - DPCC",18-01-2026 08:00:00,28.567890,77.250515,SO2,3,110,22
India,Chhattisgarh,Korba,"Rampur, Korba - CECB",18-01-2026 08:00:00,22.368195,82.746431,SO2,5,16,10
India,Chhattisgarh,Kunjemura,"OP Jindal School, Kunjemura - CECB",18-01-2026 08:00:00,22.126650,83.483212,PM2.5,18,118,57
India,Chhattisgarh,Kunjemura,"OP Jindal School, Kunjemura - CECB",18-01-2026 08:00:00,22.126650,83.483212,NO2,14,82,37
India,Chhattisgarh,Milupara,"Govt. Higher Secondary School, Milupara - CECB",18-01-2026 08:00:00,22.1910172,83.5197009,OZONE,2,94,7
India,Chhattisgarh,Raipur,"AIIMS, Raipur - CECB",18-01-2026 08:00:00,21.258815,81.578979,PM10,44,105,74
India,Bihar,Samastipur,"DM Office_Kasipur, Samastipur - BSPCB",18-01-2026 08:00:00,25.859655,85.77944,OZONE,7,10,8
India,Bihar,Siwan,"Chitragupta Nagar, Siwan - BSPCB",18-01-2026 08:00:00,26.2271665,84.3570427,PM2.5,58,350,148
India,Chandigarh,Chandigarh,"Sector 22, Chandigarh - CPCC",18-01-2026 08:00:00,30.735567,76.775714,PM10,45,167,101
India,Chandigarh,Chandigarh,"Sector-53, Chandigarh - CPCC",18-01-2026 08:00:00,30.719859,76.738637,PM2.5,65,328,183
India,Bihar,Patna,"Samanpura, Patna - BSPCB",18-01-2026 08:00:00,25.596727,85.085624,PM10,NA,NA,NA
India,Bihar,Patna,"Samanpura, Patna - BSPCB",18-01-2026 08:00:00,25.596727,85.085624,SO2,1,2,1
India,Bihar,Purnia,"Mariam Nagar, Purnia - BSPCB",18-01-2026 08:00:00,25.366336,87.117468,NH3,3,3,3
India,Bihar,Samastipur,"DM Office_Kasipur, Samastipur - BSPCB",18-01-2026 08:00:00,25.859655,85.77944,PM10,94,179,131
India,Delhi,Delhi,"Jahangirpuri, Delhi - DPCC",18-01-2026 08:00:00,28.732820,77.170633,PM10,NA,NA,NA
India,Delhi,Delhi,"Mandir Marg, Delhi - DPCC",18-01-2026 08:00:00,28.636429,77.201067,CO,38,160,118
India,Gujarat,Surat,"Science Center, Surat - SMC",18-01-2026 08:00:00,21.170046,72.795405,CO,36,50,42
India,Gujarat,Vapi,"Phase-1 GIDC, Vapi - GPCB",18-01-2026 08:00:00,20.362421,72.918013,NO2,1,9,4
India,Gujarat,Vatva,"Phase-4 GIDC, Vatva - GPCB",18-01-2026 08:00:00,22.969611,72.643500,PM10,86,333,140
India,Gujarat,Vatva,"Phase-4 GIDC, Vatva - GPCB",18-01-2026 08:00:00,22.969611,72.643500,OZONE,18,46,18
India,Haryana,Ambala,"Patti Mehar, Ambala - HSPCB",18-01-2026 08:00:00,30.379589,76.778328,NO2,21,25,22
India,Haryana,Ambala,"Patti Mehar, Ambala - HSPCB",18-01-2026 08:00:00,30.379589,76.778328,SO2,15,32,21
India,Haryana,Bahadurgarh,"Arya Nagar, Bahadurgarh - HSPCB",18-01-2026 08:00:00,28.6701,76.9254,PM2.5,54,308,187
India,Gujarat,Ahmedabad,"SVPI Airport Hansol, Ahmedabad - IITM",18-01-2026 08:00:00,23.076793,72.627874,CO,9,53,34
India,Gujarat,Ankleshwar,"GIDC, Ankleshwar - GPCB",18-01-2026 08:00:00,21.613267,73.010555,NH3,6,7,7
India,Gujarat,Ankleshwar,"GIDC, Ankleshwar - GPCB",18-01-2026 08:00:00,21.613267,73.010555,CO,32,72,60
India,Gujarat,Gandhinagar,"GIFT City, Gandhinagar - IITM",18-01-2026 08:00:00,23.163798,72.677768,PM10,116,160,138
India,Gujarat,Gandhinagar,"GIFT City, Gandhinagar - IITM",18-01-2026 08:00:00,23.163798,72.677768,NH3,5,12,8
India,Gujarat,Gandhinagar,"GIFT City, Gandhinagar - IITM",18-01-2026 08:00:00,23.163798,72.677768,CO,16,41,24
India,Gujarat,Gandhinagar,"IIPHG Lekawada, Gandhinagar - IITM",18-01-2026 08:00:00,23.243639,72.68994,NO2,8,9,8
India,Gujarat,Gandhinagar,"IIPHG Lekawada, Gandhinagar - IITM",18-01-2026 08:00:00,23.243639,72.68994,SO2,8,11,9
India,Gujarat,Ahmedabad,"Raikhad, Ahmedabad - IITM",18-01-2026 08:00:00,23.020509,72.579261,OZONE,4,76,10
India,Gujarat,Ahmedabad,"Rakhial, Ahmedabad - IITM",18-01-2026 08:00:00,23.016834,72.625775,PM10,121,165,143
India,Gujarat,Ahmedabad,"Rakhial, Ahmedabad - IITM",18-01-2026 08:00:00,23.016834,72.625775,SO2,26,45,36
India,Gujarat,Ahmedabad,"SAC ISRO Bopal, Ahmedabad - IITM",18-01-2026 08:00:00,23.041137,72.456691,NO2,15,39,24
India,Gujarat,Ahmedabad,"SAC ISRO Satellite, Ahmedabad - IITM",18-01-2026 08:00:00,23.023389,72.515201,PM2.5,55,190,99
India,Gujarat,Ahmedabad,"SAC ISRO Satellite, Ahmedabad - IITM",18-01-2026 08:00:00,23.023389,72.515201,OZONE,2,49,4
India,Haryana,Charkhi Dadri,"Mini Secretariat, Charkhi Dadri - HSPCB",18-01-2026 08:00:00,28.593883,76.270653,PM10,70,402,231
India,Haryana,Charkhi Dadri,"Mini Secretariat, Charkhi Dadri - HSPCB",18-01-2026 08:00:00,28.593883,76.270653,NO2,9,27,16
India,Haryana,Charkhi Dadri,"Mini Secretariat, Charkhi Dadri - HSPCB",18-01-2026 08:00:00,28.593883,76.270653,CO,12,25,17
India,Haryana,Dharuhera,"Municipal Corporation Office, Dharuhera -  HSPCB",18-01-2026 08:00:00,28.206800,76.799700,NO2,13,54,33
India,Haryana,Dharuhera,"Municipal Corporation Office, Dharuhera -  HSPCB",18-01-2026 08:00:00,28.206800,76.799700,NH3,10,30,21
India,Haryana,Dharuhera,"Municipal Corporation Office, Dharuhera -  HSPCB",18-01-2026 08:00:00,28.206800,76.799700,SO2,1,2,1
India,Delhi,Delhi,"Okhla Phase-2, Delhi - DPCC",18-01-2026 08:00:00,28.530785,77.271255,PM10,246,500,420
India,Delhi,Delhi,"Okhla Phase-2, Delhi - DPCC",18-01-2026 08:00:00,28.530785,77.271255,CO,90,126,119
India,Delhi,Delhi,"Patparganj, Delhi - DPCC",18-01-2026 08:00:00,28.623763,77.287209,OZONE,3,304,6
India,Delhi,Delhi,"Punjabi Bagh, Delhi - DPCC",18-01-2026 08:00:00,28.674045,77.131023,SO2,11,22,18
India,Delhi,Delhi,"Pusa, Delhi - IMD",18-01-2026 08:00:00,28.636110,77.173332,PM10,266,500,402
India,Delhi,Delhi,"R K Puram, Delhi - DPCC",18-01-2026 08:00:00,28.563262,77.186937,CO,105,170,137
India,Delhi,Delhi,"Rohini, Delhi - DPCC",18-01-2026 08:00:00,28.732528,77.119920,PM2.5,404,500,484
India,Delhi,Delhi,"Sonia Vihar, Delhi - DPCC",18-01-2026 08:00:00,28.710508,77.249485,PM2.5,341,500,475
India,Delhi,Delhi,"Sonia Vihar, Delhi - DPCC",18-01-2026 08:00:00,28.710508,77.249485,NO2,28,136,88
India,Delhi,Delhi,"Sonia Vihar, Delhi - DPCC",18-01-2026 08:00:00,28.710508,77.249485,SO2,8,25,15
India,Delhi,Delhi,"Wazirpur, Delhi - DPCC",18-01-2026 08:00:00,28.699793,77.165453,PM10,399,500,473
India,Delhi,Delhi,"Wazirpur, Delhi - DPCC",18-01-2026 08:00:00,28.699793,77.165453,NO2,79,237,148
India,Gujarat,Ahmedabad,"Chandkheda, Ahmedabad - IITM",18-01-2026 08:00:00,23.107969,72.574648,PM10,114,185,140
India,Delhi,Delhi,"Sri Aurobindo Marg, Delhi - DPCC",18-01-2026 08:00:00,28.531346,77.190156,NO2,11,116,54
India,Gujarat,Ahmedabad,"Gyaspur, Ahmedabad - IITM",18-01-2026 08:00:00,22.977134,72.553024,CO,16,102,30
India,Karnataka,Belgaum,"Ramteerth Nagar, Belgaum - KSPCB",18-01-2026 08:00:00,15.888653,74.541751,NO2,14,131,58
India,Karnataka,Belgaum,"Ramteerth Nagar, Belgaum - KSPCB",18-01-2026 08:00:00,15.888653,74.541751,NH3,8,11,10
India,Karnataka,Belgaum,"Ramteerth Nagar, Belgaum - KSPCB",18-01-2026 08:00:00,15.888653,74.541751,OZONE,19,19,19
India,Karnataka,Bengaluru,"BTM Layout, Bengaluru - CPCB",18-01-2026 08:00:00,12.9135218,77.5950804,PM2.5,NA,NA,NA
India,Karnataka,Bengaluru,"BTM Layout, Bengaluru - CPCB",18-01-2026 08:00:00,12.9135218,77.5950804,SO2,NA,NA,NA
India,Karnataka,Bengaluru,"BTM Layout, Bengaluru - CPCB",18-01-2026 08:00:00,12.9135218,77.5950804,CO,NA,NA,NA
India,Karnataka,Bengaluru,"BWSSB Kadabesanahalli, Bengaluru - CPCB",18-01-2026 08:00:00,12.9352049,77.6814488,PM2.5,65,303,157
India,Karnataka,Bengaluru,"BWSSB Kadabesanahalli, Bengaluru - CPCB",18-01-2026 08:00:00,12.9352049,77.6814488,SO2,2,7,4
India,Karnataka,Bengaluru,"Bapuji Nagar, Bengaluru - KSPCB",18-01-2026 08:00:00,12.951913,77.539784,PM10,105,167,132
India,Karnataka,Bengaluru,"City Railway Station, Bengaluru - KSPCB",18-01-2026 08:00:00,12.9756843,77.5660749,NO2,32,35,33
India,Karnataka,Bengaluru,"City Railway Station, Bengaluru - KSPCB",18-01-2026 08:00:00,12.9756843,77.5660749,CO,70,82,75
India,Haryana,Hisar,"Urban Estate-II, Hisar - HSPCB",18-01-2026 08:00:00,29.140560,75.744941,NH3,NA,NA,NA
India,Haryana,Jind,"Police Lines, Jind - HSPCB",18-01-2026 08:00:00,29.307814,76.337619,PM10,91,174,129
India,Haryana,Jind,"Police Lines, Jind - HSPCB",18-01-2026 08:00:00,29.307814,76.337619,SO2,1,3,2
India,Haryana,Kaithal,"Rishi Nagar, Kaithal - HSPCB",18-01-2026 08:00:00,29.8006,76.4155,NH3,1,6,5
India,Haryana,Karnal,"Sector-12, Karnal - HSPCB",18-01-2026 08:00:00,29.695300,77.002700,PM2.5,114,341,263
India,Haryana,Karnal,"Sector-12, Karnal - HSPCB",18-01-2026 08:00:00,29.695300,77.002700,NO2,6,6,6
India,Haryana,Karnal,"Sector-12, Karnal - HSPCB",18-01-2026 08:00:00,29.695300,77.002700,NH3,6,7,6
India,Haryana,Karnal,"Sector-12, Karnal - HSPCB",18-01-2026 08:00:00,29.695300,77.002700,SO2,6,7,6
India,Haryana,Karnal,"Sector-12, Karnal - HSPCB",18-01-2026 08:00:00,29.695300,77.002700,CO,45,68,54
India,Haryana,Kurukshetra,"Sector-7, Kurukshetra - HSPCB",18-01-2026 08:00:00,29.966942,76.875879,SO2,2,18,8
India,Haryana,Kurukshetra,"Sector-7, Kurukshetra - HSPCB",18-01-2026 08:00:00,29.966942,76.875879,CO,38,102,58
India,Himachal Pradesh,Baddi,"HIMUDA Complex Phase-1, Baddi - HPPCB",18-01-2026 08:00:00,30.943887,76.801991,PM10,86,500,212
India,Jammu_and_Kashmir,Srinagar,"Khunmoh, Srinagar - JKPCC",18-01-2026 08:00:00,34.06313,74.96017,NO2,3,7,5
India,Jammu_and_Kashmir,Srinagar,"Rajbagh, Srinagar - JKPCC",18-01-2026 08:00:00,34.066206,74.819820,PM10,21,35,30
India,Jharkhand,Dhanbad,"Sardar Patel Nagar, Dhanbad - JSPCB",18-01-2026 08:00:00,23.80569,86.44268,PM2.5,68,325,195
India,Karnataka,Bagalkot,"Vidayagiri, Bagalkot - KSPCB",18-01-2026 08:00:00,16.172806,75.659694,NH3,1,2,1
India,Karnataka,Bagalkot,"Vidayagiri, Bagalkot - KSPCB",18-01-2026 08:00:00,16.172806,75.659694,CO,8,38,22
India,Haryana,Panchkula,"Sector-6, Panchkula - HSPCB ",18-01-2026 08:00:00,30.7057778,76.8531805555555,NO2,24,26,25
India,Haryana,Panchkula,"Sector-6, Panchkula - HSPCB ",18-01-2026 08:00:00,30.7057778,76.8531805555555,OZONE,35,48,46
India,Haryana,Rohtak,"MD University, Rohtak - HSPCB",18-01-2026 08:00:00,28.52123,76.37138,PM2.5,NA,NA,NA
India,Haryana,Sirsa,"F-Block, Sirsa - HSPCB",18-01-2026 08:00:00,29.536400,75.015800,NH3,11,16,13
India,Haryana,Sirsa,"F-Block, Sirsa - HSPCB",18-01-2026 08:00:00,29.536400,75.015800,SO2,1,22,11
India,Haryana,Sonipat,"Murthal, Sonipat - HSPCB",18-01-2026 08:00:00,29.027200,77.062100,NO2,13,47,33
India,Haryana,Yamuna Nagar,"Gobind Pura, Yamuna Nagar - HSPCB",18-01-2026 08:00:00,30.1480566,77.2893471,PM10,20,319,162
India,Haryana,Faridabad,"Sector 30, Faridabad - HSPCB",18-01-2026 08:00:00,28.4417,77.3217,NH3,11,12,11
India,Haryana,Faridabad,"Sector 30, Faridabad - HSPCB",18-01-2026 08:00:00,28.4417,77.3217,CO,60,66,63
India,Haryana,Faridabad,"Sector 30, Faridabad - HSPCB",18-01-2026 08:00:00,28.4417,77.3217,OZONE,18,19,19
India,Haryana,Fatehabad,"Huda Sector, Fatehabad - HSPCB",18-01-2026 08:00:00,29.503664,75.467934,CO,26,36,29
India,Haryana,Gurugram,"Sector-51, Gurugram - HSPCB",18-01-2026 08:00:00,28.4227,77.0667,NH3,8,8,8
India,Haryana,Gurugram,"Sector-51, Gurugram - HSPCB",18-01-2026 08:00:00,28.4227,77.0667,CO,38,88,68
India,Haryana,Gurugram,"Vikas Sadan, Gurugram - HSPCB",18-01-2026 08:00:00,28.4501238,77.0263051,PM2.5,323,498,402
India,Haryana,Gurugram,"Vikas Sadan, Gurugram - HSPCB",18-01-2026 08:00:00,28.4501238,77.0263051,SO2,2,7,5
India,Haryana,Mandikhera,"General Hospital, Mandikhera(Nuh) - HSPCB",18-01-2026 08:00:00,27.9002,76.9938,CO,62,92,72
India,Haryana,Manesar,"Sector-2 IMT, Manesar - HSPCB",18-01-2026 08:00:00,28.360699,76.936090,PM10,106,421,209
India,Haryana,Manesar,"Sector-2 IMT, Manesar - HSPCB",18-01-2026 08:00:00,28.360699,76.936090,NH3,13,15,14
India,Haryana,Narnaul,"Shastri Nagar, Narnaul - HSPCB",18-01-2026 08:00:00,28.060249,76.113115,PM10,95,261,182
India,Haryana,Panchgaon,"Amity University, Panchgaon - IITM",18-01-2026 08:00:00,28.3153,76.9143,NO2,3,50,16
India,Haryana,Dharuhera,"Municipal Corporation Office, Dharuhera -  HSPCB",18-01-2026 08:00:00,28.206800,76.799700,CO,40,102,63
India,Haryana,Faridabad,"New Industrial Town, Faridabad - HSPCB",18-01-2026 08:00:00,28.39072,77.30059,PM10,168,178,173
India,Haryana,Faridabad,"Sector 11, Faridabad - HSPCB",18-01-2026 08:00:00,28.376058,77.315741,PM10,142,418,246
India,Haryana,Faridabad,"Sector 11, Faridabad - HSPCB",18-01-2026 08:00:00,28.376058,77.315741,SO2,5,7,5
India,Haryana,Faridabad,"Sector 11, Faridabad - HSPCB",18-01-2026 08:00:00,28.376058,77.315741,CO,10,100,67
India,Karnataka,Bengaluru,"Jayanagar 5th Block, Bengaluru - KSPCB",18-01-2026 08:00:00,12.920984,77.584908,NO2,12,52,29
India,Karnataka,Bengaluru,"Jayanagar 5th Block, Bengaluru - KSPCB",18-01-2026 08:00:00,12.920984,77.584908,SO2,7,26,16
India,Karnataka,Bengaluru,"Kasturi Nagar, Bengaluru - KSPCB",18-01-2026 08:00:00,13.003872,77.664217,PM10,NA,NA,NA
India,Karnataka,Bengaluru,"Kasturi Nagar, Bengaluru - KSPCB",18-01-2026 08:00:00,13.003872,77.664217,CO,50,58,53
India,Karnataka,Bengaluru,"Kasturi Nagar, Bengaluru - KSPCB",18-01-2026 08:00:00,13.003872,77.664217,OZONE,26,27,26
India,Karnataka,Bengaluru,"Hombegowda Nagar, Bengaluru - KSPCB",18-01-2026 08:00:00,12.938539,77.590100,NO2,18,111,50
India,Karnataka,Bengaluru,"Hombegowda Nagar, Bengaluru - KSPCB",18-01-2026 08:00:00,12.938539,77.590100,CO,8,50,21
India,Karnataka,Bengaluru,"Hombegowda Nagar, Bengaluru - KSPCB",18-01-2026 08:00:00,12.938539,77.590100,OZONE,1,53,22
India,Kerala,Kollam,"Polayathode, Kollam - Kerala PCB",18-01-2026 08:00:00,8.8787,76.6073,PM10,105,141,122
India,Kerala,Kollam,"Polayathode, Kollam - Kerala PCB",18-01-2026 08:00:00,8.8787,76.6073,NH3,1,1,1
India,Kerala,Kollam,"Polayathode, Kollam - Kerala PCB",18-01-2026 08:00:00,8.8787,76.6073,SO2,2,3,3
India,Kerala,Kollam,"Polayathode, Kollam - Kerala PCB",18-01-2026 08:00:00,8.8787,76.6073,CO,13,17,15
India,Kerala,Thiruvananthapuram,"Kariavattom, Thiruvananthapuram - Kerala PCB",18-01-2026 08:00:00,8.563700,76.886500,SO2,NA,NA,NA
India,Kerala,Thiruvananthapuram,"Plammoodu, Thiruvananthapuram - Kerala PCB",18-01-2026 08:00:00,8.5149093,76.9435879,SO2,5,22,16
India,Kerala,Thiruvananthapuram,"Plammoodu, Thiruvananthapuram - Kerala PCB",18-01-2026 08:00:00,8.5149093,76.9435879,CO,10,38,15
India,Kerala,Thrissur,"Corporation Ground, Thrissur - Kerala PCB",18-01-2026 08:00:00,10.532400,76.215900,PM10,61,72,67
India,Kerala,Thrissur,"Corporation Ground, Thrissur - Kerala PCB",18-01-2026 08:00:00,10.532400,76.215900,SO2,1,1,1
India,Madhya Pradesh,Bhopal,"Idgah Hills, Bhopal - MPPCB",18-01-2026 08:00:00,23.264759,77.381568,PM10,46,158,95
India,Madhya Pradesh,Bhopal,"Idgah Hills, Bhopal - MPPCB",18-01-2026 08:00:00,23.264759,77.381568,NO2,17,58,35
India,Madhya Pradesh,Bhopal,"Idgah Hills, Bhopal - MPPCB",18-01-2026 08:00:00,23.264759,77.381568,NH3,4,7,5
India,Madhya Pradesh,Bhopal,"Idgah Hills, Bhopal - MPPCB",18-01-2026 08:00:00,23.264759,77.381568,OZONE,25,84,64
India,Madhya Pradesh,Bhopal,"Paryavaran Parisar, Bhopal - MPPCB",18-01-2026 08:00:00,23.210494,77.425409,OZONE,3,56,10
India,Madhya Pradesh,Bhopal,"T T Nagar, Bhopal - MPPCB",18-01-2026 08:00:00,23.233584,77.400574,PM10,88,157,127
India,Karnataka,Shivamogga,"Vinoba Nagara, Shivamogga - KSPCB",18-01-2026 08:00:00,13.940000,75.555917,CO,9,27,20
India,Karnataka,Tumakuru,"Thimmalapura, Tumakuru - KSPCB",18-01-2026 08:00:00,13.377516,77.099072,PM10,NA,NA,NA
India,Karnataka,Tumakuru,"Thimmalapura, Tumakuru - KSPCB",18-01-2026 08:00:00,13.377516,77.099072,OZONE,23,23,23
India,Karnataka,Vijayapura,"Ibrahimpur, Vijayapura - KSPCB",18-01-2026 08:00:00,16.802639,75.722694,NH3,1,2,1
India,Karnataka,Vijayapura,"Ibrahimpur, Vijayapura - KSPCB",18-01-2026 08:00:00,16.802639,75.722694,CO,6,42,22
India,Kerala,Eloor,"Udyogamandal, Eloor - Kerala PCB",18-01-2026 08:00:00,10.073232,76.302765,PM10,63,96,77
India,Kerala,Kannur,"Thavakkara, Kannur - Kerala PCB",18-01-2026 08:00:00,11.875000,75.373200,SO2,7,9,8
India,Karnataka,Davanagere,"Devaraj Urs Badavane, Davanagere - KSPCB",18-01-2026 08:00:00,14.475800,75.905200,NH3,NA,NA,NA
India,Karnataka,Davanagere,"Devaraj Urs Badavane, Davanagere - KSPCB",18-01-2026 08:00:00,14.475800,75.905200,SO2,NA,NA,NA
India,Karnataka,Davanagere,"Devaraj Urs Badavane, Davanagere - KSPCB",18-01-2026 08:00:00,14.475800,75.905200,CO,NA,NA,NA
India,Karnataka,Davanagere,"Devaraj Urs Badavane, Davanagere - KSPCB",18-01-2026 08:00:00,14.475800,75.905200,OZONE,NA,NA,NA
India,Karnataka,Dharwad,"Kalabhavan, Dharwad - KSPCB",18-01-2026 08:00:00,15.459706,75.008381,NH3,4,6,5
India,Karnataka,Hubballi,"Lingaraj Nagar, Hubballi - KSPCB",18-01-2026 08:00:00,15.3714823,75.1160168,PM10,63,125,72
