country,state,city,station,last_update,latitude,longitude,pollutant_id,min_value,max_value,avg_value
India,Bihar,Bhagalpur,"DM Office_Kachari Chowk, Bhagalpur - BSPCB",08-09-2025 07:00:00,25.251013,86.989001,NO2,12,20,17
India,Bihar,Bhagalpur,"Mayaganj, Bhagalpur - BSPCB",08-09-2025 07:00:00,25.265194,87.012947,CO,9,66,56
India,Bihar,Bihar Sharif,"D M Colony, Bihar Sharif - BSPCB",08-09-2025 07:00:00,25.204762,85.514960,PM2.5,84,111,95
India,Bihar,Bihar Sharif,"D M Colony, Bihar Sharif - BSPCB",08-09-2025 07:00:00,25.204762,85.514960,CO,2,11,3
India,Bihar,Buxar,"Charitra Van, Buxar - BSPCB",08-09-2025 07:00:00,25.567520,83.966379,PM2.5,57,64,63
India,Bihar,Buxar,"Charitra Van, Buxar - BSPCB",08-09-2025 07:00:00,25.567520,83.966379,PM10,62,72,70
India,Bihar,Buxar,"Charitra Van, Buxar - BSPCB",08-09-2025 07:00:00,25.567520,83.966379,NO2,5,10,9
India,Bihar,Buxar,"Charitra Van, Buxar - BSPCB",08-09-2025 07:00:00,25.567520,83.966379,CO,20,30,24
India,Andhra_Pradesh,Amaravati,"Secretariat, Amaravati - APPCB",08-09-2025 07:00:00,16.5150833,80.5181667,NO2,10,29,19
India,Andhra_Pradesh,Amaravati,"Secretariat, Amaravati - APPCB",08-09-2025 07:00:00,16.5150833,80.5181667,OZONE,2,28,4
India,Andhra_Pradesh,Anantapur,"Gulzarpet, Anantapur - APPCB",08-09-2025 07:00:00,14.675886,77.593027,SO2,16,17,16
India,Andhra_Pradesh,Anantapur,"Gulzarpet, Anantapur - APPCB",08-09-2025 07:00:00,14.675886,77.593027,OZONE,11,16,12
India,Andhra_Pradesh,Kadapa,"Yerramukkapalli, Kadapa - APPCB",08-09-2025 07:00:00,14.465052,78.824187,OZONE,32,44,38
India,Andhra_Pradesh,Rajamahendravaram,"Anand Kala Kshetram, Rajamahendravaram - APPCB",08-09-2025 07:00:00,16.9872867,81.7363176,PM10,22,64,37
India,Andhra_Pradesh,Rajamahendravaram,"Anand Kala Kshetram, Rajamahendravaram - APPCB",08-09-2025 07:00:00,16.9872867,81.7363176,NO2,5,27,15
India,Andhra_Pradesh,Visakhapatnam,"GVM Corporation, Visakhapatnam - APPCB",08-09-2025 07:00:00,17.72,83.3,SO2,7,19,12
India,Arunachal_Pradesh,Naharlagun,"Naharlagun, Naharlagun - APSPCB",08-09-2025 07:00:00,27.103358,93.679645,OZONE,4,5,4
India,Assam,Guwahati,"LGBI Airport, Guwahati - PCBA",08-09-2025 07:00:00,26.10887,91.589544,NH3,6,6,6
India,Assam,Guwahati,"LGBI Airport, Guwahati - PCBA",08-09-2025 07:00:00,26.10887,91.589544,SO2,4,15,10
India,Assam,Guwahati,"LGBI Airport, Guwahati - PCBA",08-09-2025 07:00:00,26.10887,91.589544,OZONE,13,19,15
India,Assam,Guwahati,"Pan Bazaar, Guwahati - PCBA",08-09-2025 07:00:00,26.187500,91.744194,PM10,6,31,18
India,Bihar,Katihar,"Mirchaibari, Katihar - BSPCB",08-09-2025 07:00:00,25.560083,87.553265,PM10,32,36,34
India,Bihar,Kishanganj,"SDM Office_Khagra, Kishanganj - BSPCB",08-09-2025 07:00:00,26.0881305,87.93840336,PM10,NA,NA,NA
India,Bihar,Kishanganj,"SDM Office_Khagra, Kishanganj - BSPCB",08-09-2025 07:00:00,26.0881305,87.93840336,OZONE,14,15,15
India,Bihar,Manguraha,"Forest Rest House, Manguraha - BSPCB",08-09-2025 07:00:00,27.308328,84.531742,SO2,NA,NA,NA
India,Bihar,Motihari,"Gandak Colony, Motihari - BSPCB",08-09-2025 07:00:00,26.63086,84.90051,NO2,NA,NA,NA
India,Bihar,Motihari,"Gandak Colony, Motihari - BSPCB",08-09-2025 07:00:00,26.63086,84.90051,NH3,3,3,3
India,Bihar,Chhapra,"Darshan Nagar, Chhapra - BSPCB",08-09-2025 07:00:00,25.7808257,84.7446768,CO,4,7,4
India,Bihar,Gaya,"Collectorate, Gaya - BSPCB",08-09-2025 07:00:00,24.7955,84.9994,CO,18,26,25
India,Bihar,Gaya,"Kareemganj, Gaya - BSPCB",08-09-2025 07:00:00,24.792403,84.992416,PM10,12,133,67
India,Bihar,Gaya,"Kareemganj, Gaya - BSPCB",08-09-2025 07:00:00,24.792403,84.992416,NO2,3,8,5
India,Bihar,Hajipur,"Industrial Area, Hajipur - BSPCB",08-09-2025 07:00:00,25.697189,85.245900,CO,40,48,42
India,Assam,Guwahati,"Railway Colony, Guwahati - PCBA",08-09-2025 07:00:00,26.181742,91.78063,NH3,1,1,1
India,Assam,Guwahati,"Railway Colony, Guwahati - PCBA",08-09-2025 07:00:00,26.181742,91.78063,SO2,27,28,27
India,Assam,Nalbari,"Bata Chowk, Nalbari - PCBA",08-09-2025 07:00:00,26.446912,91.439057,SO2,6,8,8
India,Assam,Silchar,"Tarapur, Silchar - PCBA",08-09-2025 07:00:00,24.82827,92.79525,SO2,1,9,2
India,Assam,Sivasagar,"Girls College, Sivasagar - PCBA",08-09-2025 07:00:00,26.987634,94.636574,SO2,7,10,9
India,Bihar,Patna,"Rajbansi Nagar, Patna - BSPCB",08-09-2025 07:00:00,25.599486,85.113666,NH3,1,2,2
India,Bihar,Patna,"Samanpura, Patna - BSPCB",08-09-2025 07:00:00,25.596727,85.085624,PM2.5,86,181,129
India,Bihar,Patna,"Samanpura, Patna - BSPCB",08-09-2025 07:00:00,25.596727,85.085624,OZONE,15,29,18
India,Bihar,Purnia,"Mariam Nagar, Purnia - BSPCB",08-09-2025 07:00:00,25.366336,87.117468,CO,3,66,37
India,Assam,Sivasagar,"Girls College, Sivasagar - PCBA",08-09-2025 07:00:00,26.987634,94.636574,CO,6,32,16
India,Assam,Sivasagar,"Girls College, Sivasagar - PCBA",08-09-2025 07:00:00,26.987634,94.636574,OZONE,2,18,3
India,Bihar,Begusarai,"Lohiyanagar, Begusarai - BSPCB",08-09-2025 07:00:00,25.42742023,86.13886079,NO2,8,24,16
India,Bihar,Begusarai,"Lohiyanagar, Begusarai - BSPCB",08-09-2025 07:00:00,25.42742023,86.13886079,OZONE,23,56,43
India,Andhra_Pradesh,Rajamahendravaram,"Anand Kala Kshetram, Rajamahendravaram - APPCB",08-09-2025 07:00:00,16.9872867,81.7363176,OZONE,10,11,10
India,Andhra_Pradesh,Tirupati,"Vaikuntapuram, Tirupati - APPCB",08-09-2025 07:00:00,13.615387,79.409230,NO2,NA,NA,NA
India,Andhra_Pradesh,Vijayawada,"Rajiv Nagar, Vijayawada - APPCB",08-09-2025 07:00:00,16.554731,80.649110,NO2,NA,NA,NA
India,Bihar,Muzaffarpur,"MIT-Daudpur Kothi, Muzaffarpur - BSPCB",08-09-2025 07:00:00,26.1403345,85.3650192,PM2.5,27,42,33
India,Bihar,Muzaffarpur,"MIT-Daudpur Kothi, Muzaffarpur - BSPCB",08-09-2025 07:00:00,26.1403345,85.3650192,PM10,35,46,40
India,Bihar,Patna,"Govt. High School Shikarpur, Patna - BSPCB",08-09-2025 07:00:00,25.592539,85.227158,NO2,4,6,5
India,Chhattisgarh,Raipur,"Bhatagaon New ISBT, Raipur - CECB",08-09-2025 07:00:00,21.219665,81.630094,NH3,2,2,2
India,Chhattisgarh,Raipur,"Krishak Nagar, Raipur - CECB",08-09-2025 07:00:00,21.237755,81.705301,NH3,2,2,2
India,Chhattisgarh,Raipur,"Krishak Nagar, Raipur - CECB",08-09-2025 07:00:00,21.237755,81.705301,OZONE,2,6,2
India,Chhattisgarh,Raipur,"Siltara Phase-II, Raipur - CECB",08-09-2025 07:00:00,21.371751,81.664929,PM2.5,4,10,7
India,Chhattisgarh,Raipur,"Siltara Phase-II, Raipur - CECB",08-09-2025 07:00:00,21.371751,81.664929,NO2,4,41,13
India,Chhattisgarh,Raipur,"Siltara Phase-II, Raipur - CECB",08-09-2025 07:00:00,21.371751,81.664929,NH3,3,3,3
India,Chhattisgarh,Tumidih,"OP Jindal Industrial Park, Tumidih - CECB",08-09-2025 07:00:00,22.06631475,83.33820077,NO2,14,73,32
India,Chhattisgarh,Tumidih,"OP Jindal Industrial Park, Tumidih - CECB",08-09-2025 07:00:00,22.06631475,83.33820077,CO,12,35,24
India,Chhattisgarh,Tumidih,"OP Jindal Industrial Park, Tumidih - CECB",08-09-2025 07:00:00,22.06631475,83.33820077,OZONE,5,31,8
India,Delhi,Delhi,"Narela, Delhi - DPCC",08-09-2025 07:00:00,28.822836,77.101981,PM10,35,112,74
India,Delhi,Delhi,"Narela, Delhi - DPCC",08-09-2025 07:00:00,28.822836,77.101981,OZONE,1,32,1
India,Delhi,Delhi,"Nehru Nagar, Delhi - DPCC",08-09-2025 07:00:00,28.567890,77.250515,NH3,3,5,4
India,Delhi,Delhi,"Nehru Nagar, Delhi - DPCC",08-09-2025 07:00:00,28.567890,77.250515,CO,12,43,19
India,Delhi,Delhi,"North Campus, DU, Delhi - IMD",08-09-2025 07:00:00,28.6573814,77.1585447,PM10,22,111,71
India,Delhi,Delhi,"North Campus, DU, Delhi - IMD",08-09-2025 07:00:00,28.6573814,77.1585447,NO2,1,15,7
India,Delhi,Delhi,"North Campus, DU, Delhi - IMD",08-09-2025 07:00:00,28.6573814,77.1585447,CO,3,79,48
India,Delhi,Delhi,"North Campus, DU, Delhi - IMD",08-09-2025 07:00:00,28.6573814,77.1585447,OZONE,1,77,3
India,Delhi,Delhi,"Patparganj, Delhi - DPCC",08-09-2025 07:00:00,28.623763,77.287209,PM10,47,111,79
India,Delhi,Delhi,"Patparganj, Delhi - DPCC",08-09-2025 07:00:00,28.623763,77.287209,NH3,4,6,5
India,Delhi,Delhi,"Anand Vihar, Delhi - DPCC",08-09-2025 07:00:00,28.647622,77.3158090,NH3,3,7,5
India,Delhi,Delhi,"Ashok Vihar, Delhi - DPCC",08-09-2025 07:00:00,28.695381,77.181665,PM2.5,32,123,65
India,Delhi,Delhi,"Ashok Vihar, Delhi - DPCC",08-09-2025 07:00:00,28.695381,77.181665,NO2,10,63,35
India,Delhi,Delhi,"Ashok Vihar, Delhi - DPCC",08-09-2025 07:00:00,28.695381,77.181665,NH3,4,6,5
India,Delhi,Delhi,"Ashok Vihar, Delhi - DPCC",08-09-2025 07:00:00,28.695381,77.181665,CO,7,54,27
India,Delhi,Delhi,"Aya Nagar, Delhi - IMD",08-09-2025 07:00:00,28.4706914,77.1099364,CO,9,43,36
India,Delhi,Delhi,"Bawana, Delhi - DPCC",08-09-2025 07:00:00,28.776200,77.051074,NO2,1,27,11
India,Delhi,Delhi,"Bawana, Delhi - DPCC",08-09-2025 07:00:00,28.776200,77.051074,SO2,5,11,6
India,Delhi,Delhi,"CRRI Mathura Road, Delhi - IMD",08-09-2025 07:00:00,28.5512005,77.2735737,PM2.5,20,64,38
India,Delhi,Delhi,"CRRI Mathura Road, Delhi - IMD",08-09-2025 07:00:00,28.5512005,77.2735737,CO,53,106,71
India,Delhi,Delhi,"Chandni Chowk, Delhi - IITM",08-09-2025 07:00:00,28.656756,77.227234,NH3,NA,NA,NA
India,Delhi,Delhi,"Chandni Chowk, Delhi - IITM",08-09-2025 07:00:00,28.656756,77.227234,CO,55,86,66
India,Delhi,Delhi,"DTU, Delhi - CPCB",08-09-2025 07:00:00,28.7500499,77.1112615,PM10,37,144,77
India,Delhi,Delhi,"DTU, Delhi - CPCB",08-09-2025 07:00:00,28.7500499,77.1112615,NH3,9,9,9
India,Delhi,Delhi,"Dr. Karni Singh Shooting Range, Delhi - DPCC",08-09-2025 07:00:00,28.498571,77.264840,NO2,21,44,28
India,Delhi,Delhi,"Dr. Karni Singh Shooting Range, Delhi - DPCC",08-09-2025 07:00:00,28.498571,77.264840,SO2,8,14,10
India,Delhi,Delhi,"Dwarka-Sector 8, Delhi - DPCC ",08-09-2025 07:00:00,28.5710274,77.0719006,NH3,4,6,5
India,Chandigarh,Chandigarh,"Sector-25, Chandigarh - CPCC",08-09-2025 07:00:00,30.751462,76.762879,NH3,3,5,4
India,Chandigarh,Chandigarh,"Sector-53, Chandigarh - CPCC",08-09-2025 07:00:00,30.719859,76.738637,PM10,15,42,25
India,Chandigarh,Chandigarh,"Sector-53, Chandigarh - CPCC",08-09-2025 07:00:00,30.719859,76.738637,SO2,11,19,15
India,Chhattisgarh,Bhilai,"32Bungalows, Bhilai - CECB",08-09-2025 07:00:00,21.194815,81.314770,PM2.5,5,22,12
India,Chhattisgarh,Bhilai,"Hathkhoj, Bhilai - CECB",08-09-2025 07:00:00,21.224231,81.408350,NO2,10,40,20
India,Chhattisgarh,Bhilai,"Hathkhoj, Bhilai - CECB",08-09-2025 07:00:00,21.224231,81.408350,NH3,3,4,4
India,Bihar,Sasaram,"Dada Peer, Sasaram - BSPCB",08-09-2025 07:00:00,24.952822,84.002396,NO2,2,7,3
India,Bihar,Sasaram,"Dada Peer, Sasaram - BSPCB",08-09-2025 07:00:00,24.952822,84.002396,NH3,2,16,4
India,Bihar,Siwan,"Chitragupta Nagar, Siwan - BSPCB",08-09-2025 07:00:00,26.2271665,84.3570427,OZONE,NA,NA,NA
India,Chandigarh,Chandigarh,"Sector 22, Chandigarh - CPCC",08-09-2025 07:00:00,30.735567,76.775714,PM10,11,56,26
India,Chandigarh,Chandigarh,"Sector 22, Chandigarh - CPCC",08-09-2025 07:00:00,30.735567,76.775714,NO2,17,51,28
India,Delhi,Delhi,"Mandir Marg, Delhi - DPCC",08-09-2025 07:00:00,28.636429,77.201067,OZONE,8,68,15
India,Delhi,Delhi,"Mundka, Delhi - DPCC",08-09-2025 07:00:00,28.684678,77.076574,PM10,73,125,98
India,Delhi,Delhi,"Mundka, Delhi - DPCC",08-09-2025 07:00:00,28.684678,77.076574,CO,26,57,41
India,Delhi,Delhi,"Mundka, Delhi - DPCC",08-09-2025 07:00:00,28.684678,77.076574,OZONE,5,49,7
India,Delhi,Delhi,"NSIT Dwarka, Delhi - CPCB",08-09-2025 07:00:00,28.60909,77.0325413,PM10,45,70,58
India,Delhi,Delhi,"NSIT Dwarka, Delhi - CPCB",08-09-2025 07:00:00,28.60909,77.0325413,NH3,5,8,6
India,Chhattisgarh,Bhilai,"Hathkhoj, Bhilai - CECB",08-09-2025 07:00:00,21.224231,81.408350,OZONE,9,27,12
India,Chhattisgarh,Chhal,"Nawapara SECL Colony, Chhal - CECB",08-09-2025 07:00:00,22.118125,83.140608,NH3,NA,NA,NA
India,Chhattisgarh,Korba,"Rampur, Korba - CECB",08-09-2025 07:00:00,22.368195,82.746431,CO,12,20,18
India,Delhi,Delhi,"Major Dhyan Chand National Stadium, Delhi - DPCC",08-09-2025 07:00:00,28.611281,77.237738,NH3,13,14,14
India,Delhi,Delhi,"Rohini, Delhi - DPCC",08-09-2025 07:00:00,28.732528,77.119920,NO2,3,24,13
India,Delhi,Delhi,"Rohini, Delhi - DPCC",08-09-2025 07:00:00,28.732528,77.119920,SO2,3,4,4
India,Delhi,Delhi,"Rohini, Delhi - DPCC",08-09-2025 07:00:00,28.732528,77.119920,CO,8,34,21
India,Delhi,Delhi,"Shadipur, Delhi - CPCB",08-09-2025 07:00:00,28.6514781,77.1473105,PM10,35,69,54
India,Delhi,Delhi,"Shadipur, Delhi - CPCB",08-09-2025 07:00:00,28.6514781,77.1473105,NH3,5,8,7
India,Delhi,Delhi,"Sirifort, Delhi - CPCB",08-09-2025 07:00:00,28.5504249,77.2159377,PM10,60,123,80
India,Delhi,Delhi,"Sirifort, Delhi - CPCB",08-09-2025 07:00:00,28.5504249,77.2159377,SO2,25,27,26
India,Delhi,Delhi,"Sonia Vihar, Delhi - DPCC",08-09-2025 07:00:00,28.710508,77.249485,PM10,25,175,80
India,Delhi,Delhi,"Sonia Vihar, Delhi - DPCC",08-09-2025 07:00:00,28.710508,77.249485,NO2,30,43,36
India,Delhi,Delhi,"Sonia Vihar, Delhi - DPCC",08-09-2025 07:00:00,28.710508,77.249485,NH3,7,10,8
India,Delhi,Delhi,"Sonia Vihar, Delhi - DPCC",08-09-2025 07:00:00,28.710508,77.249485,OZONE,4,18,7
India,Karnataka,Bengaluru,"BTM Layout, Bengaluru - CPCB",08-09-2025 07:00:00,12.9135218,77.5950804,CO,20,26,21
India,Karnataka,Bengaluru,"Bapuji Nagar, Bengaluru - KSPCB",08-09-2025 07:00:00,12.951913,77.539784,NH3,1,1,1
India,Karnataka,Bengaluru,"Bapuji Nagar, Bengaluru - KSPCB",08-09-2025 07:00:00,12.951913,77.539784,SO2,3,5,4
India,Karnataka,Bengaluru,"Bapuji Nagar, Bengaluru - KSPCB",08-09-2025 07:00:00,12.951913,77.539784,CO,21,43,25
India,Karnataka,Bengaluru,"Hombegowda Nagar, Bengaluru - KSPCB",08-09-2025 07:00:00,12.938539,77.590100,NO2,6,15,9
India,Karnataka,Bengaluru,"Hombegowda Nagar, Bengaluru - KSPCB",08-09-2025 07:00:00,12.938539,77.590100,NH3,1,2,2
India,Karnataka,Bengaluru,"Hombegowda Nagar, Bengaluru - KSPCB",08-09-2025 07:00:00,12.938539,77.590100,OZONE,3,22,7
India,Karnataka,Bengaluru,"Jayanagar 5th Block, Bengaluru - KSPCB",08-09-2025 07:00:00,12.920984,77.584908,NO2,NA,NA,NA
India,Delhi,Delhi,"Vivek Vihar, Delhi - DPCC",08-09-2025 07:00:00,28.672342,77.315260,PM2.5,NA,NA,NA
India,Delhi,Delhi,"Wazirpur, Delhi - DPCC",08-09-2025 07:00:00,28.699793,77.165453,PM10,NA,NA,NA
India,Gujarat,Ahmedabad,"Chandkheda, Ahmedabad - IITM",08-09-2025 07:00:00,23.107969,72.574648,PM2.5,4,30,14
India,Gujarat,Ahmedabad,"Chandkheda, Ahmedabad - IITM",08-09-2025 07:00:00,23.107969,72.574648,PM10,5,146,31
India,Gujarat,Ahmedabad,"Chandkheda, Ahmedabad - IITM",08-09-2025 07:00:00,23.107969,72.574648,NH3,1,2,1
India,Gujarat,Ahmedabad,"Chandkheda, Ahmedabad - IITM",08-09-2025 07:00:00,23.107969,72.574648,SO2,3,13,8
India,Gujarat,Ahmedabad,"Gyaspur, Ahmedabad - IITM",08-09-2025 07:00:00,22.977134,72.553024,NH3,NA,NA,NA
India,Gujarat,Ahmedabad,"Gyaspur, Ahmedabad - IITM",08-09-2025 07:00:00,22.977134,72.553024,CO,14,28,17
India,Gujarat,Ahmedabad,"Raikhad, Ahmedabad - IITM",08-09-2025 07:00:00,23.020509,72.579261,PM10,22,67,44
India,Gujarat,Ahmedabad,"SAC ISRO Bopal, Ahmedabad - IITM",08-09-2025 07:00:00,23.041137,72.456691,PM10,9,57,25
India,Gujarat,Ahmedabad,"SAC ISRO Satellite, Ahmedabad - IITM",08-09-2025 07:00:00,23.023389,72.515201,PM2.5,11,42,25
India,Gujarat,Ahmedabad,"SAC ISRO Satellite, Ahmedabad - IITM",08-09-2025 07:00:00,23.023389,72.515201,SO2,3,4,4
India,Gujarat,Ahmedabad,"SVPI Airport Hansol, Ahmedabad - IITM",08-09-2025 07:00:00,23.076793,72.627874,PM10,9,32,21
India,Gujarat,Ahmedabad,"SVPI Airport Hansol, Ahmedabad - IITM",08-09-2025 07:00:00,23.076793,72.627874,SO2,2,20,8
India,Karnataka,Chamarajanagar,"Urban, Chamarajanagar - KSPCB",08-09-2025 07:00:00,11.55358,76.55521,NH3,1,2,2
India,Karnataka,Chamarajanagar,"Urban, Chamarajanagar - KSPCB",08-09-2025 07:00:00,11.55358,76.55521,CO,14,120,30
India,Karnataka,Chikkaballapur,"Chikkaballapur Rural, Chikkaballapur - KSPCB",08-09-2025 07:00:00,13.428828,77.731418,NO2,9,21,14
India,Karnataka,Chikkamagaluru,"Kalyana Nagara, Chikkamagaluru - KSPCB",08-09-2025 07:00:00,13.328028,75.797056,NH3,2,3,2
India,Karnataka,Chikkamagaluru,"Kalyana Nagara, Chikkamagaluru - KSPCB",08-09-2025 07:00:00,13.328028,75.797056,SO2,1,9,5
India,Karnataka,Chikkamagaluru,"Kalyana Nagara, Chikkamagaluru - KSPCB",08-09-2025 07:00:00,13.328028,75.797056,CO,11,11,11
India,Gujarat,Vapi,"Phase-1 GIDC, Vapi - GPCB",08-09-2025 07:00:00,20.362421,72.918013,NO2,13,14,14
India,Haryana,Gurugram,"NISE Gwal Pahari, Gurugram - IMD",08-09-2025 07:00:00,28.422681,77.148944,NO2,1,10,5
India,Himachal Pradesh,Baddi,"HIMUDA Complex Phase-1, Baddi - HPPCB",08-09-2025 07:00:00,30.943887,76.801991,NH3,6,8,7
India,Karnataka,Bagalkot,"Vidayagiri, Bagalkot - KSPCB",08-09-2025 07:00:00,16.172806,75.659694,SO2,7,7,7
India,Delhi,Delhi,"Patparganj, Delhi - DPCC",08-09-2025 07:00:00,28.623763,77.287209,OZONE,12,33,13
India,Delhi,Delhi,"Punjabi Bagh, Delhi - DPCC",08-09-2025 07:00:00,28.674045,77.131023,NH3,3,5,4
India,Delhi,Delhi,"Punjabi Bagh, Delhi - DPCC",08-09-2025 07:00:00,28.674045,77.131023,CO,32,66,44
India,Delhi,Delhi,"Pusa, Delhi - DPCC",08-09-2025 07:00:00,28.639652,77.146275,NH3,2,3,2
India,Delhi,Delhi,"Rohini, Delhi - DPCC",08-09-2025 07:00:00,28.732528,77.119920,PM2.5,23,88,54
India,Karnataka,Bengaluru,"Jigani, Bengaluru - KSPCB",08-09-2025 07:00:00,12.7816279,77.6299145,PM2.5,34,38,36
India,Karnataka,Bengaluru,"Peenya, Bengaluru - CPCB",08-09-2025 07:00:00,13.0270199,77.494094,PM10,NA,NA,NA
India,Karnataka,Bengaluru,"Shivapura_Peenya, Bengaluru - KSPCB",08-09-2025 07:00:00,13.0246342,77.5080115,PM2.5,53,80,60
India,Karnataka,Bengaluru,"Shivapura_Peenya, Bengaluru - KSPCB",08-09-2025 07:00:00,13.0246342,77.5080115,OZONE,23,25,24
India,Gujarat,Ahmedabad,"SVPI Airport Hansol, Ahmedabad - IITM",08-09-2025 07:00:00,23.076793,72.627874,CO,30,48,36
India,Gujarat,Gandhinagar,"GIFT City, Gandhinagar - IITM",08-09-2025 07:00:00,23.163798,72.677768,CO,48,76,70
India,Gujarat,Surat,"Science Center, Surat - SMC",08-09-2025 07:00:00,21.170046,72.795405,PM10,2,81,34
India,Karnataka,Vijayapura,"Ibrahimpur, Vijayapura - KSPCB",08-09-2025 07:00:00,16.802639,75.722694,CO,10,121,32
India,Karnataka,Vijayapura,"Ibrahimpur, Vijayapura - KSPCB",08-09-2025 07:00:00,16.802639,75.722694,OZONE,14,17,16
India,Karnataka,Yadgir,"Collector Office, Yadgir - KSPCB",08-09-2025 07:00:00,16.7602,77.1428,SO2,NA,NA,NA
India,Kerala,Kannur,"Thavakkara, Kannur - Kerala PCB",08-09-2025 07:00:00,11.875000,75.373200,PM10,NA,NA,NA
India,Kerala,Kannur,"Thavakkara, Kannur - Kerala PCB",08-09-2025 07:00:00,11.875000,75.373200,SO2,NA,NA,NA
India,Kerala,Thiruvananthapuram,"Kariavattom, Thiruvananthapuram - Kerala PCB",08-09-2025 07:00:00,8.563700,76.886500,OZONE,36,37,36
India,Kerala,Thiruvananthapuram,"Plammoodu, Thiruvananthapuram - Kerala PCB",08-09-2025 07:00:00,8.5149093,76.9435879,PM2.5,7,183,44
India,Kerala,Thiruvananthapuram,"Plammoodu, Thiruvananthapuram - Kerala PCB",08-09-2025 07:00:00,8.5149093,76.9435879,NO2,56,82,66
India,Maharashtra,Amravati,"Shivneri Colony, Amravati - MPCB",08-09-2025 07:00:00,20.9402359,77.7895248,NH3,1,1,1
India,Maharashtra,Amravati,"Shivneri Colony, Amravati - MPCB",08-09-2025 07:00:00,20.9402359,77.7895248,CO,8,26,12
India,Maharashtra,Amravati,"Shri Shivaji Science College, Amravati - MPCB",08-09-2025 07:00:00,20.939198,77.765701,NH3,1,2,1
India,Maharashtra,Amravati,"Shri Shivaji Science College, Amravati - MPCB",08-09-2025 07:00:00,20.939198,77.765701,SO2,2,8,7
India,Maharashtra,Aurangabad,"More Chowk Waluj, Aurangabad - MPCB",08-09-2025 07:00:00,19.8389439,75.244448,PM10,NA,NA,NA
India,Maharashtra,Aurangabad,"More Chowk Waluj, Aurangabad - MPCB",08-09-2025 07:00:00,19.8389439,75.244448,SO2,NA,NA,NA
India,Maharashtra,Aurangabad,"More Chowk Waluj, Aurangabad - MPCB",08-09-2025 07:00:00,19.8389439,75.244448,OZONE,NA,NA,NA
India,Maharashtra,Aurangabad,"Rachnakar Colony, Aurangabad - MPCB",08-09-2025 07:00:00,19.863756,75.321188,PM2.5,23,44,31
India,Maharashtra,Aurangabad,"Rachnakar Colony, Aurangabad - MPCB",08-09-2025 07:00:00,19.863756,75.321188,CO,15,22,17
India,Kerala,Thrissur,"Corporation Ground, Thrissur - Kerala PCB",08-09-2025 07:00:00,10.532400,76.215900,PM10,50,56,54
India,Kerala,Thrissur,"Corporation Ground, Thrissur - Kerala PCB",08-09-2025 07:00:00,10.532400,76.215900,OZONE,30,31,30
India,Madhya Pradesh,Bhopal,"Idgah Hills, Bhopal - MPPCB",08-09-2025 07:00:00,23.264759,77.381568,PM2.5,12,18,15
India,Madhya Pradesh,Bhopal,"Paryavaran Parisar, Bhopal - MPPCB",08-09-2025 07:00:00,23.210494,77.425409,PM2.5,17,25,21
India,Madhya Pradesh,Bhopal,"Paryavaran Parisar, Bhopal - MPPCB",08-09-2025 07:00:00,23.210494,77.425409,SO2,13,14,14
India,Madhya Pradesh,Bhopal,"Paryavaran Parisar, Bhopal - MPPCB",08-09-2025 07:00:00,23.210494,77.425409,CO,15,22,16
India,Madhya Pradesh,Bhopal,"Paryavaran Parisar, Bhopal - MPPCB",08-09-2025 07:00:00,23.210494,77.425409,OZONE,39,52,41
India,Madhya Pradesh,Damoh,"Shrivastav Colony, Damoh - MPPCB",08-09-2025 07:00:00,23.81748678,79.446246,PM10,9,31,18
India,Madhya Pradesh,Indore,"Chhoti Gwaltoli, Indore - MPPCB",08-09-2025 07:00:00,22.4310,75.5213,NH3,6,7,7
India,Madhya Pradesh,Indore,"Chhoti Gwaltoli, Indore - MPPCB",08-09-2025 07:00:00,22.4310,75.5213,CO,11,33,16
India,Madhya Pradesh,Indore,"Maguda Nagar, Indore - IMC",08-09-2025 07:00:00,22.7524,75.8872,PM10,6,20,11
India,Madhya Pradesh,Indore,"Maguda Nagar, Indore - IMC",08-09-2025 07:00:00,22.7524,75.8872,NH3,NA,NA,NA
India,Madhya Pradesh,Indore,"Regional Park, Indore - IMC",08-09-2025 07:00:00,22.6780,75.8559,NH3,NA,NA,NA
India,Madhya Pradesh,Indore,"Residency Area, Indore - IMC",08-09-2025 07:00:00,22.7084,75.8815,NO2,11,18,15
India,Madhya Pradesh,Indore,"Residency Area, Indore - IMC",08-09-2025 07:00:00,22.7084,75.8815,OZONE,9,12,11
India,Madhya Pradesh,Jabalpur,"Govindh Bhavan Colony, Jabalpur - JMC",08-09-2025 07:00:00,23.163174,79.973061,SO2,26,26,26
India,Karnataka,Karwar,"KHB Colony, Karwar - KSPCB",08-09-2025 07:00:00,14.816666,74.141003,CO,NA,NA,NA
India,Karnataka,Koppal,"Diwator Nagar, Koppal - KSPCB",08-09-2025 07:00:00,15.347630,76.181767,NO2,27,31,29
India,Karnataka,Madikeri,"Stuart Hill, Madikeri - KSPCB",08-09-2025 07:00:00,12.415911,75.735050,CO,NA,NA,NA
India,Karnataka,Mysuru,"Hebbal 1st Stage, Mysuru - KSPCB",08-09-2025 07:00:00,12.21041,76.37376,OZONE,6,7,7
India,Karnataka,Shivamogga,"Vinoba Nagara, Shivamogga - KSPCB",08-09-2025 07:00:00,13.940000,75.555917,NH3,2,3,3
India,Karnataka,Vijayapura,"Ibrahimpur, Vijayapura - KSPCB",08-09-2025 07:00:00,16.802639,75.722694,PM10,43,44,44
India,Karnataka,Hubballi,"Lingaraj Nagar, Hubballi - KSPCB",08-09-2025 07:00:00,15.3714823,75.1160168,PM2.5,31,37,33
India,Karnataka,Hubballi,"Lingaraj Nagar, Hubballi - KSPCB",08-09-2025 07:00:00,15.3714823,75.1160168,OZONE,11,11,11
India,Karnataka,Kalaburagi,"Lal Bahadur Shastri Nagar, Kalaburagi - KSPCB",08-09-2025 07:00:00,17.321993,76.822628,SO2,45,104,51
India,Karnataka,Kalaburagi,"Mahatma Basaveswar Colony, Kalaburgi - KSPCB",08-09-2025 07:00:00,17.336318,76.847397,NO2,11,16,12
India,Karnataka,Kalaburagi,"Mahatma Basaveswar Colony, Kalaburgi - KSPCB",08-09-2025 07:00:00,17.336318,76.847397,OZONE,9,14,9
India,Karnataka,Karwar,"KHB Colony, Karwar - KSPCB",08-09-2025 07:00:00,14.816666,74.141003,PM2.5,NA,NA,NA
India,Karnataka,Karwar,"KHB Colony, Karwar - KSPCB",08-09-2025 07:00:00,14.816666,74.141003,NO2,NA,NA,NA
India,Madhya Pradesh,Satna,"Bandhavgar Colony, Satna - Birla Cement",08-09-2025 07:00:00,24.58434363,80.8549414,PM2.5,47,51,49
India,Madhya Pradesh,Singrauli,"Suryakiran Bhawan NCL, Singrauli - MPPCB",08-09-2025 07:00:00,24.108970,82.645580,CO,12,15,12
India,Maharashtra,Ahmednagar,"Tarakpur, Ahmednagar - MPCB",08-09-2025 07:00:00,19.10122,74.73339,PM2.5,19,38,26
India,Maharashtra,Ahmednagar,"Tarakpur, Ahmednagar - MPCB",08-09-2025 07:00:00,19.10122,74.73339,NH3,4,6,6
India,Maharashtra,Ahmednagar,"Tarakpur, Ahmednagar - MPCB",08-09-2025 07:00:00,19.10122,74.73339,SO2,3,29,11
India,Madhya Pradesh,Jabalpur,"Suhagi, Jabalpur - JMC",08-09-2025 07:00:00,23.218135,79.957770,NO2,25,45,32
India,Madhya Pradesh,Jabalpur,"Suhagi, Jabalpur - JMC",08-09-2025 07:00:00,23.218135,79.957770,SO2,3,8,6
India,Madhya Pradesh,Jabalpur,"Suhagi, Jabalpur - JMC",08-09-2025 07:00:00,23.218135,79.957770,OZONE,11,50,13
India,Madhya Pradesh,Katni,"Gole Bazar, Katni - MPPCB",08-09-2025 07:00:00,23.50016,80.23284,PM2.5,16,36,24
India,Madhya Pradesh,Katni,"Gole Bazar, Katni - MPPCB",08-09-2025 07:00:00,23.50016,80.23284,SO2,14,36,24
India,Madhya Pradesh,Pithampur,"Sector-2 Industrial Area, Pithampur - MPPCB",08-09-2025 07:00:00,22.624758,75.675238,NO2,3,11,7
India,Madhya Pradesh,Gwalior,"City Center, Gwalior - MPPCB",08-09-2025 07:00:00,26.203442,78.193251,CO,23,72,30
India,Madhya Pradesh,Gwalior,"Deen Dayal Nagar, Gwalior - MPPCB",08-09-2025 07:00:00,26.259242,78.216432,OZONE,21,62,39
India,Madhya Pradesh,Gwalior,"Maharaj Bada, Gwalior - MPPCB",08-09-2025 07:00:00,26.200388,78.147714,NO2,16,33,21
India,Madhya Pradesh,Gwalior,"Maharaj Bada, Gwalior - MPPCB",08-09-2025 07:00:00,26.200388,78.147714,OZONE,30,48,41
India,Madhya Pradesh,Indore,"Airport Area, Indore - IMC",08-09-2025 07:00:00,22.7289,75.8076,CO,5,6,5
India,Maharashtra,Mumbai,"Kherwadi_Bandra East, Mumbai - MPCB",08-09-2025 07:00:00,19.0632143,72.8456324,CO,16,30,22
India,Maharashtra,Mumbai,"Khindipada-Bhandup West, Mumbai - IITM",08-09-2025 07:00:00,19.1653323,72.922099,PM10,12,47,30
India,Maharashtra,Mumbai,"Khindipada-Bhandup West, Mumbai - IITM",08-09-2025 07:00:00,19.1653323,72.922099,NH3,3,4,3
India,Maharashtra,Mumbai,"Khindipada-Bhandup West, Mumbai - IITM",08-09-2025 07:00:00,19.1653323,72.922099,SO2,2,27,9
India,Maharashtra,Mumbai,"Khindipada-Bhandup West, Mumbai - IITM",08-09-2025 07:00:00,19.1653323,72.922099,CO,10,24,19
India,Maharashtra,Mumbai,"Malad West, Mumbai - IITM",08-09-2025 07:00:00,19.19709,72.82204,NO2,38,70,53
India,Maharashtra,Mumbai,"Malad West, Mumbai - IITM",08-09-2025 07:00:00,19.19709,72.82204,NH3,7,11,8
India,Maharashtra,Mumbai,"Malad West, Mumbai - IITM",08-09-2025 07:00:00,19.19709,72.82204,OZONE,5,11,6
India,Maharashtra,Mumbai,"Mazgaon, Mumbai - IITM",08-09-2025 07:00:00,18.96702,72.84214,NH3,6,9,7
India,Maharashtra,Mumbai,"Mazgaon, Mumbai - IITM",08-09-2025 07:00:00,18.96702,72.84214,CO,32,61,47
India,Maharashtra,Chandrapur,"Chauhan Colony, Chandrapur - MPCB",08-09-2025 07:00:00,19.962900,79.298714,CO,19,30,25
India,Maharashtra,Chandrapur,"MIDC Khutala, Chandrapur - MPCB",08-09-2025 07:00:00,19.9775302,79.2337086,NO2,6,21,10
India,Maharashtra,Dhule,"Deopur, Dhule - MPCB",08-09-2025 07:00:00,20.918946,74.776388,CO,14,28,21
India,Maharashtra,Jalgaon,"Prabhat Colony, Jalgaon - MPCB",08-09-2025 07:00:00,21.001264,75.565602,PM10,12,39,24
India,Maharashtra,Jalgaon,"Prabhat Colony, Jalgaon - MPCB",08-09-2025 07:00:00,21.001264,75.565602,SO2,9,15,12
India,Maharashtra,Jalna,"Old MIDC, Jalna - MPCB",08-09-2025 07:00:00,19.854616,75.905894,NH3,2,5,4
India,Maharashtra,Jalna,"Old MIDC, Jalna - MPCB",08-09-2025 07:00:00,19.854616,75.905894,SO2,23,25,24
India,Maharashtra,Kalyan,"Khadakpada, Kalyan - MPCB",08-09-2025 07:00:00,19.25292,73.142019,NO2,7,11,9
India,Maharashtra,Kalyan,"Khadakpada, Kalyan - MPCB",08-09-2025 07:00:00,19.25292,73.142019,OZONE,16,16,16
India,Maharashtra,Kolhapur,"Sinchan Bhavan, Kolhapur - MPCB",08-09-2025 07:00:00,16.7143745,74.2426398,NH3,NA,NA,NA
India,Maharashtra,Latur,"Sawe Wadi, Latur - MPCB",08-09-2025 07:00:00,18.39963,76.57452,NH3,2,6,3
India,Maharashtra,Mahad,"Kamble Tarf Birwadi, Mahad - MPCB",08-09-2025 07:00:00,18.1023399,73.4783687,SO2,13,43,21
India,Maharashtra,Malegaon,"Mahesh Nagar, Malegaon - MPCB",08-09-2025 07:00:00,20.555712,74.529236,PM2.5,16,76,37
India,Maharashtra,Malegaon,"Mahesh Nagar, Malegaon - MPCB",08-09-2025 07:00:00,20.555712,74.529236,PM10,29,89,53
India,Maharashtra,Malegaon,"Mahesh Nagar, Malegaon - MPCB",08-09-2025 07:00:00,20.555712,74.529236,SO2,1,23,12
India,Maharashtra,Mumbai,"Bandra Kurla Complex, Mumbai - IITM",08-09-2025 07:00:00,19.053536,72.84643,NO2,8,14,11
India,Maharashtra,Mumbai,"Bandra Kurla Complex, Mumbai - IITM",08-09-2025 07:00:00,19.053536,72.84643,SO2,4,6,5
India,Maharashtra,Mumbai,"Bandra Kurla Complex, Mumbai - MPCB",08-09-2025 07:00:00,19.065931,72.862131,SO2,2,4,3
India,Maharashtra,Badlapur,"Katrap, Badlapur - MPCB",08-09-2025 07:00:00,19.16485,73.23409,PM2.5,16,271,60
India,Maharashtra,Bhiwandi,"Gokul Nagar, Bhiwandi - MPCB",08-09-2025 07:00:00,19.309073,73.057223,PM2.5,23,42,32
India,Maharashtra,Bhiwandi,"Gokul Nagar, Bhiwandi - MPCB",08-09-2025 07:00:00,19.309073,73.057223,PM10,35,64,47
India,Maharashtra,Boisar,"Khaira, Boisar - MPCB",08-09-2025 07:00:00,19.786089,72.757971,OZONE,30,31,31
India,Maharashtra,Chandrapur,"Chauhan Colony, Chandrapur - MPCB",08-09-2025 07:00:00,19.962900,79.298714,PM10,21,144,72
India,Maharashtra,Mumbai,"Mindspace-Malad West, Mumbai - MPCB",08-09-2025 07:00:00,19.1878657,72.8304069,CO,30,30,30
India,Maharashtra,Mumbai,"Mulund West, Mumbai - MPCB",08-09-2025 07:00:00,19.1750,72.9419,PM10,NA,NA,NA
India,Maharashtra,Mumbai,"Mulund West, Mumbai - MPCB",08-09-2025 07:00:00,19.1750,72.9419,NH3,NA,NA,NA
India,Maharashtra,Mumbai,"Sewri, Mumbai - BMC",08-09-2025 07:00:00,19.000084,72.856730,NO2,1,9,2
India,Maharashtra,Mumbai,"Shivaji Nagar, Mumbai - BMC",08-09-2025 07:00:00,19.060498,72.923356,NH3,3,3,3
India,Maharashtra,Mumbai,"Colaba, Mumbai - MPCB",08-09-2025 07:00:00,18.910000,72.820000,PM2.5,NA,NA,NA
India,Maharashtra,Mumbai,"Ghatkopar, Mumbai - BMC",08-09-2025 07:00:00,19.083694,72.920967,PM10,19,46,34
India,Maharashtra,Mumbai,"Kandivali East, Mumbai - MPCB",08-09-2025 07:00:00,19.205800,72.868200,PM2.5,30,30,30
India,Maharashtra,Mumbai,"Kandivali East, Mumbai - MPCB",08-09-2025 07:00:00,19.205800,72.868200,PM10,30,83,55
India,Maharashtra,Mumbai,"Kandivali East, Mumbai - MPCB",08-09-2025 07:00:00,19.205800,72.868200,SO2,NA,NA,NA
India,Maharashtra,Mumbai,"Kandivali West, Mumbai - BMC",08-09-2025 07:00:00,19.215859,72.831718,PM2.5,10,35,17
India,Maharashtra,Mumbai,"Chembur, Mumbai - MPCB",08-09-2025 07:00:00,19.0364585,72.8954371,NH3,6,10,8
India,Maharashtra,Mumbai,"Chhatrapati Shivaji Intl. Airport (T2), Mumbai - MPCB",08-09-2025 07:00:00,19.10078,72.87462,PM10,60,79,67
India,Maharashtra,Mumbai,"Chhatrapati Shivaji Intl. Airport (T2), Mumbai - MPCB",08-09-2025 07:00:00,19.10078,72.87462,NO2,29,36,32
India,Maharashtra,Mumbai,"Chhatrapati Shivaji Intl. Airport (T2), Mumbai - MPCB",08-09-2025 07:00:00,19.10078,72.87462,NH3,1,2,1
India,Maharashtra,Mumbai,"Borivali East, Mumbai - MPCB",08-09-2025 07:00:00,19.2243333,72.8658113,SO2,4,5,4
India,Maharashtra,Mumbai,"Chakala-Andheri East, Mumbai - IITM",08-09-2025 07:00:00,19.11074,72.86084,PM10,41,90,61
India,Maharashtra,Mumbai,"Chakala-Andheri East, Mumbai - IITM",08-09-2025 07:00:00,19.11074,72.86084,NO2,4,7,5
India,Maharashtra,Mumbai,"Chakala-Andheri East, Mumbai - IITM",08-09-2025 07:00:00,19.11074,72.86084,CO,15,44,28
India,Maharashtra,Pune,"Mhada Colony, Pune - IITM",08-09-2025 07:00:00,18.573040,73.927715,OZONE,10,26,15
India,Maharashtra,Pune,"Panchawati_Pashan, Pune - IITM",08-09-2025 07:00:00,18.536457,73.805454,PM2.5,15,39,21
India,Maharashtra,Pune,"Panchawati_Pashan, Pune - IITM",08-09-2025 07:00:00,18.536457,73.805454,PM10,27,52,35
India,Maharashtra,Pune,"Panchawati_Pashan, Pune - IITM",08-09-2025 07:00:00,18.536457,73.805454,OZONE,NA,NA,NA
India,Maharashtra,Pune,"Savitribai Phule Pune University, Pune - MPCB",08-09-2025 07:00:00,18.547056,73.826908,NH3,1,2,1
India,Maharashtra,Pune,"Savitribai Phule Pune University, Pune - MPCB",08-09-2025 07:00:00,18.547056,73.826908,CO,8,16,13
India,Maharashtra,Pune,"Savitribai Phule Pune University, Pune - MPCB",08-09-2025 07:00:00,18.547056,73.826908,OZONE,NA,NA,NA
India,Maharashtra,Pune,"Transport Nagar-Nigdi, Pune - IITM",08-09-2025 07:00:00,18.664282,73.763966,PM2.5,5,33,16
India,Maharashtra,Sangli,"Vijay Nagar, Sangli - MPCB",08-09-2025 07:00:00, 16.5038,74.3623,PM10,47,83,68
India,Maharashtra,Nashik,"MIDC Ambad, Nashik - MPCB",08-09-2025 07:00:00,19.950220,73.731480,PM10,12,68,43
India,Maharashtra,Nashik,"Pandav Nagari, Nashik - MPCB",08-09-2025 07:00:00,19.9591346,73.7788008,NO2,1,6,3
India,Maharashtra,Nashik,"Pandav Nagari, Nashik - MPCB",08-09-2025 07:00:00,19.9591346,73.7788008,NH3,2,3,2
India,Maharashtra,Nashik,"Pandav Nagari, Nashik - MPCB",08-09-2025 07:00:00,19.9591346,73.7788008,CO,6,16,7
India,Maharashtra,Nashik,"Pandav Nagari, Nashik - MPCB",08-09-2025 07:00:00,19.9591346,73.7788008,OZONE,10,21,19
India,Maharashtra,Navi Mumbai,"Kopripada-Vashi, Navi Mumbai - MPCB",08-09-2025 07:00:00,19.090337,73.014232,SO2,13,15,14
India,Maharashtra,Navi Mumbai,"Mahape, Navi Mumbai - MPCB",08-09-2025 07:00:00,19.1135051,73.008978,NO2,34,36,35
India,Maharashtra,Navi Mumbai,"Nerul, Navi Mumbai - MPCB",08-09-2025 07:00:00,19.008751,73.016620,NO2,28,29,28
India,Maharashtra,Navi Mumbai,"Nerul, Navi Mumbai - MPCB",08-09-2025 07:00:00,19.008751,73.016620,NH3,3,3,3
India,Maharashtra,Navi Mumbai,"Sanpada, Navi Mumbai - MPCB",08-09-2025 07:00:00,19.0575752,73.0151367,NH3,2,6,4
India,Maharashtra,Navi Mumbai,"Sector-2E Kalamboli, Navi Mumbai - MPCB",08-09-2025 07:00:00,19.02579,73.10297,NO2,31,175,64
India,Maharashtra,Navi Mumbai,"Sector-2E Kalamboli, Navi Mumbai - MPCB",08-09-2025 07:00:00,19.02579,73.10297,CO,14,20,15
India,Maharashtra,Navi Mumbai,"Tondare-Taloja, Navi Mumbai - MPCB",08-09-2025 07:00:00,19.0630,73.1209,OZONE,11,16,12
India,Maharashtra,Parbhani,"Masoom Colony, Parbhani - MPCB",08-09-2025 07:00:00,19.265594,76.761463,PM2.5,21,46,29
India,Maharashtra,Pimpri-Chinchwad,"Gavalinagar, Pimpri Chinchwad - MPCB",08-09-2025 07:00:00,18.63673,73.82487,NH3,3,3,3
India,Maharashtra,Thane,"Upvan Fort, Thane - MPCB",08-09-2025 07:00:00,19.222279,72.957979,SO2,2,4,3
India,Maharashtra,Thane,"Upvan Fort, Thane - MPCB",08-09-2025 07:00:00,19.222279,72.957979,CO,54,87,73
India,Maharashtra,Ulhasnagar,"Sidhi Vinayak Nagar, Ulhasnagar - MPCB",08-09-2025 07:00:00,19.235581,73.159121,PM10,30,67,55
India,Maharashtra,Ulhasnagar,"Sidhi Vinayak Nagar, Ulhasnagar - MPCB",08-09-2025 07:00:00,19.235581,73.159121,NH3,4,12,8
India,Maharashtra,Ulhasnagar,"Sidhi Vinayak Nagar, Ulhasnagar - MPCB",08-09-2025 07:00:00,19.235581,73.159121,SO2,6,24,15
India,Meghalaya,Shillong,"Lumpyngngad, Shillong - Meghalaya PCB",08-09-2025 07:00:00,25.5586,91.8985,PM2.5,1,18,6
India,Maharashtra,Nagpur,"Opp GPO Civil Lines, Nagpur - MPCB",08-09-2025 07:00:00,21.152875,79.0517531,NO2,8,34,17
India,Maharashtra,Nanded,"Sneh Nagar, Nanded - MPCB",08-09-2025 07:00:00,19.173852,77.296291,PM10,46,72,59
India,Maharashtra,Nanded,"Sneh Nagar, Nanded - MPCB",08-09-2025 07:00:00,19.173852,77.296291,NH3,3,5,4
India,Maharashtra,Nashik,"Gangapur Road, Nashik - MPCB",08-09-2025 07:00:00,20.0073285,73.7762427,PM10,10,47,22
India,Maharashtra,Nashik,"Gangapur Road, Nashik - MPCB",08-09-2025 07:00:00,20.0073285,73.7762427,OZONE,15,18,17
India,Maharashtra,Nashik,"Hirawadi, Nashik - MPCB",08-09-2025 07:00:00,20.021503,73.813844,PM10,11,57,31
India,Odisha,Angul,"Hakimapada, Angul - OSPCB",08-09-2025 07:00:00,20.832874,85.104082,NH3,2,3,3
India,Odisha,Angul,"Hakimapada, Angul - OSPCB",08-09-2025 07:00:00,20.832874,85.104082,SO2,6,133,43
India,Odisha,Angul,"Hakimapada, Angul - OSPCB",08-09-2025 07:00:00,20.832874,85.104082,OZONE,3,24,3
India,Odisha,Balasore,"Kalidaspur, Balasore - OSPCB",08-09-2025 07:00:00,21.51161,86.89088,NO2,1,26,8
India,Odisha,Balasore,"Kalidaspur, Balasore - OSPCB",08-09-2025 07:00:00,21.51161,86.89088,NH3,3,4,3
India,Odisha,Barbil,"Forest Office, Barbil - OSPCB",08-09-2025 07:00:00,22.1166054,85.3945546,PM2.5,18,163,51
India,Maharashtra,Pimpri-Chinchwad,"Park Street Wakad, Pimpri Chinchwad - MPCB",08-09-2025 07:00:00,18.59051,73.77946,NO2,7,20,12
India,Maharashtra,Pimpri-Chinchwad,"Park Street Wakad, Pimpri Chinchwad - MPCB",08-09-2025 07:00:00,18.59051,73.77946,OZONE,1,22,5
India,Maharashtra,Pimpri-Chinchwad,"Savta Mali Nagar, Pimpri-Chinchwad - IITM",08-09-2025 07:00:00,18.614767,73.799516,PM10,15,51,29
India,Maharashtra,Pune,"Katraj Dairy, Pune - MPCB",08-09-2025 07:00:00,18.454450,73.854155,PM2.5,6,32,14
India,Maharashtra,Mumbai,"Siddharth Nagar-Worli, Mumbai - IITM",08-09-2025 07:00:00,19.000083,72.813993,PM10,23,66,43
India,Maharashtra,Mumbai,"Worli, Mumbai - MPCB",08-09-2025 07:00:00,18.9936162,72.8128113,PM10,NA,NA,NA
India,Maharashtra,Nagpur,"Ambazari, Nagpur - MPCB",08-09-2025 07:00:00,21.121801,79.04952,NO2,4,24,9
India,Maharashtra,Nagpur,"Mahal, Nagpur - MPCB",08-09-2025 07:00:00,21.14472,79.107595,OZONE,7,17,8
India,Maharashtra,Solapur,"Dnyaneshwar Nagar, Solapur - MPCB",08-09-2025 07:00:00,17.6336264,75.9132495,NH3,3,36,8
India,Maharashtra,Thane,"Upvan Fort, Thane - MPCB",08-09-2025 07:00:00,19.222279,72.957979,PM2.5,13,34,22
India,Rajasthan,Barmer,"Railway Colony, Barmer - RSPCB",08-09-2025 07:00:00,25.747299,71.393989,NH3,1,7,2
India,Rajasthan,Barmer,"Railway Colony, Barmer - RSPCB",08-09-2025 07:00:00,25.747299,71.393989,SO2,1,5,3
India,Rajasthan,Barmer,"Railway Colony, Barmer - RSPCB",08-09-2025 07:00:00,25.747299,71.393989,OZONE,23,84,57
India,Rajasthan,Bharatpur,"Krishna Nagar, Bharatpur - RSPCB",08-09-2025 07:00:00,27.215415,77.50873,OZONE,25,40,31
India,Rajasthan,Bhilwara,"Pratap Nagar, Bhilwara - RSPCB",08-09-2025 07:00:00,25.339605,74.618883,PM10,7,61,28
India,Rajasthan,Bhilwara,"Pratap Nagar, Bhilwara - RSPCB",08-09-2025 07:00:00,25.339605,74.618883,NH3,1,2,1
India,Rajasthan,Bhilwara,"Pratap Nagar, Bhilwara - RSPCB",08-09-2025 07:00:00,25.339605,74.618883,OZONE,3,19,10
India,Rajasthan,Bhiwadi,"RIICO Ind. Area III, Bhiwadi - RSPCB",08-09-2025 07:00:00,28.194909,76.862296,NO2,4,51,24
India,Rajasthan,Bhiwadi,"RIICO Ind. Area III, Bhiwadi - RSPCB",08-09-2025 07:00:00,28.194909,76.862296,SO2,1,19,8
India,Rajasthan,Bhiwadi,"Vasundhara Nagar_UIT, Bhiwadi - RSPCB",08-09-2025 07:00:00,28.207266,76.829265,PM2.5,2,89,31
India,Rajasthan,Bhiwadi,"Vasundhara Nagar_UIT, Bhiwadi - RSPCB",08-09-2025 07:00:00,28.207266,76.829265,PM10,15,91,41
India,Rajasthan,Bhiwadi,"Vasundhara Nagar_UIT, Bhiwadi - RSPCB",08-09-2025 07:00:00,28.207266,76.829265,NO2,9,56,21
India,Punjab,Jalandhar,"Civil Line, Jalandhar - PPCB",08-09-2025 07:00:00,31.321907,75.578914,PM2.5,32,52,39
India,Punjab,Jalandhar,"Civil Line, Jalandhar - PPCB",08-09-2025 07:00:00,31.321907,75.578914,SO2,14,17,16
India,Punjab,Jalandhar,"Civil Line, Jalandhar - PPCB",08-09-2025 07:00:00,31.321907,75.578914,OZONE,39,49,48
India,Punjab,Khanna,"Kalal Majra, Khanna - PPCB",08-09-2025 07:00:00,30.736056 ,76.209694,NH3,7,7,7
India,Punjab,Khanna,"Kalal Majra, Khanna - PPCB",08-09-2025 07:00:00,30.736056 ,76.209694,SO2,4,6,5
India,Punjab,Mandi Gobindgarh,"RIMT University, Mandi Gobindgarh - PPCB",08-09-2025 07:00:00,30.649961,76.331442,PM10,38,62,47
India,Punjab,Mandi Gobindgarh,"RIMT University, Mandi Gobindgarh - PPCB",08-09-2025 07:00:00,30.649961,76.331442,NH3,6,6,6
India,Punjab,Mandi Gobindgarh,"RIMT University, Mandi Gobindgarh - PPCB",08-09-2025 07:00:00,30.649961,76.331442,SO2,7,33,18
India,Punjab,Patiala,"Model Town, Patiala - PPCB",08-09-2025 07:00:00,30.349388,76.366642,PM2.5,13,25,18
India,Punjab,Patiala,"Model Town, Patiala - PPCB",08-09-2025 07:00:00,30.349388,76.366642,NO2,18,22,20
India,Punjab,Patiala,"Model Town, Patiala - PPCB",08-09-2025 07:00:00,30.349388,76.366642,NH3,5,6,5
India,Odisha,Cuttack,"CDA Area, Cuttack - OSPCB",08-09-2025 07:00:00,20.48891     ,85.84768     ,OZONE,6,40,8
India,Odisha,Keonjhar,"Jagamohanpur, Keonjhar - OSPCB",08-09-2025 07:00:00,21.643900,85.599355,CO,2,104,26
India,Odisha,Nayagarh,"Dabuna, Nayagarh - OSPCB",08-09-2025 07:00:00,21.847279,85.416905,PM2.5,NA,NA,NA
India,Odisha,Nayagarh,"Dabuna, Nayagarh - OSPCB",08-09-2025 07:00:00,21.847279,85.416905,SO2,NA,NA,NA
India,Odisha,Rairangpur,"Divisional Forest Office, Rairangpur - OSPCB",08-09-2025 07:00:00,22.265816,86.174829,PM2.5,23,72,31
India,Odisha,Rairangpur,"Divisional Forest Office, Rairangpur - OSPCB",08-09-2025 07:00:00,22.265816,86.174829,CO,22,36,28
India,Odisha,Rourkela,"Raghunathpali, Rourkela - OSPCB",08-09-2025 07:00:00,22.220833,84.809444,PM2.5,44,150,76
India,Odisha,Rourkela,"Raghunathpali, Rourkela - OSPCB",08-09-2025 07:00:00,22.220833,84.809444,NH3,3,4,3
India,Odisha,Rourkela,"Raghunathpali, Rourkela - OSPCB",08-09-2025 07:00:00,22.220833,84.809444,OZONE,4,20,8
India,Odisha,Suakati,"OMC Colony, Suakati - OSPCB",08-09-2025 07:00:00,21.606865,85.510538,PM2.5,29,69,49
India,Odisha,Suakati,"OMC Colony, Suakati - OSPCB",08-09-2025 07:00:00,21.606865,85.510538,OZONE,8,9,8
India,Odisha,Tensa,"Barsua Iron Ore Mines, Tensa - OSPCB",08-09-2025 07:00:00,21.869985,85.167016,OZONE,7,25,13
India,Punjab,Amritsar,"Golden Temple, Amritsar - PPCB",08-09-2025 07:00:00,31.620000,74.876512,NO2,5,37,22
India,Punjab,Amritsar,"Golden Temple, Amritsar - PPCB",08-09-2025 07:00:00,31.620000,74.876512,CO,38,50,45
India,Odisha,Bhubaneswar,"Patia, Bhubaneswar - OSPCB",08-09-2025 07:00:00,20.34652,85.81630,CO,31,54,43
India,Odisha,Bhubaneswar,"Patia, Bhubaneswar - OSPCB",08-09-2025 07:00:00,20.34652,85.81630,OZONE,5,28,6
India,Odisha,Bileipada,"Tata Township, Bileipada - OSPCB",08-09-2025 07:00:00,22.06156703,85.47409613,OZONE,11,14,11
India,Odisha,Brajrajnagar,"GM Office, Brajrajnagar - OSPCB",08-09-2025 07:00:00,21.8004996,83.8396977,PM2.5,6,41,24
India,Odisha,Brajrajnagar,"GM Office, Brajrajnagar - OSPCB",08-09-2025 07:00:00,21.8004996,83.8396977,NH3,8,10,9
India,Odisha,Byasanagar,"Ferro Chrome Colony, Byasanagar - OSPCB",08-09-2025 07:00:00,20.94185,86.11510,CO,12,39,20
India,Rajasthan,Bhiwadi,"Vasundhara Nagar_UIT, Bhiwadi - RSPCB",08-09-2025 07:00:00,28.207266,76.829265,CO,18,37,22
India,Rajasthan,Bhiwadi,"Vasundhara Nagar_UIT, Bhiwadi - RSPCB",08-09-2025 07:00:00,28.207266,76.829265,OZONE,7,26,11
India,Rajasthan,Bundi,"New Colony, Bundi - RSPCB",08-09-2025 07:00:00,25.435774,75.644272,PM2.5,7,25,15
India,Rajasthan,Bundi,"New Colony, Bundi - RSPCB",08-09-2025 07:00:00,25.435774,75.644272,NO2,4,19,9
India,Rajasthan,Chittorgarh,"Shastri Nagar, Chittorgarh - RSPCB",08-09-2025 07:00:00,24.892047,74.623527,PM10,14,54,32
India,Rajasthan,Chittorgarh,"Shastri Nagar, Chittorgarh - RSPCB",08-09-2025 07:00:00,24.892047,74.623527,NH3,1,1,1
India,Rajasthan,Ajmer,"Civil Lines,  Ajmer - RSPCB",08-09-2025 07:00:00,26.470859,74.646594,CO,2,131,42
India,Rajasthan,Alwar,"Moti Doongri, Alwar - RSPCB",08-09-2025 07:00:00,27.554793,76.611536,SO2,18,56,34
India,Rajasthan,Alwar,"Moti Doongri, Alwar - RSPCB",08-09-2025 07:00:00,27.554793,76.611536,CO,14,51,31
India,Rajasthan,Baran,"Bamboliya, Baran - RSPCB",08-09-2025 07:00:00,25.106006,76.469948,PM10,5,24,13
India,Rajasthan,Baran,"Bamboliya, Baran - RSPCB",08-09-2025 07:00:00,25.106006,76.469948,NO2,4,11,6
India,Rajasthan,Dausa,"Khatikan Mohalla, Dausa - RSPCB",08-09-2025 07:00:00,26.895552,76.334753,NH3,6,14,8
India,Rajasthan,Hanumangarh,"Housing Board, Hanumangarh - RSPCB",08-09-2025 07:00:00,29.610750,74.283608,PM2.5,17,48,31
India,Rajasthan,Hanumangarh,"Housing Board, Hanumangarh - RSPCB",08-09-2025 07:00:00,29.610750,74.283608,PM10,15,57,35
India,Rajasthan,Hanumangarh,"Housing Board, Hanumangarh - RSPCB",08-09-2025 07:00:00,29.610750,74.283608,NO2,19,47,29
India,Rajasthan,Hanumangarh,"Housing Board, Hanumangarh - RSPCB",08-09-2025 07:00:00,29.610750,74.283608,NH3,3,32,6
India,Rajasthan,Jaipur,"Adarsh Nagar, Jaipur - RSPCB",08-09-2025 07:00:00,26.902909,75.836858,OZONE,28,50,37
India,Rajasthan,Jaipur,"Shastri Nagar, Jaipur - RSPCB",08-09-2025 07:00:00,26.9502929,75.730943,NO2,NA,NA,NA
India,Rajasthan,Jaipur,"Shastri Nagar, Jaipur - RSPCB",08-09-2025 07:00:00,26.9502929,75.730943,NH3,NA,NA,NA
India,Rajasthan,Jaipur,"Shastri Nagar, Jaipur - RSPCB",08-09-2025 07:00:00,26.9502929,75.730943,SO2,NA,NA,NA
India,Rajasthan,Jaisalmer,"Sadar Bazar, Jaisalmer - RSPCB",08-09-2025 07:00:00,26.912329,70.909168,NO2,3,8,5
India,Rajasthan,Jaisalmer,"Sadar Bazar, Jaisalmer - RSPCB",08-09-2025 07:00:00,26.912329,70.909168,NH3,2,6,4
India,Rajasthan,Jaisalmer,"Sadar Bazar, Jaisalmer - RSPCB",08-09-2025 07:00:00,26.912329,70.909168,SO2,2,5,3
India,Rajasthan,Jalore,"Mudtra Sili, Jalore - RSPCB",08-09-2025 07:00:00,25.344694,72.626208,PM2.5,NA,NA,NA
India,Rajasthan,Jalore,"Mudtra Sili, Jalore - RSPCB",08-09-2025 07:00:00,25.344694,72.626208,NO2,3,12,7
India,Rajasthan,Jhalawar,"Rajlaxmi Nagar, Jhalawar - RSPCB",08-09-2025 07:00:00,24.588397,76.172782,NO2,46,81,62
India,Rajasthan,Jhalawar,"Rajlaxmi Nagar, Jhalawar - RSPCB",08-09-2025 07:00:00,24.588397,76.172782,SO2,6,8,7
India,Rajasthan,Jhalawar,"Rajlaxmi Nagar, Jhalawar - RSPCB",08-09-2025 07:00:00,24.588397,76.172782,OZONE,27,64,34
India,Rajasthan,Jhunjhunu,"Indra Nagar, Jhunjhunu - RSPCB",08-09-2025 07:00:00,28.108988,75.386577,OZONE,10,50,30
India,Rajasthan,Jodhpur,"Collectorate, Jodhpur - RSPCB",08-09-2025 07:00:00,26.268249,73.0193853,NH3,1,5,2
India,Rajasthan,Jodhpur,"Collectorate, Jodhpur - RSPCB",08-09-2025 07:00:00,26.268249,73.0193853,OZONE,8,16,12
India,Rajasthan,Jodhpur,"Digari Kalan, Jodhpur - RSPCB",08-09-2025 07:00:00,26.295810,73.082283,NH3,2,6,3
India,Rajasthan,Jodhpur,"Jhalamand, Jodhpur - RSPCB",08-09-2025 07:00:00,26.215415,73.070156,OZONE,27,48,31
India,Rajasthan,Jodhpur,"Mandor, Jodhpur - RSPCB",08-09-2025 07:00:00,26.358805,73.047444,CO,NA,NA,NA
India,Rajasthan,Jodhpur,"Samrat Ashok Udhyan, Jodhpur - RSPCB",08-09-2025 07:00:00,26.253384,72.976571,PM2.5,3,22,14
India,Rajasthan,Jodhpur,"Samrat Ashok Udhyan, Jodhpur - RSPCB",08-09-2025 07:00:00,26.253384,72.976571,PM10,20,36,27
India,Rajasthan,Jodhpur,"Samrat Ashok Udhyan, Jodhpur - RSPCB",08-09-2025 07:00:00,26.253384,72.976571,NH3,2,5,4
India,Rajasthan,Sawai Madhopur,"Sahu Nagar, Sawai Madhopur - RSPCB",08-09-2025 07:00:00,26.031443,76.359327,SO2,1,8,4
India,Rajasthan,Sawai Madhopur,"Sahu Nagar, Sawai Madhopur - RSPCB",08-09-2025 07:00:00,26.031443,76.359327,OZONE,11,33,16
India,Rajasthan,Sikar,"Radhakishan Pura, Sikar - RSPCB",08-09-2025 07:00:00,27.608912,75.153302,PM10,14,45,28
India,Rajasthan,Sikar,"Radhakishan Pura, Sikar - RSPCB",08-09-2025 07:00:00,27.608912,75.153302,CO,12,30,14
India,Rajasthan,Sirohi,"Vedhaynath Colony, Sirohi - RSPCB",08-09-2025 07:00:00,24.885261,72.857549,NO2,2,7,4
India,Rajasthan,Tonk,"Shastri Nagar, Tonk - RSPCB",08-09-2025 07:00:00,26.159933,75.780517,PM2.5,NA,NA,NA
India,Rajasthan,Tonk,"Shastri Nagar, Tonk - RSPCB",08-09-2025 07:00:00,26.159933,75.780517,PM10,36,84,48
India,Rajasthan,Nagaur,"Karni Colony, Nagaur - RSPCB",08-09-2025 07:00:00,27.213494,73.734444,PM2.5,2,22,13
India,Rajasthan,Nagaur,"Karni Colony, Nagaur - RSPCB",08-09-2025 07:00:00,27.213494,73.734444,PM10,14,35,24
India,Rajasthan,Nagaur,"Karni Colony, Nagaur - RSPCB",08-09-2025 07:00:00,27.213494,73.734444,NO2,3,7,4
India,Rajasthan,Nagaur,"Karni Colony, Nagaur - RSPCB",08-09-2025 07:00:00,27.213494,73.734444,CO,7,16,8
India,Rajasthan,Pali,"Indira Colony Vistar, Pali - RSPCB",08-09-2025 07:00:00,25.771061, 73.340227,CO,2,100,32
India,Rajasthan,Pratapgarh,"Pragati Nagar, Pratapgarh - RSPCB",08-09-2025 07:00:00,24.041198,74.780702,PM2.5,8,55,32
India,Rajasthan,Pratapgarh,"Pragati Nagar, Pratapgarh - RSPCB",08-09-2025 07:00:00,24.041198,74.780702,NH3,1,3,2
India,Rajasthan,Pratapgarh,"Pragati Nagar, Pratapgarh - RSPCB",08-09-2025 07:00:00,24.041198,74.780702,SO2,3,6,3
India,TamilNadu,Chennai,"Velachery Res. Area, Chennai - CPCB",08-09-2025 07:00:00,13.0052189,80.2398125,SO2,8,9,9
India,TamilNadu,Chennai,"Velachery Res. Area, Chennai - CPCB",08-09-2025 07:00:00,13.0052189,80.2398125,OZONE,7,13,8
India,TamilNadu,Coimbatore,"SIDCO Kurichi, Coimbatore - TNPCB",08-09-2025 07:00:00,10.942451,76.978996,SO2,21,23,22
India,TamilNadu,Cuddalore,"Kudikadu, Cuddalore - TNPCB",08-09-2025 07:00:00,11.6829898,79.7532099,NH3,4,5,5
India,TamilNadu,Cuddalore,"Semmandalam, Cuddalore - TNPCB",08-09-2025 07:00:00,11.7637683,79.7499835,NO2,1,13,5
India,TamilNadu,Cuddalore,"Semmandalam, Cuddalore - TNPCB",08-09-2025 07:00:00,11.7637683,79.7499835,NH3,2,3,2
India,Rajasthan,Udaipur,"Ashok Nagar, Udaipur - RSPCB",08-09-2025 07:00:00,24.5886166,73.6321397,PM10,12,39,24
India,Rajasthan,Udaipur,"Ashok Nagar, Udaipur - RSPCB",08-09-2025 07:00:00,24.5886166,73.6321397,NO2,3,36,20
India,Rajasthan,Udaipur,"Ashok Nagar, Udaipur - RSPCB",08-09-2025 07:00:00,24.5886166,73.6321397,NH3,2,16,8
India,Sikkim,Gangtok,"Zero Point GICI, Gangtok - SSPCB",08-09-2025 07:00:00,27.338530,88.614099,SO2,1,1,1
India,TamilNadu,Chennai,"Alandur Bus Depot, Chennai - CPCB",08-09-2025 07:00:00,12.9099161,80.1076538,PM2.5,NA,NA,NA
India,TamilNadu,Chennai,"Alandur Bus Depot, Chennai - CPCB",08-09-2025 07:00:00,12.9099161,80.1076538,PM10,NA,NA,NA
India,Rajasthan,Jodhpur,"Samrat Ashok Udhyan, Jodhpur - RSPCB",08-09-2025 07:00:00,26.253384,72.976571,SO2,2,7,3
India,Rajasthan,Karauli,"Satyawati Vihar, Karauli - RSPCB",08-09-2025 07:00:00,26.506177,77.025989,NH3,NA,NA,NA
India,Rajasthan,Kota,"Dhanmandi, Kota - RSPCB",08-09-2025 07:00:00,25.164090,75.858137,CO,11,41,28
India,Rajasthan,Kota,"Nayapura, Kota - RSPCB",08-09-2025 07:00:00,25.196024,75.855668,PM10,14,64,37
India,TamilNadu,Chennai,"Alandur Bus Depot, Chennai - CPCB",08-09-2025 07:00:00,12.9099161,80.1076538,OZONE,3,37,8
India,TamilNadu,Chennai,"Kodungaiyur, Chennai - TNPCB",08-09-2025 07:00:00,13.1278,80.2642,NH3,6,15,8
India,TamilNadu,Chennai,"Manali Village, Chennai - TNPCB",08-09-2025 07:00:00,13.1662,80.2584,NO2,4,7,5
India,TamilNadu,Chennai,"Perungudi, Chennai - TNPCB",08-09-2025 07:00:00,12.9533,80.2357,SO2,1,3,2
India,Rajasthan,Jaipur,"Police Commissionerate, Jaipur - RSPCB",08-09-2025 07:00:00,26.9164092,75.7994901,PM2.5,NA,NA,NA
India,Rajasthan,Jaipur,"RIICO Sitapura, Jaipur - RSPCB",08-09-2025 07:00:00,26.786682,75.827928,NO2,6,25,13
India,Uttar_Pradesh,Bareilly,"Rajendra Nagar, Bareilly - UPPCB",08-09-2025 07:00:00,28.38910936,79.42963708,PM2.5,29,71,51
India,Uttar_Pradesh,Bulandshahr,"Yamunapuram, Bulandshahr - UPPCB",08-09-2025 07:00:00,28.406963,77.849831,NH3,6,9,6
India,Uttar_Pradesh,Bulandshahr,"Yamunapuram, Bulandshahr - UPPCB",08-09-2025 07:00:00,28.406963,77.849831,SO2,5,9,6
India,Uttar_Pradesh,Bulandshahr,"Yamunapuram, Bulandshahr - UPPCB",08-09-2025 07:00:00,28.406963,77.849831,OZONE,2,14,3
India,Uttar_Pradesh,Firozabad,"Nagla Bhau, Firozabad - UPPCB",08-09-2025 07:00:00,27.168897,78.376960,CO,16,30,22
India,Uttar_Pradesh,Firozabad,"Vibhab Nagar, Firozabad - UPPCB",08-09-2025 07:00:00,27.1594,78.3953,NH3,2,2,2
India,Uttar_Pradesh,Ghaziabad,"Indirapuram, Ghaziabad - UPPCB",08-09-2025 07:00:00,28.646233,77.358075,PM10,28,117,66
India,Uttar_Pradesh,Ghaziabad,"Indirapuram, Ghaziabad - UPPCB",08-09-2025 07:00:00,28.646233,77.358075,OZONE,10,69,15
India,Telangana,Hyderabad,"Somajiguda, Hyderabad - TSPCB",08-09-2025 07:00:00,17.417094,78.457437,SO2,15,23,18
India,Telangana,Hyderabad,"Somajiguda, Hyderabad - TSPCB",08-09-2025 07:00:00,17.417094,78.457437,OZONE,16,31,21
India,Tripura,Agartala,"Bardowali, Agartala - Tripura SPCB",08-09-2025 07:00:00,23.8175497,91.2726974,SO2,NA,NA,NA
India,Uttar_Pradesh,Agra,"Manoharpur, Agra - UPPCB",08-09-2025 07:00:00,27.23711,78.01936,PM10,8,50,25
India,Uttar_Pradesh,Agra,"Manoharpur, Agra - UPPCB",08-09-2025 07:00:00,27.23711,78.01936,NO2,24,24,24
India,Uttar_Pradesh,Agra,"Manoharpur, Agra - UPPCB",08-09-2025 07:00:00,27.23711,78.01936,SO2,NA,NA,NA
India,Uttar_Pradesh,Agra,"Sanjay Palace, Agra - UPPCB",08-09-2025 07:00:00,27.19865833,78.00598056,PM2.5,2,15,7
India,Uttar_Pradesh,Agra,"Sanjay Palace, Agra - UPPCB",08-09-2025 07:00:00,27.19865833,78.00598056,OZONE,8,22,17
India,Uttar_Pradesh,Agra,"Shahjahan Garden, Agra - UPPCB",08-09-2025 07:00:00,27.169338,78.03582,PM2.5,12,52,32
India,Uttar_Pradesh,Agra,"Shahjahan Garden, Agra - UPPCB",08-09-2025 07:00:00,27.169338,78.03582,NH3,1,1,1
India,Uttar_Pradesh,Agra,"Shahjahan Garden, Agra - UPPCB",08-09-2025 07:00:00,27.169338,78.03582,SO2,21,29,24
India,Uttar_Pradesh,Agra,"Shastripuram, Agra - UPPCB",08-09-2025 07:00:00,27.19862,77.92066,PM2.5,2,69,28
India,Uttar_Pradesh,Agra,"Shastripuram, Agra - UPPCB",08-09-2025 07:00:00,27.19862,77.92066,NO2,35,37,36
India,Uttar_Pradesh,Agra,"Shastripuram, Agra - UPPCB",08-09-2025 07:00:00,27.19862,77.92066,OZONE,3,4,3
India,Uttar_Pradesh,Baghpat,"Sardar Patel Inter College, Baghpat - UPPCB",08-09-2025 07:00:00,28.964949,77.278761,CO,2,55,24
India,Uttar_Pradesh,Bareilly,"Civil Lines, Bareilly - UPPCB",08-09-2025 07:00:00,28.359581,79.414455,PM10,4,19,11
India,TamilNadu,Pudukottai,"SIPCOT Nathampannai, Pudukottai - TNPCB",08-09-2025 07:00:00,10.423417,78.784889,PM2.5,13,39,23
India,TamilNadu,Ramanathapuram,"Chalai Bazaar, Ramanathapuram - TNPCB",08-09-2025 07:00:00,9.36399,78.831977,OZONE,4,5,4
India,TamilNadu,Salem,"Sona College of Technology, Salem - TNPCB",08-09-2025 07:00:00,11.679111,78.125052,NH3,3,3,3
India,TamilNadu,Thanjavur,"Parisutham Nagar, Thanjavur - TNPCB",08-09-2025 07:00:00,10.7654824,79.1389968,PM2.5,5,51,24
India,TamilNadu,Thoothukudi,"Meelavittan, Thoothukudi - TNPCB",08-09-2025 07:00:00,8.816428 ,78.099039,PM10,37,500,149
India,TamilNadu,Thoothukudi,"Meelavittan, Thoothukudi - TNPCB",08-09-2025 07:00:00,8.816428 ,78.099039,CO,10,44,29
India,TamilNadu,Gummidipoondi,"Anthoni Pillai Nagar, Gummidipoondi - TNPCB",08-09-2025 07:00:00,13.4127,80.1081,PM10,28,143,76
India,TamilNadu,Gummidipoondi,"Anthoni Pillai Nagar, Gummidipoondi - TNPCB",08-09-2025 07:00:00,13.4127,80.1081,NO2,1,6,2
India,TamilNadu,Gummidipoondi,"Anthoni Pillai Nagar, Gummidipoondi - TNPCB",08-09-2025 07:00:00,13.4127,80.1081,NH3,1,3,2
India,TamilNadu,Hosur,"SIPCOT Phase-1, Hosur - TNPCB",08-09-2025 07:00:00,12.746998,77.813811,PM10,17,57,38
India,TamilNadu,Hosur,"SIPCOT Phase-1, Hosur - TNPCB",08-09-2025 07:00:00,12.746998,77.813811,NH3,1,1,1
India,TamilNadu,Hosur,"SIPCOT Phase-1, Hosur - TNPCB",08-09-2025 07:00:00,12.746998,77.813811,OZONE,9,10,9
India,TamilNadu,Kanchipuram,"Kilambi, Kanchipuram - TNPCB",08-09-2025 07:00:00,12.864618,79.659968,NO2,1,2,1
India,TamilNadu,Karur,"Kamadenu Nagar, Karur - TNPCB",08-09-2025 07:00:00,10.967820,78.080882,CO,2,16,6
India,TamilNadu,Tiruchirappalli,"St Joseph College, Tiruchirappalli - TNPCB",08-09-2025 07:00:00,10.830158,78.691849,NO2,6,8,8
India,TamilNadu,Tirupur,"Kumaran College, Tirupur - TNPCB",08-09-2025 07:00:00,11.0973603,77.3228673,PM10,31,66,43
India,TamilNadu,Tirupur,"Kumaran College, Tirupur - TNPCB",08-09-2025 07:00:00,11.0973603,77.3228673,CO,14,16,15
India,TamilNadu,Vellore,"Vasanthapuram, Vellore - TNPCB",08-09-2025 07:00:00,12.909494,79.131861,NO2,1,1,1
India,TamilNadu,Vellore,"Vasanthapuram, Vellore - TNPCB",08-09-2025 07:00:00,12.909494,79.131861,SO2,18,20,19
India,TamilNadu,Vellore,"Vasanthapuram, Vellore - TNPCB",08-09-2025 07:00:00,12.909494,79.131861,CO,6,7,7
India,TamilNadu,Virudhunagar,"Collectorate Office, Virudhunagar - TNPCB",08-09-2025 07:00:00,9.559382,77.948828,PM2.5,22,62,37
India,Telangana,Hyderabad,"Kompally Municipal Office, Hyderabad - TSPCB",08-09-2025 07:00:00,17.544899,78.486949,NO2,11,12,12
India,Telangana,Hyderabad,"Nacharam_TSIIC IALA, Hyderabad - TSPCB",08-09-2025 07:00:00,17.429398,78.569354,SO2,15,16,16
India,Telangana,Hyderabad,"New Malakpet, Hyderabad - TSPCB",08-09-2025 07:00:00,17.37206,78.50864,NO2,NA,NA,NA
India,Telangana,Hyderabad,"Ramachandrapuram, Hyderabad - TSPCB",08-09-2025 07:00:00,17.528544,78.286195,NO2,6,9,8
India,Telangana,Hyderabad,"Ramachandrapuram, Hyderabad - TSPCB",08-09-2025 07:00:00,17.528544,78.286195,SO2,10,15,12
India,TamilNadu,Nagapattinam,"Velippalayam, Nagapattinam - TNPCB",08-09-2025 07:00:00,10.798548,79.838212,CO,12,20,15
India,TamilNadu,Namakkal,"Ponnusamy Nagar, Namakkal - TNPCB",08-09-2025 07:00:00,11.273992,78.163545,NH3,NA,NA,NA
India,TamilNadu,Palkalaiperur,"Bharathidasan University, Palkalaiperur - TNPCB",08-09-2025 07:00:00,10.681158,78.741746,NH3,1,1,1
India,Telangana,Hyderabad,"Central University, Hyderabad - TSPCB",08-09-2025 07:00:00,17.460103,78.334361,NO2,17,54,36
India,Telangana,Hyderabad,"Central University, Hyderabad - TSPCB",08-09-2025 07:00:00,17.460103,78.334361,SO2,2,8,5
India,Telangana,Hyderabad,"ECIL Kapra, Hyderabad - TSPCB",08-09-2025 07:00:00,17.470431,78.566959,OZONE,12,35,13
India,Uttar_Pradesh,Moradabad,"Jigar Colony, Moradabad - UPPCB",08-09-2025 07:00:00,28.856664,78.772638,OZONE,18,21,19
India,Uttar_Pradesh,Moradabad,"Kashiram Nagar, Moradabad - UPPCB",08-09-2025 07:00:00,28.849399,78.742362,NO2,25,25,25
India,Uttar_Pradesh,Moradabad,"Kashiram Nagar, Moradabad - UPPCB",08-09-2025 07:00:00,28.849399,78.742362,NH3,4,4,4
India,Uttar_Pradesh,Moradabad,"Kashiram Nagar, Moradabad - UPPCB",08-09-2025 07:00:00,28.849399,78.742362,OZONE,28,66,41
India,Uttar_Pradesh,Moradabad,"Transport Nagar, Moradabad - UPPCB",08-09-2025 07:00:00,28.802625,78.753728,PM2.5,NA,NA,NA
India,Uttar_Pradesh,Moradabad,"Transport Nagar, Moradabad - UPPCB",08-09-2025 07:00:00,28.802625,78.753728,PM10,53,113,81
India,Uttar_Pradesh,Muzaffarnagar,"New Mandi, Muzaffarnagar - UPPCB",08-09-2025 07:00:00,29.4723508,77.7194031,PM10,22,111,66
India,Uttar_Pradesh,Muzaffarnagar,"New Mandi, Muzaffarnagar - UPPCB",08-09-2025 07:00:00,29.4723508,77.7194031,NH3,4,6,5
India,Uttar_Pradesh,Muzaffarnagar,"New Mandi, Muzaffarnagar - UPPCB",08-09-2025 07:00:00,29.4723508,77.7194031,CO,28,69,35
India,Uttar_Pradesh,Lucknow,"Kendriya Vidyalaya, Lucknow - CPCB",08-09-2025 07:00:00,26.906111,80.948222,OZONE,10,79,14
India,Uttar_Pradesh,Lucknow,"Kukrail Picnic Spot-1, Lucknow - UPPCB",08-09-2025 07:00:00,26.90723,80.98579,PM10,22,45,37
India,Uttar_Pradesh,Lucknow,"Lalbagh, Lucknow - CPCB",08-09-2025 07:00:00,26.8458805,80.9365541,NO2,34,40,37
India,Uttar_Pradesh,Lucknow,"Talkatora District Industries Center, Lucknow - CPCB",08-09-2025 07:00:00,26.83399722,80.8917361,PM2.5,17,39,24
India,Uttar_Pradesh,Lucknow,"Talkatora District Industries Center, Lucknow - CPCB",08-09-2025 07:00:00,26.83399722,80.8917361,SO2,1,9,5
India,Uttar_Pradesh,Meerut,"Ganga Nagar, Meerut - UPPCB",08-09-2025 07:00:00,28.999264,77.7590354,PM2.5,NA,NA,NA
India,Uttar_Pradesh,Meerut,"Ganga Nagar, Meerut - UPPCB",08-09-2025 07:00:00,28.999264,77.7590354,OZONE,23,57,29
India,Uttar_Pradesh,Greater Noida,"Knowledge Park - III, Greater Noida - UPPCB",08-09-2025 07:00:00,28.47272,77.482000,CO,22,60,37
India,Uttar_Pradesh,Greater Noida,"Knowledge Park - V, Greater Noida - UPPCB",08-09-2025 07:00:00,28.557054,77.453663,PM2.5,NA,NA,NA
India,Uttar_Pradesh,Hapur,"Anand Vihar, Hapur - UPPCB",08-09-2025 07:00:00,28.725645,77.749675,PM2.5,10,54,33
India,Uttar_Pradesh,Hapur,"Anand Vihar, Hapur - UPPCB",08-09-2025 07:00:00,28.725645,77.749675,PM10,17,50,37
India,Uttar_Pradesh,Jhansi,"Shivaji Nagar, Jhansi - UPPCB",08-09-2025 07:00:00,25.4547,78.6039,PM10,22,63,46
India,Uttar_Pradesh,Jhansi,"Shivaji Nagar, Jhansi - UPPCB",08-09-2025 07:00:00,25.4547,78.6039,NH3,4,4,4
India,Uttar_Pradesh,Kanpur,"FTI Kidwai Nagar, Kanpur - UPPCB",08-09-2025 07:00:00,26.428282,80.327067,PM10,NA,NA,NA
India,Uttarakhand,Dehradun,"Doon University, Dehradun - UKPCB",08-09-2025 07:00:00,30.269444,78.044167,NO2,1,2,1
India,Uttarakhand,Kashipur,"Govt. Girls Inter College, Kashipur - UKPCB",08-09-2025 07:00:00,29.2124114,78.9611753,PM10,22,75,39
India,Uttarakhand,Kashipur,"Govt. Girls Inter College, Kashipur - UKPCB",08-09-2025 07:00:00,29.2124114,78.9611753,NH3,1,3,2
India,Uttarakhand,Kashipur,"Govt. Girls Inter College, Kashipur - UKPCB",08-09-2025 07:00:00,29.2124114,78.9611753,SO2,1,7,5
India,West_Bengal,Asansol,"Asansol Court Area, Asansol - WBPCB",08-09-2025 07:00:00,23.685297,86.945968,NO2,14,31,23
India,West_Bengal,Asansol,"Asansol Court Area, Asansol - WBPCB",08-09-2025 07:00:00,23.685297,86.945968,CO,6,58,27
India,West_Bengal,Asansol,"Mahabir Colliery, Asansol - WBPCB",08-09-2025 07:00:00,23.6181830,87.1057180,NH3,5,11,8
India,Uttar_Pradesh,Ghaziabad,"Loni, Ghaziabad - UPPCB",08-09-2025 07:00:00,28.757294,77.278792,PM10,32,147,81
India,Uttar_Pradesh,Ghaziabad,"Loni, Ghaziabad - UPPCB",08-09-2025 07:00:00,28.757294,77.278792,NO2,22,74,38
India,Uttar_Pradesh,Ghaziabad,"Loni, Ghaziabad - UPPCB",08-09-2025 07:00:00,28.757294,77.278792,CO,55,105,64
India,Uttar_Pradesh,Ghaziabad,"Vasundhara, Ghaziabad - UPPCB",08-09-2025 07:00:00,28.6603346,77.3572563,PM10,28,120,72
India,Uttar_Pradesh,Ghaziabad,"Vasundhara, Ghaziabad - UPPCB",08-09-2025 07:00:00,28.6603346,77.3572563,CO,34,101,47
India,Uttar_Pradesh,Gorakhpur,"Madan Mohan Malaviya University of Technology, Gorakhpur - UPPCB",08-09-2025 07:00:00,26.730136,83.433859,PM2.5,40,169,65
India,Uttar_Pradesh,Gorakhpur,"Madan Mohan Malaviya University of Technology, Gorakhpur - UPPCB",08-09-2025 07:00:00,26.730136,83.433859,NO2,11,12,11
India,Uttar_Pradesh,Gorakhpur,"Madan Mohan Malaviya University of Technology, Gorakhpur - UPPCB",08-09-2025 07:00:00,26.730136,83.433859,NH3,1,1,1
India,Uttar_Pradesh,Noida,"Sector-1, Noida - UPPCB",08-09-2025 07:00:00,28.5898,77.3101,CO,18,52,35
India,Uttar_Pradesh,Noida,"Sector-116, Noida - UPPCB",08-09-2025 07:00:00,28.569230,77.393848,PM2.5,18,82,44
India,Uttar_Pradesh,Noida,"Sector-116, Noida - UPPCB",08-09-2025 07:00:00,28.569230,77.393848,PM10,26,93,57
India,Uttar_Pradesh,Noida,"Sector-116, Noida - UPPCB",08-09-2025 07:00:00,28.569230,77.393848,SO2,19,50,33
India,Uttar_Pradesh,Prayagraj,"Jhunsi, Prayagraj - UPPCB",08-09-2025 07:00:00,25.425602,81.917152,PM2.5,3,36,17
India,Uttar_Pradesh,Prayagraj,"Jhunsi, Prayagraj - UPPCB",08-09-2025 07:00:00,25.425602,81.917152,PM10,15,63,31
India,Uttar_Pradesh,Prayagraj,"Motilal Nehru NIT, Prayagraj - UPPCB",08-09-2025 07:00:00,25.494,81.863,SO2,23,25,24
India,Uttar_Pradesh,Prayagraj,"Motilal Nehru NIT, Prayagraj - UPPCB",08-09-2025 07:00:00,25.494,81.863,CO,4,12,7
India,Uttar_Pradesh,Prayagraj,"Nagar Nigam, Prayagraj - UPPCB",08-09-2025 07:00:00,25.44919916 ,81.82735986 ,PM10,17,97,42
India,Uttar_Pradesh,Prayagraj,"Nagar Nigam, Prayagraj - UPPCB",08-09-2025 07:00:00,25.44919916 ,81.82735986 ,NH3,1,4,3
India,Uttar_Pradesh,Prayagraj,"Nagar Nigam, Prayagraj - UPPCB",08-09-2025 07:00:00,25.44919916 ,81.82735986 ,SO2,16,57,37
India,Uttar_Pradesh,Prayagraj,"Nagar Nigam, Prayagraj - UPPCB",08-09-2025 07:00:00,25.44919916 ,81.82735986 ,OZONE,12,27,18
India,Uttar_Pradesh,Varanasi,"Ardhali Bazar, Varanasi - UPPCB",08-09-2025 07:00:00,25.3505986,82.9083074,PM2.5,18,43,32
India,Uttar_Pradesh,Varanasi,"Ardhali Bazar, Varanasi - UPPCB",08-09-2025 07:00:00,25.3505986,82.9083074,SO2,17,20,18
India,Uttar_Pradesh,Varanasi,"Bhelupur, Varanasi - UPPCB",08-09-2025 07:00:00,25.301778,82.996789,PM2.5,15,60,36
India,Uttar_Pradesh,Meerut,"Pallavpuram Phase 2, Meerut - UPPCB",08-09-2025 07:00:00,29.063510,77.709723,SO2,7,16,12
India,Uttar_Pradesh,Moradabad,"Buddhi Vihar, Moradabad - UPPCB",08-09-2025 07:00:00,28.83526,78.74460,NH3,4,5,5
India,Uttar_Pradesh,Moradabad,"Buddhi Vihar, Moradabad - UPPCB",08-09-2025 07:00:00,28.83526,78.74460,CO,38,50,44
India,Uttar_Pradesh,Moradabad,"Buddhi Vihar, Moradabad - UPPCB",08-09-2025 07:00:00,28.83526,78.74460,OZONE,12,34,13
India,Uttar_Pradesh,Moradabad,"Employment Office, Moradabad - UPPCB",08-09-2025 07:00:00,28.88528,78.73880,PM10,61,117,81
India,Uttar_Pradesh,Moradabad,"Jigar Colony, Moradabad - UPPCB",08-09-2025 07:00:00,28.856664,78.772638,PM10,33,88,51
India,Uttar_Pradesh,Kanpur,"Nehru Nagar, Kanpur - UPPCB",08-09-2025 07:00:00,26.4703136,80.3229863,PM2.5,7,437,57
India,Uttar_Pradesh,Khurja,"Kalindi Kunj, Khurja - UPPCB",08-09-2025 07:00:00,28.2348927,77.8683002,PM2.5,14,68,26
India,Uttar_Pradesh,Lucknow,"B R Ambedkar University, Lucknow - UPPCB",08-09-2025 07:00:00,26.766433,80.927299,PM2.5,27,57,43
India,Uttar_Pradesh,Lucknow,"Gomti Nagar, Lucknow - UPPCB",08-09-2025 07:00:00,26.868120,81.005119,NO2,9,11,10
India,West_Bengal,Asansol,"Trivenidevi Bhalotia College, Asansol - WBPCB",08-09-2025 07:00:00,23.616515,87.119133,NO2,7,45,14
India,West_Bengal,Asansol,"Trivenidevi Bhalotia College, Asansol - WBPCB",08-09-2025 07:00:00,23.616515,87.119133,CO,45,61,53
India,West_Bengal,Barrackpore,"SVSPA Campus, Barrackpore - WBPCB",08-09-2025 07:00:00,22.7605581,88.3617589,PM2.5,24,43,30
India,West_Bengal,Barrackpore,"SVSPA Campus, Barrackpore - WBPCB",08-09-2025 07:00:00,22.7605581,88.3617589,OZONE,4,18,4
India,West_Bengal,Durgapur,"Mahishkapur Road_B-Zone, Durgapur - WBPCB",08-09-2025 07:00:00,23.567923,87.306843,SO2,9,12,11
India,West_Bengal,Durgapur,"Womens College_City Center, Durgapur - WBPCB (Formerly known as Sidhu Kanhu Indoor Stadium)",08-09-2025 07:00:00,23.549395,87.300496,NH3,1,2,2
India,West_Bengal,Haldia,"Priyambada Housing Estate, Haldia - WBPCB",08-09-2025 07:00:00,22.06047,88.109737,NO2,5,14,8
India,West_Bengal,Haldia,"Priyambada Housing Estate, Haldia - WBPCB",08-09-2025 07:00:00,22.06047,88.109737,CO,20,24,20
India,West_Bengal,Howrah,"Belur Math, Howrah - WBPCB",08-09-2025 07:00:00,22.629801,88.352017,NH3,8,10,10
India,West_Bengal,Howrah,"Belur Math, Howrah - WBPCB",08-09-2025 07:00:00,22.629801,88.352017,CO,8,27,18
India,West_Bengal,Howrah,"Botanical Garden, Howrah - WBPCB",08-09-2025 07:00:00,22.554954,88.292568,NH3,1,3,2
India,West_Bengal,Howrah,"Ghusuri, Howrah - WBPCB",08-09-2025 07:00:00,22.611968,88.347422,PM2.5,21,39,30
India,West_Bengal,Howrah,"Padmapukur, Howrah - WBPCB",08-09-2025 07:00:00,22.5687319,88.2797276,PM10,61,83,73
India,West_Bengal,Howrah,"Padmapukur, Howrah - WBPCB",08-09-2025 07:00:00,22.5687319,88.2797276,NO2,11,23,16
India,West_Bengal,Howrah,"Padmapukur, Howrah - WBPCB",08-09-2025 07:00:00,22.5687319,88.2797276,NH3,3,11,7
India,West_Bengal,Howrah,"Padmapukur, Howrah - WBPCB",08-09-2025 07:00:00,22.5687319,88.2797276,OZONE,5,18,10
India,West_Bengal,Kolkata,"Ballygunge, Kolkata - WBPCB",08-09-2025 07:00:00,22.5367507,88.3638022,PM10,29,44,36
India,West_Bengal,Kolkata,"Ballygunge, Kolkata - WBPCB",08-09-2025 07:00:00,22.5367507,88.3638022,NO2,27,64,47
India,West_Bengal,Kolkata,"Ballygunge, Kolkata - WBPCB",08-09-2025 07:00:00,22.5367507,88.3638022,CO,10,14,11
India,West_Bengal,Kolkata,"Bidhannagar, Kolkata - WBPCB",08-09-2025 07:00:00,22.58157048,88.41002457,NH3,4,4,4
India,West_Bengal,Kolkata,"Jadavpur, Kolkata - WBPCB",08-09-2025 07:00:00,22.49929,88.36917,PM10,48,65,57
India,West_Bengal,Kolkata,"Rabindra Sarobar, Kolkata - WBPCB",08-09-2025 07:00:00,22.51106,88.35142,PM10,22,45,34
India,West_Bengal,Kolkata,"Rabindra Sarobar, Kolkata - WBPCB",08-09-2025 07:00:00,22.51106,88.35142,OZONE,5,6,5
India,West_Bengal,Kolkata,"Victoria, Kolkata - WBPCB",08-09-2025 07:00:00,22.5448082,88.3403691,PM10,47,66,58
India,West_Bengal,Siliguri,"Ward-32 Bapupara, Siliguri - WBPCB",08-09-2025 07:00:00,26.6879226,88.4152495,PM10,35,51,42
India,West_Bengal,Siliguri,"Ward-32 Bapupara, Siliguri - WBPCB",08-09-2025 07:00:00,26.6879226,88.4152495,NO2,17,46,25
India,Bihar,Muzaffarpur,"Buddha Colony, Muzaffarpur - BSPCB",08-09-2025 07:00:00,26.11442,85.39813,PM10,35,64,49
India,Bihar,Muzaffarpur,"Buddha Colony, Muzaffarpur - BSPCB",08-09-2025 07:00:00,26.11442,85.39813,NO2,5,16,10
India,Bihar,Muzaffarpur,"Buddha Colony, Muzaffarpur - BSPCB",08-09-2025 07:00:00,26.11442,85.39813,OZONE,31,68,37
India,Bihar,Muzaffarpur,"MIT-Daudpur Kothi, Muzaffarpur - BSPCB",08-09-2025 07:00:00,26.1403345,85.3650192,CO,34,78,36
India,Bihar,Muzaffarpur,"Muzaffarpur Collectorate, Muzaffarpur - BSPCB",08-09-2025 07:00:00,26.1209,85.3647,PM2.5,25,53,32
India,Bihar,Muzaffarpur,"Muzaffarpur Collectorate, Muzaffarpur - BSPCB",08-09-2025 07:00:00,26.1209,85.3647,CO,8,43,15
India,Bihar,Muzaffarpur,"Muzaffarpur Collectorate, Muzaffarpur - BSPCB",08-09-2025 07:00:00,26.1209,85.3647,OZONE,17,62,21
India,Bihar,Patna,"DRM Office Danapur, Patna - BSPCB",08-09-2025 07:00:00,25.586562,85.043586,PM2.5,20,73,47
India,Bihar,Patna,"DRM Office Danapur, Patna - BSPCB",08-09-2025 07:00:00,25.586562,85.043586,NH3,2,3,3
India,Bihar,Patna,"Govt. High School Shikarpur, Patna - BSPCB",08-09-2025 07:00:00,25.592539,85.227158,PM10,15,82,40
India,Bihar,Patna,"Govt. High School Shikarpur, Patna - BSPCB",08-09-2025 07:00:00,25.592539,85.227158,NH3,3,4,3
India,Bihar,Patna,"Govt. High School Shikarpur, Patna - BSPCB",08-09-2025 07:00:00,25.592539,85.227158,OZONE,8,12,11
India,Andhra_Pradesh,Amaravati,"Secretariat, Amaravati - APPCB",08-09-2025 07:00:00,16.5150833,80.5181667,NH3,4,5,4
India,Andhra_Pradesh,Amaravati,"Secretariat, Amaravati - APPCB",08-09-2025 07:00:00,16.5150833,80.5181667,SO2,10,13,11
India,Andhra_Pradesh,Amaravati,"Secretariat, Amaravati - APPCB",08-09-2025 07:00:00,16.5150833,80.5181667,CO,9,30,20
India,Andhra_Pradesh,Anantapur,"Gulzarpet, Anantapur - APPCB",08-09-2025 07:00:00,14.675886,77.593027,PM2.5,50,66,57
India,Andhra_Pradesh,Chittoor,"Gangineni Cheruvu, Chittoor - APPCB",08-09-2025 07:00:00,13.204880,79.097889,SO2,21,22,21
India,Andhra_Pradesh,Chittoor,"Gangineni Cheruvu, Chittoor - APPCB",08-09-2025 07:00:00,13.204880,79.097889,CO,24,53,32
India,Andhra_Pradesh,Kadapa,"Yerramukkapalli, Kadapa - APPCB",08-09-2025 07:00:00,14.465052,78.824187,PM10,66,79,73
India,Andhra_Pradesh,Kadapa,"Yerramukkapalli, Kadapa - APPCB",08-09-2025 07:00:00,14.465052,78.824187,NH3,5,5,5
India,Andhra_Pradesh,Kadapa,"Yerramukkapalli, Kadapa - APPCB",08-09-2025 07:00:00,14.465052,78.824187,SO2,20,22,21
India,Andhra_Pradesh,Rajamahendravaram,"Anand Kala Kshetram, Rajamahendravaram - APPCB",08-09-2025 07:00:00,16.9872867,81.7363176,PM2.5,12,33,22
India,Assam,Guwahati,"Railway Colony, Guwahati - PCBA",08-09-2025 07:00:00,26.181742,91.78063,PM10,24,52,37
India,Assam,Guwahati,"Railway Colony, Guwahati - PCBA",08-09-2025 07:00:00,26.181742,91.78063,NO2,3,3,3
India,Assam,Nagaon,"Christianpatty, Nagaon - PCBA",08-09-2025 07:00:00,26.349082,92.68449,CO,1,60,36
India,Assam,Nalbari,"Bata Chowk, Nalbari - PCBA",08-09-2025 07:00:00,26.446912,91.439057,PM10,6,161,49
India,Assam,Nalbari,"Bata Chowk, Nalbari - PCBA",08-09-2025 07:00:00,26.446912,91.439057,CO,8,28,28
India,Assam,Nalbari,"Bata Chowk, Nalbari - PCBA",08-09-2025 07:00:00,26.446912,91.439057,OZONE,20,25,22
India,Assam,Silchar,"Tarapur, Silchar - PCBA",08-09-2025 07:00:00,24.82827,92.79525,PM10,46,62,51
India,Assam,Silchar,"Tarapur, Silchar - PCBA",08-09-2025 07:00:00,24.82827,92.79525,NH3,1,1,1
India,Assam,Sivasagar,"Girls College, Sivasagar - PCBA",08-09-2025 07:00:00,26.987634,94.636574,PM2.5,29,47,38
India,Assam,Sivasagar,"Girls College, Sivasagar - PCBA",08-09-2025 07:00:00,26.987634,94.636574,PM10,26,32,28
India,Bihar,Chhapra,"Darshan Nagar, Chhapra - BSPCB",08-09-2025 07:00:00,25.7808257,84.7446768,PM2.5,25,312,88
India,Bihar,Chhapra,"Darshan Nagar, Chhapra - BSPCB",08-09-2025 07:00:00,25.7808257,84.7446768,OZONE,1,57,4
India,Bihar,Gaya,"Kareemganj, Gaya - BSPCB",08-09-2025 07:00:00,24.792403,84.992416,PM2.5,7,80,36
India,Bihar,Gaya,"SFTI Kusdihra, Gaya - BSPCB",08-09-2025 07:00:00,24.762518,84.982348,CO,16,28,24
India,Bihar,Hajipur,"Industrial Area, Hajipur - BSPCB",08-09-2025 07:00:00,25.697189,85.245900,PM2.5,34,68,49
India,Bihar,Hajipur,"Industrial Area, Hajipur - BSPCB",08-09-2025 07:00:00,25.697189,85.245900,PM10,27,57,41
India,Bihar,Hajipur,"Industrial Area, Hajipur - BSPCB",08-09-2025 07:00:00,25.697189,85.245900,NH3,5,9,7
India,Andhra_Pradesh,Visakhapatnam,"GVM Corporation, Visakhapatnam - APPCB",08-09-2025 07:00:00,17.72,83.3,PM10,58,144,91
India,Arunachal_Pradesh,Naharlagun,"Naharlagun, Naharlagun - APSPCB",08-09-2025 07:00:00,27.103358,93.679645,PM10,6,46,30
India,Assam,Byrnihat,"Central Academy for SFS, Byrnihat - PCBA",08-09-2025 07:00:00,26.071318,91.87488,CO,NA,NA,NA
India,Assam,Byrnihat,"Central Academy for SFS, Byrnihat - PCBA",08-09-2025 07:00:00,26.071318,91.87488,OZONE,NA,NA,NA
India,Assam,Guwahati,"LGBI Airport, Guwahati - PCBA",08-09-2025 07:00:00,26.10887,91.589544,PM10,15,297,56
India,Assam,Guwahati,"LGBI Airport, Guwahati - PCBA",08-09-2025 07:00:00,26.10887,91.589544,CO,1,47,32
India,Andhra_Pradesh,Tirumala,"Toll Gate, Tirumala - APPCB",08-09-2025 07:00:00,13.67,79.35,PM10,10,123,31
India,Andhra_Pradesh,Tirumala,"Toll Gate, Tirumala - APPCB",08-09-2025 07:00:00,13.67,79.35,NO2,9,14,11
India,Andhra_Pradesh,Tirupati,"Vaikuntapuram, Tirupati - APPCB",08-09-2025 07:00:00,13.615387,79.409230,PM2.5,NA,NA,NA
India,Andhra_Pradesh,Vijayawada,"Rajiv Gandhi Park, Vijayawada - APPCB",08-09-2025 07:00:00,16.509717,80.612222,PM2.5,34,70,55
India,Andhra_Pradesh,Vijayawada,"Rajiv Gandhi Park, Vijayawada - APPCB",08-09-2025 07:00:00,16.509717,80.612222,OZONE,22,50,23
India,Andhra_Pradesh,Vijayawada,"Rajiv Nagar, Vijayawada - APPCB",08-09-2025 07:00:00,16.554731,80.649110,OZONE,NA,NA,NA
India,Bihar,Araria,"Kharahiya Basti, Araria - BSPCB",08-09-2025 07:00:00,26.146529,87.454184,NO2,2,132,63
India,Bihar,Arrah,"New DM Office, Arrah - BSPCB",08-09-2025 07:00:00,25.5626095,84.663264,NH3,1,1,1
India,Bihar,Aurangabad,"Gurdeo Nagar, Aurangabad - BSPCB",08-09-2025 07:00:00,24.75746,84.366208,NO2,6,8,8
India,Bihar,Begusarai,"Lohiyanagar, Begusarai - BSPCB",08-09-2025 07:00:00,25.42742023,86.13886079,SO2,14,20,17
India,Bihar,Bettiah,"Kamalnath Nagar, Bettiah - BSPCB",08-09-2025 07:00:00,26.80365,84.51954,SO2,2,25,13
India,Bihar,Bhagalpur,"DM Office_Kachari Chowk, Bhagalpur - BSPCB",08-09-2025 07:00:00,25.251013,86.989001,CO,6,20,17
India,Bihar,Bhagalpur,"DM Office_Kachari Chowk, Bhagalpur - BSPCB",08-09-2025 07:00:00,25.251013,86.989001,OZONE,13,26,19
India,Bihar,Bihar Sharif,"D M Colony, Bihar Sharif - BSPCB",08-09-2025 07:00:00,25.204762,85.514960,NH3,2,3,2
India,Bihar,Bihar Sharif,"D M Colony, Bihar Sharif - BSPCB",08-09-2025 07:00:00,25.204762,85.514960,SO2,8,10,9
India,Bihar,Bihar Sharif,"D M Colony, Bihar Sharif - BSPCB",08-09-2025 07:00:00,25.204762,85.514960,OZONE,1,99,43
India,Bihar,Buxar,"Charitra Van, Buxar - BSPCB",08-09-2025 07:00:00,25.567520,83.966379,SO2,NA,NA,NA
India,Bihar,Patna,"IGSC Planetarium Complex, Patna - BSPCB",08-09-2025 07:00:00,25.610369,85.132568,PM2.5,31,137,71
India,Bihar,Patna,"IGSC Planetarium Complex, Patna - BSPCB",08-09-2025 07:00:00,25.610369,85.132568,SO2,14,25,23
India,Bihar,Patna,"Muradpur, Patna - BSPCB",08-09-2025 07:00:00,25.619651,85.147382,NO2,8,10,9
India,Bihar,Patna,"Rajbansi Nagar, Patna - BSPCB",08-09-2025 07:00:00,25.599486,85.113666,PM10,28,51,40
India,Bihar,Patna,"Rajbansi Nagar, Patna - BSPCB",08-09-2025 07:00:00,25.599486,85.113666,SO2,5,9,7
India,Bihar,Patna,"Samanpura, Patna - BSPCB",08-09-2025 07:00:00,25.596727,85.085624,NH3,6,7,6
India,Bihar,Katihar,"Mirchaibari, Katihar - BSPCB",08-09-2025 07:00:00,25.560083,87.553265,PM2.5,42,55,50
India,Bihar,Katihar,"Mirchaibari, Katihar - BSPCB",08-09-2025 07:00:00,25.560083,87.553265,NH3,1,1,1
India,Bihar,Manguraha,"Forest Rest House, Manguraha - BSPCB",08-09-2025 07:00:00,27.308328,84.531742,CO,9,123,58
India,Bihar,Motihari,"Gandak Colony, Motihari - BSPCB",08-09-2025 07:00:00,26.63086,84.90051,CO,1,7,2
India,Bihar,Munger,"Town Hall, Munger - BSPCB",08-09-2025 07:00:00,25.376776,86.471523,OZONE,9,12,10
India,Bihar,Saharsa,"Police Line, Saharsa - BSPCB",08-09-2025 07:00:00,25.892357,86.590325,SO2,16,17,17
India,Bihar,Saharsa,"Police Line, Saharsa - BSPCB",08-09-2025 07:00:00,25.892357,86.590325,OZONE,11,19,13
India,Bihar,Sasaram,"Dada Peer, Sasaram - BSPCB",08-09-2025 07:00:00,24.952822,84.002396,CO,49,101,57
India,Bihar,Siwan,"Chitragupta Nagar, Siwan - BSPCB",08-09-2025 07:00:00,26.2271665,84.3570427,SO2,NA,NA,NA
India,Bihar,Siwan,"Chitragupta Nagar, Siwan - BSPCB",08-09-2025 07:00:00,26.2271665,84.3570427,CO,NA,NA,NA
India,Chandigarh,Chandigarh,"Sector 22, Chandigarh - CPCC",08-09-2025 07:00:00,30.735567,76.775714,PM2.5,8,38,19
India,Chandigarh,Chandigarh,"Sector-25, Chandigarh - CPCC",08-09-2025 07:00:00,30.751462,76.762879,PM10,33,101,58
India,Chandigarh,Chandigarh,"Sector-25, Chandigarh - CPCC",08-09-2025 07:00:00,30.751462,76.762879,NO2,5,12,8
India,Chhattisgarh,Raipur,"Bhatagaon New ISBT, Raipur - CECB",08-09-2025 07:00:00,21.219665,81.630094,PM2.5,6,37,14
India,Chhattisgarh,Raipur,"Krishak Nagar, Raipur - CECB",08-09-2025 07:00:00,21.237755,81.705301,NO2,14,17,15
India,Chhattisgarh,Tumidih,"OP Jindal Industrial Park, Tumidih - CECB",08-09-2025 07:00:00,22.06631475,83.33820077,PM10,16,103,66
India,Chhattisgarh,Tumidih,"OP Jindal Industrial Park, Tumidih - CECB",08-09-2025 07:00:00,22.06631475,83.33820077,NH3,1,2,2
India,Chhattisgarh,Tumidih,"OP Jindal Industrial Park, Tumidih - CECB",08-09-2025 07:00:00,22.06631475,83.33820077,SO2,5,13,7
India,Delhi,Delhi,"Alipur, Delhi - DPCC",08-09-2025 07:00:00,28.815329,77.153010,PM10,39,117,76
India,Chandigarh,Chandigarh,"Sector-25, Chandigarh - CPCC",08-09-2025 07:00:00,30.751462,76.762879,SO2,1,12,6
India,Chandigarh,Chandigarh,"Sector-25, Chandigarh - CPCC",08-09-2025 07:00:00,30.751462,76.762879,OZONE,13,68,26
India,Chandigarh,Chandigarh,"Sector-53, Chandigarh - CPCC",08-09-2025 07:00:00,30.719859,76.738637,NO2,8,34,18
India,Chhattisgarh,Bhilai,"32Bungalows, Bhilai - CECB",08-09-2025 07:00:00,21.194815,81.314770,CO,8,17,9
India,Chhattisgarh,Bhilai,"32Bungalows, Bhilai - CECB",08-09-2025 07:00:00,21.194815,81.314770,OZONE,6,33,11
India,Chhattisgarh,Bhilai,"Hathkhoj, Bhilai - CECB",08-09-2025 07:00:00,21.224231,81.408350,PM2.5,9,27,17
India,Chhattisgarh,Bhilai,"Hathkhoj, Bhilai - CECB",08-09-2025 07:00:00,21.224231,81.408350,CO,5,24,14
India,Chhattisgarh,Bilaspur,"Mangala, Bilaspur - NTPC",08-09-2025 07:00:00,22.08815,82.13737,NO2,NA,NA,NA
India,Chhattisgarh,Bilaspur,"Mangala, Bilaspur - NTPC",08-09-2025 07:00:00,22.08815,82.13737,CO,30,45,42
India,Chhattisgarh,Chhal,"Nawapara SECL Colony, Chhal - CECB",08-09-2025 07:00:00,22.118125,83.140608,CO,19,24,23
India,Chhattisgarh,Korba,"Rampur, Korba - CECB",08-09-2025 07:00:00,22.368195,82.746431,PM10,25,40,27
India,Chhattisgarh,Korba,"Rampur, Korba - CECB",08-09-2025 07:00:00,22.368195,82.746431,OZONE,2,5,3
India,Chhattisgarh,Kunjemura,"OP Jindal School, Kunjemura - CECB",08-09-2025 07:00:00,22.126650,83.483212,NH3,2,2,2
India,Delhi,Delhi,"Anand Vihar, Delhi - DPCC",08-09-2025 07:00:00,28.647622,77.3158090,CO,70,107,85
India,Delhi,Delhi,"Ashok Vihar, Delhi - DPCC",08-09-2025 07:00:00,28.695381,77.181665,PM10,52,117,76
India,Delhi,Delhi,"Ashok Vihar, Delhi - DPCC",08-09-2025 07:00:00,28.695381,77.181665,OZONE,4,43,5
India,Delhi,Delhi,"Aya Nagar, Delhi - IMD",08-09-2025 07:00:00,28.4706914,77.1099364,PM10,15,116,59
India,Delhi,Delhi,"Bawana, Delhi - DPCC",08-09-2025 07:00:00,28.776200,77.051074,NH3,4,7,5
India,Delhi,Delhi,"CRRI Mathura Road, Delhi - IMD",08-09-2025 07:00:00,28.5512005,77.2735737,PM10,28,87,53
India,Delhi,Delhi,"ITO, Delhi - CPCB",08-09-2025 07:00:00,28.628624,77.241060,CO,21,56,37
India,Delhi,Delhi,"Jahangirpuri, Delhi - DPCC",08-09-2025 07:00:00,28.732820,77.170633,PM10,13,301,122
India,Delhi,Delhi,"Jahangirpuri, Delhi - DPCC",08-09-2025 07:00:00,28.732820,77.170633,OZONE,14,23,17
India,Delhi,Delhi,"Lodhi Road, Delhi - IITM",08-09-2025 07:00:00,28.588333,77.221667,SO2,6,17,10
India,Delhi,Delhi,"Major Dhyan Chand National Stadium, Delhi - DPCC",08-09-2025 07:00:00,28.611281,77.237738,SO2,4,10,6
India,Delhi,Delhi,"Mandir Marg, Delhi - DPCC",08-09-2025 07:00:00,28.636429,77.201067,PM2.5,2,117,56
India,Delhi,Delhi,"Mandir Marg, Delhi - DPCC",08-09-2025 07:00:00,28.636429,77.201067,NO2,32,57,45
India,Delhi,Delhi,"Mandir Marg, Delhi - DPCC",08-09-2025 07:00:00,28.636429,77.201067,SO2,1,10,4
India,Delhi,Delhi,"Mundka, Delhi - DPCC",08-09-2025 07:00:00,28.684678,77.076574,PM2.5,22,57,41
India,Delhi,Delhi,"Mundka, Delhi - DPCC",08-09-2025 07:00:00,28.684678,77.076574,SO2,7,10,8
India,Delhi,Delhi,"Najafgarh, Delhi - DPCC",08-09-2025 07:00:00,28.570173,76.933762,PM10,37,93,67
India,Delhi,Delhi,"Narela, Delhi - DPCC",08-09-2025 07:00:00,28.822836,77.101981,PM2.5,22,147,62
India,Delhi,Delhi,"Nehru Nagar, Delhi - DPCC",08-09-2025 07:00:00,28.567890,77.250515,NO2,16,43,29
India,Delhi,Delhi,"Okhla Phase-2, Delhi - DPCC",08-09-2025 07:00:00,28.530785,77.271255,SO2,2,8,5
India,Delhi,Delhi,"Patparganj, Delhi - DPCC",08-09-2025 07:00:00,28.623763,77.287209,PM2.5,12,75,43
India,Delhi,Delhi,"Patparganj, Delhi - DPCC",08-09-2025 07:00:00,28.623763,77.287209,SO2,6,11,8
India,Delhi,Delhi,"DTU, Delhi - CPCB",08-09-2025 07:00:00,28.7500499,77.1112615,SO2,26,29,27
India,Delhi,Delhi,"Dwarka-Sector 8, Delhi - DPCC ",08-09-2025 07:00:00,28.5710274,77.0719006,PM2.5,20,180,52
India,Delhi,Delhi,"Dwarka-Sector 8, Delhi - DPCC ",08-09-2025 07:00:00,28.5710274,77.0719006,NO2,16,64,38
India,Gujarat,Ankleshwar,"GIDC, Ankleshwar - GPCB",08-09-2025 07:00:00,21.613267,73.010555,CO,13,26,22
India,Gujarat,Ankleshwar,"GIDC, Ankleshwar - GPCB",08-09-2025 07:00:00,21.613267,73.010555,OZONE,34,41,35
India,Gujarat,Gandhinagar,"GIFT City, Gandhinagar - IITM",08-09-2025 07:00:00,23.163798,72.677768,PM10,10,31,21
India,Gujarat,Gandhinagar,"GIFT City, Gandhinagar - IITM",08-09-2025 07:00:00,23.163798,72.677768,NO2,5,15,10
India,Gujarat,Gandhinagar,"GIFT City, Gandhinagar - IITM",08-09-2025 07:00:00,23.163798,72.677768,NH3,1,3,2
India,Gujarat,Gandhinagar,"GIFT City, Gandhinagar - IITM",08-09-2025 07:00:00,23.163798,72.677768,SO2,3,11,7
India,Gujarat,Gandhinagar,"IIPHG Lekawada, Gandhinagar - IITM",08-09-2025 07:00:00,23.243639,72.68994,SO2,6,9,8
India,Gujarat,Gandhinagar,"Sector-10, Gandhinagar - GPCB",08-09-2025 07:00:00,23.221714,72.654328,PM10,6,35,19
India,Gujarat,Gandhinagar,"Sector-10, Gandhinagar - GPCB",08-09-2025 07:00:00,23.221714,72.654328,NO2,9,9,9
India,Gujarat,Gandhinagar,"Sector-10, Gandhinagar - GPCB",08-09-2025 07:00:00,23.221714,72.654328,CO,6,27,13
India,Gujarat,Surat,"Science Center, Surat - SMC",08-09-2025 07:00:00,21.170046,72.795405,PM2.5,4,57,19
India,Gujarat,Surat,"Science Center, Surat - SMC",08-09-2025 07:00:00,21.170046,72.795405,SO2,15,17,16
India,Gujarat,Vapi,"Phase-1 GIDC, Vapi - GPCB",08-09-2025 07:00:00,20.362421,72.918013,PM10,25,96,58
India,Gujarat,Vapi,"Phase-1 GIDC, Vapi - GPCB",08-09-2025 07:00:00,20.362421,72.918013,SO2,46,47,47
India,Haryana,Gurugram,"NISE Gwal Pahari, Gurugram - IMD",08-09-2025 07:00:00,28.422681,77.148944,OZONE,17,59,20
India,Himachal Pradesh,Baddi,"HIMUDA Complex Phase-1, Baddi - HPPCB",08-09-2025 07:00:00,30.943887,76.801991,PM2.5,12,83,41
India,Himachal Pradesh,Baddi,"HIMUDA Complex Phase-1, Baddi - HPPCB",08-09-2025 07:00:00,30.943887,76.801991,CO,42,62,49
India,Himachal Pradesh,Baddi,"HIMUDA Complex Phase-1, Baddi - HPPCB",08-09-2025 07:00:00,30.943887,76.801991,OZONE,7,40,13
India,Jharkhand,Jorapokhar,"Tata Stadium, Jorapokhar - JSPCB",08-09-2025 07:00:00,23.707909,86.414670,PM10,24,66,40
India,Karnataka,Bagalkot,"Vidayagiri, Bagalkot - KSPCB",08-09-2025 07:00:00,16.172806,75.659694,PM2.5,33,34,34
India,Karnataka,Bagalkot,"Vidayagiri, Bagalkot - KSPCB",08-09-2025 07:00:00,16.172806,75.659694,PM10,42,42,42
India,Karnataka,Bagalkot,"Vidayagiri, Bagalkot - KSPCB",08-09-2025 07:00:00,16.172806,75.659694,NO2,9,10,9
India,Karnataka,Bengaluru,"Jayanagar 5th Block, Bengaluru - KSPCB",08-09-2025 07:00:00,12.920984,77.584908,OZONE,5,31,22
India,Karnataka,Bengaluru,"Jigani, Bengaluru - KSPCB",08-09-2025 07:00:00,12.7816279,77.6299145,NO2,29,30,30
India,Karnataka,Bengaluru,"Jigani, Bengaluru - KSPCB",08-09-2025 07:00:00,12.7816279,77.6299145,NH3,5,5,5
India,Karnataka,Bengaluru,"Peenya, Bengaluru - CPCB",08-09-2025 07:00:00,13.0270199,77.494094,OZONE,NA,NA,NA
India,Karnataka,Bengaluru,"Sanegurava Halli, Bengaluru - KSPCB",08-09-2025 07:00:00,12.990328,77.5431385,SO2,4,11,6
India,Karnataka,Bengaluru,"Silk Board, Bengaluru - KSPCB",08-09-2025 07:00:00,12.917348,77.622813,PM2.5,17,35,26
India,Karnataka,Bengaluru,"Silk Board, Bengaluru - KSPCB",08-09-2025 07:00:00,12.917348,77.622813,PM10,50,182,114
India,Karnataka,Bengaluru,"Silk Board, Bengaluru - KSPCB",08-09-2025 07:00:00,12.917348,77.622813,NO2,5,14,10
India,Karnataka,Bengaluru,"Silk Board, Bengaluru - KSPCB",08-09-2025 07:00:00,12.917348,77.622813,NH3,2,2,2
India,Karnataka,Chamarajanagar,"Urban, Chamarajanagar - KSPCB",08-09-2025 07:00:00,11.55358,76.55521,PM2.5,20,31,28
India,Karnataka,Chamarajanagar,"Urban, Chamarajanagar - KSPCB",08-09-2025 07:00:00,11.55358,76.55521,NO2,15,29,26
India,Karnataka,Chikkaballapur,"Chikkaballapur Rural, Chikkaballapur - KSPCB",08-09-2025 07:00:00,13.428828,77.731418,OZONE,18,21,19
India,Karnataka,Chikkamagaluru,"Kalyana Nagara, Chikkamagaluru - KSPCB",08-09-2025 07:00:00,13.328028,75.797056,PM2.5,5,23,12
India,Karnataka,Chikkamagaluru,"Kalyana Nagara, Chikkamagaluru - KSPCB",08-09-2025 07:00:00,13.328028,75.797056,OZONE,18,40,19
India,Karnataka,Davanagere,"Devaraj Urs Badavane, Davanagere - KSPCB",08-09-2025 07:00:00,14.475800,75.905200,PM10,NA,NA,NA
India,Karnataka,Davanagere,"Devaraj Urs Badavane, Davanagere - KSPCB",08-09-2025 07:00:00,14.475800,75.905200,NH3,1,4,2
India,Karnataka,Bengaluru,"BTM Layout, Bengaluru - CPCB",08-09-2025 07:00:00,12.9135218,77.5950804,SO2,19,20,19
India,Karnataka,Bengaluru,"Bapuji Nagar, Bengaluru - KSPCB",08-09-2025 07:00:00,12.951913,77.539784,PM10,27,55,41
India,Karnataka,Bengaluru,"City Railway Station, Bengaluru - KSPCB",08-09-2025 07:00:00,12.9756843,77.5660749,NO2,44,51,47
India,Karnataka,Bengaluru,"City Railway Station, Bengaluru - KSPCB",08-09-2025 07:00:00,12.9756843,77.5660749,SO2,6,12,10
India,Karnataka,Bengaluru,"City Railway Station, Bengaluru - KSPCB",08-09-2025 07:00:00,12.9756843,77.5660749,CO,59,62,61
India,Karnataka,Bengaluru,"Hebbal, Bengaluru - KSPCB",08-09-2025 07:00:00,13.029152,77.585901,SO2,7,12,9
India,Karnataka,Bengaluru,"Hombegowda Nagar, Bengaluru - KSPCB",08-09-2025 07:00:00,12.938539,77.590100,PM2.5,10,22,15
India,Delhi,Delhi,"Vivek Vihar, Delhi - DPCC",08-09-2025 07:00:00,28.672342,77.315260,NO2,NA,NA,NA
India,Delhi,Delhi,"Vivek Vihar, Delhi - DPCC",08-09-2025 07:00:00,28.672342,77.315260,NH3,NA,NA,NA
India,Delhi,Delhi,"Wazirpur, Delhi - DPCC",08-09-2025 07:00:00,28.699793,77.165453,NO2,NA,NA,NA
India,Delhi,Delhi,"Wazirpur, Delhi - DPCC",08-09-2025 07:00:00,28.699793,77.165453,NH3,NA,NA,NA
India,Gujarat,Ahmedabad,"Chandkheda, Ahmedabad - IITM",08-09-2025 07:00:00,23.107969,72.574648,NO2,2,8,3
India,Gujarat,Ahmedabad,"Gyaspur, Ahmedabad - IITM",08-09-2025 07:00:00,22.977134,72.553024,PM10,6,46,26
India,Gujarat,Ahmedabad,"Maninagar, Ahmedabad - GPCB",08-09-2025 07:00:00,23.002657,72.591912,SO2,19,35,27
India,Delhi,Delhi,"Punjabi Bagh, Delhi - DPCC",08-09-2025 07:00:00,28.674045,77.131023,PM2.5,22,82,42
India,Delhi,Delhi,"Punjabi Bagh, Delhi - DPCC",08-09-2025 07:00:00,28.674045,77.131023,PM10,56,114,83
India,Delhi,Delhi,"Punjabi Bagh, Delhi - DPCC",08-09-2025 07:00:00,28.674045,77.131023,SO2,7,12,10
India,Delhi,Delhi,"Punjabi Bagh, Delhi - DPCC",08-09-2025 07:00:00,28.674045,77.131023,OZONE,14,46,15
India,Delhi,Delhi,"Pusa, Delhi - IMD",08-09-2025 07:00:00,28.636110,77.173332,OZONE,22,36,22
India,Delhi,Delhi,"R K Puram, Delhi - DPCC",08-09-2025 07:00:00,28.563262,77.186937,NO2,9,55,28
India,Delhi,Delhi,"R K Puram, Delhi - DPCC",08-09-2025 07:00:00,28.563262,77.186937,NH3,3,4,3
India,Gujarat,Ahmedabad,"Raikhad, Ahmedabad - IITM",08-09-2025 07:00:00,23.020509,72.579261,OZONE,8,18,10
India,Gujarat,Ahmedabad,"SAC ISRO Bopal, Ahmedabad - IITM",08-09-2025 07:00:00,23.041137,72.456691,NH3,3,4,4
India,Gujarat,Ahmedabad,"SAC ISRO Bopal, Ahmedabad - IITM",08-09-2025 07:00:00,23.041137,72.456691,CO,6,23,13
India,Gujarat,Ahmedabad,"SAC ISRO Satellite, Ahmedabad - IITM",08-09-2025 07:00:00,23.023389,72.515201,NO2,6,12,9
India,Gujarat,Ahmedabad,"SAC ISRO Satellite, Ahmedabad - IITM",08-09-2025 07:00:00,23.023389,72.515201,CO,1,10,2
India,Gujarat,Ahmedabad,"SVPI Airport Hansol, Ahmedabad - IITM",08-09-2025 07:00:00,23.076793,72.627874,NO2,9,25,18
India,Delhi,Delhi,"Rohini, Delhi - DPCC",08-09-2025 07:00:00,28.732528,77.119920,NH3,4,7,5
India,Delhi,Delhi,"Sirifort, Delhi - CPCB",08-09-2025 07:00:00,28.5504249,77.2159377,NO2,34,35,35
India,Delhi,Delhi,"Sri Aurobindo Marg, Delhi - DPCC",08-09-2025 07:00:00,28.531346,77.190156,PM10,38,105,61
India,Delhi,Delhi,"Sri Aurobindo Marg, Delhi - DPCC",08-09-2025 07:00:00,28.531346,77.190156,SO2,10,15,12
India,Karnataka,Karwar,"KHB Colony, Karwar - KSPCB",08-09-2025 07:00:00,14.816666,74.141003,SO2,NA,NA,NA
India,Karnataka,Koppal,"Diwator Nagar, Koppal - KSPCB",08-09-2025 07:00:00,15.347630,76.181767,NH3,7,7,7
India,Karnataka,Mangalore,"Kadri, Mangalore - KSPCB",08-09-2025 07:00:00,12.889250,74.853000,PM2.5,12,26,18
India,Karnataka,Mangalore,"Kadri, Mangalore - KSPCB",08-09-2025 07:00:00,12.889250,74.853000,NO2,21,25,23
India,Karnataka,Mangalore,"Kadri, Mangalore - KSPCB",08-09-2025 07:00:00,12.889250,74.853000,OZONE,5,43,24
India,Karnataka,Shivamogga,"Vinoba Nagara, Shivamogga - KSPCB",08-09-2025 07:00:00,13.940000,75.555917,PM2.5,36,49,43
India,Karnataka,Shivamogga,"Vinoba Nagara, Shivamogga - KSPCB",08-09-2025 07:00:00,13.940000,75.555917,PM10,44,65,56
India,Karnataka,Shivamogga,"Vinoba Nagara, Shivamogga - KSPCB",08-09-2025 07:00:00,13.940000,75.555917,SO2,2,5,3
India,Karnataka,Shivamogga,"Vinoba Nagara, Shivamogga - KSPCB",08-09-2025 07:00:00,13.940000,75.555917,CO,6,28,10
India,Karnataka,Shivamogga,"Vinoba Nagara, Shivamogga - KSPCB",08-09-2025 07:00:00,13.940000,75.555917,OZONE,11,33,13
India,Karnataka,Vijayapura,"Ibrahimpur, Vijayapura - KSPCB",08-09-2025 07:00:00,16.802639,75.722694,PM2.5,30,38,37
India,Karnataka,Vijayapura,"Ibrahimpur, Vijayapura - KSPCB",08-09-2025 07:00:00,16.802639,75.722694,NO2,9,10,9
India,Madhya Pradesh,Ratlam,"Shasthri Nagar, Ratlam - IPCA Lab",08-09-2025 07:00:00,23.331731,75.045981,NO2,34,36,35
India,Madhya Pradesh,Ratlam,"Shasthri Nagar, Ratlam - IPCA Lab",08-09-2025 07:00:00,23.331731,75.045981,SO2,26,27,26
India,Madhya Pradesh,Satna,"Bandhavgar Colony, Satna - Birla Cement",08-09-2025 07:00:00,24.58434363,80.8549414,SO2,18,19,19
India,Madhya Pradesh,Singrauli,"Suryakiran Bhawan NCL, Singrauli - MPPCB",08-09-2025 07:00:00,24.108970,82.645580,NO2,20,32,25
India,Madhya Pradesh,Singrauli,"Suryakiran Bhawan NCL, Singrauli - MPPCB",08-09-2025 07:00:00,24.108970,82.645580,NH3,5,6,6
India,Maharashtra,Ahmednagar,"Tarakpur, Ahmednagar - MPCB",08-09-2025 07:00:00,19.10122,74.73339,PM10,27,63,41
India,Maharashtra,Akola,"Ramdaspeth, Akola - MPCB",08-09-2025 07:00:00,20.719516,77.000253,PM10,14,35,24
India,Maharashtra,Akola,"Ramdaspeth, Akola - MPCB",08-09-2025 07:00:00,20.719516,77.000253,SO2,15,19,17
India,Maharashtra,Akola,"Ramdaspeth, Akola - MPCB",08-09-2025 07:00:00,20.719516,77.000253,CO,12,57,13
India,Kerala,Thrissur,"Corporation Ground, Thrissur - Kerala PCB",08-09-2025 07:00:00,10.532400,76.215900,PM2.5,49,56,53
India,Kerala,Thrissur,"Corporation Ground, Thrissur - Kerala PCB",08-09-2025 07:00:00,10.532400,76.215900,NO2,9,10,9
India,Madhya Pradesh,Bhopal,"Idgah Hills, Bhopal - MPPCB",08-09-2025 07:00:00,23.264759,77.381568,NO2,8,21,13
India,Madhya Pradesh,Bhopal,"Paryavaran Parisar, Bhopal - MPPCB",08-09-2025 07:00:00,23.210494,77.425409,NH3,4,4,4
India,Madhya Pradesh,Bhopal,"T T Nagar, Bhopal - MPPCB",08-09-2025 07:00:00,23.233584,77.400574,PM2.5,14,25,20
India,Madhya Pradesh,Damoh,"Shrivastav Colony, Damoh - MPPCB",08-09-2025 07:00:00,23.81748678,79.446246,CO,22,28,26
India,Madhya Pradesh,Dewas,"Bhopal Chauraha, Dewas - MPPCB",08-09-2025 07:00:00,22.9682591,76.064118,PM10,28,108,52
India,Madhya Pradesh,Indore,"Chhoti Gwaltoli, Indore - MPPCB",08-09-2025 07:00:00,22.4310,75.5213,PM10,32,70,48
India,Madhya Pradesh,Indore,"Chhoti Gwaltoli, Indore - MPPCB",08-09-2025 07:00:00,22.4310,75.5213,NO2,56,73,61
India,Madhya Pradesh,Indore,"Chhoti Gwaltoli, Indore - MPPCB",08-09-2025 07:00:00,22.4310,75.5213,SO2,8,12,11
India,Madhya Pradesh,Indore,"Regional Park, Indore - IMC",08-09-2025 07:00:00,22.6780,75.8559,PM2.5,4,14,8
India,Madhya Pradesh,Indore,"Residency Area, Indore - IMC",08-09-2025 07:00:00,22.7084,75.8815,SO2,36,38,37
India,Madhya Pradesh,Jabalpur,"Govindh Bhavan Colony, Jabalpur - JMC",08-09-2025 07:00:00,23.163174,79.973061,OZONE,5,41,7
India,Madhya Pradesh,Jabalpur,"Gupteshwar, Jabalpur - JMC",08-09-2025 07:00:00,23.142888,79.916147,PM2.5,NA,NA,NA
India,Karnataka,Haveri,"Ashwini Nagar, Haveri - KSPCB",08-09-2025 07:00:00,14.791800,75.389600,SO2,NA,NA,NA
India,Karnataka,Hubballi,"Lingaraj Nagar, Hubballi - KSPCB",08-09-2025 07:00:00,15.3714823,75.1160168,NO2,7,7,7
India,Karnataka,Kalaburagi,"Lal Bahadur Shastri Nagar, Kalaburagi - KSPCB",08-09-2025 07:00:00,17.321993,76.822628,CO,31,58,37
India,Karnataka,Kalaburagi,"Mahatma Basaveswar Colony, Kalaburgi - KSPCB",08-09-2025 07:00:00,17.336318,76.847397,PM10,33,68,48
India,Karnataka,Karwar,"KHB Colony, Karwar - KSPCB",08-09-2025 07:00:00,14.816666,74.141003,NH3,NA,NA,NA
India,Madhya Pradesh,Dewas,"Bhopal Chauraha, Dewas - MPPCB",08-09-2025 07:00:00,22.9682591,76.064118,SO2,11,29,20
India,Madhya Pradesh,Dewas,"Bhopal Chauraha, Dewas - MPPCB",08-09-2025 07:00:00,22.9682591,76.064118,OZONE,28,32,29
India,Madhya Pradesh,Gwalior,"City Center, Gwalior - MPPCB",08-09-2025 07:00:00,26.203442,78.193251,NO2,5,8,8
India,Madhya Pradesh,Gwalior,"Deen Dayal Nagar, Gwalior - MPPCB",08-09-2025 07:00:00,26.259242,78.216432,PM2.5,8,77,45
India,Madhya Pradesh,Indore,"Airport Area, Indore - IMC",08-09-2025 07:00:00,22.7289,75.8076,PM2.5,NA,NA,NA
India,Karnataka,Yadgir,"Collector Office, Yadgir - KSPCB",08-09-2025 07:00:00,16.7602,77.1428,PM2.5,NA,NA,NA
India,Kerala,Kannur,"Thavakkara, Kannur - Kerala PCB",08-09-2025 07:00:00,11.875000,75.373200,NO2,NA,NA,NA
India,Kerala,Kollam,"Polayathode, Kollam - Kerala PCB",08-09-2025 07:00:00,8.8787,76.6073,NH3,NA,NA,NA
India,Kerala,Kollam,"Polayathode, Kollam - Kerala PCB",08-09-2025 07:00:00,8.8787,76.6073,CO,NA,NA,NA
India,Kerala,Thiruvananthapuram,"Kariavattom, Thiruvananthapuram - Kerala PCB",08-09-2025 07:00:00,8.563700,76.886500,NO2,6,7,6
India,Madhya Pradesh,Jabalpur,"Gupteshwar, Jabalpur - JMC",08-09-2025 07:00:00,23.142888,79.916147,NO2,NA,NA,NA
India,Madhya Pradesh,Jabalpur,"Suhagi, Jabalpur - JMC",08-09-2025 07:00:00,23.218135,79.957770,PM10,13,57,25
India,Madhya Pradesh,Jabalpur,"Suhagi, Jabalpur - JMC",08-09-2025 07:00:00,23.218135,79.957770,CO,14,49,25
India,Madhya Pradesh,Katni,"Gole Bazar, Katni - MPPCB",08-09-2025 07:00:00,23.50016,80.23284,NO2,30,31,31
India,Madhya Pradesh,Maihar,"Sahilara, Maihar - KJS Cements",08-09-2025 07:00:00,24.2613009,80.7231783,NO2,13,13,13
India,Maharashtra,Aurangabad,"MIDC Chilkalthana, Aurangabad - MPCB",08-09-2025 07:00:00,19.875620,75.387310,SO2,NA,NA,NA
India,Maharashtra,Aurangabad,"MIDC Chilkalthana, Aurangabad - MPCB",08-09-2025 07:00:00,19.875620,75.387310,CO,6,14,9
India,Maharashtra,Aurangabad,"More Chowk Waluj, Aurangabad - MPCB",08-09-2025 07:00:00,19.8389439,75.244448,CO,NA,NA,NA
India,Maharashtra,Aurangabad,"Rachnakar Colony, Aurangabad - MPCB",08-09-2025 07:00:00,19.863756,75.321188,NO2,23,27,24
India,Maharashtra,Malegaon,"Mahesh Nagar, Malegaon - MPCB",08-09-2025 07:00:00,20.555712,74.529236,NO2,6,35,18
India,Maharashtra,Malegaon,"Mahesh Nagar, Malegaon - MPCB",08-09-2025 07:00:00,20.555712,74.529236,NH3,3,5,4
India,Maharashtra,Malegaon,"Mahesh Nagar, Malegaon - MPCB",08-09-2025 07:00:00,20.555712,74.529236,CO,24,49,31
India,Maharashtra,Mira-Bhayandar,"Bhayandar West, Mira-Bhayandar - MPCB",08-09-2025 07:00:00,19.296481,72.840923,PM2.5,17,49,27
India,Maharashtra,Mira-Bhayandar,"Bhayandar West, Mira-Bhayandar - MPCB",08-09-2025 07:00:00,19.296481,72.840923,PM10,29,49,39
India,Maharashtra,Mira-Bhayandar,"Bhayandar West, Mira-Bhayandar - MPCB",08-09-2025 07:00:00,19.296481,72.840923,SO2,2,3,2
India,Maharashtra,Mumbai,"Bandra Kurla Complex, Mumbai - IITM",08-09-2025 07:00:00,19.053536,72.84643,CO,16,66,34
India,Maharashtra,Mumbai,"Bandra Kurla Complex, Mumbai - IITM",08-09-2025 07:00:00,19.053536,72.84643,OZONE,1,5,1
India,Maharashtra,Mumbai,"Bandra Kurla Complex, Mumbai - MPCB",08-09-2025 07:00:00,19.065931,72.862131,PM2.5,8,66,32
India,Maharashtra,Mumbai,"Bandra Kurla Complex, Mumbai - MPCB",08-09-2025 07:00:00,19.065931,72.862131,NO2,11,27,18
India,Maharashtra,Mumbai,"Bandra Kurla Complex, Mumbai - MPCB",08-09-2025 07:00:00,19.065931,72.862131,NH3,3,4,4
India,Maharashtra,Mumbai,"Bandra Kurla Complex, Mumbai - MPCB",08-09-2025 07:00:00,19.065931,72.862131,OZONE,1,17,4
India,Maharashtra,Mumbai,"Borivali East, Mumbai - MPCB",08-09-2025 07:00:00,19.2243333,72.8658113,NO2,1,4,3
India,Maharashtra,Kolhapur,"Shivaji University, Kolhapur - MPCB",08-09-2025 07:00:00,16.6870449,74.2505872,SO2,1,2,2
India,Maharashtra,Kolhapur,"Shivaji University, Kolhapur - MPCB",08-09-2025 07:00:00,16.6870449,74.2505872,OZONE,5,22,9
India,Maharashtra,Kolhapur,"Sinchan Bhavan, Kolhapur - MPCB",08-09-2025 07:00:00,16.7143745,74.2426398,SO2,1,3,2
India,Maharashtra,Mahad,"Kamble Tarf Birwadi, Mahad - MPCB",08-09-2025 07:00:00,18.1023399,73.4783687,PM2.5,13,42,25
India,Maharashtra,Mahad,"Kamble Tarf Birwadi, Mahad - MPCB",08-09-2025 07:00:00,18.1023399,73.4783687,PM10,26,48,36
India,Maharashtra,Mahad,"Kamble Tarf Birwadi, Mahad - MPCB",08-09-2025 07:00:00,18.1023399,73.4783687,NH3,4,7,5
India,Maharashtra,Badlapur,"Katrap, Badlapur - MPCB",08-09-2025 07:00:00,19.16485,73.23409,CO,24,42,30
India,Maharashtra,Belapur,"CBD Belapur, Belapur - MPCB",08-09-2025 07:00:00,19.0243902,73.0406721,PM10,28,51,37
India,Maharashtra,Belapur,"CBD Belapur, Belapur - MPCB",08-09-2025 07:00:00,19.0243902,73.0406721,NO2,8,16,11
India,Maharashtra,Belapur,"CBD Belapur, Belapur - MPCB",08-09-2025 07:00:00,19.0243902,73.0406721,SO2,1,5,3
India,Maharashtra,Boisar,"Khaira, Boisar - MPCB",08-09-2025 07:00:00,19.786089,72.757971,NH3,4,8,6
India,Maharashtra,Dhule,"Deopur, Dhule - MPCB",08-09-2025 07:00:00,20.918946,74.776388,PM10,16,78,44
India,Maharashtra,Dhule,"Deopur, Dhule - MPCB",08-09-2025 07:00:00,20.918946,74.776388,NO2,3,26,11
India,Maharashtra,Dhule,"Deopur, Dhule - MPCB",08-09-2025 07:00:00,20.918946,74.776388,SO2,5,14,8
India,Maharashtra,Jalgaon,"Prabhat Colony, Jalgaon - MPCB",08-09-2025 07:00:00,21.001264,75.565602,NH3,2,3,2
India,Maharashtra,Jalna,"Old MIDC, Jalna - MPCB",08-09-2025 07:00:00,19.854616,75.905894,NO2,37,48,43
India,Maharashtra,Mumbai,"Deonar, Mumbai - IITM",08-09-2025 07:00:00,19.04946,72.9230,CO,10,43,27
India,Maharashtra,Mumbai,"Deonar, Mumbai - IITM",08-09-2025 07:00:00,19.04946,72.9230,OZONE,1,6,1
India,Maharashtra,Mumbai,"Ghatkopar, Mumbai - BMC",08-09-2025 07:00:00,19.083694,72.920967,PM2.5,5,33,15
India,Maharashtra,Mumbai,"Kandivali West, Mumbai - BMC",08-09-2025 07:00:00,19.215859,72.831718,NO2,6,20,13
India,Maharashtra,Mumbai,"Kandivali West, Mumbai - BMC",08-09-2025 07:00:00,19.215859,72.831718,CO,4,36,15
India,Maharashtra,Mumbai,"Kherwadi_Bandra East, Mumbai - MPCB",08-09-2025 07:00:00,19.0632143,72.8456324,NO2,16,16,16
India,Maharashtra,Mumbai,"Kurla, Mumbai - MPCB",08-09-2025 07:00:00,19.0863,72.8888,CO,3,8,7
India,Maharashtra,Mumbai,"Malad West, Mumbai - IITM",08-09-2025 07:00:00,19.19709,72.82204,SO2,5,7,6
India,Maharashtra,Mumbai,"Malad West, Mumbai - IITM",08-09-2025 07:00:00,19.19709,72.82204,CO,43,83,54
India,Maharashtra,Mumbai,"Byculla, Mumbai - BMC",08-09-2025 07:00:00,18.9767,72.8380,NO2,2,21,12
India,Maharashtra,Mumbai,"Byculla, Mumbai - BMC",08-09-2025 07:00:00,18.9767,72.8380,SO2,1,3,2
India,Maharashtra,Mumbai,"Byculla, Mumbai - BMC",08-09-2025 07:00:00,18.9767,72.8380,OZONE,6,26,9
India,Maharashtra,Mumbai,"Chakala-Andheri East, Mumbai - IITM",08-09-2025 07:00:00,19.11074,72.86084,PM2.5,15,38,27
India,Maharashtra,Mumbai,"Mindspace-Malad West, Mumbai - MPCB",08-09-2025 07:00:00,19.1878657,72.8304069,NO2,14,16,15
India,Maharashtra,Mumbai,"Sewri, Mumbai - BMC",08-09-2025 07:00:00,19.000084,72.856730,PM2.5,1,8,4
India,Maharashtra,Mumbai,"Sewri, Mumbai - BMC",08-09-2025 07:00:00,19.000084,72.856730,OZONE,21,51,34
India,Maharashtra,Mumbai,"Chhatrapati Shivaji Intl. Airport (T2), Mumbai - MPCB",08-09-2025 07:00:00,19.10078,72.87462,PM2.5,32,46,37
India,Maharashtra,Mumbai,"Chhatrapati Shivaji Intl. Airport (T2), Mumbai - MPCB",08-09-2025 07:00:00,19.10078,72.87462,OZONE,7,7,7
India,Maharashtra,Thane,"Upvan Fort, Thane - MPCB",08-09-2025 07:00:00,19.222279,72.957979,NO2,2,22,12
India,Maharashtra,Thane,"Upvan Fort, Thane - MPCB",08-09-2025 07:00:00,19.222279,72.957979,NH3,NA,NA,NA
India,Maharashtra,Thane,"Upvan Fort, Thane - MPCB",08-09-2025 07:00:00,19.222279,72.957979,OZONE,6,12,6
India,Maharashtra,Ulhasnagar,"Sidhi Vinayak Nagar, Ulhasnagar - MPCB",08-09-2025 07:00:00,19.235581,73.159121,PM2.5,22,50,41
India,Maharashtra,Ulhasnagar,"Sidhi Vinayak Nagar, Ulhasnagar - MPCB",08-09-2025 07:00:00,19.235581,73.159121,CO,20,57,31
India,Maharashtra,Virar,"Bolinj, Virar - MPCB",08-09-2025 07:00:00,19.4458210,72.7988231,PM10,18,36,29
India,Meghalaya,Shillong,"Lumpyngngad, Shillong - Meghalaya PCB",08-09-2025 07:00:00,25.5586,91.8985,PM10,3,21,10
