country,state,city,station,last_update,latitude,longitude,pollutant_id,min_value,max_value,avg_value
India,Andhra_Pradesh,Vijayawada,"Rajiv Nagar, Vijayawada - APPCB",20-02-2026 08:00:00,16.554731,80.649110,NH3,NA,NA,NA
India,Andhra_Pradesh,Visakhapatnam,"GVM Corporation, Visakhapatnam - APPCB",20-02-2026 08:00:00,17.72,83.3,PM2.5,66,111,78
India,Andhra_Pradesh,Visakhapatnam,"GVM Corporation, Visakhapatnam - APPCB",20-02-2026 08:00:00,17.72,83.3,NH3,2,4,3
India,Arunachal_Pradesh,Naharlagun,"Naharlagun, Naharlagun - APSPCB",20-02-2026 08:00:00,27.103358,93.679645,NO2,7,8,7
India,Assam,Byrnihat,"Central Academy for SFS, Byrnihat - PCBA",20-02-2026 08:00:00,26.071318,91.87488,NO2,6,10,8
India,Assam,Guwahati,"LGBI Airport, Guwahati - PCBA",20-02-2026 08:00:00,26.10887,91.589544,PM2.5,39,130,91
India,Assam,Guwahati,"LGBI Airport, Guwahati - PCBA",20-02-2026 08:00:00,26.10887,91.589544,OZONE,9,16,14
India,Assam,Guwahati,"Pan Bazaar, Guwahati - PCBA",20-02-2026 08:00:00,26.187500,91.744194,SO2,32,71,50
India,Bihar,Bhagalpur,"DM Office_Kachari Chowk, Bhagalpur - BSPCB",20-02-2026 08:00:00,25.251013,86.989001,SO2,34,76,54
India,Bihar,Bhagalpur,"Mayaganj, Bhagalpur - BSPCB",20-02-2026 08:00:00,25.265194,87.012947,NH3,6,8,7
India,Bihar,Bihar Sharif,"D M Colony, Bihar Sharif - BSPCB",20-02-2026 08:00:00,25.204762,85.514960,SO2,NA,NA,NA
India,Bihar,Buxar,"Charitra Van, Buxar - BSPCB",20-02-2026 08:00:00,25.567520,83.966379,PM10,49,110,85
India,Bihar,Buxar,"Charitra Van, Buxar - BSPCB",20-02-2026 08:00:00,25.567520,83.966379,CO,21,28,25
India,Bihar,Chhapra,"Darshan Nagar, Chhapra - BSPCB",20-02-2026 08:00:00,25.7808257,84.7446768,CO,8,54,48
India,Bihar,Gaya,"Collectorate, Gaya - BSPCB",20-02-2026 08:00:00,24.7955,84.9994,PM2.5,77,322,197
India,Bihar,Gaya,"Collectorate, Gaya - BSPCB",20-02-2026 08:00:00,24.7955,84.9994,NO2,9,10,9
India,Bihar,Gaya,"Collectorate, Gaya - BSPCB",20-02-2026 08:00:00,24.7955,84.9994,OZONE,17,19,18
India,Assam,Guwahati,"Pan Bazaar, Guwahati - PCBA",20-02-2026 08:00:00,26.187500,91.744194,CO,16,94,43
India,Assam,Guwahati,"Railway Colony, Guwahati - PCBA",20-02-2026 08:00:00,26.181742,91.78063,PM2.5,84,359,256
India,Assam,Guwahati,"Railway Colony, Guwahati - PCBA",20-02-2026 08:00:00,26.181742,91.78063,CO,1,21,13
India,Assam,Nagaon,"Christianpatty, Nagaon - PCBA",20-02-2026 08:00:00,26.349082,92.68449,SO2,11,15,13
India,Assam,Silchar,"Tarapur, Silchar - PCBA",20-02-2026 08:00:00,24.82827,92.79525,NH3,1,2,2
India,Assam,Sivasagar,"Girls College, Sivasagar - PCBA",20-02-2026 08:00:00,26.987634,94.636574,PM10,40,99,67
India,Bihar,Araria,"Kharahiya Basti, Araria - BSPCB",20-02-2026 08:00:00,26.146529,87.454184,PM2.5,15,147,82
India,Bihar,Patna,"DRM Office Danapur, Patna - BSPCB",20-02-2026 08:00:00,25.586562,85.043586,PM10,30,354,143
India,Bihar,Patna,"DRM Office Danapur, Patna - BSPCB",20-02-2026 08:00:00,25.586562,85.043586,NO2,45,55,50
India,Bihar,Patna,"DRM Office Danapur, Patna - BSPCB",20-02-2026 08:00:00,25.586562,85.043586,CO,28,103,52
India,Bihar,Patna,"Govt. High School Shikarpur, Patna - BSPCB",20-02-2026 08:00:00,25.592539,85.227158,CO,34,135,84
India,Bihar,Patna,"IGSC Planetarium Complex, Patna - BSPCB",20-02-2026 08:00:00,25.610369,85.132568,SO2,13,20,18
India,Bihar,Patna,"Muradpur, Patna - BSPCB",20-02-2026 08:00:00,25.619651,85.147382,SO2,7,11,8
India,Bihar,Patna,"Rajbansi Nagar, Patna - BSPCB",20-02-2026 08:00:00,25.599486,85.113666,PM2.5,60,115,89
India,Bihar,Patna,"Rajbansi Nagar, Patna - BSPCB",20-02-2026 08:00:00,25.599486,85.113666,PM10,81,146,116
India,Bihar,Manguraha,"Forest Rest House, Manguraha - BSPCB",20-02-2026 08:00:00,27.308328,84.531742,NO2,4,11,7
India,Bihar,Motihari,"Gandak Colony, Motihari - BSPCB",20-02-2026 08:00:00,26.63086,84.90051,SO2,3,3,3
India,Bihar,Motihari,"Gandak Colony, Motihari - BSPCB",20-02-2026 08:00:00,26.63086,84.90051,OZONE,3,5,3
India,Bihar,Muzaffarpur,"MIT-Daudpur Kothi, Muzaffarpur - BSPCB",20-02-2026 08:00:00,26.1403345,85.3650192,OZONE,36,70,38
India,Bihar,Muzaffarpur,"Muzaffarpur Collectorate, Muzaffarpur - BSPCB",20-02-2026 08:00:00,26.1209,85.3647,PM2.5,87,123,94
India,Bihar,Arrah,"New DM Office, Arrah - BSPCB",20-02-2026 08:00:00,25.5626095,84.663264,PM2.5,58,197,120
India,Bihar,Arrah,"New DM Office, Arrah - BSPCB",20-02-2026 08:00:00,25.5626095,84.663264,CO,44,65,56
India,Bihar,Begusarai,"Lohiyanagar, Begusarai - BSPCB",20-02-2026 08:00:00,25.42742023,86.13886079,CO,24,30,27
India,Bihar,Bettiah,"Kamalnath Nagar, Bettiah - BSPCB",20-02-2026 08:00:00,26.80365,84.51954,CO,59,119,64
India,Bihar,Bhagalpur,"DM Office_Kachari Chowk, Bhagalpur - BSPCB",20-02-2026 08:00:00,25.251013,86.989001,NH3,1,1,1
India,Andhra_Pradesh,Tirupati,"Vaikuntapuram, Tirupati - APPCB",20-02-2026 08:00:00,13.615387,79.409230,PM2.5,NA,NA,NA
India,Andhra_Pradesh,Tirupati,"Vaikuntapuram, Tirupati - APPCB",20-02-2026 08:00:00,13.615387,79.409230,NH3,6,6,6
India,Andhra_Pradesh,Vijayawada,"HB Colony, Vijayawada - APPCB",20-02-2026 08:00:00,16.536107,80.594233,PM2.5,53,117,71
India,Andhra_Pradesh,Vijayawada,"Kanuru, Vijayawada - APPCB",20-02-2026 08:00:00,16.486692,80.699436,NO2,19,22,21
India,Andhra_Pradesh,Vijayawada,"Kanuru, Vijayawada - APPCB",20-02-2026 08:00:00,16.486692,80.699436,OZONE,32,36,36
India,Bihar,Gaya,"Kareemganj, Gaya - BSPCB",20-02-2026 08:00:00,24.792403,84.992416,PM10,116,361,220
India,Bihar,Kishanganj,"SDM Office_Khagra, Kishanganj - BSPCB",20-02-2026 08:00:00,26.0881305,87.93840336,NO2,9,13,11
India,Andhra_Pradesh,Chittoor,"Gangineni Cheruvu, Chittoor - APPCB",20-02-2026 08:00:00,13.204880,79.097889,NO2,17,30,21
India,Andhra_Pradesh,Kadapa,"Yerramukkapalli, Kadapa - APPCB",20-02-2026 08:00:00,14.465052,78.824187,CO,16,41,41
India,Andaman and Nicobar,Sri Vijaya Puram,"Police Line, Sri Vijaya Puram - ANPCC",20-02-2026 08:00:00,11.654054,92.734055,SO2,NA,NA,NA
India,Chhattisgarh,Raipur,"Siltara Phase-II, Raipur - CECB",20-02-2026 08:00:00,21.371751,81.664929,PM2.5,49,251,155
India,Chhattisgarh,Raipur,"Siltara Phase-II, Raipur - CECB",20-02-2026 08:00:00,21.371751,81.664929,NO2,8,73,24
India,Chhattisgarh,Tumidih,"OP Jindal Industrial Park, Tumidih - CECB",20-02-2026 08:00:00,22.06631475,83.33820077,PM2.5,92,318,169
India,Chhattisgarh,Tumidih,"OP Jindal Industrial Park, Tumidih - CECB",20-02-2026 08:00:00,22.06631475,83.33820077,PM10,95,474,155
India,Chhattisgarh,Tumidih,"OP Jindal Industrial Park, Tumidih - CECB",20-02-2026 08:00:00,22.06631475,83.33820077,NO2,NA,NA,NA
India,Chhattisgarh,Tumidih,"OP Jindal Industrial Park, Tumidih - CECB",20-02-2026 08:00:00,22.06631475,83.33820077,CO,34,98,40
India,Delhi,Delhi,"Anand Vihar, Delhi - DPCC",20-02-2026 08:00:00,28.647622,77.3158090,PM10,166,341,226
India,Delhi,Delhi,"Anand Vihar, Delhi - DPCC",20-02-2026 08:00:00,28.647622,77.3158090,SO2,24,56,37
India,Delhi,Delhi,"Ashok Vihar, Delhi - DPCC",20-02-2026 08:00:00,28.695381,77.181665,PM10,117,217,165
India,Delhi,Delhi,"Ashok Vihar, Delhi - DPCC",20-02-2026 08:00:00,28.695381,77.181665,NH3,8,9,8
India,Delhi,Delhi,"Dr. Karni Singh Shooting Range, Delhi - DPCC",20-02-2026 08:00:00,28.498571,77.264840,NO2,20,124,73
India,Delhi,Delhi,"Dr. Karni Singh Shooting Range, Delhi - DPCC",20-02-2026 08:00:00,28.498571,77.264840,NH3,8,13,11
India,Delhi,Delhi,"Dwarka-Sector 8, Delhi - DPCC ",20-02-2026 08:00:00,28.5710274,77.0719006,CO,35,116,68
India,Delhi,Delhi,"Dwarka-Sector 8, Delhi - DPCC ",20-02-2026 08:00:00,28.5710274,77.0719006,OZONE,10,289,11
India,Delhi,Delhi,"IHBAS, Dilshad Garden, Delhi - CPCB",20-02-2026 08:00:00,28.6811736,77.3025234,CO,18,152,96
India,Delhi,Delhi,"IIT Delhi, Delhi - IITM",20-02-2026 08:00:00,28.542460,77.191651,PM2.5,34,314,149
India,Delhi,Delhi,"ITO, Delhi - CPCB",20-02-2026 08:00:00,28.628624,77.241060,PM2.5,81,317,184
India,Delhi,Delhi,"ITO, Delhi - CPCB",20-02-2026 08:00:00,28.628624,77.241060,SO2,3,29,17
India,Bihar,Purnia,"Mariam Nagar, Purnia - BSPCB",20-02-2026 08:00:00,25.366336,87.117468,NH3,3,3,3
India,Bihar,Rajgir,"Dangi Tola, Rajgir - BSPCB",20-02-2026 08:00:00,25.03280,85.41948,SO2,2,3,3
India,Bihar,Rajgir,"Dangi Tola, Rajgir - BSPCB",20-02-2026 08:00:00,25.03280,85.41948,CO,NA,NA,NA
India,Bihar,Rajgir,"Dangi Tola, Rajgir - BSPCB",20-02-2026 08:00:00,25.03280,85.41948,OZONE,NA,NA,NA
India,Bihar,Saharsa,"Police Line, Saharsa - BSPCB",20-02-2026 08:00:00,25.892357,86.590325,SO2,15,19,16
India,Bihar,Samastipur,"DM Office_Kasipur, Samastipur - BSPCB",20-02-2026 08:00:00,25.859655,85.77944,PM2.5,43,344,98
India,Bihar,Samastipur,"DM Office_Kasipur, Samastipur - BSPCB",20-02-2026 08:00:00,25.859655,85.77944,CO,NA,NA,NA
India,Bihar,Sasaram,"Dada Peer, Sasaram - BSPCB",20-02-2026 08:00:00,24.952822,84.002396,NO2,2,8,3
India,Bihar,Sasaram,"Dada Peer, Sasaram - BSPCB",20-02-2026 08:00:00,24.952822,84.002396,OZONE,15,27,20
India,Chandigarh,Chandigarh,"Sector 22, Chandigarh - CPCC",20-02-2026 08:00:00,30.735567,76.775714,NH3,5,20,15
India,Chandigarh,Chandigarh,"Sector 22, Chandigarh - CPCC",20-02-2026 08:00:00,30.735567,76.775714,CO,40,108,48
India,Chandigarh,Chandigarh,"Sector-25, Chandigarh - CPCC",20-02-2026 08:00:00,30.751462,76.762879,NO2,5,18,10
India,Chhattisgarh,Bhilai,"32Bungalows, Bhilai - CECB",20-02-2026 08:00:00,21.194815,81.314770,CO,26,46,28
India,Chhattisgarh,Bhilai,"32Bungalows, Bhilai - CECB",20-02-2026 08:00:00,21.194815,81.314770,OZONE,3,30,4
India,Chhattisgarh,Bhilai,"Civic Center, Bhilai - Bhilai Steel Plant",20-02-2026 08:00:00,21.185571,81.343175,PM10,30,121,55
India,Delhi,Delhi,"Aya Nagar, Delhi - IMD",20-02-2026 08:00:00,28.4706914,77.1099364,OZONE,5,190,6
India,Delhi,Delhi,"Bawana, Delhi - DPCC",20-02-2026 08:00:00,28.776200,77.051074,NO2,11,66,29
India,Delhi,Delhi,"Burari Crossing, Delhi - IMD",20-02-2026 08:00:00,28.7256504,77.2011573,PM2.5,55,317,189
India,Delhi,Delhi,"Burari Crossing, Delhi - IMD",20-02-2026 08:00:00,28.7256504,77.2011573,PM10,98,305,164
India,Delhi,Delhi,"Burari Crossing, Delhi - IMD",20-02-2026 08:00:00,28.7256504,77.2011573,NO2,62,157,102
India,Delhi,Delhi,"CRRI Mathura Road, Delhi - IMD",20-02-2026 08:00:00,28.5512005,77.2735737,PM2.5,89,302,184
India,Delhi,Delhi,"CRRI Mathura Road, Delhi - IMD",20-02-2026 08:00:00,28.5512005,77.2735737,PM10,95,277,172
India,Chhattisgarh,Bhilai,"Civic Center, Bhilai - Bhilai Steel Plant",20-02-2026 08:00:00,21.185571,81.343175,CO,26,34,33
India,Chhattisgarh,Bhilai,"Hathkhoj, Bhilai - CECB",20-02-2026 08:00:00,21.224231,81.408350,SO2,4,106,76
India,Chhattisgarh,Bhilai,"Hathkhoj, Bhilai - CECB",20-02-2026 08:00:00,21.224231,81.408350,OZONE,8,24,14
India,Chhattisgarh,Chhal,"Nawapara SECL Colony, Chhal - CECB",20-02-2026 08:00:00,22.118125,83.140608,PM10,73,241,106
India,Chhattisgarh,Chhal,"Nawapara SECL Colony, Chhal - CECB",20-02-2026 08:00:00,22.118125,83.140608,CO,14,48,38
India,Chhattisgarh,Korba,"Rampur, Korba - CECB",20-02-2026 08:00:00,22.368195,82.746431,OZONE,3,15,5
India,Delhi,Delhi,"Jawaharlal Nehru Stadium, Delhi - DPCC",20-02-2026 08:00:00,28.580280,77.233829,SO2,5,22,13
India,Delhi,Delhi,"Major Dhyan Chand National Stadium, Delhi - DPCC",20-02-2026 08:00:00,28.611281,77.237738,NH3,17,25,20
India,Delhi,Delhi,"Major Dhyan Chand National Stadium, Delhi - DPCC",20-02-2026 08:00:00,28.611281,77.237738,OZONE,1,270,2
India,Delhi,Delhi,"Mandir Marg, Delhi - DPCC",20-02-2026 08:00:00,28.636429,77.201067,PM2.5,8,304,103
India,Delhi,Delhi,"Mandir Marg, Delhi - DPCC",20-02-2026 08:00:00,28.636429,77.201067,PM10,111,216,149
India,Delhi,Delhi,"Mandir Marg, Delhi - DPCC",20-02-2026 08:00:00,28.636429,77.201067,NH3,1,2,1
India,Delhi,Delhi,"Mandir Marg, Delhi - DPCC",20-02-2026 08:00:00,28.636429,77.201067,CO,22,59,52
India,Delhi,Delhi,"NSIT Dwarka, Delhi - CPCB",20-02-2026 08:00:00,28.60909,77.0325413,PM10,108,255,163
India,Delhi,Delhi,"Najafgarh, Delhi - DPCC",20-02-2026 08:00:00,28.570173,76.933762,CO,20,105,33
India,Delhi,Delhi,"Narela, Delhi - DPCC",20-02-2026 08:00:00,28.822836,77.101981,PM10,119,255,163
India,Delhi,Delhi,"Narela, Delhi - DPCC",20-02-2026 08:00:00,28.822836,77.101981,CO,18,55,44
India,Delhi,Delhi,"Nehru Nagar, Delhi - DPCC",20-02-2026 08:00:00,28.567890,77.250515,OZONE,2,300,2
India,Delhi,Delhi,"North Campus, DU, Delhi - IMD",20-02-2026 08:00:00,28.6573814,77.1585447,CO,8,108,65
India,Chhattisgarh,Milupara,"Govt. Higher Secondary School, Milupara - CECB",20-02-2026 08:00:00,22.1910172,83.5197009,PM10,61,144,91
India,Chhattisgarh,Raipur,"AIIMS, Raipur - CECB",20-02-2026 08:00:00,21.258815,81.578979,PM10,59,141,99
India,Chhattisgarh,Raipur,"Bhatagaon New ISBT, Raipur - CECB",20-02-2026 08:00:00,21.219665,81.630094,SO2,6,111,37
India,Gujarat,Vapi,"Phase-1 GIDC, Vapi - GPCB",20-02-2026 08:00:00,20.362421,72.918013,PM2.5,39,113,82
India,Gujarat,Vatva,"Phase-4 GIDC, Vatva - GPCB",20-02-2026 08:00:00,22.969611,72.643500,OZONE,6,45,31
India,Haryana,Ambala,"Patti Mehar, Ambala - HSPCB",20-02-2026 08:00:00,30.379589,76.778328,OZONE,14,24,20
India,Haryana,Bahadurgarh,"Arya Nagar, Bahadurgarh - HSPCB",20-02-2026 08:00:00,28.6701,76.9254,OZONE,15,19,17
India,Haryana,Ballabgarh,"Nathu Colony, Ballabgarh - HSPCB",20-02-2026 08:00:00,28.3419248,77.319699,PM2.5,90,316,200
India,Haryana,Ballabgarh,"Nathu Colony, Ballabgarh - HSPCB",20-02-2026 08:00:00,28.3419248,77.319699,NO2,19,21,20
India,Haryana,Ballabgarh,"Nathu Colony, Ballabgarh - HSPCB",20-02-2026 08:00:00,28.3419248,77.319699,NH3,3,3,3
India,Haryana,Ballabgarh,"Nathu Colony, Ballabgarh - HSPCB",20-02-2026 08:00:00,28.3419248,77.319699,SO2,2,6,4
India,Haryana,Bhiwani,"H.B. Colony, Bhiwani - HSPCB",20-02-2026 08:00:00,28.806223,76.141105,PM2.5,51,486,144
India,Haryana,Bhiwani,"H.B. Colony, Bhiwani - HSPCB",20-02-2026 08:00:00,28.806223,76.141105,PM10,44,446,110
India,Haryana,Fatehabad,"Huda Sector, Fatehabad - HSPCB",20-02-2026 08:00:00,29.503664,75.467934,SO2,10,11,10
India,Haryana,Gurugram,"NISE Gwal Pahari, Gurugram - IMD",20-02-2026 08:00:00,28.422681,77.148944,PM10,72,256,152
India,Haryana,Gurugram,"Sector-51, Gurugram - HSPCB",20-02-2026 08:00:00,28.4227,77.0667,PM2.5,38,320,239
India,Haryana,Gurugram,"Teri Gram, Gurugram - HSPCB",20-02-2026 08:00:00,28.4275,77.1465,PM2.5,188,317,278
India,Haryana,Gurugram,"Teri Gram, Gurugram - HSPCB",20-02-2026 08:00:00,28.4275,77.1465,PM10,101,145,126
India,Haryana,Gurugram,"Teri Gram, Gurugram - HSPCB",20-02-2026 08:00:00,28.4275,77.1465,SO2,9,19,15
India,Haryana,Gurugram,"Vikas Sadan, Gurugram - HSPCB",20-02-2026 08:00:00,28.4501238,77.0263051,PM2.5,180,359,266
India,Haryana,Gurugram,"Vikas Sadan, Gurugram - HSPCB",20-02-2026 08:00:00,28.4501238,77.0263051,CO,60,115,96
India,Haryana,Hisar,"Urban Estate-II, Hisar - HSPCB",20-02-2026 08:00:00,29.140560,75.744941,NO2,26,27,26
India,Haryana,Hisar,"Urban Estate-II, Hisar - HSPCB",20-02-2026 08:00:00,29.140560,75.744941,NH3,10,11,11
India,Delhi,Delhi,"Okhla Phase-2, Delhi - DPCC",20-02-2026 08:00:00,28.530785,77.271255,NH3,10,17,13
India,Delhi,Delhi,"Patparganj, Delhi - DPCC",20-02-2026 08:00:00,28.623763,77.287209,PM10,153,293,192
India,Delhi,Delhi,"Patparganj, Delhi - DPCC",20-02-2026 08:00:00,28.623763,77.287209,SO2,20,46,28
India,Delhi,Delhi,"Patparganj, Delhi - DPCC",20-02-2026 08:00:00,28.623763,77.287209,OZONE,1,202,1
India,Delhi,Delhi,"Punjabi Bagh, Delhi - DPCC",20-02-2026 08:00:00,28.674045,77.131023,PM10,114,212,148
India,Delhi,Delhi,"Pusa, Delhi - DPCC",20-02-2026 08:00:00,28.639652,77.146275,PM10,118,326,179
India,Delhi,Delhi,"Pusa, Delhi - DPCC",20-02-2026 08:00:00,28.639652,77.146275,NH3,7,26,16
India,Delhi,Delhi,"Pusa, Delhi - IMD",20-02-2026 08:00:00,28.636110,77.173332,NO2,47,177,102
India,Delhi,Delhi,"Pusa, Delhi - IMD",20-02-2026 08:00:00,28.636110,77.173332,OZONE,67,296,75
India,Delhi,Delhi,"R K Puram, Delhi - DPCC",20-02-2026 08:00:00,28.563262,77.186937,PM2.5,73,410,248
India,Gujarat,Mehsana,"Sadanand Nagar, Mehsana - Nexteng Enviro",20-02-2026 08:00:00,23.593150,72.372792,PM10,44,267,103
India,Gujarat,Mehsana,"Sadanand Nagar, Mehsana - Nexteng Enviro",20-02-2026 08:00:00,23.593150,72.372792,NH3,1,3,2
India,Gujarat,Mehsana,"Sadanand Nagar, Mehsana - Nexteng Enviro",20-02-2026 08:00:00,23.593150,72.372792,OZONE,9,21,13
India,Gujarat,Nandesari,"GIDC, Nandesari - Nandesari Ind. Association",20-02-2026 08:00:00,22.410802,73.097923,SO2,NA,NA,NA
India,Gujarat,Rajkot,"Mavdi, Rajkot - Nexteng Enviro ",20-02-2026 08:00:00,22.248853,70.776774,PM2.5,19,338,100
India,Gujarat,Rajkot,"Mavdi, Rajkot - Nexteng Enviro ",20-02-2026 08:00:00,22.248853,70.776774,SO2,9,125,23
India,Gujarat,Surat,"Katargam, Surat - Nexteng Enviro",20-02-2026 08:00:00,21.217779 ,72.834787 ,PM2.5,77,308,217
India,Gujarat,Vadodara,"Bapunagar, Vadodara - Nexteng Enviro",20-02-2026 08:00:00,22.320153,73.216285,NO2,10,45,23
India,Delhi,Delhi,"Vivek Vihar, Delhi - DPCC",20-02-2026 08:00:00,28.672342,77.315260,PM10,113,272,167
India,Delhi,Delhi,"Wazirpur, Delhi - DPCC",20-02-2026 08:00:00,28.699793,77.165453,PM10,134,290,184
India,Delhi,Delhi,"Wazirpur, Delhi - DPCC",20-02-2026 08:00:00,28.699793,77.165453,SO2,4,11,8
India,Gujarat,Ahmedabad,"Chandkheda, Ahmedabad - IITM",20-02-2026 08:00:00,23.107969,72.574648,SO2,11,70,21
India,Gujarat,Ahmedabad,"Chandkheda, Ahmedabad - IITM",20-02-2026 08:00:00,23.107969,72.574648,CO,27,76,30
India,Gujarat,Ahmedabad,"Gyaspur, Ahmedabad - IITM",20-02-2026 08:00:00,22.977134,72.553024,NO2,39,124,71
India,Gujarat,Ahmedabad,"Gyaspur, Ahmedabad - IITM",20-02-2026 08:00:00,22.977134,72.553024,CO,20,71,38
India,Gujarat,Ahmedabad,"Maninagar, Ahmedabad - GPCB",20-02-2026 08:00:00,23.002657,72.591912,PM2.5,NA,NA,NA
India,Gujarat,Ahmedabad,"Rakhial, Ahmedabad - IITM",20-02-2026 08:00:00,23.016834,72.625775,PM10,86,193,122
India,Gujarat,Ahmedabad,"Rakhial, Ahmedabad - IITM",20-02-2026 08:00:00,23.016834,72.625775,CO,10,34,10
India,Gujarat,Ahmedabad,"SAC ISRO Bopal, Ahmedabad - IITM",20-02-2026 08:00:00,23.041137,72.456691,OZONE,8,82,31
India,Gujarat,Ahmedabad,"SAC ISRO Satellite, Ahmedabad - IITM",20-02-2026 08:00:00,23.023389,72.515201,PM2.5,68,169,94
India,Gujarat,Ahmedabad,"SVPI Airport Hansol, Ahmedabad - IITM",20-02-2026 08:00:00,23.076793,72.627874,PM10,72,208,116
India,Gujarat,Ahmedabad,"SVPI Airport Hansol, Ahmedabad - IITM",20-02-2026 08:00:00,23.076793,72.627874,SO2,6,12,8
India,Gujarat,Ankleshwar,"GIDC, Ankleshwar - GPCB",20-02-2026 08:00:00,21.613267,73.010555,PM2.5,54,202,95
India,Gujarat,Gandhinagar,"GIFT City, Gandhinagar - IITM",20-02-2026 08:00:00,23.163798,72.677768,OZONE,7,65,22
India,Gujarat,Gandhinagar,"IIPHG Lekawada, Gandhinagar - IITM",20-02-2026 08:00:00,23.243639,72.68994,PM10,62,141,95
India,Gujarat,Gandhinagar,"IIPHG Lekawada, Gandhinagar - IITM",20-02-2026 08:00:00,23.243639,72.68994,NH3,5,11,6
India,Gujarat,Gandhinagar,"Sector-10, Gandhinagar - GPCB",20-02-2026 08:00:00,23.221714,72.654328,SO2,5,13,8
India,Haryana,Charkhi Dadri,"Mini Secretariat, Charkhi Dadri - HSPCB",20-02-2026 08:00:00,28.593883,76.270653,PM10,91,158,131
India,Haryana,Charkhi Dadri,"Mini Secretariat, Charkhi Dadri - HSPCB",20-02-2026 08:00:00,28.593883,76.270653,SO2,9,12,11
India,Haryana,Dharuhera,"Municipal Corporation Office, Dharuhera -  HSPCB",20-02-2026 08:00:00,28.206800,76.799700,OZONE,5,39,6
India,Haryana,Faridabad,"Sector 11, Faridabad - HSPCB",20-02-2026 08:00:00,28.376058,77.315741,PM10,47,333,152
India,Haryana,Faridabad,"Sector 11, Faridabad - HSPCB",20-02-2026 08:00:00,28.376058,77.315741,NH3,10,10,10
India,Delhi,Delhi,"R K Puram, Delhi - DPCC",20-02-2026 08:00:00,28.563262,77.186937,NH3,9,14,10
India,Delhi,Delhi,"R K Puram, Delhi - DPCC",20-02-2026 08:00:00,28.563262,77.186937,OZONE,7,199,10
India,Delhi,Delhi,"Rohini, Delhi - DPCC",20-02-2026 08:00:00,28.732528,77.119920,SO2,NA,NA,NA
India,Delhi,Delhi,"Shadipur, Delhi - CPCB",20-02-2026 08:00:00,28.6514781,77.1473105,PM10,105,142,120
India,Karnataka,Bengaluru,"BTM Layout, Bengaluru - CPCB",20-02-2026 08:00:00,12.9135218,77.5950804,NH3,NA,NA,NA
India,Karnataka,Bengaluru,"BTM Layout, Bengaluru - CPCB",20-02-2026 08:00:00,12.9135218,77.5950804,OZONE,20,21,20
India,Karnataka,Bengaluru,"BWSSB Kadabesanahalli, Bengaluru - CPCB",20-02-2026 08:00:00,12.9352049,77.6814488,SO2,3,8,6
India,Karnataka,Bengaluru,"BWSSB Kadabesanahalli, Bengaluru - CPCB",20-02-2026 08:00:00,12.9352049,77.6814488,CO,38,40,38
India,Karnataka,Bengaluru,"Bapuji Nagar, Bengaluru - KSPCB",20-02-2026 08:00:00,12.951913,77.539784,PM10,87,149,112
India,Karnataka,Bengaluru,"Bapuji Nagar, Bengaluru - KSPCB",20-02-2026 08:00:00,12.951913,77.539784,OZONE,50,151,87
India,Karnataka,Bengaluru,"City Railway Station, Bengaluru - KSPCB",20-02-2026 08:00:00,12.9756843,77.5660749,PM10,92,107,105
India,Karnataka,Bengaluru,"Hebbal, Bengaluru - KSPCB",20-02-2026 08:00:00,13.029152,77.585901,NH3,1,2,1
India,Karnataka,Bengaluru,"Hombegowda Nagar, Bengaluru - KSPCB",20-02-2026 08:00:00,12.938539,77.590100,PM10,55,109,74
India,Karnataka,Bengaluru,"Hombegowda Nagar, Bengaluru - KSPCB",20-02-2026 08:00:00,12.938539,77.590100,NH3,3,7,4
India,Karnataka,Bengaluru,"Hombegowda Nagar, Bengaluru - KSPCB",20-02-2026 08:00:00,12.938539,77.590100,SO2,7,31,16
India,Haryana,Hisar,"Urban Estate-II, Hisar - HSPCB",20-02-2026 08:00:00,29.140560,75.744941,SO2,6,14,10
India,Haryana,Hisar,"Urban Estate-II, Hisar - HSPCB",20-02-2026 08:00:00,29.140560,75.744941,CO,28,76,30
India,Haryana,Jind,"Police Lines, Jind - HSPCB",20-02-2026 08:00:00,29.307814,76.337619,CO,2,104,18
India,Haryana,Kaithal,"Rishi Nagar, Kaithal - HSPCB",20-02-2026 08:00:00,29.8006,76.4155,OZONE,2,24,13
India,Haryana,Karnal,"Sector-12, Karnal - HSPCB",20-02-2026 08:00:00,29.695300,77.002700,PM2.5,56,180,118
India,Haryana,Karnal,"Sector-12, Karnal - HSPCB",20-02-2026 08:00:00,29.695300,77.002700,NO2,6,7,6
India,Haryana,Karnal,"Sector-12, Karnal - HSPCB",20-02-2026 08:00:00,29.695300,77.002700,CO,1,11,2
India,Haryana,Kurukshetra,"Sector-7, Kurukshetra - HSPCB",20-02-2026 08:00:00,29.966942,76.875879,PM2.5,82,156,106
India,Haryana,Mandikhera,"General Hospital, Mandikhera(Nuh) - HSPCB",20-02-2026 08:00:00,27.9002,76.9938,PM2.5,32,91,56
India,Karnataka,Bengaluru,"Shivapura_Peenya, Bengaluru - KSPCB",20-02-2026 08:00:00,13.0246342,77.5080115,PM2.5,27,70,37
India,Karnataka,Bengaluru,"Shivapura_Peenya, Bengaluru - KSPCB",20-02-2026 08:00:00,13.0246342,77.5080115,PM10,64,121,78
India,Karnataka,Bengaluru,"Shivapura_Peenya, Bengaluru - KSPCB",20-02-2026 08:00:00,13.0246342,77.5080115,SO2,3,7,5
India,Karnataka,Bengaluru,"Silk Board, Bengaluru - KSPCB",20-02-2026 08:00:00,12.917348,77.622813,PM10,57,121,93
India,Karnataka,Bengaluru,"Silk Board, Bengaluru - KSPCB",20-02-2026 08:00:00,12.917348,77.622813,NH3,4,5,5
India,Karnataka,Bengaluru,"Silk Board, Bengaluru - KSPCB",20-02-2026 08:00:00,12.917348,77.622813,SO2,3,6,5
India,Karnataka,Chamarajanagar,"Urban, Chamarajanagar - KSPCB",20-02-2026 08:00:00,11.55358,76.55521,NO2,15,35,28
India,Karnataka,Chikkaballapur,"Chikkaballapur Rural, Chikkaballapur - KSPCB",20-02-2026 08:00:00,13.428828,77.731418,PM2.5,NA,NA,NA
India,Karnataka,Chikkaballapur,"Chikkaballapur Rural, Chikkaballapur - KSPCB",20-02-2026 08:00:00,13.428828,77.731418,SO2,13,32,22
India,Haryana,Rohtak,"MD University, Rohtak - HSPCB",20-02-2026 08:00:00,28.52123,76.37138,CO,30,40,36
India,Haryana,Sirsa,"F-Block, Sirsa - HSPCB",20-02-2026 08:00:00,29.536400,75.015800,PM2.5,102,318,219
India,Haryana,Sirsa,"F-Block, Sirsa - HSPCB",20-02-2026 08:00:00,29.536400,75.015800,NH3,14,16,15
India,Haryana,Sirsa,"F-Block, Sirsa - HSPCB",20-02-2026 08:00:00,29.536400,75.015800,OZONE,47,77,58
India,Haryana,Sonipat,"Murthal, Sonipat - HSPCB",20-02-2026 08:00:00,29.027200,77.062100,CO,3,10,6
India,Haryana,Yamuna Nagar,"Gobind Pura, Yamuna Nagar - HSPCB",20-02-2026 08:00:00,30.1480566,77.2893471,PM2.5,87,226,140
India,Himachal Pradesh,Baddi,"HIMUDA Complex Phase-1, Baddi - HPPCB",20-02-2026 08:00:00,30.943887,76.801991,NH3,4,6,5
India,Himachal Pradesh,Baddi,"HIMUDA Complex Phase-1, Baddi - HPPCB",20-02-2026 08:00:00,30.943887,76.801991,OZONE,28,150,52
India,Jammu_and_Kashmir,Pampore,"Khrew, Pampore - JKPCC",20-02-2026 08:00:00,34.031606,75.009712,SO2,2,3,2
India,Jammu_and_Kashmir,Srinagar,"Khunmoh, Srinagar - JKPCC",20-02-2026 08:00:00,34.06313,74.96017,NO2,9,45,21
India,Jharkhand,Dhanbad,"Sardar Patel Nagar, Dhanbad - JSPCB",20-02-2026 08:00:00,23.80569,86.44268,NO2,52,54,53
India,Karnataka,Bagalkot,"Vidayagiri, Bagalkot - KSPCB",20-02-2026 08:00:00,16.172806,75.659694,PM2.5,35,36,35
India,Karnataka,Bagalkot,"Vidayagiri, Bagalkot - KSPCB",20-02-2026 08:00:00,16.172806,75.659694,NH3,1,2,1
India,Karnataka,Ramanagara,"Vijay Nagar, Ramanagara - KSPCB",20-02-2026 08:00:00,12.733409,77.298051,CO,16,40,31
India,Karnataka,Shivamogga,"Vinoba Nagara, Shivamogga - KSPCB",20-02-2026 08:00:00,13.940000,75.555917,PM10,42,73,55
India,Karnataka,Shivamogga,"Vinoba Nagara, Shivamogga - KSPCB",20-02-2026 08:00:00,13.940000,75.555917,OZONE,5,125,43
India,Karnataka,Tumakuru,"Thimmalapura, Tumakuru - KSPCB",20-02-2026 08:00:00,13.377516,77.099072,PM2.5,NA,NA,NA
India,Karnataka,Vijayapura,"Ibrahimpur, Vijayapura - KSPCB",20-02-2026 08:00:00,16.802639,75.722694,NO2,11,12,11
India,Karnataka,Vijayapura,"Ibrahimpur, Vijayapura - KSPCB",20-02-2026 08:00:00,16.802639,75.722694,NH3,1,2,1
India,Karnataka,Yadgir,"Collector Office, Yadgir - KSPCB",20-02-2026 08:00:00,16.7602,77.1428,CO,16,28,19
India,Karnataka,Dharwad,"Kalabhavan, Dharwad - KSPCB",20-02-2026 08:00:00,15.459706,75.008381,PM10,89,480,125
India,Karnataka,Dharwad,"Kalabhavan, Dharwad - KSPCB",20-02-2026 08:00:00,15.459706,75.008381,CO,38,101,86
India,Karnataka,Dharwad,"Kalabhavan, Dharwad - KSPCB",20-02-2026 08:00:00,15.459706,75.008381,OZONE,25,26,25
India,Karnataka,Hubballi,"Lingaraj Nagar, Hubballi - KSPCB",20-02-2026 08:00:00,15.3714823,75.1160168,NO2,11,13,12
India,Karnataka,Hubballi,"Lingaraj Nagar, Hubballi - KSPCB",20-02-2026 08:00:00,15.3714823,75.1160168,SO2,2,4,3
India,Karnataka,Kalaburagi,"Mahatma Basaveswar Colony, Kalaburgi - KSPCB",20-02-2026 08:00:00,17.336318,76.847397,SO2,3,7,4
India,Karnataka,Madikeri,"Stuart Hill, Madikeri - KSPCB",20-02-2026 08:00:00,12.415911,75.735050,SO2,7,7,7
India,Karnataka,Bengaluru,"Jayanagar 5th Block, Bengaluru - KSPCB",20-02-2026 08:00:00,12.920984,77.584908,OZONE,10,85,55
India,Karnataka,Bengaluru,"Kasturi Nagar, Bengaluru - KSPCB",20-02-2026 08:00:00,13.003872,77.664217,NO2,NA,NA,NA
India,Karnataka,Bengaluru,"Peenya, Bengaluru - CPCB",20-02-2026 08:00:00,13.0270199,77.494094,PM10,85,443,116
India,Karnataka,Bengaluru,"Peenya, Bengaluru - CPCB",20-02-2026 08:00:00,13.0270199,77.494094,CO,6,74,26
India,Karnataka,Bengaluru,"Peenya, Bengaluru - CPCB",20-02-2026 08:00:00,13.0270199,77.494094,OZONE,25,26,26
India,Karnataka,Bengaluru,"RVCE-Mailasandra, Bengaluru - KSPCB",20-02-2026 08:00:00,12.921418,77.502466,PM10,67,126,102
India,Karnataka,Bengaluru,"RVCE-Mailasandra, Bengaluru - KSPCB",20-02-2026 08:00:00,12.921418,77.502466,NH3,3,4,4
India,Haryana,Palwal,"Shyam Nagar, Palwal - HSPCB",20-02-2026 08:00:00,28.1485564,77.3320667,PM10,52,84,66
India,Haryana,Palwal,"Shyam Nagar, Palwal - HSPCB",20-02-2026 08:00:00,28.1485564,77.3320667,NO2,23,24,24
India,Haryana,Palwal,"Shyam Nagar, Palwal - HSPCB",20-02-2026 08:00:00,28.1485564,77.3320667,OZONE,15,18,16
India,Haryana,Panchgaon,"Amity University, Panchgaon - IITM",20-02-2026 08:00:00,28.3153,76.9143,SO2,2,19,10
India,Madhya Pradesh,Sagar,"Deen Dayal Nagar, Sagar - MPPCB",20-02-2026 08:00:00,23.8640158,78.80289321,PM10,45,131,87
India,Madhya Pradesh,Satna,"Bandhavgar Colony, Satna - Birla Cement",20-02-2026 08:00:00,24.58434363,80.8549414,NO2,12,13,12
India,Madhya Pradesh,Singrauli,"Suryakiran Bhawan NCL, Singrauli - MPPCB",20-02-2026 08:00:00,24.108970,82.645580,PM10,144,478,236
India,Madhya Pradesh,Singrauli,"Suryakiran Bhawan NCL, Singrauli - MPPCB",20-02-2026 08:00:00,24.108970,82.645580,CO,49,111,75
India,Madhya Pradesh,Singrauli,"Suryakiran Bhawan NCL, Singrauli - MPPCB",20-02-2026 08:00:00,24.108970,82.645580,OZONE,1,53,1
India,Madhya Pradesh,Ujjain,"Mahashweta Nagar, Ujjain - MPPCB",20-02-2026 08:00:00,23.1633321,75.800225,NH3,5,11,8
India,Madhya Pradesh,Ujjain,"Mahashweta Nagar, Ujjain - MPPCB",20-02-2026 08:00:00,23.1633321,75.800225,OZONE,55,90,67
India,Maharashtra,Ahmednagar,"Tarakpur, Ahmednagar - MPCB",20-02-2026 08:00:00,19.10122,74.73339,NO2,11,28,21
India,Maharashtra,Ahmednagar,"Tarakpur, Ahmednagar - MPCB",20-02-2026 08:00:00,19.10122,74.73339,NH3,4,7,5
India,Madhya Pradesh,Indore,"Maguda Nagar, Indore - IMC",20-02-2026 08:00:00,22.7524,75.8872,SO2,8,12,11
India,Madhya Pradesh,Indore,"Maguda Nagar, Indore - IMC",20-02-2026 08:00:00,22.7524,75.8872,CO,13,37,26
India,Madhya Pradesh,Indore,"Regional Park, Indore - IMC",20-02-2026 08:00:00,22.6780,75.8559,PM2.5,NA,NA,NA
India,Madhya Pradesh,Indore,"Residency Area, Indore - IMC",20-02-2026 08:00:00,22.7084,75.8815,PM2.5,38,85,50
India,Madhya Pradesh,Jabalpur,"Govindh Bhavan Colony, Jabalpur - JMC",20-02-2026 08:00:00,23.163174,79.973061,PM2.5,35,77,51
India,Madhya Pradesh,Jabalpur,"Gupteshwar, Jabalpur - JMC",20-02-2026 08:00:00,23.142888,79.916147,PM10,36,76,57
India,Madhya Pradesh,Jabalpur,"Gupteshwar, Jabalpur - JMC",20-02-2026 08:00:00,23.142888,79.916147,NO2,16,58,30
India,Madhya Pradesh,Jabalpur,"Gupteshwar, Jabalpur - JMC",20-02-2026 08:00:00,23.142888,79.916147,NH3,2,2,2
India,Madhya Pradesh,Jabalpur,"Marhatal, Jabalpur - MPPCB",20-02-2026 08:00:00,23.168606,79.932247,PM10,95,179,124
India,Maharashtra,Aurangabad,"Rachnakar Colony, Aurangabad - MPCB",20-02-2026 08:00:00,19.863756,75.321188,PM2.5,70,144,88
India,Maharashtra,Aurangabad,"Rachnakar Colony, Aurangabad - MPCB",20-02-2026 08:00:00,19.863756,75.321188,NO2,13,55,25
India,Maharashtra,Belapur,"CBD Belapur, Belapur - MPCB",20-02-2026 08:00:00,19.0243902,73.0406721,NO2,18,28,23
India,Maharashtra,Belapur,"CBD Belapur, Belapur - MPCB",20-02-2026 08:00:00,19.0243902,73.0406721,SO2,14,32,24
India,Maharashtra,Bhiwandi,"Gokul Nagar, Bhiwandi - MPCB",20-02-2026 08:00:00,19.309073,73.057223,PM2.5,74,164,111
India,Maharashtra,Bhiwandi,"Gokul Nagar, Bhiwandi - MPCB",20-02-2026 08:00:00,19.309073,73.057223,PM10,111,165,140
India,Maharashtra,Bhiwandi,"Gokul Nagar, Bhiwandi - MPCB",20-02-2026 08:00:00,19.309073,73.057223,NH3,4,7,5
India,Maharashtra,Bhiwandi,"Gokul Nagar, Bhiwandi - MPCB",20-02-2026 08:00:00,19.309073,73.057223,OZONE,13,90,15
India,Maharashtra,Boisar,"Khaira, Boisar - MPCB",20-02-2026 08:00:00,19.786089,72.757971,SO2,1,71,15
India,Kerala,Kannur,"Thavakkara, Kannur - Kerala PCB",20-02-2026 08:00:00,11.875000,75.373200,SO2,5,7,7
India,Kerala,Kollam,"Polayathode, Kollam - Kerala PCB",20-02-2026 08:00:00,8.8787,76.6073,OZONE,NA,NA,NA
India,Kerala,Thiruvananthapuram,"Plammoodu, Thiruvananthapuram - Kerala PCB",20-02-2026 08:00:00,8.5149093,76.9435879,PM2.5,38,55,43
India,Kerala,Thiruvananthapuram,"Plammoodu, Thiruvananthapuram - Kerala PCB",20-02-2026 08:00:00,8.5149093,76.9435879,NO2,1,46,14
India,Kerala,Thiruvananthapuram,"Plammoodu, Thiruvananthapuram - Kerala PCB",20-02-2026 08:00:00,8.5149093,76.9435879,SO2,1,24,11
India,Kerala,Thrissur,"Corporation Ground, Thrissur - Kerala PCB",20-02-2026 08:00:00,10.532400,76.215900,PM2.5,49,61,53
India,Kerala,Thrissur,"Corporation Ground, Thrissur - Kerala PCB",20-02-2026 08:00:00,10.532400,76.215900,NO2,7,8,8
India,Kerala,Thrissur,"Corporation Ground, Thrissur - Kerala PCB",20-02-2026 08:00:00,10.532400,76.215900,CO,19,26,22
India,Kerala,Thrissur,"Corporation Ground, Thrissur - Kerala PCB",20-02-2026 08:00:00,10.532400,76.215900,OZONE,30,31,30
India,Madhya Pradesh,Gwalior,"City Center, Gwalior - MPPCB",20-02-2026 08:00:00,26.203442,78.193251,SO2,4,10,8
India,Madhya Pradesh,Gwalior,"Deen Dayal Nagar, Gwalior - MPPCB",20-02-2026 08:00:00,26.259242,78.216432,PM10,35,371,119
India,Madhya Pradesh,Gwalior,"Deen Dayal Nagar, Gwalior - MPPCB",20-02-2026 08:00:00,26.259242,78.216432,NO2,7,14,10
India,Madhya Pradesh,Gwalior,"Deen Dayal Nagar, Gwalior - MPPCB",20-02-2026 08:00:00,26.259242,78.216432,CO,18,140,54
India,Madhya Pradesh,Gwalior,"Maharaj Bada, Gwalior - MPPCB",20-02-2026 08:00:00,26.200388,78.147714,NO2,7,36,18
India,Madhya Pradesh,Gwalior,"Maharaj Bada, Gwalior - MPPCB",20-02-2026 08:00:00,26.200388,78.147714,NH3,2,3,2
India,Madhya Pradesh,Indore,"Chhoti Gwaltoli, Indore - MPPCB",20-02-2026 08:00:00,22.4310,75.5213,PM2.5,77,158,96
India,Madhya Pradesh,Indore,"Chhoti Gwaltoli, Indore - MPPCB",20-02-2026 08:00:00,22.4310,75.5213,CO,31,102,35
India,Madhya Pradesh,Indore,"Chhoti Gwaltoli, Indore - MPPCB",20-02-2026 08:00:00,22.4310,75.5213,OZONE,13,73,19
India,Maharashtra,Chandrapur,"MIDC Khutala, Chandrapur - MPCB",20-02-2026 08:00:00,19.9775302,79.2337086,PM10,93,227,137
India,Maharashtra,Chandrapur,"MIDC Khutala, Chandrapur - MPCB",20-02-2026 08:00:00,19.9775302,79.2337086,NH3,1,3,2
India,Maharashtra,Chandrapur,"MIDC Khutala, Chandrapur - MPCB",20-02-2026 08:00:00,19.9775302,79.2337086,SO2,8,9,9
India,Maharashtra,Dhule,"Deopur, Dhule - MPCB",20-02-2026 08:00:00,20.918946,74.776388,PM10,79,118,95
India,Maharashtra,Dhule,"Deopur, Dhule - MPCB",20-02-2026 08:00:00,20.918946,74.776388,OZONE,18,61,35
India,Maharashtra,Jalgaon,"Prabhat Colony, Jalgaon - MPCB",20-02-2026 08:00:00,21.001264,75.565602,PM2.5,60,500,104
India,Maharashtra,Jalgaon,"Prabhat Colony, Jalgaon - MPCB",20-02-2026 08:00:00,21.001264,75.565602,CO,16,44,22
India,Maharashtra,Jalgaon,"Prabhat Colony, Jalgaon - MPCB",20-02-2026 08:00:00,21.001264,75.565602,OZONE,29,83,41
India,Maharashtra,Jalna,"Old MIDC, Jalna - MPCB",20-02-2026 08:00:00,19.854616,75.905894,NH3,3,5,4
India,Maharashtra,Akola,"Ramdaspeth, Akola - MPCB",20-02-2026 08:00:00,20.719516,77.000253,PM2.5,46,58,53
India,Maharashtra,Akola,"Ramdaspeth, Akola - MPCB",20-02-2026 08:00:00,20.719516,77.000253,CO,16,20,18
India,Maharashtra,Akola,"Ramdaspeth, Akola - MPCB",20-02-2026 08:00:00,20.719516,77.000253,OZONE,12,70,22
India,Maharashtra,Amravati,"Shivneri Colony, Amravati - MPCB",20-02-2026 08:00:00,20.9402359,77.7895248,PM10,73,116,90
India,Maharashtra,Amravati,"Shivneri Colony, Amravati - MPCB",20-02-2026 08:00:00,20.9402359,77.7895248,NO2,6,32,14
India,Maharashtra,Amravati,"Shivneri Colony, Amravati - MPCB",20-02-2026 08:00:00,20.9402359,77.7895248,SO2,10,19,14
India,Maharashtra,Amravati,"Shri Shivaji Science College, Amravati - MPCB",20-02-2026 08:00:00,20.939198,77.765701,NO2,7,40,15
India,Maharashtra,Aurangabad,"MIDC Chilkalthana, Aurangabad - MPCB",20-02-2026 08:00:00,19.875620,75.387310,NO2,23,56,36
India,Madhya Pradesh,Jabalpur,"Marhatal, Jabalpur - MPPCB",20-02-2026 08:00:00,23.168606,79.932247,SO2,5,12,8
India,Madhya Pradesh,Jabalpur,"Marhatal, Jabalpur - MPPCB",20-02-2026 08:00:00,23.168606,79.932247,CO,18,72,28
India,Madhya Pradesh,Katni,"Gole Bazar, Katni - MPPCB",20-02-2026 08:00:00,23.50016,80.23284,NO2,17,35,27
India,Madhya Pradesh,Katni,"Gole Bazar, Katni - MPPCB",20-02-2026 08:00:00,23.50016,80.23284,SO2,4,58,38
India,Madhya Pradesh,Mandideep,"Sector-D Industrial Area, Mandideep - MPPCB",20-02-2026 08:00:00,23.108440,77.511428,NO2,61,141,91
India,Madhya Pradesh,Bhopal,"Idgah Hills, Bhopal - MPPCB",20-02-2026 08:00:00,23.264759,77.381568,NO2,18,32,24
India,Madhya Pradesh,Bhopal,"T T Nagar, Bhopal - MPPCB",20-02-2026 08:00:00,23.233584,77.400574,PM10,75,122,93
India,Madhya Pradesh,Bhopal,"T T Nagar, Bhopal - MPPCB",20-02-2026 08:00:00,23.233584,77.400574,NO2,15,37,23
India,Madhya Pradesh,Damoh,"Shrivastav Colony, Damoh - MPPCB",20-02-2026 08:00:00,23.81748678,79.446246,CO,10,21,16
India,Maharashtra,Mumbai,"Borivali East, Mumbai - IITM",20-02-2026 08:00:00,19.23241,72.86895,OZONE,16,81,32
India,Maharashtra,Mumbai,"Borivali East, Mumbai - MPCB",20-02-2026 08:00:00,19.2243333,72.8658113,NO2,NA,NA,NA
India,Maharashtra,Mumbai,"Borivali East, Mumbai - MPCB",20-02-2026 08:00:00,19.2243333,72.8658113,NH3,NA,NA,NA
India,Maharashtra,Mumbai,"Byculla, Mumbai - BMC",20-02-2026 08:00:00,18.9767,72.8380,PM2.5,7,54,34
India,Maharashtra,Mumbai,"Byculla, Mumbai - BMC",20-02-2026 08:00:00,18.9767,72.8380,PM10,36,80,68
India,Maharashtra,Mumbai,"Byculla, Mumbai - BMC",20-02-2026 08:00:00,18.9767,72.8380,NH3,6,17,10
India,Maharashtra,Mumbai,"Byculla, Mumbai - BMC",20-02-2026 08:00:00,18.9767,72.8380,SO2,2,5,2
India,Maharashtra,Mumbai,"Chakala-Andheri East, Mumbai - IITM",20-02-2026 08:00:00,19.11074,72.86084,SO2,NA,NA,NA
India,Maharashtra,Mumbai,"Chakala-Andheri East, Mumbai - IITM",20-02-2026 08:00:00,19.11074,72.86084,CO,2,66,40
India,Maharashtra,Mumbai,"Chembur, Mumbai - MPCB",20-02-2026 08:00:00,19.0364585,72.8954371,PM10,43,114,97
India,Maharashtra,Mumbai,"Chhatrapati Shivaji Intl. Airport (T2), Mumbai - MPCB",20-02-2026 08:00:00,19.10078,72.87462,SO2,20,48,28
India,Maharashtra,Mumbai,"Mindspace-Malad West, Mumbai - MPCB",20-02-2026 08:00:00,19.1878657,72.8304069,OZONE,6,36,14
India,Maharashtra,Mumbai,"Mulund West, Mumbai - MPCB",20-02-2026 08:00:00,19.1750,72.9419,NO2,19,23,21
India,Maharashtra,Mumbai,"Mulund West, Mumbai - MPCB",20-02-2026 08:00:00,19.1750,72.9419,NH3,3,4,4
India,Maharashtra,Mumbai,"Mulund West, Mumbai - MPCB",20-02-2026 08:00:00,19.1750,72.9419,SO2,NA,NA,NA
India,Maharashtra,Mumbai,"Navy Nagar-Colaba, Mumbai - IITM",20-02-2026 08:00:00,18.897756,72.813320,OZONE,29,82,63
India,Maharashtra,Mumbai,"Shivaji Nagar, Mumbai - BMC",20-02-2026 08:00:00,19.060498,72.923356,PM2.5,31,101,72
India,Maharashtra,Mumbai,"Siddharth Nagar-Worli, Mumbai - IITM",20-02-2026 08:00:00,19.000083,72.813993,PM2.5,NA,NA,NA
India,Maharashtra,Mumbai,"Siddharth Nagar-Worli, Mumbai - IITM",20-02-2026 08:00:00,19.000083,72.813993,NO2,NA,NA,NA
India,Maharashtra,Mumbai,"Siddharth Nagar-Worli, Mumbai - IITM",20-02-2026 08:00:00,19.000083,72.813993,OZONE,NA,NA,NA
India,Maharashtra,Mumbai,"Sion, Mumbai - MPCB",20-02-2026 08:00:00,19.047000,72.874600,NO2,33,54,36
India,Maharashtra,Nagpur,"Ram Nagar, Nagpur - MPCB",20-02-2026 08:00:00,21.143383,79.048912,CO,18,71,37
India,Maharashtra,Nanded,"Sneh Nagar, Nanded - MPCB",20-02-2026 08:00:00,19.173852,77.296291,SO2,6,8,7
India,Maharashtra,Nanded,"Sneh Nagar, Nanded - MPCB",20-02-2026 08:00:00,19.173852,77.296291,CO,16,30,21
India,Maharashtra,Nashik,"Gangapur Road, Nashik - MPCB",20-02-2026 08:00:00,20.0073285,73.7762427,OZONE,11,47,47
India,Maharashtra,Nashik,"Hirawadi, Nashik - MPCB",20-02-2026 08:00:00,20.021503,73.813844,PM2.5,76,98,85
India,Maharashtra,Nashik,"Hirawadi, Nashik - MPCB",20-02-2026 08:00:00,20.021503,73.813844,NH3,1,4,1
India,Maharashtra,Nashik,"MIDC Ambad, Nashik - MPCB",20-02-2026 08:00:00,19.950220,73.731480,PM10,101,169,124
India,Maharashtra,Nashik,"Pandav Nagari, Nashik - MPCB",20-02-2026 08:00:00,19.9591346,73.7788008,PM10,81,149,105
India,Maharashtra,Mumbai,"Sion, Mumbai - MPCB",20-02-2026 08:00:00,19.047000,72.874600,SO2,1,27,2
India,Maharashtra,Mumbai,"Vile Parle West, Mumbai - MPCB",20-02-2026 08:00:00,19.10861,72.83622,NH3,6,6,6
India,Maharashtra,Mumbai,"Worli, Mumbai -MPCB",20-02-2026 08:00:00,18.9942180,72.8158167,CO,6,36,23
India,Maharashtra,Nagpur,"Ambazari, Nagpur - MPCB",20-02-2026 08:00:00,21.121801,79.04952,OZONE,9,94,28
India,Maharashtra,Nagpur,"Mahal, Nagpur - MPCB",20-02-2026 08:00:00,21.14472,79.107595,PM2.5,97,305,191
India,Maharashtra,Nagpur,"Mahal, Nagpur - MPCB",20-02-2026 08:00:00,21.14472,79.107595,SO2,23,115,63
India,Maharashtra,Nagpur,"Opp GPO Civil Lines, Nagpur - MPCB",20-02-2026 08:00:00,21.152875,79.0517531,PM10,92,179,122
India,Maharashtra,Nagpur,"Opp GPO Civil Lines, Nagpur - MPCB",20-02-2026 08:00:00,21.152875,79.0517531,NH3,6,12,9
India,Maharashtra,Mumbai,"Colaba, Mumbai - MPCB",20-02-2026 08:00:00,18.910000,72.820000,SO2,NA,NA,NA
India,Maharashtra,Mumbai,"Colaba, Mumbai - MPCB",20-02-2026 08:00:00,18.910000,72.820000,CO,60,64,64
India,Maharashtra,Mumbai,"Deonar, Mumbai - IITM",20-02-2026 08:00:00,19.04946,72.9230,PM2.5,1,145,84
India,Maharashtra,Mumbai,"Ghatkopar, Mumbai - BMC",20-02-2026 08:00:00,19.083694,72.920967,PM10,73,152,126
India,Maharashtra,Mumbai,"Ghatkopar, Mumbai - BMC",20-02-2026 08:00:00,19.083694,72.920967,OZONE,3,65,4
India,Maharashtra,Mumbai,"Kandivali East, Mumbai - MPCB",20-02-2026 08:00:00,19.205800,72.868200,CO,19,20,20
India,Maharashtra,Mumbai,"Kandivali West, Mumbai - BMC",20-02-2026 08:00:00,19.215859,72.831718,NH3,1,2,2
India,Maharashtra,Mumbai,"Kandivali West, Mumbai - BMC",20-02-2026 08:00:00,19.215859,72.831718,SO2,5,15,10
India,Maharashtra,Mumbai,"Kandivali West, Mumbai - BMC",20-02-2026 08:00:00,19.215859,72.831718,CO,36,66,57
India,Maharashtra,Nashik,"Pandav Nagari, Nashik - MPCB",20-02-2026 08:00:00,19.9591346,73.7788008,OZONE,18,78,30
India,Maharashtra,Navi Mumbai,"Kopripada-Vashi, Navi Mumbai - MPCB",20-02-2026 08:00:00,19.090337,73.014232,NH3,1,5,4
India,Maharashtra,Navi Mumbai,"Kopripada-Vashi, Navi Mumbai - MPCB",20-02-2026 08:00:00,19.090337,73.014232,OZONE,1,77,2
India,Maharashtra,Navi Mumbai,"Mahape, Navi Mumbai - MPCB",20-02-2026 08:00:00,19.1135051,73.008978,SO2,19,21,20
India,Maharashtra,Navi Mumbai,"Nerul, Navi Mumbai - MPCB",20-02-2026 08:00:00,19.008751,73.016620,PM10,NA,NA,NA
India,Maharashtra,Navi Mumbai,"Sanpada, Navi Mumbai - MPCB",20-02-2026 08:00:00,19.0575752,73.0151367,PM10,109,132,122
India,Maharashtra,Navi Mumbai,"Sector-2E Kalamboli, Navi Mumbai - MPCB",20-02-2026 08:00:00,19.02579,73.10297,NH3,6,12,9
India,Maharashtra,Mahad,"Kamble Tarf Birwadi, Mahad - MPCB",20-02-2026 08:00:00,18.1023399,73.4783687,SO2,1,33,12
India,Maharashtra,Malegaon,"Mahesh Nagar, Malegaon - MPCB",20-02-2026 08:00:00,20.555712,74.529236,PM2.5,88,179,113
India,Maharashtra,Malegaon,"Mahesh Nagar, Malegaon - MPCB",20-02-2026 08:00:00,20.555712,74.529236,SO2,1,27,19
India,Maharashtra,Mira-Bhayandar,"Bhayandar West, Mira-Bhayandar - MPCB",20-02-2026 08:00:00,19.296481,72.840923,CO,22,72,50
India,Maharashtra,Mumbai,"Bandra Kurla Complex, Mumbai - IITM",20-02-2026 08:00:00,19.053536,72.84643,OZONE,2,51,11
India,Maharashtra,Mumbai,"Bandra Kurla Complex, Mumbai - MPCB",20-02-2026 08:00:00,19.065931,72.862131,SO2,5,10,7
India,Maharashtra,Mumbai,"Bandra Kurla Complex, Mumbai - MPCB",20-02-2026 08:00:00,19.065931,72.862131,CO,9,13,11
India,Maharashtra,Mumbai,"Kherwadi_Bandra East, Mumbai - MPCB",20-02-2026 08:00:00,19.0632143,72.8456324,NH3,8,14,10
India,Maharashtra,Mumbai,"Khindipada-Bhandup West, Mumbai - IITM",20-02-2026 08:00:00,19.1653323,72.922099,PM10,7,129,92
India,Maharashtra,Mumbai,"Khindipada-Bhandup West, Mumbai - IITM",20-02-2026 08:00:00,19.1653323,72.922099,CO,9,50,43
India,Maharashtra,Mumbai,"Malad West, Mumbai - IITM",20-02-2026 08:00:00,19.19709,72.82204,PM10,NA,NA,NA
India,Maharashtra,Mumbai,"Malad West, Mumbai - IITM",20-02-2026 08:00:00,19.19709,72.82204,CO,NA,NA,NA
India,Maharashtra,Mumbai,"Mazgaon, Mumbai - IITM",20-02-2026 08:00:00,18.96702,72.84214,PM2.5,3,123,76
India,Maharashtra,Mumbai,"Mazgaon, Mumbai - IITM",20-02-2026 08:00:00,18.96702,72.84214,CO,29,84,84
India,Maharashtra,Mumbai,"Mindspace-Malad West, Mumbai - MPCB",20-02-2026 08:00:00,19.1878657,72.8304069,PM2.5,63,138,104
India,Maharashtra,Kalyan,"Pimpleshwar Mandir, Kalyan - MPCB",20-02-2026 08:00:00,19.192056,72.9585188,NO2,NA,NA,NA
India,Maharashtra,Kalyan,"Pimpleshwar Mandir, Kalyan - MPCB",20-02-2026 08:00:00,19.192056,72.9585188,NH3,NA,NA,NA
India,Maharashtra,Kalyan,"Pimpleshwar Mandir, Kalyan - MPCB",20-02-2026 08:00:00,19.192056,72.9585188,OZONE,1,25,4
India,Maharashtra,Kolhapur,"Shivaji University, Kolhapur - MPCB",20-02-2026 08:00:00,16.6870449,74.2505872,CO,20,48,26
India,Maharashtra,Kolhapur,"Shivaji University, Kolhapur - MPCB",20-02-2026 08:00:00,16.6870449,74.2505872,OZONE,1,66,5
India,Maharashtra,Kolhapur,"Sinchan Bhavan, Kolhapur - MPCB",20-02-2026 08:00:00,16.7143745,74.2426398,SO2,1,5,3
India,Maharashtra,Kolhapur,"Sinchan Bhavan, Kolhapur - MPCB",20-02-2026 08:00:00,16.7143745,74.2426398,OZONE,1,40,4
India,Maharashtra,Latur,"Sawe Wadi, Latur - MPCB",20-02-2026 08:00:00,18.39963,76.57452,SO2,1,8,6
India,Maharashtra,Navi Mumbai,"Sector-2E Kalamboli, Navi Mumbai - MPCB",20-02-2026 08:00:00,19.02579,73.10297,OZONE,1,62,2
India,Maharashtra,Navi Mumbai,"Tondare-Taloja, Navi Mumbai - MPCB",20-02-2026 08:00:00,19.0630,73.1209,NH3,7,9,8
India,Maharashtra,Navi Mumbai,"Tondare-Taloja, Navi Mumbai - MPCB",20-02-2026 08:00:00,19.0630,73.1209,SO2,8,11,9
India,Maharashtra,Parbhani,"Masoom Colony, Parbhani - MPCB",20-02-2026 08:00:00,19.265594,76.761463,NO2,13,15,14
India,Maharashtra,Parbhani,"Masoom Colony, Parbhani - MPCB",20-02-2026 08:00:00,19.265594,76.761463,NH3,3,5,4
India,Maharashtra,Pimpri-Chinchwad,"Gavalinagar, Pimpri Chinchwad - MPCB",20-02-2026 08:00:00,18.63673,73.82487,PM10,107,134,119
India,Maharashtra,Pimpri-Chinchwad,"Gavalinagar, Pimpri Chinchwad - MPCB",20-02-2026 08:00:00,18.63673,73.82487,CO,4,72,47
India,Maharashtra,Pimpri-Chinchwad,"Park Street Wakad, Pimpri Chinchwad - MPCB",20-02-2026 08:00:00,18.59051,73.77946,PM2.5,NA,NA,NA
India,Maharashtra,Pimpri-Chinchwad,"Park Street Wakad, Pimpri Chinchwad - MPCB",20-02-2026 08:00:00,18.59051,73.77946,PM10,NA,NA,NA
India,Maharashtra,Pimpri-Chinchwad,"Park Street Wakad, Pimpri Chinchwad - MPCB",20-02-2026 08:00:00,18.59051,73.77946,NO2,NA,NA,NA
India,Maharashtra,Pimpri-Chinchwad,"Savta Mali Nagar, Pimpri-Chinchwad - IITM",20-02-2026 08:00:00,18.614767,73.799516,PM2.5,97,318,226
India,Maharashtra,Pimpri-Chinchwad,"Savta Mali Nagar, Pimpri-Chinchwad - IITM",20-02-2026 08:00:00,18.614767,73.799516,PM10,117,183,147
India,Maharashtra,Pimpri-Chinchwad,"Savta Mali Nagar, Pimpri-Chinchwad - IITM",20-02-2026 08:00:00,18.614767,73.799516,CO,23,99,80
India,Maharashtra,Pune,"Panchawati_Pashan, Pune - IITM",20-02-2026 08:00:00,18.536457,73.805454,CO,5,34,20
India,Maharashtra,Pune,"Panchawati_Pashan, Pune - IITM",20-02-2026 08:00:00,18.536457,73.805454,OZONE,2,43,4
India,Maharashtra,Pune,"Revenue Colony-Shivajinagar, Pune - IITM",20-02-2026 08:00:00,18.530085,73.849598,PM2.5,81,223,130
India,Maharashtra,Pune,"Savitribai Phule Pune University, Pune - MPCB",20-02-2026 08:00:00,18.547056,73.826908,NO2,12,41,24
India,Maharashtra,Pune,"Savitribai Phule Pune University, Pune - MPCB",20-02-2026 08:00:00,18.547056,73.826908,OZONE,NA,NA,NA
India,Maharashtra,Pune,"Transport Nagar-Nigdi, Pune - IITM",20-02-2026 08:00:00,18.664282,73.763966,PM2.5,95,200,142
India,Maharashtra,Sangli,"Vijay Nagar, Sangli - MPCB",20-02-2026 08:00:00, 16.5038,74.3623,NO2,6,57,19
India,Maharashtra,Solapur,"Dnyaneshwar Nagar, Solapur - MPCB",20-02-2026 08:00:00,17.6336264,75.9132495,SO2,2,9,5
India,Maharashtra,Solapur,"Ratandeep Housing Society, Solapur - MPCB",20-02-2026 08:00:00,17.65439,75.90649,PM2.5,15,40,29
India,Meghalaya,Shillong,"Lumpyngngad, Shillong - Meghalaya PCB",20-02-2026 08:00:00,25.5586,91.8985,PM2.5,2,317,24
India,Meghalaya,Shillong,"Lumpyngngad, Shillong - Meghalaya PCB",20-02-2026 08:00:00,25.5586,91.8985,CO,8,49,12
India,Nagaland,Kohima,"PWD Junction, Kohima - NPCB",20-02-2026 08:00:00,25.6635413,94.0989878,PM2.5,25,81,40
India,Nagaland,Kohima,"PWD Junction, Kohima - NPCB",20-02-2026 08:00:00,25.6635413,94.0989878,NO2,3,4,4
India,Nagaland,Kohima,"PWD Junction, Kohima - NPCB",20-02-2026 08:00:00,25.6635413,94.0989878,SO2,77,81,78
India,Odisha,Angul,"Hakimapada, Angul - OSPCB",20-02-2026 08:00:00,20.832874,85.104082,PM10,NA,NA,NA
India,Odisha,Angul,"Hakimapada, Angul - OSPCB",20-02-2026 08:00:00,20.832874,85.104082,NH3,NA,NA,NA
India,Odisha,Angul,"Hakimapada, Angul - OSPCB",20-02-2026 08:00:00,20.832874,85.104082,CO,NA,NA,NA
India,Odisha,Balasore,"Kalidaspur, Balasore - OSPCB",20-02-2026 08:00:00,21.51161,86.89088,CO,19,60,50
India,Odisha,Barbil,"Forest Office, Barbil - OSPCB",20-02-2026 08:00:00,22.1166054,85.3945546,PM2.5,57,324,152
India,Odisha,Rourkela,"Raghunathpali, Rourkela - OSPCB",20-02-2026 08:00:00,22.220833,84.809444,PM2.5,97,310,187
India,Odisha,Rourkela,"Raghunathpali, Rourkela - OSPCB",20-02-2026 08:00:00,22.220833,84.809444,PM10,93,410,144
India,Odisha,Rourkela,"Raghunathpali, Rourkela - OSPCB",20-02-2026 08:00:00,22.220833,84.809444,CO,44,121,67
India,Odisha,Rourkela,"Raghunathpali, Rourkela - OSPCB",20-02-2026 08:00:00,22.220833,84.809444,OZONE,4,18,5
India,Odisha,Rourkela,"Sector-2, Rourkela - OSPCB",20-02-2026 08:00:00,22.24500000,84.88111111,PM2.5,37,66,51
India,Odisha,Rourkela,"Sector-2, Rourkela - OSPCB",20-02-2026 08:00:00,22.24500000,84.88111111,CO,34,55,37
India,Odisha,Suakati,"OMC Colony, Suakati - OSPCB",20-02-2026 08:00:00,21.606865,85.510538,OZONE,NA,NA,NA
India,Odisha,Talcher,"Talcher Coalfields,Talcher - OSPCB",20-02-2026 08:00:00,20.9360711,85.1707021,NH3,6,8,7
India,Maharashtra,Thane,"Kasarvadavali, Thane - MPCB",20-02-2026 08:00:00,19.26777,72.97182,SO2,1,16,7
India,Maharashtra,Thane,"Upvan Fort, Thane - MPCB",20-02-2026 08:00:00,19.222279,72.957979,OZONE,1,70,10
India,Maharashtra,Ulhasnagar,"Sidhi Vinayak Nagar, Ulhasnagar - MPCB",20-02-2026 08:00:00,19.235581,73.159121,SO2,5,18,10
India,Maharashtra,Ulhasnagar,"Sidhi Vinayak Nagar, Ulhasnagar - MPCB",20-02-2026 08:00:00,19.235581,73.159121,OZONE,11,75,13
India,Maharashtra,Virar,"Bolinj, Virar - MPCB",20-02-2026 08:00:00,19.4458210,72.7988231,NO2,10,80,28
India,Odisha,Cuttack,"CDA Area, Cuttack - OSPCB",20-02-2026 08:00:00,20.48891     ,85.84768     ,PM2.5,82,314,211
India,Odisha,Nayagarh,"Dabuna, Nayagarh - OSPCB",20-02-2026 08:00:00,21.847279,85.416905,PM10,NA,NA,NA
India,Odisha,Rairangpur,"Divisional Forest Office, Rairangpur - OSPCB",20-02-2026 08:00:00,22.265816,86.174829,PM2.5,50,132,80
India,Odisha,Rairangpur,"Divisional Forest Office, Rairangpur - OSPCB",20-02-2026 08:00:00,22.265816,86.174829,NO2,11,12,11
India,Odisha,Rairangpur,"Divisional Forest Office, Rairangpur - OSPCB",20-02-2026 08:00:00,22.265816,86.174829,NH3,1,1,1
India,Odisha,Bhubaneswar,"Patia, Bhubaneswar - OSPCB",20-02-2026 08:00:00,20.34652,85.81630,NO2,12,49,25
India,Odisha,Bhubaneswar,"Patia, Bhubaneswar - OSPCB",20-02-2026 08:00:00,20.34652,85.81630,CO,64,110,78
India,Odisha,Bileipada,"Tata Township, Bileipada - OSPCB",20-02-2026 08:00:00,22.06156703,85.47409613,CO,31,88,47
India,Odisha,Brajrajnagar,"GM Office, Brajrajnagar - OSPCB",20-02-2026 08:00:00,21.8004996,83.8396977,NH3,4,32,6
India,Maharashtra,Pimpri-Chinchwad,"Thergaon, Pimpri Chinchwad - MPCB",20-02-2026 08:00:00,18.616318,73.765797,OZONE,9,64,18
India,Maharashtra,Pune,"Bhosari, Pune - IITM",20-02-2026 08:00:00,18.640051,73.848956,OZONE,5,61,30
India,Maharashtra,Pune,"Bhumkar Nagar, Pune - IITM",20-02-2026 08:00:00,18.605770,73.749976,NO2,46,113,58
India,Maharashtra,Pune,"Hadapsar, Pune - IITM",20-02-2026 08:00:00,18.501793,73.927532,CO,14,88,50
India,Maharashtra,Pune,"Katraj Dairy, Pune - MPCB",20-02-2026 08:00:00,18.454450,73.854155,CO,18,44,36
India,Maharashtra,Pune,"Mhada Colony, Pune - IITM",20-02-2026 08:00:00,18.573040,73.927715,PM10,149,249,179
India,Rajasthan,Alwar,"Moti Doongri, Alwar - RSPCB",20-02-2026 08:00:00,27.554793,76.611536,SO2,7,36,16
India,Rajasthan,Banswara,"Rati Talai, Banswara - RSPCB",20-02-2026 08:00:00,23.555190,74.440010,PM2.5,48,123,67
India,Rajasthan,Banswara,"Rati Talai, Banswara - RSPCB",20-02-2026 08:00:00,23.555190,74.440010,PM10,45,103,69
India,Rajasthan,Banswara,"Rati Talai, Banswara - RSPCB",20-02-2026 08:00:00,23.555190,74.440010,NH3,5,9,6
India,Rajasthan,Banswara,"Rati Talai, Banswara - RSPCB",20-02-2026 08:00:00,23.555190,74.440010,SO2,1,3,2
India,Rajasthan,Banswara,"Rati Talai, Banswara - RSPCB",20-02-2026 08:00:00,23.555190,74.440010,CO,20,62,23
India,Rajasthan,Baran,"Bamboliya, Baran - RSPCB",20-02-2026 08:00:00,25.106006,76.469948,NH3,4,6,5
India,Rajasthan,Baran,"Bamboliya, Baran - RSPCB",20-02-2026 08:00:00,25.106006,76.469948,SO2,3,16,9
India,Rajasthan,Baran,"Bamboliya, Baran - RSPCB",20-02-2026 08:00:00,25.106006,76.469948,OZONE,21,93,31
India,Rajasthan,Barmer,"Railway Colony, Barmer - RSPCB",20-02-2026 08:00:00,25.747299,71.393989,NH3,5,8,6
India,Rajasthan,Barmer,"Railway Colony, Barmer - RSPCB",20-02-2026 08:00:00,25.747299,71.393989,SO2,2,7,4
India,Rajasthan,Barmer,"Railway Colony, Barmer - RSPCB",20-02-2026 08:00:00,25.747299,71.393989,CO,74,88,78
India,Rajasthan,Bharatpur,"Krishna Nagar, Bharatpur - RSPCB",20-02-2026 08:00:00,27.215415,77.50873,PM10,29,146,75
India,Rajasthan,Kota,"Dhanmandi, Kota - RSPCB",20-02-2026 08:00:00,25.164090,75.858137,PM10,68,183,108
India,Rajasthan,Kota,"Dhanmandi, Kota - RSPCB",20-02-2026 08:00:00,25.164090,75.858137,OZONE,6,96,17
India,Rajasthan,Kota,"Nayapura, Kota - RSPCB",20-02-2026 08:00:00,25.196024,75.855668,NO2,13,91,36
India,Rajasthan,Kota,"Nayapura, Kota - RSPCB",20-02-2026 08:00:00,25.196024,75.855668,SO2,3,9,5
India,Rajasthan,Kota,"Shrinath Puram, Kota - RSPCB",20-02-2026 08:00:00,25.14389,75.821256,SO2,2,15,8
India,Rajasthan,Kota,"Shrinath Puram, Kota - RSPCB",20-02-2026 08:00:00,25.14389,75.821256,CO,22,101,51
India,Rajasthan,Nagaur,"Karni Colony, Nagaur - RSPCB",20-02-2026 08:00:00,27.213494,73.734444,PM10,68,262,107
India,Rajasthan,Nagaur,"Karni Colony, Nagaur - RSPCB",20-02-2026 08:00:00,27.213494,73.734444,NO2,14,52,20
India,Rajasthan,Nagaur,"Karni Colony, Nagaur - RSPCB",20-02-2026 08:00:00,27.213494,73.734444,NH3,7,10,8
India,Rajasthan,Nagaur,"Karni Colony, Nagaur - RSPCB",20-02-2026 08:00:00,27.213494,73.734444,OZONE,41,100,57
India,Rajasthan,Pali,"Indira Colony Vistar, Pali - RSPCB",20-02-2026 08:00:00,25.771061, 73.340227,OZONE,10,67,22
India,Punjab,Ludhiana,"Punjab Agricultural University, Ludhiana - PPCB",20-02-2026 08:00:00,30.9028,75.8086,SO2,16,46,30
India,Punjab,Mandi Gobindgarh,"RIMT University, Mandi Gobindgarh - PPCB",20-02-2026 08:00:00,30.649961,76.331442,NO2,23,24,24
India,Punjab,Patiala,"Model Town, Patiala - PPCB",20-02-2026 08:00:00,30.349388,76.366642,PM2.5,32,78,52
India,Punjab,Patiala,"Model Town, Patiala - PPCB",20-02-2026 08:00:00,30.349388,76.366642,PM10,51,136,82
India,Punjab,Rupnagar,"Ratanpura, Rupnagar - Ambuja Cements",20-02-2026 08:00:00,31.0325454,76.5623046,PM2.5,16,302,91
India,Punjab,Rupnagar,"Ratanpura, Rupnagar - Ambuja Cements",20-02-2026 08:00:00,31.0325454,76.5623046,SO2,12,16,15
India,Rajasthan,Ajmer,"Civil Lines,  Ajmer - RSPCB",20-02-2026 08:00:00,26.470859,74.646594,PM2.5,62,85,72
India,Rajasthan,Ajmer,"Civil Lines,  Ajmer - RSPCB",20-02-2026 08:00:00,26.470859,74.646594,PM10,50,101,74
India,Rajasthan,Ajmer,"Civil Lines,  Ajmer - RSPCB",20-02-2026 08:00:00,26.470859,74.646594,OZONE,9,37,14
India,Rajasthan,Chittorgarh,"Shastri Nagar, Chittorgarh - RSPCB",20-02-2026 08:00:00,24.892047,74.623527,OZONE,12,96,20
India,Rajasthan,Churu,"Subash Chowk, Churu - RSPCB",20-02-2026 08:00:00,28.296139,74.961696,PM10,67,216,112
India,Rajasthan,Dausa,"Khatikan Mohalla, Dausa - RSPCB",20-02-2026 08:00:00,26.895552,76.334753,NH3,10,20,14
India,Rajasthan,Dholpur,"Raja Ganj, Dholpur - RSPCB",20-02-2026 08:00:00,26.699557,77.898881,PM2.5,30,223,81
India,Rajasthan,Dholpur,"Raja Ganj, Dholpur - RSPCB",20-02-2026 08:00:00,26.699557,77.898881,NO2,18,63,32
India,Rajasthan,Dungarpur,"Bhoiwada, Dungarpur - RSPCB",20-02-2026 08:00:00,23.837789,73.714926,CO,32,50,35
India,Rajasthan,Hanumangarh,"Housing Board, Hanumangarh - RSPCB",20-02-2026 08:00:00,29.610750,74.283608,PM10,49,151,99
India,Rajasthan,Hanumangarh,"Housing Board, Hanumangarh - RSPCB",20-02-2026 08:00:00,29.610750,74.283608,NO2,15,94,45
India,Rajasthan,Bhilwara,"Pratap Nagar, Bhilwara - RSPCB",20-02-2026 08:00:00,25.339605,74.618883,SO2,7,33,12
India,Rajasthan,Bhiwadi,"RIICO Ind. Area III, Bhiwadi - RSPCB",20-02-2026 08:00:00,28.194909,76.862296,CO,2,120,31
India,Rajasthan,Bhiwadi,"Vasundhara Nagar_UIT, Bhiwadi - RSPCB",20-02-2026 08:00:00,28.207266,76.829265,PM2.5,47,308,222
India,Rajasthan,Bhiwadi,"Vasundhara Nagar_UIT, Bhiwadi - RSPCB",20-02-2026 08:00:00,28.207266,76.829265,OZONE,2,96,2
India,Rajasthan,Bikaner,"MM Ground, Bikaner - RSPCB",20-02-2026 08:00:00,28.018792,73.292658,OZONE,52,138,74
India,Rajasthan,Chittorgarh,"Shastri Nagar, Chittorgarh - RSPCB",20-02-2026 08:00:00,24.892047,74.623527,PM10,49,132,94
India,Rajasthan,Chittorgarh,"Shastri Nagar, Chittorgarh - RSPCB",20-02-2026 08:00:00,24.892047,74.623527,NO2,12,62,28
India,Rajasthan,Chittorgarh,"Shastri Nagar, Chittorgarh - RSPCB",20-02-2026 08:00:00,24.892047,74.623527,CO,17,52,42
India,Rajasthan,Jaipur,"Mansarovar Sector-12, Jaipur - RSPCB",20-02-2026 08:00:00,26.843698,75.766894,PM2.5,47,237,86
India,Rajasthan,Jaipur,"Mansarovar Sector-12, Jaipur - RSPCB",20-02-2026 08:00:00,26.843698,75.766894,NO2,53,66,59
India,Rajasthan,Jaipur,"Mansarovar Sector-12, Jaipur - RSPCB",20-02-2026 08:00:00,26.843698,75.766894,SO2,1,5,2
India,Rajasthan,Jaipur,"Mansarovar Sector-12, Jaipur - RSPCB",20-02-2026 08:00:00,26.843698,75.766894,CO,14,92,21
India,Rajasthan,Jaipur,"Police Commissionerate, Jaipur - RSPCB",20-02-2026 08:00:00,26.9164092,75.7994901,NH3,7,14,10
India,Rajasthan,Jaipur,"Police Commissionerate, Jaipur - RSPCB",20-02-2026 08:00:00,26.9164092,75.7994901,OZONE,17,62,20
India,Rajasthan,Jaipur,"Sector-2 Murlipura, Jaipur - RSPCB",20-02-2026 08:00:00,26.960669,75.771817,PM2.5,27,86,49
India,Rajasthan,Jaipur,"Sector-2 Murlipura, Jaipur - RSPCB",20-02-2026 08:00:00,26.960669,75.771817,NO2,10,89,33
India,Punjab,Amritsar,"Golden Temple, Amritsar - PPCB",20-02-2026 08:00:00,31.620000,74.876512,PM10,64,112,86
India,Punjab,Amritsar,"Golden Temple, Amritsar - PPCB",20-02-2026 08:00:00,31.620000,74.876512,NH3,6,13,9
India,Punjab,Amritsar,"Golden Temple, Amritsar - PPCB",20-02-2026 08:00:00,31.620000,74.876512,CO,50,152,62
India,Punjab,Bathinda,"Hardev Nagar, Bathinda - PPCB",20-02-2026 08:00:00,30.233011,74.907758,PM10,13,119,60
India,Punjab,Jalandhar,"Civil Line, Jalandhar - PPCB",20-02-2026 08:00:00,31.321907,75.578914,NH3,4,5,5
India,Punjab,Jalandhar,"Civil Line, Jalandhar - PPCB",20-02-2026 08:00:00,31.321907,75.578914,OZONE,18,82,76
India,Punjab,Khanna,"Kalal Majra, Khanna - PPCB",20-02-2026 08:00:00,30.736056 ,76.209694,NH3,7,8,7
India,Rajasthan,Jaipur,"Shastri Nagar, Jaipur - RSPCB",20-02-2026 08:00:00,26.9502929,75.730943,NH3,8,15,12
India,Rajasthan,Jalore,"Mudtra Sili, Jalore - RSPCB",20-02-2026 08:00:00,25.344694,72.626208,OZONE,22,98,57
India,Rajasthan,Jhalawar,"Rajlaxmi Nagar, Jhalawar - RSPCB",20-02-2026 08:00:00,24.588397,76.172782,NO2,60,77,70
India,Rajasthan,Jhalawar,"Rajlaxmi Nagar, Jhalawar - RSPCB",20-02-2026 08:00:00,24.588397,76.172782,NH3,8,10,9
India,Rajasthan,Jodhpur,"Collectorate, Jodhpur - RSPCB",20-02-2026 08:00:00,26.268249,73.0193853,PM10,50,131,78
India,Rajasthan,Jodhpur,"Collectorate, Jodhpur - RSPCB",20-02-2026 08:00:00,26.268249,73.0193853,NO2,15,27,21
India,Rajasthan,Jodhpur,"Digari Kalan, Jodhpur - RSPCB",20-02-2026 08:00:00,26.295810,73.082283,PM2.5,42,95,73
India,Rajasthan,Jodhpur,"Digari Kalan, Jodhpur - RSPCB",20-02-2026 08:00:00,26.295810,73.082283,NO2,12,32,20
India,Rajasthan,Jodhpur,"Digari Kalan, Jodhpur - RSPCB",20-02-2026 08:00:00,26.295810,73.082283,SO2,1,6,3
India,Rajasthan,Jodhpur,"Jhalamand, Jodhpur - RSPCB",20-02-2026 08:00:00,26.215415,73.070156,PM10,63,167,86
India,Rajasthan,Jodhpur,"Jhalamand, Jodhpur - RSPCB",20-02-2026 08:00:00,26.215415,73.070156,CO,17,30,22
India,Rajasthan,Jodhpur,"Mandor, Jodhpur - RSPCB",20-02-2026 08:00:00,26.358805,73.047444,CO,17,28,23
India,Rajasthan,Jodhpur,"Samrat Ashok Udhyan, Jodhpur - RSPCB",20-02-2026 08:00:00,26.253384,72.976571,CO,21,40,23
India,Uttar_Pradesh,Bareilly,"Civil Lines, Bareilly - UPPCB",20-02-2026 08:00:00,28.359581,79.414455,OZONE,13,57,18
India,Uttar_Pradesh,Bareilly,"Rajendra Nagar, Bareilly - UPPCB",20-02-2026 08:00:00,28.38910936,79.42963708,PM2.5,18,53,35
India,Uttar_Pradesh,Bareilly,"Rajendra Nagar, Bareilly - UPPCB",20-02-2026 08:00:00,28.38910936,79.42963708,PM10,30,89,63
India,Uttar_Pradesh,Bulandshahr,"Yamunapuram, Bulandshahr - UPPCB",20-02-2026 08:00:00,28.406963,77.849831,PM10,59,150,117
India,Uttar_Pradesh,Bulandshahr,"Yamunapuram, Bulandshahr - UPPCB",20-02-2026 08:00:00,28.406963,77.849831,OZONE,1,83,3
India,Uttar_Pradesh,Firozabad,"Nagla Bhau, Firozabad - UPPCB",20-02-2026 08:00:00,27.168897,78.376960,SO2,17,55,40
India,Uttar_Pradesh,Firozabad,"Vibhab Nagar, Firozabad - UPPCB",20-02-2026 08:00:00,27.1594,78.3953,PM2.5,15,92,39
India,Uttar_Pradesh,Firozabad,"Vibhab Nagar, Firozabad - UPPCB",20-02-2026 08:00:00,27.1594,78.3953,SO2,1,9,4
India,Uttar_Pradesh,Ghaziabad,"Indirapuram, Ghaziabad - UPPCB",20-02-2026 08:00:00,28.646233,77.358075,SO2,16,32,21
India,Uttar_Pradesh,Ghaziabad,"Indirapuram, Ghaziabad - UPPCB",20-02-2026 08:00:00,28.646233,77.358075,CO,23,102,55
India,Telangana,Hyderabad,"Kokapet, Hyderabad - TSPCB",20-02-2026 08:00:00,17.393559,78.339194,SO2,12,18,15
India,Telangana,Hyderabad,"Kokapet, Hyderabad - TSPCB",20-02-2026 08:00:00,17.393559,78.339194,CO,24,40,25
India,Telangana,Hyderabad,"Kokapet, Hyderabad - TSPCB",20-02-2026 08:00:00,17.393559,78.339194,OZONE,17,26,17
India,Telangana,Hyderabad,"Kompally Municipal Office, Hyderabad - TSPCB",20-02-2026 08:00:00,17.544899,78.486949,PM10,69,84,75
India,Telangana,Hyderabad,"Kompally Municipal Office, Hyderabad - TSPCB",20-02-2026 08:00:00,17.544899,78.486949,SO2,5,10,7
India,Telangana,Hyderabad,"Nacharam_TSIIC IALA, Hyderabad - TSPCB",20-02-2026 08:00:00,17.429398,78.569354,SO2,10,16,12
India,Telangana,Hyderabad,"New Malakpet, Hyderabad - TSPCB",20-02-2026 08:00:00,17.37206,78.50864,CO,26,38,37
India,Telangana,Hyderabad,"Ramachandrapuram, Hyderabad - TSPCB",20-02-2026 08:00:00,17.528544,78.286195,NH3,4,5,5
India,Telangana,Hyderabad,"Ramachandrapuram, Hyderabad - TSPCB",20-02-2026 08:00:00,17.528544,78.286195,SO2,12,18,14
India,Telangana,Hyderabad,"Sanathnagar, Hyderabad - TSPCB",20-02-2026 08:00:00,17.4559458,78.4332152,SO2,11,27,20
India,Telangana,Hyderabad,"Sanathnagar, Hyderabad - TSPCB",20-02-2026 08:00:00,17.4559458,78.4332152,CO,41,49,46
India,TamilNadu,Coimbatore,"PSG College of Arts and Science, Coimbatore - TNPCB",20-02-2026 08:00:00,11.0328,77.0349,SO2,2,5,4
India,TamilNadu,Coimbatore,"PSG College of Arts and Science, Coimbatore - TNPCB",20-02-2026 08:00:00,11.0328,77.0349,OZONE,4,7,5
India,TamilNadu,Gummidipoondi,"Anthoni Pillai Nagar, Gummidipoondi - TNPCB",20-02-2026 08:00:00,13.4127,80.1081,SO2,21,75,42
India,TamilNadu,Perundurai,"SIPCOT Industrial Park, Perundurai - TNPCB",20-02-2026 08:00:00,11.258242,77.552761,NH3,2,3,3
India,TamilNadu,Perundurai,"SIPCOT Industrial Park, Perundurai - TNPCB",20-02-2026 08:00:00,11.258242,77.552761,CO,38,50,49
India,Telangana,Hyderabad,"Bollaram Industrial Area, Hyderabad - TSPCB",20-02-2026 08:00:00,17.540891,78.358528,NO2,13,41,29
India,Telangana,Hyderabad,"Bollaram Industrial Area, Hyderabad - TSPCB",20-02-2026 08:00:00,17.540891,78.358528,NH3,2,6,4
India,Telangana,Hyderabad,"Central University, Hyderabad - TSPCB",20-02-2026 08:00:00,17.460103,78.334361,PM10,30,52,41
India,Uttar_Pradesh,Agra,"Sector-3B Avas Vikas Colony, Agra - UPPCB",20-02-2026 08:00:00,27.19412,77.96237,OZONE,NA,NA,NA
India,Uttar_Pradesh,Agra,"Shahjahan Garden, Agra - UPPCB",20-02-2026 08:00:00,27.169338,78.03582,PM10,61,183,105
India,Uttar_Pradesh,Agra,"Shahjahan Garden, Agra - UPPCB",20-02-2026 08:00:00,27.169338,78.03582,OZONE,3,5,2
India,Uttar_Pradesh,Agra,"Shastripuram, Agra - UPPCB",20-02-2026 08:00:00,27.19862,77.92066,SO2,21,43,32
India,Uttar_Pradesh,Agra,"Shastripuram, Agra - UPPCB",20-02-2026 08:00:00,27.19862,77.92066,CO,12,28,19
India,Uttar_Pradesh,Baghpat,"Sardar Patel Inter College, Baghpat - UPPCB",20-02-2026 08:00:00,28.964949,77.278761,NH3,2,5,3
India,Uttar_Pradesh,Baghpat,"Sardar Patel Inter College, Baghpat - UPPCB",20-02-2026 08:00:00,28.964949,77.278761,CO,18,58,27
India,Uttar_Pradesh,Bareilly,"Civil Lines, Bareilly - UPPCB",20-02-2026 08:00:00,28.359581,79.414455,PM2.5,1,39,13
India,Uttar_Pradesh,Bareilly,"Civil Lines, Bareilly - UPPCB",20-02-2026 08:00:00,28.359581,79.414455,SO2,44,74,57
India,TamilNadu,Chennai,"Manali Village, Chennai - TNPCB",20-02-2026 08:00:00,13.1662,80.2584,NO2,4,8,6
India,TamilNadu,Chennai,"Manali Village, Chennai - TNPCB",20-02-2026 08:00:00,13.1662,80.2584,NH3,1,4,1
India,TamilNadu,Chennai,"Manali Village, Chennai - TNPCB",20-02-2026 08:00:00,13.1662,80.2584,SO2,14,17,16
India,TamilNadu,Chennai,"Manali Village, Chennai - TNPCB",20-02-2026 08:00:00,13.1662,80.2584,CO,24,83,64
India,TamilNadu,Chennai,"Manali, Chennai - CPCB",20-02-2026 08:00:00,13.164544,80.26285,NO2,8,12,11
India,TamilNadu,Chennai,"Perungudi, Chennai - TNPCB",20-02-2026 08:00:00,12.9533,80.2357,SO2,1,8,4
India,TamilNadu,Chennai,"Royapuram, Chennai - TNPCB",20-02-2026 08:00:00,13.1036,80.2909,PM2.5,45,147,68
India,TamilNadu,Chennai,"Royapuram, Chennai - TNPCB",20-02-2026 08:00:00,13.1036,80.2909,PM10,51,113,73
India,TamilNadu,Chennai,"Velachery Res. Area, Chennai - CPCB",20-02-2026 08:00:00,13.0052189,80.2398125,PM2.5,NA,NA,NA
India,Rajasthan,Tonk,"Shastri Nagar, Tonk - RSPCB",20-02-2026 08:00:00,26.159933,75.780517,PM2.5,60,123,80
India,Rajasthan,Tonk,"Shastri Nagar, Tonk - RSPCB",20-02-2026 08:00:00,26.159933,75.780517,NO2,12,58,28
India,Rajasthan,Tonk,"Shastri Nagar, Tonk - RSPCB",20-02-2026 08:00:00,26.159933,75.780517,NH3,6,9,8
India,Rajasthan,Tonk,"Shastri Nagar, Tonk - RSPCB",20-02-2026 08:00:00,26.159933,75.780517,OZONE,2,50,15
India,Rajasthan,Udaipur,"Ashok Nagar, Udaipur - RSPCB",20-02-2026 08:00:00,24.5886166,73.6321397,PM10,67,129,96
India,Rajasthan,Udaipur,"Ashok Nagar, Udaipur - RSPCB",20-02-2026 08:00:00,24.5886166,73.6321397,NH3,1,10,4
India,TamilNadu,Chennai,"Kodungaiyur, Chennai - TNPCB",20-02-2026 08:00:00,13.1278,80.2642,PM2.5,56,202,90
India,TamilNadu,Chennai,"Kodungaiyur, Chennai - TNPCB",20-02-2026 08:00:00,13.1278,80.2642,PM10,100,179,129
India,TamilNadu,Chennai,"Kodungaiyur, Chennai - TNPCB",20-02-2026 08:00:00,13.1278,80.2642,NH3,4,5,4
India,Telangana,Hyderabad,"Somajiguda, Hyderabad - TSPCB",20-02-2026 08:00:00,17.417094,78.457437,NH3,3,4,4
India,Telangana,Hyderabad,"Zoo Park, Hyderabad - TSPCB",20-02-2026 08:00:00,17.349694,78.451437,NH3,3,3,3
India,Telangana,Hyderabad,"Zoo Park, Hyderabad - TSPCB",20-02-2026 08:00:00,17.349694,78.451437,OZONE,21,29,25
India,Tripura,Agartala,"Bardowali, Agartala - Tripura SPCB",20-02-2026 08:00:00,23.8175497,91.2726974,CO,16,43,18
India,Uttar_Pradesh,Agra,"Rohta, Agra - UPPCB",20-02-2026 08:00:00,27.106972,78.000111,NO2,14,14,14
India,Uttar_Pradesh,Agra,"Rohta, Agra - UPPCB",20-02-2026 08:00:00,27.106972,78.000111,SO2,6,19,13
India,Telangana,Hyderabad,"ECIL Kapra, Hyderabad - TSPCB",20-02-2026 08:00:00,17.470431,78.566959,CO,16,26,24
India,Telangana,Hyderabad,"ICRISAT Patancheru, Hyderabad - TSPCB",20-02-2026 08:00:00,17.518400,78.278777,NO2,12,19,16
India,Telangana,Hyderabad,"IDA Pashamylaram, Hyderabad - TSPCB",20-02-2026 08:00:00,17.5316895,78.218939,PM10,53,77,64
India,Telangana,Hyderabad,"IDA Pashamylaram, Hyderabad - TSPCB",20-02-2026 08:00:00,17.5316895,78.218939,SO2,1,15,7
India,Telangana,Hyderabad,"IITH Kandi, Hyderabad - TSPCB",20-02-2026 08:00:00,17.585705,78.126199,CO,27,58,56
India,Rajasthan,Rajsamand,"Dhoinda, Rajsamand - RSPCB",20-02-2026 08:00:00,25.036360,73.883502,NO2,12,31,19
India,Rajasthan,Rajsamand,"Dhoinda, Rajsamand - RSPCB",20-02-2026 08:00:00,25.036360,73.883502,CO,2,35,17
India,Rajasthan,Sawai Madhopur,"Sahu Nagar, Sawai Madhopur - RSPCB",20-02-2026 08:00:00,26.031443,76.359327,CO,13,45,26
India,Rajasthan,Sawai Madhopur,"Sahu Nagar, Sawai Madhopur - RSPCB",20-02-2026 08:00:00,26.031443,76.359327,OZONE,10,162,23
India,Rajasthan,Sikar,"Radhakishan Pura, Sikar - RSPCB",20-02-2026 08:00:00,27.608912,75.153302,PM10,47,141,91
India,Uttar_Pradesh,Noida,"Sector-1, Noida - UPPCB",20-02-2026 08:00:00,28.5898,77.3101,CO,64,96,78
India,Uttar_Pradesh,Noida,"Sector-116, Noida - UPPCB",20-02-2026 08:00:00,28.569230,77.393848,PM10,120,243,153
India,Uttar_Pradesh,Noida,"Sector-116, Noida - UPPCB",20-02-2026 08:00:00,28.569230,77.393848,CO,41,107,62
India,Uttar_Pradesh,Prayagraj,"Jhunsi, Prayagraj - UPPCB",20-02-2026 08:00:00,25.425602,81.917152,SO2,10,22,15
India,Uttar_Pradesh,Prayagraj,"Motilal Nehru NIT, Prayagraj - UPPCB",20-02-2026 08:00:00,25.494,81.863,PM2.5,39,102,65
India,Uttar_Pradesh,Prayagraj,"Motilal Nehru NIT, Prayagraj - UPPCB",20-02-2026 08:00:00,25.494,81.863,PM10,40,107,63
India,Uttar_Pradesh,Prayagraj,"Motilal Nehru NIT, Prayagraj - UPPCB",20-02-2026 08:00:00,25.494,81.863,NH3,8,10,9
India,Uttar_Pradesh,Prayagraj,"Motilal Nehru NIT, Prayagraj - UPPCB",20-02-2026 08:00:00,25.494,81.863,CO,18,34,21
India,Uttar_Pradesh,Prayagraj,"Nagar Nigam, Prayagraj - UPPCB",20-02-2026 08:00:00,25.44919916 ,81.82735986 ,OZONE,11,12,12
India,Uttar_Pradesh,Varanasi,"Ardhali Bazar, Varanasi - UPPCB",20-02-2026 08:00:00,25.3505986,82.9083074,SO2,9,11,11
India,Uttar_Pradesh,Varanasi,"Ardhali Bazar, Varanasi - UPPCB",20-02-2026 08:00:00,25.3505986,82.9083074,CO,6,18,13
India,Uttar_Pradesh,Varanasi,"Ardhali Bazar, Varanasi - UPPCB",20-02-2026 08:00:00,25.3505986,82.9083074,OZONE,14,36,23
India,Uttar_Pradesh,Ghaziabad,"Sanjay Nagar, Ghaziabad - UPPCB",20-02-2026 08:00:00,28.685382,77.453839,SO2,2,22,11
India,Uttar_Pradesh,Ghaziabad,"Sanjay Nagar, Ghaziabad - UPPCB",20-02-2026 08:00:00,28.685382,77.453839,CO,6,103,46
India,Uttar_Pradesh,Ghaziabad,"Vasundhara, Ghaziabad - UPPCB",20-02-2026 08:00:00,28.6603346,77.3572563,NO2,24,100,59
India,Uttar_Pradesh,Gorakhpur,"Madan Mohan Malaviya University of Technology, Gorakhpur - UPPCB",20-02-2026 08:00:00,26.730136,83.433859,PM2.5,61,124,91
India,Uttar_Pradesh,Gorakhpur,"Madan Mohan Malaviya University of Technology, Gorakhpur - UPPCB",20-02-2026 08:00:00,26.730136,83.433859,NO2,11,13,11
India,Uttar_Pradesh,Gorakhpur,"Madan Mohan Malaviya University of Technology, Gorakhpur - UPPCB",20-02-2026 08:00:00,26.730136,83.433859,SO2,41,46,43
India,Uttar_Pradesh,Greater Noida,"Knowledge Park - III, Greater Noida - UPPCB",20-02-2026 08:00:00,28.47272,77.482000,PM10,94,286,180
India,Uttarakhand,Kashipur,"Govt. Girls Inter College, Kashipur - UKPCB",20-02-2026 08:00:00,29.2124114,78.9611753,SO2,7,8,7
India,Uttarakhand,Rishikesh,"Shivaji Nagar, Rishikesh - UKPCB",20-02-2026 08:00:00,30.075911,78.2859547,PM10,48,48,48
India,Uttarakhand,Rishikesh,"Shivaji Nagar, Rishikesh - UKPCB",20-02-2026 08:00:00,30.075911,78.2859547,NH3,22,22,22
India,Uttarakhand,Rishikesh,"Shivaji Nagar, Rishikesh - UKPCB",20-02-2026 08:00:00,30.075911,78.2859547,OZONE,80,80,80
India,West_Bengal,Asansol,"Evelyn Lodge, Asansol - WBPCB",20-02-2026 08:00:00,23.6979360,86.9443950,OZONE,8,64,12
India,West_Bengal,Asansol,"Mahabir Colliery, Asansol - WBPCB",20-02-2026 08:00:00,23.6181830,87.1057180,NO2,8,32,20
India,West_Bengal,Asansol,"Mahabir Colliery, Asansol - WBPCB",20-02-2026 08:00:00,23.6181830,87.1057180,SO2,7,11,10
India,West_Bengal,Asansol,"Mahabir Colliery, Asansol - WBPCB",20-02-2026 08:00:00,23.6181830,87.1057180,OZONE,5,49,7
India,Uttar_Pradesh,Kanpur,"Nehru Nagar, Kanpur - UPPCB",20-02-2026 08:00:00,26.4703136,80.3229863,CO,26,108,36
India,Uttar_Pradesh,Lucknow,"B R Ambedkar University, Lucknow - UPPCB",20-02-2026 08:00:00,26.766433,80.927299,NH3,4,5,4
India,Uttar_Pradesh,Lucknow,"B R Ambedkar University, Lucknow - UPPCB",20-02-2026 08:00:00,26.766433,80.927299,CO,1,20,16
India,Uttar_Pradesh,Lucknow,"B R Ambedkar University, Lucknow - UPPCB",20-02-2026 08:00:00,26.766433,80.927299,OZONE,16,79,19
India,Uttar_Pradesh,Lucknow,"Gomti Nagar, Lucknow - UPPCB",20-02-2026 08:00:00,26.868120,81.005119,PM2.5,27,80,46
India,Uttar_Pradesh,Lucknow,"Kendriya Vidyalaya, Lucknow - CPCB",20-02-2026 08:00:00,26.906111,80.948222,NO2,28,31,29
India,Uttar_Pradesh,Lucknow,"Kendriya Vidyalaya, Lucknow - CPCB",20-02-2026 08:00:00,26.906111,80.948222,NH3,12,17,15
India,Uttar_Pradesh,Moradabad,"Transport Nagar, Moradabad - UPPCB",20-02-2026 08:00:00,28.802625,78.753728,PM10,43,101,64
India,Uttar_Pradesh,Muzaffarnagar,"New Mandi, Muzaffarnagar - UPPCB",20-02-2026 08:00:00,29.4723508,77.7194031,PM2.5,56,282,135
India,Uttar_Pradesh,Noida,"Sector - 125, Noida - UPPCB",20-02-2026 08:00:00,28.5447608,77.3231257,NO2,30,110,69
India,Uttar_Pradesh,Noida,"Sector - 125, Noida - UPPCB",20-02-2026 08:00:00,28.5447608,77.3231257,SO2,9,19,14
India,Uttar_Pradesh,Noida,"Sector - 62, Noida - IMD",20-02-2026 08:00:00,28.6245479,77.3577104,NO2,1,8,4
India,Uttar_Pradesh,Noida,"Sector - 62, Noida - IMD",20-02-2026 08:00:00,28.6245479,77.3577104,OZONE,17,160,21
India,Uttar_Pradesh,Varanasi,"Bhelupur, Varanasi - UPPCB",20-02-2026 08:00:00,25.301778,82.996789,OZONE,6,11,6
India,Uttar_Pradesh,Varanasi,"IESD Banaras Hindu University, Varanasi - UPPCB",20-02-2026 08:00:00,25.262326,82.995408,NH3,1,4,2
India,Uttar_Pradesh,Varanasi,"Maldahiya, Varanasi - UPPCB",20-02-2026 08:00:00,25.32393,82.99687,OZONE,2,8,3
India,Uttar_Pradesh,Vrindavan,"Omex Eternity, Vrindavan - UPPCB",20-02-2026 08:00:00,27.5714090,77.6557570,PM10,12,110,66
India,Uttar_Pradesh,Vrindavan,"Omex Eternity, Vrindavan - UPPCB",20-02-2026 08:00:00,27.5714090,77.6557570,NH3,5,9,8
India,Uttar_Pradesh,Vrindavan,"Omex Eternity, Vrindavan - UPPCB",20-02-2026 08:00:00,27.5714090,77.6557570,SO2,14,19,16
India,Uttar_Pradesh,Hapur,"Anand Vihar, Hapur - UPPCB",20-02-2026 08:00:00,28.725645,77.749675,OZONE,7,87,9
India,Uttar_Pradesh,Kanpur,"FTI Kidwai Nagar, Kanpur - UPPCB",20-02-2026 08:00:00,26.428282,80.327067,PM2.5,31,140,72
India,Uttar_Pradesh,Kanpur,"FTI Kidwai Nagar, Kanpur - UPPCB",20-02-2026 08:00:00,26.428282,80.327067,NO2,27,27,27
India,Uttar_Pradesh,Kanpur,"FTI Kidwai Nagar, Kanpur - UPPCB",20-02-2026 08:00:00,26.428282,80.327067,SO2,17,20,18
India,Uttar_Pradesh,Kanpur,"FTI Kidwai Nagar, Kanpur - UPPCB",20-02-2026 08:00:00,26.428282,80.327067,OZONE,11,13,12
India,Uttar_Pradesh,Kanpur,"NSI Kalyanpur, Kanpur - UPPCB",20-02-2026 08:00:00,26.509954,80.249612,NO2,25,25,25
India,Uttar_Pradesh,Lucknow,"Kukrail Picnic Spot-1, Lucknow - UPPCB",20-02-2026 08:00:00,26.90723,80.98579,PM10,23,72,46
India,Uttar_Pradesh,Lucknow,"Kukrail Picnic Spot-1, Lucknow - UPPCB",20-02-2026 08:00:00,26.90723,80.98579,NO2,32,33,32
India,Uttar_Pradesh,Lucknow,"Lalbagh, Lucknow - CPCB",20-02-2026 08:00:00,26.8458805,80.9365541,CO,41,82,53
India,Uttar_Pradesh,Lucknow,"Lalbagh, Lucknow - CPCB",20-02-2026 08:00:00,26.8458805,80.9365541,OZONE,9,44,19
India,Uttar_Pradesh,Lucknow,"Talkatora District Industries Center, Lucknow - CPCB",20-02-2026 08:00:00,26.83399722,80.8917361,NH3,7,10,8
India,Uttar_Pradesh,Meerut,"Pallavpuram Phase 2, Meerut - UPPCB",20-02-2026 08:00:00,29.063510,77.709723,PM2.5,36,214,78
India,Uttar_Pradesh,Meerut,"Pallavpuram Phase 2, Meerut - UPPCB",20-02-2026 08:00:00,29.063510,77.709723,PM10,53,156,86
India,Uttar_Pradesh,Meerut,"Pallavpuram Phase 2, Meerut - UPPCB",20-02-2026 08:00:00,29.063510,77.709723,NO2,6,85,47
India,Uttar_Pradesh,Moradabad,"Eco Herbal Park, Moradabad - UPPCB",20-02-2026 08:00:00,28.840739,78.697531,CO,16,58,49
India,Uttar_Pradesh,Moradabad,"Employment Office, Moradabad - UPPCB",20-02-2026 08:00:00,28.88528,78.73880,NO2,15,16,16
India,West_Bengal,Barrackpore,"SVSPA Campus, Barrackpore - WBPCB",20-02-2026 08:00:00,22.7605581,88.3617589,NH3,6,9,8
India,West_Bengal,Barrackpore,"SVSPA Campus, Barrackpore - WBPCB",20-02-2026 08:00:00,22.7605581,88.3617589,SO2,10,14,11
India,West_Bengal,Barrackpore,"SVSPA Campus, Barrackpore - WBPCB",20-02-2026 08:00:00,22.7605581,88.3617589,OZONE,2,60,3
India,West_Bengal,Durgapur,"Mahishkapur Road_B-Zone, Durgapur - WBPCB",20-02-2026 08:00:00,23.567923,87.306843,PM10,55,132,93
India,West_Bengal,Durgapur,"Mahishkapur Road_B-Zone, Durgapur - WBPCB",20-02-2026 08:00:00,23.567923,87.306843,OZONE,11,55,15
India,West_Bengal,Durgapur,"PCBL Residential Complex, Durgapur - WBPCB",20-02-2026 08:00:00,23.5087640,87.3544400,NO2,38,75,50
India,West_Bengal,Durgapur,"Womens College_City Center, Durgapur - WBPCB",20-02-2026 08:00:00,23.549395,87.300496,PM2.5,57,159,85
India,West_Bengal,Haldia,"Priyambada Housing Estate, Haldia - WBPCB",20-02-2026 08:00:00,22.06047,88.109737,NH3,6,7,7
India,West_Bengal,Haldia,"Priyambada Housing Estate, Haldia - WBPCB",20-02-2026 08:00:00,22.06047,88.109737,SO2,9,18,14
India,West_Bengal,Howrah,"Belur Math, Howrah - WBPCB",20-02-2026 08:00:00,22.629801,88.352017,SO2,15,46,24
India,West_Bengal,Howrah,"Dasnagar, Howrah - WBPCB",20-02-2026 08:00:00,22.6025571,88.3105664,PM2.5,34,150,91
India,West_Bengal,Howrah,"Dasnagar, Howrah - WBPCB",20-02-2026 08:00:00,22.6025571,88.3105664,NH3,5,7,6
India,West_Bengal,Howrah,"Dasnagar, Howrah - WBPCB",20-02-2026 08:00:00,22.6025571,88.3105664,CO,16,109,64
India,West_Bengal,Howrah,"Ghusuri, Howrah - WBPCB",20-02-2026 08:00:00,22.611968,88.347422,PM10,99,401,184
India,West_Bengal,Kolkata,"Ballygunge, Kolkata - WBPCB",20-02-2026 08:00:00,22.5367507,88.3638022,PM2.5,86,319,212
India,West_Bengal,Kolkata,"Ballygunge, Kolkata - WBPCB",20-02-2026 08:00:00,22.5367507,88.3638022,SO2,15,34,24
India,West_Bengal,Kolkata,"Ballygunge, Kolkata - WBPCB",20-02-2026 08:00:00,22.5367507,88.3638022,CO,32,116,73
India,West_Bengal,Kolkata,"Fort William, Kolkata - WBPCB",20-02-2026 08:00:00,22.556640,88.342674,NO2,32,105,70
India,West_Bengal,Kolkata,"Jadavpur, Kolkata - WBPCB",20-02-2026 08:00:00,22.49929,88.36917,NO2,23,93,39
India,West_Bengal,Kolkata,"Jadavpur, Kolkata - WBPCB",20-02-2026 08:00:00,22.49929,88.36917,NH3,6,13,8
India,West_Bengal,Kolkata,"Jadavpur, Kolkata - WBPCB",20-02-2026 08:00:00,22.49929,88.36917,SO2,2,5,3
India,West_Bengal,Kolkata,"Rabindra Bharati University, Kolkata - WBPCB",20-02-2026 08:00:00,22.627847,88.380669,NH3,12,14,12
India,West_Bengal,Kolkata,"Rabindra Sarobar, Kolkata - WBPCB",20-02-2026 08:00:00,22.51106,88.35142,PM10,77,125,103
India,West_Bengal,Kolkata,"Rabindra Sarobar, Kolkata - WBPCB",20-02-2026 08:00:00,22.51106,88.35142,CO,30,113,56
India,West_Bengal,Kolkata,"Victoria, Kolkata - WBPCB",20-02-2026 08:00:00,22.5448082,88.3403691,CO,42,106,56
India,West_Bengal,Kolkata,"Victoria, Kolkata - WBPCB",20-02-2026 08:00:00,22.5448082,88.3403691,OZONE,6,55,8
India,West_Bengal,Siliguri,"Ward-32 Bapupara, Siliguri - WBPCB",20-02-2026 08:00:00,26.6879226,88.4152495,PM2.5,56,188,92
India,West_Bengal,Siliguri,"Ward-32 Bapupara, Siliguri - WBPCB",20-02-2026 08:00:00,26.6879226,88.4152495,PM10,88,285,150
India,West_Bengal,Siliguri,"Ward-32 Bapupara, Siliguri - WBPCB",20-02-2026 08:00:00,26.6879226,88.4152495,NH3,10,10,10
India,Bihar,Motihari,"Gandak Colony, Motihari - BSPCB",20-02-2026 08:00:00,26.63086,84.90051,NH3,3,3,3
India,Bihar,Munger,"Town Hall, Munger - BSPCB",20-02-2026 08:00:00,25.376776,86.471523,NO2,4,5,5
India,Bihar,Munger,"Town Hall, Munger - BSPCB",20-02-2026 08:00:00,25.376776,86.471523,NH3,2,11,5
India,Bihar,Munger,"Town Hall, Munger - BSPCB",20-02-2026 08:00:00,25.376776,86.471523,SO2,17,80,41
India,Bihar,Muzaffarpur,"Buddha Colony, Muzaffarpur - BSPCB",20-02-2026 08:00:00,26.11442,85.39813,PM2.5,83,209,142
India,Bihar,Muzaffarpur,"Buddha Colony, Muzaffarpur - BSPCB",20-02-2026 08:00:00,26.11442,85.39813,NO2,23,70,47
India,Bihar,Muzaffarpur,"Buddha Colony, Muzaffarpur - BSPCB",20-02-2026 08:00:00,26.11442,85.39813,NH3,5,21,14
India,Bihar,Muzaffarpur,"Buddha Colony, Muzaffarpur - BSPCB",20-02-2026 08:00:00,26.11442,85.39813,CO,24,68,36
India,Bihar,Muzaffarpur,"Buddha Colony, Muzaffarpur - BSPCB",20-02-2026 08:00:00,26.11442,85.39813,OZONE,37,88,45
India,Bihar,Muzaffarpur,"MIT-Daudpur Kothi, Muzaffarpur - BSPCB",20-02-2026 08:00:00,26.1403345,85.3650192,PM2.5,92,113,97
India,Bihar,Muzaffarpur,"MIT-Daudpur Kothi, Muzaffarpur - BSPCB",20-02-2026 08:00:00,26.1403345,85.3650192,NO2,4,5,4
India,Bihar,Muzaffarpur,"MIT-Daudpur Kothi, Muzaffarpur - BSPCB",20-02-2026 08:00:00,26.1403345,85.3650192,SO2,10,15,11
India,Bihar,Muzaffarpur,"MIT-Daudpur Kothi, Muzaffarpur - BSPCB",20-02-2026 08:00:00,26.1403345,85.3650192,CO,40,64,40
India,Bihar,Muzaffarpur,"Muzaffarpur Collectorate, Muzaffarpur - BSPCB",20-02-2026 08:00:00,26.1209,85.3647,CO,18,102,18
India,Bihar,Patna,"DRM Office Danapur, Patna - BSPCB",20-02-2026 08:00:00,25.586562,85.043586,PM2.5,72,249,142
India,Assam,Nagaon,"Christianpatty, Nagaon - PCBA",20-02-2026 08:00:00,26.349082,92.68449,PM2.5,70,193,129
India,Assam,Nalbari,"Bata Chowk, Nalbari - PCBA",20-02-2026 08:00:00,26.446912,91.439057,PM2.5,123,180,149
India,Assam,Nalbari,"Bata Chowk, Nalbari - PCBA",20-02-2026 08:00:00,26.446912,91.439057,OZONE,15,17,16
India,Assam,Silchar,"Tarapur, Silchar - PCBA",20-02-2026 08:00:00,24.82827,92.79525,NO2,27,38,32
India,Assam,Silchar,"Tarapur, Silchar - PCBA",20-02-2026 08:00:00,24.82827,92.79525,SO2,3,7,6
India,Assam,Sivasagar,"Girls College, Sivasagar - PCBA",20-02-2026 08:00:00,26.987634,94.636574,PM2.5,40,95,67
India,Assam,Sivasagar,"Girls College, Sivasagar - PCBA",20-02-2026 08:00:00,26.987634,94.636574,CO,23,118,58
India,Assam,Sivasagar,"Girls College, Sivasagar - PCBA",20-02-2026 08:00:00,26.987634,94.636574,OZONE,4,115,10
India,Bihar,Araria,"Kharahiya Basti, Araria - BSPCB",20-02-2026 08:00:00,26.146529,87.454184,NH3,4,5,4
India,Bihar,Araria,"Kharahiya Basti, Araria - BSPCB",20-02-2026 08:00:00,26.146529,87.454184,OZONE,9,10,10
India,Bihar,Arrah,"New DM Office, Arrah - BSPCB",20-02-2026 08:00:00,25.5626095,84.663264,NO2,6,9,7
India,Bihar,Hajipur,"Industrial Area, Hajipur - BSPCB",20-02-2026 08:00:00,25.697189,85.245900,SO2,NA,NA,NA
India,Bihar,Hajipur,"Industrial Area, Hajipur - BSPCB",20-02-2026 08:00:00,25.697189,85.245900,CO,16,50,42
India,Bihar,Katihar,"Mirchaibari, Katihar - BSPCB",20-02-2026 08:00:00,25.560083,87.553265,PM2.5,53,100,77
India,Bihar,Katihar,"Mirchaibari, Katihar - BSPCB",20-02-2026 08:00:00,25.560083,87.553265,NH3,1,1,1
India,Bihar,Manguraha,"Forest Rest House, Manguraha - BSPCB",20-02-2026 08:00:00,27.308328,84.531742,PM10,95,179,126
India,Bihar,Manguraha,"Forest Rest House, Manguraha - BSPCB",20-02-2026 08:00:00,27.308328,84.531742,SO2,16,17,16
India,Bihar,Manguraha,"Forest Rest House, Manguraha - BSPCB",20-02-2026 08:00:00,27.308328,84.531742,CO,32,33,33
India,Bihar,Motihari,"Gandak Colony, Motihari - BSPCB",20-02-2026 08:00:00,26.63086,84.90051,PM10,45,127,96
India,Andhra_Pradesh,Visakhapatnam,"GVM Corporation, Visakhapatnam - APPCB",20-02-2026 08:00:00,17.72,83.3,CO,13,38,19
India,Andhra_Pradesh,Visakhapatnam,"GVM Corporation, Visakhapatnam - APPCB",20-02-2026 08:00:00,17.72,83.3,OZONE,46,80,63
India,Arunachal_Pradesh,Naharlagun,"Naharlagun, Naharlagun - APSPCB",20-02-2026 08:00:00,27.103358,93.679645,CO,16,57,28
India,Assam,Byrnihat,"Central Academy for SFS, Byrnihat - PCBA",20-02-2026 08:00:00,26.071318,91.87488,PM10,67,220,105
India,Assam,Byrnihat,"Central Academy for SFS, Byrnihat - PCBA",20-02-2026 08:00:00,26.071318,91.87488,NH3,4,4,4
India,Assam,Guwahati,"LGBI Airport, Guwahati - PCBA",20-02-2026 08:00:00,26.10887,91.589544,PM10,51,142,114
India,Bihar,Patna,"DRM Office Danapur, Patna - BSPCB",20-02-2026 08:00:00,25.586562,85.043586,OZONE,8,33,8
India,Bihar,Patna,"IGSC Planetarium Complex, Patna - BSPCB",20-02-2026 08:00:00,25.610369,85.132568,PM2.5,NA,NA,NA
India,Bihar,Patna,"IGSC Planetarium Complex, Patna - BSPCB",20-02-2026 08:00:00,25.610369,85.132568,NO2,2,2,2
India,Bihar,Patna,"Muradpur, Patna - BSPCB",20-02-2026 08:00:00,25.619651,85.147382,NO2,10,12,11
India,Bihar,Patna,"Samanpura, Patna - BSPCB",20-02-2026 08:00:00,25.596727,85.085624,OZONE,8,111,12
India,Bihar,Purnia,"Mariam Nagar, Purnia - BSPCB",20-02-2026 08:00:00,25.366336,87.117468,PM2.5,77,150,94
India,Andhra_Pradesh,Anantapur,"Gulzarpet, Anantapur - APPCB",20-02-2026 08:00:00,14.675886,77.593027,OZONE,17,17,17
India,Andhra_Pradesh,Rajamahendravaram,"Anand Kala Kshetram, Rajamahendravaram - APPCB",20-02-2026 08:00:00,16.9872867,81.7363176,PM2.5,77,209,107
India,Andhra_Pradesh,Rajamahendravaram,"Anand Kala Kshetram, Rajamahendravaram - APPCB",20-02-2026 08:00:00,16.9872867,81.7363176,PM10,93,162,115
India,Andhra_Pradesh,Rajamahendravaram,"Anand Kala Kshetram, Rajamahendravaram - APPCB",20-02-2026 08:00:00,16.9872867,81.7363176,NO2,16,72,30
India,Andhra_Pradesh,Tirumala,"Toll Gate, Tirumala - APPCB",20-02-2026 08:00:00,13.67,79.35,NO2,20,43,30
India,Andhra_Pradesh,Tirumala,"Toll Gate, Tirumala - APPCB",20-02-2026 08:00:00,13.67,79.35,SO2,7,16,11
India,Andhra_Pradesh,Tirupati,"Vaikuntapuram, Tirupati - APPCB",20-02-2026 08:00:00,13.615387,79.409230,SO2,15,18,17
India,Andhra_Pradesh,Vijayawada,"HB Colony, Vijayawada - APPCB",20-02-2026 08:00:00,16.536107,80.594233,SO2,12,24,21
India,Andhra_Pradesh,Vijayawada,"Rajiv Gandhi Park, Vijayawada - APPCB",20-02-2026 08:00:00,16.509717,80.612222,NO2,NA,NA,NA
India,Andhra_Pradesh,Vijayawada,"Rajiv Nagar, Vijayawada - APPCB",20-02-2026 08:00:00,16.554731,80.649110,PM2.5,NA,NA,NA
India,Bihar,Arrah,"New DM Office, Arrah - BSPCB",20-02-2026 08:00:00,25.5626095,84.663264,OZONE,7,10,8
India,Bihar,Begusarai,"Lohiyanagar, Begusarai - BSPCB",20-02-2026 08:00:00,25.42742023,86.13886079,OZONE,2,40,38
India,Bihar,Bhagalpur,"Mayaganj, Bhagalpur - BSPCB",20-02-2026 08:00:00,25.265194,87.012947,PM10,58,135,97
India,Bihar,Bhagalpur,"Mayaganj, Bhagalpur - BSPCB",20-02-2026 08:00:00,25.265194,87.012947,NO2,7,8,7
India,Andaman and Nicobar,Sri Vijaya Puram,"Police Line, Sri Vijaya Puram - ANPCC",20-02-2026 08:00:00,11.654054,92.734055,PM2.5,NA,NA,NA
India,Andaman and Nicobar,Sri Vijaya Puram,"Police Line, Sri Vijaya Puram - ANPCC",20-02-2026 08:00:00,11.654054,92.734055,OZONE,NA,NA,NA
India,Andhra_Pradesh,Amaravati,"Secretariat, Amaravati - APPCB",20-02-2026 08:00:00,16.5150833,80.5181667,NH3,2,5,4
India,Bihar,Bihar Sharif,"D M Colony, Bihar Sharif - BSPCB",20-02-2026 08:00:00,25.204762,85.514960,CO,NA,NA,NA
India,Bihar,Buxar,"Charitra Van, Buxar - BSPCB",20-02-2026 08:00:00,25.567520,83.966379,OZONE,3,36,6
India,Bihar,Gaya,"Collectorate, Gaya - BSPCB",20-02-2026 08:00:00,24.7955,84.9994,CO,NA,NA,NA
India,Chhattisgarh,Milupara,"Govt. Higher Secondary School, Milupara - CECB",20-02-2026 08:00:00,22.1910172,83.5197009,NH3,1,2,2
India,Chhattisgarh,Milupara,"Govt. Higher Secondary School, Milupara - CECB",20-02-2026 08:00:00,22.1910172,83.5197009,CO,23,56,33
India,Chhattisgarh,Raipur,"AIIMS, Raipur - CECB",20-02-2026 08:00:00,21.258815,81.578979,CO,28,64,53
India,Chhattisgarh,Raipur,"AIIMS, Raipur - CECB",20-02-2026 08:00:00,21.258815,81.578979,OZONE,1,40,1
India,Chhattisgarh,Raipur,"Bhatagaon New ISBT, Raipur - CECB",20-02-2026 08:00:00,21.219665,81.630094,NO2,36,80,56
India,Chhattisgarh,Raipur,"Bhatagaon New ISBT, Raipur - CECB",20-02-2026 08:00:00,21.219665,81.630094,NH3,2,2,2
India,Chhattisgarh,Raipur,"Bhatagaon New ISBT, Raipur - CECB",20-02-2026 08:00:00,21.219665,81.630094,CO,28,104,48
India,Chhattisgarh,Raipur,"Bhatagaon New ISBT, Raipur - CECB",20-02-2026 08:00:00,21.219665,81.630094,OZONE,2,17,5
India,Chhattisgarh,Raipur,"Krishak Nagar, Raipur - CECB",20-02-2026 08:00:00,21.237755,81.705301,NO2,17,33,24
India,Chhattisgarh,Raipur,"Krishak Nagar, Raipur - CECB",20-02-2026 08:00:00,21.237755,81.705301,SO2,5,32,9
India,Chhattisgarh,Raipur,"Siltara Phase-II, Raipur - CECB",20-02-2026 08:00:00,21.371751,81.664929,SO2,3,4,3
India,Delhi,Delhi,"Jawaharlal Nehru Stadium, Delhi - DPCC",20-02-2026 08:00:00,28.580280,77.233829,NH3,13,34,19
India,Delhi,Delhi,"Jawaharlal Nehru Stadium, Delhi - DPCC",20-02-2026 08:00:00,28.580280,77.233829,OZONE,1,308,2
India,Delhi,Delhi,"Lodhi Road, Delhi - IMD",20-02-2026 08:00:00,28.5918245,77.2273074,PM2.5,70,161,100
India,Delhi,Delhi,"Lodhi Road, Delhi - IMD",20-02-2026 08:00:00,28.5918245,77.2273074,PM10,104,197,137
India,Delhi,Delhi,"Major Dhyan Chand National Stadium, Delhi - DPCC",20-02-2026 08:00:00,28.611281,77.237738,PM2.5,68,324,188
India,Delhi,Delhi,"Major Dhyan Chand National Stadium, Delhi - DPCC",20-02-2026 08:00:00,28.611281,77.237738,PM10,96,238,153
India,Delhi,Delhi,"Major Dhyan Chand National Stadium, Delhi - DPCC",20-02-2026 08:00:00,28.611281,77.237738,SO2,19,36,24
India,Delhi,Delhi,"Major Dhyan Chand National Stadium, Delhi - DPCC",20-02-2026 08:00:00,28.611281,77.237738,CO,10,107,52
India,Delhi,Delhi,"NSIT Dwarka, Delhi - CPCB",20-02-2026 08:00:00,28.60909,77.0325413,NO2,94,189,115
India,Bihar,Purnia,"Mariam Nagar, Purnia - BSPCB",20-02-2026 08:00:00,25.366336,87.117468,OZONE,2,46,15
India,Bihar,Rajgir,"Dangi Tola, Rajgir - BSPCB",20-02-2026 08:00:00,25.03280,85.41948,PM2.5,33,133,74
India,Bihar,Rajgir,"Dangi Tola, Rajgir - BSPCB",20-02-2026 08:00:00,25.03280,85.41948,PM10,27,113,70
India,Bihar,Rajgir,"Dangi Tola, Rajgir - BSPCB",20-02-2026 08:00:00,25.03280,85.41948,NO2,13,15,14
India,Bihar,Samastipur,"DM Office_Kasipur, Samastipur - BSPCB",20-02-2026 08:00:00,25.859655,85.77944,PM10,43,245,85
India,Bihar,Samastipur,"DM Office_Kasipur, Samastipur - BSPCB",20-02-2026 08:00:00,25.859655,85.77944,NO2,8,9,8
India,Bihar,Sasaram,"Dada Peer, Sasaram - BSPCB",20-02-2026 08:00:00,24.952822,84.002396,PM2.5,28,71,42
India,Bihar,Sasaram,"Dada Peer, Sasaram - BSPCB",20-02-2026 08:00:00,24.952822,84.002396,PM10,57,117,78
India,Bihar,Sasaram,"Dada Peer, Sasaram - BSPCB",20-02-2026 08:00:00,24.952822,84.002396,SO2,3,5,5
India,Delhi,Delhi,"IHBAS, Dilshad Garden, Delhi - CPCB",20-02-2026 08:00:00,28.6811736,77.3025234,PM2.5,80,234,148
India,Delhi,Delhi,"IHBAS, Dilshad Garden, Delhi - CPCB",20-02-2026 08:00:00,28.6811736,77.3025234,NH3,4,13,11
India,Delhi,Delhi,"IHBAS, Dilshad Garden, Delhi - CPCB",20-02-2026 08:00:00,28.6811736,77.3025234,SO2,5,44,22
India,Delhi,Delhi,"IIT Delhi, Delhi - IITM",20-02-2026 08:00:00,28.542460,77.191651,CO,38,105,72
India,Delhi,Delhi,"IIT Delhi, Delhi - IITM",20-02-2026 08:00:00,28.542460,77.191651,OZONE,6,74,7
India,Delhi,Delhi,"ITO, Delhi - CPCB",20-02-2026 08:00:00,28.628624,77.241060,PM10,75,156,116
India,Delhi,Delhi,"ITO, Delhi - CPCB",20-02-2026 08:00:00,28.628624,77.241060,NH3,3,8,4
India,Delhi,Delhi,"ITO, Delhi - CPCB",20-02-2026 08:00:00,28.628624,77.241060,OZONE,18,38,18
India,Delhi,Delhi,"Jahangirpuri, Delhi - DPCC",20-02-2026 08:00:00,28.732820,77.170633,NH3,22,38,29
India,Delhi,Delhi,"Jahangirpuri, Delhi - DPCC",20-02-2026 08:00:00,28.732820,77.170633,OZONE,5,41,11
India,Bihar,Siwan,"Chitragupta Nagar, Siwan - BSPCB",20-02-2026 08:00:00,26.2271665,84.3570427,OZONE,13,14,13
India,Chandigarh,Chandigarh,"Sector-25, Chandigarh - CPCC",20-02-2026 08:00:00,30.751462,76.762879,CO,12,60,28
India,Chhattisgarh,Bhilai,"32Bungalows, Bhilai - CECB",20-02-2026 08:00:00,21.194815,81.314770,NO2,34,67,42
India,Chhattisgarh,Bhilai,"32Bungalows, Bhilai - CECB",20-02-2026 08:00:00,21.194815,81.314770,NH3,1,2,2
India,Chhattisgarh,Bhilai,"Civic Center, Bhilai - Bhilai Steel Plant",20-02-2026 08:00:00,21.185571,81.343175,NH3,3,3,3
India,Chhattisgarh,Bhilai,"Civic Center, Bhilai - Bhilai Steel Plant",20-02-2026 08:00:00,21.185571,81.343175,SO2,6,12,8
India,Chhattisgarh,Bhilai,"Civic Center, Bhilai - Bhilai Steel Plant",20-02-2026 08:00:00,21.185571,81.343175,OZONE,9,13,11
India,Delhi,Delhi,"Narela, Delhi - DPCC",20-02-2026 08:00:00,28.822836,77.101981,PM2.5,95,303,158
India,Delhi,Delhi,"Narela, Delhi - DPCC",20-02-2026 08:00:00,28.822836,77.101981,OZONE,4,162,12
India,Delhi,Delhi,"Nehru Nagar, Delhi - DPCC",20-02-2026 08:00:00,28.567890,77.250515,PM10,113,290,168
India,Delhi,Delhi,"North Campus, DU, Delhi - IMD",20-02-2026 08:00:00,28.6573814,77.1585447,PM10,80,226,150
India,Delhi,Delhi,"Okhla Phase-2, Delhi - DPCC",20-02-2026 08:00:00,28.530785,77.271255,PM2.5,98,328,212
India,Delhi,Delhi,"Okhla Phase-2, Delhi - DPCC",20-02-2026 08:00:00,28.530785,77.271255,NO2,33,99,64
India,Delhi,Delhi,"Okhla Phase-2, Delhi - DPCC",20-02-2026 08:00:00,28.530785,77.271255,SO2,4,19,10
India,Delhi,Delhi,"Okhla Phase-2, Delhi - DPCC",20-02-2026 08:00:00,28.530785,77.271255,CO,62,138,75
India,Delhi,Delhi,"Bawana, Delhi - DPCC",20-02-2026 08:00:00,28.776200,77.051074,NH3,8,10,9
India,Delhi,Delhi,"Burari Crossing, Delhi - IMD",20-02-2026 08:00:00,28.7256504,77.2011573,CO,14,101,71
India,Delhi,Delhi,"Chandni Chowk, Delhi - IITM",20-02-2026 08:00:00,28.656756,77.227234,NO2,4,21,15
India,Delhi,Delhi,"DTU, Delhi - CPCB",20-02-2026 08:00:00,28.7500499,77.1112615,PM2.5,41,314,157
India,Delhi,Delhi,"Dr. Karni Singh Shooting Range, Delhi - DPCC",20-02-2026 08:00:00,28.498571,77.264840,PM10,74,248,166
India,Delhi,Delhi,"Dwarka-Sector 8, Delhi - DPCC ",20-02-2026 08:00:00,28.5710274,77.0719006,PM10,135,219,170
India,Chhattisgarh,Bhilai,"Hathkhoj, Bhilai - CECB",20-02-2026 08:00:00,21.224231,81.408350,CO,18,49,28
India,Chhattisgarh,Bilaspur,"Mangala, Bilaspur - NTPC",20-02-2026 08:00:00,22.08815,82.13737,PM2.5,46,72,59
India,Chhattisgarh,Bilaspur,"Mangala, Bilaspur - NTPC",20-02-2026 08:00:00,22.08815,82.13737,PM10,62,97,77
India,Chhattisgarh,Bilaspur,"Mangala, Bilaspur - NTPC",20-02-2026 08:00:00,22.08815,82.13737,SO2,11,73,25
India,Chhattisgarh,Korba,"Rampur, Korba - CECB",20-02-2026 08:00:00,22.368195,82.746431,SO2,7,81,19
India,Chhattisgarh,Kunjemura,"OP Jindal School, Kunjemura - CECB",20-02-2026 08:00:00,22.126650,83.483212,NO2,23,82,51
India,Delhi,Delhi,"Alipur, Delhi - DPCC",20-02-2026 08:00:00,28.815329,77.153010,PM10,48,292,159
India,Delhi,Delhi,"Anand Vihar, Delhi - DPCC",20-02-2026 08:00:00,28.647622,77.3158090,NO2,46,128,83
India,Delhi,Delhi,"Anand Vihar, Delhi - DPCC",20-02-2026 08:00:00,28.647622,77.3158090,NH3,6,14,11
India,Delhi,Delhi,"Anand Vihar, Delhi - DPCC",20-02-2026 08:00:00,28.647622,77.3158090,CO,62,110,95
India,Delhi,Delhi,"Ashok Vihar, Delhi - DPCC",20-02-2026 08:00:00,28.695381,77.181665,PM2.5,97,344,250
India,Delhi,Delhi,"Aya Nagar, Delhi - IMD",20-02-2026 08:00:00,28.4706914,77.1099364,CO,36,90,60
India,Delhi,Delhi,"Vivek Vihar, Delhi - DPCC",20-02-2026 08:00:00,28.672342,77.315260,CO,49,86,69
India,Delhi,Delhi,"Wazirpur, Delhi - DPCC",20-02-2026 08:00:00,28.699793,77.165453,PM2.5,98,332,232
India,Delhi,Delhi,"Wazirpur, Delhi - DPCC",20-02-2026 08:00:00,28.699793,77.165453,NO2,103,148,122
India,Gujarat,Ahmedabad,"Chandkheda, Ahmedabad - IITM",20-02-2026 08:00:00,23.107969,72.574648,NO2,12,101,36
India,Gujarat,Ahmedabad,"Gyaspur, Ahmedabad - IITM",20-02-2026 08:00:00,22.977134,72.553024,PM10,111,169,139
India,Gujarat,Ahmedabad,"Gyaspur, Ahmedabad - IITM",20-02-2026 08:00:00,22.977134,72.553024,OZONE,1,146,28
India,Gujarat,Ahmedabad,"Maninagar, Ahmedabad - GPCB",20-02-2026 08:00:00,23.002657,72.591912,PM10,NA,NA,NA
India,Gujarat,Ahmedabad,"Maninagar, Ahmedabad - GPCB",20-02-2026 08:00:00,23.002657,72.591912,NO2,NA,NA,NA
India,Gujarat,Ahmedabad,"Maninagar, Ahmedabad - GPCB",20-02-2026 08:00:00,23.002657,72.591912,OZONE,53,88,54
India,Gujarat,Ahmedabad,"Raikhad, Ahmedabad - IITM",20-02-2026 08:00:00,23.020509,72.579261,PM2.5,55,150,85
India,Gujarat,Ahmedabad,"Raikhad, Ahmedabad - IITM",20-02-2026 08:00:00,23.020509,72.579261,NO2,26,180,74
India,Gujarat,Ahmedabad,"Raikhad, Ahmedabad - IITM",20-02-2026 08:00:00,23.020509,72.579261,NH3,12,32,19
India,Delhi,Delhi,"Rohini, Delhi - DPCC",20-02-2026 08:00:00,28.732528,77.119920,OZONE,NA,NA,NA
India,Delhi,Delhi,"Shadipur, Delhi - CPCB",20-02-2026 08:00:00,28.6514781,77.1473105,NO2,62,157,92
India,Delhi,Delhi,"Shadipur, Delhi - CPCB",20-02-2026 08:00:00,28.6514781,77.1473105,SO2,13,21,17
India,Delhi,Delhi,"Sirifort, Delhi - CPCB",20-02-2026 08:00:00,28.5504249,77.2159377,NO2,24,33,26
India,Delhi,Delhi,"Sirifort, Delhi - CPCB",20-02-2026 08:00:00,28.5504249,77.2159377,CO,33,92,87
India,Delhi,Delhi,"Sonia Vihar, Delhi - DPCC",20-02-2026 08:00:00,28.710508,77.249485,PM10,88,249,157
India,Delhi,Delhi,"Sonia Vihar, Delhi - DPCC",20-02-2026 08:00:00,28.710508,77.249485,NO2,17,83,38
India,Delhi,Delhi,"Sri Aurobindo Marg, Delhi - DPCC",20-02-2026 08:00:00,28.531346,77.190156,NO2,11,107,48
India,Delhi,Delhi,"Sri Aurobindo Marg, Delhi - DPCC",20-02-2026 08:00:00,28.531346,77.190156,SO2,7,17,11
India,Delhi,Delhi,"Sri Aurobindo Marg, Delhi - DPCC",20-02-2026 08:00:00,28.531346,77.190156,OZONE,2,187,3
India,Delhi,Delhi,"Vivek Vihar, Delhi - DPCC",20-02-2026 08:00:00,28.672342,77.315260,NO2,47,94,66
India,Gujarat,Bhavnagar,"Vidhyanagar, Bhavnagar - Nexteng Enviro",20-02-2026 08:00:00,21.755417,72.139056,PM10,109,153,120
India,Gujarat,Bhavnagar,"Vidhyanagar, Bhavnagar - Nexteng Enviro",20-02-2026 08:00:00,21.755417,72.139056,SO2,13,78,26
India,Gujarat,Bhavnagar,"Vidhyanagar, Bhavnagar - Nexteng Enviro",20-02-2026 08:00:00,21.755417,72.139056,CO,120,124,121
India,Gujarat,Gandhinagar,"GIFT City, Gandhinagar - IITM",20-02-2026 08:00:00,23.163798,72.677768,PM10,82,164,125
India,Gujarat,Gandhinagar,"GIFT City, Gandhinagar - IITM",20-02-2026 08:00:00,23.163798,72.677768,NH3,5,11,7
India,Gujarat,Gandhinagar,"Sector-10, Gandhinagar - GPCB",20-02-2026 08:00:00,23.221714,72.654328,PM10,67,177,112
India,Gujarat,Gandhinagar,"Sector-10, Gandhinagar - GPCB",20-02-2026 08:00:00,23.221714,72.654328,NO2,22,51,28
India,Gujarat,Gandhinagar,"Sector-10, Gandhinagar - GPCB",20-02-2026 08:00:00,23.221714,72.654328,OZONE,3,95,27
India,Gujarat,Nandesari,"GIDC, Nandesari - Nandesari Ind. Association",20-02-2026 08:00:00,22.410802,73.097923,PM2.5,NA,NA,NA
India,Gujarat,Rajkot,"Mavdi, Rajkot - Nexteng Enviro ",20-02-2026 08:00:00,22.248853,70.776774,NH3,2,4,3
India,Gujarat,Rajkot,"Mavdi, Rajkot - Nexteng Enviro ",20-02-2026 08:00:00,22.248853,70.776774,OZONE,18,35,24
India,Gujarat,Surat,"Katargam, Surat - Nexteng Enviro",20-02-2026 08:00:00,21.217779 ,72.834787 ,SO2,31,102,62
India,Gujarat,Surat,"Science Center, Surat - SMC",20-02-2026 08:00:00,21.170046,72.795405,PM10,106,204,155
India,Gujarat,Surat,"Science Center, Surat - SMC",20-02-2026 08:00:00,21.170046,72.795405,SO2,23,27,25
India,Gujarat,Vadodara,"Bapunagar, Vadodara - Nexteng Enviro",20-02-2026 08:00:00,22.320153,73.216285,PM2.5,35,147,95
India,Gujarat,Vapi,"Phase-1 GIDC, Vapi - GPCB",20-02-2026 08:00:00,20.362421,72.918013,PM10,53,100,86
India,Haryana,Dharuhera,"Municipal Corporation Office, Dharuhera -  HSPCB",20-02-2026 08:00:00,28.206800,76.799700,PM10,117,189,156
India,Haryana,Dharuhera,"Municipal Corporation Office, Dharuhera -  HSPCB",20-02-2026 08:00:00,28.206800,76.799700,NO2,13,65,35
India,Haryana,Faridabad,"New Industrial Town, Faridabad - HSPCB",20-02-2026 08:00:00,28.39072,77.30059,NH3,11,12,11
India,Haryana,Faridabad,"New Industrial Town, Faridabad - HSPCB",20-02-2026 08:00:00,28.39072,77.30059,CO,10,13,12
India,Haryana,Faridabad,"Sector 11, Faridabad - HSPCB",20-02-2026 08:00:00,28.376058,77.315741,PM2.5,40,378,223
India,Haryana,Faridabad,"Sector 11, Faridabad - HSPCB",20-02-2026 08:00:00,28.376058,77.315741,NO2,30,33,31
India,Haryana,Faridabad,"Sector 11, Faridabad - HSPCB",20-02-2026 08:00:00,28.376058,77.315741,OZONE,14,16,15
India,Haryana,Faridabad,"Sector 30, Faridabad - HSPCB",20-02-2026 08:00:00,28.4417,77.3217,NH3,10,12,11
India,Gujarat,Ahmedabad,"Raikhad, Ahmedabad - IITM",20-02-2026 08:00:00,23.020509,72.579261,SO2,14,27,20
India,Gujarat,Ahmedabad,"Raikhad, Ahmedabad - IITM",20-02-2026 08:00:00,23.020509,72.579261,CO,1,70,18
India,Gujarat,Ahmedabad,"Rakhial, Ahmedabad - IITM",20-02-2026 08:00:00,23.016834,72.625775,NH3,4,13,8
India,Gujarat,Ahmedabad,"SAC ISRO Bopal, Ahmedabad - IITM",20-02-2026 08:00:00,23.041137,72.456691,NH3,7,15,11
India,Gujarat,Ahmedabad,"SAC ISRO Bopal, Ahmedabad - IITM",20-02-2026 08:00:00,23.041137,72.456691,CO,16,35,23
India,Gujarat,Ahmedabad,"SAC ISRO Satellite, Ahmedabad - IITM",20-02-2026 08:00:00,23.023389,72.515201,OZONE,2,63,20
India,Gujarat,Ahmedabad,"SVPI Airport Hansol, Ahmedabad - IITM",20-02-2026 08:00:00,23.076793,72.627874,NO2,10,110,39
India,Haryana,Ambala,"Patti Mehar, Ambala - HSPCB",20-02-2026 08:00:00,30.379589,76.778328,PM10,86,374,149
India,Haryana,Ambala,"Patti Mehar, Ambala - HSPCB",20-02-2026 08:00:00,30.379589,76.778328,NO2,8,22,11
India,Haryana,Ambala,"Patti Mehar, Ambala - HSPCB",20-02-2026 08:00:00,30.379589,76.778328,NH3,7,11,8
India,Haryana,Bahadurgarh,"Arya Nagar, Bahadurgarh - HSPCB",20-02-2026 08:00:00,28.6701,76.9254,SO2,7,7,7
India,Haryana,Bahadurgarh,"Arya Nagar, Bahadurgarh - HSPCB",20-02-2026 08:00:00,28.6701,76.9254,CO,44,51,46
India,Haryana,Ballabgarh,"Nathu Colony, Ballabgarh - HSPCB",20-02-2026 08:00:00,28.3419248,77.319699,PM10,109,394,256
India,Haryana,Ballabgarh,"Nathu Colony, Ballabgarh - HSPCB",20-02-2026 08:00:00,28.3419248,77.319699,CO,15,74,40
India,Delhi,Delhi,"Punjabi Bagh, Delhi - DPCC",20-02-2026 08:00:00,28.674045,77.131023,NH3,5,7,6
India,Delhi,Delhi,"Pusa, Delhi - DPCC",20-02-2026 08:00:00,28.639652,77.146275,PM2.5,167,354,245
India,Delhi,Delhi,"Pusa, Delhi - IMD",20-02-2026 08:00:00,28.636110,77.173332,CO,111,118,111
India,Delhi,Delhi,"R K Puram, Delhi - DPCC",20-02-2026 08:00:00,28.563262,77.186937,PM10,79,318,165
