country,state,city,station,last_update,latitude,longitude,pollutant_id,min_value,max_value,avg_value
India,Andhra_Pradesh,Tirumala,"Toll Gate, Tirumala - APPCB",04-04-2026 08:00:00,13.67,79.35,SO2,2,14,7
India,Andhra_Pradesh,Vijayawada,"HB Colony, Vijayawada - APPCB",04-04-2026 08:00:00,16.536107,80.594233,PM2.5,41,478,91
India,Andhra_Pradesh,Vijayawada,"HB Colony, Vijayawada - APPCB",04-04-2026 08:00:00,16.536107,80.594233,PM10,36,155,55
India,Andhra_Pradesh,Vijayawada,"HB Colony, Vijayawada - APPCB",04-04-2026 08:00:00,16.536107,80.594233,NO2,15,28,23
India,Andhra_Pradesh,Vijayawada,"HB Colony, Vijayawada - APPCB",04-04-2026 08:00:00,16.536107,80.594233,NH3,5,7,6
India,Andhra_Pradesh,Vijayawada,"HB Colony, Vijayawada - APPCB",04-04-2026 08:00:00,16.536107,80.594233,CO,18,38,36
India,Andhra_Pradesh,Vijayawada,"Kanuru, Vijayawada - APPCB",04-04-2026 08:00:00,16.486692,80.699436,CO,NA,NA,NA
India,Andhra_Pradesh,Vijayawada,"Rajiv Gandhi Park, Vijayawada - APPCB",04-04-2026 08:00:00,16.509717,80.612222,PM10,50,58,52
India,Andhra_Pradesh,Vijayawada,"Rajiv Gandhi Park, Vijayawada - APPCB",04-04-2026 08:00:00,16.509717,80.612222,CO,32,42,32
India,Andhra_Pradesh,Vijayawada,"Rajiv Gandhi Park, Vijayawada - APPCB",04-04-2026 08:00:00,16.509717,80.612222,OZONE,45,64,47
India,Assam,Guwahati,"Railway Colony, Guwahati - PCBA",04-04-2026 08:00:00,26.181742,91.78063,CO,NA,NA,NA
India,Assam,Nagaon,"Christianpatty, Nagaon - PCBA",04-04-2026 08:00:00,26.349082,92.68449,NH3,1,4,4
India,Assam,Nagaon,"Christianpatty, Nagaon - PCBA",04-04-2026 08:00:00,26.349082,92.68449,SO2,5,16,13
India,Assam,Nagaon,"Christianpatty, Nagaon - PCBA",04-04-2026 08:00:00,26.349082,92.68449,OZONE,25,206,45
India,Assam,Nalbari,"Bata Chowk, Nalbari - PCBA",04-04-2026 08:00:00,26.446912,91.439057,PM10,33,96,54
India,Assam,Nalbari,"Bata Chowk, Nalbari - PCBA",04-04-2026 08:00:00,26.446912,91.439057,NO2,10,15,14
India,Assam,Nalbari,"Bata Chowk, Nalbari - PCBA",04-04-2026 08:00:00,26.446912,91.439057,CO,16,22,21
India,Andhra_Pradesh,Amaravati,"Secretariat, Amaravati - APPCB",04-04-2026 08:00:00,16.5150833,80.5181667,PM10,25,135,50
India,Andhra_Pradesh,Anantapur,"Gulzarpet, Anantapur - APPCB",04-04-2026 08:00:00,14.675886,77.593027,NO2,16,21,18
India,Andhra_Pradesh,Anantapur,"Gulzarpet, Anantapur - APPCB",04-04-2026 08:00:00,14.675886,77.593027,CO,26,68,53
India,Andhra_Pradesh,Eluru,"District Court, Eluru - APPCB",04-04-2026 08:00:00,16.711754,81.092095,SO2,8,16,11
India,Andhra_Pradesh,Eluru,"District Court, Eluru - APPCB",04-04-2026 08:00:00,16.711754,81.092095,OZONE,3,32,8
India,Andhra_Pradesh,Guntur,"Rajendra Nagar North, Guntur - APPCB",04-04-2026 08:00:00,16.316553,80.413302,NO2,20,28,25
India,Andhra_Pradesh,Kadapa,"Yerramukkapalli, Kadapa - APPCB",04-04-2026 08:00:00,14.465052,78.824187,NO2,16,27,21
India,Andhra_Pradesh,Machilipatnam,"Srinivas Nagar Colony, Machilipatnam - APPCB",04-04-2026 08:00:00,16.186555,81.13219,SO2,7,117,19
India,Andhra_Pradesh,Tirumala,"Toll Gate, Tirumala - APPCB",04-04-2026 08:00:00,13.67,79.35,NO2,28,96,55
India,Arunachal_Pradesh,Naharlagun,"Naharlagun, Naharlagun - APSPCB",04-04-2026 08:00:00,27.103358,93.679645,NH3,1,1,1
India,Arunachal_Pradesh,Naharlagun,"Naharlagun, Naharlagun - APSPCB",04-04-2026 08:00:00,27.103358,93.679645,OZONE,6,6,6
India,Assam,Byrnihat,"Central Academy for SFS, Byrnihat - PCBA",04-04-2026 08:00:00,26.071318,91.87488,CO,14,101,60
India,Assam,Guwahati,"IITG, Guwahati - PCBA",04-04-2026 08:00:00,26.2028636,91.70046436,CO,6,10,6
India,Assam,Guwahati,"LGBI Airport, Guwahati - PCBA",04-04-2026 08:00:00,26.10887,91.589544,PM10,40,45,43
India,Assam,Guwahati,"LGBI Airport, Guwahati - PCBA",04-04-2026 08:00:00,26.10887,91.589544,OZONE,7,19,13
India,Assam,Guwahati,"LGBI Airport, Guwahati - PCBA",04-04-2026 08:00:00,26.10887,91.589544,CO,30,68,39
India,Assam,Guwahati,"Railway Colony, Guwahati - PCBA",04-04-2026 08:00:00,26.181742,91.78063,NO2,3,4,3
India,Assam,Guwahati,"IITG, Guwahati - PCBA",04-04-2026 08:00:00,26.2028636,91.70046436,NH3,5,5,5
India,Bihar,Kishanganj,"SDM Office_Khagra, Kishanganj - BSPCB",04-04-2026 08:00:00,26.0881305,87.93840336,OZONE,32,34,33
India,Bihar,Manguraha,"Forest Rest House, Manguraha - BSPCB",04-04-2026 08:00:00,27.308328,84.531742,PM10,79,143,117
India,Bihar,Manguraha,"Forest Rest House, Manguraha - BSPCB",04-04-2026 08:00:00,27.308328,84.531742,NO2,1,9,4
India,Bihar,Manguraha,"Forest Rest House, Manguraha - BSPCB",04-04-2026 08:00:00,27.308328,84.531742,CO,32,34,33
India,Bihar,Motihari,"Gandak Colony, Motihari - BSPCB",04-04-2026 08:00:00,26.63086,84.90051,NO2,3,4,4
India,Bihar,Munger,"Town Hall, Munger - BSPCB",04-04-2026 08:00:00,25.376776,86.471523,PM2.5,33,311,88
India,Bihar,Munger,"Town Hall, Munger - BSPCB",04-04-2026 08:00:00,25.376776,86.471523,SO2,5,111,78
India,Bihar,Munger,"Town Hall, Munger - BSPCB",04-04-2026 08:00:00,25.376776,86.471523,OZONE,9,10,10
India,Bihar,Muzaffarpur,"Buddha Colony, Muzaffarpur - BSPCB",04-04-2026 08:00:00,26.11442,85.39813,NH3,16,30,23
India,Bihar,Muzaffarpur,"Buddha Colony, Muzaffarpur - BSPCB",04-04-2026 08:00:00,26.11442,85.39813,OZONE,46,172,57
India,Assam,Sivasagar,"Girls College, Sivasagar - PCBA",04-04-2026 08:00:00,26.987634,94.636574,NO2,22,40,30
India,Bihar,Araria,"Kharahiya Basti, Araria - BSPCB",04-04-2026 08:00:00,26.146529,87.454184,NO2,1,11,2
India,Bihar,Araria,"Kharahiya Basti, Araria - BSPCB",04-04-2026 08:00:00,26.146529,87.454184,OZONE,10,11,10
India,Bihar,Arrah,"New DM Office, Arrah - BSPCB",04-04-2026 08:00:00,25.5626095,84.663264,NH3,1,2,2
India,Bihar,Arrah,"New DM Office, Arrah - BSPCB",04-04-2026 08:00:00,25.5626095,84.663264,OZONE,5,28,8
India,Bihar,Aurangabad,"Gurdeo Nagar, Aurangabad - BSPCB",04-04-2026 08:00:00,24.75746,84.366208,PM2.5,NA,NA,NA
India,Bihar,Aurangabad,"Gurdeo Nagar, Aurangabad - BSPCB",04-04-2026 08:00:00,24.75746,84.366208,OZONE,4,65,8
India,Bihar,Begusarai,"Lohiyanagar, Begusarai - BSPCB",04-04-2026 08:00:00,25.42742023,86.13886079,SO2,40,46,42
India,Bihar,Begusarai,"Lohiyanagar, Begusarai - BSPCB",04-04-2026 08:00:00,25.42742023,86.13886079,CO,16,30,18
India,Bihar,Patna,"IGSC Planetarium Complex, Patna - BSPCB",04-04-2026 08:00:00,25.610369,85.132568,SO2,1,26,16
India,Bihar,Patna,"Muradpur, Patna - BSPCB",04-04-2026 08:00:00,25.619651,85.147382,PM2.5,55,330,139
India,Bihar,Patna,"Muradpur, Patna - BSPCB",04-04-2026 08:00:00,25.619651,85.147382,NO2,4,6,5
India,Bihar,Patna,"Muradpur, Patna - BSPCB",04-04-2026 08:00:00,25.619651,85.147382,NH3,6,6,6
India,Bihar,Patna,"Rajbansi Nagar, Patna - BSPCB",04-04-2026 08:00:00,25.599486,85.113666,PM2.5,23,315,71
India,Bihar,Patna,"Rajbansi Nagar, Patna - BSPCB",04-04-2026 08:00:00,25.599486,85.113666,PM10,39,268,91
India,Bihar,Patna,"Rajbansi Nagar, Patna - BSPCB",04-04-2026 08:00:00,25.599486,85.113666,CO,14,93,41
India,Bihar,Patna,"Samanpura, Patna - BSPCB",04-04-2026 08:00:00,25.596727,85.085624,NO2,31,43,37
India,Bihar,Patna,"Samanpura, Patna - BSPCB",04-04-2026 08:00:00,25.596727,85.085624,CO,24,54,40
India,Bihar,Purnia,"Mariam Nagar, Purnia - BSPCB",04-04-2026 08:00:00,25.366336,87.117468,SO2,9,17,16
India,Bihar,Buxar,"Charitra Van, Buxar - BSPCB",04-04-2026 08:00:00,25.567520,83.966379,NH3,3,3,3
India,Bihar,Gaya,"Collectorate, Gaya - BSPCB",04-04-2026 08:00:00,24.7955,84.9994,NO2,NA,NA,NA
India,Bihar,Gaya,"SFTI Kusdihra, Gaya - BSPCB",04-04-2026 08:00:00,24.762518,84.982348,NO2,9,21,14
India,Bihar,Hajipur,"Industrial Area, Hajipur - BSPCB",04-04-2026 08:00:00,25.697189,85.245900,PM10,78,421,151
India,Bihar,Hajipur,"Industrial Area, Hajipur - BSPCB",04-04-2026 08:00:00,25.697189,85.245900,OZONE,15,134,35
India,Bihar,Katihar,"Mirchaibari, Katihar - BSPCB",04-04-2026 08:00:00,25.560083,87.553265,PM2.5,13,83,53
India,Bihar,Muzaffarpur,"MIT-Daudpur Kothi, Muzaffarpur - BSPCB",04-04-2026 08:00:00,26.1403345,85.3650192,OZONE,7,63,7
India,Bihar,Muzaffarpur,"Muzaffarpur Collectorate, Muzaffarpur - BSPCB",04-04-2026 08:00:00,26.1209,85.3647,PM2.5,72,130,87
India,Bihar,Muzaffarpur,"Muzaffarpur Collectorate, Muzaffarpur - BSPCB",04-04-2026 08:00:00,26.1209,85.3647,NO2,10,13,12
India,Bihar,Muzaffarpur,"Muzaffarpur Collectorate, Muzaffarpur - BSPCB",04-04-2026 08:00:00,26.1209,85.3647,CO,14,36,14
India,Bihar,Patna,"DRM Office Danapur, Patna - BSPCB",04-04-2026 08:00:00,25.586562,85.043586,NH3,8,11,9
India,Bihar,Patna,"DRM Office Danapur, Patna - BSPCB",04-04-2026 08:00:00,25.586562,85.043586,CO,28,46,38
India,Bihar,Patna,"DRM Office Danapur, Patna - BSPCB",04-04-2026 08:00:00,25.586562,85.043586,OZONE,25,35,30
India,Bihar,Rajgir,"Dangi Tola, Rajgir - BSPCB",04-04-2026 08:00:00,25.03280,85.41948,NO2,13,15,14
India,Bihar,Rajgir,"Dangi Tola, Rajgir - BSPCB",04-04-2026 08:00:00,25.03280,85.41948,CO,34,45,42
India,Bihar,Rajgir,"Dangi Tola, Rajgir - BSPCB",04-04-2026 08:00:00,25.03280,85.41948,OZONE,24,28,26
India,Bihar,Saharsa,"Police Line, Saharsa - BSPCB",04-04-2026 08:00:00,25.892357,86.590325,NO2,5,8,6
India,Bihar,Siwan,"Chitragupta Nagar, Siwan - BSPCB",04-04-2026 08:00:00,26.2271665,84.3570427,PM2.5,10,343,111
India,Bihar,Siwan,"Chitragupta Nagar, Siwan - BSPCB",04-04-2026 08:00:00,26.2271665,84.3570427,PM10,15,386,119
India,Bihar,Bettiah,"Kamalnath Nagar, Bettiah - BSPCB",04-04-2026 08:00:00,26.80365,84.51954,CO,23,48,32
India,Bihar,Bettiah,"Kamalnath Nagar, Bettiah - BSPCB",04-04-2026 08:00:00,26.80365,84.51954,OZONE,2,21,19
India,Bihar,Bhagalpur,"DM Office_Kachari Chowk, Bhagalpur - BSPCB",04-04-2026 08:00:00,25.251013,86.989001,OZONE,12,21,16
India,Bihar,Bhagalpur,"Mayaganj, Bhagalpur - BSPCB",04-04-2026 08:00:00,25.265194,87.012947,PM10,41,108,62
India,Bihar,Bhagalpur,"Mayaganj, Bhagalpur - BSPCB",04-04-2026 08:00:00,25.265194,87.012947,NH3,5,6,5
India,Bihar,Bhagalpur,"Mayaganj, Bhagalpur - BSPCB",04-04-2026 08:00:00,25.265194,87.012947,SO2,43,54,48
India,Bihar,Bhagalpur,"Mayaganj, Bhagalpur - BSPCB",04-04-2026 08:00:00,25.265194,87.012947,CO,64,82,72
India,Bihar,Bihar Sharif,"D M Colony, Bihar Sharif - BSPCB",04-04-2026 08:00:00,25.204762,85.514960,SO2,10,10,10
India,Bihar,Muzaffarpur,"MIT-Daudpur Kothi, Muzaffarpur - BSPCB",04-04-2026 08:00:00,26.1403345,85.3650192,PM2.5,80,113,89
India,Bihar,Muzaffarpur,"MIT-Daudpur Kothi, Muzaffarpur - BSPCB",04-04-2026 08:00:00,26.1403345,85.3650192,PM10,NA,NA,NA
India,Delhi,Delhi,"Chandni Chowk, Delhi - IITM",04-04-2026 08:00:00,28.656756,77.227234,NH3,6,9,8
India,Delhi,Delhi,"Commonwealth Sports Complex, Delhi - DPCC",04-04-2026 08:00:00,28.615828 ,77.271992 ,NO2,9,160,31
India,Delhi,Delhi,"Commonwealth Sports Complex, Delhi - DPCC",04-04-2026 08:00:00,28.615828 ,77.271992 ,NH3,2,11,7
India,Delhi,Delhi,"Commonwealth Sports Complex, Delhi - DPCC",04-04-2026 08:00:00,28.615828 ,77.271992 ,CO,20,103,30
India,Delhi,Delhi,"DTU, Delhi - CPCB",04-04-2026 08:00:00,28.7500499,77.1112615,NH3,8,14,11
India,Delhi,Delhi,"DTU, Delhi - CPCB",04-04-2026 08:00:00,28.7500499,77.1112615,OZONE,25,27,26
India,Delhi,Delhi,"Dr. Karni Singh Shooting Range, Delhi - DPCC",04-04-2026 08:00:00,28.498571,77.264840,PM2.5,13,311,73
India,Delhi,Delhi,"Dr. Karni Singh Shooting Range, Delhi - DPCC",04-04-2026 08:00:00,28.498571,77.264840,NH3,5,8,6
India,Delhi,Delhi,"Dwarka-Sector 8, Delhi - DPCC ",04-04-2026 08:00:00,28.5710274,77.0719006,PM2.5,20,332,81
India,Delhi,Delhi,"IGI Airport (T3), Delhi - IMD",04-04-2026 08:00:00,28.5627763,77.1180053,NO2,20,45,29
India,Chandigarh,Chandigarh,"Sector-25, Chandigarh - CPCC",04-04-2026 08:00:00,30.751462,76.762879,PM10,38,143,79
India,Chandigarh,Chandigarh,"Sector-25, Chandigarh - CPCC",04-04-2026 08:00:00,30.751462,76.762879,NO2,1,22,5
India,Chandigarh,Chandigarh,"Sector-53, Chandigarh - CPCC",04-04-2026 08:00:00,30.719859,76.738637,PM2.5,13,70,35
India,Chandigarh,Chandigarh,"Sector-53, Chandigarh - CPCC",04-04-2026 08:00:00,30.719859,76.738637,CO,32,59,45
India,Chhattisgarh,Bhilai,"32Bungalows, Bhilai - CECB",04-04-2026 08:00:00,21.194815,81.314770,PM2.5,17,34,28
India,Chhattisgarh,Bhilai,"32Bungalows, Bhilai - CECB",04-04-2026 08:00:00,21.194815,81.314770,PM10,18,37,28
India,Chhattisgarh,Bhilai,"32Bungalows, Bhilai - CECB",04-04-2026 08:00:00,21.194815,81.314770,NO2,3,34,12
India,Chhattisgarh,Bhilai,"32Bungalows, Bhilai - CECB",04-04-2026 08:00:00,21.194815,81.314770,CO,12,35,16
India,Chhattisgarh,Bhilai,"Civic Center, Bhilai - Bhilai Steel Plant",04-04-2026 08:00:00,21.185571,81.343175,PM10,26,127,47
India,Chhattisgarh,Bhilai,"Hathkhoj, Bhilai - CECB",04-04-2026 08:00:00,21.224231,81.408350,PM10,27,58,37
India,Delhi,Delhi,"IGI Airport (T3), Delhi - IMD",04-04-2026 08:00:00,28.5627763,77.1180053,OZONE,18,75,19
India,Delhi,Delhi,"IGNOU_Maidan Garhi, Delhi - DPCC",04-04-2026 08:00:00,28.493624 ,77.201159 ,PM10,NA,NA,NA
India,Delhi,Delhi,"IGNOU_Maidan Garhi, Delhi - DPCC",04-04-2026 08:00:00,28.493624 ,77.201159 ,NH3,2,7,4
India,Delhi,Delhi,"IHBAS, Dilshad Garden, Delhi - CPCB",04-04-2026 08:00:00,28.6811736,77.3025234,PM2.5,40,500,244
India,Delhi,Delhi,"IHBAS, Dilshad Garden, Delhi - CPCB",04-04-2026 08:00:00,28.6811736,77.3025234,NH3,4,7,5
India,Delhi,Delhi,"IIT Delhi, Delhi - IITM",04-04-2026 08:00:00,28.542460,77.191651,PM2.5,30,93,58
India,Delhi,Delhi,"ITO, Delhi - CPCB",04-04-2026 08:00:00,28.628624,77.241060,NO2,NA,NA,NA
India,Delhi,Delhi,"JNU, Delhi - DPCC",04-04-2026 08:00:00,28.540721 ,77.168544 ,PM2.5,30,331,103
India,Delhi,Delhi,"Jahangirpuri, Delhi - DPCC",04-04-2026 08:00:00,28.732820,77.170633,NH3,8,12,9
India,Delhi,Delhi,"Jawaharlal Nehru Stadium, Delhi - DPCC",04-04-2026 08:00:00,28.580280,77.233829,NO2,23,87,42
India,Delhi,Delhi,"Jawaharlal Nehru Stadium, Delhi - DPCC",04-04-2026 08:00:00,28.580280,77.233829,NH3,11,12,12
India,Delhi,Delhi,"Jawaharlal Nehru Stadium, Delhi - DPCC",04-04-2026 08:00:00,28.580280,77.233829,CO,48,63,53
India,Delhi,Delhi,"Lodhi Road, Delhi - IMD",04-04-2026 08:00:00,28.5918245,77.2273074,CO,23,34,30
India,Delhi,Delhi,"Major Dhyan Chand National Stadium, Delhi - DPCC",04-04-2026 08:00:00,28.611281,77.237738,PM10,66,500,187
India,Delhi,Delhi,"Major Dhyan Chand National Stadium, Delhi - DPCC",04-04-2026 08:00:00,28.611281,77.237738,NO2,29,81,46
India,Delhi,Delhi,"Mundka, Delhi - DPCC",04-04-2026 08:00:00,28.684678,77.076574,SO2,11,18,13
India,Chhattisgarh,Bilaspur,"Mangala, Bilaspur - NTPC",04-04-2026 08:00:00,22.08815,82.13737,NO2,NA,NA,NA
India,Chhattisgarh,Bilaspur,"Mangala, Bilaspur - NTPC",04-04-2026 08:00:00,22.08815,82.13737,SO2,NA,NA,NA
India,Chhattisgarh,Chhal,"Nawapara SECL Colony, Chhal - CECB",04-04-2026 08:00:00,22.118125,83.140608,NO2,7,23,12
India,Chhattisgarh,Korba,"Rampur, Korba - CECB",04-04-2026 08:00:00,22.368195,82.746431,PM10,33,89,51
India,Chhattisgarh,Korba,"Rampur, Korba - CECB",04-04-2026 08:00:00,22.368195,82.746431,NO2,8,28,18
India,Chhattisgarh,Korba,"Rampur, Korba - CECB",04-04-2026 08:00:00,22.368195,82.746431,SO2,14,89,51
India,Chhattisgarh,Korba,"Rampur, Korba - CECB",04-04-2026 08:00:00,22.368195,82.746431,OZONE,6,21,9
India,Chhattisgarh,Korba,"Urja Nagar, Korba - CECB",04-04-2026 08:00:00,22.348441,82.549611,PM10,NA,NA,NA
India,Chhattisgarh,Korba,"Urja Nagar, Korba - CECB",04-04-2026 08:00:00,22.348441,82.549611,CO,28,108,35
India,Chhattisgarh,Tumidih,"OP Jindal Industrial Park, Tumidih - CECB",04-04-2026 08:00:00,22.06631475,83.33820077,PM2.5,33,84,48
India,Delhi,Delhi,"Alipur, Delhi - DPCC",04-04-2026 08:00:00,28.815329,77.153010,NH3,12,16,14
India,Delhi,Delhi,"Anand Vihar, Delhi - DPCC",04-04-2026 08:00:00,28.647622,77.3158090,PM10,112,482,250
India,Delhi,Delhi,"Ashok Vihar, Delhi - DPCC",04-04-2026 08:00:00,28.695381,77.181665,PM2.5,38,318,88
India,Chhattisgarh,Milupara,"Govt. Higher Secondary School, Milupara - CECB",04-04-2026 08:00:00,22.1910172,83.5197009,OZONE,13,117,32
India,Chhattisgarh,Raipur,"AIIMS, Raipur - CECB",04-04-2026 08:00:00,21.258815,81.578979,NH3,3,4,3
India,Chhattisgarh,Raipur,"Bhatagaon New ISBT, Raipur - CECB",04-04-2026 08:00:00,21.219665,81.630094,NO2,25,48,31
India,Chhattisgarh,Raipur,"Bhatagaon New ISBT, Raipur - CECB",04-04-2026 08:00:00,21.219665,81.630094,SO2,2,23,8
India,Delhi,Delhi,"Ashok Vihar, Delhi - DPCC",04-04-2026 08:00:00,28.695381,77.181665,OZONE,4,84,14
India,Delhi,Delhi,"Bawana, Delhi - DPCC",04-04-2026 08:00:00,28.776200,77.051074,PM2.5,38,297,71
India,Delhi,Delhi,"Bawana, Delhi - DPCC",04-04-2026 08:00:00,28.776200,77.051074,SO2,8,14,11
India,Delhi,Delhi,"CRRI Mathura Road, Delhi - IMD",04-04-2026 08:00:00,28.5512005,77.2735737,NO2,44,68,51
India,Delhi,Delhi,"Chandni Chowk, Delhi - IITM",04-04-2026 08:00:00,28.656756,77.227234,PM2.5,55,321,155
India,Delhi,Delhi,"NSIT Dwarka, Delhi - CPCB",04-04-2026 08:00:00,28.60909,77.0325413,NO2,69,105,86
India,Delhi,Delhi,"NSIT Dwarka, Delhi - CPCB",04-04-2026 08:00:00,28.60909,77.0325413,SO2,6,21,9
India,Delhi,Delhi,"NSUT Jaffarpur, Delhi - DPCC",04-04-2026 08:00:00,28.594004 ,76.909423 ,NO2,1,48,16
India,Delhi,Delhi,"NSUT Jaffarpur, Delhi - DPCC",04-04-2026 08:00:00,28.594004 ,76.909423 ,OZONE,4,70,9
India,Delhi,Delhi,"Najafgarh, Delhi - DPCC",04-04-2026 08:00:00,28.570173,76.933762,PM2.5,13,303,76
India,Delhi,Delhi,"Najafgarh, Delhi - DPCC",04-04-2026 08:00:00,28.570173,76.933762,NO2,16,86,67
India,Delhi,Delhi,"Najafgarh, Delhi - DPCC",04-04-2026 08:00:00,28.570173,76.933762,CO,14,107,52
India,Delhi,Delhi,"Najafgarh, Delhi - DPCC",04-04-2026 08:00:00,28.570173,76.933762,OZONE,5,110,8
India,Delhi,Delhi,"Narela, Delhi - DPCC",04-04-2026 08:00:00,28.822836,77.101981,PM2.5,45,348,111
India,Delhi,Delhi,"Narela, Delhi - DPCC",04-04-2026 08:00:00,28.822836,77.101981,NO2,5,27,13
India,Delhi,Delhi,"Narela, Delhi - DPCC",04-04-2026 08:00:00,28.822836,77.101981,CO,16,63,54
India,Delhi,Delhi,"Nehru Nagar, Delhi - DPCC",04-04-2026 08:00:00,28.567890,77.250515,CO,16,84,26
India,Gujarat,Ahmedabad,"SVPI Airport Hansol, Ahmedabad - IITM",04-04-2026 08:00:00,23.076793,72.627874,CO,14,80,28
India,Gujarat,Ankleshwar,"GIDC, Ankleshwar - GPCB",04-04-2026 08:00:00,21.613267,73.010555,CO,28,68,47
India,Gujarat,Bhavnagar,"Vidhyanagar, Bhavnagar - Nexteng Enviro",04-04-2026 08:00:00,21.755417,72.139056,PM2.5,19,169,47
India,Gujarat,Gandhinagar,"GIFT City, Gandhinagar - IITM",04-04-2026 08:00:00,23.163798,72.677768,NO2,16,58,28
India,Gujarat,Gandhinagar,"IIPHG Lekawada, Gandhinagar - IITM",04-04-2026 08:00:00,23.243639,72.68994,SO2,2,17,4
India,Gujarat,Gandhinagar,"Sector-10, Gandhinagar - GPCB",04-04-2026 08:00:00,23.221714,72.654328,PM2.5,40,98,61
India,Gujarat,Mehsana,"Sadanand Nagar, Mehsana - Nexteng Enviro",04-04-2026 08:00:00,23.593150,72.372792,PM2.5,6,95,43
India,Gujarat,Ahmedabad,"Maninagar, Ahmedabad - GPCB",04-04-2026 08:00:00,23.002657,72.591912,PM2.5,39,313,101
India,Gujarat,Ahmedabad,"Raikhad, Ahmedabad - IITM",04-04-2026 08:00:00,23.020509,72.579261,PM10,62,237,130
India,Gujarat,Ahmedabad,"Rakhial, Ahmedabad - IITM",04-04-2026 08:00:00,23.016834,72.625775,SO2,7,131,37
India,Gujarat,Ahmedabad,"Rakhial, Ahmedabad - IITM",04-04-2026 08:00:00,23.016834,72.625775,CO,61,120,80
India,Gujarat,Ahmedabad,"SAC ISRO Satellite, Ahmedabad - IITM",04-04-2026 08:00:00,23.023389,72.515201,SO2,5,86,20
India,Gujarat,Ahmedabad,"SVPI Airport Hansol, Ahmedabad - IITM",04-04-2026 08:00:00,23.076793,72.627874,PM2.5,36,76,50
India,Gujarat,Ahmedabad,"SVPI Airport Hansol, Ahmedabad - IITM",04-04-2026 08:00:00,23.076793,72.627874,NO2,15,107,46
India,Gujarat,Ahmedabad,"SVPI Airport Hansol, Ahmedabad - IITM",04-04-2026 08:00:00,23.076793,72.627874,NH3,3,14,6
India,Gujarat,Ahmedabad,"SVPI Airport Hansol, Ahmedabad - IITM",04-04-2026 08:00:00,23.076793,72.627874,SO2,7,116,32
India,Delhi,Delhi,"North Campus, DU, Delhi - IMD",04-04-2026 08:00:00,28.6573814,77.1585447,NO2,11,40,22
India,Delhi,Delhi,"Okhla Phase-2, Delhi - DPCC",04-04-2026 08:00:00,28.530785,77.271255,NO2,31,70,51
India,Delhi,Delhi,"Okhla Phase-2, Delhi - DPCC",04-04-2026 08:00:00,28.530785,77.271255,NH3,10,17,14
India,Delhi,Delhi,"Patparganj, Delhi - DPCC",04-04-2026 08:00:00,28.623763,77.287209,PM2.5,27,322,88
India,Delhi,Delhi,"Patparganj, Delhi - DPCC",04-04-2026 08:00:00,28.623763,77.287209,NO2,21,71,34
India,Delhi,Delhi,"Patparganj, Delhi - DPCC",04-04-2026 08:00:00,28.623763,77.287209,SO2,15,25,21
India,Delhi,Delhi,"Punjabi Bagh, Delhi - DPCC",04-04-2026 08:00:00,28.674045,77.131023,SO2,35,43,39
India,Delhi,Delhi,"Wazirpur, Delhi - DPCC",04-04-2026 08:00:00,28.699793,77.165453,OZONE,5,79,11
India,Gujarat,Ahmedabad,"Chandkheda, Ahmedabad - IITM",04-04-2026 08:00:00,23.107969,72.574648,PM10,65,153,114
India,Gujarat,Ahmedabad,"Chandkheda, Ahmedabad - IITM",04-04-2026 08:00:00,23.107969,72.574648,CO,20,54,31
India,Gujarat,Ahmedabad,"Chandkheda, Ahmedabad - IITM",04-04-2026 08:00:00,23.107969,72.574648,OZONE,29,84,43
India,Gujarat,Ahmedabad,"Gyaspur, Ahmedabad - IITM",04-04-2026 08:00:00,22.977134,72.553024,PM2.5,23,171,76
India,Gujarat,Ahmedabad,"Gyaspur, Ahmedabad - IITM",04-04-2026 08:00:00,22.977134,72.553024,SO2,36,119,88
India,Delhi,Delhi,"R K Puram, Delhi - DPCC",04-04-2026 08:00:00,28.563262,77.186937,NO2,17,59,38
India,Delhi,Delhi,"R K Puram, Delhi - DPCC",04-04-2026 08:00:00,28.563262,77.186937,SO2,4,44,23
India,Delhi,Delhi,"R K Puram, Delhi - DPCC",04-04-2026 08:00:00,28.563262,77.186937,CO,18,68,52
India,Delhi,Delhi,"Sirifort, Delhi - CPCB",04-04-2026 08:00:00,28.5504249,77.2159377,NO2,22,46,34
India,Delhi,Delhi,"Sirifort, Delhi - CPCB",04-04-2026 08:00:00,28.5504249,77.2159377,NH3,9,17,13
India,Delhi,Delhi,"Sirifort, Delhi - CPCB",04-04-2026 08:00:00,28.5504249,77.2159377,CO,6,18,10
India,Delhi,Delhi,"Vivek Vihar, Delhi - DPCC",04-04-2026 08:00:00,28.672342,77.315260,SO2,10,23,16
India,Delhi,Delhi,"Vivek Vihar, Delhi - DPCC",04-04-2026 08:00:00,28.672342,77.315260,CO,24,80,69
India,Delhi,Delhi,"Wazirpur, Delhi - DPCC",04-04-2026 08:00:00,28.699793,77.165453,NH3,8,12,10
India,Delhi,Delhi,"Sri Aurobindo Marg, Delhi - DPCC",04-04-2026 08:00:00,28.531346,77.190156,PM10,39,500,153
India,Delhi,Delhi,"Sri Aurobindo Marg, Delhi - DPCC",04-04-2026 08:00:00,28.531346,77.190156,NO2,39,86,52
India,Delhi,Delhi,"Sri Aurobindo Marg, Delhi - DPCC",04-04-2026 08:00:00,28.531346,77.190156,OZONE,2,107,4
India,Delhi,Delhi,"Sonia Vihar, Delhi - DPCC",04-04-2026 08:00:00,28.710508,77.249485,PM10,59,500,184
India,Delhi,Delhi,"Sonia Vihar, Delhi - DPCC",04-04-2026 08:00:00,28.710508,77.249485,SO2,12,32,20
India,Haryana,Charkhi Dadri,"Mini Secretariat, Charkhi Dadri - HSPCB",04-04-2026 08:00:00,28.593883,76.270653,OZONE,14,19,16
India,Haryana,Dharuhera,"Municipal Corporation Office, Dharuhera -  HSPCB",04-04-2026 08:00:00,28.206800,76.799700,PM10,54,152,82
India,Haryana,Dharuhera,"Municipal Corporation Office, Dharuhera -  HSPCB",04-04-2026 08:00:00,28.206800,76.799700,NO2,14,51,37
India,Haryana,Faridabad,"New Industrial Town, Faridabad - HSPCB",04-04-2026 08:00:00,28.39072,77.30059,PM2.5,124,148,134
India,Haryana,Faridabad,"New Industrial Town, Faridabad - HSPCB",04-04-2026 08:00:00,28.39072,77.30059,CO,10,14,11
India,Haryana,Faridabad,"Sector 11, Faridabad - HSPCB",04-04-2026 08:00:00,28.376058,77.315741,PM2.5,42,500,252
India,Haryana,Faridabad,"Sector 30, Faridabad - HSPCB",04-04-2026 08:00:00,28.4417,77.3217,PM10,70,133,120
India,Haryana,Faridabad,"Sector 30, Faridabad - HSPCB",04-04-2026 08:00:00,28.4417,77.3217,OZONE,10,10,10
India,Haryana,Fatehabad,"Huda Sector, Fatehabad - HSPCB",04-04-2026 08:00:00,29.503664,75.467934,CO,25,41,29
India,Haryana,Fatehabad,"Huda Sector, Fatehabad - HSPCB",04-04-2026 08:00:00,29.503664,75.467934,OZONE,84,123,111
India,Gujarat,Vatva,"Phase-4 GIDC, Vatva - GPCB",04-04-2026 08:00:00,22.969611,72.643500,CO,14,118,34
India,Haryana,Ambala,"Patti Mehar, Ambala - HSPCB",04-04-2026 08:00:00,30.379589,76.778328,OZONE,22,29,24
India,Haryana,Bahadurgarh,"Arya Nagar, Bahadurgarh - HSPCB",04-04-2026 08:00:00,28.6701,76.9254,NH3,12,13,13
India,Haryana,Bahadurgarh,"Arya Nagar, Bahadurgarh - HSPCB",04-04-2026 08:00:00,28.6701,76.9254,SO2,6,7,6
India,Haryana,Ballabgarh,"Nathu Colony, Ballabgarh - HSPCB",04-04-2026 08:00:00,28.3419248,77.319699,PM2.5,179,223,199
India,Haryana,Ballabgarh,"Nathu Colony, Ballabgarh - HSPCB",04-04-2026 08:00:00,28.3419248,77.319699,PM10,NA,NA,NA
India,Haryana,Bhiwani,"H.B. Colony, Bhiwani - HSPCB",04-04-2026 08:00:00,28.806223,76.141105,PM2.5,54,392,166
India,Haryana,Bhiwani,"H.B. Colony, Bhiwani - HSPCB",04-04-2026 08:00:00,28.806223,76.141105,CO,22,28,24
India,Haryana,Charkhi Dadri,"Mini Secretariat, Charkhi Dadri - HSPCB",04-04-2026 08:00:00,28.593883,76.270653,PM2.5,63,500,205
India,Gujarat,Nandesari,"GIDC, Nandesari - Nandesari Ind. Association",04-04-2026 08:00:00,22.410802,73.097923,SO2,3,107,13
India,Gujarat,Rajkot,"Mavdi, Rajkot - Nexteng Enviro ",04-04-2026 08:00:00,22.248853,70.776774,PM10,49,119,71
India,Gujarat,Rajkot,"Mavdi, Rajkot - Nexteng Enviro ",04-04-2026 08:00:00,22.248853,70.776774,NO2,5,21,11
India,Gujarat,Surat,"Science Center, Surat - SMC",04-04-2026 08:00:00,21.170046,72.795405,NO2,14,16,15
India,Gujarat,Surat,"Science Center, Surat - SMC",04-04-2026 08:00:00,21.170046,72.795405,CO,23,44,31
India,Gujarat,Vadodara,"Bapunagar, Vadodara - Nexteng Enviro",04-04-2026 08:00:00,22.320153,73.216285,NH3,2,3,3
India,Gujarat,Vadodara,"Bapunagar, Vadodara - Nexteng Enviro",04-04-2026 08:00:00,22.320153,73.216285,CO,62,75,71
India,Gujarat,Vapi,"Phase-1 GIDC, Vapi - GPCB",04-04-2026 08:00:00,20.362421,72.918013,PM2.5,18,116,46
India,Gujarat,Vapi,"Phase-1 GIDC, Vapi - GPCB",04-04-2026 08:00:00,20.362421,72.918013,NH3,4,5,4
India,Haryana,Panchgaon,"Amity University, Panchgaon - IITM",04-04-2026 08:00:00,28.3153,76.9143,NH3,2,4,3
India,Haryana,Panchgaon,"Amity University, Panchgaon - IITM",04-04-2026 08:00:00,28.3153,76.9143,CO,25,44,39
India,Haryana,Panchgaon,"Amity University, Panchgaon - IITM",04-04-2026 08:00:00,28.3153,76.9143,OZONE,1,61,3
India,Haryana,Panchkula,"Sector-6, Panchkula - HSPCB ",04-04-2026 08:00:00,30.7057778,76.8531805555555,SO2,NA,NA,NA
India,Haryana,Panchkula,"Sector-6, Panchkula - HSPCB ",04-04-2026 08:00:00,30.7057778,76.8531805555555,OZONE,4,8,6
India,Haryana,Rohtak,"MD University, Rohtak - HSPCB",04-04-2026 08:00:00,28.52123,76.37138,PM10,8,500,112
India,Haryana,Sirsa,"F-Block, Sirsa - HSPCB",04-04-2026 08:00:00,29.536400,75.015800,PM2.5,22,414,81
India,Haryana,Sirsa,"F-Block, Sirsa - HSPCB",04-04-2026 08:00:00,29.536400,75.015800,PM10,39,500,118
India,Haryana,Sirsa,"F-Block, Sirsa - HSPCB",04-04-2026 08:00:00,29.536400,75.015800,NO2,18,20,19
India,Jharkhand,Dhanbad,"Sardar Patel Nagar, Dhanbad - JSPCB",04-04-2026 08:00:00,23.80569,86.44268,PM2.5,10,235,95
India,Jharkhand,Jorapokhar,"Tata Stadium, Jorapokhar - JSPCB",04-04-2026 08:00:00,23.707909,86.414670,SO2,NA,NA,NA
India,Karnataka,Bagalkot,"Vidayagiri, Bagalkot - KSPCB",04-04-2026 08:00:00,16.172806,75.659694,PM10,49,50,50
India,Karnataka,Bengaluru,"BTM Layout, Bengaluru - CPCB",04-04-2026 08:00:00,12.9135218,77.5950804,NO2,5,8,6
India,Karnataka,Bengaluru,"BWSSB Kadabesanahalli, Bengaluru - CPCB",04-04-2026 08:00:00,12.9352049,77.6814488,NO2,5,28,13
India,Karnataka,Bengaluru,"BWSSB Kadabesanahalli, Bengaluru - CPCB",04-04-2026 08:00:00,12.9352049,77.6814488,OZONE,17,61,21
India,Haryana,Sonipat,"Murthal, Sonipat - HSPCB",04-04-2026 08:00:00,29.027200,77.062100,PM2.5,61,301,156
India,Haryana,Sonipat,"Murthal, Sonipat - HSPCB",04-04-2026 08:00:00,29.027200,77.062100,PM10,107,199,152
India,Haryana,Sonipat,"Murthal, Sonipat - HSPCB",04-04-2026 08:00:00,29.027200,77.062100,CO,11,67,63
India,Haryana,Sonipat,"Murthal, Sonipat - HSPCB",04-04-2026 08:00:00,29.027200,77.062100,OZONE,25,26,26
India,Haryana,Yamuna Nagar,"Gobind Pura, Yamuna Nagar - HSPCB",04-04-2026 08:00:00,30.1480566,77.2893471,NH3,1,6,3
India,Haryana,Yamuna Nagar,"Gobind Pura, Yamuna Nagar - HSPCB",04-04-2026 08:00:00,30.1480566,77.2893471,OZONE,8,33,13
India,Jammu_and_Kashmir,Srinagar,"Khunmoh, Srinagar - JKPCC",04-04-2026 08:00:00,34.06313,74.96017,PM10,6,55,24
India,Haryana,Gurugram,"Teri Gram, Gurugram - HSPCB",04-04-2026 08:00:00,28.4275,77.1465,NH3,NA,NA,NA
India,Haryana,Gurugram,"Vikas Sadan, Gurugram - HSPCB",04-04-2026 08:00:00,28.4501238,77.0263051,PM10,50,500,142
India,Haryana,Hisar,"Urban Estate-II, Hisar - HSPCB",04-04-2026 08:00:00,29.140560,75.744941,NO2,NA,NA,NA
India,Haryana,Hisar,"Urban Estate-II, Hisar - HSPCB",04-04-2026 08:00:00,29.140560,75.744941,NH3,NA,NA,NA
India,Haryana,Hisar,"Urban Estate-II, Hisar - HSPCB",04-04-2026 08:00:00,29.140560,75.744941,OZONE,NA,NA,NA
India,Haryana,Jind,"Police Lines, Jind - HSPCB",04-04-2026 08:00:00,29.307814,76.337619,PM10,27,476,129
India,Haryana,Kaithal,"Rishi Nagar, Kaithal - HSPCB",04-04-2026 08:00:00,29.8006,76.4155,OZONE,3,13,5
India,Haryana,Karnal,"Sector-12, Karnal - HSPCB",04-04-2026 08:00:00,29.695300,77.002700,PM10,28,382,102
India,Haryana,Kurukshetra,"Sector-7, Kurukshetra - HSPCB",04-04-2026 08:00:00,29.966942,76.875879,PM2.5,55,254,106
India,Haryana,Manesar,"Sector-2 IMT, Manesar - HSPCB",04-04-2026 08:00:00,28.360699,76.936090,CO,2,15,12
India,Haryana,Gurugram,"Sector-51, Gurugram - HSPCB",04-04-2026 08:00:00,28.4227,77.0667,SO2,5,8,6
India,Haryana,Gurugram,"Teri Gram, Gurugram - HSPCB",04-04-2026 08:00:00,28.4275,77.1465,NO2,NA,NA,NA
India,Madhya Pradesh,Indore,"Regional Park, Indore - IMC",04-04-2026 08:00:00,22.6780,75.8559,CO,12,38,35
India,Madhya Pradesh,Indore,"Regional Park, Indore - IMC",04-04-2026 08:00:00,22.6780,75.8559,OZONE,6,10,7
India,Madhya Pradesh,Indore,"Residency Area, Indore - IMC",04-04-2026 08:00:00,22.7084,75.8815,PM10,23,92,55
India,Madhya Pradesh,Indore,"Residency Area, Indore - IMC",04-04-2026 08:00:00,22.7084,75.8815,OZONE,6,12,6
India,Madhya Pradesh,Jabalpur,"Govindh Bhavan Colony, Jabalpur - JMC",04-04-2026 08:00:00,23.163174,79.973061,PM2.5,13,53,27
India,Madhya Pradesh,Jabalpur,"Govindh Bhavan Colony, Jabalpur - JMC",04-04-2026 08:00:00,23.163174,79.973061,NO2,8,14,10
India,Madhya Pradesh,Jabalpur,"Govindh Bhavan Colony, Jabalpur - JMC",04-04-2026 08:00:00,23.163174,79.973061,SO2,1,6,2
India,Madhya Pradesh,Jabalpur,"Marhatal, Jabalpur - MPPCB",04-04-2026 08:00:00,23.168606,79.932247,PM2.5,8,48,25
India,Madhya Pradesh,Jabalpur,"Suhagi, Jabalpur - JMC",04-04-2026 08:00:00,23.218135,79.957770,PM10,14,82,38
India,Madhya Pradesh,Jabalpur,"Suhagi, Jabalpur - JMC",04-04-2026 08:00:00,23.218135,79.957770,SO2,13,41,18
India,Madhya Pradesh,Jabalpur,"Suhagi, Jabalpur - JMC",04-04-2026 08:00:00,23.218135,79.957770,CO,48,114,64
India,Karnataka,Bengaluru,"Kasturi Nagar, Bengaluru - KSPCB",04-04-2026 08:00:00,13.003872,77.664217,PM10,86,93,90
India,Karnataka,Bengaluru,"Peenya, Bengaluru - CPCB",04-04-2026 08:00:00,13.0270199,77.494094,NO2,19,31,25
India,Karnataka,Bengaluru,"Peenya, Bengaluru - CPCB",04-04-2026 08:00:00,13.0270199,77.494094,NH3,3,5,3
India,Karnataka,Bengaluru,"RVCE-Mailasandra, Bengaluru - KSPCB",04-04-2026 08:00:00,12.921418,77.502466,PM2.5,NA,NA,NA
India,Karnataka,Bengaluru,"RVCE-Mailasandra, Bengaluru - KSPCB",04-04-2026 08:00:00,12.921418,77.502466,PM10,NA,NA,NA
India,Karnataka,Bengaluru,"RVCE-Mailasandra, Bengaluru - KSPCB",04-04-2026 08:00:00,12.921418,77.502466,NH3,3,4,4
India,Karnataka,Bengaluru,"RVCE-Mailasandra, Bengaluru - KSPCB",04-04-2026 08:00:00,12.921418,77.502466,OZONE,25,29,28
India,Karnataka,Chamarajanagar,"Urban, Chamarajanagar - KSPCB",04-04-2026 08:00:00,11.55358,76.55521,PM2.5,19,40,27
India,Karnataka,Chikkaballapur,"Chikkaballapur Rural, Chikkaballapur - KSPCB",04-04-2026 08:00:00,13.428828,77.731418,PM10,41,106,59
India,Karnataka,Chikkaballapur,"Chikkaballapur Rural, Chikkaballapur - KSPCB",04-04-2026 08:00:00,13.428828,77.731418,NO2,5,30,13
India,Karnataka,Bengaluru,"Bapuji Nagar, Bengaluru - KSPCB",04-04-2026 08:00:00,12.951913,77.539784,CO,8,96,28
India,Karnataka,Bengaluru,"City Railway Station, Bengaluru - KSPCB",04-04-2026 08:00:00,12.9756843,77.5660749,PM10,103,109,108
India,Karnataka,Bengaluru,"City Railway Station, Bengaluru - KSPCB",04-04-2026 08:00:00,12.9756843,77.5660749,SO2,9,13,10
India,Karnataka,Bengaluru,"Hebbal, Bengaluru - KSPCB",04-04-2026 08:00:00,13.029152,77.585901,SO2,6,15,12
India,Karnataka,Bengaluru,"Hebbal, Bengaluru - KSPCB",04-04-2026 08:00:00,13.029152,77.585901,CO,11,106,20
India,Karnataka,Bengaluru,"Hebbal, Bengaluru - KSPCB",04-04-2026 08:00:00,13.029152,77.585901,OZONE,9,11,10
India,Karnataka,Bengaluru,"Hombegowda Nagar, Bengaluru - KSPCB",04-04-2026 08:00:00,12.938539,77.590100,NH3,3,5,4
India,Karnataka,Bengaluru,"Hombegowda Nagar, Bengaluru - KSPCB",04-04-2026 08:00:00,12.938539,77.590100,OZONE,14,185,57
India,Karnataka,Bengaluru,"Jigani, Bengaluru - KSPCB",04-04-2026 08:00:00,12.7816279,77.6299145,NH3,6,6,6
India,Karnataka,Bengaluru,"Jigani, Bengaluru - KSPCB",04-04-2026 08:00:00,12.7816279,77.6299145,SO2,19,20,20
India,Madhya Pradesh,Katni,"Gole Bazar, Katni - MPPCB",04-04-2026 08:00:00,23.50016,80.23284,PM10,18,102,53
India,Madhya Pradesh,Maihar,"Sahilara, Maihar - KJS Cements",04-04-2026 08:00:00,24.2613009,80.7231783,PM10,NA,NA,NA
India,Madhya Pradesh,Maihar,"Sahilara, Maihar - KJS Cements",04-04-2026 08:00:00,24.2613009,80.7231783,NO2,11,34,28
India,Madhya Pradesh,Pithampur,"Sector-2 Industrial Area, Pithampur - MPPCB",04-04-2026 08:00:00,22.624758,75.675238,PM10,52,177,126
India,Madhya Pradesh,Ratlam,"Shasthri Nagar, Ratlam - IPCA Lab",04-04-2026 08:00:00,23.331731,75.045981,PM2.5,3,75,42
India,Madhya Pradesh,Ratlam,"Shasthri Nagar, Ratlam - IPCA Lab",04-04-2026 08:00:00,23.331731,75.045981,NO2,12,19,14
India,Madhya Pradesh,Sagar,"Civil Lines, Sagar - MPPCB",04-04-2026 08:00:00,23.838586,78.759431,OZONE,36,121,69
India,Karnataka,Chikkamagaluru,"Kalyana Nagara, Chikkamagaluru - KSPCB",04-04-2026 08:00:00,13.328028,75.797056,OZONE,NA,NA,NA
India,Karnataka,Dharwad,"Kalabhavan, Dharwad - KSPCB",04-04-2026 08:00:00,15.459706,75.008381,PM2.5,40,47,43
India,Karnataka,Dharwad,"Kalabhavan, Dharwad - KSPCB",04-04-2026 08:00:00,15.459706,75.008381,SO2,7,8,8
India,Karnataka,Dharwad,"Kalabhavan, Dharwad - KSPCB",04-04-2026 08:00:00,15.459706,75.008381,CO,28,47,30
India,Karnataka,Hubballi,"Lingaraj Nagar, Hubballi - KSPCB",04-04-2026 08:00:00,15.3714823,75.1160168,PM2.5,31,38,34
India,Karnataka,Hubballi,"Lingaraj Nagar, Hubballi - KSPCB",04-04-2026 08:00:00,15.3714823,75.1160168,NO2,7,11,9
India,Karnataka,Hubballi,"Lingaraj Nagar, Hubballi - KSPCB",04-04-2026 08:00:00,15.3714823,75.1160168,CO,18,24,20
India,Karnataka,Kalaburagi,"Mahatma Basaveswar Colony, Kalaburgi - KSPCB",04-04-2026 08:00:00,17.336318,76.847397,PM10,19,61,46
India,Kerala,Thrissur,"Corporation Ground, Thrissur - Kerala PCB",04-04-2026 08:00:00,10.532400,76.215900,CO,13,32,16
India,Madhya Pradesh,Bhopal,"Idgah Hills, Bhopal - MPPCB",04-04-2026 08:00:00,23.264759,77.381568,CO,14,63,23
India,Madhya Pradesh,Bhopal,"Paryavaran Parisar, Bhopal - MPPCB",04-04-2026 08:00:00,23.210494,77.425409,PM10,17,94,48
India,Madhya Pradesh,Bhopal,"Paryavaran Parisar, Bhopal - MPPCB",04-04-2026 08:00:00,23.210494,77.425409,SO2,20,33,26
India,Madhya Pradesh,Bhopal,"T T Nagar, Bhopal - MPPCB",04-04-2026 08:00:00,23.233584,77.400574,NH3,5,6,6
India,Madhya Pradesh,Bhopal,"T T Nagar, Bhopal - MPPCB",04-04-2026 08:00:00,23.233584,77.400574,SO2,8,30,18
India,Madhya Pradesh,Damoh,"Shrivastav Colony, Damoh - MPPCB",04-04-2026 08:00:00,23.81748678,79.446246,CO,12,22,20
India,Madhya Pradesh,Gwalior,"City Center, Gwalior - MPPCB",04-04-2026 08:00:00,26.203442,78.193251,NO2,12,105,31
India,Madhya Pradesh,Gwalior,"Maharaj Bada, Gwalior - MPPCB",04-04-2026 08:00:00,26.200388,78.147714,PM10,49,267,105
India,Madhya Pradesh,Gwalior,"Maharaj Bada, Gwalior - MPPCB",04-04-2026 08:00:00,26.200388,78.147714,SO2,3,41,12
India,Madhya Pradesh,Indore,"Airport Area, Indore - IMC",04-04-2026 08:00:00,22.7289,75.8076,PM10,32,145,84
India,Madhya Pradesh,Indore,"Chhoti Gwaltoli, Indore - MPPCB",04-04-2026 08:00:00,22.4310,75.5213,NH3,13,22,20
India,Madhya Pradesh,Indore,"Maguda Nagar, Indore - IMC",04-04-2026 08:00:00,22.7524,75.8872,PM10,20,90,51
India,Karnataka,Kalaburagi,"Mahatma Basaveswar Colony, Kalaburgi - KSPCB",04-04-2026 08:00:00,17.336318,76.847397,OZONE,13,24,16
India,Karnataka,Mangalore,"Kadri, Mangalore - KSPCB",04-04-2026 08:00:00,12.889250,74.853000,OZONE,8,60,33
India,Karnataka,Mysuru,"Hebbal 1st Stage, Mysuru - KSPCB",04-04-2026 08:00:00,12.21041,76.37376,PM2.5,16,68,31
India,Karnataka,Mysuru,"Hebbal 1st Stage, Mysuru - KSPCB",04-04-2026 08:00:00,12.21041,76.37376,SO2,1,4,3
India,Karnataka,Vijayapura,"Ibrahimpur, Vijayapura - KSPCB",04-04-2026 08:00:00,16.802639,75.722694,OZONE,11,17,15
India,Kerala,Kollam,"Polayathode, Kollam - Kerala PCB",04-04-2026 08:00:00,8.8787,76.6073,SO2,2,3,2
India,Kerala,Thiruvananthapuram,"Kariavattom, Thiruvananthapuram - Kerala PCB",04-04-2026 08:00:00,8.563700,76.886500,PM2.5,18,39,29
India,Maharashtra,Mumbai,"Borivali East, Mumbai - IITM",04-04-2026 08:00:00,19.23241,72.86895,OZONE,9,81,22
India,Maharashtra,Mumbai,"Borivali East, Mumbai - MPCB",04-04-2026 08:00:00,19.2243333,72.8658113,NH3,1,9,4
India,Maharashtra,Mumbai,"Borivali East, Mumbai - MPCB",04-04-2026 08:00:00,19.2243333,72.8658113,SO2,12,18,15
India,Maharashtra,Mumbai,"Byculla, Mumbai - BMC",04-04-2026 08:00:00,18.9767,72.8380,PM2.5,11,76,31
India,Maharashtra,Mumbai,"Byculla, Mumbai - BMC",04-04-2026 08:00:00,18.9767,72.8380,NH3,2,13,6
India,Maharashtra,Mumbai,"Byculla, Mumbai - BMC",04-04-2026 08:00:00,18.9767,72.8380,SO2,1,5,3
India,Maharashtra,Mumbai,"Byculla, Mumbai - BMC",04-04-2026 08:00:00,18.9767,72.8380,CO,20,80,41
India,Maharashtra,Mumbai,"Chakala-Andheri East, Mumbai - IITM",04-04-2026 08:00:00,19.11074,72.86084,PM2.5,17,92,45
India,Maharashtra,Mumbai,"Chakala-Andheri East, Mumbai - IITM",04-04-2026 08:00:00,19.11074,72.86084,PM10,25,152,93
India,Maharashtra,Mumbai,"Chakala-Andheri East, Mumbai - IITM",04-04-2026 08:00:00,19.11074,72.86084,NH3,14,20,17
India,Maharashtra,Mumbai,"Chakala-Andheri East, Mumbai - IITM",04-04-2026 08:00:00,19.11074,72.86084,SO2,1,25,12
India,Maharashtra,Mumbai,"Chakala-Andheri East, Mumbai - IITM",04-04-2026 08:00:00,19.11074,72.86084,CO,2,24,4
India,Maharashtra,Akola,"Ramdaspeth, Akola - MPCB",04-04-2026 08:00:00,20.719516,77.000253,PM2.5,22,44,33
India,Maharashtra,Akola,"Ramdaspeth, Akola - MPCB",04-04-2026 08:00:00,20.719516,77.000253,CO,18,25,19
India,Maharashtra,Ambernath,"Chinchpada, Ambernath - MPCB",04-04-2026 08:00:00,19.2157840,73.1997810,PM10,27,109,46
India,Maharashtra,Ambernath,"Chinchpada, Ambernath - MPCB",04-04-2026 08:00:00,19.2157840,73.1997810,SO2,1,13,5
India,Maharashtra,Amravati,"Shri Shivaji Science College, Amravati - MPCB",04-04-2026 08:00:00,20.939198,77.765701,NH3,4,9,5
India,Maharashtra,Aurangabad,"MIDC Chilkalthana, Aurangabad - MPCB",04-04-2026 08:00:00,19.875620,75.387310,NH3,2,4,2
India,Maharashtra,Aurangabad,"MIDC Chilkalthana, Aurangabad - MPCB",04-04-2026 08:00:00,19.875620,75.387310,SO2,1,2,1
India,Maharashtra,Aurangabad,"MIDC Chilkalthana, Aurangabad - MPCB",04-04-2026 08:00:00,19.875620,75.387310,CO,8,13,10
India,Maharashtra,Aurangabad,"More Chowk Waluj, Aurangabad - MPCB",04-04-2026 08:00:00,19.8389439,75.244448,PM2.5,32,220,79
India,Madhya Pradesh,Satna,"Bandhavgar Colony, Satna - Birla Cement",04-04-2026 08:00:00,24.58434363,80.8549414,PM10,70,71,70
India,Madhya Pradesh,Singrauli,"Suryakiran Bhawan NCL, Singrauli - MPPCB",04-04-2026 08:00:00,24.108970,82.645580,PM10,118,375,196
India,Madhya Pradesh,Singrauli,"Suryakiran Bhawan NCL, Singrauli - MPPCB",04-04-2026 08:00:00,24.108970,82.645580,SO2,20,67,42
India,Madhya Pradesh,Singrauli,"Suryakiran Bhawan NCL, Singrauli - MPPCB",04-04-2026 08:00:00,24.108970,82.645580,CO,46,100,64
India,Madhya Pradesh,Singrauli,"Suryakiran Bhawan NCL, Singrauli - MPPCB",04-04-2026 08:00:00,24.108970,82.645580,OZONE,2,32,3
India,Madhya Pradesh,Ujjain,"Mahashweta Nagar, Ujjain - MPPCB",04-04-2026 08:00:00,23.1633321,75.800225,NO2,NA,NA,NA
India,Madhya Pradesh,Ujjain,"Mahashweta Nagar, Ujjain - MPPCB",04-04-2026 08:00:00,23.1633321,75.800225,CO,NA,NA,NA
India,Madhya Pradesh,Ujjain,"Mahashweta Nagar, Ujjain - MPPCB",04-04-2026 08:00:00,23.1633321,75.800225,OZONE,NA,NA,NA
India,Maharashtra,Ahmednagar,"Tarakpur, Ahmednagar - MPCB",04-04-2026 08:00:00,19.10122,74.73339,SO2,NA,NA,NA
India,Maharashtra,Chandrapur,"Chauhan Colony, Chandrapur - MPCB",04-04-2026 08:00:00,19.962900,79.298714,NO2,33,36,35
India,Maharashtra,Chandrapur,"Chauhan Colony, Chandrapur - MPCB",04-04-2026 08:00:00,19.962900,79.298714,NH3,1,2,1
India,Maharashtra,Chandrapur,"MIDC Khutala, Chandrapur - MPCB",04-04-2026 08:00:00,19.9775302,79.2337086,NO2,10,24,16
India,Maharashtra,Chandrapur,"MIDC Khutala, Chandrapur - MPCB",04-04-2026 08:00:00,19.9775302,79.2337086,CO,36,42,39
India,Maharashtra,Dhule,"Deopur, Dhule - MPCB",04-04-2026 08:00:00,20.918946,74.776388,NH3,1,2,1
India,Maharashtra,Dhule,"Deopur, Dhule - MPCB",04-04-2026 08:00:00,20.918946,74.776388,CO,8,20,13
India,Maharashtra,Dhule,"Deopur, Dhule - MPCB",04-04-2026 08:00:00,20.918946,74.776388,OZONE,19,62,20
India,Maharashtra,Dombivli,"Kalu Nagar, Dombivli - MPCB",04-04-2026 08:00:00,19.2268427 ,73.0788456 ,PM2.5,15,71,30
India,Maharashtra,Dombivli,"Kalu Nagar, Dombivli - MPCB",04-04-2026 08:00:00,19.2268427 ,73.0788456 ,PM10,37,111,59
India,Maharashtra,Beed,"Bir, Beed - MPCB",04-04-2026 08:00:00,18.988474,75.753873,CO,20,38,28
India,Maharashtra,Belapur,"CBD Belapur, Belapur - MPCB",04-04-2026 08:00:00,19.0243902,73.0406721,NO2,5,33,14
India,Maharashtra,Belapur,"CBD Belapur, Belapur - MPCB",04-04-2026 08:00:00,19.0243902,73.0406721,CO,18,62,58
India,Maharashtra,Belapur,"CBD Belapur, Belapur - MPCB",04-04-2026 08:00:00,19.0243902,73.0406721,OZONE,3,97,10
India,Maharashtra,Bhiwandi,"Gokul Nagar, Bhiwandi - MPCB",04-04-2026 08:00:00,19.309073,73.057223,PM10,45,144,79
India,Maharashtra,Bhiwandi,"Gokul Nagar, Bhiwandi - MPCB",04-04-2026 08:00:00,19.309073,73.057223,OZONE,13,90,15
India,Maharashtra,Boisar,"Khaira, Boisar - MPCB",04-04-2026 08:00:00,19.786089,72.757971,CO,8,56,24
India,Maharashtra,Kalyan,"Khadakpada, Kalyan - MPCB",04-04-2026 08:00:00,19.25292,73.142019,PM2.5,19,84,42
India,Maharashtra,Kalyan,"Pimpleshwar Mandir, Kalyan - MPCB",04-04-2026 08:00:00,19.192056,72.9585188,PM10,44,96,70
India,Maharashtra,Kolhapur,"Sinchan Bhavan, Kolhapur - MPCB",04-04-2026 08:00:00,16.7143745,74.2426398,PM10,31,100,60
India,Maharashtra,Latur,"Sawe Wadi, Latur - MPCB",04-04-2026 08:00:00,18.39963,76.57452,SO2,3,7,5
India,Maharashtra,Mahad,"Kamble Tarf Birwadi, Mahad - MPCB",04-04-2026 08:00:00,18.1023399,73.4783687,CO,1,26,2
India,Maharashtra,Mira-Bhayandar,"Bhayandar West, Mira-Bhayandar - MPCB",04-04-2026 08:00:00,19.296481,72.840923,NO2,12,55,23
India,Maharashtra,Mira-Bhayandar,"Bhayandar West, Mira-Bhayandar - MPCB",04-04-2026 08:00:00,19.296481,72.840923,CO,10,31,21
India,Maharashtra,Mumbai,"Bandra Kurla Complex, Mumbai - IITM",04-04-2026 08:00:00,19.053536,72.84643,PM10,62,188,113
India,Maharashtra,Mumbai,"Bandra Kurla Complex, Mumbai - MPCB",04-04-2026 08:00:00,19.065931,72.862131,NO2,13,39,24
India,Maharashtra,Mumbai,"Borivali East, Mumbai - IITM",04-04-2026 08:00:00,19.23241,72.86895,PM10,31,118,76
India,Maharashtra,Hingoli,"Ashta Vinayak Nagar, Hingoli - MPCB",04-04-2026 08:00:00,19.710842,77.151824,PM2.5,4,56,27
India,Maharashtra,Jalgaon,"Prabhat Colony, Jalgaon - MPCB",04-04-2026 08:00:00,21.001264,75.565602,SO2,NA,NA,NA
India,Maharashtra,Jalna,"Old MIDC, Jalna - MPCB",04-04-2026 08:00:00,19.854616,75.905894,SO2,NA,NA,NA
India,Maharashtra,Aurangabad,"Rachnakar Colony, Aurangabad - MPCB",04-04-2026 08:00:00,19.863756,75.321188,CO,18,42,23
India,Maharashtra,Mumbai,"Kandivali West, Mumbai - BMC",04-04-2026 08:00:00,19.215859,72.831718,SO2,2,4,3
India,Maharashtra,Mumbai,"Kandivali West, Mumbai - BMC",04-04-2026 08:00:00,19.215859,72.831718,OZONE,8,68,17
India,Maharashtra,Mumbai,"Kherwadi_Bandra East, Mumbai - MPCB",04-04-2026 08:00:00,19.0632143,72.8456324,NO2,5,42,15
India,Maharashtra,Mumbai,"Kherwadi_Bandra East, Mumbai - MPCB",04-04-2026 08:00:00,19.0632143,72.8456324,SO2,4,5,4
India,Maharashtra,Mumbai,"Khindipada-Bhandup West, Mumbai - IITM",04-04-2026 08:00:00,19.1653323,72.922099,PM10,NA,NA,NA
India,Maharashtra,Mumbai,"Khindipada-Bhandup West, Mumbai - IITM",04-04-2026 08:00:00,19.1653323,72.922099,CO,NA,NA,NA
India,Maharashtra,Mumbai,"Kurla, Mumbai - MPCB",04-04-2026 08:00:00,19.0863,72.8888,NO2,4,6,5
India,Maharashtra,Mumbai,"Kurla, Mumbai - MPCB",04-04-2026 08:00:00,19.0863,72.8888,NH3,1,2,1
India,Maharashtra,Mumbai,"Malad West, Mumbai - IITM",04-04-2026 08:00:00,19.19709,72.82204,NH3,4,13,6
India,Maharashtra,Mumbai,"Malad West, Mumbai - IITM",04-04-2026 08:00:00,19.19709,72.82204,CO,20,44,26
India,Maharashtra,Mumbai,"Mazgaon, Mumbai - IITM",04-04-2026 08:00:00,18.96702,72.84214,PM10,49,152,94
India,Maharashtra,Mumbai,"Sion, Mumbai - MPCB",04-04-2026 08:00:00,19.047000,72.874600,PM2.5,27,120,52
India,Maharashtra,Mumbai,"Sion, Mumbai - MPCB",04-04-2026 08:00:00,19.047000,72.874600,CO,12,18,18
India,Maharashtra,Mumbai,"Vile Parle West, Mumbai - MPCB",04-04-2026 08:00:00,19.10861,72.83622,NO2,11,11,11
India,Maharashtra,Mumbai,"Worli, Mumbai -MPCB",04-04-2026 08:00:00,18.9942180,72.8158167,NO2,12,12,12
India,Maharashtra,Mumbai,"Worli, Mumbai -MPCB",04-04-2026 08:00:00,18.9942180,72.8158167,CO,14,32,20
India,Maharashtra,Nagpur,"Ambazari, Nagpur - MPCB",04-04-2026 08:00:00,21.121801,79.04952,NO2,4,50,18
India,Maharashtra,Nagpur,"Ambazari, Nagpur - MPCB",04-04-2026 08:00:00,21.121801,79.04952,NH3,1,7,2
India,Maharashtra,Nagpur,"Opp GPO Civil Lines, Nagpur - MPCB",04-04-2026 08:00:00,21.152875,79.0517531,NO2,9,103,26
India,Maharashtra,Nagpur,"Opp GPO Civil Lines, Nagpur - MPCB",04-04-2026 08:00:00,21.152875,79.0517531,NH3,3,9,4
India,Maharashtra,Navi Mumbai,"Kopripada-Vashi, Navi Mumbai - MPCB",04-04-2026 08:00:00,19.090337,73.014232,PM10,68,126,95
India,Maharashtra,Navi Mumbai,"Kopripada-Vashi, Navi Mumbai - MPCB",04-04-2026 08:00:00,19.090337,73.014232,NO2,10,29,17
India,Maharashtra,Navi Mumbai,"Kopripada-Vashi, Navi Mumbai - MPCB",04-04-2026 08:00:00,19.090337,73.014232,CO,20,56,40
India,Maharashtra,Navi Mumbai,"Nerul, Navi Mumbai - MPCB",04-04-2026 08:00:00,19.008751,73.016620,PM10,NA,NA,NA
India,Maharashtra,Navi Mumbai,"Nerul, Navi Mumbai - MPCB",04-04-2026 08:00:00,19.008751,73.016620,NO2,54,54,54
India,Maharashtra,Navi Mumbai,"Nerul, Navi Mumbai - MPCB",04-04-2026 08:00:00,19.008751,73.016620,NH3,6,6,6
India,Maharashtra,Navi Mumbai,"Sanpada, Navi Mumbai - MPCB",04-04-2026 08:00:00,19.0575752,73.0151367,NH3,2,10,5
India,Maharashtra,Navi Mumbai,"Sanpada, Navi Mumbai - MPCB",04-04-2026 08:00:00,19.0575752,73.0151367,SO2,18,66,33
India,Maharashtra,Navi Mumbai,"Sector-2E Kalamboli, Navi Mumbai - MPCB",04-04-2026 08:00:00,19.02579,73.10297,PM10,42,91,64
India,Maharashtra,Navi Mumbai,"Sector-2E Kalamboli, Navi Mumbai - MPCB",04-04-2026 08:00:00,19.02579,73.10297,SO2,4,14,7
India,Maharashtra,Navi Mumbai,"Sector-2E Kalamboli, Navi Mumbai - MPCB",04-04-2026 08:00:00,19.02579,73.10297,OZONE,1,69,3
India,Maharashtra,Navi Mumbai,"Tondare-Taloja, Navi Mumbai - MPCB",04-04-2026 08:00:00,19.0630,73.1209,SO2,2,3,2
India,Maharashtra,Pimpri-Chinchwad,"Bhosari, Pune - IITM",04-04-2026 08:00:00,18.640051,73.848956,PM2.5,31,131,60
India,Maharashtra,Pimpri-Chinchwad,"Bhumkar Nagar, Pune - IITM",04-04-2026 08:00:00,18.605770,73.749976,CO,NA,NA,NA
India,Maharashtra,Mumbai,"Mindspace-Malad West, Mumbai - MPCB",04-04-2026 08:00:00,19.1878657,72.8304069,NH3,2,5,3
India,Maharashtra,Mumbai,"Powai, Mumbai - MPCB",04-04-2026 08:00:00,19.137500,72.915056,NO2,7,8,7
India,Maharashtra,Mumbai,"Sewri, Mumbai - BMC",04-04-2026 08:00:00,19.000084,72.856730,NO2,NA,NA,NA
India,Maharashtra,Mumbai,"Sewri, Mumbai - BMC",04-04-2026 08:00:00,19.000084,72.856730,NH3,NA,NA,NA
India,Maharashtra,Mumbai,"Shivaji Nagar, Mumbai - BMC",04-04-2026 08:00:00,19.060498,72.923356,PM2.5,16,56,34
India,Maharashtra,Mumbai,"Shivaji Nagar, Mumbai - BMC",04-04-2026 08:00:00,19.060498,72.923356,NH3,2,5,3
India,Maharashtra,Mumbai,"Shivaji Nagar, Mumbai - BMC",04-04-2026 08:00:00,19.060498,72.923356,SO2,1,15,9
India,Maharashtra,Nagpur,"Opp GPO Civil Lines, Nagpur - MPCB",04-04-2026 08:00:00,21.152875,79.0517531,SO2,6,24,13
India,Maharashtra,Nagpur,"Ram Nagar, Nagpur - MPCB",04-04-2026 08:00:00,21.143383,79.048912,NH3,4,4,4
India,Maharashtra,Nashik,"Gangapur Road, Nashik - MPCB",04-04-2026 08:00:00,20.0073285,73.7762427,PM10,39,115,74
India,Maharashtra,Nashik,"MIDC Ambad, Nashik - MPCB",04-04-2026 08:00:00,19.950220,73.731480,PM10,67,112,82
India,Maharashtra,Nashik,"MIDC Ambad, Nashik - MPCB",04-04-2026 08:00:00,19.950220,73.731480,NH3,2,5,3
India,Maharashtra,Nashik,"MIDC Ambad, Nashik - MPCB",04-04-2026 08:00:00,19.950220,73.731480,SO2,3,10,6
India,Maharashtra,Mumbai,"Chembur, Mumbai - MPCB",04-04-2026 08:00:00,19.0364585,72.8954371,SO2,3,14,8
India,Maharashtra,Mumbai,"Colaba, Mumbai - MPCB",04-04-2026 08:00:00,18.910000,72.820000,SO2,NA,NA,NA
India,Maharashtra,Mumbai,"Deonar, Mumbai - IITM",04-04-2026 08:00:00,19.04946,72.9230,NO2,NA,NA,NA
India,Maharashtra,Mumbai,"Ghatkopar, Mumbai - BMC",04-04-2026 08:00:00,19.083694,72.920967,PM10,43,98,69
India,Maharashtra,Mumbai,"Ghatkopar, Mumbai - BMC",04-04-2026 08:00:00,19.083694,72.920967,SO2,1,3,2
India,Maharashtra,Mumbai,"Kandivali West, Mumbai - BMC",04-04-2026 08:00:00,19.215859,72.831718,PM2.5,10,45,25
India,Maharashtra,Pimpri-Chinchwad,"Savta Mali Nagar, Pimpri-Chinchwad - IITM",04-04-2026 08:00:00,18.614767,73.799516,PM10,55,109,79
India,Maharashtra,Pimpri-Chinchwad,"Thergaon, Pimpri Chinchwad - MPCB",04-04-2026 08:00:00,18.616318,73.765797,PM10,39,97,61
India,Maharashtra,Pimpri-Chinchwad,"Thergaon, Pimpri Chinchwad - MPCB",04-04-2026 08:00:00,18.616318,73.765797,OZONE,22,83,26
India,Maharashtra,Pune,"Hadapsar, Pune - IITM",04-04-2026 08:00:00,18.501793,73.927532,PM10,98,134,114
India,Maharashtra,Pune,"Hadapsar, Pune - IITM",04-04-2026 08:00:00,18.501793,73.927532,CO,40,116,48
India,Maharashtra,Pune,"Katraj Dairy, Pune - MPCB",04-04-2026 08:00:00,18.454450,73.854155,PM10,24,73,46
India,Odisha,Rourkela,"Sector-2, Rourkela - OSPCB",04-04-2026 08:00:00,22.24500000,84.88111111,NO2,9,13,9
India,Odisha,Rourkela,"Sector-2, Rourkela - OSPCB",04-04-2026 08:00:00,22.24500000,84.88111111,CO,29,50,36
India,Odisha,Suakati,"OMC Colony, Suakati - OSPCB",04-04-2026 08:00:00,21.606865,85.510538,PM2.5,62,107,85
India,Odisha,Suakati,"OMC Colony, Suakati - OSPCB",04-04-2026 08:00:00,21.606865,85.510538,OZONE,45,97,59
India,Puducherry,Puducherry,"Jawahar Nagar, Puducherry - PPCC",04-04-2026 08:00:00,11.9309,79.8027,PM10,13,64,26
India,Puducherry,Puducherry,"Jawahar Nagar, Puducherry - PPCC",04-04-2026 08:00:00,11.9309,79.8027,OZONE,6,48,13
India,Punjab,Amritsar,"Golden Temple, Amritsar - PPCB",04-04-2026 08:00:00,31.620000,74.876512,SO2,14,17,15
India,Punjab,Bathinda,"Hardev Nagar, Bathinda - PPCB",04-04-2026 08:00:00,30.233011,74.907758,PM2.5,4,41,16
India,Punjab,Bathinda,"Hardev Nagar, Bathinda - PPCB",04-04-2026 08:00:00,30.233011,74.907758,PM10,3,141,47
India,Meghalaya,Shillong,"JN Stadium, Shillong - Meghalaya PCB",04-04-2026 08:00:00,25.5803419,91.8942571,CO,14,38,17
India,Mizoram,Aizawl,"Sikulpuikawn, Aizawl - Mizoram PCB",04-04-2026 08:00:00,23.7176342,92.7192841,CO,3,4,3
India,Nagaland,Kohima,"PWD Junction, Kohima - NPCB",04-04-2026 08:00:00,25.6635413,94.0989878,PM2.5,27,83,48
India,Nagaland,Kohima,"PWD Junction, Kohima - NPCB",04-04-2026 08:00:00,25.6635413,94.0989878,PM10,24,65,39
India,Odisha,Angul,"Hakimapada, Angul - OSPCB",04-04-2026 08:00:00,20.832874,85.104082,PM2.5,54,301,136
India,Odisha,Angul,"Hakimapada, Angul - OSPCB",04-04-2026 08:00:00,20.832874,85.104082,PM10,68,221,125
India,Odisha,Balasore,"Kalidaspur, Balasore - OSPCB",04-04-2026 08:00:00,21.51161,86.89088,NH3,1,2,1
India,Odisha,Baripada,"Meher Colony, Baripada - OSPCB",04-04-2026 08:00:00,21.941841,86.728318,PM10,86,105,96
India,Odisha,Baripada,"Meher Colony, Baripada - OSPCB",04-04-2026 08:00:00,21.941841,86.728318,NH3,1,2,2
India,Odisha,Bhubaneswar,"Lingraj Mandir, Bhubaneswar - OSPCB",04-04-2026 08:00:00,20.240790,85.836784,PM2.5,15,77,43
India,Odisha,Bhubaneswar,"Lingraj Mandir, Bhubaneswar - OSPCB",04-04-2026 08:00:00,20.240790,85.836784,CO,5,38,15
India,Odisha,Bhubaneswar,"Lingraj Mandir, Bhubaneswar - OSPCB",04-04-2026 08:00:00,20.240790,85.836784,OZONE,5,144,9
India,Odisha,Bhubaneswar,"Patia, Bhubaneswar - OSPCB",04-04-2026 08:00:00,20.34652,85.81630,PM2.5,15,87,44
India,Odisha,Bhubaneswar,"Patia, Bhubaneswar - OSPCB",04-04-2026 08:00:00,20.34652,85.81630,PM10,26,146,63
India,Odisha,Bhubaneswar,"Patia, Bhubaneswar - OSPCB",04-04-2026 08:00:00,20.34652,85.81630,SO2,1,8,5
India,Odisha,Bileipada,"Tata Township, Bileipada - OSPCB",04-04-2026 08:00:00,22.06156703,85.47409613,SO2,10,11,11
India,Maharashtra,Sangli,"Vijay Nagar, Sangli - MPCB",04-04-2026 08:00:00, 16.5038,74.3623,NO2,6,29,15
India,Maharashtra,Sangli,"Vijay Nagar, Sangli - MPCB",04-04-2026 08:00:00, 16.5038,74.3623,CO,10,34,14
India,Maharashtra,Solapur,"Dnyaneshwar Nagar, Solapur - MPCB",04-04-2026 08:00:00,17.6336264,75.9132495,PM10,26,103,54
India,Maharashtra,Solapur,"Dnyaneshwar Nagar, Solapur - MPCB",04-04-2026 08:00:00,17.6336264,75.9132495,NH3,10,20,14
India,Maharashtra,Solapur,"Dnyaneshwar Nagar, Solapur - MPCB",04-04-2026 08:00:00,17.6336264,75.9132495,CO,13,32,16
India,Maharashtra,Solapur,"Dnyaneshwar Nagar, Solapur - MPCB",04-04-2026 08:00:00,17.6336264,75.9132495,OZONE,29,73,37
India,Maharashtra,Thane,"Kasarvadavali, Thane - MPCB",04-04-2026 08:00:00,19.26777,72.97182,PM2.5,49,79,67
India,Maharashtra,Thane,"Kasarvadavali, Thane - MPCB",04-04-2026 08:00:00,19.26777,72.97182,OZONE,2,49,6
India,Maharashtra,Thane,"Upvan Fort, Thane - MPCB",04-04-2026 08:00:00,19.222279,72.957979,PM10,53,102,77
India,Maharashtra,Ulhasnagar,"Sidhi Vinayak Nagar, Ulhasnagar - MPCB",04-04-2026 08:00:00,19.235581,73.159121,NH3,3,7,6
India,Maharashtra,Ulhasnagar,"Sidhi Vinayak Nagar, Ulhasnagar - MPCB",04-04-2026 08:00:00,19.235581,73.159121,CO,6,22,15
India,Maharashtra,Ulhasnagar,"Vithalwadi, Ulhasnagar - MPCB",04-04-2026 08:00:00,19.2307571 ,73.1551920,PM10,20,82,48
India,Maharashtra,Ulhasnagar,"Vithalwadi, Ulhasnagar - MPCB",04-04-2026 08:00:00,19.2307571 ,73.1551920,NH3,1,3,2
India,Maharashtra,Virar,"Bolinj, Virar - MPCB",04-04-2026 08:00:00,19.4458210,72.7988231,SO2,3,9,6
India,Maharashtra,Virar,"Bolinj, Virar - MPCB",04-04-2026 08:00:00,19.4458210,72.7988231,CO,9,74,39
India,Odisha,Brajrajnagar,"GM Office, Brajrajnagar - OSPCB",04-04-2026 08:00:00,21.8004996,83.8396977,NO2,12,13,13
India,Odisha,Brajrajnagar,"GM Office, Brajrajnagar - OSPCB",04-04-2026 08:00:00,21.8004996,83.8396977,CO,10,52,49
India,Odisha,Byasanagar,"Ferro Chrome Colony, Byasanagar - OSPCB",04-04-2026 08:00:00,20.94185,86.11510,PM10,61,109,78
India,Odisha,Cuttack,"CDA Area, Cuttack - OSPCB",04-04-2026 08:00:00,20.48891     ,85.84768     ,PM2.5,13,70,39
India,Odisha,Keonjhar,"Jagamohanpur, Keonjhar - OSPCB",04-04-2026 08:00:00,21.643900,85.599355,NH3,5,5,5
India,Odisha,Keonjhar,"Jagamohanpur, Keonjhar - OSPCB",04-04-2026 08:00:00,21.643900,85.599355,CO,33,64,51
India,Odisha,Rairangpur,"Divisional Forest Office, Rairangpur - OSPCB",04-04-2026 08:00:00,22.265816,86.174829,CO,1,41,8
India,Odisha,Rourkela,"Raghunathpali, Rourkela - OSPCB",04-04-2026 08:00:00,22.220833,84.809444,PM10,51,142,88
India,Maharashtra,Pune,"Katraj Dairy, Pune - MPCB",04-04-2026 08:00:00,18.454450,73.854155,SO2,2,3,3
India,Maharashtra,Pune,"Katraj Dairy, Pune - MPCB",04-04-2026 08:00:00,18.454450,73.854155,OZONE,14,57,18
India,Odisha,Balasore,"Kalidaspur, Balasore - OSPCB",04-04-2026 08:00:00,21.51161,86.89088,OZONE,10,168,22
India,Punjab,Jalandhar,"Civil Line, Jalandhar - PPCB",04-04-2026 08:00:00,31.321907,75.578914,SO2,16,19,18
India,Punjab,Khanna,"Kalal Majra, Khanna - PPCB",04-04-2026 08:00:00,30.736056 ,76.209694,NH3,7,8,7
India,Punjab,Ludhiana,"Punjab Agricultural University, Ludhiana - PPCB",04-04-2026 08:00:00,30.9028,75.8086,PM2.5,80,262,106
India,Punjab,Ludhiana,"Punjab Agricultural University, Ludhiana - PPCB",04-04-2026 08:00:00,30.9028,75.8086,PM10,97,178,111
India,Punjab,Mandi Gobindgarh,"RIMT University, Mandi Gobindgarh - PPCB",04-04-2026 08:00:00,30.649961,76.331442,SO2,3,47,14
India,Punjab,Mandi Gobindgarh,"RIMT University, Mandi Gobindgarh - PPCB",04-04-2026 08:00:00,30.649961,76.331442,CO,10,102,34
India,Punjab,Rupnagar,"Ratanpura, Rupnagar - Ambuja Cements",04-04-2026 08:00:00,31.0325454,76.5623046,CO,40,52,47
India,Rajasthan,Ajmer,"Civil Lines,  Ajmer - RSPCB",04-04-2026 08:00:00,26.470859,74.646594,PM2.5,48,82,59
India,Rajasthan,Ajmer,"Civil Lines,  Ajmer - RSPCB",04-04-2026 08:00:00,26.470859,74.646594,NO2,24,36,30
India,Rajasthan,Ajmer,"Civil Lines,  Ajmer - RSPCB",04-04-2026 08:00:00,26.470859,74.646594,SO2,3,4,3
India,Rajasthan,Alwar,"Moti Doongri, Alwar - RSPCB",04-04-2026 08:00:00,27.554793,76.611536,PM10,NA,NA,NA
India,Rajasthan,Alwar,"Moti Doongri, Alwar - RSPCB",04-04-2026 08:00:00,27.554793,76.611536,NH3,NA,NA,NA
India,Rajasthan,Alwar,"Moti Doongri, Alwar - RSPCB",04-04-2026 08:00:00,27.554793,76.611536,OZONE,10,80,10
India,Rajasthan,Banswara,"Rati Talai, Banswara - RSPCB",04-04-2026 08:00:00,23.555190,74.440010,NH3,3,26,9
India,Rajasthan,Baran,"Bamboliya, Baran - RSPCB",04-04-2026 08:00:00,25.106006,76.469948,SO2,4,12,7
India,Rajasthan,Barmer,"Railway Colony, Barmer - RSPCB",04-04-2026 08:00:00,25.747299,71.393989,PM2.5,3,22,13
India,Rajasthan,Barmer,"Railway Colony, Barmer - RSPCB",04-04-2026 08:00:00,25.747299,71.393989,NO2,6,16,11
India,Rajasthan,Jaipur,"RIICO Sitapura, Jaipur - RSPCB",04-04-2026 08:00:00,26.786682,75.827928,SO2,5,10,8
India,Rajasthan,Jaipur,"RIICO Sitapura, Jaipur - RSPCB",04-04-2026 08:00:00,26.786682,75.827928,CO,26,103,62
India,Rajasthan,Jaipur,"Sector-2 Murlipura, Jaipur - RSPCB",04-04-2026 08:00:00,26.960669,75.771817,PM2.5,57,334,136
India,Rajasthan,Jaipur,"Sector-2 Murlipura, Jaipur - RSPCB",04-04-2026 08:00:00,26.960669,75.771817,NH3,4,6,5
India,Rajasthan,Jaipur,"Sector-2 Murlipura, Jaipur - RSPCB",04-04-2026 08:00:00,26.960669,75.771817,OZONE,5,68,18
India,Rajasthan,Jaipur,"Shastri Nagar, Jaipur - RSPCB",04-04-2026 08:00:00,26.9502929,75.730943,PM10,54,422,133
India,Rajasthan,Jalore,"Mudtra Sili, Jalore - RSPCB",04-04-2026 08:00:00,25.344694,72.626208,SO2,2,5,3
India,Rajasthan,Dausa,"Khatikan Mohalla, Dausa - RSPCB",04-04-2026 08:00:00,26.895552,76.334753,NO2,10,58,24
India,Rajasthan,Dausa,"Khatikan Mohalla, Dausa - RSPCB",04-04-2026 08:00:00,26.895552,76.334753,NH3,5,13,7
India,Rajasthan,Dholpur,"Raja Ganj, Dholpur - RSPCB",04-04-2026 08:00:00,26.699557,77.898881,PM10,33,223,95
India,Rajasthan,Dholpur,"Raja Ganj, Dholpur - RSPCB",04-04-2026 08:00:00,26.699557,77.898881,NO2,12,32,18
India,Rajasthan,Dholpur,"Raja Ganj, Dholpur - RSPCB",04-04-2026 08:00:00,26.699557,77.898881,OZONE,22,65,31
India,Rajasthan,Jaipur,"Adarsh Nagar, Jaipur - RSPCB",04-04-2026 08:00:00,26.902909,75.836858,NH3,5,8,7
India,Rajasthan,Jaipur,"Adarsh Nagar, Jaipur - RSPCB",04-04-2026 08:00:00,26.902909,75.836858,SO2,12,53,24
India,Rajasthan,Jaipur,"Adarsh Nagar, Jaipur - RSPCB",04-04-2026 08:00:00,26.902909,75.836858,CO,6,44,16
India,Rajasthan,Barmer,"Railway Colony, Barmer - RSPCB",04-04-2026 08:00:00,25.747299,71.393989,OZONE,49,71,66
India,Rajasthan,Bharatpur,"Krishna Nagar, Bharatpur - RSPCB",04-04-2026 08:00:00,27.215415,77.50873,NO2,7,23,12
India,Rajasthan,Bhilwara,"Pratap Nagar, Bhilwara - RSPCB",04-04-2026 08:00:00,25.339605,74.618883,OZONE,36,79,42
India,Rajasthan,Bhiwadi,"RIICO Ind. Area III, Bhiwadi - RSPCB",04-04-2026 08:00:00,28.194909,76.862296,NH3,5,18,10
India,Rajasthan,Jaipur,"Mansarovar Sector-12, Jaipur - RSPCB",04-04-2026 08:00:00,26.843698,75.766894,PM10,54,484,142
India,Rajasthan,Jaipur,"Mansarovar Sector-12, Jaipur - RSPCB",04-04-2026 08:00:00,26.843698,75.766894,SO2,2,5,4
India,Rajasthan,Jaipur,"Mansarovar Sector-12, Jaipur - RSPCB",04-04-2026 08:00:00,26.843698,75.766894,CO,44,70,53
India,Rajasthan,Jaipur,"Mansarovar Sector-12, Jaipur - RSPCB",04-04-2026 08:00:00,26.843698,75.766894,OZONE,42,265,74
India,Rajasthan,Jaipur,"Police Commissionerate, Jaipur - RSPCB",04-04-2026 08:00:00,26.9164092,75.7994901,PM10,81,396,151
India,Rajasthan,Jodhpur,"Collectorate, Jodhpur - RSPCB",04-04-2026 08:00:00,26.268249,73.0193853,OZONE,5,49,13
India,Rajasthan,Jodhpur,"Jhalamand, Jodhpur - RSPCB",04-04-2026 08:00:00,26.215415,73.070156,OZONE,4,52,6
India,Rajasthan,Jodhpur,"Samrat Ashok Udhyan, Jodhpur - RSPCB",04-04-2026 08:00:00,26.253384,72.976571,CO,9,17,13
India,Rajasthan,Jodhpur,"Samrat Ashok Udhyan, Jodhpur - RSPCB",04-04-2026 08:00:00,26.253384,72.976571,OZONE,23,94,36
India,Rajasthan,Bikaner,"MM Ground, Bikaner - RSPCB",04-04-2026 08:00:00,28.018792,73.292658,NH3,8,10,9
India,Rajasthan,Bikaner,"MM Ground, Bikaner - RSPCB",04-04-2026 08:00:00,28.018792,73.292658,SO2,1,10,7
India,Rajasthan,Bundi,"New Colony, Bundi - RSPCB",04-04-2026 08:00:00,25.435774,75.644272,NO2,9,26,14
India,Rajasthan,Chittorgarh,"Shastri Nagar, Chittorgarh - RSPCB",04-04-2026 08:00:00,24.892047,74.623527,NO2,7,59,20
India,Rajasthan,Jhalawar,"Rajlaxmi Nagar, Jhalawar - RSPCB",04-04-2026 08:00:00,24.588397,76.172782,PM10,37,107,72
India,Rajasthan,Jhalawar,"Rajlaxmi Nagar, Jhalawar - RSPCB",04-04-2026 08:00:00,24.588397,76.172782,NH3,6,11,8
India,Rajasthan,Karauli,"Satyawati Vihar, Karauli - RSPCB",04-04-2026 08:00:00,26.506177,77.025989,NO2,6,16,10
India,Rajasthan,Kota,"Dhanmandi, Kota - RSPCB",04-04-2026 08:00:00,25.164090,75.858137,PM10,59,385,152
India,Rajasthan,Kota,"Dhanmandi, Kota - RSPCB",04-04-2026 08:00:00,25.164090,75.858137,SO2,8,50,17
India,Rajasthan,Kota,"Nayapura, Kota - RSPCB",04-04-2026 08:00:00,25.196024,75.855668,PM10,54,342,131
India,Rajasthan,Kota,"Nayapura, Kota - RSPCB",04-04-2026 08:00:00,25.196024,75.855668,CO,12,48,22
India,Rajasthan,Kota,"Nayapura, Kota - RSPCB",04-04-2026 08:00:00,25.196024,75.855668,OZONE,36,137,43
India,Rajasthan,Nagaur,"Karni Colony, Nagaur - RSPCB",04-04-2026 08:00:00,27.213494,73.734444,NO2,NA,NA,NA
India,Rajasthan,Nagaur,"Karni Colony, Nagaur - RSPCB",04-04-2026 08:00:00,27.213494,73.734444,NH3,NA,NA,NA
India,Rajasthan,Pali,"Indira Colony Vistar, Pali - RSPCB",04-04-2026 08:00:00,25.771061, 73.340227,PM10,38,192,94
India,Rajasthan,Pali,"Indira Colony Vistar, Pali - RSPCB",04-04-2026 08:00:00,25.771061, 73.340227,NH3,1,6,4
India,Rajasthan,Sri Ganganagar,"Old City, Sri Ganganagar - RSPCB",04-04-2026 08:00:00,29.931624,73.864511,CO,7,40,9
India,Rajasthan,Tonk,"Shastri Nagar, Tonk - RSPCB",04-04-2026 08:00:00,26.159933,75.780517,NH3,6,7,6
India,Rajasthan,Udaipur,"Ashok Nagar, Udaipur - RSPCB",04-04-2026 08:00:00,24.5886166,73.6321397,NO2,4,58,40
India,Sikkim,Gangtok,"Zero Point GICI, Gangtok - SSPCB",04-04-2026 08:00:00,27.338530,88.614099,NO2,6,7,6
India,Sikkim,Gangtok,"Zero Point GICI, Gangtok - SSPCB",04-04-2026 08:00:00,27.338530,88.614099,OZONE,12,27,25
India,TamilNadu,Chennai,"Arumbakkam, Chennai - TNPCB",04-04-2026 08:00:00,13.0664,80.2112 ,PM10,32,96,54
India,TamilNadu,Chennai,"Kodungaiyur, Chennai - TNPCB",04-04-2026 08:00:00,13.1278,80.2642,CO,28,35,31
India,Rajasthan,Pali,"Indira Colony Vistar, Pali - RSPCB",04-04-2026 08:00:00,25.771061, 73.340227,CO,6,42,23
India,Rajasthan,Rajsamand,"Dhoinda, Rajsamand - RSPCB",04-04-2026 08:00:00,25.036360,73.883502,NH3,12,24,16
India,Rajasthan,Sawai Madhopur,"Sahu Nagar, Sawai Madhopur - RSPCB",04-04-2026 08:00:00,26.031443,76.359327,NO2,2,38,9
India,Rajasthan,Sawai Madhopur,"Sahu Nagar, Sawai Madhopur - RSPCB",04-04-2026 08:00:00,26.031443,76.359327,NH3,4,7,5
India,Rajasthan,Sikar,"Radhakishan Pura, Sikar - RSPCB",04-04-2026 08:00:00,27.608912,75.153302,PM2.5,12,62,28
India,Rajasthan,Sirohi,"Vedhaynath Colony, Sirohi - RSPCB",04-04-2026 08:00:00,24.885261,72.857549,OZONE,8,58,32
India,Telangana,Hyderabad,"Sanathnagar, Hyderabad - TSPCB",04-04-2026 08:00:00,17.4559458,78.4332152,CO,36,50,44
India,Telangana,Hyderabad,"Somajiguda, Hyderabad - TSPCB",04-04-2026 08:00:00,17.417094,78.457437,OZONE,10,52,15
India,Tripura,Agartala,"Bardowali, Agartala - Tripura SPCB",04-04-2026 08:00:00,23.8175497,91.2726974,OZONE,2,14,3
India,Uttar_Pradesh,Agra,"Manoharpur, Agra - UPPCB",04-04-2026 08:00:00,27.23711,78.01936,PM2.5,26,151,77
India,Uttar_Pradesh,Agra,"Manoharpur, Agra - UPPCB",04-04-2026 08:00:00,27.23711,78.01936,CO,10,20,18
India,TamilNadu,Gummidipoondi,"Anthoni Pillai Nagar, Gummidipoondi - TNPCB",04-04-2026 08:00:00,13.4127,80.1081,NO2,15,36,20
India,TamilNadu,Perundurai,"SIPCOT Industrial Park, Perundurai - TNPCB",04-04-2026 08:00:00,11.258242,77.552761,NO2,11,12,12
India,TamilNadu,Perundurai,"SIPCOT Industrial Park, Perundurai - TNPCB",04-04-2026 08:00:00,11.258242,77.552761,OZONE,25,29,28
India,Telangana,Hyderabad,"Central University, Hyderabad - TSPCB",04-04-2026 08:00:00,17.460103,78.334361,PM2.5,12,24,18
India,Telangana,Hyderabad,"ECIL Kapra, Hyderabad - TSPCB",04-04-2026 08:00:00,17.470431,78.566959,PM2.5,47,64,57
India,Telangana,Hyderabad,"IITH Kandi, Hyderabad - TSPCB",04-04-2026 08:00:00,17.585705,78.126199,SO2,11,23,18
India,Telangana,Hyderabad,"Kokapet, Hyderabad - TSPCB",04-04-2026 08:00:00,17.393559,78.339194,PM2.5,59,71,67
India,Telangana,Hyderabad,"Kompally Municipal Office, Hyderabad - TSPCB",04-04-2026 08:00:00,17.544899,78.486949,PM2.5,42,59,49
India,Telangana,Hyderabad,"Kompally Municipal Office, Hyderabad - TSPCB",04-04-2026 08:00:00,17.544899,78.486949,NO2,11,20,16
India,Telangana,Hyderabad,"Kompally Municipal Office, Hyderabad - TSPCB",04-04-2026 08:00:00,17.544899,78.486949,OZONE,13,30,15
India,Telangana,Hyderabad,"New Malakpet, Hyderabad - TSPCB",04-04-2026 08:00:00,17.37206,78.50864,SO2,NA,NA,NA
India,TamilNadu,Chennai,"Manali Village, Chennai - TNPCB",04-04-2026 08:00:00,13.1662,80.2584,SO2,17,36,20
India,TamilNadu,Chennai,"Manali Village, Chennai - TNPCB",04-04-2026 08:00:00,13.1662,80.2584,CO,36,44,42
India,TamilNadu,Chennai,"Manali Village, Chennai - TNPCB",04-04-2026 08:00:00,13.1662,80.2584,OZONE,25,80,72
India,TamilNadu,Chennai,"Manali, Chennai - CPCB",04-04-2026 08:00:00,13.164544,80.26285,PM2.5,9,56,25
India,TamilNadu,Chennai,"Perungudi, Chennai - TNPCB",04-04-2026 08:00:00,12.9533,80.2357,NO2,2,8,5
India,TamilNadu,Chennai,"Velachery Res. Area, Chennai - CPCB",04-04-2026 08:00:00,13.0052189,80.2398125,NO2,12,14,12
India,TamilNadu,Chennai,"Velachery Res. Area, Chennai - CPCB",04-04-2026 08:00:00,13.0052189,80.2398125,SO2,5,7,6
India,TamilNadu,Coimbatore,"SIDCO Kurichi, Coimbatore - TNPCB",04-04-2026 08:00:00,10.942451,76.978996,NO2,10,22,12
India,TamilNadu,Dindigul,"Mendonsa Colony, Dindigul - TNPCB",04-04-2026 08:00:00,10.358535,77.984321,NH3,1,1,1
India,TamilNadu,Chennai,"Royapuram, Chennai - TNPCB",04-04-2026 08:00:00,13.1036,80.2909,PM2.5,8,60,26
India,TamilNadu,Chennai,"Royapuram, Chennai - TNPCB",04-04-2026 08:00:00,13.1036,80.2909,NH3,4,5,4
India,TamilNadu,Chennai,"Royapuram, Chennai - TNPCB",04-04-2026 08:00:00,13.1036,80.2909,CO,20,26,23
India,TamilNadu,Chennai,"Royapuram, Chennai - TNPCB",04-04-2026 08:00:00,13.1036,80.2909,OZONE,16,18,17
India,Uttar_Pradesh,Baghpat,"Sardar Patel Inter College, Baghpat - UPPCB",04-04-2026 08:00:00,28.964949,77.278761,SO2,21,41,29
India,Uttar_Pradesh,Baghpat,"Sardar Patel Inter College, Baghpat - UPPCB",04-04-2026 08:00:00,28.964949,77.278761,CO,29,57,44
India,Uttar_Pradesh,Baghpat,"Sardar Patel Inter College, Baghpat - UPPCB",04-04-2026 08:00:00,28.964949,77.278761,OZONE,5,63,11
India,Uttar_Pradesh,Bareilly,"Civil Lines, Bareilly - UPPCB",04-04-2026 08:00:00,28.359581,79.414455,CO,35,70,40
India,Uttar_Pradesh,Bulandshahr,"Yamunapuram, Bulandshahr - UPPCB",04-04-2026 08:00:00,28.406963,77.849831,NO2,6,76,25
India,Uttar_Pradesh,Firozabad,"Nagla Bhau, Firozabad - UPPCB",04-04-2026 08:00:00,27.168897,78.376960,NH3,2,2,2
India,Uttar_Pradesh,Firozabad,"Vibhab Nagar, Firozabad - UPPCB",04-04-2026 08:00:00,27.1594,78.3953,PM10,NA,NA,NA
India,Uttar_Pradesh,Firozabad,"Vibhab Nagar, Firozabad - UPPCB",04-04-2026 08:00:00,27.1594,78.3953,NH3,NA,NA,NA
India,Uttar_Pradesh,Moradabad,"Jigar Colony, Moradabad - UPPCB",04-04-2026 08:00:00,28.856664,78.772638,NO2,24,25,25
India,Uttar_Pradesh,Moradabad,"Jigar Colony, Moradabad - UPPCB",04-04-2026 08:00:00,28.856664,78.772638,SO2,33,46,40
India,Uttar_Pradesh,Moradabad,"Transport Nagar, Moradabad - UPPCB",04-04-2026 08:00:00,28.802625,78.753728,CO,50,100,64
India,Uttar_Pradesh,Muzaffarnagar,"New Mandi, Muzaffarnagar - UPPCB",04-04-2026 08:00:00,29.4723508,77.7194031,OZONE,12,117,23
India,Uttar_Pradesh,Noida,"Sector - 125, Noida - UPPCB",04-04-2026 08:00:00,28.5447608,77.3231257,PM2.5,40,348,104
India,Uttar_Pradesh,Noida,"Sector - 125, Noida - UPPCB",04-04-2026 08:00:00,28.5447608,77.3231257,NH3,7,12,9
India,Uttar_Pradesh,Firozabad,"Vibhab Nagar, Firozabad - UPPCB",04-04-2026 08:00:00,27.1594,78.3953,CO,2,16,9
India,Uttar_Pradesh,Ghaziabad,"Indirapuram, Ghaziabad - UPPCB",04-04-2026 08:00:00,28.646233,77.358075,NO2,15,56,24
India,Uttar_Pradesh,Ghaziabad,"Vasundhara, Ghaziabad - UPPCB",04-04-2026 08:00:00,28.6603346,77.3572563,NO2,18,58,32
India,Uttar_Pradesh,Ghaziabad,"Vasundhara, Ghaziabad - UPPCB",04-04-2026 08:00:00,28.6603346,77.3572563,OZONE,7,119,21
India,Uttar_Pradesh,Gorakhpur,"Madan Mohan Malaviya University of Technology, Gorakhpur - UPPCB",04-04-2026 08:00:00,26.730136,83.433859,CO,3,4,3
India,Uttar_Pradesh,Agra,"Rohta, Agra - UPPCB",04-04-2026 08:00:00,27.106972,78.000111,OZONE,12,15,15
India,Uttar_Pradesh,Agra,"Shahjahan Garden, Agra - UPPCB",04-04-2026 08:00:00,27.169338,78.03582,SO2,75,94,82
India,Uttar_Pradesh,Agra,"Shastripuram, Agra - UPPCB",04-04-2026 08:00:00,27.19862,77.92066,PM2.5,20,91,55
India,Uttar_Pradesh,Agra,"Shastripuram, Agra - UPPCB",04-04-2026 08:00:00,27.19862,77.92066,PM10,19,427,221
India,Uttar_Pradesh,Agra,"Shastripuram, Agra - UPPCB",04-04-2026 08:00:00,27.19862,77.92066,SO2,5,13,6
India,Uttar_Pradesh,Meerut,"Jai Bhim Nagar, Meerut - UPPCB",04-04-2026 08:00:00,28.9535882,77.7622941,PM2.5,18,231,53
India,Uttar_Pradesh,Meerut,"Jai Bhim Nagar, Meerut - UPPCB",04-04-2026 08:00:00,28.9535882,77.7622941,NH3,8,14,9
India,Uttar_Pradesh,Moradabad,"Buddhi Vihar, Moradabad - UPPCB",04-04-2026 08:00:00,28.83526,78.74460,SO2,22,29,23
India,Uttar_Pradesh,Moradabad,"Buddhi Vihar, Moradabad - UPPCB",04-04-2026 08:00:00,28.83526,78.74460,CO,27,38,28
India,Uttar_Pradesh,Lucknow,"Kendriya Vidyalaya, Lucknow - CPCB",04-04-2026 08:00:00,26.906111,80.948222,NH3,5,20,10
India,Uttar_Pradesh,Lucknow,"Kukrail Picnic Spot-1, Lucknow - UPPCB",04-04-2026 08:00:00,26.90723,80.98579,PM10,44,180,101
India,Uttar_Pradesh,Lucknow,"Lalbagh, Lucknow - CPCB",04-04-2026 08:00:00,26.8458805,80.9365541,SO2,2,25,9
India,Uttar_Pradesh,Hapur,"Anand Vihar, Hapur - UPPCB",04-04-2026 08:00:00,28.725645,77.749675,PM2.5,30,183,66
India,Uttar_Pradesh,Kanpur,"FTI Kidwai Nagar, Kanpur - UPPCB",04-04-2026 08:00:00,26.428282,80.327067,NO2,27,27,27
India,Uttar_Pradesh,Kanpur,"NSI Kalyanpur, Kanpur - UPPCB",04-04-2026 08:00:00,26.509954,80.249612,NH3,2,2,2
India,Uttar_Pradesh,Khurja,"Kalindi Kunj, Khurja - UPPCB",04-04-2026 08:00:00,28.2348927,77.8683002,NO2,NA,NA,NA
India,Uttar_Pradesh,Khurja,"Kalindi Kunj, Khurja - UPPCB",04-04-2026 08:00:00,28.2348927,77.8683002,NH3,NA,NA,NA
India,Uttar_Pradesh,Khurja,"Kalindi Kunj, Khurja - UPPCB",04-04-2026 08:00:00,28.2348927,77.8683002,OZONE,8,47,8
India,Uttar_Pradesh,Lucknow,"Gomti Nagar, Lucknow - UPPCB",04-04-2026 08:00:00,26.868120,81.005119,PM2.5,33,303,132
India,Uttar_Pradesh,Noida,"Sector - 62, Noida - IMD",04-04-2026 08:00:00,28.6245479,77.3577104,NO2,2,14,6
India,Uttar_Pradesh,Noida,"Sector - 62, Noida - IMD",04-04-2026 08:00:00,28.6245479,77.3577104,CO,24,41,28
India,Uttar_Pradesh,Noida,"Sector-1, Noida - UPPCB",04-04-2026 08:00:00,28.5898,77.3101,PM10,77,500,208
India,Uttar_Pradesh,Noida,"Sector-1, Noida - UPPCB",04-04-2026 08:00:00,28.5898,77.3101,NH3,10,13,11
India,Uttar_Pradesh,Noida,"Sector-1, Noida - UPPCB",04-04-2026 08:00:00,28.5898,77.3101,CO,32,44,33
India,Uttar_Pradesh,Noida,"Sector-116, Noida - UPPCB",04-04-2026 08:00:00,28.569230,77.393848,NO2,40,121,80
India,Uttar_Pradesh,Noida,"Sector-116, Noida - UPPCB",04-04-2026 08:00:00,28.569230,77.393848,SO2,7,26,16
India,Uttar_Pradesh,Prayagraj,"Jhunsi, Prayagraj - UPPCB",04-04-2026 08:00:00,25.425602,81.917152,NH3,5,5,5
India,Uttar_Pradesh,Raebareli," Indira Nagar, Raebareli - NTPC Unchahar",04-04-2026 08:00:00,26.207781,81.245571,CO,1,23,16
India,Uttar_Pradesh,Varanasi,"Ardhali Bazar, Varanasi - UPPCB",04-04-2026 08:00:00,25.3505986,82.9083074,NO2,37,44,41
India,Uttar_Pradesh,Varanasi,"Ardhali Bazar, Varanasi - UPPCB",04-04-2026 08:00:00,25.3505986,82.9083074,SO2,10,12,11
India,Uttar_Pradesh,Varanasi,"Ardhali Bazar, Varanasi - UPPCB",04-04-2026 08:00:00,25.3505986,82.9083074,OZONE,16,34,21
India,Uttar_Pradesh,Varanasi,"IESD Banaras Hindu University, Varanasi - UPPCB",04-04-2026 08:00:00,25.262326,82.995408,PM2.5,NA,NA,NA
India,Uttar_Pradesh,Varanasi,"IESD Banaras Hindu University, Varanasi - UPPCB",04-04-2026 08:00:00,25.262326,82.995408,PM10,1,71,29
India,Uttar_Pradesh,Vrindavan,"Omex Eternity, Vrindavan - UPPCB",04-04-2026 08:00:00,27.5714090,77.6557570,NO2,26,27,27
India,Uttar_Pradesh,Vrindavan,"Omex Eternity, Vrindavan - UPPCB",04-04-2026 08:00:00,27.5714090,77.6557570,NH3,4,9,7
India,Uttarakhand,Kashipur,"Govt. Girls Inter College, Kashipur - UKPCB",04-04-2026 08:00:00,29.2124114,78.9611753,PM2.5,NA,NA,NA
India,Uttarakhand,Rishikesh,"Shivaji Nagar, Rishikesh - UKPCB",04-04-2026 08:00:00,30.075911,78.2859547,SO2,1,1,1
India,West_Bengal,Asansol,"Asansol Court Area, Asansol - WBPCB",04-04-2026 08:00:00,23.685297,86.945968,PM10,63,138,88
India,West_Bengal,Asansol,"Asansol Court Area, Asansol - WBPCB",04-04-2026 08:00:00,23.685297,86.945968,OZONE,26,64,30
India,West_Bengal,Asansol,"Evelyn Lodge, Asansol - WBPCB",04-04-2026 08:00:00,23.6979360,86.9443950,PM10,53,121,79
India,West_Bengal,Asansol,"Mahabir Colliery, Asansol - WBPCB",04-04-2026 08:00:00,23.6181830,87.1057180,NO2,8,16,12
India,West_Bengal,Asansol,"Trivenidevi Bhalotia College, Asansol - WBPCB",04-04-2026 08:00:00,23.616515,87.119133,NH3,3,4,3
India,West_Bengal,Barrackpore,"SVSPA Campus, Barrackpore - WBPCB",04-04-2026 08:00:00,22.7605581,88.3617589,PM2.5,26,98,56
India,West_Bengal,Barrackpore,"SVSPA Campus, Barrackpore - WBPCB",04-04-2026 08:00:00,22.7605581,88.3617589,NO2,22,47,30
India,West_Bengal,Durgapur,"Mahishkapur Road_B-Zone, Durgapur - WBPCB",04-04-2026 08:00:00,23.567923,87.306843,OZONE,4,97,12
India,West_Bengal,Durgapur,"PCBL Residential Complex, Durgapur - WBPCB",04-04-2026 08:00:00,23.5087640,87.3544400,OZONE,3,3,3
India,West_Bengal,Durgapur,"Womens College_City Center, Durgapur - WBPCB",04-04-2026 08:00:00,23.549395,87.300496,NO2,30,47,35
India,West_Bengal,Haldia,"Priyambada Housing Estate, Haldia - WBPCB",04-04-2026 08:00:00,22.06047,88.109737,PM2.5,9,39,28
India,West_Bengal,Howrah,"Botanical Garden, Howrah - WBPCB",04-04-2026 08:00:00,22.554954,88.292568,NO2,5,22,12
India,West_Bengal,Howrah,"Botanical Garden, Howrah - WBPCB",04-04-2026 08:00:00,22.554954,88.292568,OZONE,11,76,12
India,West_Bengal,Howrah,"Dasnagar, Howrah - WBPCB",04-04-2026 08:00:00,22.6025571,88.3105664,CO,18,32,20
India,West_Bengal,Howrah,"Ghusuri, Howrah - WBPCB",04-04-2026 08:00:00,22.611968,88.347422,SO2,11,17,13
India,West_Bengal,Howrah,"Padmapukur, Howrah - WBPCB",04-04-2026 08:00:00,22.5687319,88.2797276,NO2,15,51,30
India,West_Bengal,Kolkata,"Ballygunge, Kolkata - WBPCB",04-04-2026 08:00:00,22.5367507,88.3638022,PM10,NA,NA,NA
India,West_Bengal,Kolkata,"Bidhannagar, Kolkata - WBPCB",04-04-2026 08:00:00,22.58157048,88.41002457,PM2.5,22,64,40
India,West_Bengal,Kolkata,"Bidhannagar, Kolkata - WBPCB",04-04-2026 08:00:00,22.58157048,88.41002457,PM10,50,99,73
India,West_Bengal,Kolkata,"Bidhannagar, Kolkata - WBPCB",04-04-2026 08:00:00,22.58157048,88.41002457,NH3,5,5,5
India,West_Bengal,Kolkata,"Jadavpur, Kolkata - WBPCB",04-04-2026 08:00:00,22.49929,88.36917,NO2,9,16,13
India,West_Bengal,Kolkata,"Jadavpur, Kolkata - WBPCB",04-04-2026 08:00:00,22.49929,88.36917,CO,21,28,25
India,West_Bengal,Kolkata,"Rabindra Bharati University, Kolkata - WBPCB",04-04-2026 08:00:00,22.627847,88.380669,PM10,50,106,79
India,West_Bengal,Kolkata,"Rabindra Bharati University, Kolkata - WBPCB",04-04-2026 08:00:00,22.627847,88.380669,NH3,12,12,12
India,West_Bengal,Kolkata,"Rabindra Bharati University, Kolkata - WBPCB",04-04-2026 08:00:00,22.627847,88.380669,CO,20,42,22
India,West_Bengal,Kolkata,"Rabindra Sarobar, Kolkata - WBPCB",04-04-2026 08:00:00,22.51106,88.35142,PM10,39,67,51
India,West_Bengal,Kolkata,"Rabindra Sarobar, Kolkata - WBPCB",04-04-2026 08:00:00,22.51106,88.35142,NH3,7,8,7
India,West_Bengal,Kolkata,"Victoria, Kolkata - WBPCB",04-04-2026 08:00:00,22.5448082,88.3403691,NO2,30,35,33
India,West_Bengal,Kolkata,"Victoria, Kolkata - WBPCB",04-04-2026 08:00:00,22.5448082,88.3403691,OZONE,22,93,30
India,West_Bengal,Siliguri,"Ward-32 Bapupara, Siliguri - WBPCB",04-04-2026 08:00:00,26.6879226,88.4152495,PM10,52,100,86
India,West_Bengal,Siliguri,"Ward-32 Bapupara, Siliguri - WBPCB",04-04-2026 08:00:00,26.6879226,88.4152495,CO,34,76,41
India,Andhra_Pradesh,Tirumala,"Toll Gate, Tirumala - APPCB",04-04-2026 08:00:00,13.67,79.35,CO,10,38,17
India,Andhra_Pradesh,Tirumala,"Toll Gate, Tirumala - APPCB",04-04-2026 08:00:00,13.67,79.35,OZONE,24,66,32
India,Andhra_Pradesh,Tirupati,"Vaikuntapuram, Tirupati - APPCB",04-04-2026 08:00:00,13.615387,79.409230,PM2.5,42,66,58
India,Andhra_Pradesh,Tirupati,"Vaikuntapuram, Tirupati - APPCB",04-04-2026 08:00:00,13.615387,79.409230,NO2,19,35,26
India,Andhra_Pradesh,Tirupati,"Vaikuntapuram, Tirupati - APPCB",04-04-2026 08:00:00,13.615387,79.409230,SO2,10,19,13
India,Andhra_Pradesh,Vijayawada,"HB Colony, Vijayawada - APPCB",04-04-2026 08:00:00,16.536107,80.594233,OZONE,30,38,33
India,Andhra_Pradesh,Vijayawada,"Kanuru, Vijayawada - APPCB",04-04-2026 08:00:00,16.486692,80.699436,OZONE,NA,NA,NA
India,Andhra_Pradesh,Vijayawada,"Rajiv Gandhi Park, Vijayawada - APPCB",04-04-2026 08:00:00,16.509717,80.612222,NO2,20,43,28
India,Andhra_Pradesh,Vijayawada,"Rajiv Nagar, Vijayawada - APPCB",04-04-2026 08:00:00,16.554731,80.649110,NO2,19,27,21
India,Andhra_Pradesh,Vijayawada,"Rajiv Nagar, Vijayawada - APPCB",04-04-2026 08:00:00,16.554731,80.649110,SO2,8,18,11
India,Andhra_Pradesh,Kadapa,"Yerramukkapalli, Kadapa - APPCB",04-04-2026 08:00:00,14.465052,78.824187,NH3,5,7,6
India,Andhra_Pradesh,Kadapa,"Yerramukkapalli, Kadapa - APPCB",04-04-2026 08:00:00,14.465052,78.824187,CO,30,50,36
India,Andhra_Pradesh,Machilipatnam,"Srinivas Nagar Colony, Machilipatnam - APPCB",04-04-2026 08:00:00,16.186555,81.13219,PM10,55,73,63
India,Andhra_Pradesh,Machilipatnam,"Srinivas Nagar Colony, Machilipatnam - APPCB",04-04-2026 08:00:00,16.186555,81.13219,CO,31,115,108
India,Andhra_Pradesh,Rajamahendravaram,"Anand Kala Kshetram, Rajamahendravaram - APPCB",04-04-2026 08:00:00,16.9872867,81.7363176,PM2.5,2,32,15
India,Andhra_Pradesh,Rajamahendravaram,"Anand Kala Kshetram, Rajamahendravaram - APPCB",04-04-2026 08:00:00,16.9872867,81.7363176,NH3,2,3,3
India,Andhra_Pradesh,Rajamahendravaram,"Anand Kala Kshetram, Rajamahendravaram - APPCB",04-04-2026 08:00:00,16.9872867,81.7363176,SO2,6,12,7
India,Bihar,Bhagalpur,"DM Office_Kachari Chowk, Bhagalpur - BSPCB",04-04-2026 08:00:00,25.251013,86.989001,PM2.5,22,75,45
India,Bihar,Bhagalpur,"DM Office_Kachari Chowk, Bhagalpur - BSPCB",04-04-2026 08:00:00,25.251013,86.989001,PM10,50,152,87
India,Bihar,Bhagalpur,"DM Office_Kachari Chowk, Bhagalpur - BSPCB",04-04-2026 08:00:00,25.251013,86.989001,NO2,7,11,8
India,Bihar,Bhagalpur,"DM Office_Kachari Chowk, Bhagalpur - BSPCB",04-04-2026 08:00:00,25.251013,86.989001,NH3,1,1,1
India,Bihar,Bhagalpur,"DM Office_Kachari Chowk, Bhagalpur - BSPCB",04-04-2026 08:00:00,25.251013,86.989001,SO2,2,72,33
India,Arunachal_Pradesh,Naharlagun,"Naharlagun, Naharlagun - APSPCB",04-04-2026 08:00:00,27.103358,93.679645,PM10,20,86,53
India,Assam,Byrnihat,"Central Academy for SFS, Byrnihat - PCBA",04-04-2026 08:00:00,26.071318,91.87488,NH3,3,5,4
India,Assam,Byrnihat,"Central Academy for SFS, Byrnihat - PCBA",04-04-2026 08:00:00,26.071318,91.87488,SO2,4,32,29
India,Assam,Nalbari,"Bata Chowk, Nalbari - PCBA",04-04-2026 08:00:00,26.446912,91.439057,SO2,6,8,8
India,Assam,Nalbari,"Bata Chowk, Nalbari - PCBA",04-04-2026 08:00:00,26.446912,91.439057,OZONE,13,16,16
India,Assam,Sivasagar,"Girls College, Sivasagar - PCBA",04-04-2026 08:00:00,26.987634,94.636574,PM10,17,47,30
India,Bihar,Araria,"Kharahiya Basti, Araria - BSPCB",04-04-2026 08:00:00,26.146529,87.454184,CO,13,105,64
India,Bihar,Begusarai,"Lohiyanagar, Begusarai - BSPCB",04-04-2026 08:00:00,25.42742023,86.13886079,OZONE,38,69,42
India,Andhra_Pradesh,Chittoor,"Gangineni Cheruvu, Chittoor - APPCB",04-04-2026 08:00:00,13.204880,79.097889,PM10,44,78,56
India,Andhra_Pradesh,Eluru,"District Court, Eluru - APPCB",04-04-2026 08:00:00,16.711754,81.092095,NO2,8,25,15
India,Assam,Nagaon,"Christianpatty, Nagaon - PCBA",04-04-2026 08:00:00,26.349082,92.68449,NO2,14,124,58
India,Assam,Nalbari,"Bata Chowk, Nalbari - PCBA",04-04-2026 08:00:00,26.446912,91.439057,PM2.5,37,119,56
India,Assam,Guwahati,"Pan Bazaar, Guwahati - PCBA",04-04-2026 08:00:00,26.187500,91.744194,PM10,16,99,40
India,Assam,Guwahati,"LGBI Airport, Guwahati - PCBA",04-04-2026 08:00:00,26.10887,91.589544,SO2,8,14,11
India,Chandigarh,Chandigarh,"Sector 22, Chandigarh - CPCC",04-04-2026 08:00:00,30.735567,76.775714,PM2.5,12,73,38
India,Chandigarh,Chandigarh,"Sector 22, Chandigarh - CPCC",04-04-2026 08:00:00,30.735567,76.775714,NO2,7,19,11
India,Chandigarh,Chandigarh,"Sector 22, Chandigarh - CPCC",04-04-2026 08:00:00,30.735567,76.775714,OZONE,5,67,12
India,Chandigarh,Chandigarh,"Sector-25, Chandigarh - CPCC",04-04-2026 08:00:00,30.751462,76.762879,NH3,8,12,11
India,Chandigarh,Chandigarh,"Sector-25, Chandigarh - CPCC",04-04-2026 08:00:00,30.751462,76.762879,SO2,3,19,8
India,Chandigarh,Chandigarh,"Sector-25, Chandigarh - CPCC",04-04-2026 08:00:00,30.751462,76.762879,OZONE,1,49,2
India,Chandigarh,Chandigarh,"Sector-53, Chandigarh - CPCC",04-04-2026 08:00:00,30.719859,76.738637,NO2,18,57,36
India,Chandigarh,Chandigarh,"Sector-53, Chandigarh - CPCC",04-04-2026 08:00:00,30.719859,76.738637,NH3,17,19,18
India,Chhattisgarh,Bhilai,"Civic Center, Bhilai - Bhilai Steel Plant",04-04-2026 08:00:00,21.185571,81.343175,PM2.5,12,62,27
India,Bihar,Bihar Sharif,"D M Colony, Bihar Sharif - BSPCB",04-04-2026 08:00:00,25.204762,85.514960,CO,43,66,59
India,Bihar,Buxar,"Charitra Van, Buxar - BSPCB",04-04-2026 08:00:00,25.567520,83.966379,NO2,9,10,9
India,Bihar,Gaya,"Kareemganj, Gaya - BSPCB",04-04-2026 08:00:00,24.792403,84.992416,PM2.5,27,97,54
India,Bihar,Hajipur,"Industrial Area, Hajipur - BSPCB",04-04-2026 08:00:00,25.697189,85.245900,PM2.5,72,233,147
India,Bihar,Hajipur,"Industrial Area, Hajipur - BSPCB",04-04-2026 08:00:00,25.697189,85.245900,CO,12,40,30
India,Bihar,Katihar,"Mirchaibari, Katihar - BSPCB",04-04-2026 08:00:00,25.560083,87.553265,PM10,NA,NA,NA
India,Bihar,Rajgir,"Dangi Tola, Rajgir - BSPCB",04-04-2026 08:00:00,25.03280,85.41948,PM10,25,47,35
India,Bihar,Rajgir,"Dangi Tola, Rajgir - BSPCB",04-04-2026 08:00:00,25.03280,85.41948,SO2,2,3,3
India,Bihar,Saharsa,"Police Line, Saharsa - BSPCB",04-04-2026 08:00:00,25.892357,86.590325,SO2,16,19,18
India,Bihar,Samastipur,"DM Office_Kasipur, Samastipur - BSPCB",04-04-2026 08:00:00,25.859655,85.77944,PM2.5,35,223,75
India,Bihar,Sasaram,"Dada Peer, Sasaram - BSPCB",04-04-2026 08:00:00,24.952822,84.002396,NO2,1,10,3
India,Bihar,Sasaram,"Dada Peer, Sasaram - BSPCB",04-04-2026 08:00:00,24.952822,84.002396,NH3,2,6,3
India,Bihar,Katihar,"Mirchaibari, Katihar - BSPCB",04-04-2026 08:00:00,25.560083,87.553265,CO,62,108,82
India,Bihar,Kishanganj,"SDM Office_Khagra, Kishanganj - BSPCB",04-04-2026 08:00:00,26.0881305,87.93840336,PM10,46,107,61
India,Bihar,Kishanganj,"SDM Office_Khagra, Kishanganj - BSPCB",04-04-2026 08:00:00,26.0881305,87.93840336,NO2,9,10,10
India,Bihar,Motihari,"Gandak Colony, Motihari - BSPCB",04-04-2026 08:00:00,26.63086,84.90051,CO,16,20,17
India,Bihar,Muzaffarpur,"Buddha Colony, Muzaffarpur - BSPCB",04-04-2026 08:00:00,26.11442,85.39813,PM2.5,61,219,101
India,Bihar,Patna,"Govt. High School Shikarpur, Patna - BSPCB",04-04-2026 08:00:00,25.592539,85.227158,CO,1,43,6
India,Bihar,Patna,"IGSC Planetarium Complex, Patna - BSPCB",04-04-2026 08:00:00,25.610369,85.132568,NO2,1,2,2
India,Bihar,Patna,"Muradpur, Patna - BSPCB",04-04-2026 08:00:00,25.619651,85.147382,CO,25,72,59
India,Bihar,Patna,"Rajbansi Nagar, Patna - BSPCB",04-04-2026 08:00:00,25.599486,85.113666,SO2,8,16,12
India,Bihar,Patna,"Samanpura, Patna - BSPCB",04-04-2026 08:00:00,25.596727,85.085624,OZONE,26,36,31
India,Chhattisgarh,Bilaspur,"Mangala, Bilaspur - NTPC",04-04-2026 08:00:00,22.08815,82.13737,PM10,NA,NA,NA
India,Chhattisgarh,Chhal,"Nawapara SECL Colony, Chhal - CECB",04-04-2026 08:00:00,22.118125,83.140608,PM10,48,447,91
India,Chhattisgarh,Korba,"Rampur, Korba - CECB",04-04-2026 08:00:00,22.368195,82.746431,PM2.5,12,36,22
India,Chhattisgarh,Korba,"Urja Nagar, Korba - CECB",04-04-2026 08:00:00,22.348441,82.549611,PM2.5,NA,NA,NA
India,Bihar,Muzaffarpur,"MIT-Daudpur Kothi, Muzaffarpur - BSPCB",04-04-2026 08:00:00,26.1403345,85.3650192,NH3,1,1,1
India,Bihar,Muzaffarpur,"Muzaffarpur Collectorate, Muzaffarpur - BSPCB",04-04-2026 08:00:00,26.1209,85.3647,SO2,4,7,5
India,Chhattisgarh,Milupara,"Govt. Higher Secondary School, Milupara - CECB",04-04-2026 08:00:00,22.1910172,83.5197009,SO2,14,43,18
India,Bihar,Muzaffarpur,"MIT-Daudpur Kothi, Muzaffarpur - BSPCB",04-04-2026 08:00:00,26.1403345,85.3650192,NO2,1,6,4
India,Chhattisgarh,Raipur,"Bhatagaon New ISBT, Raipur - CECB",04-04-2026 08:00:00,21.219665,81.630094,PM10,24,81,42
India,Chhattisgarh,Raipur,"Bhatagaon New ISBT, Raipur - CECB",04-04-2026 08:00:00,21.219665,81.630094,NH3,2,2,2
India,Chhattisgarh,Raipur,"Krishak Nagar, Raipur - CECB",04-04-2026 08:00:00,21.237755,81.705301,SO2,3,34,10
India,Chhattisgarh,Raipur,"Krishak Nagar, Raipur - CECB",04-04-2026 08:00:00,21.237755,81.705301,CO,16,35,21
India,Chhattisgarh,Raipur,"Krishak Nagar, Raipur - CECB",04-04-2026 08:00:00,21.237755,81.705301,OZONE,1,76,4
India,Chhattisgarh,Raipur,"Siltara Phase-II, Raipur - CECB",04-04-2026 08:00:00,21.371751,81.664929,PM10,27,109,63
India,Chhattisgarh,Raipur,"Siltara Phase-II, Raipur - CECB",04-04-2026 08:00:00,21.371751,81.664929,NO2,10,27,17
India,Chhattisgarh,Tumidih,"OP Jindal Industrial Park, Tumidih - CECB",04-04-2026 08:00:00,22.06631475,83.33820077,PM10,24,141,61
India,Chhattisgarh,Tumidih,"OP Jindal Industrial Park, Tumidih - CECB",04-04-2026 08:00:00,22.06631475,83.33820077,SO2,5,17,7
India,Delhi,Delhi,"Alipur, Delhi - DPCC",04-04-2026 08:00:00,28.815329,77.153010,CO,16,43,38
India,Delhi,Delhi,"Alipur, Delhi - DPCC",04-04-2026 08:00:00,28.815329,77.153010,OZONE,1,47,3
India,Delhi,Delhi,"Anand Vihar, Delhi - DPCC",04-04-2026 08:00:00,28.647622,77.3158090,NH3,2,3,3
India,Delhi,Delhi,"Anand Vihar, Delhi - DPCC",04-04-2026 08:00:00,28.647622,77.3158090,SO2,17,24,20
India,Delhi,Delhi,"Anand Vihar, Delhi - DPCC",04-04-2026 08:00:00,28.647622,77.3158090,CO,26,47,35
India,Delhi,Delhi,"Najafgarh, Delhi - DPCC",04-04-2026 08:00:00,28.570173,76.933762,PM10,30,500,149
India,Delhi,Delhi,"Najafgarh, Delhi - DPCC",04-04-2026 08:00:00,28.570173,76.933762,SO2,17,89,23
India,Delhi,Delhi,"Narela, Delhi - DPCC",04-04-2026 08:00:00,28.822836,77.101981,PM10,77,500,182
India,Delhi,Delhi,"Narela, Delhi - DPCC",04-04-2026 08:00:00,28.822836,77.101981,NH3,6,8,7
India,Delhi,Delhi,"Nehru Nagar, Delhi - DPCC",04-04-2026 08:00:00,28.567890,77.250515,PM2.5,38,312,85
India,Delhi,Delhi,"Nehru Nagar, Delhi - DPCC",04-04-2026 08:00:00,28.567890,77.250515,NO2,5,59,33
India,Delhi,Delhi,"Nehru Nagar, Delhi - DPCC",04-04-2026 08:00:00,28.567890,77.250515,NH3,4,18,10
India,Delhi,Delhi,"New Moti Bagh, Delhi - MHUA",04-04-2026 08:00:00,28.57834,77.18400,NO2,8,10,9
India,Delhi,Delhi,"New Moti Bagh, Delhi - MHUA",04-04-2026 08:00:00,28.57834,77.18400,CO,12,32,24
India,Delhi,Delhi,"North Campus, DU, Delhi - IMD",04-04-2026 08:00:00,28.6573814,77.1585447,PM2.5,1,241,85
India,Delhi,Delhi,"Okhla Phase-2, Delhi - DPCC",04-04-2026 08:00:00,28.530785,77.271255,PM2.5,33,270,70
India,Delhi,Delhi,"Okhla Phase-2, Delhi - DPCC",04-04-2026 08:00:00,28.530785,77.271255,PM10,69,500,175
India,Delhi,Delhi,"Okhla Phase-2, Delhi - DPCC",04-04-2026 08:00:00,28.530785,77.271255,SO2,11,20,13
India,Delhi,Delhi,"Patparganj, Delhi - DPCC",04-04-2026 08:00:00,28.623763,77.287209,NH3,9,12,11
India,Delhi,Delhi,"Patparganj, Delhi - DPCC",04-04-2026 08:00:00,28.623763,77.287209,CO,26,69,58
India,Delhi,Delhi,"Punjabi Bagh, Delhi - DPCC",04-04-2026 08:00:00,28.674045,77.131023,PM2.5,33,351,115
India,Delhi,Delhi,"Punjabi Bagh, Delhi - DPCC",04-04-2026 08:00:00,28.674045,77.131023,PM10,56,500,177
India,Delhi,Delhi,"Pusa, Delhi - DPCC",04-04-2026 08:00:00,28.639652,77.146275,PM2.5,32,309,76
India,Delhi,Delhi,"Pusa, Delhi - DPCC",04-04-2026 08:00:00,28.639652,77.146275,NH3,3,11,7
India,Delhi,Delhi,"Pusa, Delhi - DPCC",04-04-2026 08:00:00,28.639652,77.146275,CO,36,114,70
India,Delhi,Delhi,"Pusa, Delhi - DPCC",04-04-2026 08:00:00,28.639652,77.146275,OZONE,4,134,12
India,Delhi,Delhi,"Pusa, Delhi - IMD",04-04-2026 08:00:00,28.636110,77.173332,PM10,57,500,184
India,Delhi,Delhi,"Jawaharlal Nehru Stadium, Delhi - DPCC",04-04-2026 08:00:00,28.580280,77.233829,OZONE,4,149,15
India,Delhi,Delhi,"Major Dhyan Chand National Stadium, Delhi - DPCC",04-04-2026 08:00:00,28.611281,77.237738,NH3,15,17,16
India,Delhi,Delhi,"Mandir Marg, Delhi - DPCC",04-04-2026 08:00:00,28.636429,77.201067,OZONE,8,86,17
India,Delhi,Delhi,"Mundka, Delhi - DPCC",04-04-2026 08:00:00,28.684678,77.076574,PM2.5,28,302,102
India,Delhi,Delhi,"Mundka, Delhi - DPCC",04-04-2026 08:00:00,28.684678,77.076574,CO,30,53,49
India,Delhi,Delhi,"NSUT Jaffarpur, Delhi - DPCC",04-04-2026 08:00:00,28.594004 ,76.909423 ,SO2,70,81,73
India,Delhi,Delhi,"Commonwealth Sports Complex, Delhi - DPCC",04-04-2026 08:00:00,28.615828 ,77.271992 ,PM2.5,42,337,104
India,Delhi,Delhi,"Commonwealth Sports Complex, Delhi - DPCC",04-04-2026 08:00:00,28.615828 ,77.271992 ,PM10,83,494,186
India,Delhi,Delhi,"Dr. Karni Singh Shooting Range, Delhi - DPCC",04-04-2026 08:00:00,28.498571,77.264840,PM10,NA,NA,NA
India,Delhi,Delhi,"Dr. Karni Singh Shooting Range, Delhi - DPCC",04-04-2026 08:00:00,28.498571,77.264840,CO,12,64,55
India,Delhi,Delhi,"Dwarka-Sector 8, Delhi - DPCC ",04-04-2026 08:00:00,28.5710274,77.0719006,SO2,22,37,28
India,Delhi,Delhi,"Dwarka-Sector 8, Delhi - DPCC ",04-04-2026 08:00:00,28.5710274,77.0719006,OZONE,8,102,15
India,Delhi,Delhi,"Anand Vihar, Delhi - DPCC",04-04-2026 08:00:00,28.647622,77.3158090,OZONE,8,49,12
India,Delhi,Delhi,"Bawana, Delhi - DPCC",04-04-2026 08:00:00,28.776200,77.051074,CO,23,51,41
India,Delhi,Delhi,"CRRI Mathura Road, Delhi - IMD",04-04-2026 08:00:00,28.5512005,77.2735737,PM10,87,500,186
India,Delhi,Delhi,"Cantonment Area, Delhi - DPCC ",04-04-2026 08:00:00,28.594169 ,77.125100 ,CO,28,122,39
India,Delhi,Delhi,"IHBAS, Dilshad Garden, Delhi - CPCB",04-04-2026 08:00:00,28.6811736,77.3025234,NO2,33,91,46
India,Delhi,Delhi,"IIT Delhi, Delhi - IITM",04-04-2026 08:00:00,28.542460,77.191651,PM10,72,500,177
India,Delhi,Delhi,"ITO, Delhi - CPCB",04-04-2026 08:00:00,28.628624,77.241060,OZONE,NA,NA,NA
India,Delhi,Delhi,"JNU, Delhi - DPCC",04-04-2026 08:00:00,28.540721 ,77.168544 ,NO2,9,26,16
India,Delhi,Delhi,"Jahangirpuri, Delhi - DPCC",04-04-2026 08:00:00,28.732820,77.170633,PM2.5,28,312,94
India,Delhi,Delhi,"Jawaharlal Nehru Stadium, Delhi - DPCC",04-04-2026 08:00:00,28.580280,77.233829,PM2.5,33,321,84
India,Delhi,Delhi,"Jawaharlal Nehru Stadium, Delhi - DPCC",04-04-2026 08:00:00,28.580280,77.233829,PM10,74,500,189
India,Delhi,Delhi,"Cantonment Area, Delhi - DPCC ",04-04-2026 08:00:00,28.594169 ,77.125100 ,OZONE,1,66,3
India,Delhi,Delhi,"Chandni Chowk, Delhi - IITM",04-04-2026 08:00:00,28.656756,77.227234,SO2,10,20,14
India,Haryana,Ambala,"Patti Mehar, Ambala - HSPCB",04-04-2026 08:00:00,30.379589,76.778328,CO,22,49,23
India,Haryana,Bahadurgarh,"Arya Nagar, Bahadurgarh - HSPCB",04-04-2026 08:00:00,28.6701,76.9254,PM10,56,81,65
India,Haryana,Ballabgarh,"Nathu Colony, Ballabgarh - HSPCB",04-04-2026 08:00:00,28.3419248,77.319699,CO,20,74,41
India,Haryana,Bhiwani,"H.B. Colony, Bhiwani - HSPCB",04-04-2026 08:00:00,28.806223,76.141105,PM10,46,292,116
India,Haryana,Bhiwani,"H.B. Colony, Bhiwani - HSPCB",04-04-2026 08:00:00,28.806223,76.141105,SO2,1,12,5
India,Haryana,Charkhi Dadri,"Mini Secretariat, Charkhi Dadri - HSPCB",04-04-2026 08:00:00,28.593883,76.270653,NH3,5,8,6
India,Haryana,Dharuhera,"Municipal Corporation Office, Dharuhera -  HSPCB",04-04-2026 08:00:00,28.206800,76.799700,NH3,9,25,19
India,Haryana,Faridabad,"New Industrial Town, Faridabad - HSPCB",04-04-2026 08:00:00,28.39072,77.30059,PM10,110,119,113
India,Delhi,Delhi,"Wazirpur, Delhi - DPCC",04-04-2026 08:00:00,28.699793,77.165453,CO,58,95,73
India,Gujarat,Ahmedabad,"Chandkheda, Ahmedabad - IITM",04-04-2026 08:00:00,23.107969,72.574648,NO2,5,55,17
India,Gujarat,Ahmedabad,"Gyaspur, Ahmedabad - IITM",04-04-2026 08:00:00,22.977134,72.553024,NO2,25,128,78
India,Gujarat,Ahmedabad,"Gyaspur, Ahmedabad - IITM",04-04-2026 08:00:00,22.977134,72.553024,OZONE,2,27,2
India,Gujarat,Ahmedabad,"Maninagar, Ahmedabad - GPCB",04-04-2026 08:00:00,23.002657,72.591912,PM10,40,240,92
India,Gujarat,Ahmedabad,"Raikhad, Ahmedabad - IITM",04-04-2026 08:00:00,23.020509,72.579261,PM2.5,35,287,107
India,Gujarat,Ahmedabad,"Raikhad, Ahmedabad - IITM",04-04-2026 08:00:00,23.020509,72.579261,NH3,7,10,8
India,Gujarat,Gandhinagar,"GIFT City, Gandhinagar - IITM",04-04-2026 08:00:00,23.163798,72.677768,NH3,5,11,7
India,Gujarat,Gandhinagar,"GIFT City, Gandhinagar - IITM",04-04-2026 08:00:00,23.163798,72.677768,CO,49,102,80
India,Gujarat,Gandhinagar,"IIPHG Lekawada, Gandhinagar - IITM",04-04-2026 08:00:00,23.243639,72.68994,NH3,5,7,6
India,Gujarat,Gandhinagar,"Sector-10, Gandhinagar - GPCB",04-04-2026 08:00:00,23.221714,72.654328,NH3,1,2,1
India,Gujarat,Mehsana,"Sadanand Nagar, Mehsana - Nexteng Enviro",04-04-2026 08:00:00,23.593150,72.372792,PM10,39,138,83
India,Gujarat,Mehsana,"Sadanand Nagar, Mehsana - Nexteng Enviro",04-04-2026 08:00:00,23.593150,72.372792,SO2,4,11,8
India,Gujarat,Mehsana,"Sadanand Nagar, Mehsana - Nexteng Enviro",04-04-2026 08:00:00,23.593150,72.372792,OZONE,10,15,12
India,Gujarat,Rajkot,"Mavdi, Rajkot - Nexteng Enviro ",04-04-2026 08:00:00,22.248853,70.776774,NH3,1,2,1
India,Gujarat,Surat,"Katargam, Surat - Nexteng Enviro",04-04-2026 08:00:00,21.217779 ,72.834787 ,SO2,5,17,9
India,Gujarat,Surat,"Katargam, Surat - Nexteng Enviro",04-04-2026 08:00:00,21.217779 ,72.834787 ,OZONE,11,11,11
India,Haryana,Ambala,"Patti Mehar, Ambala - HSPCB",04-04-2026 08:00:00,30.379589,76.778328,NO2,8,12,10
India,Gujarat,Ahmedabad,"Raikhad, Ahmedabad - IITM",04-04-2026 08:00:00,23.020509,72.579261,OZONE,2,35,7
India,Gujarat,Ahmedabad,"Rakhial, Ahmedabad - IITM",04-04-2026 08:00:00,23.016834,72.625775,PM10,62,144,104
India,Gujarat,Ahmedabad,"Rakhial, Ahmedabad - IITM",04-04-2026 08:00:00,23.016834,72.625775,NO2,31,184,72
India,Gujarat,Ahmedabad,"SAC ISRO Bopal, Ahmedabad - IITM",04-04-2026 08:00:00,23.041137,72.456691,SO2,5,15,9
India,Gujarat,Ahmedabad,"SAC ISRO Bopal, Ahmedabad - IITM",04-04-2026 08:00:00,23.041137,72.456691,CO,9,29,19
India,Delhi,Delhi,"Sri Aurobindo Marg, Delhi - DPCC",04-04-2026 08:00:00,28.531346,77.190156,SO2,2,14,7
India,Delhi,Delhi,"Talkatora Garden, Delhi - DPCC",04-04-2026 08:00:00,28.621810,77.1944633,OZONE,1,16,1
India,Delhi,Delhi,"Vivek Vihar, Delhi - DPCC",04-04-2026 08:00:00,28.672342,77.315260,OZONE,6,79,12
India,Haryana,Faridabad,"Sector 11, Faridabad - HSPCB",04-04-2026 08:00:00,28.376058,77.315741,OZONE,14,16,15
India,Haryana,Fatehabad,"Huda Sector, Fatehabad - HSPCB",04-04-2026 08:00:00,29.503664,75.467934,PM10,39,455,108
India,Haryana,Fatehabad,"Huda Sector, Fatehabad - HSPCB",04-04-2026 08:00:00,29.503664,75.467934,NO2,17,20,19
India,Delhi,Delhi,"Shadipur, Delhi - CPCB",04-04-2026 08:00:00,28.6514781,77.1473105,PM10,69,451,150
India,Delhi,Delhi,"Shadipur, Delhi - CPCB",04-04-2026 08:00:00,28.6514781,77.1473105,NH3,7,10,8
India,Delhi,Delhi,"Sirifort, Delhi - CPCB",04-04-2026 08:00:00,28.5504249,77.2159377,PM10,73,500,203
India,Haryana,Gurugram,"Sector-51, Gurugram - HSPCB",04-04-2026 08:00:00,28.4227,77.0667,CO,6,26,20
India,Haryana,Gurugram,"Teri Gram, Gurugram - HSPCB",04-04-2026 08:00:00,28.4275,77.1465,PM2.5,NA,NA,NA
India,Karnataka,Bengaluru,"Jigani, Bengaluru - KSPCB",04-04-2026 08:00:00,12.7816279,77.6299145,CO,32,34,34
India,Karnataka,Bengaluru,"Kasturi Nagar, Bengaluru - KSPCB",04-04-2026 08:00:00,13.003872,77.664217,PM2.5,57,63,59
India,Karnataka,Bengaluru,"Kasturi Nagar, Bengaluru - KSPCB",04-04-2026 08:00:00,13.003872,77.664217,NO2,32,34,33
India,Karnataka,Bengaluru,"Kasturi Nagar, Bengaluru - KSPCB",04-04-2026 08:00:00,13.003872,77.664217,CO,42,55,47
India,Karnataka,Bengaluru,"Kasturi Nagar, Bengaluru - KSPCB",04-04-2026 08:00:00,13.003872,77.664217,OZONE,18,19,19
India,Karnataka,Bengaluru,"RVCE-Mailasandra, Bengaluru - KSPCB",04-04-2026 08:00:00,12.921418,77.502466,SO2,6,7,6
India,Karnataka,Bengaluru,"Silk Board, Bengaluru - KSPCB",04-04-2026 08:00:00,12.917348,77.622813,SO2,1,6,3
India,Karnataka,Bengaluru,"Silk Board, Bengaluru - KSPCB",04-04-2026 08:00:00,12.917348,77.622813,CO,13,84,18
India,Karnataka,Chamarajanagar,"Urban, Chamarajanagar - KSPCB",04-04-2026 08:00:00,11.55358,76.55521,SO2,3,8,4
India,Karnataka,Bengaluru,"BTM Layout, Bengaluru - CPCB",04-04-2026 08:00:00,12.9135218,77.5950804,OZONE,23,27,27
India,Karnataka,Bengaluru,"BWSSB Kadabesanahalli, Bengaluru - CPCB",04-04-2026 08:00:00,12.9352049,77.6814488,PM10,18,100,62
India,Karnataka,Bengaluru,"BWSSB Kadabesanahalli, Bengaluru - CPCB",04-04-2026 08:00:00,12.9352049,77.6814488,SO2,2,7,4
India,Karnataka,Bengaluru,"Bapuji Nagar, Bengaluru - KSPCB",04-04-2026 08:00:00,12.951913,77.539784,PM2.5,32,102,48
India,Karnataka,Bengaluru,"Bapuji Nagar, Bengaluru - KSPCB",04-04-2026 08:00:00,12.951913,77.539784,PM10,52,163,97
India,Karnataka,Bengaluru,"Bapuji Nagar, Bengaluru - KSPCB",04-04-2026 08:00:00,12.951913,77.539784,OZONE,24,117,47
India,Karnataka,Bengaluru,"City Railway Station, Bengaluru - KSPCB",04-04-2026 08:00:00,12.9756843,77.5660749,CO,32,64,36
India,Karnataka,Bengaluru,"Jayanagar 5th Block, Bengaluru - KSPCB",04-04-2026 08:00:00,12.920984,77.584908,PM2.5,61,222,93
India,Haryana,Narnaul,"Shastri Nagar, Narnaul - HSPCB",04-04-2026 08:00:00,28.060249,76.113115,SO2,7,8,8
India,Haryana,Narnaul,"Shastri Nagar, Narnaul - HSPCB",04-04-2026 08:00:00,28.060249,76.113115,OZONE,11,27,12
India,Haryana,Palwal,"Shyam Nagar, Palwal - HSPCB",04-04-2026 08:00:00,28.1485564,77.3320667,NO2,23,24,24
India,Haryana,Palwal,"Shyam Nagar, Palwal - HSPCB",04-04-2026 08:00:00,28.1485564,77.3320667,CO,28,29,28
India,Haryana,Panchgaon,"Amity University, Panchgaon - IITM",04-04-2026 08:00:00,28.3153,76.9143,PM2.5,51,368,113
India,Haryana,Panchgaon,"Amity University, Panchgaon - IITM",04-04-2026 08:00:00,28.3153,76.9143,PM10,48,268,87
India,Haryana,Panchkula,"Sector-6, Panchkula - HSPCB ",04-04-2026 08:00:00,30.7057778,76.8531805555555,CO,10,56,16
India,Jammu_and_Kashmir,Srinagar,"Rajbagh, Srinagar - JKPCC",04-04-2026 08:00:00,34.066206,74.819820,PM2.5,12,24,17
India,Jammu_and_Kashmir,Srinagar,"Rajbagh, Srinagar - JKPCC",04-04-2026 08:00:00,34.066206,74.819820,PM10,19,38,27
India,Jammu_and_Kashmir,Srinagar,"Rajbagh, Srinagar - JKPCC",04-04-2026 08:00:00,34.066206,74.819820,CO,11,20,12
India,Jharkhand,Dhanbad,"Sardar Patel Nagar, Dhanbad - JSPCB",04-04-2026 08:00:00,23.80569,86.44268,PM10,43,162,114
India,Karnataka,Bagalkot,"Vidayagiri, Bagalkot - KSPCB",04-04-2026 08:00:00,16.172806,75.659694,CO,2,42,27
India,Karnataka,Bengaluru,"BTM Layout, Bengaluru - CPCB",04-04-2026 08:00:00,12.9135218,77.5950804,PM10,98,105,100
India,Haryana,Jind,"Police Lines, Jind - HSPCB",04-04-2026 08:00:00,29.307814,76.337619,CO,2,48,10
India,Haryana,Kaithal,"Rishi Nagar, Kaithal - HSPCB",04-04-2026 08:00:00,29.8006,76.4155,PM2.5,25,244,75
India,Haryana,Karnal,"Sector-12, Karnal - HSPCB",04-04-2026 08:00:00,29.695300,77.002700,PM2.5,31,416,133
