country,state,city,station,last_update,latitude,longitude,pollutant_id,min_value,max_value,avg_value
India,Andhra_Pradesh,Eluru,"District Court, Eluru - APPCB",13-04-2026 09:00:00,16.711754,81.092095,CO,12,24,15
India,Andhra_Pradesh,Guntur,"Rajendra Nagar North, Guntur - APPCB",13-04-2026 09:00:00,16.316553,80.413302,PM2.5,46,53,49
India,Andhra_Pradesh,Guntur,"Rajendra Nagar North, Guntur - APPCB",13-04-2026 09:00:00,16.316553,80.413302,PM10,46,53,49
India,Andhra_Pradesh,Guntur,"Rajendra Nagar North, Guntur - APPCB",13-04-2026 09:00:00,16.316553,80.413302,NO2,19,26,23
India,Andhra_Pradesh,Guntur,"Rajendra Nagar North, Guntur - APPCB",13-04-2026 09:00:00,16.316553,80.413302,NH3,4,5,4
India,Andhra_Pradesh,Guntur,"Rajendra Nagar North, Guntur - APPCB",13-04-2026 09:00:00,16.316553,80.413302,CO,13,23,15
India,Andhra_Pradesh,Kadapa,"Yerramukkapalli, Kadapa - APPCB",13-04-2026 09:00:00,14.465052,78.824187,PM2.5,64,83,72
India,Andhra_Pradesh,Vijayawada,"Rajiv Gandhi Park, Vijayawada - APPCB",13-04-2026 09:00:00,16.509717,80.612222,NH3,6,6,6
India,Andhra_Pradesh,Vijayawada,"Rajiv Nagar, Vijayawada - APPCB",13-04-2026 09:00:00,16.554731,80.649110,PM2.5,82,86,83
India,Andhra_Pradesh,Vijayawada,"Rajiv Nagar, Vijayawada - APPCB",13-04-2026 09:00:00,16.554731,80.649110,CO,43,48,47
India,Andhra_Pradesh,Visakhapatnam,"GVM Corporation, Visakhapatnam - APPCB",13-04-2026 09:00:00,17.72,83.3,SO2,2,79,35
India,Arunachal_Pradesh,Naharlagun,"Naharlagun, Naharlagun - APSPCB",13-04-2026 09:00:00,27.103358,93.679645,NH3,1,1,1
India,Andhra_Pradesh,Tirupati,"Vaikuntapuram, Tirupati - APPCB",13-04-2026 09:00:00,13.615387,79.409230,CO,28,34,30
India,Andhra_Pradesh,Vijayawada,"Rajiv Gandhi Park, Vijayawada - APPCB",13-04-2026 09:00:00,16.509717,80.612222,PM2.5,43,70,50
India,Andhra_Pradesh,Vijayawada,"Rajiv Gandhi Park, Vijayawada - APPCB",13-04-2026 09:00:00,16.509717,80.612222,PM10,41,66,48
India,Assam,Nagaon,"Christianpatty, Nagaon - PCBA",13-04-2026 09:00:00,26.349082,92.68449,CO,6,23,22
India,Assam,Nalbari,"Bata Chowk, Nalbari - PCBA",13-04-2026 09:00:00,26.446912,91.439057,PM10,41,50,45
India,Assam,Nalbari,"Bata Chowk, Nalbari - PCBA",13-04-2026 09:00:00,26.446912,91.439057,NO2,13,15,14
India,Andhra_Pradesh,Anantapur,"Gulzarpet, Anantapur - APPCB",13-04-2026 09:00:00,14.675886,77.593027,CO,22,44,24
India,Andhra_Pradesh,Anantapur,"Gulzarpet, Anantapur - APPCB",13-04-2026 09:00:00,14.675886,77.593027,OZONE,35,35,35
India,Andhra_Pradesh,Eluru,"District Court, Eluru - APPCB",13-04-2026 09:00:00,16.711754,81.092095,NO2,10,18,13
India,Andhra_Pradesh,Nellore,"Ambedkar Nagar, Nellore - APPCB ",13-04-2026 09:00:00,14.438164 ,79.966814 ,NO2,38,38,38
India,Andhra_Pradesh,Rajamahendravaram,"Anand Kala Kshetram, Rajamahendravaram - APPCB",13-04-2026 09:00:00,16.9872867,81.7363176,CO,12,37,23
India,Andhra_Pradesh,Kadapa,"Yerramukkapalli, Kadapa - APPCB",13-04-2026 09:00:00,14.465052,78.824187,NO2,19,22,22
India,Assam,Nalbari,"Bata Chowk, Nalbari - PCBA",13-04-2026 09:00:00,26.446912,91.439057,OZONE,11,17,16
India,Assam,Guwahati,"LGBI Airport, Guwahati - PCBA",13-04-2026 09:00:00,26.10887,91.589544,SO2,8,14,11
India,Assam,Guwahati,"Pan Bazaar, Guwahati - PCBA",13-04-2026 09:00:00,26.187500,91.744194,SO2,11,13,12
India,Bihar,Katihar,"Mirchaibari, Katihar - BSPCB",13-04-2026 09:00:00,25.560083,87.553265,CO,70,103,95
India,Bihar,Katihar,"Mirchaibari, Katihar - BSPCB",13-04-2026 09:00:00,25.560083,87.553265,OZONE,5,20,6
India,Bihar,Kishanganj,"SDM Office_Khagra, Kishanganj - BSPCB",13-04-2026 09:00:00,26.0881305,87.93840336,PM2.5,32,60,45
India,Bihar,Kishanganj,"SDM Office_Khagra, Kishanganj - BSPCB",13-04-2026 09:00:00,26.0881305,87.93840336,OZONE,32,35,33
India,Bihar,Motihari,"Gandak Colony, Motihari - BSPCB",13-04-2026 09:00:00,26.63086,84.90051,PM2.5,58,423,132
India,Bihar,Motihari,"Gandak Colony, Motihari - BSPCB",13-04-2026 09:00:00,26.63086,84.90051,PM10,65,437,119
India,Bihar,Munger,"Town Hall, Munger - BSPCB",13-04-2026 09:00:00,25.376776,86.471523,PM2.5,35,100,65
India,Bihar,Bettiah,"Kamalnath Nagar, Bettiah - BSPCB",13-04-2026 09:00:00,26.80365,84.51954,SO2,NA,NA,NA
India,Bihar,Bettiah,"Kamalnath Nagar, Bettiah - BSPCB",13-04-2026 09:00:00,26.80365,84.51954,CO,27,38,38
India,Bihar,Bettiah,"Kamalnath Nagar, Bettiah - BSPCB",13-04-2026 09:00:00,26.80365,84.51954,OZONE,23,35,23
India,Bihar,Bhagalpur,"Mayaganj, Bhagalpur - BSPCB",13-04-2026 09:00:00,25.265194,87.012947,CO,80,102,94
India,Bihar,Bihar Sharif,"D M Colony, Bihar Sharif - BSPCB",13-04-2026 09:00:00,25.204762,85.514960,NH3,NA,NA,NA
India,Bihar,Chhapra,"Darshan Nagar, Chhapra - BSPCB",13-04-2026 09:00:00,25.7808257,84.7446768,NO2,3,4,4
India,Bihar,Chhapra,"Darshan Nagar, Chhapra - BSPCB",13-04-2026 09:00:00,25.7808257,84.7446768,OZONE,4,38,6
India,Bihar,Araria,"Kharahiya Basti, Araria - BSPCB",13-04-2026 09:00:00,26.146529,87.454184,PM10,54,116,80
India,Bihar,Araria,"Kharahiya Basti, Araria - BSPCB",13-04-2026 09:00:00,26.146529,87.454184,CO,62,106,86
India,Bihar,Arrah,"New DM Office, Arrah - BSPCB",13-04-2026 09:00:00,25.5626095,84.663264,PM2.5,23,160,79
India,Bihar,Arrah,"New DM Office, Arrah - BSPCB",13-04-2026 09:00:00,25.5626095,84.663264,PM10,20,110,65
India,Bihar,Arrah,"New DM Office, Arrah - BSPCB",13-04-2026 09:00:00,25.5626095,84.663264,SO2,4,6,5
India,Bihar,Aurangabad,"Gurdeo Nagar, Aurangabad - BSPCB",13-04-2026 09:00:00,24.75746,84.366208,PM10,18,153,104
India,Bihar,Gaya,"SFTI Kusdihra, Gaya - BSPCB",13-04-2026 09:00:00,24.762518,84.982348,SO2,8,9,8
India,Bihar,Gaya,"SFTI Kusdihra, Gaya - BSPCB",13-04-2026 09:00:00,24.762518,84.982348,OZONE,9,48,16
India,Bihar,Hajipur,"Industrial Area, Hajipur - BSPCB",13-04-2026 09:00:00,25.697189,85.245900,NH3,11,14,12
India,Bihar,Hajipur,"Industrial Area, Hajipur - BSPCB",13-04-2026 09:00:00,25.697189,85.245900,SO2,4,14,7
India,Bihar,Begusarai,"Lohiyanagar, Begusarai - BSPCB",13-04-2026 09:00:00,25.42742023,86.13886079,NO2,10,15,13
India,Bihar,Bettiah,"Kamalnath Nagar, Bettiah - BSPCB",13-04-2026 09:00:00,26.80365,84.51954,PM2.5,NA,NA,NA
India,Bihar,Gaya,"Kareemganj, Gaya - BSPCB",13-04-2026 09:00:00,24.792403,84.992416,PM2.5,30,293,128
India,Bihar,Gaya,"Kareemganj, Gaya - BSPCB",13-04-2026 09:00:00,24.792403,84.992416,NO2,9,15,12
India,Bihar,Gaya,"Kareemganj, Gaya - BSPCB",13-04-2026 09:00:00,24.792403,84.992416,SO2,39,46,43
India,Assam,Sivasagar,"Girls College, Sivasagar - PCBA",13-04-2026 09:00:00,26.987634,94.636574,NO2,22,33,28
India,Assam,Sivasagar,"Girls College, Sivasagar - PCBA",13-04-2026 09:00:00,26.987634,94.636574,NH3,5,7,6
India,Assam,Sivasagar,"Girls College, Sivasagar - PCBA",13-04-2026 09:00:00,26.987634,94.636574,SO2,6,7,6
India,Assam,Silchar,"Tarapur, Silchar - PCBA",13-04-2026 09:00:00,24.82827,92.79525,NO2,20,29,22
India,Assam,Silchar,"Tarapur, Silchar - PCBA",13-04-2026 09:00:00,24.82827,92.79525,OZONE,2,6,3
India,Bihar,Patna,"IGSC Planetarium Complex, Patna - BSPCB",13-04-2026 09:00:00,25.610369,85.132568,NO2,1,2,2
India,Bihar,Patna,"Muradpur, Patna - BSPCB",13-04-2026 09:00:00,25.619651,85.147382,PM10,157,277,204
India,Bihar,Patna,"Muradpur, Patna - BSPCB",13-04-2026 09:00:00,25.619651,85.147382,SO2,9,21,12
India,Bihar,Patna,"Rajbansi Nagar, Patna - BSPCB",13-04-2026 09:00:00,25.599486,85.113666,NH3,2,3,3
India,Bihar,Patna,"Rajbansi Nagar, Patna - BSPCB",13-04-2026 09:00:00,25.599486,85.113666,SO2,12,21,16
India,Bihar,Patna,"Rajbansi Nagar, Patna - BSPCB",13-04-2026 09:00:00,25.599486,85.113666,CO,18,113,58
India,Bihar,Patna,"Rajbansi Nagar, Patna - BSPCB",13-04-2026 09:00:00,25.599486,85.113666,OZONE,27,34,29
India,Bihar,Patna,"Samanpura, Patna - BSPCB",13-04-2026 09:00:00,25.596727,85.085624,PM10,123,192,159
India,Bihar,Rajgir,"Dangi Tola, Rajgir - BSPCB",13-04-2026 09:00:00,25.03280,85.41948,SO2,2,3,3
India,Chandigarh,Chandigarh,"Sector-53, Chandigarh - CPCC",13-04-2026 09:00:00,30.719859,76.738637,SO2,6,6,6
India,Chhattisgarh,Bhilai,"32Bungalows, Bhilai - CECB",13-04-2026 09:00:00,21.194815,81.314770,NO2,5,57,22
India,Chhattisgarh,Bhilai,"32Bungalows, Bhilai - CECB",13-04-2026 09:00:00,21.194815,81.314770,SO2,8,24,14
India,Chhattisgarh,Bhilai,"Civic Center, Bhilai - Bhilai Steel Plant",13-04-2026 09:00:00,21.185571,81.343175,PM2.5,20,80,47
India,Chhattisgarh,Bhilai,"Hathkhoj, Bhilai - CECB",13-04-2026 09:00:00,21.224231,81.408350,PM2.5,28,73,51
India,Chhattisgarh,Bhilai,"Hathkhoj, Bhilai - CECB",13-04-2026 09:00:00,21.224231,81.408350,CO,7,70,53
India,Chhattisgarh,Bhilai,"Hathkhoj, Bhilai - CECB",13-04-2026 09:00:00,21.224231,81.408350,OZONE,5,17,10
India,Bihar,Rajgir,"Dangi Tola, Rajgir - BSPCB",13-04-2026 09:00:00,25.03280,85.41948,OZONE,23,28,26
India,Bihar,Sasaram,"Dada Peer, Sasaram - BSPCB",13-04-2026 09:00:00,24.952822,84.002396,PM2.5,14,118,44
India,Bihar,Sasaram,"Dada Peer, Sasaram - BSPCB",13-04-2026 09:00:00,24.952822,84.002396,NO2,1,17,4
India,Chandigarh,Chandigarh,"Sector-25, Chandigarh - CPCC",13-04-2026 09:00:00,30.751462,76.762879,PM2.5,NA,NA,NA
India,Bihar,Patna,"DRM Office Danapur, Patna - BSPCB",13-04-2026 09:00:00,25.586562,85.043586,NO2,32,42,38
India,Bihar,Patna,"Govt. High School Shikarpur, Patna - BSPCB",13-04-2026 09:00:00,25.592539,85.227158,PM10,132,299,190
India,Bihar,Patna,"Govt. High School Shikarpur, Patna - BSPCB",13-04-2026 09:00:00,25.592539,85.227158,CO,1,90,71
India,Bihar,Munger,"Town Hall, Munger - BSPCB",13-04-2026 09:00:00,25.376776,86.471523,OZONE,9,10,10
India,Bihar,Muzaffarpur,"Buddha Colony, Muzaffarpur - BSPCB",13-04-2026 09:00:00,26.11442,85.39813,CO,11,68,31
India,Chhattisgarh,Milupara,"Govt. Higher Secondary School, Milupara - CECB",13-04-2026 09:00:00,22.1910172,83.5197009,PM2.5,33,245,83
India,Bihar,Muzaffarpur,"Muzaffarpur Collectorate, Muzaffarpur - BSPCB",13-04-2026 09:00:00,26.1209,85.3647,NO2,6,13,10
India,Chhattisgarh,Raipur,"AIIMS, Raipur - CECB",13-04-2026 09:00:00,21.258815,81.578979,PM2.5,17,189,49
India,Chhattisgarh,Korba,"Rampur, Korba - CECB",13-04-2026 09:00:00,22.368195,82.746431,PM2.5,31,56,44
India,Delhi,Delhi,"Chandni Chowk, Delhi - IITM",13-04-2026 09:00:00,28.656756,77.227234,PM10,132,245,167
India,Delhi,Delhi,"Commonwealth Sports Complex, Delhi - DPCC",13-04-2026 09:00:00,28.615828 ,77.271992 ,PM2.5,24,282,90
India,Delhi,Delhi,"Commonwealth Sports Complex, Delhi - DPCC",13-04-2026 09:00:00,28.615828 ,77.271992 ,NO2,8,137,74
India,Delhi,Delhi,"DTU, Delhi - CPCB",13-04-2026 09:00:00,28.7500499,77.1112615,CO,16,39,32
India,Delhi,Delhi,"Dr. Karni Singh Shooting Range, Delhi - DPCC",13-04-2026 09:00:00,28.498571,77.264840,PM2.5,18,382,90
India,Delhi,Delhi,"Ashok Vihar, Delhi - DPCC",13-04-2026 09:00:00,28.695381,77.181665,PM2.5,20,335,88
India,Delhi,Delhi,"Aya Nagar, Delhi - IMD",13-04-2026 09:00:00,28.4706914,77.1099364,PM2.5,21,300,93
India,Delhi,Delhi,"Aya Nagar, Delhi - IMD",13-04-2026 09:00:00,28.4706914,77.1099364,NO2,11,100,43
India,Delhi,Delhi,"Bawana, Delhi - DPCC",13-04-2026 09:00:00,28.776200,77.051074,PM10,108,288,163
India,Delhi,Delhi,"Bawana, Delhi - DPCC",13-04-2026 09:00:00,28.776200,77.051074,NO2,6,39,21
India,Delhi,Delhi,"Dr. Karni Singh Shooting Range, Delhi - DPCC",13-04-2026 09:00:00,28.498571,77.264840,NO2,6,90,40
India,Delhi,Delhi,"Dwarka-Sector 8, Delhi - DPCC ",13-04-2026 09:00:00,28.5710274,77.0719006,NH3,7,42,13
India,Delhi,Delhi,"Dwarka-Sector 8, Delhi - DPCC ",13-04-2026 09:00:00,28.5710274,77.0719006,CO,48,100,72
India,Delhi,Delhi,"IGI Airport (T3), Delhi - IMD",13-04-2026 09:00:00,28.5627763,77.1180053,PM10,73,321,144
India,Chhattisgarh,Tumidih,"OP Jindal Industrial Park, Tumidih - CECB",13-04-2026 09:00:00,22.06631475,83.33820077,PM2.5,25,245,94
India,Chhattisgarh,Tumidih,"OP Jindal Industrial Park, Tumidih - CECB",13-04-2026 09:00:00,22.06631475,83.33820077,CO,13,78,52
India,Delhi,Delhi,"Alipur, Delhi - DPCC",13-04-2026 09:00:00,28.815329,77.153010,NO2,12,97,55
India,Delhi,Delhi,"Alipur, Delhi - DPCC",13-04-2026 09:00:00,28.815329,77.153010,OZONE,3,29,6
India,Delhi,Delhi,"Anand Vihar, Delhi - DPCC",13-04-2026 09:00:00,28.647622,77.3158090,PM10,94,321,176
India,Delhi,Delhi,"Anand Vihar, Delhi - DPCC",13-04-2026 09:00:00,28.647622,77.3158090,SO2,18,31,26
India,Delhi,Delhi,"Anand Vihar, Delhi - DPCC",13-04-2026 09:00:00,28.647622,77.3158090,CO,24,52,39
India,Chhattisgarh,Raipur,"Siltara Phase-II, Raipur - CECB",13-04-2026 09:00:00,21.371751,81.664929,PM10,30,150,96
India,Chhattisgarh,Raipur,"Bhatagaon New ISBT, Raipur - CECB",13-04-2026 09:00:00,21.219665,81.630094,SO2,4,23,9
India,Chhattisgarh,Raipur,"Krishak Nagar, Raipur - CECB",13-04-2026 09:00:00,21.237755,81.705301,NO2,7,19,11
India,Delhi,Delhi,"Bawana, Delhi - DPCC",13-04-2026 09:00:00,28.776200,77.051074,SO2,7,84,24
India,Delhi,Delhi,"Jahangirpuri, Delhi - DPCC",13-04-2026 09:00:00,28.732820,77.170633,CO,12,56,28
India,Delhi,Delhi,"Jawaharlal Nehru Stadium, Delhi - DPCC",13-04-2026 09:00:00,28.580280,77.233829,NO2,27,120,72
India,Delhi,Delhi,"Jawaharlal Nehru Stadium, Delhi - DPCC",13-04-2026 09:00:00,28.580280,77.233829,CO,2,60,38
India,Delhi,Delhi,"Jawaharlal Nehru Stadium, Delhi - DPCC",13-04-2026 09:00:00,28.580280,77.233829,OZONE,2,79,7
India,Delhi,Delhi,"NSIT Dwarka, Delhi - CPCB",13-04-2026 09:00:00,28.60909,77.0325413,NO2,74,156,106
India,Delhi,Delhi,"NSIT Dwarka, Delhi - CPCB",13-04-2026 09:00:00,28.60909,77.0325413,CO,28,96,38
India,Delhi,Delhi,"NSUT Jaffarpur, Delhi - DPCC",13-04-2026 09:00:00,28.594004 ,76.909423 ,NO2,4,109,50
India,Delhi,Delhi,"IIT Delhi, Delhi - IITM",13-04-2026 09:00:00,28.542460,77.191651,NO2,21,109,57
India,Delhi,Delhi,"ITO, Delhi - CPCB",13-04-2026 09:00:00,28.628624,77.241060,PM10,61,195,108
India,Delhi,Delhi,"ITO, Delhi - CPCB",13-04-2026 09:00:00,28.628624,77.241060,NO2,24,71,48
India,Delhi,Delhi,"ITO, Delhi - CPCB",13-04-2026 09:00:00,28.628624,77.241060,CO,25,70,39
India,Delhi,Delhi,"JNU, Delhi - DPCC",13-04-2026 09:00:00,28.540721 ,77.168544 ,PM10,63,206,119
India,Delhi,Delhi,"IGNOU_Maidan Garhi, Delhi - DPCC",13-04-2026 09:00:00,28.493624 ,77.201159 ,SO2,6,26,11
India,Delhi,Delhi,"IGNOU_Maidan Garhi, Delhi - DPCC",13-04-2026 09:00:00,28.493624 ,77.201159 ,CO,14,56,39
India,Delhi,Delhi,"Mandir Marg, Delhi - DPCC",13-04-2026 09:00:00,28.636429,77.201067,PM2.5,98,350,185
India,Delhi,Delhi,"Mandir Marg, Delhi - DPCC",13-04-2026 09:00:00,28.636429,77.201067,CO,82,105,98
India,Delhi,Delhi,"Jahangirpuri, Delhi - DPCC",13-04-2026 09:00:00,28.732820,77.170633,PM2.5,30,357,142
India,Delhi,Delhi,"Narela, Delhi - DPCC",13-04-2026 09:00:00,28.822836,77.101981,PM2.5,47,366,125
India,Delhi,Delhi,"ITO, Delhi - CPCB",13-04-2026 09:00:00,28.628624,77.241060,NH3,3,5,4
India,Delhi,Delhi,"Sonia Vihar, Delhi - DPCC",13-04-2026 09:00:00,28.710508,77.249485,OZONE,5,58,19
India,Delhi,Delhi,"Sri Aurobindo Marg, Delhi - DPCC",13-04-2026 09:00:00,28.531346,77.190156,CO,2,34,26
India,Delhi,Delhi,"Talkatora Garden, Delhi - DPCC",13-04-2026 09:00:00,28.621810,77.1944633,PM2.5,23,350,92
India,Delhi,Delhi,"Talkatora Garden, Delhi - DPCC",13-04-2026 09:00:00,28.621810,77.1944633,NH3,4,8,6
India,Delhi,Delhi,"Talkatora Garden, Delhi - DPCC",13-04-2026 09:00:00,28.621810,77.1944633,CO,23,66,60
India,Delhi,Delhi,"Vivek Vihar, Delhi - DPCC",13-04-2026 09:00:00,28.672342,77.315260,PM10,90,177,130
India,Delhi,Delhi,"Vivek Vihar, Delhi - DPCC",13-04-2026 09:00:00,28.672342,77.315260,CO,39,74,65
India,Delhi,Delhi,"Patparganj, Delhi - DPCC",13-04-2026 09:00:00,28.623763,77.287209,SO2,14,58,26
India,Delhi,Delhi,"Patparganj, Delhi - DPCC",13-04-2026 09:00:00,28.623763,77.287209,CO,39,81,61
India,Delhi,Delhi,"Pusa, Delhi - DPCC",13-04-2026 09:00:00,28.639652,77.146275,NO2,50,128,83
India,Delhi,Delhi,"Pusa, Delhi - IMD",13-04-2026 09:00:00,28.636110,77.173332,PM2.5,15,324,66
India,Delhi,Delhi,"Pusa, Delhi - IMD",13-04-2026 09:00:00,28.636110,77.173332,PM10,78,300,118
India,Delhi,Delhi,"Pusa, Delhi - IMD",13-04-2026 09:00:00,28.636110,77.173332,CO,127,137,131
India,Delhi,Delhi,"Rohini, Delhi - DPCC",13-04-2026 09:00:00,28.732528,77.119920,PM10,95,376,163
India,Delhi,Delhi,"Rohini, Delhi - DPCC",13-04-2026 09:00:00,28.732528,77.119920,NH3,5,8,6
India,Delhi,Delhi,"Rohini, Delhi - DPCC",13-04-2026 09:00:00,28.732528,77.119920,SO2,8,83,20
India,Delhi,Delhi,"Rohini, Delhi - DPCC",13-04-2026 09:00:00,28.732528,77.119920,OZONE,6,61,12
India,Delhi,Delhi,"Shadipur, Delhi - CPCB",13-04-2026 09:00:00,28.6514781,77.1473105,PM2.5,83,312,163
India,Delhi,Delhi,"Shadipur, Delhi - CPCB",13-04-2026 09:00:00,28.6514781,77.1473105,SO2,6,16,14
India,Delhi,Delhi,"Sonia Vihar, Delhi - DPCC",13-04-2026 09:00:00,28.710508,77.249485,PM2.5,20,197,72
India,Delhi,Delhi,"Sonia Vihar, Delhi - DPCC",13-04-2026 09:00:00,28.710508,77.249485,CO,30,76,55
India,Delhi,Delhi,"New Moti Bagh, Delhi - MHUA",13-04-2026 09:00:00,28.57834,77.18400,PM2.5,31,242,73
India,Delhi,Delhi,"North Campus, DU, Delhi - IMD",13-04-2026 09:00:00,28.6573814,77.1585447,PM2.5,23,308,74
India,Delhi,Delhi,"Wazirpur, Delhi - DPCC",13-04-2026 09:00:00,28.699793,77.165453,NH3,6,8,7
India,Delhi,Delhi,"Wazirpur, Delhi - DPCC",13-04-2026 09:00:00,28.699793,77.165453,SO2,5,34,13
India,Delhi,Delhi,"Wazirpur, Delhi - DPCC",13-04-2026 09:00:00,28.699793,77.165453,CO,22,74,51
India,Gujarat,Ahmedabad,"Chandkheda, Ahmedabad - IITM",13-04-2026 09:00:00,23.107969,72.574648,PM2.5,48,72,57
India,Delhi,Delhi,"R K Puram, Delhi - DPCC",13-04-2026 09:00:00,28.563262,77.186937,CO,28,101,60
India,Delhi,Delhi,"Narela, Delhi - DPCC",13-04-2026 09:00:00,28.822836,77.101981,SO2,5,14,9
India,Gujarat,Nandesari,"GIDC, Nandesari - Nandesari Ind. Association",13-04-2026 09:00:00,22.410802,73.097923,PM10,62,233,134
India,Gujarat,Nandesari,"GIDC, Nandesari - Nandesari Ind. Association",13-04-2026 09:00:00,22.410802,73.097923,NO2,8,348,100
India,Gujarat,Nandesari,"GIDC, Nandesari - Nandesari Ind. Association",13-04-2026 09:00:00,22.410802,73.097923,CO,14,112,62
India,Gujarat,Rajkot,"Mavdi, Rajkot - Nexteng Enviro ",13-04-2026 09:00:00,22.248853,70.776774,PM2.5,24,73,53
India,Gujarat,Rajkot,"Mavdi, Rajkot - Nexteng Enviro ",13-04-2026 09:00:00,22.248853,70.776774,PM10,59,100,78
India,Gujarat,Ahmedabad,"SAC ISRO Satellite, Ahmedabad - IITM",13-04-2026 09:00:00,23.023389,72.515201,PM2.5,93,226,121
India,Gujarat,Ahmedabad,"SAC ISRO Satellite, Ahmedabad - IITM",13-04-2026 09:00:00,23.023389,72.515201,PM10,110,165,123
India,Gujarat,Ahmedabad,"SVPI Airport Hansol, Ahmedabad - IITM",13-04-2026 09:00:00,23.076793,72.627874,NO2,6,72,28
India,Gujarat,Ahmedabad,"SVPI Airport Hansol, Ahmedabad - IITM",13-04-2026 09:00:00,23.076793,72.627874,NH3,1,4,2
India,Gujarat,Ahmedabad,"SVPI Airport Hansol, Ahmedabad - IITM",13-04-2026 09:00:00,23.076793,72.627874,OZONE,2,100,21
India,Gujarat,Surat,"Katargam, Surat - Nexteng Enviro",13-04-2026 09:00:00,21.217779 ,72.834787 ,SO2,7,30,13
India,Gujarat,Surat,"Science Center, Surat - SMC",13-04-2026 09:00:00,21.170046,72.795405,SO2,18,24,20
India,Gujarat,Vadodara,"Bapunagar, Vadodara - Nexteng Enviro",13-04-2026 09:00:00,22.320153,73.216285,NO2,11,26,16
India,Gujarat,Vadodara,"Bapunagar, Vadodara - Nexteng Enviro",13-04-2026 09:00:00,22.320153,73.216285,NH3,2,3,3
India,Gujarat,Ahmedabad,"Gyaspur, Ahmedabad - IITM",13-04-2026 09:00:00,22.977134,72.553024,PM2.5,51,129,76
India,Gujarat,Ahmedabad,"Gyaspur, Ahmedabad - IITM",13-04-2026 09:00:00,22.977134,72.553024,SO2,NA,NA,NA
India,Gujarat,Ahmedabad,"Maninagar, Ahmedabad - GPCB",13-04-2026 09:00:00,23.002657,72.591912,OZONE,38,77,46
India,Gujarat,Ahmedabad,"Raikhad, Ahmedabad - IITM",13-04-2026 09:00:00,23.020509,72.579261,PM10,104,249,142
India,Gujarat,Gandhinagar,"IIPHG Lekawada, Gandhinagar - IITM",13-04-2026 09:00:00,23.243639,72.68994,PM2.5,38,93,59
India,Gujarat,Gandhinagar,"Sector-10, Gandhinagar - GPCB",13-04-2026 09:00:00,23.221714,72.654328,PM2.5,69,113,93
India,Gujarat,Mehsana,"Sadanand Nagar, Mehsana - Nexteng Enviro",13-04-2026 09:00:00,23.593150,72.372792,PM2.5,20,154,56
India,Gujarat,Ahmedabad,"Raikhad, Ahmedabad - IITM",13-04-2026 09:00:00,23.020509,72.579261,OZONE,1,47,11
India,Gujarat,Ahmedabad,"Rakhial, Ahmedabad - IITM",13-04-2026 09:00:00,23.016834,72.625775,NH3,2,3,3
India,Gujarat,Ahmedabad,"SAC ISRO Bopal, Ahmedabad - IITM",13-04-2026 09:00:00,23.041137,72.456691,NO2,5,48,22
India,Gujarat,Rajkot,"Mavdi, Rajkot - Nexteng Enviro ",13-04-2026 09:00:00,22.248853,70.776774,SO2,13,37,22
India,Gujarat,Surat,"Katargam, Surat - Nexteng Enviro",13-04-2026 09:00:00,21.217779 ,72.834787 ,PM10,40,105,72
India,Gujarat,Bhavnagar,"Vidhyanagar, Bhavnagar - Nexteng Enviro",13-04-2026 09:00:00,21.755417,72.139056,OZONE,6,31,10
India,Gujarat,Ahmedabad,"Chandkheda, Ahmedabad - IITM",13-04-2026 09:00:00,23.107969,72.574648,NH3,4,11,7
India,Haryana,Dharuhera,"Municipal Corporation Office, Dharuhera -  HSPCB",13-04-2026 09:00:00,28.206800,76.799700,SO2,6,8,7
India,Haryana,Faridabad,"New Industrial Town, Faridabad - HSPCB",13-04-2026 09:00:00,28.39072,77.30059,PM2.5,124,144,135
India,Haryana,Faridabad,"New Industrial Town, Faridabad - HSPCB",13-04-2026 09:00:00,28.39072,77.30059,NH3,11,12,11
India,Haryana,Faridabad,"Sector 11, Faridabad - HSPCB",13-04-2026 09:00:00,28.376058,77.315741,NO2,30,33,31
India,Haryana,Faridabad,"Sector 11, Faridabad - HSPCB",13-04-2026 09:00:00,28.376058,77.315741,SO2,2,3,3
India,Haryana,Faridabad,"Sector 30, Faridabad - HSPCB",13-04-2026 09:00:00,28.4417,77.3217,PM2.5,52,318,85
India,Haryana,Faridabad,"Sector 30, Faridabad - HSPCB",13-04-2026 09:00:00,28.4417,77.3217,PM10,61,228,90
India,Haryana,Ballabgarh,"Nathu Colony, Ballabgarh - HSPCB",13-04-2026 09:00:00,28.3419248,77.319699,PM2.5,36,185,90
India,Haryana,Ballabgarh,"Nathu Colony, Ballabgarh - HSPCB",13-04-2026 09:00:00,28.3419248,77.319699,OZONE,3,43,6
India,Haryana,Bhiwani,"H.B. Colony, Bhiwani - HSPCB",13-04-2026 09:00:00,28.806223,76.141105,PM10,23,28,25
India,Haryana,Bhiwani,"H.B. Colony, Bhiwani - HSPCB",13-04-2026 09:00:00,28.806223,76.141105,NO2,4,27,8
India,Haryana,Bhiwani,"H.B. Colony, Bhiwani - HSPCB",13-04-2026 09:00:00,28.806223,76.141105,CO,2,6,3
India,Gujarat,Vatva,"Phase-4 GIDC, Vatva - GPCB",13-04-2026 09:00:00,22.969611,72.643500,PM2.5,34,232,112
India,Gujarat,Vatva,"Phase-4 GIDC, Vatva - GPCB",13-04-2026 09:00:00,22.969611,72.643500,NO2,35,75,62
India,Haryana,Ambala,"Patti Mehar, Ambala - HSPCB",13-04-2026 09:00:00,30.379589,76.778328,SO2,15,33,21
India,Haryana,Hisar,"Urban Estate-II, Hisar - HSPCB",13-04-2026 09:00:00,29.140560,75.744941,NH3,13,13,13
India,Haryana,Hisar,"Urban Estate-II, Hisar - HSPCB",13-04-2026 09:00:00,29.140560,75.744941,CO,NA,NA,NA
India,Haryana,Jind,"Police Lines, Jind - HSPCB",13-04-2026 09:00:00,29.307814,76.337619,PM2.5,61,117,86
India,Haryana,Faridabad,"Sector 30, Faridabad - HSPCB",13-04-2026 09:00:00,28.4417,77.3217,OZONE,10,10,10
India,Haryana,Gurugram,"Sector-51, Gurugram - HSPCB",13-04-2026 09:00:00,28.4227,77.0667,PM2.5,94,352,238
India,Haryana,Gurugram,"Vikas Sadan, Gurugram - HSPCB",13-04-2026 09:00:00,28.4501238,77.0263051,PM10,107,440,163
India,Haryana,Gurugram,"Vikas Sadan, Gurugram - HSPCB",13-04-2026 09:00:00,28.4501238,77.0263051,NO2,9,38,25
India,Haryana,Bahadurgarh,"Arya Nagar, Bahadurgarh - HSPCB",13-04-2026 09:00:00,28.6701,76.9254,PM2.5,55,79,72
India,Haryana,Gurugram,"Teri Gram, Gurugram - HSPCB",13-04-2026 09:00:00,28.4275,77.1465,CO,19,38,33
India,Haryana,Gurugram,"Sector-51, Gurugram - HSPCB",13-04-2026 09:00:00,28.4227,77.0667,SO2,2,6,4
India,Haryana,Karnal,"Sector-12, Karnal - HSPCB",13-04-2026 09:00:00,29.695300,77.002700,SO2,4,56,10
India,Haryana,Kurukshetra,"Sector-7, Kurukshetra - HSPCB",13-04-2026 09:00:00,29.966942,76.875879,PM10,78,120,104
India,Haryana,Mandikhera,"General Hospital, Mandikhera(Nuh) - HSPCB",13-04-2026 09:00:00,27.9002,76.9938,CO,22,34,27
India,Haryana,Mandikhera,"General Hospital, Mandikhera(Nuh) - HSPCB",13-04-2026 09:00:00,27.9002,76.9938,OZONE,24,30,27
India,Haryana,Manesar,"Sector-2 IMT, Manesar - HSPCB",13-04-2026 09:00:00,28.360699,76.936090,PM10,44,150,103
India,Haryana,Kaithal,"Rishi Nagar, Kaithal - HSPCB",13-04-2026 09:00:00,29.8006,76.4155,PM2.5,2,82,58
India,Haryana,Karnal,"Sector-12, Karnal - HSPCB",13-04-2026 09:00:00,29.695300,77.002700,PM10,46,91,66
India,Haryana,Sirsa,"F-Block, Sirsa - HSPCB",13-04-2026 09:00:00,29.536400,75.015800,CO,2,21,13
India,Haryana,Sonipat,"Murthal, Sonipat - HSPCB",13-04-2026 09:00:00,29.027200,77.062100,PM2.5,61,301,157
India,Haryana,Palwal,"Shyam Nagar, Palwal - HSPCB",13-04-2026 09:00:00,28.1485564,77.3320667,PM2.5,40,75,60
India,Haryana,Palwal,"Shyam Nagar, Palwal - HSPCB",13-04-2026 09:00:00,28.1485564,77.3320667,NH3,8,9,9
India,Haryana,Palwal,"Shyam Nagar, Palwal - HSPCB",13-04-2026 09:00:00,28.1485564,77.3320667,SO2,12,14,13
India,Haryana,Sonipat,"Murthal, Sonipat - HSPCB",13-04-2026 09:00:00,29.027200,77.062100,PM10,107,199,154
India,Haryana,Sonipat,"Murthal, Sonipat - HSPCB",13-04-2026 09:00:00,29.027200,77.062100,NH3,21,21,21
India,Haryana,Rohtak,"MD University, Rohtak - HSPCB",13-04-2026 09:00:00,28.52123,76.37138,PM10,32,69,48
India,Haryana,Rohtak,"MD University, Rohtak - HSPCB",13-04-2026 09:00:00,28.52123,76.37138,NO2,10,13,11
India,Haryana,Panchkula,"Sector-6, Panchkula - HSPCB ",13-04-2026 09:00:00,30.7057778,76.8531805555555,PM2.5,36,98,62
India,Haryana,Narnaul,"Shastri Nagar, Narnaul - HSPCB",13-04-2026 09:00:00,28.060249,76.113115,PM10,57,179,100
India,Haryana,Jind,"Police Lines, Jind - HSPCB",13-04-2026 09:00:00,29.307814,76.337619,SO2,1,8,1
India,Jharkhand,Jorapokhar,"Tata Stadium, Jorapokhar - JSPCB",13-04-2026 09:00:00,23.707909,86.414670,CO,NA,NA,NA
India,Karnataka,Bagalkot,"Vidayagiri, Bagalkot - KSPCB",13-04-2026 09:00:00,16.172806,75.659694,NH3,1,1,1
India,Karnataka,Bagalkot,"Vidayagiri, Bagalkot - KSPCB",13-04-2026 09:00:00,16.172806,75.659694,OZONE,12,13,12
India,Karnataka,Belgaum,"Ramteerth Nagar, Belgaum - KSPCB",13-04-2026 09:00:00,15.888653,74.541751,PM10,64,109,86
India,Karnataka,Belgaum,"Ramteerth Nagar, Belgaum - KSPCB",13-04-2026 09:00:00,15.888653,74.541751,OZONE,18,20,19
India,Karnataka,Bengaluru,"BTM Layout, Bengaluru - CPCB",13-04-2026 09:00:00,12.9135218,77.5950804,SO2,18,18,18
India,Karnataka,Bengaluru,"BTM Layout, Bengaluru - CPCB",13-04-2026 09:00:00,12.9135218,77.5950804,OZONE,23,24,24
India,Karnataka,Bengaluru,"BWSSB Kadabesanahalli, Bengaluru - CPCB",13-04-2026 09:00:00,12.9352049,77.6814488,PM2.5,29,440,80
India,Karnataka,Bengaluru,"Hebbal, Bengaluru - KSPCB",13-04-2026 09:00:00,13.029152,77.585901,PM2.5,36,92,71
India,Karnataka,Bengaluru,"Hombegowda Nagar, Bengaluru - KSPCB",13-04-2026 09:00:00,12.938539,77.590100,NO2,13,39,23
India,Karnataka,Bengaluru,"Hombegowda Nagar, Bengaluru - KSPCB",13-04-2026 09:00:00,12.938539,77.590100,CO,7,18,11
India,Karnataka,Bengaluru,"Jigani, Bengaluru - KSPCB",13-04-2026 09:00:00,12.7816279,77.6299145,NH3,4,4,4
India,Karnataka,Bengaluru,"Jigani, Bengaluru - KSPCB",13-04-2026 09:00:00,12.7816279,77.6299145,CO,42,44,43
India,Haryana,Yamuna Nagar,"Gobind Pura, Yamuna Nagar - HSPCB",13-04-2026 09:00:00,30.1480566,77.2893471,CO,24,52,34
India,Himachal Pradesh,Baddi,"HIMUDA Complex Phase-1, Baddi - HPPCB",13-04-2026 09:00:00,30.943887,76.801991,NO2,2,33,16
India,Jammu_and_Kashmir,Pampore,"Khrew, Pampore - JKPCC",13-04-2026 09:00:00,34.031606,75.009712,PM2.5,20,81,52
India,Karnataka,Bengaluru,"Shivapura_Peenya, Bengaluru - KSPCB",13-04-2026 09:00:00,13.0246342,77.5080115,PM10,30,30,30
India,Karnataka,Bengaluru,"Shivapura_Peenya, Bengaluru - KSPCB",13-04-2026 09:00:00,13.0246342,77.5080115,SO2,3,5,4
India,Karnataka,Bengaluru,"Silk Board, Bengaluru - KSPCB",13-04-2026 09:00:00,12.917348,77.622813,PM10,101,128,111
India,Karnataka,Bengaluru,"Silk Board, Bengaluru - KSPCB",13-04-2026 09:00:00,12.917348,77.622813,CO,9,20,16
India,Karnataka,Bengaluru,"RVCE-Mailasandra, Bengaluru - KSPCB",13-04-2026 09:00:00,12.921418,77.502466,NH3,3,4,4
India,Karnataka,Bengaluru,"RVCE-Mailasandra, Bengaluru - KSPCB",13-04-2026 09:00:00,12.921418,77.502466,CO,1,28,14
India,Karnataka,Bengaluru,"Sanegurava Halli, Bengaluru - KSPCB",13-04-2026 09:00:00,12.990328,77.5431385,NO2,17,19,18
India,Karnataka,Bengaluru,"Bapuji Nagar, Bengaluru - KSPCB",13-04-2026 09:00:00,12.951913,77.539784,NO2,25,29,27
India,Karnataka,Bengaluru,"Bapuji Nagar, Bengaluru - KSPCB",13-04-2026 09:00:00,12.951913,77.539784,OZONE,1,16,12
India,Karnataka,Bengaluru,"Kasturi Nagar, Bengaluru - KSPCB",13-04-2026 09:00:00,13.003872,77.664217,NO2,25,26,26
India,Karnataka,Bengaluru,"Kasturi Nagar, Bengaluru - KSPCB",13-04-2026 09:00:00,13.003872,77.664217,CO,32,51,45
India,Jharkhand,Dhanbad,"Sardar Patel Nagar, Dhanbad - JSPCB",13-04-2026 09:00:00,23.80569,86.44268,SO2,108,135,121
India,Karnataka,Bengaluru,"Peenya, Bengaluru - CPCB",13-04-2026 09:00:00,13.0270199,77.494094,NH3,3,5,4
India,Karnataka,Mysuru,"Hebbal 1st Stage, Mysuru - KSPCB",13-04-2026 09:00:00,12.21041,76.37376,NH3,3,5,4
India,Karnataka,Mysuru,"Hebbal 1st Stage, Mysuru - KSPCB",13-04-2026 09:00:00,12.21041,76.37376,SO2,2,5,4
India,Karnataka,Ramanagara,"Vijay Nagar, Ramanagara - KSPCB",13-04-2026 09:00:00,12.733409,77.298051,PM10,74,107,90
India,Karnataka,Ramanagara,"Vijay Nagar, Ramanagara - KSPCB",13-04-2026 09:00:00,12.733409,77.298051,NO2,8,22,12
India,Karnataka,Ramanagara,"Vijay Nagar, Ramanagara - KSPCB",13-04-2026 09:00:00,12.733409,77.298051,NH3,3,5,4
India,Karnataka,Ramanagara,"Vijay Nagar, Ramanagara - KSPCB",13-04-2026 09:00:00,12.733409,77.298051,SO2,19,29,23
India,Karnataka,Dharwad,"Kalabhavan, Dharwad - KSPCB",13-04-2026 09:00:00,15.459706,75.008381,CO,34,56,40
India,Karnataka,Hubballi,"Lingaraj Nagar, Hubballi - KSPCB",13-04-2026 09:00:00,15.3714823,75.1160168,PM2.5,37,42,40
India,Karnataka,Vijayapura,"Ibrahimpur, Vijayapura - KSPCB",13-04-2026 09:00:00,16.802639,75.722694,SO2,3,6,3
India,Karnataka,Vijayapura,"Ibrahimpur, Vijayapura - KSPCB",13-04-2026 09:00:00,16.802639,75.722694,CO,10,38,26
India,Karnataka,Vijayapura,"Ibrahimpur, Vijayapura - KSPCB",13-04-2026 09:00:00,16.802639,75.722694,OZONE,16,17,16
India,Karnataka,Koppal,"Diwator Nagar, Koppal - KSPCB",13-04-2026 09:00:00,15.347630,76.181767,NO2,29,30,29
India,Karnataka,Koppal,"Diwator Nagar, Koppal - KSPCB",13-04-2026 09:00:00,15.347630,76.181767,NH3,8,8,8
India,Karnataka,Kalaburagi,"Mahatma Basaveswar Colony, Kalaburgi - KSPCB",13-04-2026 09:00:00,17.336318,76.847397,SO2,2,7,4
India,Karnataka,Chikkaballapur,"Chikkaballapur Rural, Chikkaballapur - KSPCB",13-04-2026 09:00:00,13.428828,77.731418,CO,26,48,35
India,Karnataka,Chikkamagaluru,"Kalyana Nagara, Chikkamagaluru - KSPCB",13-04-2026 09:00:00,13.328028,75.797056,NO2,19,24,20
India,Karnataka,Mangalore,"Kadri, Mangalore - KSPCB",13-04-2026 09:00:00,12.889250,74.853000,PM2.5,53,77,65
India,Karnataka,Mangalore,"Kadri, Mangalore - KSPCB",13-04-2026 09:00:00,12.889250,74.853000,NO2,6,10,8
India,Madhya Pradesh,Damoh,"Shrivastav Colony, Damoh - MPPCB",13-04-2026 09:00:00,23.81748678,79.446246,SO2,42,59,50
India,Madhya Pradesh,Gwalior,"City Center, Gwalior - MPPCB",13-04-2026 09:00:00,26.203442,78.193251,NO2,19,146,74
India,Madhya Pradesh,Gwalior,"City Center, Gwalior - MPPCB",13-04-2026 09:00:00,26.203442,78.193251,NH3,4,6,5
India,Madhya Pradesh,Bhopal,"Idgah Hills, Bhopal - MPPCB",13-04-2026 09:00:00,23.264759,77.381568,SO2,13,25,17
India,Madhya Pradesh,Bhopal,"Paryavaran Parisar, Bhopal - MPPCB",13-04-2026 09:00:00,23.210494,77.425409,PM2.5,38,203,81
India,Madhya Pradesh,Bhopal,"Paryavaran Parisar, Bhopal - MPPCB",13-04-2026 09:00:00,23.210494,77.425409,NO2,17,91,37
India,Kerala,Thrissur,"Corporation Ground, Thrissur - Kerala PCB",13-04-2026 09:00:00,10.532400,76.215900,OZONE,30,30,30
India,Madhya Pradesh,Bhopal,"Idgah Hills, Bhopal - MPPCB",13-04-2026 09:00:00,23.264759,77.381568,PM2.5,62,263,106
India,Madhya Pradesh,Bhopal,"T T Nagar, Bhopal - MPPCB",13-04-2026 09:00:00,23.233584,77.400574,PM10,105,196,139
India,Madhya Pradesh,Bhopal,"T T Nagar, Bhopal - MPPCB",13-04-2026 09:00:00,23.233584,77.400574,SO2,4,28,19
India,Kerala,Thiruvananthapuram,"Kariavattom, Thiruvananthapuram - Kerala PCB",13-04-2026 09:00:00,8.563700,76.886500,PM2.5,9,27,15
India,Madhya Pradesh,Gwalior,"Deen Dayal Nagar, Gwalior - MPPCB",13-04-2026 09:00:00,26.259242,78.216432,CO,35,74,67
India,Madhya Pradesh,Bhopal,"Paryavaran Parisar, Bhopal - MPPCB",13-04-2026 09:00:00,23.210494,77.425409,CO,6,65,19
India,Madhya Pradesh,Bhopal,"Idgah Hills, Bhopal - MPPCB",13-04-2026 09:00:00,23.264759,77.381568,PM10,112,181,137
India,Kerala,Kannur,"Thavakkara, Kannur - Kerala PCB",13-04-2026 09:00:00,11.875000,75.373200,SO2,2,2,2
India,Madhya Pradesh,Jabalpur,"Gupteshwar, Jabalpur - JMC",13-04-2026 09:00:00,23.142888,79.916147,NH3,2,2,2
India,Madhya Pradesh,Jabalpur,"Gupteshwar, Jabalpur - JMC",13-04-2026 09:00:00,23.142888,79.916147,CO,35,57,44
India,Madhya Pradesh,Jabalpur,"Gupteshwar, Jabalpur - JMC",13-04-2026 09:00:00,23.142888,79.916147,OZONE,16,47,22
India,Madhya Pradesh,Indore,"Chhoti Gwaltoli, Indore - MPPCB",13-04-2026 09:00:00,22.4310,75.5213,NH3,20,22,21
India,Madhya Pradesh,Indore,"Chhoti Gwaltoli, Indore - MPPCB",13-04-2026 09:00:00,22.4310,75.5213,OZONE,3,43,32
India,Madhya Pradesh,Mandideep,"Sector-D Industrial Area, Mandideep - MPPCB",13-04-2026 09:00:00,23.108440,77.511428,NO2,NA,NA,NA
India,Madhya Pradesh,Ratlam,"Shasthri Nagar, Ratlam - IPCA Lab",13-04-2026 09:00:00,23.331731,75.045981,NO2,13,68,28
India,Madhya Pradesh,Gwalior,"Maharaj Bada, Gwalior - MPPCB",13-04-2026 09:00:00,26.200388,78.147714,PM2.5,32,203,80
India,Madhya Pradesh,Gwalior,"Maharaj Bada, Gwalior - MPPCB",13-04-2026 09:00:00,26.200388,78.147714,NH3,4,6,5
India,Madhya Pradesh,Jabalpur,"Suhagi, Jabalpur - JMC",13-04-2026 09:00:00,23.218135,79.957770,CO,16,132,58
India,Madhya Pradesh,Indore,"Regional Park, Indore - IMC",13-04-2026 09:00:00,22.6780,75.8559,SO2,62,69,66
India,Madhya Pradesh,Indore,"Airport Area, Indore - IMC",13-04-2026 09:00:00,22.7289,75.8076,SO2,25,30,27
India,Maharashtra,Ambernath,"Chinchpada, Ambernath - MPCB",13-04-2026 09:00:00,19.2157840,73.1997810,NO2,22,86,47
India,Maharashtra,Ambernath,"Chinchpada, Ambernath - MPCB",13-04-2026 09:00:00,19.2157840,73.1997810,SO2,1,36,12
India,Maharashtra,Amravati,"Shri Shivaji Science College, Amravati - MPCB",13-04-2026 09:00:00,20.939198,77.765701,NH3,2,14,4
India,Maharashtra,Aurangabad,"MIDC Chilkalthana, Aurangabad - MPCB",13-04-2026 09:00:00,19.875620,75.387310,PM2.5,34,82,54
India,Maharashtra,Aurangabad,"MIDC Chilkalthana, Aurangabad - MPCB",13-04-2026 09:00:00,19.875620,75.387310,PM10,77,205,112
India,Maharashtra,Aurangabad,"MIDC Chilkalthana, Aurangabad - MPCB",13-04-2026 09:00:00,19.875620,75.387310,NH3,2,24,7
India,Maharashtra,Aurangabad,"Rachnakar Colony, Aurangabad - MPCB",13-04-2026 09:00:00,19.863756,75.321188,PM10,76,183,115
India,Maharashtra,Badlapur,"Katrap, Badlapur - MPCB",13-04-2026 09:00:00,19.16485,73.23409,NH3,4,7,6
India,Maharashtra,Beed,"Bir, Beed - MPCB",13-04-2026 09:00:00,18.988474,75.753873,PM10,58,205,96
India,Maharashtra,Beed,"Bir, Beed - MPCB",13-04-2026 09:00:00,18.988474,75.753873,SO2,6,29,14
India,Madhya Pradesh,Sagar,"Civil Lines, Sagar - MPPCB",13-04-2026 09:00:00,23.838586,78.759431,NO2,4,20,9
India,Madhya Pradesh,Sagar,"Civil Lines, Sagar - MPPCB",13-04-2026 09:00:00,23.838586,78.759431,CO,5,44,21
India,Madhya Pradesh,Sagar,"Civil Lines, Sagar - MPPCB",13-04-2026 09:00:00,23.838586,78.759431,OZONE,56,121,72
India,Maharashtra,Boisar,"Khaira, Boisar - MPCB",13-04-2026 09:00:00,19.786089,72.757971,PM2.5,57,66,62
India,Maharashtra,Boisar,"Khaira, Boisar - MPCB",13-04-2026 09:00:00,19.786089,72.757971,NO2,17,24,20
India,Maharashtra,Boisar,"Khaira, Boisar - MPCB",13-04-2026 09:00:00,19.786089,72.757971,NH3,3,5,4
India,Maharashtra,Ahmednagar,"Tarakpur, Ahmednagar - MPCB",13-04-2026 09:00:00,19.10122,74.73339,NO2,15,30,22
India,Maharashtra,Ahmednagar,"Tarakpur, Ahmednagar - MPCB",13-04-2026 09:00:00,19.10122,74.73339,NH3,5,7,6
India,Madhya Pradesh,Satna,"Bandhavgar Colony, Satna - Birla Cement",13-04-2026 09:00:00,24.58434363,80.8549414,PM10,70,71,70
India,Madhya Pradesh,Singrauli,"Suryakiran Bhawan NCL, Singrauli - MPPCB",13-04-2026 09:00:00,24.108970,82.645580,SO2,NA,NA,NA
India,Madhya Pradesh,Sagar,"Deen Dayal Nagar, Sagar - MPPCB",13-04-2026 09:00:00,23.8640158,78.80289321,NO2,4,44,17
India,Maharashtra,Akola,"Ramdaspeth, Akola - MPCB",13-04-2026 09:00:00,20.719516,77.000253,PM10,67,170,105
India,Maharashtra,Mumbai,"Bandra Kurla Complex, Mumbai - MPCB",13-04-2026 09:00:00,19.065931,72.862131,NO2,14,41,21
India,Maharashtra,Mumbai,"Bandra Kurla Complex, Mumbai - MPCB",13-04-2026 09:00:00,19.065931,72.862131,CO,5,13,11
India,Maharashtra,Mumbai,"Borivali East, Mumbai - IITM",13-04-2026 09:00:00,19.23241,72.86895,PM2.5,55,172,99
India,Maharashtra,Mumbai,"Borivali East, Mumbai - IITM",13-04-2026 09:00:00,19.23241,72.86895,CO,8,56,43
India,Maharashtra,Mumbai,"Borivali East, Mumbai - MPCB",13-04-2026 09:00:00,19.2243333,72.8658113,SO2,11,19,15
India,Maharashtra,Mumbai,"Byculla, Mumbai - BMC",13-04-2026 09:00:00,18.9767,72.8380,PM2.5,34,88,49
India,Maharashtra,Mumbai,"Byculla, Mumbai - BMC",13-04-2026 09:00:00,18.9767,72.8380,NO2,11,43,21
India,Maharashtra,Mumbai,"Byculla, Mumbai - BMC",13-04-2026 09:00:00,18.9767,72.8380,CO,42,72,53
India,Maharashtra,Chandrapur,"MIDC Khutala, Chandrapur - MPCB",13-04-2026 09:00:00,19.9775302,79.2337086,OZONE,8,218,26
India,Maharashtra,Dhule,"Deopur, Dhule - MPCB",13-04-2026 09:00:00,20.918946,74.776388,NO2,8,55,24
India,Maharashtra,Dombivli,"Kalu Nagar, Dombivli - MPCB",13-04-2026 09:00:00,19.2268427 ,73.0788456 ,NO2,14,52,27
India,Maharashtra,Dombivli,"Kalu Nagar, Dombivli - MPCB",13-04-2026 09:00:00,19.2268427 ,73.0788456 ,NH3,1,3,2
India,Maharashtra,Hingoli,"Ashta Vinayak Nagar, Hingoli - MPCB",13-04-2026 09:00:00,19.710842,77.151824,PM2.5,25,87,57
India,Maharashtra,Kolhapur,"Sinchan Bhavan, Kolhapur - MPCB",13-04-2026 09:00:00,16.7143745,74.2426398,SO2,NA,NA,NA
India,Maharashtra,Latur,"Sawe Wadi, Latur - MPCB",13-04-2026 09:00:00,18.39963,76.57452,PM10,66,117,94
India,Maharashtra,Latur,"Sawe Wadi, Latur - MPCB",13-04-2026 09:00:00,18.39963,76.57452,SO2,3,20,9
India,Maharashtra,Mahad,"Kamble Tarf Birwadi, Mahad - MPCB",13-04-2026 09:00:00,18.1023399,73.4783687,PM2.5,NA,NA,NA
India,Maharashtra,Jalgaon,"Prabhat Colony, Jalgaon - MPCB",13-04-2026 09:00:00,21.001264,75.565602,SO2,4,22,8
India,Maharashtra,Jalna,"Old MIDC, Jalna - MPCB",13-04-2026 09:00:00,19.854616,75.905894,PM2.5,NA,NA,NA
India,Maharashtra,Jalna,"Old MIDC, Jalna - MPCB",13-04-2026 09:00:00,19.854616,75.905894,NO2,19,25,21
India,Maharashtra,Malegaon,"Mahesh Nagar, Malegaon - MPCB",13-04-2026 09:00:00,20.555712,74.529236,CO,2,84,25
India,Maharashtra,Mira-Bhayandar,"Bhayandar West, Mira-Bhayandar - MPCB",13-04-2026 09:00:00,19.296481,72.840923,PM2.5,44,84,61
India,Maharashtra,Kolhapur,"Shivaji University, Kolhapur - MPCB",13-04-2026 09:00:00,16.6870449,74.2505872,PM10,NA,NA,NA
India,Maharashtra,Kolhapur,"Shivaji University, Kolhapur - MPCB",13-04-2026 09:00:00,16.6870449,74.2505872,CO,NA,NA,NA
India,Maharashtra,Kolhapur,"Sinchan Bhavan, Kolhapur - MPCB",13-04-2026 09:00:00,16.7143745,74.2426398,PM2.5,NA,NA,NA
India,Maharashtra,Kolhapur,"Sinchan Bhavan, Kolhapur - MPCB",13-04-2026 09:00:00,16.7143745,74.2426398,PM10,NA,NA,NA
India,Maharashtra,Chandrapur,"Chauhan Colony, Chandrapur - MPCB",13-04-2026 09:00:00,19.962900,79.298714,PM2.5,78,313,148
India,Maharashtra,Mumbai,"Bandra Kurla Complex, Mumbai - IITM",13-04-2026 09:00:00,19.053536,72.84643,NO2,14,115,40
India,Maharashtra,Mumbai,"Mindspace-Malad West, Mumbai - MPCB",13-04-2026 09:00:00,19.1878657,72.8304069,PM2.5,20,61,34
India,Maharashtra,Mumbai,"Mindspace-Malad West, Mumbai - MPCB",13-04-2026 09:00:00,19.1878657,72.8304069,CO,7,24,12
India,Maharashtra,Mumbai,"Mindspace-Malad West, Mumbai - MPCB",13-04-2026 09:00:00,19.1878657,72.8304069,OZONE,34,51,35
India,Maharashtra,Mumbai,"Navy Nagar-Colaba, Mumbai - IITM",13-04-2026 09:00:00,18.897756,72.813320,PM10,82,143,108
India,Maharashtra,Mumbai,"Navy Nagar-Colaba, Mumbai - IITM",13-04-2026 09:00:00,18.897756,72.813320,SO2,3,21,10
India,Maharashtra,Mumbai,"Navy Nagar-Colaba, Mumbai - IITM",13-04-2026 09:00:00,18.897756,72.813320,OZONE,23,72,37
India,Maharashtra,Mumbai,"Powai, Mumbai - MPCB",13-04-2026 09:00:00,19.137500,72.915056,NO2,7,8,7
India,Maharashtra,Mumbai,"Powai, Mumbai - MPCB",13-04-2026 09:00:00,19.137500,72.915056,SO2,3,14,7
India,Maharashtra,Mumbai,"Khindipada-Bhandup West, Mumbai - IITM",13-04-2026 09:00:00,19.1653323,72.922099,NO2,NA,NA,NA
India,Maharashtra,Mumbai,"Khindipada-Bhandup West, Mumbai - IITM",13-04-2026 09:00:00,19.1653323,72.922099,NH3,NA,NA,NA
India,Maharashtra,Mumbai,"Malad West, Mumbai - IITM",13-04-2026 09:00:00,19.19709,72.82204,PM10,77,139,104
India,Maharashtra,Mumbai,"Malad West, Mumbai - IITM",13-04-2026 09:00:00,19.19709,72.82204,CO,28,54,37
India,Maharashtra,Mumbai,"Malad West, Mumbai - IITM",13-04-2026 09:00:00,19.19709,72.82204,OZONE,6,52,12
India,Maharashtra,Mumbai,"Chakala-Andheri East, Mumbai - IITM",13-04-2026 09:00:00,19.11074,72.86084,PM10,78,194,136
India,Maharashtra,Mumbai,"Chakala-Andheri East, Mumbai - IITM",13-04-2026 09:00:00,19.11074,72.86084,SO2,1,2,1
India,Maharashtra,Mumbai,"Colaba, Mumbai - MPCB",13-04-2026 09:00:00,18.910000,72.820000,PM10,27,76,38
India,Maharashtra,Mumbai,"Colaba, Mumbai - MPCB",13-04-2026 09:00:00,18.910000,72.820000,NH3,4,4,4
India,Maharashtra,Mumbai,"Colaba, Mumbai - MPCB",13-04-2026 09:00:00,18.910000,72.820000,CO,65,82,66
India,Maharashtra,Mumbai,"Ghatkopar, Mumbai - BMC",13-04-2026 09:00:00,19.083694,72.920967,PM2.5,67,162,97
India,Maharashtra,Mumbai,"Ghatkopar, Mumbai - BMC",13-04-2026 09:00:00,19.083694,72.920967,NH3,5,15,9
India,Maharashtra,Mumbai,"Ghatkopar, Mumbai - BMC",13-04-2026 09:00:00,19.083694,72.920967,CO,18,32,19
India,Maharashtra,Mumbai,"Kandivali East, Mumbai - MPCB",13-04-2026 09:00:00,19.205800,72.868200,PM2.5,6,28,15
India,Maharashtra,Mumbai,"Kandivali West, Mumbai - BMC",13-04-2026 09:00:00,19.215859,72.831718,CO,8,22,15
India,Maharashtra,Mumbai,"Kherwadi_Bandra East, Mumbai - MPCB",13-04-2026 09:00:00,19.0632143,72.8456324,PM2.5,41,136,66
India,Maharashtra,Mumbai,"Kherwadi_Bandra East, Mumbai - MPCB",13-04-2026 09:00:00,19.0632143,72.8456324,NH3,4,15,10
India,Maharashtra,Mumbai,"Siddharth Nagar-Worli, Mumbai - IITM",13-04-2026 09:00:00,19.000083,72.813993,PM10,78,126,94
India,Maharashtra,Mumbai,"Sion, Mumbai - MPCB",13-04-2026 09:00:00,19.047000,72.874600,PM2.5,NA,NA,NA
India,Maharashtra,Mumbai,"Shivaji Nagar, Mumbai - BMC",13-04-2026 09:00:00,19.060498,72.923356,NO2,11,28,20
India,Maharashtra,Mumbai,"Shivaji Nagar, Mumbai - BMC",13-04-2026 09:00:00,19.060498,72.923356,SO2,NA,NA,NA
India,Maharashtra,Mumbai,"Khindipada-Bhandup West, Mumbai - IITM",13-04-2026 09:00:00,19.1653323,72.922099,PM10,NA,NA,NA
India,Maharashtra,Mumbai,"Kherwadi_Bandra East, Mumbai - MPCB",13-04-2026 09:00:00,19.0632143,72.8456324,CO,NA,NA,NA
India,Maharashtra,Nashik,"Pandav Nagari, Nashik - MPCB",13-04-2026 09:00:00,19.9591346,73.7788008,PM2.5,55,116,74
India,Maharashtra,Nashik,"Pandav Nagari, Nashik - MPCB",13-04-2026 09:00:00,19.9591346,73.7788008,NO2,8,18,11
India,Maharashtra,Nashik,"Pandav Nagari, Nashik - MPCB",13-04-2026 09:00:00,19.9591346,73.7788008,NH3,2,3,2
India,Maharashtra,Navi Mumbai,"Kopripada-Vashi, Navi Mumbai - MPCB",13-04-2026 09:00:00,19.090337,73.014232,NO2,12,29,18
India,Maharashtra,Navi Mumbai,"Mahape, Navi Mumbai - MPCB",13-04-2026 09:00:00,19.1135051,73.008978,NO2,57,60,59
India,Maharashtra,Navi Mumbai,"Nerul, Navi Mumbai - MPCB",13-04-2026 09:00:00,19.008751,73.016620,PM2.5,43,207,89
India,Maharashtra,Nashik,"Gangapur Road, Nashik - MPCB",13-04-2026 09:00:00,20.0073285,73.7762427,PM2.5,35,186,68
India,Maharashtra,Nashik,"Gangapur Road, Nashik - MPCB",13-04-2026 09:00:00,20.0073285,73.7762427,PM10,58,121,91
India,Maharashtra,Nashik,"Gangapur Road, Nashik - MPCB",13-04-2026 09:00:00,20.0073285,73.7762427,NH3,3,3,3
India,Maharashtra,Nashik,"Hirawadi, Nashik - MPCB",13-04-2026 09:00:00,20.021503,73.813844,PM2.5,72,98,87
India,Maharashtra,Nashik,"Hirawadi, Nashik - MPCB",13-04-2026 09:00:00,20.021503,73.813844,PM10,64,92,80
India,Maharashtra,Mumbai,"Vile Parle West, Mumbai - MPCB",13-04-2026 09:00:00,19.10861,72.83622,CO,32,34,32
India,Maharashtra,Mumbai,"Worli, Mumbai -MPCB",13-04-2026 09:00:00,18.9942180,72.8158167,PM10,NA,NA,NA
India,Maharashtra,Mumbai,"Worli, Mumbai -MPCB",13-04-2026 09:00:00,18.9942180,72.8158167,NO2,NA,NA,NA
India,Maharashtra,Mumbai,"Worli, Mumbai -MPCB",13-04-2026 09:00:00,18.9942180,72.8158167,NH3,NA,NA,NA
India,Maharashtra,Nagpur,"Ambazari, Nagpur - MPCB",13-04-2026 09:00:00,21.121801,79.04952,PM10,90,143,119
India,Maharashtra,Nagpur,"Ambazari, Nagpur - MPCB",13-04-2026 09:00:00,21.121801,79.04952,SO2,18,54,29
India,Maharashtra,Nagpur,"Ambazari, Nagpur - MPCB",13-04-2026 09:00:00,21.121801,79.04952,CO,3,125,33
India,Maharashtra,Nagpur,"Ambazari, Nagpur - MPCB",13-04-2026 09:00:00,21.121801,79.04952,OZONE,3,148,31
India,Maharashtra,Nagpur,"Ram Nagar, Nagpur - MPCB",13-04-2026 09:00:00,21.143383,79.048912,PM2.5,71,166,118
India,Maharashtra,Nagpur,"Ram Nagar, Nagpur - MPCB",13-04-2026 09:00:00,21.143383,79.048912,PM10,87,149,123
India,Maharashtra,Nagpur,"Ram Nagar, Nagpur - MPCB",13-04-2026 09:00:00,21.143383,79.048912,NH3,4,4,4
India,Maharashtra,Nanded,"Sneh Nagar, Nanded - MPCB",13-04-2026 09:00:00,19.173852,77.296291,PM2.5,73,171,114
India,Maharashtra,Nanded,"Sneh Nagar, Nanded - MPCB",13-04-2026 09:00:00,19.173852,77.296291,PM10,77,274,126
India,Maharashtra,Nanded,"Sneh Nagar, Nanded - MPCB",13-04-2026 09:00:00,19.173852,77.296291,OZONE,3,238,73
India,Maharashtra,Nashik,"Hirawadi, Nashik - MPCB",13-04-2026 09:00:00,20.021503,73.813844,CO,15,34,24
India,Maharashtra,Nashik,"MIDC Ambad, Nashik - MPCB",13-04-2026 09:00:00,19.950220,73.731480,NO2,7,23,11
India,Maharashtra,Nagpur,"Opp GPO Civil Lines, Nagpur - MPCB",13-04-2026 09:00:00,21.152875,79.0517531,PM10,82,148,120
India,Maharashtra,Nagpur,"Mahal, Nagpur - MPCB",13-04-2026 09:00:00,21.14472,79.107595,PM10,107,166,125
India,Maharashtra,Ulhasnagar,"Vithalwadi, Ulhasnagar - MPCB",13-04-2026 09:00:00,19.2307571 ,73.1551920,PM10,53,131,86
India,Maharashtra,Ulhasnagar,"Vithalwadi, Ulhasnagar - MPCB",13-04-2026 09:00:00,19.2307571 ,73.1551920,NH3,3,5,4
India,Maharashtra,Ulhasnagar,"Vithalwadi, Ulhasnagar - MPCB",13-04-2026 09:00:00,19.2307571 ,73.1551920,SO2,NA,NA,NA
India,Maharashtra,Ulhasnagar,"Vithalwadi, Ulhasnagar - MPCB",13-04-2026 09:00:00,19.2307571 ,73.1551920,CO,8,40,15
India,Maharashtra,Virar,"Bolinj, Virar - MPCB",13-04-2026 09:00:00,19.4458210,72.7988231,PM10,48,115,68
India,Maharashtra,Virar,"Bolinj, Virar - MPCB",13-04-2026 09:00:00,19.4458210,72.7988231,NO2,11,84,31
India,Maharashtra,Virar,"Bolinj, Virar - MPCB",13-04-2026 09:00:00,19.4458210,72.7988231,CO,12,105,62
India,Maharashtra,Pimpri-Chinchwad,"Savta Mali Nagar, Pimpri-Chinchwad - IITM",13-04-2026 09:00:00,18.614767,73.799516,OZONE,7,36,12
India,Maharashtra,Pimpri-Chinchwad,"Thergaon, Pimpri Chinchwad - MPCB",13-04-2026 09:00:00,18.616318,73.765797,PM10,77,431,152
India,Maharashtra,Pune,"Katraj Dairy, Pune - MPCB",13-04-2026 09:00:00,18.454450,73.854155,PM2.5,41,87,65
India,Maharashtra,Pune,"Katraj Dairy, Pune - MPCB",13-04-2026 09:00:00,18.454450,73.854155,NO2,5,49,19
India,Maharashtra,Pune,"Panchawati_Pashan, Pune - IITM",13-04-2026 09:00:00,18.536457,73.805454,PM2.5,38,98,65
India,Maharashtra,Pune,"Panchawati_Pashan, Pune - IITM",13-04-2026 09:00:00,18.536457,73.805454,OZONE,16,64,19
India,Maharashtra,Pune,"Revenue Colony-Shivajinagar, Pune - IITM",13-04-2026 09:00:00,18.530085,73.849598,NO2,16,91,52
India,Maharashtra,Pune,"Revenue Colony-Shivajinagar, Pune - IITM",13-04-2026 09:00:00,18.530085,73.849598,CO,32,84,47
India,Maharashtra,Solapur,"Dnyaneshwar Nagar, Solapur - MPCB",13-04-2026 09:00:00,17.6336264,75.9132495,NH3,9,26,16
India,Maharashtra,Solapur,"Dnyaneshwar Nagar, Solapur - MPCB",13-04-2026 09:00:00,17.6336264,75.9132495,OZONE,24,82,53
India,Maharashtra,Solapur,"Ratandeep Housing Society, Solapur - MPCB",13-04-2026 09:00:00,17.65439,75.90649,NO2,28,129,64
India,Maharashtra,Pune,"Savitribai Phule Pune University, Pune - MPCB",13-04-2026 09:00:00,18.547056,73.826908,NH3,NA,NA,NA
India,Maharashtra,Sangli,"Vijay Nagar, Sangli - MPCB",13-04-2026 09:00:00, 16.5038,74.3623,NO2,2,31,13
India,Maharashtra,Thane,"Upvan Fort, Thane - MPCB",13-04-2026 09:00:00,19.222279,72.957979,NO2,3,14,7
India,Maharashtra,Thane,"Upvan Fort, Thane - MPCB",13-04-2026 09:00:00,19.222279,72.957979,OZONE,25,84,34
India,Maharashtra,Pimpri-Chinchwad,"Savta Mali Nagar, Pimpri-Chinchwad - IITM",13-04-2026 09:00:00,18.614767,73.799516,PM2.5,27,137,75
India,Maharashtra,Navi Mumbai,"Sector-2E Kalamboli, Navi Mumbai - MPCB",13-04-2026 09:00:00,19.02579,73.10297,CO,14,24,17
India,Maharashtra,Thane,"Kasarvadavali, Thane - MPCB",13-04-2026 09:00:00,19.26777,72.97182,OZONE,5,59,12
India,Odisha,Baripada,"Meher Colony, Baripada - OSPCB",13-04-2026 09:00:00,21.941841,86.728318,PM2.5,56,85,70
India,Odisha,Baripada,"Meher Colony, Baripada - OSPCB",13-04-2026 09:00:00,21.941841,86.728318,NH3,1,2,2
India,Odisha,Bhubaneswar,"Lingraj Mandir, Bhubaneswar - OSPCB",13-04-2026 09:00:00,20.240790,85.836784,PM2.5,15,87,45
India,Odisha,Bhubaneswar,"Lingraj Mandir, Bhubaneswar - OSPCB",13-04-2026 09:00:00,20.240790,85.836784,CO,28,68,34
India,Odisha,Bhubaneswar,"Patia, Bhubaneswar - OSPCB",13-04-2026 09:00:00,20.34652,85.81630,PM10,34,104,69
India,Odisha,Bhubaneswar,"Patia, Bhubaneswar - OSPCB",13-04-2026 09:00:00,20.34652,85.81630,SO2,4,19,8
India,Nagaland,Kohima,"PWD Junction, Kohima - NPCB",13-04-2026 09:00:00,25.6635413,94.0989878,NO2,3,4,4
India,Nagaland,Kohima,"PWD Junction, Kohima - NPCB",13-04-2026 09:00:00,25.6635413,94.0989878,NH3,1,1,1
India,Odisha,Angul,"Hakimapada, Angul - OSPCB",13-04-2026 09:00:00,20.832874,85.104082,PM10,NA,NA,NA
India,Odisha,Angul,"Hakimapada, Angul - OSPCB",13-04-2026 09:00:00,20.832874,85.104082,SO2,NA,NA,NA
India,Odisha,Balasore,"Kalidaspur, Balasore - OSPCB",13-04-2026 09:00:00,21.51161,86.89088,PM2.5,23,97,54
India,Odisha,Bhubaneswar,"Patia, Bhubaneswar - OSPCB",13-04-2026 09:00:00,20.34652,85.81630,OZONE,13,108,20
India,Odisha,Bileipada,"Tata Township, Bileipada - OSPCB",13-04-2026 09:00:00,22.06156703,85.47409613,PM2.5,72,261,165
India,Odisha,Bileipada,"Tata Township, Bileipada - OSPCB",13-04-2026 09:00:00,22.06156703,85.47409613,PM10,105,342,170
India,Odisha,Bileipada,"Tata Township, Bileipada - OSPCB",13-04-2026 09:00:00,22.06156703,85.47409613,NO2,15,16,15
India,Odisha,Brajrajnagar,"GM Office, Brajrajnagar - OSPCB",13-04-2026 09:00:00,21.8004996,83.8396977,CO,3,48,12
India,Odisha,Byasanagar,"Ferro Chrome Colony, Byasanagar - OSPCB",13-04-2026 09:00:00,20.94185,86.11510,OZONE,10,192,20
India,Odisha,Cuttack,"CDA Area, Cuttack - OSPCB",13-04-2026 09:00:00,20.48891     ,85.84768     ,PM2.5,18,500,60
India,Meghalaya,Shillong,"Lumpyngngad, Shillong - Meghalaya PCB",13-04-2026 09:00:00,25.5586,91.8985,NO2,NA,NA,NA
India,Mizoram,Aizawl,"Sikulpuikawn, Aizawl - Mizoram PCB",13-04-2026 09:00:00,23.7176342,92.7192841,SO2,15,16,15
India,Odisha,Balasore,"Kalidaspur, Balasore - OSPCB",13-04-2026 09:00:00,21.51161,86.89088,NH3,1,3,2
India,Odisha,Barbil,"Forest Office, Barbil - OSPCB",13-04-2026 09:00:00,22.1166054,85.3945546,NH3,NA,NA,NA
India,Meghalaya,Byrnihat,"15th Mile-Nongthymmai, Byrnihat - Meghalaya PCB",13-04-2026 09:00:00,26.05374,91.86796,PM10,61,226,104
India,Meghalaya,Byrnihat,"15th Mile-Nongthymmai, Byrnihat - Meghalaya PCB",13-04-2026 09:00:00,26.05374,91.86796,NO2,1,2,2
India,Odisha,Brajrajnagar,"GM Office, Brajrajnagar - OSPCB",13-04-2026 09:00:00,21.8004996,83.8396977,PM2.5,60,187,98
India,Odisha,Brajrajnagar,"GM Office, Brajrajnagar - OSPCB",13-04-2026 09:00:00,21.8004996,83.8396977,NH3,6,6,6
India,Odisha,Tensa,"Barsua Iron Ore Mines, Tensa - OSPCB",13-04-2026 09:00:00,21.869985,85.167016,OZONE,12,21,15
India,Punjab,Bathinda,"Hardev Nagar, Bathinda - PPCB",13-04-2026 09:00:00,30.233011,74.907758,PM10,31,202,77
India,Punjab,Bathinda,"Hardev Nagar, Bathinda - PPCB",13-04-2026 09:00:00,30.233011,74.907758,NO2,7,11,8
India,Punjab,Bathinda,"Hardev Nagar, Bathinda - PPCB",13-04-2026 09:00:00,30.233011,74.907758,CO,45,80,78
India,Punjab,Jalandhar,"Civil Line, Jalandhar - PPCB",13-04-2026 09:00:00,31.321907,75.578914,NO2,28,35,32
India,Odisha,Cuttack,"CDA Area, Cuttack - OSPCB",13-04-2026 09:00:00,20.48891     ,85.84768     ,SO2,5,12,8
India,Odisha,Keonjhar,"Jagamohanpur, Keonjhar - OSPCB",13-04-2026 09:00:00,21.643900,85.599355,NO2,13,19,15
India,Odisha,Nayagarh,"Dabuna, Nayagarh - OSPCB",13-04-2026 09:00:00,21.847279,85.416905,PM2.5,64,287,117
India,Odisha,Suakati,"OMC Colony, Suakati - OSPCB",13-04-2026 09:00:00,21.606865,85.510538,CO,8,24,15
India,Odisha,Talcher,"Talcher Coalfields,Talcher - OSPCB",13-04-2026 09:00:00,20.9360711,85.1707021,NO2,23,48,36
India,Odisha,Talcher,"Talcher Coalfields,Talcher - OSPCB",13-04-2026 09:00:00,20.9360711,85.1707021,SO2,12,51,28
India,Punjab,Mandi Gobindgarh,"RIMT University, Mandi Gobindgarh - PPCB",13-04-2026 09:00:00,30.649961,76.331442,SO2,NA,NA,NA
India,Punjab,Mandi Gobindgarh,"RIMT University, Mandi Gobindgarh - PPCB",13-04-2026 09:00:00,30.649961,76.331442,OZONE,NA,NA,NA
India,Odisha,Rairangpur,"Divisional Forest Office, Rairangpur - OSPCB",13-04-2026 09:00:00,22.265816,86.174829,NO2,NA,NA,NA
India,Odisha,Rourkela,"Raghunathpali, Rourkela - OSPCB",13-04-2026 09:00:00,22.220833,84.809444,OZONE,3,27,4
India,Odisha,Rourkela,"Raghunathpali, Rourkela - OSPCB",13-04-2026 09:00:00,22.220833,84.809444,NO2,15,15,15
India,Punjab,Patiala,"Model Town, Patiala - PPCB",13-04-2026 09:00:00,30.349388,76.366642,NO2,16,19,18
India,Punjab,Khanna,"Kalal Majra, Khanna - PPCB",13-04-2026 09:00:00,30.736056 ,76.209694,CO,NA,NA,NA
India,Rajasthan,Barmer,"Railway Colony, Barmer - RSPCB",13-04-2026 09:00:00,25.747299,71.393989,NH3,3,31,9
India,Rajasthan,Barmer,"Railway Colony, Barmer - RSPCB",13-04-2026 09:00:00,25.747299,71.393989,SO2,2,13,5
India,Rajasthan,Bharatpur,"Krishna Nagar, Bharatpur - RSPCB",13-04-2026 09:00:00,27.215415,77.50873,PM2.5,27,112,45
India,Rajasthan,Bhilwara,"Pratap Nagar, Bhilwara - RSPCB",13-04-2026 09:00:00,25.339605,74.618883,PM10,78,238,119
India,Rajasthan,Bhiwadi,"Vasundhara Nagar_UIT, Bhiwadi - RSPCB",13-04-2026 09:00:00,28.207266,76.829265,OZONE,2,134,14
India,Rajasthan,Bundi,"New Colony, Bundi - RSPCB",13-04-2026 09:00:00,25.435774,75.644272,PM10,45,142,87
India,Rajasthan,Bundi,"New Colony, Bundi - RSPCB",13-04-2026 09:00:00,25.435774,75.644272,NO2,9,116,30
India,Rajasthan,Bundi,"New Colony, Bundi - RSPCB",13-04-2026 09:00:00,25.435774,75.644272,NH3,2,22,6
India,Rajasthan,Bundi,"New Colony, Bundi - RSPCB",13-04-2026 09:00:00,25.435774,75.644272,CO,7,68,15
India,Rajasthan,Churu,"Subash Chowk, Churu - RSPCB",13-04-2026 09:00:00,28.296139,74.961696,NH3,5,9,6
India,Rajasthan,Churu,"Subash Chowk, Churu - RSPCB",13-04-2026 09:00:00,28.296139,74.961696,CO,9,32,12
India,Rajasthan,Churu,"Subash Chowk, Churu - RSPCB",13-04-2026 09:00:00,28.296139,74.961696,OZONE,2,123,55
India,Rajasthan,Dausa,"Khatikan Mohalla, Dausa - RSPCB",13-04-2026 09:00:00,26.895552,76.334753,PM2.5,10,150,54
India,Rajasthan,Ajmer,"Civil Lines,  Ajmer - RSPCB",13-04-2026 09:00:00,26.470859,74.646594,OZONE,6,49,12
India,Rajasthan,Alwar,"Moti Doongri, Alwar - RSPCB",13-04-2026 09:00:00,27.554793,76.611536,NH3,8,16,13
India,Rajasthan,Alwar,"Moti Doongri, Alwar - RSPCB",13-04-2026 09:00:00,27.554793,76.611536,SO2,13,39,20
India,Rajasthan,Alwar,"Moti Doongri, Alwar - RSPCB",13-04-2026 09:00:00,27.554793,76.611536,CO,26,52,32
India,Rajasthan,Banswara,"Rati Talai, Banswara - RSPCB",13-04-2026 09:00:00,23.555190,74.440010,PM2.5,10,98,57
India,Rajasthan,Banswara,"Rati Talai, Banswara - RSPCB",13-04-2026 09:00:00,23.555190,74.440010,NH3,2,5,4
India,Rajasthan,Baran,"Bamboliya, Baran - RSPCB",13-04-2026 09:00:00,25.106006,76.469948,NH3,2,5,3
India,Rajasthan,Jaipur,"Adarsh Nagar, Jaipur - RSPCB",13-04-2026 09:00:00,26.902909,75.836858,NO2,15,102,45
India,Rajasthan,Jaipur,"Adarsh Nagar, Jaipur - RSPCB",13-04-2026 09:00:00,26.902909,75.836858,SO2,12,30,22
India,Rajasthan,Bhiwadi,"Vasundhara Nagar_UIT, Bhiwadi - RSPCB",13-04-2026 09:00:00,28.207266,76.829265,PM10,104,416,192
India,Rajasthan,Dausa,"Khatikan Mohalla, Dausa - RSPCB",13-04-2026 09:00:00,26.895552,76.334753,PM10,37,143,85
India,Rajasthan,Dholpur,"Raja Ganj, Dholpur - RSPCB",13-04-2026 09:00:00,26.699557,77.898881,PM10,65,169,110
India,Rajasthan,Jhunjhunu,"Indra Nagar, Jhunjhunu - RSPCB",13-04-2026 09:00:00,28.108988,75.386577,NO2,10,94,34
India,Rajasthan,Jhunjhunu,"Indra Nagar, Jhunjhunu - RSPCB",13-04-2026 09:00:00,28.108988,75.386577,NH3,4,10,7
India,Rajasthan,Jodhpur,"Collectorate, Jodhpur - RSPCB",13-04-2026 09:00:00,26.268249,73.0193853,PM2.5,20,451,155
India,Rajasthan,Jodhpur,"Collectorate, Jodhpur - RSPCB",13-04-2026 09:00:00,26.268249,73.0193853,NH3,5,54,20
India,Rajasthan,Jodhpur,"Digari Kalan, Jodhpur - RSPCB",13-04-2026 09:00:00,26.295810,73.082283,NO2,9,76,39
India,Rajasthan,Jodhpur,"Digari Kalan, Jodhpur - RSPCB",13-04-2026 09:00:00,26.295810,73.082283,NH3,1,3,1
India,Rajasthan,Jodhpur,"Digari Kalan, Jodhpur - RSPCB",13-04-2026 09:00:00,26.295810,73.082283,CO,4,74,52
India,Rajasthan,Jodhpur,"Digari Kalan, Jodhpur - RSPCB",13-04-2026 09:00:00,26.295810,73.082283,OZONE,1,118,11
India,Rajasthan,Jodhpur,"Jhalamand, Jodhpur - RSPCB",13-04-2026 09:00:00,26.215415,73.070156,PM2.5,8,273,94
India,Rajasthan,Jodhpur,"Jhalamand, Jodhpur - RSPCB",13-04-2026 09:00:00,26.215415,73.070156,CO,7,88,52
India,Rajasthan,Jodhpur,"Jhalamand, Jodhpur - RSPCB",13-04-2026 09:00:00,26.215415,73.070156,OZONE,2,85,9
India,Rajasthan,Jodhpur,"Mandor, Jodhpur - RSPCB",13-04-2026 09:00:00,26.358805,73.047444,OZONE,9,110,26
India,Rajasthan,Jodhpur,"Samrat Ashok Udhyan, Jodhpur - RSPCB",13-04-2026 09:00:00,26.253384,72.976571,OZONE,25,75,49
India,Rajasthan,Karauli,"Satyawati Vihar, Karauli - RSPCB",13-04-2026 09:00:00,26.506177,77.025989,PM2.5,17,211,71
India,Rajasthan,Karauli,"Satyawati Vihar, Karauli - RSPCB",13-04-2026 09:00:00,26.506177,77.025989,PM10,60,247,126
India,Rajasthan,Kota,"Dhanmandi, Kota - RSPCB",13-04-2026 09:00:00,25.164090,75.858137,PM2.5,17,65,45
India,Rajasthan,Kota,"Dhanmandi, Kota - RSPCB",13-04-2026 09:00:00,25.164090,75.858137,PM10,78,143,113
India,Rajasthan,Jaisalmer,"Sadar Bazar, Jaisalmer - RSPCB",13-04-2026 09:00:00,26.912329,70.909168,PM10,50,342,134
India,Rajasthan,Jalore,"Mudtra Sili, Jalore - RSPCB",13-04-2026 09:00:00,25.344694,72.626208,PM10,52,195,96
India,Rajasthan,Jalore,"Mudtra Sili, Jalore - RSPCB",13-04-2026 09:00:00,25.344694,72.626208,SO2,3,7,4
India,Rajasthan,Jhalawar,"Rajlaxmi Nagar, Jhalawar - RSPCB",13-04-2026 09:00:00,24.588397,76.172782,PM2.5,18,75,43
India,Rajasthan,Jhunjhunu,"Indra Nagar, Jhunjhunu - RSPCB",13-04-2026 09:00:00,28.108988,75.386577,PM2.5,12,173,66
India,Rajasthan,Kota,"Dhanmandi, Kota - RSPCB",13-04-2026 09:00:00,25.164090,75.858137,SO2,5,17,8
India,Rajasthan,Kota,"Nayapura, Kota - RSPCB",13-04-2026 09:00:00,25.196024,75.855668,PM2.5,18,117,53
India,Rajasthan,Kota,"Shrinath Puram, Kota - RSPCB",13-04-2026 09:00:00,25.14389,75.821256,NH3,3,11,8
India,Rajasthan,Kota,"Shrinath Puram, Kota - RSPCB",13-04-2026 09:00:00,25.14389,75.821256,SO2,4,47,13
India,Rajasthan,Pali,"Indira Colony Vistar, Pali - RSPCB",13-04-2026 09:00:00,25.771061, 73.340227,PM10,44,187,122
India,Rajasthan,Pratapgarh,"Pragati Nagar, Pratapgarh - RSPCB",13-04-2026 09:00:00,24.041198,74.780702,PM2.5,30,157,63
India,Rajasthan,Pratapgarh,"Pragati Nagar, Pratapgarh - RSPCB",13-04-2026 09:00:00,24.041198,74.780702,NO2,9,43,22
India,Rajasthan,Jaipur,"RIICO Sitapura, Jaipur - RSPCB",13-04-2026 09:00:00,26.786682,75.827928,NH3,2,4,2
India,Rajasthan,Jaipur,"RIICO Sitapura, Jaipur - RSPCB",13-04-2026 09:00:00,26.786682,75.827928,SO2,10,18,13
India,Rajasthan,Jaipur,"RIICO Sitapura, Jaipur - RSPCB",13-04-2026 09:00:00,26.786682,75.827928,CO,69,103,97
India,Rajasthan,Jaipur,"Police Commissionerate, Jaipur - RSPCB",13-04-2026 09:00:00,26.9164092,75.7994901,NO2,19,98,52
India,Rajasthan,Jaipur,"Police Commissionerate, Jaipur - RSPCB",13-04-2026 09:00:00,26.9164092,75.7994901,SO2,34,46,39
India,Rajasthan,Nagaur,"Karni Colony, Nagaur - RSPCB",13-04-2026 09:00:00,27.213494,73.734444,CO,6,86,24
India,Rajasthan,Jodhpur,"Jhalamand, Jodhpur - RSPCB",13-04-2026 09:00:00,26.215415,73.070156,SO2,4,9,6
India,Sikkim,Gangtok,"Zero Point GICI, Gangtok - SSPCB",13-04-2026 09:00:00,27.338530,88.614099,CO,5,13,7
India,TamilNadu,Chennai,"Kodungaiyur, Chennai - TNPCB",13-04-2026 09:00:00,13.1278,80.2642,PM10,7,53,26
India,TamilNadu,Chennai,"Kodungaiyur, Chennai - TNPCB",13-04-2026 09:00:00,13.1278,80.2642,CO,24,34,30
India,TamilNadu,Chennai,"Manali Village, Chennai - TNPCB",13-04-2026 09:00:00,13.1662,80.2584,PM2.5,7,31,19
India,TamilNadu,Chennai,"Manali, Chennai - CPCB",13-04-2026 09:00:00,13.164544,80.26285,SO2,15,24,19
India,TamilNadu,Coimbatore,"PSG College of Arts and Science, Coimbatore - TNPCB",13-04-2026 09:00:00,11.0328,77.0349,PM10,40,100,65
India,TamilNadu,Coimbatore,"SIDCO Kurichi, Coimbatore - TNPCB",13-04-2026 09:00:00,10.942451,76.978996,PM10,44,70,58
India,TamilNadu,Ooty,"Bombay Castel, Ooty - TNPCB",13-04-2026 09:00:00,11.4068288,76.7138973,PM2.5,45,74,62
India,Rajasthan,Sikar,"Radhakishan Pura, Sikar - RSPCB",13-04-2026 09:00:00,27.608912,75.153302,OZONE,9,120,40
India,Rajasthan,Sirohi,"Vedhaynath Colony, Sirohi - RSPCB",13-04-2026 09:00:00,24.885261,72.857549,PM2.5,17,68,31
India,Rajasthan,Sirohi,"Vedhaynath Colony, Sirohi - RSPCB",13-04-2026 09:00:00,24.885261,72.857549,SO2,3,13,6
India,Rajasthan,Sirohi,"Vedhaynath Colony, Sirohi - RSPCB",13-04-2026 09:00:00,24.885261,72.857549,OZONE,55,97,70
India,Rajasthan,Sawai Madhopur,"Sahu Nagar, Sawai Madhopur - RSPCB",13-04-2026 09:00:00,26.031443,76.359327,PM2.5,12,136,38
India,Rajasthan,Sawai Madhopur,"Sahu Nagar, Sawai Madhopur - RSPCB",13-04-2026 09:00:00,26.031443,76.359327,NO2,7,107,29
India,Rajasthan,Sikar,"Radhakishan Pura, Sikar - RSPCB",13-04-2026 09:00:00,27.608912,75.153302,NO2,11,100,38
India,Rajasthan,Tonk,"Shastri Nagar, Tonk - RSPCB",13-04-2026 09:00:00,26.159933,75.780517,NO2,4,47,15
India,Rajasthan,Tonk,"Shastri Nagar, Tonk - RSPCB",13-04-2026 09:00:00,26.159933,75.780517,NH3,3,14,6
India,Rajasthan,Tonk,"Shastri Nagar, Tonk - RSPCB",13-04-2026 09:00:00,26.159933,75.780517,CO,16,75,21
India,Rajasthan,Sri Ganganagar,"Old City, Sri Ganganagar - RSPCB",13-04-2026 09:00:00,29.931624,73.864511,NH3,6,7,6
India,Rajasthan,Sri Ganganagar,"Old City, Sri Ganganagar - RSPCB",13-04-2026 09:00:00,29.931624,73.864511,SO2,2,13,4
India,Rajasthan,Rajsamand,"Dhoinda, Rajsamand - RSPCB",13-04-2026 09:00:00,25.036360,73.883502,NH3,9,16,12
India,Rajasthan,Rajsamand,"Dhoinda, Rajsamand - RSPCB",13-04-2026 09:00:00,25.036360,73.883502,CO,28,44,36
India,Rajasthan,Udaipur,"Ashok Nagar, Udaipur - RSPCB",13-04-2026 09:00:00,24.5886166,73.6321397,CO,6,42,12
India,Sikkim,Gangtok,"Zero Point GICI, Gangtok - SSPCB",13-04-2026 09:00:00,27.338530,88.614099,NH3,1,1,1
India,Uttar_Pradesh,Agra,"Shastripuram, Agra - UPPCB",13-04-2026 09:00:00,27.19862,77.92066,SO2,4,7,6
India,Uttar_Pradesh,Baghpat,"Sardar Patel Inter College, Baghpat - UPPCB",13-04-2026 09:00:00,28.964949,77.278761,CO,29,106,79
India,Uttar_Pradesh,Bareilly,"Civil Lines, Bareilly - UPPCB",13-04-2026 09:00:00,28.359581,79.414455,NO2,2,3,2
India,Uttar_Pradesh,Bareilly,"Rajendra Nagar, Bareilly - UPPCB",13-04-2026 09:00:00,28.38910936,79.42963708,PM10,NA,NA,NA
India,Tripura,Agartala,"Bardowali, Agartala - Tripura SPCB",13-04-2026 09:00:00,23.8175497,91.2726974,SO2,3,4,3
India,Uttar_Pradesh,Agra,"Manoharpur, Agra - UPPCB",13-04-2026 09:00:00,27.23711,78.01936,NO2,20,20,20
India,Uttar_Pradesh,Agra,"Manoharpur, Agra - UPPCB",13-04-2026 09:00:00,27.23711,78.01936,CO,18,20,20
India,Uttar_Pradesh,Agra,"Rohta, Agra - UPPCB",13-04-2026 09:00:00,27.106972,78.000111,NH3,5,5,5
India,Uttar_Pradesh,Agra,"Rohta, Agra - UPPCB",13-04-2026 09:00:00,27.106972,78.000111,OZONE,14,15,15
India,TamilNadu,Ooty,"Bombay Castel, Ooty - TNPCB",13-04-2026 09:00:00,11.4068288,76.7138973,SO2,2,4,3
India,TamilNadu,Thoothukudi,"Meelavittan, Thoothukudi - TNPCB",13-04-2026 09:00:00,8.816428 ,78.099039,CO,NA,NA,NA
India,TamilNadu,Thoothukudi,"Meelavittan, Thoothukudi - TNPCB",13-04-2026 09:00:00,8.816428 ,78.099039,OZONE,NA,NA,NA
India,TamilNadu,Tirupur,"Kumaran College, Tirupur - TNPCB",13-04-2026 09:00:00,11.0973603,77.3228673,PM2.5,45,80,57
India,Telangana,Hyderabad,"New Malakpet, Hyderabad - TSPCB",13-04-2026 09:00:00,17.37206,78.50864,OZONE,16,51,21
India,Telangana,Hyderabad,"Ramachandrapuram, Hyderabad - TSPCB",13-04-2026 09:00:00,17.528544,78.286195,NH3,3,3,3
India,Telangana,Hyderabad,"Sanathnagar, Hyderabad - TSPCB",13-04-2026 09:00:00,17.4559458,78.4332152,CO,39,57,48
India,Telangana,Hyderabad,"Sanathnagar, Hyderabad - TSPCB",13-04-2026 09:00:00,17.4559458,78.4332152,OZONE,14,18,16
India,Telangana,Hyderabad,"IITH Kandi, Hyderabad - TSPCB",13-04-2026 09:00:00,17.585705,78.126199,OZONE,30,36,35
India,Telangana,Hyderabad,"Kokapet, Hyderabad - TSPCB",13-04-2026 09:00:00,17.393559,78.339194,PM2.5,52,74,62
India,Telangana,Hyderabad,"Kompally Municipal Office, Hyderabad - TSPCB",13-04-2026 09:00:00,17.544899,78.486949,NO2,10,12,10
India,Telangana,Hyderabad,"Kompally Municipal Office, Hyderabad - TSPCB",13-04-2026 09:00:00,17.544899,78.486949,OZONE,14,40,14
India,Telangana,Hyderabad,"Nacharam_TSIIC IALA, Hyderabad - TSPCB",13-04-2026 09:00:00,17.429398,78.569354,PM2.5,48,56,53
India,Telangana,Hyderabad,"Nacharam_TSIIC IALA, Hyderabad - TSPCB",13-04-2026 09:00:00,17.429398,78.569354,SO2,11,16,14
India,Uttar_Pradesh,Agra,"Shahjahan Garden, Agra - UPPCB",13-04-2026 09:00:00,27.169338,78.03582,PM2.5,5,136,43
India,Uttar_Pradesh,Agra,"Shahjahan Garden, Agra - UPPCB",13-04-2026 09:00:00,27.169338,78.03582,NO2,24,34,29
India,Uttar_Pradesh,Agra,"Shahjahan Garden, Agra - UPPCB",13-04-2026 09:00:00,27.169338,78.03582,CO,4,12,9
India,Telangana,Hyderabad,"Central University, Hyderabad - TSPCB",13-04-2026 09:00:00,17.460103,78.334361,OZONE,14,15,15
India,Telangana,Hyderabad,"Somajiguda, Hyderabad - TSPCB",13-04-2026 09:00:00,17.417094,78.457437,NH3,4,4,4
India,Uttar_Pradesh,Hapur,"Anand Vihar, Hapur - UPPCB",13-04-2026 09:00:00,28.725645,77.749675,SO2,26,67,44
India,Uttar_Pradesh,Jhansi,"Shivaji Nagar, Jhansi - UPPCB",13-04-2026 09:00:00,25.4547,78.6039,PM10,52,102,76
India,Uttar_Pradesh,Jhansi,"Shivaji Nagar, Jhansi - UPPCB",13-04-2026 09:00:00,25.4547,78.6039,NO2,6,8,6
India,Uttar_Pradesh,Kanpur,"FTI Kidwai Nagar, Kanpur - UPPCB",13-04-2026 09:00:00,26.428282,80.327067,NO2,27,27,27
India,Uttar_Pradesh,Kanpur,"FTI Kidwai Nagar, Kanpur - UPPCB",13-04-2026 09:00:00,26.428282,80.327067,SO2,16,20,17
India,Uttar_Pradesh,Kanpur,"FTI Kidwai Nagar, Kanpur - UPPCB",13-04-2026 09:00:00,26.428282,80.327067,CO,32,38,34
India,Uttar_Pradesh,Kanpur,"FTI Kidwai Nagar, Kanpur - UPPCB",13-04-2026 09:00:00,26.428282,80.327067,OZONE,12,14,13
India,Uttar_Pradesh,Kanpur,"NSI Kalyanpur, Kanpur - UPPCB",13-04-2026 09:00:00,26.509954,80.249612,PM10,88,159,118
India,Uttar_Pradesh,Kanpur,"NSI Kalyanpur, Kanpur - UPPCB",13-04-2026 09:00:00,26.509954,80.249612,NO2,28,29,28
India,Uttar_Pradesh,Kanpur,"NSI Kalyanpur, Kanpur - UPPCB",13-04-2026 09:00:00,26.509954,80.249612,SO2,10,12,11
India,Uttar_Pradesh,Ghaziabad,"Vasundhara, Ghaziabad - UPPCB",13-04-2026 09:00:00,28.6603346,77.3572563,SO2,4,61,24
India,Uttar_Pradesh,Ghaziabad,"Ved Vihar-Loni, Ghaziabad - UPPCB",13-04-2026 09:00:00,28.739153 ,77.273668 ,NH3,18,26,22
India,Uttar_Pradesh,Ghaziabad,"Ved Vihar-Loni, Ghaziabad - UPPCB",13-04-2026 09:00:00,28.739153 ,77.273668 ,SO2,4,6,4
India,Uttar_Pradesh,Ghaziabad,"Ved Vihar-Loni, Ghaziabad - UPPCB",13-04-2026 09:00:00,28.739153 ,77.273668 ,OZONE,5,52,8
India,Uttar_Pradesh,Gorakhpur,"Madan Mohan Malaviya University of Technology, Gorakhpur - UPPCB",13-04-2026 09:00:00,26.730136,83.433859,PM10,54,150,114
India,Uttar_Pradesh,Gorakhpur,"Madan Mohan Malaviya University of Technology, Gorakhpur - UPPCB",13-04-2026 09:00:00,26.730136,83.433859,NO2,11,12,11
India,Uttar_Pradesh,Bulandshahr,"Yamunapuram, Bulandshahr - UPPCB",13-04-2026 09:00:00,28.406963,77.849831,NO2,13,76,39
India,Uttar_Pradesh,Bulandshahr,"Yamunapuram, Bulandshahr - UPPCB",13-04-2026 09:00:00,28.406963,77.849831,NH3,5,9,7
India,Uttar_Pradesh,Bulandshahr,"Yamunapuram, Bulandshahr - UPPCB",13-04-2026 09:00:00,28.406963,77.849831,OZONE,8,67,15
India,Uttar_Pradesh,Firozabad,"Nagla Bhau, Firozabad - UPPCB",13-04-2026 09:00:00,27.168897,78.376960,PM10,53,162,86
India,Uttar_Pradesh,Firozabad,"Nagla Bhau, Firozabad - UPPCB",13-04-2026 09:00:00,27.168897,78.376960,CO,22,52,30
India,Uttar_Pradesh,Greater Noida,"Knowledge Park - V, Greater Noida - UPPCB",13-04-2026 09:00:00,28.557054,77.453663,PM2.5,34,329,91
India,Uttar_Pradesh,Greater Noida,"Knowledge Park - V, Greater Noida - UPPCB",13-04-2026 09:00:00,28.557054,77.453663,NH3,6,10,8
India,Uttar_Pradesh,Greater Noida,"Knowledge Park - V, Greater Noida - UPPCB",13-04-2026 09:00:00,28.557054,77.453663,CO,12,46,34
India,Uttar_Pradesh,Hapur,"Anand Vihar, Hapur - UPPCB",13-04-2026 09:00:00,28.725645,77.749675,PM10,99,263,136
India,Uttar_Pradesh,Ghaziabad,"Indirapuram, Ghaziabad - UPPCB",13-04-2026 09:00:00,28.646233,77.358075,NO2,16,83,45
India,Uttar_Pradesh,Ghaziabad,"Sanjay Nagar, Ghaziabad - UPPCB",13-04-2026 09:00:00,28.685382,77.453839,NH3,7,10,8
India,Uttar_Pradesh,Greater Noida,"Knowledge Park - III, Greater Noida - UPPCB",13-04-2026 09:00:00,28.47272,77.482000,PM10,90,228,143
India,Uttar_Pradesh,Ghaziabad,"Vasundhara, Ghaziabad - UPPCB",13-04-2026 09:00:00,28.6603346,77.3572563,PM10,115,270,172
India,Uttar_Pradesh,Ghaziabad,"Vasundhara, Ghaziabad - UPPCB",13-04-2026 09:00:00,28.6603346,77.3572563,NO2,42,124,76
India,Uttar_Pradesh,Kanpur,"Nehru Nagar, Kanpur - UPPCB",13-04-2026 09:00:00,26.4703136,80.3229863,SO2,10,18,14
India,Uttar_Pradesh,Meerut,"Pallavpuram Phase 2, Meerut - UPPCB",13-04-2026 09:00:00,29.063510,77.709723,NO2,13,92,35
India,Uttar_Pradesh,Moradabad,"Buddhi Vihar, Moradabad - UPPCB",13-04-2026 09:00:00,28.83526,78.74460,NO2,28,29,29
India,Uttar_Pradesh,Moradabad,"Buddhi Vihar, Moradabad - UPPCB",13-04-2026 09:00:00,28.83526,78.74460,NH3,5,5,5
India,Uttar_Pradesh,Moradabad,"Eco Herbal Park, Moradabad - UPPCB",13-04-2026 09:00:00,28.840739,78.697531,PM10,60,136,88
India,Uttar_Pradesh,Moradabad,"Eco Herbal Park, Moradabad - UPPCB",13-04-2026 09:00:00,28.840739,78.697531,NO2,14,45,25
India,Uttar_Pradesh,Moradabad,"Eco Herbal Park, Moradabad - UPPCB",13-04-2026 09:00:00,28.840739,78.697531,SO2,7,27,15
India,Uttar_Pradesh,Lucknow,"Gomti Nagar, Lucknow - UPPCB",13-04-2026 09:00:00,26.868120,81.005119,PM10,114,171,137
India,Uttar_Pradesh,Lucknow,"Gomti Nagar, Lucknow - UPPCB",13-04-2026 09:00:00,26.868120,81.005119,OZONE,36,49,38
India,Uttar_Pradesh,Lucknow,"Kendriya Vidyalaya, Lucknow - CPCB",13-04-2026 09:00:00,26.906111,80.948222,NO2,26,30,28
India,Uttar_Pradesh,Lucknow,"Kendriya Vidyalaya, Lucknow - CPCB",13-04-2026 09:00:00,26.906111,80.948222,NH3,8,18,13
India,Uttar_Pradesh,Lucknow,"Kendriya Vidyalaya, Lucknow - CPCB",13-04-2026 09:00:00,26.906111,80.948222,OZONE,16,31,28
India,Uttar_Pradesh,Lucknow,"Kukrail Picnic Spot-1, Lucknow - UPPCB",13-04-2026 09:00:00,26.90723,80.98579,NH3,NA,NA,NA
India,Uttar_Pradesh,Lucknow,"Kukrail Picnic Spot-1, Lucknow - UPPCB",13-04-2026 09:00:00,26.90723,80.98579,CO,NA,NA,NA
India,Uttar_Pradesh,Khora,"Prashant Garden, Khora - UPPCB",13-04-2026 09:00:00,28.61119,77.34206,OZONE,24,132,36
India,Uttar_Pradesh,Khurja,"Kalindi Kunj, Khurja - UPPCB",13-04-2026 09:00:00,28.2348927,77.8683002,SO2,10,10,10
India,Uttar_Pradesh,Meerut,"Ganga Nagar, Meerut - UPPCB",13-04-2026 09:00:00,28.999264,77.7590354,PM10,67,180,114
India,Uttar_Pradesh,Meerut,"Jai Bhim Nagar, Meerut - UPPCB",13-04-2026 09:00:00,28.9535882,77.7622941,NH3,5,7,6
India,Uttar_Pradesh,Lucknow,"Lalbagh, Lucknow - CPCB",13-04-2026 09:00:00,26.8458805,80.9365541,PM2.5,39,176,94
India,Uttar_Pradesh,Lucknow,"Lalbagh, Lucknow - CPCB",13-04-2026 09:00:00,26.8458805,80.9365541,NH3,12,19,15
India,Uttar_Pradesh,Lucknow,"Lalbagh, Lucknow - CPCB",13-04-2026 09:00:00,26.8458805,80.9365541,OZONE,5,51,22
India,Uttar_Pradesh,Lucknow,"B R Ambedkar University, Lucknow - UPPCB",13-04-2026 09:00:00,26.766433,80.927299,NO2,12,12,12
India,Uttar_Pradesh,Lucknow,"B R Ambedkar University, Lucknow - UPPCB",13-04-2026 09:00:00,26.766433,80.927299,SO2,19,20,19
India,Uttar_Pradesh,Moradabad,"Employment Office, Moradabad - UPPCB",13-04-2026 09:00:00,28.88528,78.73880,SO2,26,29,27
India,Uttar_Pradesh,Moradabad,"Jigar Colony, Moradabad - UPPCB",13-04-2026 09:00:00,28.856664,78.772638,PM2.5,40,95,60
India,Uttar_Pradesh,Muzaffarnagar,"New Mandi, Muzaffarnagar - UPPCB",13-04-2026 09:00:00,29.4723508,77.7194031,NO2,14,54,30
India,Uttar_Pradesh,Noida,"Sector - 125, Noida - UPPCB",13-04-2026 09:00:00,28.5447608,77.3231257,OZONE,9,143,25
India,Uttar_Pradesh,Noida,"Sector-1, Noida - UPPCB",13-04-2026 09:00:00,28.5898,77.3101,PM10,122,252,163
India,Uttar_Pradesh,Noida,"Sector-116, Noida - UPPCB",13-04-2026 09:00:00,28.569230,77.393848,PM2.5,32,336,86
India,Uttar_Pradesh,Noida,"Sector-116, Noida - UPPCB",13-04-2026 09:00:00,28.569230,77.393848,SO2,10,71,21
India,Uttar_Pradesh,Noida,"Sector-116, Noida - UPPCB",13-04-2026 09:00:00,28.569230,77.393848,OZONE,14,67,22
India,Uttar_Pradesh,Prayagraj,"Jhunsi, Prayagraj - UPPCB",13-04-2026 09:00:00,25.425602,81.917152,NO2,6,6,6
India,Uttar_Pradesh,Prayagraj,"Jhunsi, Prayagraj - UPPCB",13-04-2026 09:00:00,25.425602,81.917152,SO2,21,96,57
India,Uttar_Pradesh,Prayagraj,"Motilal Nehru NIT, Prayagraj - UPPCB",13-04-2026 09:00:00,25.494,81.863,NH3,8,8,8
India,Uttar_Pradesh,Moradabad,"Kashiram Nagar, Moradabad - UPPCB",13-04-2026 09:00:00,28.849399,78.742362,NO2,24,25,25
India,Uttar_Pradesh,Moradabad,"Kashiram Nagar, Moradabad - UPPCB",13-04-2026 09:00:00,28.849399,78.742362,NH3,4,4,4
India,Uttar_Pradesh,Moradabad,"Transport Nagar, Moradabad - UPPCB",13-04-2026 09:00:00,28.802625,78.753728,PM10,37,108,60
India,Uttar_Pradesh,Moradabad,"Transport Nagar, Moradabad - UPPCB",13-04-2026 09:00:00,28.802625,78.753728,NO2,29,30,29
India,Uttar_Pradesh,Prayagraj,"Motilal Nehru NIT, Prayagraj - UPPCB",13-04-2026 09:00:00,25.494,81.863,OZONE,10,59,14
India,Uttar_Pradesh,Prayagraj,"Nagar Nigam, Prayagraj - UPPCB",13-04-2026 09:00:00,25.44919916 ,81.82735986 ,PM2.5,22,52,33
India,Uttar_Pradesh,Prayagraj,"Nagar Nigam, Prayagraj - UPPCB",13-04-2026 09:00:00,25.44919916 ,81.82735986 ,NH3,5,7,6
India,Uttar_Pradesh,Varanasi,"IESD Banaras Hindu University, Varanasi - UPPCB",13-04-2026 09:00:00,25.262326,82.995408,PM10,63,139,98
India,Uttar_Pradesh,Varanasi,"IESD Banaras Hindu University, Varanasi - UPPCB",13-04-2026 09:00:00,25.262326,82.995408,NO2,2,2,2
India,Uttar_Pradesh,Varanasi,"IESD Banaras Hindu University, Varanasi - UPPCB",13-04-2026 09:00:00,25.262326,82.995408,NH3,1,5,2
India,Uttar_Pradesh,Raebareli," Indira Nagar, Raebareli - NTPC Unchahar",13-04-2026 09:00:00,26.207781,81.245571,NO2,15,23,18
India,Uttar_Pradesh,Raebareli," Indira Nagar, Raebareli - NTPC Unchahar",13-04-2026 09:00:00,26.207781,81.245571,CO,2,21,14
India,Uttar_Pradesh,Varanasi,"Bhelupur, Varanasi - UPPCB",13-04-2026 09:00:00,25.301778,82.996789,PM2.5,28,202,70
India,Uttar_Pradesh,Moradabad,"Jigar Colony, Moradabad - UPPCB",13-04-2026 09:00:00,28.856664,78.772638,NH3,6,6,6
India,West_Bengal,Asansol,"Mahabir Colliery, Asansol - WBPCB",13-04-2026 09:00:00,23.6181830,87.1057180,NH3,1,2,1
India,West_Bengal,Asansol,"Mahabir Colliery, Asansol - WBPCB",13-04-2026 09:00:00,23.6181830,87.1057180,CO,36,108,46
India,West_Bengal,Asansol,"Trivenidevi Bhalotia College, Asansol - WBPCB",13-04-2026 09:00:00,23.616515,87.119133,PM10,53,107,72
India,West_Bengal,Barrackpore,"SVSPA Campus, Barrackpore - WBPCB",13-04-2026 09:00:00,22.7605581,88.3617589,NH3,3,4,4
India,West_Bengal,Barrackpore,"SVSPA Campus, Barrackpore - WBPCB",13-04-2026 09:00:00,22.7605581,88.3617589,OZONE,12,57,15
India,Uttar_Pradesh,Varanasi,"IESD Banaras Hindu University, Varanasi - UPPCB",13-04-2026 09:00:00,25.262326,82.995408,CO,3,17,12
India,Uttar_Pradesh,Varanasi,"Maldahiya, Varanasi - UPPCB",13-04-2026 09:00:00,25.32393,82.99687,PM10,69,154,112
India,West_Bengal,Asansol,"Asansol Court Area, Asansol - WBPCB",13-04-2026 09:00:00,23.685297,86.945968,PM2.5,36,215,92
India,West_Bengal,Asansol,"Asansol Court Area, Asansol - WBPCB",13-04-2026 09:00:00,23.685297,86.945968,PM10,37,120,75
India,West_Bengal,Asansol,"Asansol Court Area, Asansol - WBPCB",13-04-2026 09:00:00,23.685297,86.945968,SO2,13,44,23
India,West_Bengal,Asansol,"Asansol Court Area, Asansol - WBPCB",13-04-2026 09:00:00,23.685297,86.945968,OZONE,16,44,21
India,West_Bengal,Durgapur,"Womens College_City Center, Durgapur - WBPCB",13-04-2026 09:00:00,23.549395,87.300496,PM2.5,45,94,66
India,Uttarakhand,Kashipur,"Govt. Girls Inter College, Kashipur - UKPCB",13-04-2026 09:00:00,29.2124114,78.9611753,NO2,NA,NA,NA
India,West_Bengal,Durgapur,"PCBL Residential Complex, Durgapur - WBPCB",13-04-2026 09:00:00,23.5087640,87.3544400,NH3,6,10,8
India,Uttar_Pradesh,Vrindavan,"Omex Eternity, Vrindavan - UPPCB",13-04-2026 09:00:00,27.5714090,77.6557570,CO,16,46,36
India,Uttarakhand,Dehradun,"Doon University, Dehradun - UKPCB",13-04-2026 09:00:00,30.269444,78.044167,NO2,1,3,1
India,West_Bengal,Durgapur,"Womens College_City Center, Durgapur - WBPCB",13-04-2026 09:00:00,23.549395,87.300496,NH3,2,4,3
India,West_Bengal,Durgapur,"Womens College_City Center, Durgapur - WBPCB",13-04-2026 09:00:00,23.549395,87.300496,SO2,27,28,28
India,West_Bengal,Durgapur,"Womens College_City Center, Durgapur - WBPCB",13-04-2026 09:00:00,23.549395,87.300496,CO,15,60,28
India,West_Bengal,Howrah,"Belur Math, Howrah - WBPCB",13-04-2026 09:00:00,22.629801,88.352017,OZONE,12,41,16
India,West_Bengal,Howrah,"Botanical Garden, Howrah - WBPCB",13-04-2026 09:00:00,22.554954,88.292568,PM2.5,22,65,43
India,West_Bengal,Howrah,"Botanical Garden, Howrah - WBPCB",13-04-2026 09:00:00,22.554954,88.292568,PM10,48,106,75
India,West_Bengal,Howrah,"Botanical Garden, Howrah - WBPCB",13-04-2026 09:00:00,22.554954,88.292568,NH3,1,1,1
India,West_Bengal,Howrah,"Dasnagar, Howrah - WBPCB",13-04-2026 09:00:00,22.6025571,88.3105664,PM10,4,152,74
India,West_Bengal,Howrah,"Ghusuri, Howrah - WBPCB",13-04-2026 09:00:00,22.611968,88.347422,PM2.5,47,91,73
India,West_Bengal,Howrah,"Ghusuri, Howrah - WBPCB",13-04-2026 09:00:00,22.611968,88.347422,SO2,11,16,13
India,West_Bengal,Howrah,"Padmapukur, Howrah - WBPCB",13-04-2026 09:00:00,22.5687319,88.2797276,NO2,12,12,12
India,West_Bengal,Kolkata,"Ballygunge, Kolkata - WBPCB",13-04-2026 09:00:00,22.5367507,88.3638022,NH3,6,8,7
India,West_Bengal,Kolkata,"Bidhannagar, Kolkata - WBPCB",13-04-2026 09:00:00,22.58157048,88.41002457,NO2,16,18,17
India,West_Bengal,Kolkata,"Bidhannagar, Kolkata - WBPCB",13-04-2026 09:00:00,22.58157048,88.41002457,OZONE,18,73,19
India,West_Bengal,Kolkata,"Fort William, Kolkata - WBPCB",13-04-2026 09:00:00,22.556640,88.342674,NO2,20,29,23
India,West_Bengal,Kolkata,"Fort William, Kolkata - WBPCB",13-04-2026 09:00:00,22.556640,88.342674,NH3,9,9,9
India,West_Bengal,Kolkata,"Jadavpur, Kolkata - WBPCB",13-04-2026 09:00:00,22.49929,88.36917,PM10,51,94,70
India,West_Bengal,Kolkata,"Rabindra Sarobar, Kolkata - WBPCB",13-04-2026 09:00:00,22.51106,88.35142,PM2.5,27,59,42
India,West_Bengal,Kolkata,"Victoria, Kolkata - WBPCB",13-04-2026 09:00:00,22.5448082,88.3403691,PM2.5,39,71,56
India,West_Bengal,Kolkata,"Victoria, Kolkata - WBPCB",13-04-2026 09:00:00,22.5448082,88.3403691,OZONE,22,98,32
India,Andhra_Pradesh,Vijayawada,"Rajiv Gandhi Park, Vijayawada - APPCB",13-04-2026 09:00:00,16.509717,80.612222,SO2,16,17,16
India,Andhra_Pradesh,Vijayawada,"Rajiv Gandhi Park, Vijayawada - APPCB",13-04-2026 09:00:00,16.509717,80.612222,CO,37,46,42
India,Andhra_Pradesh,Vijayawada,"Rajiv Gandhi Park, Vijayawada - APPCB",13-04-2026 09:00:00,16.509717,80.612222,OZONE,33,45,34
India,Andhra_Pradesh,Vijayawada,"Rajiv Nagar, Vijayawada - APPCB",13-04-2026 09:00:00,16.554731,80.649110,NH3,4,4,4
India,Andhra_Pradesh,Visakhapatnam,"GVM Corporation, Visakhapatnam - APPCB",13-04-2026 09:00:00,17.72,83.3,PM2.5,2,67,35
India,Andhra_Pradesh,Visakhapatnam,"GVM Corporation, Visakhapatnam - APPCB",13-04-2026 09:00:00,17.72,83.3,NH3,3,4,3
India,Arunachal_Pradesh,Naharlagun,"Naharlagun, Naharlagun - APSPCB",13-04-2026 09:00:00,27.103358,93.679645,CO,8,24,10
India,Arunachal_Pradesh,Naharlagun,"Naharlagun, Naharlagun - APSPCB",13-04-2026 09:00:00,27.103358,93.679645,OZONE,6,6,6
India,Assam,Byrnihat,"Central Academy for SFS, Byrnihat - PCBA",13-04-2026 09:00:00,26.071318,91.87488,PM2.5,NA,NA,NA
India,Assam,Byrnihat,"Central Academy for SFS, Byrnihat - PCBA",13-04-2026 09:00:00,26.071318,91.87488,OZONE,12,55,18
India,Assam,Guwahati,"IITG, Guwahati - PCBA",13-04-2026 09:00:00,26.2028636,91.70046436,PM2.5,NA,NA,NA
India,Assam,Guwahati,"IITG, Guwahati - PCBA",13-04-2026 09:00:00,26.2028636,91.70046436,NO2,NA,NA,NA
India,Andhra_Pradesh,Tirumala,"Toll Gate, Tirumala - APPCB",13-04-2026 09:00:00,13.67,79.35,PM10,43,98,69
India,Andhra_Pradesh,Tirumala,"Toll Gate, Tirumala - APPCB",13-04-2026 09:00:00,13.67,79.35,CO,13,24,15
India,Andhra_Pradesh,Vijayawada,"HB Colony, Vijayawada - APPCB",13-04-2026 09:00:00,16.536107,80.594233,PM2.5,46,353,80
India,Andhra_Pradesh,Vijayawada,"HB Colony, Vijayawada - APPCB",13-04-2026 09:00:00,16.536107,80.594233,SO2,18,21,19
India,Andhra_Pradesh,Vijayawada,"HB Colony, Vijayawada - APPCB",13-04-2026 09:00:00,16.536107,80.594233,CO,21,32,32
India,Andhra_Pradesh,Vijayawada,"Kanuru, Vijayawada - APPCB",13-04-2026 09:00:00,16.486692,80.699436,PM2.5,NA,NA,NA
India,Andhra_Pradesh,Vijayawada,"Kanuru, Vijayawada - APPCB",13-04-2026 09:00:00,16.486692,80.699436,CO,40,42,40
India,Andhra_Pradesh,Vijayawada,"Kanuru, Vijayawada - APPCB",13-04-2026 09:00:00,16.486692,80.699436,OZONE,NA,NA,NA
India,Assam,Guwahati,"Railway Colony, Guwahati - PCBA",13-04-2026 09:00:00,26.181742,91.78063,PM10,31,59,40
India,Assam,Guwahati,"Railway Colony, Guwahati - PCBA",13-04-2026 09:00:00,26.181742,91.78063,NO2,3,4,3
India,Assam,Nagaon,"Christianpatty, Nagaon - PCBA",13-04-2026 09:00:00,26.349082,92.68449,PM2.5,32,60,42
India,Assam,Nagaon,"Christianpatty, Nagaon - PCBA",13-04-2026 09:00:00,26.349082,92.68449,PM10,25,53,35
India,Andhra_Pradesh,Nellore,"Ambedkar Nagar, Nellore - APPCB ",13-04-2026 09:00:00,14.438164 ,79.966814 ,PM2.5,26,51,32
India,Andhra_Pradesh,Nellore,"Ambedkar Nagar, Nellore - APPCB ",13-04-2026 09:00:00,14.438164 ,79.966814 ,NH3,4,4,4
India,Andhra_Pradesh,Rajamahendravaram,"Anand Kala Kshetram, Rajamahendravaram - APPCB",13-04-2026 09:00:00,16.9872867,81.7363176,NO2,7,14,10
India,Andhra_Pradesh,Eluru,"District Court, Eluru - APPCB",13-04-2026 09:00:00,16.711754,81.092095,SO2,9,11,10
India,Andhra_Pradesh,Guntur,"Rajendra Nagar North, Guntur - APPCB",13-04-2026 09:00:00,16.316553,80.413302,SO2,9,11,10
India,Andhra_Pradesh,Guntur,"Rajendra Nagar North, Guntur - APPCB",13-04-2026 09:00:00,16.316553,80.413302,OZONE,16,27,26
India,Assam,Guwahati,"Pan Bazaar, Guwahati - PCBA",13-04-2026 09:00:00,26.187500,91.744194,PM2.5,35,137,83
India,Assam,Guwahati,"Pan Bazaar, Guwahati - PCBA",13-04-2026 09:00:00,26.187500,91.744194,NO2,NA,NA,NA
India,Assam,Guwahati,"Pan Bazaar, Guwahati - PCBA",13-04-2026 09:00:00,26.187500,91.744194,NH3,1,1,1
India,Andhra_Pradesh,Kadapa,"Yerramukkapalli, Kadapa - APPCB",13-04-2026 09:00:00,14.465052,78.824187,SO2,12,19,13
India,Andhra_Pradesh,Kadapa,"Yerramukkapalli, Kadapa - APPCB",13-04-2026 09:00:00,14.465052,78.824187,CO,28,51,47
India,Andhra_Pradesh,Kadapa,"Yerramukkapalli, Kadapa - APPCB",13-04-2026 09:00:00,14.465052,78.824187,OZONE,28,37,36
India,Andhra_Pradesh,Chittoor,"Gangineni Cheruvu, Chittoor - APPCB",13-04-2026 09:00:00,13.204880,79.097889,NO2,31,35,33
India,Andhra_Pradesh,Chittoor,"Gangineni Cheruvu, Chittoor - APPCB",13-04-2026 09:00:00,13.204880,79.097889,CO,1,1,1
India,Andhra_Pradesh,Amaravati,"Secretariat, Amaravati - APPCB",13-04-2026 09:00:00,16.5150833,80.5181667,NH3,3,4,4
India,Assam,Guwahati,"LGBI Airport, Guwahati - PCBA",13-04-2026 09:00:00,26.10887,91.589544,NO2,14,106,20
India,Bihar,Bhagalpur,"DM Office_Kachari Chowk, Bhagalpur - BSPCB",13-04-2026 09:00:00,25.251013,86.989001,PM2.5,33,190,80
India,Bihar,Bhagalpur,"DM Office_Kachari Chowk, Bhagalpur - BSPCB",13-04-2026 09:00:00,25.251013,86.989001,SO2,NA,NA,NA
India,Bihar,Bhagalpur,"Mayaganj, Bhagalpur - BSPCB",13-04-2026 09:00:00,25.265194,87.012947,PM10,NA,NA,NA
India,Bihar,Bihar Sharif,"D M Colony, Bihar Sharif - BSPCB",13-04-2026 09:00:00,25.204762,85.514960,CO,NA,NA,NA
India,Bihar,Chhapra,"Darshan Nagar, Chhapra - BSPCB",13-04-2026 09:00:00,25.7808257,84.7446768,NH3,4,16,9
India,Bihar,Chhapra,"Darshan Nagar, Chhapra - BSPCB",13-04-2026 09:00:00,25.7808257,84.7446768,CO,9,20,15
India,Bihar,Kishanganj,"SDM Office_Khagra, Kishanganj - BSPCB",13-04-2026 09:00:00,26.0881305,87.93840336,PM10,29,53,39
India,Bihar,Manguraha,"Forest Rest House, Manguraha - BSPCB",13-04-2026 09:00:00,27.308328,84.531742,PM10,107,148,126
India,Bihar,Manguraha,"Forest Rest House, Manguraha - BSPCB",13-04-2026 09:00:00,27.308328,84.531742,NH3,NA,NA,NA
India,Bihar,Motihari,"Gandak Colony, Motihari - BSPCB",13-04-2026 09:00:00,26.63086,84.90051,NO2,4,7,5
India,Bihar,Munger,"Town Hall, Munger - BSPCB",13-04-2026 09:00:00,25.376776,86.471523,NH3,2,3,3
India,Bihar,Muzaffarpur,"Muzaffarpur Collectorate, Muzaffarpur - BSPCB",13-04-2026 09:00:00,26.1209,85.3647,CO,8,28,13
India,Bihar,Patna,"DRM Office Danapur, Patna - BSPCB",13-04-2026 09:00:00,25.586562,85.043586,PM10,119,428,207
India,Bihar,Patna,"DRM Office Danapur, Patna - BSPCB",13-04-2026 09:00:00,25.586562,85.043586,OZONE,10,17,11
India,Bihar,Patna,"Govt. High School Shikarpur, Patna - BSPCB",13-04-2026 09:00:00,25.592539,85.227158,PM2.5,68,83,77
India,Bihar,Patna,"Govt. High School Shikarpur, Patna - BSPCB",13-04-2026 09:00:00,25.592539,85.227158,NH3,4,6,5
India,Bihar,Gaya,"SFTI Kusdihra, Gaya - BSPCB",13-04-2026 09:00:00,24.762518,84.982348,CO,12,36,26
India,Bihar,Hajipur,"Industrial Area, Hajipur - BSPCB",13-04-2026 09:00:00,25.697189,85.245900,PM10,140,238,186
India,Bihar,Katihar,"Mirchaibari, Katihar - BSPCB",13-04-2026 09:00:00,25.560083,87.553265,NO2,5,10,9
India,Bihar,Muzaffarpur,"Buddha Colony, Muzaffarpur - BSPCB",13-04-2026 09:00:00,26.11442,85.39813,NO2,34,61,45
India,Bihar,Muzaffarpur,"Buddha Colony, Muzaffarpur - BSPCB",13-04-2026 09:00:00,26.11442,85.39813,SO2,6,13,9
India,Bihar,Muzaffarpur,"MIT-Daudpur Kothi, Muzaffarpur - BSPCB",13-04-2026 09:00:00,26.1403345,85.3650192,PM2.5,55,78,67
India,Assam,Nalbari,"Bata Chowk, Nalbari - PCBA",13-04-2026 09:00:00,26.446912,91.439057,SO2,6,9,8
India,Assam,Silchar,"Tarapur, Silchar - PCBA",13-04-2026 09:00:00,24.82827,92.79525,PM2.5,21,69,49
India,Bihar,Begusarai,"Lohiyanagar, Begusarai - BSPCB",13-04-2026 09:00:00,25.42742023,86.13886079,CO,13,20,17
India,Bihar,Begusarai,"Lohiyanagar, Begusarai - BSPCB",13-04-2026 09:00:00,25.42742023,86.13886079,OZONE,31,46,40
India,Bihar,Muzaffarpur,"MIT-Daudpur Kothi, Muzaffarpur - BSPCB",13-04-2026 09:00:00,26.1403345,85.3650192,CO,30,39,33
India,Assam,Silchar,"Tarapur, Silchar - PCBA",13-04-2026 09:00:00,24.82827,92.79525,SO2,5,8,6
India,Bihar,Sasaram,"Dada Peer, Sasaram - BSPCB",13-04-2026 09:00:00,24.952822,84.002396,PM10,77,198,118
India,Bihar,Sasaram,"Dada Peer, Sasaram - BSPCB",13-04-2026 09:00:00,24.952822,84.002396,SO2,1,6,4
India,Bihar,Siwan,"Chitragupta Nagar, Siwan - BSPCB",13-04-2026 09:00:00,26.2271665,84.3570427,NO2,2,2,2
India,Bihar,Siwan,"Chitragupta Nagar, Siwan - BSPCB",13-04-2026 09:00:00,26.2271665,84.3570427,NH3,1,1,1
India,Bihar,Siwan,"Chitragupta Nagar, Siwan - BSPCB",13-04-2026 09:00:00,26.2271665,84.3570427,OZONE,10,14,13
India,Chandigarh,Chandigarh,"Sector 22, Chandigarh - CPCC",13-04-2026 09:00:00,30.735567,76.775714,PM2.5,27,123,56
India,Chandigarh,Chandigarh,"Sector 22, Chandigarh - CPCC",13-04-2026 09:00:00,30.735567,76.775714,NH3,13,20,17
India,Chandigarh,Chandigarh,"Sector 22, Chandigarh - CPCC",13-04-2026 09:00:00,30.735567,76.775714,CO,55,76,68
India,Chandigarh,Chandigarh,"Sector-25, Chandigarh - CPCC",13-04-2026 09:00:00,30.751462,76.762879,PM10,NA,NA,NA
India,Chandigarh,Chandigarh,"Sector-25, Chandigarh - CPCC",13-04-2026 09:00:00,30.751462,76.762879,NO2,NA,NA,NA
India,Chhattisgarh,Korba,"Rampur, Korba - CECB",13-04-2026 09:00:00,22.368195,82.746431,OZONE,3,15,7
India,Chhattisgarh,Korba,"Urja Nagar, Korba - CECB",13-04-2026 09:00:00,22.348441,82.549611,PM2.5,13,17,14
India,Chhattisgarh,Korba,"Urja Nagar, Korba - CECB",13-04-2026 09:00:00,22.348441,82.549611,NH3,1,1,1
India,Chhattisgarh,Korba,"Urja Nagar, Korba - CECB",13-04-2026 09:00:00,22.348441,82.549611,SO2,3,12,6
India,Chhattisgarh,Kunjemura,"OP Jindal School, Kunjemura - CECB",13-04-2026 09:00:00,22.126650,83.483212,PM10,65,218,106
India,Chhattisgarh,Kunjemura,"OP Jindal School, Kunjemura - CECB",13-04-2026 09:00:00,22.126650,83.483212,NO2,16,94,53
India,Chhattisgarh,Kunjemura,"OP Jindal School, Kunjemura - CECB",13-04-2026 09:00:00,22.126650,83.483212,CO,12,78,48
India,Chhattisgarh,Kunjemura,"OP Jindal School, Kunjemura - CECB",13-04-2026 09:00:00,22.126650,83.483212,OZONE,1,37,3
India,Bihar,Patna,"Muradpur, Patna - BSPCB",13-04-2026 09:00:00,25.619651,85.147382,NO2,10,12,11
India,Bihar,Patna,"Rajbansi Nagar, Patna - BSPCB",13-04-2026 09:00:00,25.599486,85.113666,PM2.5,75,163,94
India,Bihar,Patna,"Samanpura, Patna - BSPCB",13-04-2026 09:00:00,25.596727,85.085624,SO2,4,6,5
India,Bihar,Patna,"Samanpura, Patna - BSPCB",13-04-2026 09:00:00,25.596727,85.085624,CO,66,115,87
India,Bihar,Purnia,"Mariam Nagar, Purnia - BSPCB",13-04-2026 09:00:00,25.366336,87.117468,NH3,2,2,2
India,Chhattisgarh,Bhilai,"32Bungalows, Bhilai - CECB",13-04-2026 09:00:00,21.194815,81.314770,NH3,3,5,4
India,Chhattisgarh,Bhilai,"Hathkhoj, Bhilai - CECB",13-04-2026 09:00:00,21.224231,81.408350,SO2,10,89,35
India,Chhattisgarh,Bilaspur,"Mangala, Bilaspur - NTPC",13-04-2026 09:00:00,22.08815,82.13737,PM10,70,131,103
India,Chhattisgarh,Bilaspur,"Mangala, Bilaspur - NTPC",13-04-2026 09:00:00,22.08815,82.13737,SO2,14,42,24
India,Chhattisgarh,Raipur,"AIIMS, Raipur - CECB",13-04-2026 09:00:00,21.258815,81.578979,CO,22,77,48
India,Chhattisgarh,Raipur,"Bhatagaon New ISBT, Raipur - CECB",13-04-2026 09:00:00,21.219665,81.630094,PM2.5,20,94,54
India,Chhattisgarh,Raipur,"Bhatagaon New ISBT, Raipur - CECB",13-04-2026 09:00:00,21.219665,81.630094,PM10,36,215,93
India,Chhattisgarh,Raipur,"Bhatagaon New ISBT, Raipur - CECB",13-04-2026 09:00:00,21.219665,81.630094,NH3,2,2,2
India,Chhattisgarh,Milupara,"Govt. Higher Secondary School, Milupara - CECB",13-04-2026 09:00:00,22.1910172,83.5197009,SO2,14,41,19
India,Chhattisgarh,Milupara,"Govt. Higher Secondary School, Milupara - CECB",13-04-2026 09:00:00,22.1910172,83.5197009,OZONE,8,168,19
India,Chhattisgarh,Raipur,"AIIMS, Raipur - CECB",13-04-2026 09:00:00,21.258815,81.578979,NO2,32,52,41
India,Chhattisgarh,Raipur,"Siltara Phase-II, Raipur - CECB",13-04-2026 09:00:00,21.371751,81.664929,OZONE,3,78,6
India,Chhattisgarh,Tumidih,"OP Jindal Industrial Park, Tumidih - CECB",13-04-2026 09:00:00,22.06631475,83.33820077,NO2,NA,NA,NA
India,Chhattisgarh,Chhal,"Nawapara SECL Colony, Chhal - CECB",13-04-2026 09:00:00,22.118125,83.140608,NO2,13,47,22
India,Chhattisgarh,Chhal,"Nawapara SECL Colony, Chhal - CECB",13-04-2026 09:00:00,22.118125,83.140608,CO,17,57,39
India,Chhattisgarh,Raipur,"Krishak Nagar, Raipur - CECB",13-04-2026 09:00:00,21.237755,81.705301,SO2,5,17,8
India,Delhi,Delhi,"CRRI Mathura Road, Delhi - IMD",13-04-2026 09:00:00,28.5512005,77.2735737,OZONE,21,70,22
India,Delhi,Delhi,"Cantonment Area, Delhi - DPCC ",13-04-2026 09:00:00,28.594169 ,77.125100 ,PM2.5,14,56,24
India,Delhi,Delhi,"Cantonment Area, Delhi - DPCC ",13-04-2026 09:00:00,28.594169 ,77.125100 ,PM10,68,227,125
India,Delhi,Delhi,"Cantonment Area, Delhi - DPCC ",13-04-2026 09:00:00,28.594169 ,77.125100 ,CO,18,68,66
India,Delhi,Delhi,"Cantonment Area, Delhi - DPCC ",13-04-2026 09:00:00,28.594169 ,77.125100 ,OZONE,5,51,10
India,Delhi,Delhi,"Chandni Chowk, Delhi - IITM",13-04-2026 09:00:00,28.656756,77.227234,PM2.5,25,81,50
India,Delhi,Delhi,"Chandni Chowk, Delhi - IITM",13-04-2026 09:00:00,28.656756,77.227234,NH3,5,14,9
India,Delhi,Delhi,"Chandni Chowk, Delhi - IITM",13-04-2026 09:00:00,28.656756,77.227234,SO2,13,28,16
India,Delhi,Delhi,"Commonwealth Sports Complex, Delhi - DPCC",13-04-2026 09:00:00,28.615828 ,77.271992 ,PM10,74,201,135
India,Delhi,Delhi,"DTU, Delhi - CPCB",13-04-2026 09:00:00,28.7500499,77.1112615,PM10,67,218,111
India,Delhi,Delhi,"DTU, Delhi - CPCB",13-04-2026 09:00:00,28.7500499,77.1112615,NH3,11,13,12
India,Delhi,Delhi,"DTU, Delhi - CPCB",13-04-2026 09:00:00,28.7500499,77.1112615,OZONE,29,31,31
India,Delhi,Delhi,"Dr. Karni Singh Shooting Range, Delhi - DPCC",13-04-2026 09:00:00,28.498571,77.264840,NH3,3,4,3
India,Delhi,Delhi,"Dr. Karni Singh Shooting Range, Delhi - DPCC",13-04-2026 09:00:00,28.498571,77.264840,SO2,10,50,18
India,Delhi,Delhi,"Dr. Karni Singh Shooting Range, Delhi - DPCC",13-04-2026 09:00:00,28.498571,77.264840,OZONE,4,65,13
India,Delhi,Delhi,"IGI Airport (T3), Delhi - IMD",13-04-2026 09:00:00,28.5627763,77.1180053,PM2.5,29,321,98
India,Delhi,Delhi,"Jahangirpuri, Delhi - DPCC",13-04-2026 09:00:00,28.732820,77.170633,NH3,9,22,15
India,Delhi,Delhi,"Lodhi Road, Delhi - IMD",13-04-2026 09:00:00,28.5918245,77.2273074,NO2,11,39,23
India,Delhi,Delhi,"Major Dhyan Chand National Stadium, Delhi - DPCC",13-04-2026 09:00:00,28.611281,77.237738,PM2.5,8,307,63
India,Delhi,Delhi,"IHBAS, Dilshad Garden, Delhi - CPCB",13-04-2026 09:00:00,28.6811736,77.3025234,PM10,95,151,121
India,Delhi,Delhi,"IHBAS, Dilshad Garden, Delhi - CPCB",13-04-2026 09:00:00,28.6811736,77.3025234,CO,14,105,23
India,Delhi,Delhi,"Major Dhyan Chand National Stadium, Delhi - DPCC",13-04-2026 09:00:00,28.611281,77.237738,CO,12,80,49
India,Delhi,Delhi,"Anand Vihar, Delhi - DPCC",13-04-2026 09:00:00,28.647622,77.3158090,PM2.5,30,306,108
India,Delhi,Delhi,"Ashok Vihar, Delhi - DPCC",13-04-2026 09:00:00,28.695381,77.181665,NH3,6,7,7
India,Delhi,Delhi,"ITO, Delhi - CPCB",13-04-2026 09:00:00,28.628624,77.241060,PM2.5,23,319,81
India,Delhi,Delhi,"JNU, Delhi - DPCC",13-04-2026 09:00:00,28.540721 ,77.168544 ,NH3,2,4,3
India,Delhi,Delhi,"Mundka, Delhi - DPCC",13-04-2026 09:00:00,28.684678,77.076574,SO2,18,73,38
India,Delhi,Delhi,"NSIT Dwarka, Delhi - CPCB",13-04-2026 09:00:00,28.60909,77.0325413,PM10,91,190,132
India,Delhi,Delhi,"NSIT Dwarka, Delhi - CPCB",13-04-2026 09:00:00,28.60909,77.0325413,NH3,1,9,4
India,Delhi,Delhi,"NSUT Jaffarpur, Delhi - DPCC",13-04-2026 09:00:00,28.594004 ,76.909423 ,PM2.5,28,356,159
India,Delhi,Delhi,"NSUT Jaffarpur, Delhi - DPCC",13-04-2026 09:00:00,28.594004 ,76.909423 ,PM10,59,326,152
India,Delhi,Delhi,"Najafgarh, Delhi - DPCC",13-04-2026 09:00:00,28.570173,76.933762,NO2,16,90,50
India,Delhi,Delhi,"Nehru Nagar, Delhi - DPCC",13-04-2026 09:00:00,28.567890,77.250515,OZONE,3,54,10
India,Delhi,Delhi,"New Moti Bagh, Delhi - MHUA",13-04-2026 09:00:00,28.57834,77.18400,NO2,8,9,9
India,Delhi,Delhi,"New Moti Bagh, Delhi - MHUA",13-04-2026 09:00:00,28.57834,77.18400,CO,12,48,36
India,Delhi,Delhi,"Okhla Phase-2, Delhi - DPCC",13-04-2026 09:00:00,28.530785,77.271255,PM10,92,277,132
India,Delhi,Delhi,"Okhla Phase-2, Delhi - DPCC",13-04-2026 09:00:00,28.530785,77.271255,SO2,18,48,25
India,Delhi,Delhi,"Punjabi Bagh, Delhi - DPCC",13-04-2026 09:00:00,28.674045,77.131023,NO2,14,74,38
India,Delhi,Delhi,"Pusa, Delhi - DPCC",13-04-2026 09:00:00,28.639652,77.146275,PM2.5,18,385,98
India,Delhi,Delhi,"Pusa, Delhi - DPCC",13-04-2026 09:00:00,28.639652,77.146275,PM10,102,410,168
India,Delhi,Delhi,"R K Puram, Delhi - DPCC",13-04-2026 09:00:00,28.563262,77.186937,PM2.5,20,363,108
India,Delhi,Delhi,"R K Puram, Delhi - DPCC",13-04-2026 09:00:00,28.563262,77.186937,PM10,84,181,126
India,Gujarat,Ahmedabad,"Chandkheda, Ahmedabad - IITM",13-04-2026 09:00:00,23.107969,72.574648,SO2,5,31,14
India,Gujarat,Ahmedabad,"Gyaspur, Ahmedabad - IITM",13-04-2026 09:00:00,22.977134,72.553024,PM10,98,205,137
India,Gujarat,Ahmedabad,"Maninagar, Ahmedabad - GPCB",13-04-2026 09:00:00,23.002657,72.591912,PM2.5,33,124,68
India,Delhi,Delhi,"Talkatora Garden, Delhi - DPCC",13-04-2026 09:00:00,28.621810,77.1944633,PM10,57,210,111
India,Delhi,Delhi,"Talkatora Garden, Delhi - DPCC",13-04-2026 09:00:00,28.621810,77.1944633,NO2,6,31,19
India,Delhi,Delhi,"Vivek Vihar, Delhi - DPCC",13-04-2026 09:00:00,28.672342,77.315260,PM2.5,24,166,75
India,Delhi,Delhi,"Shadipur, Delhi - CPCB",13-04-2026 09:00:00,28.6514781,77.1473105,NH3,5,8,7
India,Delhi,Delhi,"Shadipur, Delhi - CPCB",13-04-2026 09:00:00,28.6514781,77.1473105,OZONE,9,39,18
India,Delhi,Delhi,"Sonia Vihar, Delhi - DPCC",13-04-2026 09:00:00,28.710508,77.249485,NO2,10,63,27
India,Delhi,Delhi,"Nehru Nagar, Delhi - DPCC",13-04-2026 09:00:00,28.567890,77.250515,PM2.5,15,348,102
India,Delhi,Delhi,"Nehru Nagar, Delhi - DPCC",13-04-2026 09:00:00,28.567890,77.250515,NO2,37,72,56
India,Delhi,Delhi,"Mandir Marg, Delhi - DPCC",13-04-2026 09:00:00,28.636429,77.201067,NO2,28,84,52
India,Delhi,Delhi,"Mandir Marg, Delhi - DPCC",13-04-2026 09:00:00,28.636429,77.201067,OZONE,7,46,14
India,Delhi,Delhi,"Shadipur, Delhi - CPCB",13-04-2026 09:00:00,28.6514781,77.1473105,PM10,83,174,125
India,Gujarat,Ahmedabad,"SAC ISRO Bopal, Ahmedabad - IITM",13-04-2026 09:00:00,23.041137,72.456691,OZONE,16,99,27
India,Gujarat,Ahmedabad,"SAC ISRO Satellite, Ahmedabad - IITM",13-04-2026 09:00:00,23.023389,72.515201,SO2,10,53,21
India,Gujarat,Ahmedabad,"SVPI Airport Hansol, Ahmedabad - IITM",13-04-2026 09:00:00,23.076793,72.627874,SO2,4,15,9
India,Gujarat,Bhavnagar,"Vidhyanagar, Bhavnagar - Nexteng Enviro",13-04-2026 09:00:00,21.755417,72.139056,CO,84,95,92
India,Gujarat,Surat,"Katargam, Surat - Nexteng Enviro",13-04-2026 09:00:00,21.217779 ,72.834787 ,NO2,7,39,17
India,Gujarat,Surat,"Science Center, Surat - SMC",13-04-2026 09:00:00,21.170046,72.795405,PM10,69,241,129
India,Gujarat,Vadodara,"Bapunagar, Vadodara - Nexteng Enviro",13-04-2026 09:00:00,22.320153,73.216285,PM10,44,107,72
India,Gujarat,Gandhinagar,"GIFT City, Gandhinagar - IITM",13-04-2026 09:00:00,23.163798,72.677768,NH3,5,8,6
India,Gujarat,Gandhinagar,"IIPHG Lekawada, Gandhinagar - IITM",13-04-2026 09:00:00,23.243639,72.68994,NO2,6,26,15
India,Gujarat,Gandhinagar,"IIPHG Lekawada, Gandhinagar - IITM",13-04-2026 09:00:00,23.243639,72.68994,SO2,2,12,4
India,Haryana,Bhiwani,"H.B. Colony, Bhiwani - HSPCB",13-04-2026 09:00:00,28.806223,76.141105,PM2.5,27,33,29
India,Haryana,Charkhi Dadri,"Mini Secretariat, Charkhi Dadri - HSPCB",13-04-2026 09:00:00,28.593883,76.270653,NH3,5,8,6
India,Gujarat,Mehsana,"Sadanand Nagar, Mehsana - Nexteng Enviro",13-04-2026 09:00:00,23.593150,72.372792,CO,53,70,61
India,Gujarat,Gandhinagar,"GIFT City, Gandhinagar - IITM",13-04-2026 09:00:00,23.163798,72.677768,PM2.5,40,87,62
India,Haryana,Bahadurgarh,"Arya Nagar, Bahadurgarh - HSPCB",13-04-2026 09:00:00,28.6701,76.9254,NO2,12,14,13
India,Gujarat,Vatva,"Phase-4 GIDC, Vatva - GPCB",13-04-2026 09:00:00,22.969611,72.643500,SO2,68,88,79
India,Gujarat,Ahmedabad,"Rakhial, Ahmedabad - IITM",13-04-2026 09:00:00,23.016834,72.625775,NO2,3,10,7
India,Haryana,Kurukshetra,"Sector-7, Kurukshetra - HSPCB",13-04-2026 09:00:00,29.966942,76.875879,NO2,4,4,4
India,Haryana,Kurukshetra,"Sector-7, Kurukshetra - HSPCB",13-04-2026 09:00:00,29.966942,76.875879,NH3,6,7,6
India,Haryana,Kurukshetra,"Sector-7, Kurukshetra - HSPCB",13-04-2026 09:00:00,29.966942,76.875879,SO2,2,3,3
India,Haryana,Kurukshetra,"Sector-7, Kurukshetra - HSPCB",13-04-2026 09:00:00,29.966942,76.875879,CO,4,18,6
India,Haryana,Mandikhera,"General Hospital, Mandikhera(Nuh) - HSPCB",13-04-2026 09:00:00,27.9002,76.9938,SO2,32,37,34
India,Haryana,Manesar,"Sector-2 IMT, Manesar - HSPCB",13-04-2026 09:00:00,28.360699,76.936090,OZONE,9,50,16
India,Haryana,Kaithal,"Rishi Nagar, Kaithal - HSPCB",13-04-2026 09:00:00,29.8006,76.4155,PM10,2,100,71
India,Haryana,Kaithal,"Rishi Nagar, Kaithal - HSPCB",13-04-2026 09:00:00,29.8006,76.4155,NO2,23,33,31
