country,state,city,station,last_update,latitude,longitude,pollutant_id,min_value,max_value,avg_value
India,Andhra_Pradesh,Visakhapatnam,"GVM Corporation, Visakhapatnam - APPCB",19-04-2026 09:00:00,17.72,83.3,SO2,4,107,39
India,Arunachal_Pradesh,Naharlagun,"Naharlagun, Naharlagun - APSPCB",19-04-2026 09:00:00,27.103358,93.679645,PM10,NA,NA,NA
India,Assam,Guwahati,"IITG, Guwahati - PCBA",19-04-2026 09:00:00,26.2028636,91.70046436,SO2,33,38,35
India,Assam,Guwahati,"IITG, Guwahati - PCBA",19-04-2026 09:00:00,26.2028636,91.70046436,CO,6,18,6
India,Assam,Guwahati,"LGBI Airport, Guwahati - PCBA",19-04-2026 09:00:00,26.10887,91.589544,CO,8,48,26
India,Assam,Guwahati,"LGBI Airport, Guwahati - PCBA",19-04-2026 09:00:00,26.10887,91.589544,OZONE,5,15,11
India,Assam,Guwahati,"Railway Colony, Guwahati - PCBA",19-04-2026 09:00:00,26.181742,91.78063,PM10,19,159,84
India,Assam,Guwahati,"Railway Colony, Guwahati - PCBA",19-04-2026 09:00:00,26.181742,91.78063,NO2,NA,NA,NA
India,Assam,Guwahati,"Railway Colony, Guwahati - PCBA",19-04-2026 09:00:00,26.181742,91.78063,NH3,1,1,1
India,Assam,Guwahati,"Railway Colony, Guwahati - PCBA",19-04-2026 09:00:00,26.181742,91.78063,SO2,3,14,7
India,Assam,Nagaon,"Christianpatty, Nagaon - PCBA",19-04-2026 09:00:00,26.349082,92.68449,PM2.5,30,86,58
India,Bihar,Hajipur,"Industrial Area, Hajipur - BSPCB",19-04-2026 09:00:00,25.697189,85.245900,OZONE,40,178,49
India,Bihar,Kishanganj,"SDM Office_Khagra, Kishanganj - BSPCB",19-04-2026 09:00:00,26.0881305,87.93840336,SO2,4,10,7
India,Bihar,Kishanganj,"SDM Office_Khagra, Kishanganj - BSPCB",19-04-2026 09:00:00,26.0881305,87.93840336,OZONE,28,44,32
India,Bihar,Manguraha,"Forest Rest House, Manguraha - BSPCB",19-04-2026 09:00:00,27.308328,84.531742,CO,31,33,32
India,Bihar,Motihari,"Gandak Colony, Motihari - BSPCB",19-04-2026 09:00:00,26.63086,84.90051,PM2.5,17,92,50
India,Bihar,Motihari,"Gandak Colony, Motihari - BSPCB",19-04-2026 09:00:00,26.63086,84.90051,NO2,3,4,3
India,Bihar,Motihari,"Gandak Colony, Motihari - BSPCB",19-04-2026 09:00:00,26.63086,84.90051,SO2,3,3,3
India,Bihar,Motihari,"Gandak Colony, Motihari - BSPCB",19-04-2026 09:00:00,26.63086,84.90051,CO,12,18,14
India,Bihar,Munger,"Town Hall, Munger - BSPCB",19-04-2026 09:00:00,25.376776,86.471523,PM2.5,8,63,35
India,Bihar,Munger,"Town Hall, Munger - BSPCB",19-04-2026 09:00:00,25.376776,86.471523,NO2,4,5,5
India,Bihar,Munger,"Town Hall, Munger - BSPCB",19-04-2026 09:00:00,25.376776,86.471523,NH3,3,3,3
India,Andhra_Pradesh,Kadapa,"Yerramukkapalli, Kadapa - APPCB",19-04-2026 09:00:00,14.465052,78.824187,PM2.5,55,89,66
India,Andhra_Pradesh,Kadapa,"Yerramukkapalli, Kadapa - APPCB",19-04-2026 09:00:00,14.465052,78.824187,CO,22,40,22
India,Andhra_Pradesh,Kadapa,"Yerramukkapalli, Kadapa - APPCB",19-04-2026 09:00:00,14.465052,78.824187,OZONE,12,46,13
India,Andhra_Pradesh,Machilipatnam,"Srinivas Nagar Colony, Machilipatnam - APPCB",19-04-2026 09:00:00,16.186555,81.13219,PM2.5,47,82,54
India,Andhra_Pradesh,Machilipatnam,"Srinivas Nagar Colony, Machilipatnam - APPCB",19-04-2026 09:00:00,16.186555,81.13219,PM10,47,79,54
India,Andhra_Pradesh,Nellore,"Ambedkar Nagar, Nellore - APPCB ",19-04-2026 09:00:00,14.438164 ,79.966814 ,NH3,3,4,3
India,Andhra_Pradesh,Rajamahendravaram,"Anand Kala Kshetram, Rajamahendravaram - APPCB",19-04-2026 09:00:00,16.9872867,81.7363176,PM10,11,48,29
India,Andhra_Pradesh,Rajamahendravaram,"Anand Kala Kshetram, Rajamahendravaram - APPCB",19-04-2026 09:00:00,16.9872867,81.7363176,NO2,2,24,9
India,Andhra_Pradesh,Rajamahendravaram,"Anand Kala Kshetram, Rajamahendravaram - APPCB",19-04-2026 09:00:00,16.9872867,81.7363176,OZONE,5,21,8
India,Andhra_Pradesh,Tirumala,"Toll Gate, Tirumala - APPCB",19-04-2026 09:00:00,13.67,79.35,NO2,26,70,45
India,Bihar,Patna,"IGSC Planetarium Complex, Patna - BSPCB",19-04-2026 09:00:00,25.610369,85.132568,CO,31,36,35
India,Bihar,Patna,"Muradpur, Patna - BSPCB",19-04-2026 09:00:00,25.619651,85.147382,PM10,71,258,127
India,Bihar,Patna,"Muradpur, Patna - BSPCB",19-04-2026 09:00:00,25.619651,85.147382,CO,9,105,14
India,Bihar,Patna,"Rajbansi Nagar, Patna - BSPCB",19-04-2026 09:00:00,25.599486,85.113666,NO2,29,33,31
India,Bihar,Patna,"Rajbansi Nagar, Patna - BSPCB",19-04-2026 09:00:00,25.599486,85.113666,OZONE,24,36,32
India,Bihar,Patna,"Samanpura, Patna - BSPCB",19-04-2026 09:00:00,25.596727,85.085624,PM2.5,40,92,64
India,Bihar,Purnia,"Mariam Nagar, Purnia - BSPCB",19-04-2026 09:00:00,25.366336,87.117468,SO2,17,17,17
India,Bihar,Rajgir,"Dangi Tola, Rajgir - BSPCB",19-04-2026 09:00:00,25.03280,85.41948,SO2,2,3,3
India,Bihar,Saharsa,"Police Line, Saharsa - BSPCB",19-04-2026 09:00:00,25.892357,86.590325,PM2.5,NA,NA,NA
India,Bihar,Aurangabad,"Gurdeo Nagar, Aurangabad - BSPCB",19-04-2026 09:00:00,24.75746,84.366208,PM10,NA,NA,NA
India,Bihar,Aurangabad,"Gurdeo Nagar, Aurangabad - BSPCB",19-04-2026 09:00:00,24.75746,84.366208,OZONE,NA,NA,NA
India,Bihar,Begusarai,"Lohiyanagar, Begusarai - BSPCB",19-04-2026 09:00:00,25.42742023,86.13886079,PM2.5,8,55,37
India,Bihar,Begusarai,"Lohiyanagar, Begusarai - BSPCB",19-04-2026 09:00:00,25.42742023,86.13886079,SO2,36,42,39
India,Bihar,Begusarai,"Lohiyanagar, Begusarai - BSPCB",19-04-2026 09:00:00,25.42742023,86.13886079,OZONE,21,45,41
India,Bihar,Bettiah,"Kamalnath Nagar, Bettiah - BSPCB",19-04-2026 09:00:00,26.80365,84.51954,PM10,10,36,20
India,Bihar,Bettiah,"Kamalnath Nagar, Bettiah - BSPCB",19-04-2026 09:00:00,26.80365,84.51954,SO2,13,50,38
India,Bihar,Bhagalpur,"Mayaganj, Bhagalpur - BSPCB",19-04-2026 09:00:00,25.265194,87.012947,NO2,6,8,7
India,Bihar,Bhagalpur,"Mayaganj, Bhagalpur - BSPCB",19-04-2026 09:00:00,25.265194,87.012947,SO2,53,74,60
India,Bihar,Bihar Sharif,"D M Colony, Bihar Sharif - BSPCB",19-04-2026 09:00:00,25.204762,85.514960,PM10,21,78,44
India,Andhra_Pradesh,Tirupati,"Vaikuntapuram, Tirupati - APPCB",19-04-2026 09:00:00,13.615387,79.409230,NO2,21,37,26
India,Andhra_Pradesh,Tirupati,"Vaikuntapuram, Tirupati - APPCB",19-04-2026 09:00:00,13.615387,79.409230,CO,18,33,20
India,Andhra_Pradesh,Vijayawada,"HB Colony, Vijayawada - APPCB",19-04-2026 09:00:00,16.536107,80.594233,SO2,6,18,12
India,Andhra_Pradesh,Vijayawada,"Kanuru, Vijayawada - APPCB",19-04-2026 09:00:00,16.486692,80.699436,NH3,4,5,4
India,Andhra_Pradesh,Vijayawada,"Rajiv Gandhi Park, Vijayawada - APPCB",19-04-2026 09:00:00,16.509717,80.612222,SO2,13,21,18
India,Andhra_Pradesh,Vijayawada,"Rajiv Gandhi Park, Vijayawada - APPCB",19-04-2026 09:00:00,16.509717,80.612222,OZONE,NA,NA,NA
India,Andhra_Pradesh,Vijayawada,"Rajiv Nagar, Vijayawada - APPCB",19-04-2026 09:00:00,16.554731,80.649110,NH3,3,6,4
India,Andhra_Pradesh,Visakhapatnam,"GVM Corporation, Visakhapatnam - APPCB",19-04-2026 09:00:00,17.72,83.3,PM2.5,3,71,24
India,Assam,Nagaon,"Christianpatty, Nagaon - PCBA",19-04-2026 09:00:00,26.349082,92.68449,PM10,24,80,51
India,Assam,Nalbari,"Bata Chowk, Nalbari - PCBA",19-04-2026 09:00:00,26.446912,91.439057,PM2.5,21,56,41
India,Assam,Nalbari,"Bata Chowk, Nalbari - PCBA",19-04-2026 09:00:00,26.446912,91.439057,NO2,14,15,14
India,Assam,Nalbari,"Bata Chowk, Nalbari - PCBA",19-04-2026 09:00:00,26.446912,91.439057,SO2,3,8,8
India,Assam,Nalbari,"Bata Chowk, Nalbari - PCBA",19-04-2026 09:00:00,26.446912,91.439057,OZONE,7,16,16
India,Assam,Silchar,"Tarapur, Silchar - PCBA",19-04-2026 09:00:00,24.82827,92.79525,NH3,1,1,1
India,Assam,Silchar,"Tarapur, Silchar - PCBA",19-04-2026 09:00:00,24.82827,92.79525,SO2,4,6,6
India,Bihar,Araria,"Kharahiya Basti, Araria - BSPCB",19-04-2026 09:00:00,26.146529,87.454184,NH3,6,6,6
India,Bihar,Araria,"Kharahiya Basti, Araria - BSPCB",19-04-2026 09:00:00,26.146529,87.454184,SO2,31,61,50
India,Andhra_Pradesh,Amaravati,"Secretariat, Amaravati - APPCB",19-04-2026 09:00:00,16.5150833,80.5181667,PM2.5,5,68,29
India,Andhra_Pradesh,Amaravati,"Secretariat, Amaravati - APPCB",19-04-2026 09:00:00,16.5150833,80.5181667,OZONE,9,77,14
India,Andhra_Pradesh,Anantapur,"Gulzarpet, Anantapur - APPCB",19-04-2026 09:00:00,14.675886,77.593027,CO,22,78,33
India,Andhra_Pradesh,Chittoor,"Gangineni Cheruvu, Chittoor - APPCB",19-04-2026 09:00:00,13.204880,79.097889,OZONE,17,37,20
India,Andhra_Pradesh,Eluru,"District Court, Eluru - APPCB",19-04-2026 09:00:00,16.711754,81.092095,PM10,33,65,48
India,Andhra_Pradesh,Eluru,"District Court, Eluru - APPCB",19-04-2026 09:00:00,16.711754,81.092095,SO2,6,11,8
India,Andhra_Pradesh,Eluru,"District Court, Eluru - APPCB",19-04-2026 09:00:00,16.711754,81.092095,CO,11,24,15
India,Bihar,Munger,"Town Hall, Munger - BSPCB",19-04-2026 09:00:00,25.376776,86.471523,OZONE,9,11,10
India,Bihar,Muzaffarpur,"Buddha Colony, Muzaffarpur - BSPCB",19-04-2026 09:00:00,26.11442,85.39813,PM2.5,47,239,130
India,Bihar,Muzaffarpur,"Buddha Colony, Muzaffarpur - BSPCB",19-04-2026 09:00:00,26.11442,85.39813,NO2,12,37,25
India,Bihar,Muzaffarpur,"Muzaffarpur Collectorate, Muzaffarpur - BSPCB",19-04-2026 09:00:00,26.1209,85.3647,SO2,4,7,6
India,Bihar,Patna,"DRM Office Danapur, Patna - BSPCB",19-04-2026 09:00:00,25.586562,85.043586,NH3,8,9,8
India,Bihar,Patna,"Govt. High School Shikarpur, Patna - BSPCB",19-04-2026 09:00:00,25.592539,85.227158,SO2,8,9,9
India,Bihar,Bihar Sharif,"D M Colony, Bihar Sharif - BSPCB",19-04-2026 09:00:00,25.204762,85.514960,SO2,9,10,10
India,Bihar,Chhapra,"Darshan Nagar, Chhapra - BSPCB",19-04-2026 09:00:00,25.7808257,84.7446768,NO2,NA,NA,NA
India,Bihar,Chhapra,"Darshan Nagar, Chhapra - BSPCB",19-04-2026 09:00:00,25.7808257,84.7446768,NH3,NA,NA,NA
India,Bihar,Gaya,"Kareemganj, Gaya - BSPCB",19-04-2026 09:00:00,24.792403,84.992416,PM2.5,43,310,150
India,Bihar,Gaya,"Kareemganj, Gaya - BSPCB",19-04-2026 09:00:00,24.792403,84.992416,NH3,1,5,1
India,Bihar,Gaya,"Kareemganj, Gaya - BSPCB",19-04-2026 09:00:00,24.792403,84.992416,CO,1,8,3
India,Bihar,Gaya,"SFTI Kusdihra, Gaya - BSPCB",19-04-2026 09:00:00,24.762518,84.982348,PM2.5,52,93,67
India,Chhattisgarh,Korba,"Rampur, Korba - CECB",19-04-2026 09:00:00,22.368195,82.746431,PM10,72,105,90
India,Chhattisgarh,Korba,"Rampur, Korba - CECB",19-04-2026 09:00:00,22.368195,82.746431,CO,16,43,32
India,Chhattisgarh,Korba,"Rampur, Korba - CECB",19-04-2026 09:00:00,22.368195,82.746431,OZONE,12,43,18
India,Chhattisgarh,Korba,"Urja Nagar, Korba - CECB",19-04-2026 09:00:00,22.348441,82.549611,SO2,3,16,8
India,Chhattisgarh,Kunjemura,"OP Jindal School, Kunjemura - CECB",19-04-2026 09:00:00,22.126650,83.483212,PM10,61,194,91
India,Chhattisgarh,Kunjemura,"OP Jindal School, Kunjemura - CECB",19-04-2026 09:00:00,22.126650,83.483212,OZONE,2,24,6
India,Chhattisgarh,Milupara,"Govt. Higher Secondary School, Milupara - CECB",19-04-2026 09:00:00,22.1910172,83.5197009,NO2,NA,NA,NA
India,Chhattisgarh,Raipur,"AIIMS, Raipur - CECB",19-04-2026 09:00:00,21.258815,81.578979,NO2,34,50,41
India,Chhattisgarh,Raipur,"AIIMS, Raipur - CECB",19-04-2026 09:00:00,21.258815,81.578979,NH3,3,4,3
India,Chhattisgarh,Raipur,"Bhatagaon New ISBT, Raipur - CECB",19-04-2026 09:00:00,21.219665,81.630094,PM10,34,159,76
India,Chhattisgarh,Raipur,"Bhatagaon New ISBT, Raipur - CECB",19-04-2026 09:00:00,21.219665,81.630094,NO2,5,60,29
India,Chhattisgarh,Bhilai,"32Bungalows, Bhilai - CECB",19-04-2026 09:00:00,21.194815,81.314770,SO2,NA,NA,NA
India,Chhattisgarh,Bhilai,"32Bungalows, Bhilai - CECB",19-04-2026 09:00:00,21.194815,81.314770,CO,16,36,22
India,Chhattisgarh,Bhilai,"Civic Center, Bhilai - Bhilai Steel Plant",19-04-2026 09:00:00,21.185571,81.343175,PM2.5,18,70,38
India,Chhattisgarh,Bhilai,"Civic Center, Bhilai - Bhilai Steel Plant",19-04-2026 09:00:00,21.185571,81.343175,NO2,13,14,13
India,Chhattisgarh,Bhilai,"Civic Center, Bhilai - Bhilai Steel Plant",19-04-2026 09:00:00,21.185571,81.343175,SO2,2,10,8
India,Chhattisgarh,Bhilai,"Hathkhoj, Bhilai - CECB",19-04-2026 09:00:00,21.224231,81.408350,PM10,41,101,64
India,Chhattisgarh,Bilaspur,"Mangala, Bilaspur - NTPC",19-04-2026 09:00:00,22.08815,82.13737,PM2.5,100,261,176
India,Chhattisgarh,Bilaspur,"Mangala, Bilaspur - NTPC",19-04-2026 09:00:00,22.08815,82.13737,PM10,82,164,120
India,Chhattisgarh,Chhal,"Nawapara SECL Colony, Chhal - CECB",19-04-2026 09:00:00,22.118125,83.140608,NO2,6,28,16
India,Chhattisgarh,Raipur,"Bhatagaon New ISBT, Raipur - CECB",19-04-2026 09:00:00,21.219665,81.630094,SO2,1,28,10
India,Chhattisgarh,Raipur,"Krishak Nagar, Raipur - CECB",19-04-2026 09:00:00,21.237755,81.705301,OZONE,5,79,20
India,Chhattisgarh,Raipur,"Siltara Phase-II, Raipur - CECB",19-04-2026 09:00:00,21.371751,81.664929,CO,NA,NA,NA
India,Chhattisgarh,Tumidih,"OP Jindal Industrial Park, Tumidih - CECB",19-04-2026 09:00:00,22.06631475,83.33820077,PM10,42,276,113
India,Chhattisgarh,Tumidih,"OP Jindal Industrial Park, Tumidih - CECB",19-04-2026 09:00:00,22.06631475,83.33820077,OZONE,15,98,21
India,Delhi,Delhi,"Alipur, Delhi - DPCC",19-04-2026 09:00:00,28.815329,77.153010,NO2,20,103,61
India,Delhi,Delhi,"Alipur, Delhi - DPCC",19-04-2026 09:00:00,28.815329,77.153010,SO2,2,70,14
India,Delhi,Delhi,"Aya Nagar, Delhi - IMD",19-04-2026 09:00:00,28.4706914,77.1099364,PM10,49,399,183
India,Delhi,Delhi,"Bawana, Delhi - DPCC",19-04-2026 09:00:00,28.776200,77.051074,OZONE,3,60,6
India,Delhi,Delhi,"Burari Crossing, Delhi - IMD",19-04-2026 09:00:00,28.7256504,77.2011573,PM2.5,4,446,212
India,Delhi,Delhi,"CRRI Mathura Road, Delhi - IMD",19-04-2026 09:00:00,28.5512005,77.2735737,NO2,7,70,38
India,Delhi,Delhi,"Cantonment Area, Delhi - DPCC ",19-04-2026 09:00:00,28.594169 ,77.125100 ,SO2,21,39,28
India,Delhi,Delhi,"Cantonment Area, Delhi - DPCC ",19-04-2026 09:00:00,28.594169 ,77.125100 ,CO,39,110,94
India,Delhi,Delhi,"Chandni Chowk, Delhi - IITM",19-04-2026 09:00:00,28.656756,77.227234,PM2.5,80,314,177
India,Bihar,Saharsa,"Police Line, Saharsa - BSPCB",19-04-2026 09:00:00,25.892357,86.590325,CO,34,40,38
India,Bihar,Samastipur,"DM Office_Kasipur, Samastipur - BSPCB",19-04-2026 09:00:00,25.859655,85.77944,PM10,12,105,58
India,Bihar,Sasaram,"Dada Peer, Sasaram - BSPCB",19-04-2026 09:00:00,24.952822,84.002396,PM10,77,137,99
India,Chandigarh,Chandigarh,"Sector 22, Chandigarh - CPCC",19-04-2026 09:00:00,30.735567,76.775714,PM2.5,32,183,67
India,Chandigarh,Chandigarh,"Sector 22, Chandigarh - CPCC",19-04-2026 09:00:00,30.735567,76.775714,NH3,12,31,22
India,Chandigarh,Chandigarh,"Sector 22, Chandigarh - CPCC",19-04-2026 09:00:00,30.735567,76.775714,SO2,5,27,11
India,Chandigarh,Chandigarh,"Sector-25, Chandigarh - CPCC",19-04-2026 09:00:00,30.751462,76.762879,SO2,NA,NA,NA
India,Delhi,Delhi,"Commonwealth Sports Complex, Delhi - DPCC",19-04-2026 09:00:00,28.615828 ,77.271992 ,PM10,102,419,206
India,Delhi,Delhi,"Commonwealth Sports Complex, Delhi - DPCC",19-04-2026 09:00:00,28.615828 ,77.271992 ,NO2,2,161,62
India,Delhi,Delhi,"Commonwealth Sports Complex, Delhi - DPCC",19-04-2026 09:00:00,28.615828 ,77.271992 ,OZONE,1,300,2
India,Delhi,Delhi,"DTU, Delhi - CPCB",19-04-2026 09:00:00,28.7500499,77.1112615,CO,18,105,97
India,Delhi,Delhi,"Dr. Karni Singh Shooting Range, Delhi - DPCC",19-04-2026 09:00:00,28.498571,77.264840,PM2.5,32,437,188
India,Delhi,Delhi,"Dr. Karni Singh Shooting Range, Delhi - DPCC",19-04-2026 09:00:00,28.498571,77.264840,OZONE,3,113,10
India,Delhi,Delhi,"IGNOU_Maidan Garhi, Delhi - DPCC",19-04-2026 09:00:00,28.493624 ,77.201159 ,SO2,6,19,12
India,Delhi,Delhi,"IHBAS, Dilshad Garden, Delhi - CPCB",19-04-2026 09:00:00,28.6811736,77.3025234,PM10,80,321,176
India,Delhi,Delhi,"IHBAS, Dilshad Garden, Delhi - CPCB",19-04-2026 09:00:00,28.6811736,77.3025234,SO2,1,74,23
India,Delhi,Delhi,"JNU, Delhi - DPCC",19-04-2026 09:00:00,28.540721 ,77.168544 ,NO2,9,88,44
India,Delhi,Delhi,"Anand Vihar, Delhi - DPCC",19-04-2026 09:00:00,28.647622,77.3158090,NO2,65,145,91
India,Delhi,Delhi,"Anand Vihar, Delhi - DPCC",19-04-2026 09:00:00,28.647622,77.3158090,SO2,8,36,17
India,Delhi,Delhi,"Anand Vihar, Delhi - DPCC",19-04-2026 09:00:00,28.647622,77.3158090,CO,42,139,133
India,Delhi,Delhi,"Anand Vihar, Delhi - DPCC",19-04-2026 09:00:00,28.647622,77.3158090,OZONE,1,500,5
India,Delhi,Delhi,"IGI Airport (T3), Delhi - IMD",19-04-2026 09:00:00,28.5627763,77.1180053,OZONE,12,85,15
India,Delhi,Delhi,"IGNOU_Maidan Garhi, Delhi - DPCC",19-04-2026 09:00:00,28.493624 ,77.201159 ,NO2,16,115,69
India,Delhi,Delhi,"NSIT Dwarka, Delhi - CPCB",19-04-2026 09:00:00,28.60909,77.0325413,CO,41,101,51
India,Delhi,Delhi,"NSIT Dwarka, Delhi - CPCB",19-04-2026 09:00:00,28.60909,77.0325413,OZONE,16,86,17
India,Delhi,Delhi,"NSUT Jaffarpur, Delhi - DPCC",19-04-2026 09:00:00,28.594004 ,76.909423 ,SO2,14,108,48
India,Delhi,Delhi,"NSUT Jaffarpur, Delhi - DPCC",19-04-2026 09:00:00,28.594004 ,76.909423 ,CO,35,90,82
India,Delhi,Delhi,"Najafgarh, Delhi - DPCC",19-04-2026 09:00:00,28.570173,76.933762,NH3,13,15,13
India,Delhi,Delhi,"Narela, Delhi - DPCC",19-04-2026 09:00:00,28.822836,77.101981,PM10,98,462,237
India,Delhi,Delhi,"Narela, Delhi - DPCC",19-04-2026 09:00:00,28.822836,77.101981,SO2,5,106,29
India,Delhi,Delhi,"Nehru Nagar, Delhi - DPCC",19-04-2026 09:00:00,28.567890,77.250515,OZONE,1,70,3
India,Delhi,Delhi,"New Moti Bagh, Delhi - MHUA",19-04-2026 09:00:00,28.57834,77.18400,CO,22,144,103
India,Delhi,Delhi,"North Campus, DU, Delhi - IMD",19-04-2026 09:00:00,28.6573814,77.1585447,PM10,64,442,239
India,Delhi,Delhi,"North Campus, DU, Delhi - IMD",19-04-2026 09:00:00,28.6573814,77.1585447,CO,26,190,151
India,Delhi,Delhi,"Patparganj, Delhi - DPCC",19-04-2026 09:00:00,28.623763,77.287209,NH3,9,21,13
India,Delhi,Delhi,"Patparganj, Delhi - DPCC",19-04-2026 09:00:00,28.623763,77.287209,SO2,12,52,24
India,Delhi,Delhi,"Patparganj, Delhi - DPCC",19-04-2026 09:00:00,28.623763,77.287209,CO,44,189,101
India,Delhi,Delhi,"Punjabi Bagh, Delhi - DPCC",19-04-2026 09:00:00,28.674045,77.131023,PM10,78,472,278
India,Delhi,Delhi,"Punjabi Bagh, Delhi - DPCC",19-04-2026 09:00:00,28.674045,77.131023,CO,44,125,76
India,Delhi,Delhi,"Pusa, Delhi - DPCC",19-04-2026 09:00:00,28.639652,77.146275,NO2,48,155,87
India,Delhi,Delhi,"Pusa, Delhi - DPCC",19-04-2026 09:00:00,28.639652,77.146275,CO,62,124,93
India,Delhi,Delhi,"Pusa, Delhi - DPCC",19-04-2026 09:00:00,28.639652,77.146275,OZONE,2,24,4
India,Delhi,Delhi,"Pusa, Delhi - IMD",19-04-2026 09:00:00,28.636110,77.173332,PM2.5,34,390,187
India,Delhi,Delhi,"Pusa, Delhi - IMD",19-04-2026 09:00:00,28.636110,77.173332,OZONE,17,147,18
India,Delhi,Delhi,"Jahangirpuri, Delhi - DPCC",19-04-2026 09:00:00,28.732820,77.170633,CO,4,164,109
India,Delhi,Delhi,"Jawaharlal Nehru Stadium, Delhi - DPCC",19-04-2026 09:00:00,28.580280,77.233829,NO2,38,151,102
India,Delhi,Delhi,"Jawaharlal Nehru Stadium, Delhi - DPCC",19-04-2026 09:00:00,28.580280,77.233829,CO,24,157,70
India,Delhi,Delhi,"Major Dhyan Chand National Stadium, Delhi - DPCC",19-04-2026 09:00:00,28.611281,77.237738,NO2,16,153,79
India,Delhi,Delhi,"Mundka, Delhi - DPCC",19-04-2026 09:00:00,28.684678,77.076574,NO2,24,74,52
India,Delhi,Delhi,"NSIT Dwarka, Delhi - CPCB",19-04-2026 09:00:00,28.60909,77.0325413,PM2.5,64,311,176
India,Gujarat,Bhavnagar,"Vidhyanagar, Bhavnagar - Nexteng Enviro",19-04-2026 09:00:00,21.755417,72.139056,NH3,3,4,4
India,Gujarat,Bhavnagar,"Vidhyanagar, Bhavnagar - Nexteng Enviro",19-04-2026 09:00:00,21.755417,72.139056,OZONE,3,27,5
India,Gujarat,Gandhinagar,"GIFT City, Gandhinagar - IITM",19-04-2026 09:00:00,23.163798,72.677768,NO2,18,67,32
India,Gujarat,Gandhinagar,"GIFT City, Gandhinagar - IITM",19-04-2026 09:00:00,23.163798,72.677768,SO2,6,21,12
India,Gujarat,Gandhinagar,"IIPHG Lekawada, Gandhinagar - IITM",19-04-2026 09:00:00,23.243639,72.68994,NO2,6,31,13
India,Gujarat,Mehsana,"Sadanand Nagar, Mehsana - Nexteng Enviro",19-04-2026 09:00:00,23.593150,72.372792,CO,52,73,56
India,Delhi,Delhi,"Talkatora Garden, Delhi - DPCC",19-04-2026 09:00:00,28.621810,77.1944633,NH3,NA,NA,NA
India,Gujarat,Ahmedabad,"Chandkheda, Ahmedabad - IITM",19-04-2026 09:00:00,23.107969,72.574648,PM10,75,184,118
India,Gujarat,Ahmedabad,"Chandkheda, Ahmedabad - IITM",19-04-2026 09:00:00,23.107969,72.574648,NH3,2,9,6
India,Gujarat,Ahmedabad,"Gyaspur, Ahmedabad - IITM",19-04-2026 09:00:00,22.977134,72.553024,PM2.5,26,248,78
India,Gujarat,Ahmedabad,"Gyaspur, Ahmedabad - IITM",19-04-2026 09:00:00,22.977134,72.553024,SO2,29,125,77
India,Gujarat,Ahmedabad,"Maninagar, Ahmedabad - GPCB",19-04-2026 09:00:00,23.002657,72.591912,NO2,85,90,88
India,Gujarat,Ahmedabad,"Raikhad, Ahmedabad - IITM",19-04-2026 09:00:00,23.020509,72.579261,PM10,81,204,110
India,Gujarat,Ahmedabad,"Raikhad, Ahmedabad - IITM",19-04-2026 09:00:00,23.020509,72.579261,SO2,6,38,17
India,Gujarat,Ahmedabad,"Rakhial, Ahmedabad - IITM",19-04-2026 09:00:00,23.016834,72.625775,PM10,90,367,138
India,Gujarat,Ahmedabad,"SVPI Airport Hansol, Ahmedabad - IITM",19-04-2026 09:00:00,23.076793,72.627874,NO2,9,83,29
India,Gujarat,Ankleshwar,"GIDC, Ankleshwar - GPCB",19-04-2026 09:00:00,21.613267,73.010555,NO2,24,25,25
India,Delhi,Delhi,"R K Puram, Delhi - DPCC",19-04-2026 09:00:00,28.563262,77.186937,CO,18,156,92
India,Delhi,Delhi,"Shadipur, Delhi - CPCB",19-04-2026 09:00:00,28.6514781,77.1473105,PM10,50,401,147
India,Delhi,Delhi,"Shadipur, Delhi - CPCB",19-04-2026 09:00:00,28.6514781,77.1473105,OZONE,9,50,11
India,Delhi,Delhi,"Sirifort, Delhi - CPCB",19-04-2026 09:00:00,28.5504249,77.2159377,NO2,18,42,33
India,Delhi,Delhi,"Sri Aurobindo Marg, Delhi - DPCC",19-04-2026 09:00:00,28.531346,77.190156,NH3,7,11,9
India,Gujarat,Vapi,"Phase-1 GIDC, Vapi - GPCB",19-04-2026 09:00:00,20.362421,72.918013,PM2.5,73,232,125
India,Gujarat,Vatva,"Phase-4 GIDC, Vatva - GPCB",19-04-2026 09:00:00,22.969611,72.643500,PM2.5,31,426,117
India,Gujarat,Vatva,"Phase-4 GIDC, Vatva - GPCB",19-04-2026 09:00:00,22.969611,72.643500,CO,2,103,6
India,Haryana,Ambala,"Patti Mehar, Ambala - HSPCB",19-04-2026 09:00:00,30.379589,76.778328,CO,22,49,23
India,Gujarat,Nandesari,"GIDC, Nandesari - Nandesari Ind. Association",19-04-2026 09:00:00,22.410802,73.097923,SO2,3,36,9
India,Gujarat,Rajkot,"Mavdi, Rajkot - Nexteng Enviro ",19-04-2026 09:00:00,22.248853,70.776774,SO2,10,101,31
India,Karnataka,Bengaluru,"Bapuji Nagar, Bengaluru - KSPCB",19-04-2026 09:00:00,12.951913,77.539784,NH3,1,3,2
India,Karnataka,Bengaluru,"Hebbal, Bengaluru - KSPCB",19-04-2026 09:00:00,13.029152,77.585901,NO2,25,157,67
India,Karnataka,Bengaluru,"Hebbal, Bengaluru - KSPCB",19-04-2026 09:00:00,13.029152,77.585901,OZONE,38,177,60
India,Karnataka,Bengaluru,"Hombegowda Nagar, Bengaluru - KSPCB",19-04-2026 09:00:00,12.938539,77.590100,PM2.5,63,126,85
India,Karnataka,Bengaluru,"Hombegowda Nagar, Bengaluru - KSPCB",19-04-2026 09:00:00,12.938539,77.590100,PM10,81,134,102
India,Karnataka,Bengaluru,"Hombegowda Nagar, Bengaluru - KSPCB",19-04-2026 09:00:00,12.938539,77.590100,NO2,14,49,27
India,Karnataka,Bengaluru,"Hombegowda Nagar, Bengaluru - KSPCB",19-04-2026 09:00:00,12.938539,77.590100,SO2,7,30,12
India,Karnataka,Bengaluru,"Hombegowda Nagar, Bengaluru - KSPCB",19-04-2026 09:00:00,12.938539,77.590100,OZONE,36,114,53
India,Karnataka,Bengaluru,"Jigani, Bengaluru - KSPCB",19-04-2026 09:00:00,12.7816279,77.6299145,SO2,18,19,18
India,Karnataka,Bengaluru,"Kasturi Nagar, Bengaluru - KSPCB",19-04-2026 09:00:00,13.003872,77.664217,PM10,92,94,93
India,Jharkhand,Jorapokhar,"Tata Stadium, Jorapokhar - JSPCB",19-04-2026 09:00:00,23.707909,86.414670,PM10,44,424,112
India,Karnataka,Bagalkot,"Vidayagiri, Bagalkot - KSPCB",19-04-2026 09:00:00,16.172806,75.659694,PM10,27,54,52
India,Karnataka,Bagalkot,"Vidayagiri, Bagalkot - KSPCB",19-04-2026 09:00:00,16.172806,75.659694,SO2,3,7,7
India,Karnataka,Bagalkot,"Vidayagiri, Bagalkot - KSPCB",19-04-2026 09:00:00,16.172806,75.659694,OZONE,6,12,12
India,Karnataka,Bengaluru,"BTM Layout, Bengaluru - CPCB",19-04-2026 09:00:00,12.9135218,77.5950804,NO2,23,24,23
India,Karnataka,Bengaluru,"BWSSB Kadabesanahalli, Bengaluru - CPCB",19-04-2026 09:00:00,12.9352049,77.6814488,SO2,2,8,5
India,Karnataka,Bengaluru,"Bapuji Nagar, Bengaluru - KSPCB",19-04-2026 09:00:00,12.951913,77.539784,PM2.5,34,73,54
India,Haryana,Sonipat,"Murthal, Sonipat - HSPCB",19-04-2026 09:00:00,29.027200,77.062100,SO2,1,24,10
India,Himachal Pradesh,Baddi,"HIMUDA Complex Phase-1, Baddi - HPPCB",19-04-2026 09:00:00,30.943887,76.801991,PM2.5,45,308,107
India,Himachal Pradesh,Baddi,"HIMUDA Complex Phase-1, Baddi - HPPCB",19-04-2026 09:00:00,30.943887,76.801991,SO2,17,19,19
India,Jammu_and_Kashmir,Srinagar,"Khunmoh, Srinagar - JKPCC",19-04-2026 09:00:00,34.06313,74.96017,PM2.5,6,26,15
India,Jammu_and_Kashmir,Srinagar,"Khunmoh, Srinagar - JKPCC",19-04-2026 09:00:00,34.06313,74.96017,NO2,3,17,9
India,Jammu_and_Kashmir,Srinagar,"Khunmoh, Srinagar - JKPCC",19-04-2026 09:00:00,34.06313,74.96017,SO2,3,4,4
India,Jammu_and_Kashmir,Srinagar,"Rajbagh, Srinagar - JKPCC",19-04-2026 09:00:00,34.066206,74.819820,PM2.5,11,30,18
India,Haryana,Faridabad,"Sector 30, Faridabad - HSPCB",19-04-2026 09:00:00,28.4417,77.3217,SO2,6,6,6
India,Haryana,Faridabad,"Sector 30, Faridabad - HSPCB",19-04-2026 09:00:00,28.4417,77.3217,CO,60,65,63
India,Haryana,Faridabad,"Sector 30, Faridabad - HSPCB",19-04-2026 09:00:00,28.4417,77.3217,OZONE,10,10,10
India,Haryana,Gurugram,"Sector-51, Gurugram - HSPCB",19-04-2026 09:00:00,28.4227,77.0667,NH3,6,10,8
India,Haryana,Gurugram,"Teri Gram, Gurugram - HSPCB",19-04-2026 09:00:00,28.4275,77.1465,PM10,111,137,119
India,Haryana,Gurugram,"Teri Gram, Gurugram - HSPCB",19-04-2026 09:00:00,28.4275,77.1465,SO2,6,13,9
India,Haryana,Hisar,"Urban Estate-II, Hisar - HSPCB",19-04-2026 09:00:00,29.140560,75.744941,NH3,8,13,13
India,Haryana,Hisar,"Urban Estate-II, Hisar - HSPCB",19-04-2026 09:00:00,29.140560,75.744941,SO2,5,24,12
India,Haryana,Bhiwani,"H.B. Colony, Bhiwani - HSPCB",19-04-2026 09:00:00,28.806223,76.141105,SO2,1,13,6
India,Haryana,Bhiwani,"H.B. Colony, Bhiwani - HSPCB",19-04-2026 09:00:00,28.806223,76.141105,CO,1,8,6
India,Haryana,Charkhi Dadri,"Mini Secretariat, Charkhi Dadri - HSPCB",19-04-2026 09:00:00,28.593883,76.270653,PM2.5,62,419,255
India,Haryana,Dharuhera,"Municipal Corporation Office, Dharuhera -  HSPCB",19-04-2026 09:00:00,28.206800,76.799700,PM10,74,173,125
India,Haryana,Dharuhera,"Municipal Corporation Office, Dharuhera -  HSPCB",19-04-2026 09:00:00,28.206800,76.799700,NH3,9,27,19
India,Haryana,Dharuhera,"Municipal Corporation Office, Dharuhera -  HSPCB",19-04-2026 09:00:00,28.206800,76.799700,SO2,6,7,6
India,Haryana,Dharuhera,"Municipal Corporation Office, Dharuhera -  HSPCB",19-04-2026 09:00:00,28.206800,76.799700,CO,54,102,84
India,Haryana,Jind,"Police Lines, Jind - HSPCB",19-04-2026 09:00:00,29.307814,76.337619,OZONE,1,47,17
India,Haryana,Kaithal,"Rishi Nagar, Kaithal - HSPCB",19-04-2026 09:00:00,29.8006,76.4155,PM2.5,64,287,130
India,Haryana,Kaithal,"Rishi Nagar, Kaithal - HSPCB",19-04-2026 09:00:00,29.8006,76.4155,PM10,79,191,123
India,Haryana,Kaithal,"Rishi Nagar, Kaithal - HSPCB",19-04-2026 09:00:00,29.8006,76.4155,NH3,5,6,6
India,Haryana,Karnal,"Sector-12, Karnal - HSPCB",19-04-2026 09:00:00,29.695300,77.002700,PM10,15,125,90
India,Haryana,Karnal,"Sector-12, Karnal - HSPCB",19-04-2026 09:00:00,29.695300,77.002700,SO2,7,107,21
India,Haryana,Karnal,"Sector-12, Karnal - HSPCB",19-04-2026 09:00:00,29.695300,77.002700,CO,12,84,16
India,Haryana,Narnaul,"Shastri Nagar, Narnaul - HSPCB",19-04-2026 09:00:00,28.060249,76.113115,PM2.5,71,191,112
India,Haryana,Palwal,"Shyam Nagar, Palwal - HSPCB",19-04-2026 09:00:00,28.1485564,77.3320667,NO2,23,24,24
India,Haryana,Palwal,"Shyam Nagar, Palwal - HSPCB",19-04-2026 09:00:00,28.1485564,77.3320667,SO2,12,13,12
India,Haryana,Panchgaon,"Amity University, Panchgaon - IITM",19-04-2026 09:00:00,28.3153,76.9143,NH3,2,7,4
India,Haryana,Faridabad,"Sector 11, Faridabad - HSPCB",19-04-2026 09:00:00,28.376058,77.315741,NO2,29,33,31
India,Haryana,Faridabad,"Sector 30, Faridabad - HSPCB",19-04-2026 09:00:00,28.4417,77.3217,PM2.5,53,67,56
India,Haryana,Faridabad,"Sector 30, Faridabad - HSPCB",19-04-2026 09:00:00,28.4417,77.3217,PM10,61,78,66
India,Haryana,Panipat,"Sector-18, Panipat - HSPCB",19-04-2026 09:00:00,29.432304,76.972765,SO2,18,19,19
India,Madhya Pradesh,Katni,"Gole Bazar, Katni - MPPCB",19-04-2026 09:00:00,23.50016,80.23284,NO2,19,74,38
India,Madhya Pradesh,Katni,"Gole Bazar, Katni - MPPCB",19-04-2026 09:00:00,23.50016,80.23284,OZONE,11,178,35
India,Madhya Pradesh,Mandideep,"Sector-D Industrial Area, Mandideep - MPPCB",19-04-2026 09:00:00,23.108440,77.511428,NH3,NA,NA,NA
India,Madhya Pradesh,Pithampur,"Sector-2 Industrial Area, Pithampur - MPPCB",19-04-2026 09:00:00,22.624758,75.675238,SO2,5,85,17
India,Madhya Pradesh,Ratlam,"Shasthri Nagar, Ratlam - IPCA Lab",19-04-2026 09:00:00,23.331731,75.045981,PM2.5,19,95,46
India,Madhya Pradesh,Ratlam,"Shasthri Nagar, Ratlam - IPCA Lab",19-04-2026 09:00:00,23.331731,75.045981,SO2,39,44,41
India,Madhya Pradesh,Sagar,"Civil Lines, Sagar - MPPCB",19-04-2026 09:00:00,23.838586,78.759431,NO2,10,105,26
India,Madhya Pradesh,Sagar,"Civil Lines, Sagar - MPPCB",19-04-2026 09:00:00,23.838586,78.759431,NH3,1,5,2
India,Madhya Pradesh,Sagar,"Civil Lines, Sagar - MPPCB",19-04-2026 09:00:00,23.838586,78.759431,OZONE,35,157,62
India,Madhya Pradesh,Sagar,"Deen Dayal Nagar, Sagar - MPPCB",19-04-2026 09:00:00,23.8640158,78.80289321,PM2.5,16,153,65
India,Madhya Pradesh,Sagar,"Deen Dayal Nagar, Sagar - MPPCB",19-04-2026 09:00:00,23.8640158,78.80289321,NO2,5,72,31
India,Madhya Pradesh,Gwalior,"Deen Dayal Nagar, Gwalior - MPPCB",19-04-2026 09:00:00,26.259242,78.216432,OZONE,19,122,29
India,Madhya Pradesh,Gwalior,"Maharaj Bada, Gwalior - MPPCB",19-04-2026 09:00:00,26.200388,78.147714,SO2,6,92,24
India,Madhya Pradesh,Gwalior,"Maharaj Bada, Gwalior - MPPCB",19-04-2026 09:00:00,26.200388,78.147714,CO,28,175,78
India,Madhya Pradesh,Gwalior,"Maharaj Bada, Gwalior - MPPCB",19-04-2026 09:00:00,26.200388,78.147714,OZONE,6,212,56
India,Madhya Pradesh,Indore,"Airport Area, Indore - IMC",19-04-2026 09:00:00,22.7289,75.8076,PM10,34,164,72
India,Madhya Pradesh,Indore,"Chhoti Gwaltoli, Indore - MPPCB",19-04-2026 09:00:00,22.4310,75.5213,NH3,6,21,16
India,Madhya Pradesh,Indore,"Chhoti Gwaltoli, Indore - MPPCB",19-04-2026 09:00:00,22.4310,75.5213,SO2,5,24,13
India,Madhya Pradesh,Indore,"Chhoti Gwaltoli, Indore - MPPCB",19-04-2026 09:00:00,22.4310,75.5213,CO,24,121,39
India,Madhya Pradesh,Indore,"Chhoti Gwaltoli, Indore - MPPCB",19-04-2026 09:00:00,22.4310,75.5213,OZONE,1,59,14
India,Madhya Pradesh,Indore,"Maguda Nagar, Indore - IMC",19-04-2026 09:00:00,22.7524,75.8872,PM10,25,127,61
India,Madhya Pradesh,Indore,"Regional Park, Indore - IMC",19-04-2026 09:00:00,22.6780,75.8559,PM2.5,3,118,57
India,Karnataka,Yadgir,"Collector Office, Yadgir - KSPCB",19-04-2026 09:00:00,16.7602,77.1428,PM10,82,147,108
India,Karnataka,Yadgir,"Collector Office, Yadgir - KSPCB",19-04-2026 09:00:00,16.7602,77.1428,SO2,7,14,11
India,Karnataka,Yadgir,"Collector Office, Yadgir - KSPCB",19-04-2026 09:00:00,16.7602,77.1428,OZONE,9,32,31
India,Kerala,Kannur,"Thavakkara, Kannur - Kerala PCB",19-04-2026 09:00:00,11.875000,75.373200,PM10,57,65,59
India,Kerala,Kollam,"Polayathode, Kollam - Kerala PCB",19-04-2026 09:00:00,8.8787,76.6073,SO2,2,3,2
India,Kerala,Thiruvananthapuram,"Plammoodu, Thiruvananthapuram - Kerala PCB",19-04-2026 09:00:00,8.5149093,76.9435879,PM10,46,80,62
India,Kerala,Thiruvananthapuram,"Plammoodu, Thiruvananthapuram - Kerala PCB",19-04-2026 09:00:00,8.5149093,76.9435879,OZONE,15,150,21
India,Kerala,Thrissur,"Corporation Ground, Thrissur - Kerala PCB",19-04-2026 09:00:00,10.532400,76.215900,NO2,7,9,8
India,Kerala,Thrissur,"Corporation Ground, Thrissur - Kerala PCB",19-04-2026 09:00:00,10.532400,76.215900,OZONE,29,29,29
India,Karnataka,Bengaluru,"Kasturi Nagar, Bengaluru - KSPCB",19-04-2026 09:00:00,13.003872,77.664217,OZONE,20,21,21
India,Karnataka,Bengaluru,"RVCE-Mailasandra, Bengaluru - KSPCB",19-04-2026 09:00:00,12.921418,77.502466,PM2.5,NA,NA,NA
India,Karnataka,Bengaluru,"RVCE-Mailasandra, Bengaluru - KSPCB",19-04-2026 09:00:00,12.921418,77.502466,PM10,NA,NA,NA
India,Karnataka,Bengaluru,"RVCE-Mailasandra, Bengaluru - KSPCB",19-04-2026 09:00:00,12.921418,77.502466,CO,2,34,16
India,Karnataka,Bengaluru,"Shivapura_Peenya, Bengaluru - KSPCB",19-04-2026 09:00:00,13.0246342,77.5080115,NO2,23,24,23
India,Karnataka,Bengaluru,"Silk Board, Bengaluru - KSPCB",19-04-2026 09:00:00,12.917348,77.622813,NO2,7,28,11
India,Karnataka,Bengaluru,"Silk Board, Bengaluru - KSPCB",19-04-2026 09:00:00,12.917348,77.622813,SO2,4,13,7
India,Karnataka,Chamarajanagar,"Urban, Chamarajanagar - KSPCB",19-04-2026 09:00:00,11.55358,76.55521,OZONE,13,38,15
India,Karnataka,Chikkaballapur,"Chikkaballapur Rural, Chikkaballapur - KSPCB",19-04-2026 09:00:00,13.428828,77.731418,NH3,NA,NA,NA
India,Madhya Pradesh,Singrauli,"Suryakiran Bhawan NCL, Singrauli - MPPCB",19-04-2026 09:00:00,24.108970,82.645580,OZONE,3,15,3
India,Maharashtra,Ahmednagar,"Tarakpur, Ahmednagar - MPCB",19-04-2026 09:00:00,19.10122,74.73339,NH3,NA,NA,NA
India,Maharashtra,Ahmednagar,"Tarakpur, Ahmednagar - MPCB",19-04-2026 09:00:00,19.10122,74.73339,SO2,NA,NA,NA
India,Maharashtra,Akola,"Ramdaspeth, Akola - MPCB",19-04-2026 09:00:00,20.719516,77.000253,NO2,6,53,19
India,Maharashtra,Akola,"Ramdaspeth, Akola - MPCB",19-04-2026 09:00:00,20.719516,77.000253,SO2,17,36,26
India,Maharashtra,Ambernath,"Chinchpada, Ambernath - MPCB",19-04-2026 09:00:00,19.2157840,73.1997810,PM2.5,35,126,63
India,Maharashtra,Ambernath,"Chinchpada, Ambernath - MPCB",19-04-2026 09:00:00,19.2157840,73.1997810,PM10,46,114,73
India,Maharashtra,Ambernath,"Chinchpada, Ambernath - MPCB",19-04-2026 09:00:00,19.2157840,73.1997810,NH3,3,7,5
India,Madhya Pradesh,Bhopal,"Paryavaran Parisar, Bhopal - MPPCB",19-04-2026 09:00:00,23.210494,77.425409,NH3,4,8,6
India,Madhya Pradesh,Bhopal,"T T Nagar, Bhopal - MPPCB",19-04-2026 09:00:00,23.233584,77.400574,PM2.5,31,178,79
India,Madhya Pradesh,Bhopal,"T T Nagar, Bhopal - MPPCB",19-04-2026 09:00:00,23.233584,77.400574,CO,23,92,52
India,Madhya Pradesh,Damoh,"Shrivastav Colony, Damoh - MPPCB",19-04-2026 09:00:00,23.81748678,79.446246,PM2.5,38,166,85
India,Madhya Pradesh,Dewas,"Bhopal Chauraha, Dewas - MPPCB",19-04-2026 09:00:00,22.9682591,76.064118,NO2,70,136,103
India,Madhya Pradesh,Dewas,"Bhopal Chauraha, Dewas - MPPCB",19-04-2026 09:00:00,22.9682591,76.064118,SO2,9,42,22
India,Madhya Pradesh,Gwalior,"City Center, Gwalior - MPPCB",19-04-2026 09:00:00,26.203442,78.193251,NH3,3,6,5
India,Madhya Pradesh,Indore,"Residency Area, Indore - IMC",19-04-2026 09:00:00,22.7084,75.8815,OZONE,5,16,5
India,Madhya Pradesh,Jabalpur,"Govindh Bhavan Colony, Jabalpur - JMC",19-04-2026 09:00:00,23.163174,79.973061,NO2,10,15,12
India,Madhya Pradesh,Jabalpur,"Govindh Bhavan Colony, Jabalpur - JMC",19-04-2026 09:00:00,23.163174,79.973061,CO,12,48,21
India,Madhya Pradesh,Jabalpur,"Gupteshwar, Jabalpur - JMC",19-04-2026 09:00:00,23.142888,79.916147,NO2,8,9,8
India,Madhya Pradesh,Jabalpur,"Gupteshwar, Jabalpur - JMC",19-04-2026 09:00:00,23.142888,79.916147,NH3,2,2,2
India,Madhya Pradesh,Jabalpur,"Marhatal, Jabalpur - MPPCB",19-04-2026 09:00:00,23.168606,79.932247,CO,91,128,106
India,Madhya Pradesh,Jabalpur,"Suhagi, Jabalpur - JMC",19-04-2026 09:00:00,23.218135,79.957770,PM2.5,37,127,60
India,Karnataka,Chikkamagaluru,"Kalyana Nagara, Chikkamagaluru - KSPCB",19-04-2026 09:00:00,13.328028,75.797056,SO2,4,4,4
India,Karnataka,Hubballi,"Lingaraj Nagar, Hubballi - KSPCB",19-04-2026 09:00:00,15.3714823,75.1160168,NO2,7,7,7
India,Karnataka,Kalaburagi,"Mahatma Basaveswar Colony, Kalaburgi - KSPCB",19-04-2026 09:00:00,17.336318,76.847397,PM10,24,74,46
India,Karnataka,Koppal,"Diwator Nagar, Koppal - KSPCB",19-04-2026 09:00:00,15.347630,76.181767,NO2,28,31,30
India,Karnataka,Koppal,"Diwator Nagar, Koppal - KSPCB",19-04-2026 09:00:00,15.347630,76.181767,NH3,7,8,8
India,Karnataka,Madikeri,"Stuart Hill, Madikeri - KSPCB",19-04-2026 09:00:00,12.415911,75.735050,CO,10,19,15
India,Karnataka,Mysuru,"Hebbal 1st Stage, Mysuru - KSPCB",19-04-2026 09:00:00,12.21041,76.37376,CO,8,32,30
India,Karnataka,Ramanagara,"Vijay Nagar, Ramanagara - KSPCB",19-04-2026 09:00:00,12.733409,77.298051,OZONE,11,67,27
India,Karnataka,Shivamogga,"Vinoba Nagara, Shivamogga - KSPCB",19-04-2026 09:00:00,13.940000,75.555917,NH3,3,3,3
India,Karnataka,Tumakuru,"Thimmalapura, Tumakuru - KSPCB",19-04-2026 09:00:00,13.377516,77.099072,NO2,24,24,24
India,Karnataka,Vijayapura,"Ibrahimpur, Vijayapura - KSPCB",19-04-2026 09:00:00,16.802639,75.722694,NO2,11,12,11
India,Maharashtra,Mumbai,"Chhatrapati Shivaji Intl. Airport (T2), Mumbai - MPCB",19-04-2026 09:00:00,19.10078,72.87462,PM10,52,107,79
India,Maharashtra,Mumbai,"Deonar, Mumbai - IITM",19-04-2026 09:00:00,19.04946,72.9230,NH3,11,20,13
India,Maharashtra,Mumbai,"Deonar, Mumbai - IITM",19-04-2026 09:00:00,19.04946,72.9230,SO2,1,6,3
India,Maharashtra,Mumbai,"Ghatkopar, Mumbai - BMC",19-04-2026 09:00:00,19.083694,72.920967,NH3,7,27,13
India,Maharashtra,Mumbai,"Ghatkopar, Mumbai - BMC",19-04-2026 09:00:00,19.083694,72.920967,SO2,2,5,3
India,Maharashtra,Mumbai,"Ghatkopar, Mumbai - BMC",19-04-2026 09:00:00,19.083694,72.920967,CO,1,60,6
India,Maharashtra,Mumbai,"Ghatkopar, Mumbai - BMC",19-04-2026 09:00:00,19.083694,72.920967,OZONE,3,60,10
India,Maharashtra,Mumbai,"Kherwadi_Bandra East, Mumbai - MPCB",19-04-2026 09:00:00,19.0632143,72.8456324,NH3,8,22,15
India,Maharashtra,Mumbai,"Kherwadi_Bandra East, Mumbai - MPCB",19-04-2026 09:00:00,19.0632143,72.8456324,CO,15,39,24
India,Maharashtra,Mumbai,"Khindipada-Bhandup West, Mumbai - IITM",19-04-2026 09:00:00,19.1653323,72.922099,PM2.5,6,87,42
India,Maharashtra,Mumbai,"Khindipada-Bhandup West, Mumbai - IITM",19-04-2026 09:00:00,19.1653323,72.922099,PM10,41,126,81
India,Maharashtra,Mumbai,"Khindipada-Bhandup West, Mumbai - IITM",19-04-2026 09:00:00,19.1653323,72.922099,NO2,13,42,21
India,Maharashtra,Mumbai,"Khindipada-Bhandup West, Mumbai - IITM",19-04-2026 09:00:00,19.1653323,72.922099,NH3,4,5,4
India,Maharashtra,Mumbai,"Khindipada-Bhandup West, Mumbai - IITM",19-04-2026 09:00:00,19.1653323,72.922099,SO2,9,17,14
India,Maharashtra,Mumbai,"Khindipada-Bhandup West, Mumbai - IITM",19-04-2026 09:00:00,19.1653323,72.922099,CO,4,36,14
India,Maharashtra,Mumbai,"Khindipada-Bhandup West, Mumbai - IITM",19-04-2026 09:00:00,19.1653323,72.922099,OZONE,24,80,36
India,Maharashtra,Mumbai,"Kurla, Mumbai - MPCB",19-04-2026 09:00:00,19.0863,72.8888,PM10,NA,NA,NA
India,Maharashtra,Dhule,"Deopur, Dhule - MPCB",19-04-2026 09:00:00,20.918946,74.776388,PM10,99,143,125
India,Maharashtra,Dhule,"Deopur, Dhule - MPCB",19-04-2026 09:00:00,20.918946,74.776388,CO,2,43,17
India,Maharashtra,Dombivli,"Kalu Nagar, Dombivli - MPCB",19-04-2026 09:00:00,19.2268427 ,73.0788456 ,NO2,13,67,28
India,Maharashtra,Dombivli,"Kalu Nagar, Dombivli - MPCB",19-04-2026 09:00:00,19.2268427 ,73.0788456 ,SO2,1,35,7
India,Maharashtra,Dombivli,"Kalu Nagar, Dombivli - MPCB",19-04-2026 09:00:00,19.2268427 ,73.0788456 ,CO,8,61,34
India,Maharashtra,Hingoli,"Ashta Vinayak Nagar, Hingoli - MPCB",19-04-2026 09:00:00,19.710842,77.151824,PM2.5,15,93,46
India,Maharashtra,Hingoli,"Ashta Vinayak Nagar, Hingoli - MPCB",19-04-2026 09:00:00,19.710842,77.151824,CO,14,57,47
India,Maharashtra,Jalgaon,"Prabhat Colony, Jalgaon - MPCB",19-04-2026 09:00:00,21.001264,75.565602,NO2,NA,NA,NA
India,Maharashtra,Jalna,"Old MIDC, Jalna - MPCB",19-04-2026 09:00:00,19.854616,75.905894,NO2,19,27,21
India,Maharashtra,Jalna,"Old MIDC, Jalna - MPCB",19-04-2026 09:00:00,19.854616,75.905894,CO,8,53,20
India,Maharashtra,Kolhapur,"Shivaji University, Kolhapur - MPCB",19-04-2026 09:00:00,16.6870449,74.2505872,NH3,3,4,3
India,Maharashtra,Mumbai,"Kurla, Mumbai - MPCB",19-04-2026 09:00:00,19.0863,72.8888,NH3,NA,NA,NA
India,Maharashtra,Mumbai,"Kurla, Mumbai - MPCB",19-04-2026 09:00:00,19.0863,72.8888,SO2,NA,NA,NA
India,Maharashtra,Mumbai,"Kurla, Mumbai - MPCB",19-04-2026 09:00:00,19.0863,72.8888,OZONE,NA,NA,NA
India,Maharashtra,Mumbai,"Mazgaon, Mumbai - IITM",19-04-2026 09:00:00,18.96702,72.84214,PM10,NA,NA,NA
India,Maharashtra,Mumbai,"Mindspace-Malad West, Mumbai - MPCB",19-04-2026 09:00:00,19.1878657,72.8304069,PM2.5,17,35,26
India,Maharashtra,Mumbai,"Mindspace-Malad West, Mumbai - MPCB",19-04-2026 09:00:00,19.1878657,72.8304069,NO2,7,37,15
India,Maharashtra,Mumbai,"Mindspace-Malad West, Mumbai - MPCB",19-04-2026 09:00:00,19.1878657,72.8304069,CO,4,24,7
India,Maharashtra,Mumbai,"Mindspace-Malad West, Mumbai - MPCB",19-04-2026 09:00:00,19.1878657,72.8304069,OZONE,10,57,22
India,Maharashtra,Mumbai,"Navy Nagar-Colaba, Mumbai - IITM",19-04-2026 09:00:00,18.897756,72.813320,PM2.5,40,67,56
India,Maharashtra,Mumbai,"Navy Nagar-Colaba, Mumbai - IITM",19-04-2026 09:00:00,18.897756,72.813320,NH3,24,30,27
India,Maharashtra,Mumbai,"Powai, Mumbai - MPCB",19-04-2026 09:00:00,19.137500,72.915056,PM10,37,105,67
India,Maharashtra,Mumbai,"Sewri, Mumbai - BMC",19-04-2026 09:00:00,19.000084,72.856730,PM2.5,24,66,35
India,Maharashtra,Mumbai,"Bandra Kurla Complex, Mumbai - IITM",19-04-2026 09:00:00,19.053536,72.84643,SO2,1,3,2
India,Maharashtra,Mumbai,"Borivali East, Mumbai - IITM",19-04-2026 09:00:00,19.23241,72.86895,NO2,5,27,13
India,Maharashtra,Mumbai,"Borivali East, Mumbai - IITM",19-04-2026 09:00:00,19.23241,72.86895,CO,28,57,47
India,Maharashtra,Mumbai,"Borivali East, Mumbai - MPCB",19-04-2026 09:00:00,19.2243333,72.8658113,SO2,10,17,14
India,Maharashtra,Mumbai,"Byculla, Mumbai - BMC",19-04-2026 09:00:00,18.9767,72.8380,PM2.5,21,55,40
India,Maharashtra,Mumbai,"Byculla, Mumbai - BMC",19-04-2026 09:00:00,18.9767,72.8380,CO,48,76,60
India,Maharashtra,Mumbai,"Chakala-Andheri East, Mumbai - IITM",19-04-2026 09:00:00,19.11074,72.86084,PM10,102,183,135
India,Maharashtra,Mumbai,"Chakala-Andheri East, Mumbai - IITM",19-04-2026 09:00:00,19.11074,72.86084,NH3,3,7,4
India,Maharashtra,Mumbai,"Chembur, Mumbai - MPCB",19-04-2026 09:00:00,19.0364585,72.8954371,PM2.5,36,61,45
India,Maharashtra,Mumbai,"Chembur, Mumbai - MPCB",19-04-2026 09:00:00,19.0364585,72.8954371,NH3,6,9,7
India,Maharashtra,Amravati,"Shivneri Colony, Amravati - MPCB",19-04-2026 09:00:00,20.9402359,77.7895248,OZONE,2,73,17
India,Maharashtra,Aurangabad,"MIDC Chilkalthana, Aurangabad - MPCB",19-04-2026 09:00:00,19.875620,75.387310,NH3,1,10,4
India,Maharashtra,Aurangabad,"MIDC Chilkalthana, Aurangabad - MPCB",19-04-2026 09:00:00,19.875620,75.387310,SO2,8,31,14
India,Maharashtra,Aurangabad,"MIDC Chilkalthana, Aurangabad - MPCB",19-04-2026 09:00:00,19.875620,75.387310,CO,8,13,10
India,Maharashtra,Aurangabad,"More Chowk Waluj, Aurangabad - MPCB",19-04-2026 09:00:00,19.8389439,75.244448,SO2,28,45,33
India,Maharashtra,Aurangabad,"More Chowk Waluj, Aurangabad - MPCB",19-04-2026 09:00:00,19.8389439,75.244448,OZONE,7,66,20
India,Maharashtra,Aurangabad,"Rachnakar Colony, Aurangabad - MPCB",19-04-2026 09:00:00,19.863756,75.321188,NO2,15,105,44
India,Maharashtra,Aurangabad,"Rachnakar Colony, Aurangabad - MPCB",19-04-2026 09:00:00,19.863756,75.321188,NH3,1,5,3
India,Maharashtra,Aurangabad,"Rachnakar Colony, Aurangabad - MPCB",19-04-2026 09:00:00,19.863756,75.321188,OZONE,15,82,16
India,Maharashtra,Mumbai,"Shivaji Nagar, Mumbai - BMC",19-04-2026 09:00:00,19.060498,72.923356,NO2,9,36,20
India,Maharashtra,Mumbai,"Siddharth Nagar-Worli, Mumbai - IITM",19-04-2026 09:00:00,19.000083,72.813993,NH3,3,3,3
India,Maharashtra,Mumbai,"Sion, Mumbai - MPCB",19-04-2026 09:00:00,19.047000,72.874600,PM10,40,420,85
India,Maharashtra,Mumbai,"Sion, Mumbai - MPCB",19-04-2026 09:00:00,19.047000,72.874600,NH3,7,7,7
India,Maharashtra,Mumbai,"Vile Parle West, Mumbai - MPCB",19-04-2026 09:00:00,19.10861,72.83622,CO,30,32,32
India,Maharashtra,Mumbai,"Worli, Mumbai -MPCB",19-04-2026 09:00:00,18.9942180,72.8158167,SO2,24,28,26
India,Maharashtra,Mumbai,"Worli, Mumbai -MPCB",19-04-2026 09:00:00,18.9942180,72.8158167,OZONE,18,57,27
India,Maharashtra,Kolhapur,"Shivaji University, Kolhapur - MPCB",19-04-2026 09:00:00,16.6870449,74.2505872,OZONE,19,98,22
India,Maharashtra,Kolhapur,"Sinchan Bhavan, Kolhapur - MPCB",19-04-2026 09:00:00,16.7143745,74.2426398,PM10,13,218,76
India,Maharashtra,Kolhapur,"Sinchan Bhavan, Kolhapur - MPCB",19-04-2026 09:00:00,16.7143745,74.2426398,NH3,NA,NA,NA
India,Maharashtra,Kolhapur,"Sinchan Bhavan, Kolhapur - MPCB",19-04-2026 09:00:00,16.7143745,74.2426398,CO,8,62,20
India,Maharashtra,Mahad,"Kamble Tarf Birwadi, Mahad - MPCB",19-04-2026 09:00:00,18.1023399,73.4783687,PM2.5,40,99,62
India,Maharashtra,Mahad,"Kamble Tarf Birwadi, Mahad - MPCB",19-04-2026 09:00:00,18.1023399,73.4783687,NO2,7,30,13
India,Maharashtra,Boisar,"Khaira, Boisar - MPCB",19-04-2026 09:00:00,19.786089,72.757971,NH3,4,4,4
India,Maharashtra,Boisar,"Khaira, Boisar - MPCB",19-04-2026 09:00:00,19.786089,72.757971,OZONE,52,53,53
India,Maharashtra,Chandrapur,"MIDC Khutala, Chandrapur - MPCB",19-04-2026 09:00:00,19.9775302,79.2337086,PM10,79,190,128
India,Maharashtra,Chandrapur,"MIDC Khutala, Chandrapur - MPCB",19-04-2026 09:00:00,19.9775302,79.2337086,CO,34,42,40
India,Maharashtra,Mahad,"Kamble Tarf Birwadi, Mahad - MPCB",19-04-2026 09:00:00,18.1023399,73.4783687,OZONE,13,42,13
India,Maharashtra,Mira-Bhayandar,"Bhayandar West, Mira-Bhayandar - MPCB",19-04-2026 09:00:00,19.296481,72.840923,NO2,NA,NA,NA
India,Maharashtra,Mira-Bhayandar,"Bhayandar West, Mira-Bhayandar - MPCB",19-04-2026 09:00:00,19.296481,72.840923,OZONE,1,25,4
India,Maharashtra,Solapur,"Ratandeep Housing Society, Solapur - MPCB",19-04-2026 09:00:00,17.65439,75.90649,CO,21,149,45
India,Maharashtra,Thane,"Kasarvadavali, Thane - MPCB",19-04-2026 09:00:00,19.26777,72.97182,SO2,1,9,3
India,Maharashtra,Thane,"Kasarvadavali, Thane - MPCB",19-04-2026 09:00:00,19.26777,72.97182,OZONE,4,55,15
India,Maharashtra,Thane,"Upvan Fort, Thane - MPCB",19-04-2026 09:00:00,19.222279,72.957979,CO,17,52,42
India,Maharashtra,Ulhasnagar,"Sidhi Vinayak Nagar, Ulhasnagar - MPCB",19-04-2026 09:00:00,19.235581,73.159121,PM10,108,141,121
India,Maharashtra,Ulhasnagar,"Sidhi Vinayak Nagar, Ulhasnagar - MPCB",19-04-2026 09:00:00,19.235581,73.159121,SO2,7,26,12
India,Maharashtra,Ulhasnagar,"Vithalwadi, Ulhasnagar - MPCB",19-04-2026 09:00:00,19.2307571 ,73.1551920,PM2.5,23,52,37
India,Maharashtra,Ulhasnagar,"Vithalwadi, Ulhasnagar - MPCB",19-04-2026 09:00:00,19.2307571 ,73.1551920,NH3,2,3,3
India,Maharashtra,Ulhasnagar,"Vithalwadi, Ulhasnagar - MPCB",19-04-2026 09:00:00,19.2307571 ,73.1551920,CO,1,55,22
India,Maharashtra,Virar,"Bolinj, Virar - MPCB",19-04-2026 09:00:00,19.4458210,72.7988231,PM2.5,38,75,53
India,Maharashtra,Virar,"Bolinj, Virar - MPCB",19-04-2026 09:00:00,19.4458210,72.7988231,PM10,48,102,66
India,Maharashtra,Virar,"Bolinj, Virar - MPCB",19-04-2026 09:00:00,19.4458210,72.7988231,NO2,NA,NA,NA
India,Maharashtra,Virar,"Bolinj, Virar - MPCB",19-04-2026 09:00:00,19.4458210,72.7988231,NH3,NA,NA,NA
India,Maharashtra,Virar,"Bolinj, Virar - MPCB",19-04-2026 09:00:00,19.4458210,72.7988231,OZONE,2,68,12
India,Maharashtra,Nagpur,"Ambazari, Nagpur - MPCB",19-04-2026 09:00:00,21.121801,79.04952,CO,4,99,38
India,Maharashtra,Nagpur,"Mahal, Nagpur - MPCB",19-04-2026 09:00:00,21.14472,79.107595,SO2,3,104,66
India,Maharashtra,Nagpur,"Opp GPO Civil Lines, Nagpur - MPCB",19-04-2026 09:00:00,21.152875,79.0517531,PM2.5,50,131,86
India,Maharashtra,Nagpur,"Opp GPO Civil Lines, Nagpur - MPCB",19-04-2026 09:00:00,21.152875,79.0517531,CO,10,96,34
India,Maharashtra,Nagpur,"Ram Nagar, Nagpur - MPCB",19-04-2026 09:00:00,21.143383,79.048912,PM2.5,52,150,87
India,Maharashtra,Nanded,"Sneh Nagar, Nanded - MPCB",19-04-2026 09:00:00,19.173852,77.296291,SO2,NA,NA,NA
India,Maharashtra,Nashik,"Gangapur Road, Nashik - MPCB",19-04-2026 09:00:00,20.0073285,73.7762427,PM2.5,51,129,85
India,Maharashtra,Nashik,"Gangapur Road, Nashik - MPCB",19-04-2026 09:00:00,20.0073285,73.7762427,NO2,5,5,5
India,Maharashtra,Nashik,"Gangapur Road, Nashik - MPCB",19-04-2026 09:00:00,20.0073285,73.7762427,NH3,3,3,3
India,Maharashtra,Nashik,"Gangapur Road, Nashik - MPCB",19-04-2026 09:00:00,20.0073285,73.7762427,SO2,2,9,5
India,Maharashtra,Nashik,"Gangapur Road, Nashik - MPCB",19-04-2026 09:00:00,20.0073285,73.7762427,OZONE,9,49,48
India,Maharashtra,Pune,"Panchawati_Pashan, Pune - IITM",19-04-2026 09:00:00,18.536457,73.805454,PM2.5,36,100,69
India,Maharashtra,Pune,"Revenue Colony-Shivajinagar, Pune - IITM",19-04-2026 09:00:00,18.530085,73.849598,PM2.5,36,99,68
India,Maharashtra,Pune,"Revenue Colony-Shivajinagar, Pune - IITM",19-04-2026 09:00:00,18.530085,73.849598,OZONE,NA,NA,NA
India,Maharashtra,Pune,"Savitribai Phule Pune University, Pune - MPCB",19-04-2026 09:00:00,18.547056,73.826908,PM10,58,166,87
India,Maharashtra,Pune,"Savitribai Phule Pune University, Pune - MPCB",19-04-2026 09:00:00,18.547056,73.826908,CO,21,98,38
India,Maharashtra,Sangli,"Vijay Nagar, Sangli - MPCB",19-04-2026 09:00:00, 16.5038,74.3623,OZONE,20,77,25
India,Maharashtra,Solapur,"Dnyaneshwar Nagar, Solapur - MPCB",19-04-2026 09:00:00,17.6336264,75.9132495,PM2.5,1,139,81
India,Maharashtra,Solapur,"Ratandeep Housing Society, Solapur - MPCB",19-04-2026 09:00:00,17.65439,75.90649,NH3,4,31,9
India,Odisha,Brajrajnagar,"GM Office, Brajrajnagar - OSPCB",19-04-2026 09:00:00,21.8004996,83.8396977,OZONE,NA,NA,NA
India,Odisha,Byasanagar,"Ferro Chrome Colony, Byasanagar - OSPCB",19-04-2026 09:00:00,20.94185,86.11510,NO2,3,12,7
India,Odisha,Byasanagar,"Ferro Chrome Colony, Byasanagar - OSPCB",19-04-2026 09:00:00,20.94185,86.11510,NH3,1,2,1
India,Odisha,Byasanagar,"Ferro Chrome Colony, Byasanagar - OSPCB",19-04-2026 09:00:00,20.94185,86.11510,SO2,6,24,16
India,Odisha,Byasanagar,"Ferro Chrome Colony, Byasanagar - OSPCB",19-04-2026 09:00:00,20.94185,86.11510,OZONE,9,109,20
India,Odisha,Keonjhar,"Jagamohanpur, Keonjhar - OSPCB",19-04-2026 09:00:00,21.643900,85.599355,CO,19,46,27
India,Odisha,Nayagarh,"Dabuna, Nayagarh - OSPCB",19-04-2026 09:00:00,21.847279,85.416905,CO,16,32,26
India,Odisha,Rairangpur,"Divisional Forest Office, Rairangpur - OSPCB",19-04-2026 09:00:00,22.265816,86.174829,CO,6,66,13
India,Maharashtra,Nashik,"Hirawadi, Nashik - MPCB",19-04-2026 09:00:00,20.021503,73.813844,SO2,19,83,27
India,Maharashtra,Nashik,"Hirawadi, Nashik - MPCB",19-04-2026 09:00:00,20.021503,73.813844,OZONE,37,105,49
India,Maharashtra,Nashik,"MIDC Ambad, Nashik - MPCB",19-04-2026 09:00:00,19.950220,73.731480,NH3,NA,NA,NA
India,Maharashtra,Nashik,"MIDC Ambad, Nashik - MPCB",19-04-2026 09:00:00,19.950220,73.731480,SO2,NA,NA,NA
India,Maharashtra,Navi Mumbai,"Kopripada-Vashi, Navi Mumbai - MPCB",19-04-2026 09:00:00,19.090337,73.014232,SO2,3,10,6
India,Maharashtra,Navi Mumbai,"Mahape, Navi Mumbai - MPCB",19-04-2026 09:00:00,19.1135051,73.008978,NH3,1,1,1
India,Maharashtra,Navi Mumbai,"Sanpada, Navi Mumbai - MPCB",19-04-2026 09:00:00,19.0575752,73.0151367,PM10,72,150,96
India,Maharashtra,Navi Mumbai,"Sanpada, Navi Mumbai - MPCB",19-04-2026 09:00:00,19.0575752,73.0151367,NO2,8,50,25
India,Maharashtra,Navi Mumbai,"Sanpada, Navi Mumbai - MPCB",19-04-2026 09:00:00,19.0575752,73.0151367,SO2,14,28,18
India,Maharashtra,Navi Mumbai,"Sector-2E Kalamboli, Navi Mumbai - MPCB",19-04-2026 09:00:00,19.02579,73.10297,CO,15,31,25
India,Maharashtra,Navi Mumbai,"Tondare-Taloja, Navi Mumbai - MPCB",19-04-2026 09:00:00,19.0630,73.1209,PM2.5,68,275,140
India,Maharashtra,Navi Mumbai,"Tondare-Taloja, Navi Mumbai - MPCB",19-04-2026 09:00:00,19.0630,73.1209,OZONE,15,79,16
India,Maharashtra,Parbhani,"Masoom Colony, Parbhani - MPCB",19-04-2026 09:00:00,19.265594,76.761463,SO2,4,55,33
India,Maharashtra,Pimpri-Chinchwad,"Bhumkar Nagar, Pimpri-Chinchwad - IITM",19-04-2026 09:00:00,18.605770,73.749976,PM2.5,66,252,134
India,Meghalaya,Byrnihat,"15th Mile-Nongthymmai, Byrnihat - Meghalaya PCB",19-04-2026 09:00:00,26.05374,91.86796,SO2,1,10,3
India,Meghalaya,Shillong,"Lumpyngngad, Shillong - Meghalaya PCB",19-04-2026 09:00:00,25.5586,91.8985,PM2.5,1,105,17
India,Mizoram,Aizawl,"Sikulpuikawn, Aizawl - Mizoram PCB",19-04-2026 09:00:00,23.7176342,92.7192841,PM2.5,42,118,81
India,Nagaland,Kohima,"PWD Junction, Kohima - NPCB",19-04-2026 09:00:00,25.6635413,94.0989878,PM2.5,12,71,44
India,Nagaland,Kohima,"PWD Junction, Kohima - NPCB",19-04-2026 09:00:00,25.6635413,94.0989878,PM10,28,68,40
India,Odisha,Barbil,"Forest Office, Barbil - OSPCB",19-04-2026 09:00:00,22.1166054,85.3945546,NH3,1,5,2
India,Odisha,Bhubaneswar,"Patia, Bhubaneswar - OSPCB",19-04-2026 09:00:00,20.34652,85.81630,OZONE,15,56,22
India,Odisha,Bileipada,"Tata Township, Bileipada - OSPCB",19-04-2026 09:00:00,22.06156703,85.47409613,NH3,5,5,5
India,Maharashtra,Pimpri-Chinchwad,"Park Street Wakad, Pimpri Chinchwad - MPCB",19-04-2026 09:00:00,18.59051,73.77946,NH3,1,5,2
India,Maharashtra,Pimpri-Chinchwad,"Savta Mali Nagar, Pimpri-Chinchwad - IITM",19-04-2026 09:00:00,18.614767,73.799516,PM2.5,43,129,87
India,Punjab,Ludhiana,"Punjab Agricultural University, Ludhiana - PPCB",19-04-2026 09:00:00,30.9028,75.8086,NH3,8,10,9
India,Punjab,Ludhiana,"Punjab Agricultural University, Ludhiana - PPCB",19-04-2026 09:00:00,30.9028,75.8086,SO2,13,34,17
India,Punjab,Mandi Gobindgarh,"RIMT University, Mandi Gobindgarh - PPCB",19-04-2026 09:00:00,30.649961,76.331442,NH3,6,6,6
India,Punjab,Mandi Gobindgarh,"RIMT University, Mandi Gobindgarh - PPCB",19-04-2026 09:00:00,30.649961,76.331442,SO2,3,128,33
India,Punjab,Patiala,"Model Town, Patiala - PPCB",19-04-2026 09:00:00,30.349388,76.366642,PM2.5,44,107,77
India,Punjab,Rupnagar,"Ratanpura, Rupnagar - Ambuja Cements",19-04-2026 09:00:00,31.0325454,76.5623046,PM2.5,12,31,20
India,Rajasthan,Ajmer,"Civil Lines,  Ajmer - RSPCB",19-04-2026 09:00:00,26.470859,74.646594,PM2.5,38,85,58
India,Rajasthan,Ajmer,"Civil Lines,  Ajmer - RSPCB",19-04-2026 09:00:00,26.470859,74.646594,NO2,19,36,30
India,Rajasthan,Ajmer,"Civil Lines,  Ajmer - RSPCB",19-04-2026 09:00:00,26.470859,74.646594,NH3,2,5,4
India,Rajasthan,Alwar,"Moti Doongri, Alwar - RSPCB",19-04-2026 09:00:00,27.554793,76.611536,NO2,NA,NA,NA
India,Odisha,Tensa,"Barsua Iron Ore Mines, Tensa - OSPCB",19-04-2026 09:00:00,21.869985,85.167016,SO2,NA,NA,NA
India,Puducherry,Puducherry,"Jawahar Nagar, Puducherry - PPCC",19-04-2026 09:00:00,11.9309,79.8027,PM2.5,2,51,15
India,Puducherry,Puducherry,"Jawahar Nagar, Puducherry - PPCC",19-04-2026 09:00:00,11.9309,79.8027,PM10,3,52,15
India,Puducherry,Puducherry,"Jawahar Nagar, Puducherry - PPCC",19-04-2026 09:00:00,11.9309,79.8027,SO2,5,11,7
India,Puducherry,Puducherry,"Jawahar Nagar, Puducherry - PPCC",19-04-2026 09:00:00,11.9309,79.8027,CO,12,38,27
India,Puducherry,Puducherry,"Jawahar Nagar, Puducherry - PPCC",19-04-2026 09:00:00,11.9309,79.8027,OZONE,4,24,12
India,Punjab,Amritsar,"Golden Temple, Amritsar - PPCB",19-04-2026 09:00:00,31.620000,74.876512,NO2,13,104,40
India,Punjab,Amritsar,"Golden Temple, Amritsar - PPCB",19-04-2026 09:00:00,31.620000,74.876512,NH3,6,15,8
India,Punjab,Bathinda,"Hardev Nagar, Bathinda - PPCB",19-04-2026 09:00:00,30.233011,74.907758,SO2,10,10,10
India,Punjab,Jalandhar,"Civil Line, Jalandhar - PPCB",19-04-2026 09:00:00,31.321907,75.578914,OZONE,42,47,45
India,Rajasthan,Banswara,"Rati Talai, Banswara - RSPCB",19-04-2026 09:00:00,23.555190,74.440010,PM2.5,18,301,71
India,Rajasthan,Banswara,"Rati Talai, Banswara - RSPCB",19-04-2026 09:00:00,23.555190,74.440010,OZONE,6,100,31
India,Rajasthan,Baran,"Bamboliya, Baran - RSPCB",19-04-2026 09:00:00,25.106006,76.469948,PM2.5,18,200,80
India,Rajasthan,Barmer,"Railway Colony, Barmer - RSPCB",19-04-2026 09:00:00,25.747299,71.393989,PM2.5,7,33,17
India,Rajasthan,Barmer,"Railway Colony, Barmer - RSPCB",19-04-2026 09:00:00,25.747299,71.393989,NO2,4,27,10
India,Rajasthan,Barmer,"Railway Colony, Barmer - RSPCB",19-04-2026 09:00:00,25.747299,71.393989,SO2,1,6,3
India,Rajasthan,Barmer,"Railway Colony, Barmer - RSPCB",19-04-2026 09:00:00,25.747299,71.393989,OZONE,41,67,58
India,Rajasthan,Bharatpur,"Krishna Nagar, Bharatpur - RSPCB",19-04-2026 09:00:00,27.215415,77.50873,PM10,41,132,89
India,Rajasthan,Bharatpur,"Krishna Nagar, Bharatpur - RSPCB",19-04-2026 09:00:00,27.215415,77.50873,SO2,6,27,11
India,Rajasthan,Jaipur,"Adarsh Nagar, Jaipur - RSPCB",19-04-2026 09:00:00,26.902909,75.836858,PM2.5,46,249,110
India,Rajasthan,Jaipur,"Adarsh Nagar, Jaipur - RSPCB",19-04-2026 09:00:00,26.902909,75.836858,NH3,5,16,9
India,Rajasthan,Jaipur,"Mansarovar Sector-12, Jaipur - RSPCB",19-04-2026 09:00:00,26.843698,75.766894,OZONE,8,178,55
India,Rajasthan,Jaipur,"Police Commissionerate, Jaipur - RSPCB",19-04-2026 09:00:00,26.9164092,75.7994901,PM10,66,172,117
India,Rajasthan,Jaipur,"Police Commissionerate, Jaipur - RSPCB",19-04-2026 09:00:00,26.9164092,75.7994901,NH3,21,120,59
India,Rajasthan,Jaipur,"Sector-2 Murlipura, Jaipur - RSPCB",19-04-2026 09:00:00,26.960669,75.771817,NH3,3,8,4
India,Rajasthan,Jaipur,"Shastri Nagar, Jaipur - RSPCB",19-04-2026 09:00:00,26.9502929,75.730943,PM2.5,60,248,132
India,Odisha,Rourkela,"Raghunathpali, Rourkela - OSPCB",19-04-2026 09:00:00,22.220833,84.809444,PM2.5,55,187,114
India,Odisha,Rourkela,"Raghunathpali, Rourkela - OSPCB",19-04-2026 09:00:00,22.220833,84.809444,NH3,1,2,2
India,Odisha,Rourkela,"Raghunathpali, Rourkela - OSPCB",19-04-2026 09:00:00,22.220833,84.809444,CO,30,102,70
India,Odisha,Rourkela,"Sector-2, Rourkela - OSPCB",19-04-2026 09:00:00,22.24500000,84.88111111,PM10,36,134,69
India,Odisha,Suakati,"OMC Colony, Suakati - OSPCB",19-04-2026 09:00:00,21.606865,85.510538,PM2.5,47,159,97
India,Rajasthan,Jalore,"Mudtra Sili, Jalore - RSPCB",19-04-2026 09:00:00,25.344694,72.626208,PM10,24,124,57
India,Rajasthan,Jhalawar,"Rajlaxmi Nagar, Jhalawar - RSPCB",19-04-2026 09:00:00,24.588397,76.172782,NH3,6,13,8
India,Rajasthan,Jhalawar,"Rajlaxmi Nagar, Jhalawar - RSPCB",19-04-2026 09:00:00,24.588397,76.172782,CO,28,131,63
India,Rajasthan,Jodhpur,"Collectorate, Jodhpur - RSPCB",19-04-2026 09:00:00,26.268249,73.0193853,NO2,16,25,20
India,Rajasthan,Chittorgarh,"Shastri Nagar, Chittorgarh - RSPCB",19-04-2026 09:00:00,24.892047,74.623527,OZONE,2,116,10
India,Rajasthan,Churu,"Subash Chowk, Churu - RSPCB",19-04-2026 09:00:00,28.296139,74.961696,PM2.5,15,166,72
India,Rajasthan,Dholpur,"Raja Ganj, Dholpur - RSPCB",19-04-2026 09:00:00,26.699557,77.898881,SO2,4,10,7
India,Odisha,Talcher,"Talcher Coalfields,Talcher - OSPCB",19-04-2026 09:00:00,20.9360711,85.1707021,NO2,11,140,44
India,Odisha,Talcher,"Talcher Coalfields,Talcher - OSPCB",19-04-2026 09:00:00,20.9360711,85.1707021,SO2,5,49,15
India,Rajasthan,Bundi,"New Colony, Bundi - RSPCB",19-04-2026 09:00:00,25.435774,75.644272,NH3,2,9,4
India,Rajasthan,Bundi,"New Colony, Bundi - RSPCB",19-04-2026 09:00:00,25.435774,75.644272,SO2,1,23,5
India,TamilNadu,Coimbatore,"SIDCO Kurichi, Coimbatore - TNPCB",19-04-2026 09:00:00,10.942451,76.978996,CO,26,32,28
India,TamilNadu,Coimbatore,"SIDCO Kurichi, Coimbatore - TNPCB",19-04-2026 09:00:00,10.942451,76.978996,OZONE,20,20,20
India,TamilNadu,Gummidipoondi,"Anthoni Pillai Nagar, Gummidipoondi - TNPCB",19-04-2026 09:00:00,13.4127,80.1081,NH3,1,1,1
India,TamilNadu,Madurai,"Uchapatti, Madurai - TNPCB",19-04-2026 09:00:00,9.865935,78.022669,NH3,9,9,9
India,TamilNadu,Perundurai,"SIPCOT Industrial Park, Perundurai - TNPCB",19-04-2026 09:00:00,11.258242,77.552761,NO2,11,12,12
India,Telangana,Hyderabad,"Central University, Hyderabad - TSPCB",19-04-2026 09:00:00,17.460103,78.334361,NO2,NA,NA,NA
India,Telangana,Hyderabad,"ECIL Kapra, Hyderabad - TSPCB",19-04-2026 09:00:00,17.470431,78.566959,PM2.5,53,77,67
India,Telangana,Hyderabad,"ECIL Kapra, Hyderabad - TSPCB",19-04-2026 09:00:00,17.470431,78.566959,NH3,4,6,5
India,Telangana,Hyderabad,"ICRISAT Patancheru, Hyderabad - TSPCB",19-04-2026 09:00:00,17.518400,78.278777,PM10,57,147,79
India,Telangana,Hyderabad,"ICRISAT Patancheru, Hyderabad - TSPCB",19-04-2026 09:00:00,17.518400,78.278777,NH3,1,5,3
India,Telangana,Hyderabad,"IDA Pashamylaram, Hyderabad - TSPCB",19-04-2026 09:00:00,17.5316895,78.218939,PM2.5,60,143,75
India,Telangana,Hyderabad,"IDA Pashamylaram, Hyderabad - TSPCB",19-04-2026 09:00:00,17.5316895,78.218939,NO2,7,9,8
India,Telangana,Hyderabad,"IDA Pashamylaram, Hyderabad - TSPCB",19-04-2026 09:00:00,17.5316895,78.218939,SO2,2,21,10
India,Telangana,Hyderabad,"IDA Pashamylaram, Hyderabad - TSPCB",19-04-2026 09:00:00,17.5316895,78.218939,OZONE,18,24,19
India,Telangana,Hyderabad,"IITH Kandi, Hyderabad - TSPCB",19-04-2026 09:00:00,17.585705,78.126199,NH3,3,5,5
India,Telangana,Hyderabad,"Kompally Municipal Office, Hyderabad - TSPCB",19-04-2026 09:00:00,17.544899,78.486949,NO2,13,15,13
India,Rajasthan,Sri Ganganagar,"Old City, Sri Ganganagar - RSPCB",19-04-2026 09:00:00,29.931624,73.864511,CO,22,70,27
India,Rajasthan,Tonk,"Shastri Nagar, Tonk - RSPCB",19-04-2026 09:00:00,26.159933,75.780517,NO2,8,70,27
India,Rajasthan,Udaipur,"Ashok Nagar, Udaipur - RSPCB",19-04-2026 09:00:00,24.5886166,73.6321397,NH3,3,24,10
India,Sikkim,Gangtok,"Zero Point GICI, Gangtok - SSPCB",19-04-2026 09:00:00,27.338530,88.614099,NO2,6,7,6
India,Sikkim,Gangtok,"Zero Point GICI, Gangtok - SSPCB",19-04-2026 09:00:00,27.338530,88.614099,SO2,1,1,1
India,TamilNadu,Chennai,"Kodungaiyur, Chennai - TNPCB",19-04-2026 09:00:00,13.1278,80.2642,PM2.5,4,27,17
India,Rajasthan,Pratapgarh,"Pragati Nagar, Pratapgarh - RSPCB",19-04-2026 09:00:00,24.041198,74.780702,NO2,10,52,24
India,Rajasthan,Pratapgarh,"Pragati Nagar, Pratapgarh - RSPCB",19-04-2026 09:00:00,24.041198,74.780702,CO,12,33,22
India,Rajasthan,Rajsamand,"Dhoinda, Rajsamand - RSPCB",19-04-2026 09:00:00,25.036360,73.883502,PM2.5,2,62,23
India,Rajasthan,Sawai Madhopur,"Sahu Nagar, Sawai Madhopur - RSPCB",19-04-2026 09:00:00,26.031443,76.359327,SO2,1,9,4
India,Rajasthan,Sirohi,"Vedhaynath Colony, Sirohi - RSPCB",19-04-2026 09:00:00,24.885261,72.857549,SO2,4,6,5
India,Rajasthan,Sri Ganganagar,"Old City, Sri Ganganagar - RSPCB",19-04-2026 09:00:00,29.931624,73.864511,PM10,72,162,113
India,Rajasthan,Jodhpur,"Jhalamand, Jodhpur - RSPCB",19-04-2026 09:00:00,26.215415,73.070156,PM2.5,2,67,31
India,Rajasthan,Jodhpur,"Jhalamand, Jodhpur - RSPCB",19-04-2026 09:00:00,26.215415,73.070156,CO,2,26,14
India,Rajasthan,Jodhpur,"Jhalamand, Jodhpur - RSPCB",19-04-2026 09:00:00,26.215415,73.070156,OZONE,32,99,58
India,Rajasthan,Jodhpur,"Mandor, Jodhpur - RSPCB",19-04-2026 09:00:00,26.358805,73.047444,CO,4,26,7
India,Rajasthan,Jodhpur,"Samrat Ashok Udhyan, Jodhpur - RSPCB",19-04-2026 09:00:00,26.253384,72.976571,NO2,2,52,11
India,Rajasthan,Jodhpur,"Samrat Ashok Udhyan, Jodhpur - RSPCB",19-04-2026 09:00:00,26.253384,72.976571,SO2,1,7,4
India,TamilNadu,Chennai,"Manali, Chennai - CPCB",19-04-2026 09:00:00,13.164544,80.26285,PM2.5,NA,NA,NA
India,TamilNadu,Chennai,"Manali, Chennai - CPCB",19-04-2026 09:00:00,13.164544,80.26285,PM10,NA,NA,NA
India,TamilNadu,Chennai,"Manali, Chennai - CPCB",19-04-2026 09:00:00,13.164544,80.26285,NH3,NA,NA,NA
India,TamilNadu,Chennai,"Royapuram, Chennai - TNPCB",19-04-2026 09:00:00,13.1036,80.2909,PM2.5,3,27,14
India,TamilNadu,Chennai,"Royapuram, Chennai - TNPCB",19-04-2026 09:00:00,13.1036,80.2909,CO,18,28,24
India,TamilNadu,Chennai,"Velachery Res. Area, Chennai - CPCB",19-04-2026 09:00:00,13.0052189,80.2398125,OZONE,7,12,8
India,Rajasthan,Kota,"Dhanmandi, Kota - RSPCB",19-04-2026 09:00:00,25.164090,75.858137,NO2,26,130,63
India,Rajasthan,Kota,"Shrinath Puram, Kota - RSPCB",19-04-2026 09:00:00,25.14389,75.821256,PM10,48,133,98
India,Rajasthan,Kota,"Shrinath Puram, Kota - RSPCB",19-04-2026 09:00:00,25.14389,75.821256,CO,2,102,37
India,Rajasthan,Pali,"Indira Colony Vistar, Pali - RSPCB",19-04-2026 09:00:00,25.771061, 73.340227,CO,8,75,40
India,Rajasthan,Pratapgarh,"Pragati Nagar, Pratapgarh - RSPCB",19-04-2026 09:00:00,24.041198,74.780702,PM2.5,13,75,36
India,TamilNadu,Chennai,"Manali Village, Chennai - TNPCB",19-04-2026 09:00:00,13.1662,80.2584,NO2,3,7,5
India,TamilNadu,Chennai,"Manali Village, Chennai - TNPCB",19-04-2026 09:00:00,13.1662,80.2584,NH3,1,4,2
India,TamilNadu,Chennai,"Manali Village, Chennai - TNPCB",19-04-2026 09:00:00,13.1662,80.2584,SO2,13,20,16
India,Uttar_Pradesh,Lucknow,"Kukrail Picnic Spot-1, Lucknow - UPPCB",19-04-2026 09:00:00,26.90723,80.98579,SO2,21,25,22
India,Uttar_Pradesh,Lucknow,"Talkatora District Industries Center, Lucknow - CPCB",19-04-2026 09:00:00,26.83399722,80.8917361,PM2.5,121,331,238
India,Uttar_Pradesh,Lucknow,"Talkatora District Industries Center, Lucknow - CPCB",19-04-2026 09:00:00,26.83399722,80.8917361,PM10,117,161,138
India,Uttar_Pradesh,Lucknow,"Talkatora District Industries Center, Lucknow - CPCB",19-04-2026 09:00:00,26.83399722,80.8917361,OZONE,86,127,94
India,Uttar_Pradesh,Meerut,"Ganga Nagar, Meerut - UPPCB",19-04-2026 09:00:00,28.999264,77.7590354,PM2.5,35,315,152
India,Uttar_Pradesh,Meerut,"Ganga Nagar, Meerut - UPPCB",19-04-2026 09:00:00,28.999264,77.7590354,PM10,139,360,227
India,Uttar_Pradesh,Meerut,"Ganga Nagar, Meerut - UPPCB",19-04-2026 09:00:00,28.999264,77.7590354,SO2,35,50,39
India,Uttar_Pradesh,Meerut,"Ganga Nagar, Meerut - UPPCB",19-04-2026 09:00:00,28.999264,77.7590354,OZONE,2,21,6
India,Uttar_Pradesh,Meerut,"Jai Bhim Nagar, Meerut - UPPCB",19-04-2026 09:00:00,28.9535882,77.7622941,PM2.5,28,350,190
India,Uttar_Pradesh,Meerut,"MIET College, Meerut - UPPCB",19-04-2026 09:00:00,28.972677 ,77.641018 ,PM10,132,407,266
India,Uttar_Pradesh,Meerut,"MIET College, Meerut - UPPCB",19-04-2026 09:00:00,28.972677 ,77.641018 ,NO2,19,149,64
India,Uttar_Pradesh,Meerut,"Pallavpuram Phase 2, Meerut - UPPCB",19-04-2026 09:00:00,29.063510,77.709723,PM2.5,32,380,215
India,Telangana,Hyderabad,"Zoo Park, Hyderabad - TSPCB",19-04-2026 09:00:00,17.349694,78.451437,PM10,74,136,103
India,Telangana,Hyderabad,"Zoo Park, Hyderabad - TSPCB",19-04-2026 09:00:00,17.349694,78.451437,NO2,4,13,7
India,Telangana,Hyderabad,"Zoo Park, Hyderabad - TSPCB",19-04-2026 09:00:00,17.349694,78.451437,SO2,1,2,2
India,Tripura,Agartala,"Bardowali, Agartala - Tripura SPCB",19-04-2026 09:00:00,23.8175497,91.2726974,PM10,69,124,96
India,Uttar_Pradesh,Agra,"Manoharpur, Agra - UPPCB",19-04-2026 09:00:00,27.23711,78.01936,PM2.5,NA,NA,NA
India,Uttar_Pradesh,Agra,"Manoharpur, Agra - UPPCB",19-04-2026 09:00:00,27.23711,78.01936,NO2,19,20,20
India,Uttar_Pradesh,Agra,"Manoharpur, Agra - UPPCB",19-04-2026 09:00:00,27.23711,78.01936,SO2,16,42,28
India,Uttar_Pradesh,Agra,"Manoharpur, Agra - UPPCB",19-04-2026 09:00:00,27.23711,78.01936,OZONE,5,6,6
India,Uttar_Pradesh,Agra,"Rohta, Agra - UPPCB",19-04-2026 09:00:00,27.106972,78.000111,NO2,13,13,13
India,Uttar_Pradesh,Agra,"Rohta, Agra - UPPCB",19-04-2026 09:00:00,27.106972,78.000111,SO2,6,24,15
India,Uttar_Pradesh,Agra,"Sector-3B Avas Vikas Colony, Agra - UPPCB",19-04-2026 09:00:00,27.19412,77.96237,SO2,24,45,37
India,Uttar_Pradesh,Khora,"Prashant Garden, Khora - UPPCB",19-04-2026 09:00:00,28.61119,77.34206,PM10,136,423,299
India,Uttar_Pradesh,Khora,"Prashant Garden, Khora - UPPCB",19-04-2026 09:00:00,28.61119,77.34206,NO2,103,243,175
India,Uttar_Pradesh,Khurja,"Kalindi Kunj, Khurja - UPPCB",19-04-2026 09:00:00,28.2348927,77.8683002,PM10,95,324,177
India,Uttar_Pradesh,Lucknow,"B R Ambedkar University, Lucknow - UPPCB",19-04-2026 09:00:00,26.766433,80.927299,PM2.5,42,302,118
India,Uttar_Pradesh,Lucknow,"Gomti Nagar, Lucknow - UPPCB",19-04-2026 09:00:00,26.868120,81.005119,PM10,71,136,100
India,Uttar_Pradesh,Lucknow,"Gomti Nagar, Lucknow - UPPCB",19-04-2026 09:00:00,26.868120,81.005119,CO,39,46,40
India,Uttar_Pradesh,Lucknow,"Kendriya Vidyalaya, Lucknow - CPCB",19-04-2026 09:00:00,26.906111,80.948222,SO2,10,20,13
India,Uttar_Pradesh,Lucknow,"Kendriya Vidyalaya, Lucknow - CPCB",19-04-2026 09:00:00,26.906111,80.948222,CO,16,58,32
India,Uttar_Pradesh,Lucknow,"Kukrail Picnic Spot-1, Lucknow - UPPCB",19-04-2026 09:00:00,26.90723,80.98579,PM10,104,186,130
India,Uttar_Pradesh,Agra,"Shahjahan Garden, Agra - UPPCB",19-04-2026 09:00:00,27.169338,78.03582,PM2.5,4,73,35
India,Uttar_Pradesh,Agra,"Shahjahan Garden, Agra - UPPCB",19-04-2026 09:00:00,27.169338,78.03582,SO2,85,106,98
India,Uttar_Pradesh,Agra,"Shastripuram, Agra - UPPCB",19-04-2026 09:00:00,27.19862,77.92066,NO2,10,10,10
India,Uttar_Pradesh,Agra,"Shastripuram, Agra - UPPCB",19-04-2026 09:00:00,27.19862,77.92066,OZONE,11,14,13
India,Uttar_Pradesh,Baghpat,"Sardar Patel Inter College, Baghpat - UPPCB",19-04-2026 09:00:00,28.964949,77.278761,CO,40,104,52
India,Uttar_Pradesh,Baghpat,"Sardar Patel Inter College, Baghpat - UPPCB",19-04-2026 09:00:00,28.964949,77.278761,OZONE,2,92,2
India,Uttar_Pradesh,Bareilly,"Civil Lines, Bareilly - UPPCB",19-04-2026 09:00:00,28.359581,79.414455,NH3,1,4,1
India,Uttar_Pradesh,Bareilly,"Civil Lines, Bareilly - UPPCB",19-04-2026 09:00:00,28.359581,79.414455,SO2,38,84,58
India,Uttar_Pradesh,Bareilly,"Rajendra Nagar, Bareilly - UPPCB",19-04-2026 09:00:00,28.38910936,79.42963708,PM10,56,118,93
India,Uttar_Pradesh,Bareilly,"Rajendra Nagar, Bareilly - UPPCB",19-04-2026 09:00:00,28.38910936,79.42963708,SO2,42,60,52
India,Uttar_Pradesh,Meerut,"Pallavpuram Phase 2, Meerut - UPPCB",19-04-2026 09:00:00,29.063510,77.709723,NH3,9,14,11
India,Uttar_Pradesh,Modinagar,"SRM University, Modinagar - UPPCB",19-04-2026 09:00:00,28.798171 ,77.540243 ,NO2,26,172,96
India,Uttar_Pradesh,Moradabad,"Buddhi Vihar, Moradabad - UPPCB",19-04-2026 09:00:00,28.83526,78.74460,NO2,28,29,29
India,Uttar_Pradesh,Moradabad,"Buddhi Vihar, Moradabad - UPPCB",19-04-2026 09:00:00,28.83526,78.74460,NH3,5,5,5
India,Uttar_Pradesh,Moradabad,"Buddhi Vihar, Moradabad - UPPCB",19-04-2026 09:00:00,28.83526,78.74460,SO2,23,26,25
India,Uttar_Pradesh,Moradabad,"Eco Herbal Park, Moradabad - UPPCB",19-04-2026 09:00:00,28.840739,78.697531,NO2,NA,NA,NA
India,Uttar_Pradesh,Moradabad,"Eco Herbal Park, Moradabad - UPPCB",19-04-2026 09:00:00,28.840739,78.697531,CO,14,73,49
India,Uttar_Pradesh,Moradabad,"Jigar Colony, Moradabad - UPPCB",19-04-2026 09:00:00,28.856664,78.772638,PM2.5,23,97,52
India,Uttar_Pradesh,Moradabad,"Jigar Colony, Moradabad - UPPCB",19-04-2026 09:00:00,28.856664,78.772638,SO2,NA,NA,NA
India,Uttar_Pradesh,Ghaziabad,"Sanjay Nagar, Ghaziabad - UPPCB",19-04-2026 09:00:00,28.685382,77.453839,NH3,13,24,18
India,Uttar_Pradesh,Ghaziabad,"Vasundhara, Ghaziabad - UPPCB",19-04-2026 09:00:00,28.6603346,77.3572563,PM10,112,500,274
India,Uttar_Pradesh,Ghaziabad,"Vasundhara, Ghaziabad - UPPCB",19-04-2026 09:00:00,28.6603346,77.3572563,NO2,41,175,90
India,Uttar_Pradesh,Ghaziabad,"Vasundhara, Ghaziabad - UPPCB",19-04-2026 09:00:00,28.6603346,77.3572563,OZONE,10,121,12
India,Uttar_Pradesh,Gorakhpur,"Madan Mohan Malaviya University of Technology, Gorakhpur - UPPCB",19-04-2026 09:00:00,26.730136,83.433859,PM10,17,150,99
India,Uttar_Pradesh,Gorakhpur,"Madan Mohan Malaviya University of Technology, Gorakhpur - UPPCB",19-04-2026 09:00:00,26.730136,83.433859,CO,3,6,4
India,Uttar_Pradesh,Greater Noida,"Knowledge Park - III, Greater Noida - UPPCB",19-04-2026 09:00:00,28.47272,77.482000,CO,22,114,44
India,Uttar_Pradesh,Bulandshahr,"Yamunapuram, Bulandshahr - UPPCB",19-04-2026 09:00:00,28.406963,77.849831,CO,42,116,100
India,Uttar_Pradesh,Firozabad,"Nagla Bhau, Firozabad - UPPCB",19-04-2026 09:00:00,27.168897,78.376960,PM10,37,160,91
India,Uttar_Pradesh,Firozabad,"Vibhab Nagar, Firozabad - UPPCB",19-04-2026 09:00:00,27.1594,78.3953,NH3,2,2,2
India,Uttar_Pradesh,Ghaziabad,"Govindpuram, Ghaziabad - UPPCB",19-04-2026 09:00:00,28.694528 ,77.494705 ,PM2.5,182,423,315
India,Uttar_Pradesh,Ghaziabad,"Loni, Ghaziabad - UPPCB",19-04-2026 09:00:00,28.757294,77.278792,CO,28,74,47
India,Uttar_Pradesh,Hapur,"Anand Vihar, Hapur - UPPCB",19-04-2026 09:00:00,28.725645,77.749675,NH3,1,29,18
India,Uttar_Pradesh,Jhansi,"Shivaji Nagar, Jhansi - UPPCB",19-04-2026 09:00:00,25.4547,78.6039,OZONE,3,11,4
India,Uttar_Pradesh,Kanpur,"FTI Kidwai Nagar, Kanpur - UPPCB",19-04-2026 09:00:00,26.428282,80.327067,PM2.5,37,126,73
India,Uttar_Pradesh,Kanpur,"FTI Kidwai Nagar, Kanpur - UPPCB",19-04-2026 09:00:00,26.428282,80.327067,NO2,26,27,27
India,Uttar_Pradesh,Kanpur,"FTI Kidwai Nagar, Kanpur - UPPCB",19-04-2026 09:00:00,26.428282,80.327067,SO2,5,26,12
India,Uttar_Pradesh,Kanpur,"Nehru Nagar, Kanpur - UPPCB",19-04-2026 09:00:00,26.4703136,80.3229863,PM2.5,39,246,97
India,Telangana,Hyderabad,"Kompally Municipal Office, Hyderabad - TSPCB",19-04-2026 09:00:00,17.544899,78.486949,SO2,NA,NA,NA
India,Telangana,Hyderabad,"Kompally Municipal Office, Hyderabad - TSPCB",19-04-2026 09:00:00,17.544899,78.486949,CO,NA,NA,NA
India,Telangana,Hyderabad,"New Malakpet, Hyderabad - TSPCB",19-04-2026 09:00:00,17.37206,78.50864,PM10,80,107,94
India,Telangana,Hyderabad,"New Malakpet, Hyderabad - TSPCB",19-04-2026 09:00:00,17.37206,78.50864,SO2,13,19,16
India,Telangana,Hyderabad,"New Malakpet, Hyderabad - TSPCB",19-04-2026 09:00:00,17.37206,78.50864,CO,24,42,40
India,Telangana,Hyderabad,"Sanathnagar, Hyderabad - TSPCB",19-04-2026 09:00:00,17.4559458,78.4332152,CO,37,66,48
India,West_Bengal,Durgapur,"Mahishkapur Road_B-Zone, Durgapur - WBPCB",19-04-2026 09:00:00,23.567923,87.306843,NH3,2,3,2
India,West_Bengal,Durgapur,"PCBL Residential Complex, Durgapur - WBPCB",19-04-2026 09:00:00,23.5087640,87.3544400,PM10,41,79,56
India,West_Bengal,Durgapur,"PCBL Residential Complex, Durgapur - WBPCB",19-04-2026 09:00:00,23.5087640,87.3544400,NH3,5,7,6
India,West_Bengal,Durgapur,"Womens College_City Center, Durgapur - WBPCB",19-04-2026 09:00:00,23.549395,87.300496,PM10,32,70,51
India,West_Bengal,Haldia,"Priyambada Housing Estate, Haldia - WBPCB",19-04-2026 09:00:00,22.06047,88.109737,PM2.5,18,47,32
India,West_Bengal,Haldia,"Priyambada Housing Estate, Haldia - WBPCB",19-04-2026 09:00:00,22.06047,88.109737,PM10,34,67,52
India,West_Bengal,Howrah,"Belur Math, Howrah - WBPCB",19-04-2026 09:00:00,22.629801,88.352017,NH3,4,7,5
India,West_Bengal,Howrah,"Belur Math, Howrah - WBPCB",19-04-2026 09:00:00,22.629801,88.352017,CO,6,24,11
India,West_Bengal,Howrah,"Botanical Garden, Howrah - WBPCB",19-04-2026 09:00:00,22.554954,88.292568,PM10,40,63,49
India,West_Bengal,Howrah,"Botanical Garden, Howrah - WBPCB",19-04-2026 09:00:00,22.554954,88.292568,NO2,4,20,11
India,West_Bengal,Howrah,"Botanical Garden, Howrah - WBPCB",19-04-2026 09:00:00,22.554954,88.292568,SO2,2,3,3
India,West_Bengal,Howrah,"Botanical Garden, Howrah - WBPCB",19-04-2026 09:00:00,22.554954,88.292568,OZONE,10,40,15
India,Uttar_Pradesh,Varanasi,"Bhelupur, Varanasi - UPPCB",19-04-2026 09:00:00,25.301778,82.996789,NO2,8,8,8
India,Uttar_Pradesh,Varanasi,"Bhelupur, Varanasi - UPPCB",19-04-2026 09:00:00,25.301778,82.996789,SO2,45,73,61
India,Uttar_Pradesh,Varanasi,"IESD Banaras Hindu University, Varanasi - UPPCB",19-04-2026 09:00:00,25.262326,82.995408,PM10,49,130,92
India,Uttar_Pradesh,Varanasi,"Maldahiya, Varanasi - UPPCB",19-04-2026 09:00:00,25.32393,82.99687,NO2,2,4,3
India,Uttar_Pradesh,Vrindavan,"Omex Eternity, Vrindavan - UPPCB",19-04-2026 09:00:00,27.5714090,77.6557570,NH3,5,9,7
India,Uttarakhand,Dehradun,"Doon University, Dehradun - UKPCB",19-04-2026 09:00:00,30.269444,78.044167,PM10,33,88,50
India,Uttarakhand,Dehradun,"Doon University, Dehradun - UKPCB",19-04-2026 09:00:00,30.269444,78.044167,NO2,1,5,2
India,Uttarakhand,Dehradun,"Doon University, Dehradun - UKPCB",19-04-2026 09:00:00,30.269444,78.044167,SO2,1,2,1
India,Uttarakhand,Kashipur,"Govt. Girls Inter College, Kashipur - UKPCB",19-04-2026 09:00:00,29.2124114,78.9611753,NH3,NA,NA,NA
India,Uttarakhand,Kashipur,"Govt. Girls Inter College, Kashipur - UKPCB",19-04-2026 09:00:00,29.2124114,78.9611753,SO2,NA,NA,NA
India,West_Bengal,Howrah,"Ghusuri, Howrah - WBPCB",19-04-2026 09:00:00,22.611968,88.347422,PM10,42,156,87
India,West_Bengal,Howrah,"Ghusuri, Howrah - WBPCB",19-04-2026 09:00:00,22.611968,88.347422,NO2,4,34,12
India,West_Bengal,Howrah,"Padmapukur, Howrah - WBPCB",19-04-2026 09:00:00,22.5687319,88.2797276,CO,16,41,28
India,West_Bengal,Kolkata,"Ballygunge, Kolkata - WBPCB",19-04-2026 09:00:00,22.5367507,88.3638022,PM2.5,11,48,36
India,West_Bengal,Kolkata,"Bidhannagar, Kolkata - WBPCB",19-04-2026 09:00:00,22.58157048,88.41002457,SO2,3,11,7
India,West_Bengal,Kolkata,"Bidhannagar, Kolkata - WBPCB",19-04-2026 09:00:00,22.58157048,88.41002457,OZONE,20,50,23
India,West_Bengal,Kolkata,"Fort William, Kolkata - WBPCB",19-04-2026 09:00:00,22.556640,88.342674,PM10,21,48,33
India,West_Bengal,Kolkata,"Fort William, Kolkata - WBPCB",19-04-2026 09:00:00,22.556640,88.342674,SO2,3,18,8
India,West_Bengal,Kolkata,"Jadavpur, Kolkata - WBPCB",19-04-2026 09:00:00,22.49929,88.36917,PM10,29,55,44
India,West_Bengal,Asansol,"Asansol Court Area, Asansol - WBPCB",19-04-2026 09:00:00,23.685297,86.945968,SO2,11,17,13
India,West_Bengal,Asansol,"Asansol Court Area, Asansol - WBPCB",19-04-2026 09:00:00,23.685297,86.945968,CO,12,51,33
India,West_Bengal,Asansol,"Mahabir Colliery, Asansol - WBPCB",19-04-2026 09:00:00,23.6181830,87.1057180,PM2.5,13,37,25
India,West_Bengal,Asansol,"Mahabir Colliery, Asansol - WBPCB",19-04-2026 09:00:00,23.6181830,87.1057180,SO2,2,5,4
India,West_Bengal,Asansol,"Trivenidevi Bhalotia College, Asansol - WBPCB",19-04-2026 09:00:00,23.616515,87.119133,SO2,10,13,11
India,West_Bengal,Barrackpore,"SVSPA Campus, Barrackpore - WBPCB",19-04-2026 09:00:00,22.7605581,88.3617589,OZONE,12,42,14
India,West_Bengal,Durgapur,"Mahishkapur Road_B-Zone, Durgapur - WBPCB",19-04-2026 09:00:00,23.567923,87.306843,PM2.5,29,57,38
India,Uttar_Pradesh,Moradabad,"Kashiram Nagar, Moradabad - UPPCB",19-04-2026 09:00:00,28.849399,78.742362,PM2.5,24,134,54
India,Uttar_Pradesh,Moradabad,"Transport Nagar, Moradabad - UPPCB",19-04-2026 09:00:00,28.802625,78.753728,PM10,41,126,87
India,Uttar_Pradesh,Moradabad,"Transport Nagar, Moradabad - UPPCB",19-04-2026 09:00:00,28.802625,78.753728,NO2,29,30,29
India,Uttar_Pradesh,Moradabad,"Transport Nagar, Moradabad - UPPCB",19-04-2026 09:00:00,28.802625,78.753728,SO2,49,75,55
India,Uttar_Pradesh,Muzaffarnagar,"New Mandi, Muzaffarnagar - UPPCB",19-04-2026 09:00:00,29.4723508,77.7194031,CO,22,88,69
India,Uttar_Pradesh,Noida,"Sector - 62, Noida - IMD",19-04-2026 09:00:00,28.6245479,77.3577104,PM2.5,14,415,212
India,Uttar_Pradesh,Noida,"Sector - 62, Noida - IMD",19-04-2026 09:00:00,28.6245479,77.3577104,PM10,75,403,216
India,Uttar_Pradesh,Noida,"Sector - 62, Noida - IMD",19-04-2026 09:00:00,28.6245479,77.3577104,NO2,1,38,21
India,Uttar_Pradesh,Prayagraj,"Nagar Nigam, Prayagraj - UPPCB",19-04-2026 09:00:00,25.44919916 ,81.82735986 ,PM10,32,265,80
India,Uttar_Pradesh,Prayagraj,"Nagar Nigam, Prayagraj - UPPCB",19-04-2026 09:00:00,25.44919916 ,81.82735986 ,SO2,27,68,47
India,Uttar_Pradesh,Prayagraj,"Nagar Nigam, Prayagraj - UPPCB",19-04-2026 09:00:00,25.44919916 ,81.82735986 ,OZONE,11,12,12
India,Uttar_Pradesh,Raebareli," Indira Nagar, Raebareli - NTPC Unchahar",19-04-2026 09:00:00,26.207781,81.245571,OZONE,25,176,52
India,Uttar_Pradesh,Varanasi,"Ardhali Bazar, Varanasi - UPPCB",19-04-2026 09:00:00,25.3505986,82.9083074,PM10,10,215,130
India,Uttar_Pradesh,Varanasi,"Ardhali Bazar, Varanasi - UPPCB",19-04-2026 09:00:00,25.3505986,82.9083074,NO2,37,43,41
India,Uttar_Pradesh,Varanasi,"Ardhali Bazar, Varanasi - UPPCB",19-04-2026 09:00:00,25.3505986,82.9083074,SO2,9,11,10
India,Uttar_Pradesh,Noida,"Sector-116, Noida - UPPCB",19-04-2026 09:00:00,28.569230,77.393848,CO,4,157,90
India,Uttar_Pradesh,Prayagraj,"Jhunsi, Prayagraj - UPPCB",19-04-2026 09:00:00,25.425602,81.917152,NH3,5,6,6
India,Uttar_Pradesh,Prayagraj,"Motilal Nehru NIT, Prayagraj - UPPCB",19-04-2026 09:00:00,25.494,81.863,NO2,12,12,12
India,West_Bengal,Kolkata,"Rabindra Bharati University, Kolkata - WBPCB",19-04-2026 09:00:00,22.627847,88.380669,PM2.5,29,89,53
India,West_Bengal,Kolkata,"Rabindra Bharati University, Kolkata - WBPCB",19-04-2026 09:00:00,22.627847,88.380669,NO2,28,52,39
India,West_Bengal,Kolkata,"Rabindra Sarobar, Kolkata - WBPCB",19-04-2026 09:00:00,22.51106,88.35142,PM2.5,14,47,26
India,West_Bengal,Kolkata,"Rabindra Sarobar, Kolkata - WBPCB",19-04-2026 09:00:00,22.51106,88.35142,NO2,15,41,23
India,West_Bengal,Kolkata,"Victoria, Kolkata - WBPCB",19-04-2026 09:00:00,22.5448082,88.3403691,PM2.5,29,63,42
India,West_Bengal,Siliguri,"Ward-32 Bapupara, Siliguri - WBPCB",19-04-2026 09:00:00,26.6879226,88.4152495,SO2,13,17,15
India,Bihar,Bihar Sharif,"D M Colony, Bihar Sharif - BSPCB",19-04-2026 09:00:00,25.204762,85.514960,NH3,3,4,3
India,Bihar,Bihar Sharif,"D M Colony, Bihar Sharif - BSPCB",19-04-2026 09:00:00,25.204762,85.514960,CO,32,99,49
India,Bihar,Buxar,"Charitra Van, Buxar - BSPCB",19-04-2026 09:00:00,25.567520,83.966379,PM10,39,127,69
India,Bihar,Buxar,"Charitra Van, Buxar - BSPCB",19-04-2026 09:00:00,25.567520,83.966379,NH3,3,3,3
India,Bihar,Chhapra,"Darshan Nagar, Chhapra - BSPCB",19-04-2026 09:00:00,25.7808257,84.7446768,PM2.5,NA,NA,NA
India,Bihar,Chhapra,"Darshan Nagar, Chhapra - BSPCB",19-04-2026 09:00:00,25.7808257,84.7446768,CO,NA,NA,NA
India,Bihar,Gaya,"Collectorate, Gaya - BSPCB",19-04-2026 09:00:00,24.7955,84.9994,NO2,9,9,9
India,Bihar,Gaya,"Kareemganj, Gaya - BSPCB",19-04-2026 09:00:00,24.792403,84.992416,PM10,121,361,188
India,Bihar,Gaya,"Kareemganj, Gaya - BSPCB",19-04-2026 09:00:00,24.792403,84.992416,SO2,42,46,44
India,Bihar,Gaya,"SFTI Kusdihra, Gaya - BSPCB",19-04-2026 09:00:00,24.762518,84.982348,NO2,17,30,22
India,Bihar,Gaya,"SFTI Kusdihra, Gaya - BSPCB",19-04-2026 09:00:00,24.762518,84.982348,CO,10,46,40
India,Bihar,Arrah,"New DM Office, Arrah - BSPCB",19-04-2026 09:00:00,25.5626095,84.663264,NH3,1,2,2
India,Bihar,Arrah,"New DM Office, Arrah - BSPCB",19-04-2026 09:00:00,25.5626095,84.663264,SO2,4,6,5
India,Bihar,Arrah,"New DM Office, Arrah - BSPCB",19-04-2026 09:00:00,25.5626095,84.663264,CO,40,68,53
India,Bihar,Aurangabad,"Gurdeo Nagar, Aurangabad - BSPCB",19-04-2026 09:00:00,24.75746,84.366208,NO2,7,8,8
India,Bihar,Aurangabad,"Gurdeo Nagar, Aurangabad - BSPCB",19-04-2026 09:00:00,24.75746,84.366208,SO2,NA,NA,NA
India,Bihar,Bettiah,"Kamalnath Nagar, Bettiah - BSPCB",19-04-2026 09:00:00,26.80365,84.51954,NO2,6,11,8
India,Bihar,Bhagalpur,"DM Office_Kachari Chowk, Bhagalpur - BSPCB",19-04-2026 09:00:00,25.251013,86.989001,PM2.5,17,98,52
India,Bihar,Bhagalpur,"DM Office_Kachari Chowk, Bhagalpur - BSPCB",19-04-2026 09:00:00,25.251013,86.989001,NH3,1,1,1
India,Bihar,Bhagalpur,"DM Office_Kachari Chowk, Bhagalpur - BSPCB",19-04-2026 09:00:00,25.251013,86.989001,SO2,26,99,58
India,Bihar,Bhagalpur,"Mayaganj, Bhagalpur - BSPCB",19-04-2026 09:00:00,25.265194,87.012947,NH3,6,9,7
India,Andhra_Pradesh,Vijayawada,"Rajiv Nagar, Vijayawada - APPCB",19-04-2026 09:00:00,16.554731,80.649110,NO2,12,25,15
India,Andhra_Pradesh,Vijayawada,"Rajiv Nagar, Vijayawada - APPCB",19-04-2026 09:00:00,16.554731,80.649110,CO,22,47,32
India,Andhra_Pradesh,Visakhapatnam,"GVM Corporation, Visakhapatnam - APPCB",19-04-2026 09:00:00,17.72,83.3,CO,3,69,20
India,Arunachal_Pradesh,Naharlagun,"Naharlagun, Naharlagun - APSPCB",19-04-2026 09:00:00,27.103358,93.679645,NH3,NA,NA,NA
India,Assam,Byrnihat,"Central Academy for SFS, Byrnihat - PCBA",19-04-2026 09:00:00,26.071318,91.87488,PM10,60,189,96
India,Assam,Guwahati,"LGBI Airport, Guwahati - PCBA",19-04-2026 09:00:00,26.10887,91.589544,PM2.5,12,55,40
India,Assam,Guwahati,"LGBI Airport, Guwahati - PCBA",19-04-2026 09:00:00,26.10887,91.589544,PM10,11,47,34
India,Assam,Guwahati,"LGBI Airport, Guwahati - PCBA",19-04-2026 09:00:00,26.10887,91.589544,SO2,6,21,11
India,Andhra_Pradesh,Rajamahendravaram,"Anand Kala Kshetram, Rajamahendravaram - APPCB",19-04-2026 09:00:00,16.9872867,81.7363176,SO2,5,9,6
India,Andhra_Pradesh,Rajamahendravaram,"Anand Kala Kshetram, Rajamahendravaram - APPCB",19-04-2026 09:00:00,16.9872867,81.7363176,CO,13,52,22
India,Andhra_Pradesh,Vijayawada,"HB Colony, Vijayawada - APPCB",19-04-2026 09:00:00,16.536107,80.594233,NO2,16,30,19
India,Andhra_Pradesh,Vijayawada,"Kanuru, Vijayawada - APPCB",19-04-2026 09:00:00,16.486692,80.699436,PM2.5,NA,NA,NA
India,Andhra_Pradesh,Vijayawada,"Kanuru, Vijayawada - APPCB",19-04-2026 09:00:00,16.486692,80.699436,OZONE,NA,NA,NA
India,Andhra_Pradesh,Vijayawada,"Rajiv Gandhi Park, Vijayawada - APPCB",19-04-2026 09:00:00,16.509717,80.612222,NH3,6,7,7
India,Andhra_Pradesh,Vijayawada,"Rajiv Nagar, Vijayawada - APPCB",19-04-2026 09:00:00,16.554731,80.649110,PM10,59,68,61
India,Bihar,Hajipur,"Industrial Area, Hajipur - BSPCB",19-04-2026 09:00:00,25.697189,85.245900,PM10,49,153,90
India,Bihar,Hajipur,"Industrial Area, Hajipur - BSPCB",19-04-2026 09:00:00,25.697189,85.245900,CO,15,48,23
India,Bihar,Katihar,"Mirchaibari, Katihar - BSPCB",19-04-2026 09:00:00,25.560083,87.553265,SO2,19,28,23
India,Bihar,Katihar,"Mirchaibari, Katihar - BSPCB",19-04-2026 09:00:00,25.560083,87.553265,OZONE,5,48,7
India,Bihar,Kishanganj,"SDM Office_Khagra, Kishanganj - BSPCB",19-04-2026 09:00:00,26.0881305,87.93840336,PM2.5,5,47,21
India,Bihar,Kishanganj,"SDM Office_Khagra, Kishanganj - BSPCB",19-04-2026 09:00:00,26.0881305,87.93840336,NH3,3,3,3
India,Bihar,Manguraha,"Forest Rest House, Manguraha - BSPCB",19-04-2026 09:00:00,27.308328,84.531742,NO2,1,404,46
India,Bihar,Munger,"Town Hall, Munger - BSPCB",19-04-2026 09:00:00,25.376776,86.471523,PM10,9,61,34
India,Bihar,Muzaffarpur,"MIT-Daudpur Kothi, Muzaffarpur - BSPCB",19-04-2026 09:00:00,26.1403345,85.3650192,SO2,6,27,13
India,Bihar,Muzaffarpur,"Muzaffarpur Collectorate, Muzaffarpur - BSPCB",19-04-2026 09:00:00,26.1209,85.3647,PM2.5,70,110,86
India,Bihar,Muzaffarpur,"Muzaffarpur Collectorate, Muzaffarpur - BSPCB",19-04-2026 09:00:00,26.1209,85.3647,NO2,7,16,10
India,Bihar,Muzaffarpur,"Muzaffarpur Collectorate, Muzaffarpur - BSPCB",19-04-2026 09:00:00,26.1209,85.3647,CO,9,52,31
India,Bihar,Muzaffarpur,"Muzaffarpur Collectorate, Muzaffarpur - BSPCB",19-04-2026 09:00:00,26.1209,85.3647,OZONE,7,19,8
India,Bihar,Patna,"Govt. High School Shikarpur, Patna - BSPCB",19-04-2026 09:00:00,25.592539,85.227158,NH3,4,5,5
India,Assam,Nagaon,"Christianpatty, Nagaon - PCBA",19-04-2026 09:00:00,26.349082,92.68449,NO2,1,1,1
India,Assam,Nagaon,"Christianpatty, Nagaon - PCBA",19-04-2026 09:00:00,26.349082,92.68449,NH3,4,4,4
India,Assam,Nalbari,"Bata Chowk, Nalbari - PCBA",19-04-2026 09:00:00,26.446912,91.439057,PM10,22,61,44
India,Assam,Nalbari,"Bata Chowk, Nalbari - PCBA",19-04-2026 09:00:00,26.446912,91.439057,NH3,6,6,6
India,Assam,Sivasagar,"Girls College, Sivasagar - PCBA",19-04-2026 09:00:00,26.987634,94.636574,NO2,25,44,34
India,Assam,Sivasagar,"Girls College, Sivasagar - PCBA",19-04-2026 09:00:00,26.987634,94.636574,CO,21,31,26
India,Bihar,Araria,"Kharahiya Basti, Araria - BSPCB",19-04-2026 09:00:00,26.146529,87.454184,OZONE,9,11,10
India,Andhra_Pradesh,Eluru,"District Court, Eluru - APPCB",19-04-2026 09:00:00,16.711754,81.092095,OZONE,5,16,6
India,Andhra_Pradesh,Guntur,"Rajendra Nagar North, Guntur - APPCB",19-04-2026 09:00:00,16.316553,80.413302,PM2.5,57,86,72
India,Andhra_Pradesh,Guntur,"Rajendra Nagar North, Guntur - APPCB",19-04-2026 09:00:00,16.316553,80.413302,PM10,64,107,87
India,Andhra_Pradesh,Machilipatnam,"Srinivas Nagar Colony, Machilipatnam - APPCB",19-04-2026 09:00:00,16.186555,81.13219,NO2,5,16,11
India,Andhra_Pradesh,Machilipatnam,"Srinivas Nagar Colony, Machilipatnam - APPCB",19-04-2026 09:00:00,16.186555,81.13219,SO2,13,15,13
India,Andhra_Pradesh,Nellore,"Ambedkar Nagar, Nellore - APPCB ",19-04-2026 09:00:00,14.438164 ,79.966814 ,PM10,17,73,38
India,Bihar,Patna,"IGSC Planetarium Complex, Patna - BSPCB",19-04-2026 09:00:00,25.610369,85.132568,SO2,16,19,17
India,Bihar,Patna,"IGSC Planetarium Complex, Patna - BSPCB",19-04-2026 09:00:00,25.610369,85.132568,OZONE,59,60,60
India,Bihar,Patna,"Muradpur, Patna - BSPCB",19-04-2026 09:00:00,25.619651,85.147382,NO2,10,140,16
India,Bihar,Patna,"Muradpur, Patna - BSPCB",19-04-2026 09:00:00,25.619651,85.147382,NH3,4,5,5
India,Bihar,Patna,"Muradpur, Patna - BSPCB",19-04-2026 09:00:00,25.619651,85.147382,SO2,8,13,10
India,Bihar,Patna,"Samanpura, Patna - BSPCB",19-04-2026 09:00:00,25.596727,85.085624,NH3,4,9,6
India,Bihar,Rajgir,"Dangi Tola, Rajgir - BSPCB",19-04-2026 09:00:00,25.03280,85.41948,NO2,12,15,14
India,Andhra_Pradesh,Amaravati,"Secretariat, Amaravati - APPCB",19-04-2026 09:00:00,16.5150833,80.5181667,NO2,13,24,17
India,Andhra_Pradesh,Anantapur,"Gulzarpet, Anantapur - APPCB",19-04-2026 09:00:00,14.675886,77.593027,NH3,4,6,4
India,Andhra_Pradesh,Anantapur,"Gulzarpet, Anantapur - APPCB",19-04-2026 09:00:00,14.675886,77.593027,SO2,6,12,8
India,Andhra_Pradesh,Chittoor,"Gangineni Cheruvu, Chittoor - APPCB",19-04-2026 09:00:00,13.204880,79.097889,NH3,5,7,5
India,Chhattisgarh,Raipur,"Bhatagaon New ISBT, Raipur - CECB",19-04-2026 09:00:00,21.219665,81.630094,CO,18,129,39
India,Chhattisgarh,Raipur,"Krishak Nagar, Raipur - CECB",19-04-2026 09:00:00,21.237755,81.705301,PM10,49,85,64
India,Chhattisgarh,Raipur,"Krishak Nagar, Raipur - CECB",19-04-2026 09:00:00,21.237755,81.705301,SO2,5,16,8
India,Chhattisgarh,Raipur,"Krishak Nagar, Raipur - CECB",19-04-2026 09:00:00,21.237755,81.705301,CO,8,31,18
India,Chhattisgarh,Raipur,"Siltara Phase-II, Raipur - CECB",19-04-2026 09:00:00,21.371751,81.664929,PM2.5,NA,NA,NA
India,Chhattisgarh,Raipur,"Siltara Phase-II, Raipur - CECB",19-04-2026 09:00:00,21.371751,81.664929,NH3,NA,NA,NA
India,Chhattisgarh,Tumidih,"OP Jindal Industrial Park, Tumidih - CECB",19-04-2026 09:00:00,22.06631475,83.33820077,PM2.5,54,234,102
India,Chhattisgarh,Tumidih,"OP Jindal Industrial Park, Tumidih - CECB",19-04-2026 09:00:00,22.06631475,83.33820077,SO2,7,21,10
India,Chhattisgarh,Tumidih,"OP Jindal Industrial Park, Tumidih - CECB",19-04-2026 09:00:00,22.06631475,83.33820077,CO,22,90,52
India,Delhi,Delhi,"Alipur, Delhi - DPCC",19-04-2026 09:00:00,28.815329,77.153010,NH3,7,22,13
India,Delhi,Delhi,"Alipur, Delhi - DPCC",19-04-2026 09:00:00,28.815329,77.153010,CO,12,117,86
India,Delhi,Delhi,"Jahangirpuri, Delhi - DPCC",19-04-2026 09:00:00,28.732820,77.170633,NO2,36,122,84
India,Delhi,Delhi,"Jahangirpuri, Delhi - DPCC",19-04-2026 09:00:00,28.732820,77.170633,NH3,3,25,17
India,Delhi,Delhi,"Jahangirpuri, Delhi - DPCC",19-04-2026 09:00:00,28.732820,77.170633,SO2,44,102,74
India,Delhi,Delhi,"Jawaharlal Nehru Stadium, Delhi - DPCC",19-04-2026 09:00:00,28.580280,77.233829,SO2,16,58,27
India,Delhi,Delhi,"Jawaharlal Nehru Stadium, Delhi - DPCC",19-04-2026 09:00:00,28.580280,77.233829,OZONE,1,14,1
India,Delhi,Delhi,"Lodhi Road, Delhi - IMD",19-04-2026 09:00:00,28.5918245,77.2273074,CO,18,104,86
India,Delhi,Delhi,"Major Dhyan Chand National Stadium, Delhi - DPCC",19-04-2026 09:00:00,28.611281,77.237738,OZONE,2,86,2
India,Delhi,Delhi,"Mandir Marg, Delhi - DPCC",19-04-2026 09:00:00,28.636429,77.201067,NO2,1,104,58
India,Delhi,Delhi,"Mandir Marg, Delhi - DPCC",19-04-2026 09:00:00,28.636429,77.201067,CO,4,132,87
India,Delhi,Delhi,"Mundka, Delhi - DPCC",19-04-2026 09:00:00,28.684678,77.076574,PM10,85,500,279
India,Bihar,Rajgir,"Dangi Tola, Rajgir - BSPCB",19-04-2026 09:00:00,25.03280,85.41948,CO,34,48,43
India,Bihar,Saharsa,"Police Line, Saharsa - BSPCB",19-04-2026 09:00:00,25.892357,86.590325,PM10,16,152,59
India,Bihar,Samastipur,"DM Office_Kasipur, Samastipur - BSPCB",19-04-2026 09:00:00,25.859655,85.77944,CO,9,12,12
India,Bihar,Sasaram,"Dada Peer, Sasaram - BSPCB",19-04-2026 09:00:00,24.952822,84.002396,NO2,1,8,3
India,Bihar,Sasaram,"Dada Peer, Sasaram - BSPCB",19-04-2026 09:00:00,24.952822,84.002396,OZONE,11,128,18
India,Bihar,Siwan,"Chitragupta Nagar, Siwan - BSPCB",19-04-2026 09:00:00,26.2271665,84.3570427,PM10,24,115,67
India,Chandigarh,Chandigarh,"Sector 22, Chandigarh - CPCC",19-04-2026 09:00:00,30.735567,76.775714,NO2,8,41,20
India,Chandigarh,Chandigarh,"Sector 22, Chandigarh - CPCC",19-04-2026 09:00:00,30.735567,76.775714,CO,52,108,58
India,Chhattisgarh,Chhal,"Nawapara SECL Colony, Chhal - CECB",19-04-2026 09:00:00,22.118125,83.140608,CO,26,72,50
India,Chhattisgarh,Korba,"Rampur, Korba - CECB",19-04-2026 09:00:00,22.368195,82.746431,NO2,9,36,20
India,Chhattisgarh,Korba,"Urja Nagar, Korba - CECB",19-04-2026 09:00:00,22.348441,82.549611,PM2.5,14,19,15
India,Chhattisgarh,Korba,"Urja Nagar, Korba - CECB",19-04-2026 09:00:00,22.348441,82.549611,PM10,35,293,107
India,Chhattisgarh,Korba,"Urja Nagar, Korba - CECB",19-04-2026 09:00:00,22.348441,82.549611,NH3,1,1,1
India,Chhattisgarh,Korba,"Urja Nagar, Korba - CECB",19-04-2026 09:00:00,22.348441,82.549611,OZONE,2,8,2
India,Chhattisgarh,Kunjemura,"OP Jindal School, Kunjemura - CECB",19-04-2026 09:00:00,22.126650,83.483212,NH3,2,2,2
India,Chhattisgarh,Milupara,"Govt. Higher Secondary School, Milupara - CECB",19-04-2026 09:00:00,22.1910172,83.5197009,PM10,NA,NA,NA
India,Chandigarh,Chandigarh,"Sector-25, Chandigarh - CPCC",19-04-2026 09:00:00,30.751462,76.762879,NH3,NA,NA,NA
India,Chandigarh,Chandigarh,"Sector-25, Chandigarh - CPCC",19-04-2026 09:00:00,30.751462,76.762879,OZONE,9,73,18
India,Chandigarh,Chandigarh,"Sector-53, Chandigarh - CPCC",19-04-2026 09:00:00,30.719859,76.738637,PM10,47,173,100
India,Chhattisgarh,Bhilai,"Civic Center, Bhilai - Bhilai Steel Plant",19-04-2026 09:00:00,21.185571,81.343175,PM10,41,86,57
India,Chhattisgarh,Bhilai,"Civic Center, Bhilai - Bhilai Steel Plant",19-04-2026 09:00:00,21.185571,81.343175,NH3,1,2,1
India,Chhattisgarh,Bhilai,"Civic Center, Bhilai - Bhilai Steel Plant",19-04-2026 09:00:00,21.185571,81.343175,CO,20,32,20
India,Chhattisgarh,Bhilai,"Hathkhoj, Bhilai - CECB",19-04-2026 09:00:00,21.224231,81.408350,PM2.5,29,79,50
India,Delhi,Delhi,"Ashok Vihar, Delhi - DPCC",19-04-2026 09:00:00,28.695381,77.181665,PM2.5,28,456,234
India,Delhi,Delhi,"Ashok Vihar, Delhi - DPCC",19-04-2026 09:00:00,28.695381,77.181665,NO2,17,133,71
India,Delhi,Delhi,"Ashok Vihar, Delhi - DPCC",19-04-2026 09:00:00,28.695381,77.181665,OZONE,3,78,5
India,Delhi,Delhi,"Aya Nagar, Delhi - IMD",19-04-2026 09:00:00,28.4706914,77.1099364,NO2,12,129,67
India,Delhi,Delhi,"Bawana, Delhi - DPCC",19-04-2026 09:00:00,28.776200,77.051074,PM2.5,30,494,263
India,Delhi,Delhi,"Bawana, Delhi - DPCC",19-04-2026 09:00:00,28.776200,77.051074,NO2,6,82,41
India,Delhi,Delhi,"Burari Crossing, Delhi - IMD",19-04-2026 09:00:00,28.7256504,77.2011573,CO,18,125,102
India,Delhi,Delhi,"IGNOU_Maidan Garhi, Delhi - DPCC",19-04-2026 09:00:00,28.493624 ,77.201159 ,CO,36,109,97
India,Delhi,Delhi,"IHBAS, Dilshad Garden, Delhi - CPCB",19-04-2026 09:00:00,28.6811736,77.3025234,NH3,5,9,6
India,Delhi,Delhi,"IIT Delhi, Delhi - IITM",19-04-2026 09:00:00,28.542460,77.191651,OZONE,9,79,11
India,Delhi,Delhi,"ITO, Delhi - CPCB",19-04-2026 09:00:00,28.628624,77.241060,NH3,3,8,6
India,Delhi,Delhi,"ITO, Delhi - CPCB",19-04-2026 09:00:00,28.628624,77.241060,OZONE,18,57,19
India,Delhi,Delhi,"JNU, Delhi - DPCC",19-04-2026 09:00:00,28.540721 ,77.168544 ,PM2.5,25,370,153
India,Delhi,Delhi,"Chandni Chowk, Delhi - IITM",19-04-2026 09:00:00,28.656756,77.227234,SO2,15,31,22
India,Delhi,Delhi,"Commonwealth Sports Complex, Delhi - DPCC",19-04-2026 09:00:00,28.615828 ,77.271992 ,PM2.5,38,413,193
India,Delhi,Delhi,"DTU, Delhi - CPCB",19-04-2026 09:00:00,28.7500499,77.1112615,PM2.5,25,486,214
India,Delhi,Delhi,"DTU, Delhi - CPCB",19-04-2026 09:00:00,28.7500499,77.1112615,PM10,56,424,195
India,Delhi,Delhi,"Dr. Karni Singh Shooting Range, Delhi - DPCC",19-04-2026 09:00:00,28.498571,77.264840,SO2,16,75,33
India,Delhi,Delhi,"Dwarka-Sector 8, Delhi - DPCC ",19-04-2026 09:00:00,28.5710274,77.0719006,SO2,3,40,20
India,Delhi,Delhi,"Dwarka-Sector 8, Delhi - DPCC ",19-04-2026 09:00:00,28.5710274,77.0719006,OZONE,11,65,12
India,Delhi,Delhi,"IGI Airport (T3), Delhi - IMD",19-04-2026 09:00:00,28.5627763,77.1180053,PM2.5,5,348,161
India,Delhi,Delhi,"IGNOU_Maidan Garhi, Delhi - DPCC",19-04-2026 09:00:00,28.493624 ,77.201159 ,PM10,77,395,236
India,Gujarat,Ahmedabad,"Raikhad, Ahmedabad - IITM",19-04-2026 09:00:00,23.020509,72.579261,CO,2,114,3
India,Gujarat,Ahmedabad,"Rakhial, Ahmedabad - IITM",19-04-2026 09:00:00,23.016834,72.625775,NO2,2,10,5
India,Gujarat,Ahmedabad,"Rakhial, Ahmedabad - IITM",19-04-2026 09:00:00,23.016834,72.625775,CO,2,151,12
India,Gujarat,Ahmedabad,"Rakhial, Ahmedabad - IITM",19-04-2026 09:00:00,23.016834,72.625775,OZONE,2,53,13
India,Gujarat,Ahmedabad,"SAC ISRO Bopal, Ahmedabad - IITM",19-04-2026 09:00:00,23.041137,72.456691,NH3,2,7,4
India,Gujarat,Ahmedabad,"SAC ISRO Satellite, Ahmedabad - IITM",19-04-2026 09:00:00,23.023389,72.515201,PM2.5,53,124,81
India,Gujarat,Ahmedabad,"SAC ISRO Satellite, Ahmedabad - IITM",19-04-2026 09:00:00,23.023389,72.515201,NO2,6,24,11
India,Gujarat,Ahmedabad,"SAC ISRO Satellite, Ahmedabad - IITM",19-04-2026 09:00:00,23.023389,72.515201,NH3,1,7,3
India,Gujarat,Ahmedabad,"SVPI Airport Hansol, Ahmedabad - IITM",19-04-2026 09:00:00,23.076793,72.627874,PM2.5,29,86,55
India,Gujarat,Ahmedabad,"SVPI Airport Hansol, Ahmedabad - IITM",19-04-2026 09:00:00,23.076793,72.627874,SO2,4,19,9
India,Gujarat,Ahmedabad,"SVPI Airport Hansol, Ahmedabad - IITM",19-04-2026 09:00:00,23.076793,72.627874,OZONE,2,83,24
India,Delhi,Delhi,"Rohini, Delhi - DPCC",19-04-2026 09:00:00,28.732528,77.119920,PM2.5,33,500,286
India,Delhi,Delhi,"Rohini, Delhi - DPCC",19-04-2026 09:00:00,28.732528,77.119920,PM10,96,500,324
India,Delhi,Delhi,"Rohini, Delhi - DPCC",19-04-2026 09:00:00,28.732528,77.119920,OZONE,3,48,4
India,Delhi,Delhi,"Sirifort, Delhi - CPCB",19-04-2026 09:00:00,28.5504249,77.2159377,PM10,117,475,259
India,Delhi,Delhi,"Sirifort, Delhi - CPCB",19-04-2026 09:00:00,28.5504249,77.2159377,NH3,6,18,14
India,Delhi,Delhi,"Sirifort, Delhi - CPCB",19-04-2026 09:00:00,28.5504249,77.2159377,SO2,31,42,37
India,Delhi,Delhi,"Sirifort, Delhi - CPCB",19-04-2026 09:00:00,28.5504249,77.2159377,CO,14,126,114
India,Delhi,Delhi,"Sonia Vihar, Delhi - DPCC",19-04-2026 09:00:00,28.710508,77.249485,PM2.5,32,431,200
India,Delhi,Delhi,"Sonia Vihar, Delhi - DPCC",19-04-2026 09:00:00,28.710508,77.249485,NH3,9,14,11
India,Delhi,Delhi,"Sri Aurobindo Marg, Delhi - DPCC",19-04-2026 09:00:00,28.531346,77.190156,PM10,59,244,133
India,Delhi,Delhi,"Sri Aurobindo Marg, Delhi - DPCC",19-04-2026 09:00:00,28.531346,77.190156,SO2,14,31,21
India,Delhi,Delhi,"Talkatora Garden, Delhi - DPCC",19-04-2026 09:00:00,28.621810,77.1944633,SO2,17,37,26
India,Delhi,Delhi,"Vivek Vihar, Delhi - DPCC",19-04-2026 09:00:00,28.672342,77.315260,PM10,90,462,270
India,Delhi,Delhi,"Vivek Vihar, Delhi - DPCC",19-04-2026 09:00:00,28.672342,77.315260,NO2,27,145,85
India,Delhi,Delhi,"Wazirpur, Delhi - DPCC",19-04-2026 09:00:00,28.699793,77.165453,PM2.5,52,489,284
India,Delhi,Delhi,"Wazirpur, Delhi - DPCC",19-04-2026 09:00:00,28.699793,77.165453,NO2,55,146,107
India,Delhi,Delhi,"Wazirpur, Delhi - DPCC",19-04-2026 09:00:00,28.699793,77.165453,CO,22,140,101
India,Gujarat,Ahmedabad,"Gyaspur, Ahmedabad - IITM",19-04-2026 09:00:00,22.977134,72.553024,NH3,3,79,16
India,Gujarat,Bhavnagar,"Vidhyanagar, Bhavnagar - Nexteng Enviro",19-04-2026 09:00:00,21.755417,72.139056,PM10,74,240,135
India,Gujarat,Bhavnagar,"Vidhyanagar, Bhavnagar - Nexteng Enviro",19-04-2026 09:00:00,21.755417,72.139056,SO2,5,8,6
India,Gujarat,Gandhinagar,"IIPHG Lekawada, Gandhinagar - IITM",19-04-2026 09:00:00,23.243639,72.68994,PM2.5,22,141,60
India,Gujarat,Gandhinagar,"IIPHG Lekawada, Gandhinagar - IITM",19-04-2026 09:00:00,23.243639,72.68994,SO2,3,11,6
India,Gujarat,Gandhinagar,"IIPHG Lekawada, Gandhinagar - IITM",19-04-2026 09:00:00,23.243639,72.68994,OZONE,1,21,6
India,Gujarat,Gandhinagar,"Sector-10, Gandhinagar - GPCB",19-04-2026 09:00:00,23.221714,72.654328,PM10,51,155,92
India,Gujarat,Gandhinagar,"Sector-10, Gandhinagar - GPCB",19-04-2026 09:00:00,23.221714,72.654328,OZONE,5,47,8
India,Gujarat,Mehsana,"Sadanand Nagar, Mehsana - Nexteng Enviro",19-04-2026 09:00:00,23.593150,72.372792,NO2,33,46,39
India,Gujarat,Vadodara,"Bapunagar, Vadodara - Nexteng Enviro",19-04-2026 09:00:00,22.320153,73.216285,PM2.5,49,269,121
India,Gujarat,Vadodara,"Bapunagar, Vadodara - Nexteng Enviro",19-04-2026 09:00:00,22.320153,73.216285,SO2,6,9,7
India,Gujarat,Vatva,"Phase-4 GIDC, Vatva - GPCB",19-04-2026 09:00:00,22.969611,72.643500,OZONE,29,46,29
India,Haryana,Ambala,"Patti Mehar, Ambala - HSPCB",19-04-2026 09:00:00,30.379589,76.778328,PM2.5,60,223,133
India,Haryana,Ambala,"Patti Mehar, Ambala - HSPCB",19-04-2026 09:00:00,30.379589,76.778328,NH3,7,8,8
India,Haryana,Ballabgarh,"Nathu Colony, Ballabgarh - HSPCB",19-04-2026 09:00:00,28.3419248,77.319699,PM10,NA,NA,NA
India,Delhi,Delhi,"Mundka, Delhi - DPCC",19-04-2026 09:00:00,28.684678,77.076574,SO2,9,62,35
India,Delhi,Delhi,"Mundka, Delhi - DPCC",19-04-2026 09:00:00,28.684678,77.076574,CO,34,128,87
India,Delhi,Delhi,"NSUT Jaffarpur, Delhi - DPCC",19-04-2026 09:00:00,28.594004 ,76.909423 ,NO2,7,95,47
India,Delhi,Delhi,"NSUT Jaffarpur, Delhi - DPCC",19-04-2026 09:00:00,28.594004 ,76.909423 ,NH3,4,10,8
India,Delhi,Delhi,"Najafgarh, Delhi - DPCC",19-04-2026 09:00:00,28.570173,76.933762,PM10,58,235,134
India,Delhi,Delhi,"Najafgarh, Delhi - DPCC",19-04-2026 09:00:00,28.570173,76.933762,SO2,7,99,22
India,Delhi,Delhi,"Narela, Delhi - DPCC",19-04-2026 09:00:00,28.822836,77.101981,NO2,3,80,42
