country,state,city,station,last_update,latitude,longitude,pollutant_id,min_value,max_value,avg_value
India,Bihar,Araria,"Kharahiya Basti, Araria - BSPCB",29-08-2025 07:00:00,26.146529,87.454184,SO2,3,26,18
India,Bihar,Arrah,"New DM Office, Arrah - BSPCB",29-08-2025 07:00:00,25.5626095,84.663264,NO2,4,9,7
India,Bihar,Arrah,"New DM Office, Arrah - BSPCB",29-08-2025 07:00:00,25.5626095,84.663264,OZONE,7,8,8
India,Bihar,Aurangabad,"Gurdeo Nagar, Aurangabad - BSPCB",29-08-2025 07:00:00,24.75746,84.366208,NH3,1,2,2
India,Bihar,Aurangabad,"Gurdeo Nagar, Aurangabad - BSPCB",29-08-2025 07:00:00,24.75746,84.366208,CO,16,48,25
India,Bihar,Begusarai,"Lohiyanagar, Begusarai - BSPCB",29-08-2025 07:00:00,25.42742023,86.13886079,NO2,5,29,15
India,Bihar,Begusarai,"Lohiyanagar, Begusarai - BSPCB",29-08-2025 07:00:00,25.42742023,86.13886079,SO2,7,24,14
India,Bihar,Begusarai,"Lohiyanagar, Begusarai - BSPCB",29-08-2025 07:00:00,25.42742023,86.13886079,OZONE,21,66,42
India,Bihar,Bettiah,"Kamalnath Nagar, Bettiah - BSPCB",29-08-2025 07:00:00,26.80365,84.51954,PM10,4,52,29
India,Andhra_Pradesh,Tirupati,"Vaikuntapuram, Tirupati - APPCB",29-08-2025 07:00:00,13.615387,79.409230,OZONE,27,34,27
India,Andhra_Pradesh,Vijayawada,"HB Colony, Vijayawada - APPCB",29-08-2025 07:00:00,16.536107,80.594233,PM2.5,55,80,66
India,Andhra_Pradesh,Vijayawada,"HB Colony, Vijayawada - APPCB",29-08-2025 07:00:00,16.536107,80.594233,NO2,20,20,20
India,Andhra_Pradesh,Vijayawada,"HB Colony, Vijayawada - APPCB",29-08-2025 07:00:00,16.536107,80.594233,NH3,3,3,3
India,Andhra_Pradesh,Vijayawada,"HB Colony, Vijayawada - APPCB",29-08-2025 07:00:00,16.536107,80.594233,SO2,7,16,10
India,Andhra_Pradesh,Vijayawada,"Rajiv Gandhi Park, Vijayawada - APPCB",29-08-2025 07:00:00,16.509717,80.612222,PM10,54,76,64
India,Andhra_Pradesh,Vijayawada,"Rajiv Nagar, Vijayawada - APPCB",29-08-2025 07:00:00,16.554731,80.649110,PM10,61,75,68
India,Andhra_Pradesh,Vijayawada,"Rajiv Nagar, Vijayawada - APPCB",29-08-2025 07:00:00,16.554731,80.649110,CO,22,54,28
India,Bihar,Chhapra,"Darshan Nagar, Chhapra - BSPCB",29-08-2025 07:00:00,25.7808257,84.7446768,PM10,39,63,49
India,Bihar,Gaya,"Kareemganj, Gaya - BSPCB",29-08-2025 07:00:00,24.792403,84.992416,NH3,4,6,5
India,Bihar,Gaya,"SFTI Kusdihra, Gaya - BSPCB",29-08-2025 07:00:00,24.762518,84.982348,SO2,8,11,10
India,Bihar,Gaya,"SFTI Kusdihra, Gaya - BSPCB",29-08-2025 07:00:00,24.762518,84.982348,CO,19,30,21
India,Bihar,Gaya,"SFTI Kusdihra, Gaya - BSPCB",29-08-2025 07:00:00,24.762518,84.982348,OZONE,13,22,22
India,Bihar,Hajipur,"Industrial Area, Hajipur - BSPCB",29-08-2025 07:00:00,25.697189,85.245900,NH3,3,6,4
India,Andhra_Pradesh,Chittoor,"Gangineni Cheruvu, Chittoor - APPCB",29-08-2025 07:00:00,13.204880,79.097889,PM2.5,49,307,94
India,Andhra_Pradesh,Chittoor,"Gangineni Cheruvu, Chittoor - APPCB",29-08-2025 07:00:00,13.204880,79.097889,NO2,22,39,34
India,Andhra_Pradesh,Rajamahendravaram,"Anand Kala Kshetram, Rajamahendravaram - APPCB",29-08-2025 07:00:00,16.9872867,81.7363176,NO2,7,26,14
India,Andhra_Pradesh,Rajamahendravaram,"Anand Kala Kshetram, Rajamahendravaram - APPCB",29-08-2025 07:00:00,16.9872867,81.7363176,OZONE,9,20,10
India,Andhra_Pradesh,Tirumala,"Toll Gate, Tirumala - APPCB",29-08-2025 07:00:00,13.67,79.35,NO2,8,28,18
India,Andhra_Pradesh,Tirumala,"Toll Gate, Tirumala - APPCB",29-08-2025 07:00:00,13.67,79.35,OZONE,11,20,15
India,Bihar,Bettiah,"Kamalnath Nagar, Bettiah - BSPCB",29-08-2025 07:00:00,26.80365,84.51954,CO,42,65,49
India,Bihar,Bhagalpur,"DM Office_Kachari Chowk, Bhagalpur - BSPCB",29-08-2025 07:00:00,25.251013,86.989001,NO2,18,21,20
India,Bihar,Bhagalpur,"Mayaganj, Bhagalpur - BSPCB",29-08-2025 07:00:00,25.265194,87.012947,PM10,36,56,45
India,Bihar,Bhagalpur,"Mayaganj, Bhagalpur - BSPCB",29-08-2025 07:00:00,25.265194,87.012947,SO2,6,73,46
India,Bihar,Buxar,"Charitra Van, Buxar - BSPCB",29-08-2025 07:00:00,25.567520,83.966379,PM2.5,62,64,63
India,Assam,Byrnihat,"Central Academy for SFS, Byrnihat - PCBA",29-08-2025 07:00:00,26.071318,91.87488,PM10,NA,NA,NA
India,Assam,Byrnihat,"Central Academy for SFS, Byrnihat - PCBA",29-08-2025 07:00:00,26.071318,91.87488,CO,52,54,53
India,Assam,Guwahati,"IITG, Guwahati - PCBA",29-08-2025 07:00:00,26.2028636,91.70046436,NO2,1,4,2
India,Assam,Guwahati,"LGBI Airport, Guwahati - PCBA",29-08-2025 07:00:00,26.10887,91.589544,PM10,46,50,48
India,Assam,Guwahati,"LGBI Airport, Guwahati - PCBA",29-08-2025 07:00:00,26.10887,91.589544,NH3,6,17,10
India,Assam,Nagaon,"Christianpatty, Nagaon - PCBA",29-08-2025 07:00:00,26.349082,92.68449,PM10,43,64,58
India,Assam,Nalbari,"Bata Chowk, Nalbari - PCBA",29-08-2025 07:00:00,26.446912,91.439057,PM10,14,115,45
India,Assam,Nalbari,"Bata Chowk, Nalbari - PCBA",29-08-2025 07:00:00,26.446912,91.439057,SO2,2,9,6
India,Assam,Sivasagar,"Girls College, Sivasagar - PCBA",29-08-2025 07:00:00,26.987634,94.636574,PM10,28,36,32
India,Assam,Sivasagar,"Girls College, Sivasagar - PCBA",29-08-2025 07:00:00,26.987634,94.636574,NH3,3,4,4
India,Bihar,Katihar,"Mirchaibari, Katihar - BSPCB",29-08-2025 07:00:00,25.560083,87.553265,OZONE,4,19,7
India,Bihar,Kishanganj,"SDM Office_Khagra, Kishanganj - BSPCB",29-08-2025 07:00:00,26.0881305,87.93840336,NO2,7,8,8
India,Bihar,Motihari,"Gandak Colony, Motihari - BSPCB",29-08-2025 07:00:00,26.63086,84.90051,PM10,25,74,42
India,Bihar,Motihari,"Gandak Colony, Motihari - BSPCB",29-08-2025 07:00:00,26.63086,84.90051,CO,1,6,1
India,Bihar,Patna,"DRM Office Danapur, Patna - BSPCB",29-08-2025 07:00:00,25.586562,85.043586,CO,27,43,36
India,Bihar,Patna,"IGSC Planetarium Complex, Patna - BSPCB",29-08-2025 07:00:00,25.610369,85.132568,PM2.5,NA,NA,NA
India,Bihar,Patna,"Rajbansi Nagar, Patna - BSPCB",29-08-2025 07:00:00,25.599486,85.113666,NO2,21,27,23
India,Bihar,Patna,"Rajbansi Nagar, Patna - BSPCB",29-08-2025 07:00:00,25.599486,85.113666,OZONE,10,26,18
India,Chhattisgarh,Bhilai,"Hathkhoj, Bhilai - CECB",29-08-2025 07:00:00,21.224231,81.408350,OZONE,9,22,10
India,Chhattisgarh,Bilaspur,"Mangala, Bilaspur - NTPC",29-08-2025 07:00:00,22.08815,82.13737,PM10,18,53,35
India,Chhattisgarh,Bilaspur,"Mangala, Bilaspur - NTPC",29-08-2025 07:00:00,22.08815,82.13737,CO,29,46,40
India,Chhattisgarh,Chhal,"Nawapara SECL Colony, Chhal - CECB",29-08-2025 07:00:00,22.118125,83.140608,PM2.5,11,53,36
India,Chhattisgarh,Korba,"Rampur, Korba - CECB",29-08-2025 07:00:00,22.368195,82.746431,PM10,35,40,35
India,Chhattisgarh,Korba,"Rampur, Korba - CECB",29-08-2025 07:00:00,22.368195,82.746431,CO,7,22,18
India,Chhattisgarh,Kunjemura,"OP Jindal School, Kunjemura - CECB",29-08-2025 07:00:00,22.126650,83.483212,PM2.5,3,20,11
India,Chhattisgarh,Kunjemura,"OP Jindal School, Kunjemura - CECB",29-08-2025 07:00:00,22.126650,83.483212,OZONE,3,6,4
India,Bihar,Samastipur,"DM Office_Kasipur, Samastipur - BSPCB",29-08-2025 07:00:00,25.859655,85.77944,SO2,8,30,23
India,Bihar,Siwan,"Chitragupta Nagar, Siwan - BSPCB",29-08-2025 07:00:00,26.2271665,84.3570427,OZONE,5,15,7
India,Chandigarh,Chandigarh,"Sector 22, Chandigarh - CPCC",29-08-2025 07:00:00,30.735567,76.775714,NH3,11,21,15
India,Chandigarh,Chandigarh,"Sector 22, Chandigarh - CPCC",29-08-2025 07:00:00,30.735567,76.775714,OZONE,8,35,25
India,Chandigarh,Chandigarh,"Sector-25, Chandigarh - CPCC",29-08-2025 07:00:00,30.751462,76.762879,NO2,6,24,11
India,Chandigarh,Chandigarh,"Sector-25, Chandigarh - CPCC",29-08-2025 07:00:00,30.751462,76.762879,NH3,4,7,6
India,Delhi,Delhi,"Bawana, Delhi - DPCC",29-08-2025 07:00:00,28.776200,77.051074,OZONE,4,23,12
India,Delhi,Delhi,"Burari Crossing, Delhi - IMD",29-08-2025 07:00:00,28.7256504,77.2011573,PM2.5,4,151,69
India,Delhi,Delhi,"CRRI Mathura Road, Delhi - IMD",29-08-2025 07:00:00,28.5512005,77.2735737,PM10,38,112,79
India,Delhi,Delhi,"Chandni Chowk, Delhi - IITM",29-08-2025 07:00:00,28.656756,77.227234,OZONE,4,56,6
India,Delhi,Delhi,"DTU, Delhi - CPCB",29-08-2025 07:00:00,28.7500499,77.1112615,PM2.5,15,73,34
India,Delhi,Delhi,"DTU, Delhi - CPCB",29-08-2025 07:00:00,28.7500499,77.1112615,NO2,49,71,65
India,Chhattisgarh,Bhilai,"32Bungalows, Bhilai - CECB",29-08-2025 07:00:00,21.194815,81.314770,NH3,3,4,3
India,Chhattisgarh,Bhilai,"32Bungalows, Bhilai - CECB",29-08-2025 07:00:00,21.194815,81.314770,SO2,6,8,7
India,Chhattisgarh,Bhilai,"Civic Center, Bhilai - Bhilai Steel Plant",29-08-2025 07:00:00,21.185571,81.343175,PM2.5,NA,NA,NA
India,Chhattisgarh,Bhilai,"Civic Center, Bhilai - Bhilai Steel Plant",29-08-2025 07:00:00,21.185571,81.343175,PM10,NA,NA,NA
India,Chhattisgarh,Bhilai,"Civic Center, Bhilai - Bhilai Steel Plant",29-08-2025 07:00:00,21.185571,81.343175,OZONE,NA,NA,NA
India,Chhattisgarh,Bhilai,"Hathkhoj, Bhilai - CECB",29-08-2025 07:00:00,21.224231,81.408350,NO2,10,35,21
India,Chhattisgarh,Bhilai,"Hathkhoj, Bhilai - CECB",29-08-2025 07:00:00,21.224231,81.408350,CO,9,66,20
India,Bihar,Purnia,"Mariam Nagar, Purnia - BSPCB",29-08-2025 07:00:00,25.366336,87.117468,OZONE,16,32,23
India,Bihar,Rajgir,"Dangi Tola, Rajgir - BSPCB",29-08-2025 07:00:00,25.03280,85.41948,NO2,8,10,9
India,Bihar,Rajgir,"Dangi Tola, Rajgir - BSPCB",29-08-2025 07:00:00,25.03280,85.41948,NH3,5,8,7
India,Bihar,Rajgir,"Dangi Tola, Rajgir - BSPCB",29-08-2025 07:00:00,25.03280,85.41948,CO,67,104,87
India,Bihar,Saharsa,"Police Line, Saharsa - BSPCB",29-08-2025 07:00:00,25.892357,86.590325,NH3,4,4,4
India,Bihar,Saharsa,"Police Line, Saharsa - BSPCB",29-08-2025 07:00:00,25.892357,86.590325,OZONE,9,17,12
India,Delhi,Delhi,"Anand Vihar, Delhi - DPCC",29-08-2025 07:00:00,28.647622,77.3158090,NO2,14,71,29
India,Delhi,Delhi,"Anand Vihar, Delhi - DPCC",29-08-2025 07:00:00,28.647622,77.3158090,SO2,26,47,35
India,Delhi,Delhi,"Ashok Vihar, Delhi - DPCC",29-08-2025 07:00:00,28.695381,77.181665,NO2,13,44,31
India,Delhi,Delhi,"Aya Nagar, Delhi - IMD",29-08-2025 07:00:00,28.4706914,77.1099364,NO2,16,30,21
India,Chandigarh,Chandigarh,"Sector-53, Chandigarh - CPCC",29-08-2025 07:00:00,30.719859,76.738637,SO2,9,15,13
India,Chhattisgarh,Bhilai,"32Bungalows, Bhilai - CECB",29-08-2025 07:00:00,21.194815,81.314770,PM10,6,23,12
India,Chhattisgarh,Raipur,"Krishak Nagar, Raipur - CECB",29-08-2025 07:00:00,21.237755,81.705301,PM2.5,5,22,11
India,Chhattisgarh,Raipur,"Krishak Nagar, Raipur - CECB",29-08-2025 07:00:00,21.237755,81.705301,PM10,6,30,14
India,Chhattisgarh,Raipur,"Krishak Nagar, Raipur - CECB",29-08-2025 07:00:00,21.237755,81.705301,NH3,2,2,2
India,Delhi,Delhi,"Alipur, Delhi - DPCC",29-08-2025 07:00:00,28.815329,77.153010,PM2.5,58,98,82
India,Delhi,Delhi,"Alipur, Delhi - DPCC",29-08-2025 07:00:00,28.815329,77.153010,NO2,15,37,24
India,Delhi,Delhi,"Jahangirpuri, Delhi - DPCC",29-08-2025 07:00:00,28.732820,77.170633,SO2,1,14,8
India,Delhi,Delhi,"Jahangirpuri, Delhi - DPCC",29-08-2025 07:00:00,28.732820,77.170633,OZONE,2,56,4
India,Delhi,Delhi,"Jawaharlal Nehru Stadium, Delhi - DPCC",29-08-2025 07:00:00,28.580280,77.233829,NH3,6,10,8
India,Delhi,Delhi,"Jawaharlal Nehru Stadium, Delhi - DPCC",29-08-2025 07:00:00,28.580280,77.233829,OZONE,7,50,14
India,Delhi,Delhi,"Lodhi Road, Delhi - IITM",29-08-2025 07:00:00,28.588333,77.221667,PM2.5,20,76,52
India,Delhi,Delhi,"Lodhi Road, Delhi - IITM",29-08-2025 07:00:00,28.588333,77.221667,SO2,6,20,9
India,Delhi,Delhi,"Major Dhyan Chand National Stadium, Delhi - DPCC",29-08-2025 07:00:00,28.611281,77.237738,PM2.5,65,267,108
India,Delhi,Delhi,"Major Dhyan Chand National Stadium, Delhi - DPCC",29-08-2025 07:00:00,28.611281,77.237738,NO2,18,53,34
India,Delhi,Delhi,"Major Dhyan Chand National Stadium, Delhi - DPCC",29-08-2025 07:00:00,28.611281,77.237738,SO2,3,12,8
India,Delhi,Delhi,"Major Dhyan Chand National Stadium, Delhi - DPCC",29-08-2025 07:00:00,28.611281,77.237738,OZONE,1,53,8
India,Delhi,Delhi,"Mandir Marg, Delhi - DPCC",29-08-2025 07:00:00,28.636429,77.201067,PM2.5,67,253,115
India,Delhi,Delhi,"Mandir Marg, Delhi - DPCC",29-08-2025 07:00:00,28.636429,77.201067,NO2,23,52,39
India,Delhi,Delhi,"Dr. Karni Singh Shooting Range, Delhi - DPCC",29-08-2025 07:00:00,28.498571,77.264840,OZONE,10,42,19
India,Delhi,Delhi,"Dwarka-Sector 8, Delhi - DPCC ",29-08-2025 07:00:00,28.5710274,77.0719006,SO2,NA,NA,NA
India,Delhi,Delhi,"Dwarka-Sector 8, Delhi - DPCC ",29-08-2025 07:00:00,28.5710274,77.0719006,CO,NA,NA,NA
India,Delhi,Delhi,"IGI Airport (T3), Delhi - IMD",29-08-2025 07:00:00,28.5627763,77.1180053,NO2,39,82,62
India,Delhi,Delhi,"IHBAS, Dilshad Garden, Delhi - CPCB",29-08-2025 07:00:00,28.6811736,77.3025234,NO2,20,55,40
India,Delhi,Delhi,"IHBAS, Dilshad Garden, Delhi - CPCB",29-08-2025 07:00:00,28.6811736,77.3025234,NH3,3,7,6
India,Delhi,Delhi,"ITO, Delhi - CPCB",29-08-2025 07:00:00,28.628624,77.241060,CO,36,80,49
India,Delhi,Delhi,"Jahangirpuri, Delhi - DPCC",29-08-2025 07:00:00,28.732820,77.170633,PM2.5,110,302,172
India,Delhi,Delhi,"North Campus, DU, Delhi - IMD",29-08-2025 07:00:00,28.6573814,77.1585447,PM10,72,194,107
India,Delhi,Delhi,"North Campus, DU, Delhi - IMD",29-08-2025 07:00:00,28.6573814,77.1585447,OZONE,3,97,6
India,Delhi,Delhi,"Okhla Phase-2, Delhi - DPCC",29-08-2025 07:00:00,28.530785,77.271255,CO,4,55,31
India,Delhi,Delhi,"Patparganj, Delhi - DPCC",29-08-2025 07:00:00,28.623763,77.287209,PM2.5,63,304,102
India,Delhi,Delhi,"Patparganj, Delhi - DPCC",29-08-2025 07:00:00,28.623763,77.287209,SO2,6,10,8
India,Delhi,Delhi,"Patparganj, Delhi - DPCC",29-08-2025 07:00:00,28.623763,77.287209,CO,3,56,42
India,Delhi,Delhi,"Punjabi Bagh, Delhi - DPCC",29-08-2025 07:00:00,28.674045,77.131023,PM10,73,266,121
India,Delhi,Delhi,"Punjabi Bagh, Delhi - DPCC",29-08-2025 07:00:00,28.674045,77.131023,OZONE,2,35,11
India,Delhi,Delhi,"Sonia Vihar, Delhi - DPCC",29-08-2025 07:00:00,28.710508,77.249485,SO2,15,20,16
India,Delhi,Delhi,"Sri Aurobindo Marg, Delhi - DPCC",29-08-2025 07:00:00,28.531346,77.190156,SO2,9,16,12
India,Delhi,Delhi,"Vivek Vihar, Delhi - DPCC",29-08-2025 07:00:00,28.672342,77.315260,PM2.5,52,153,80
India,Delhi,Delhi,"Vivek Vihar, Delhi - DPCC",29-08-2025 07:00:00,28.672342,77.315260,NH3,1,9,2
India,Delhi,Delhi,"Vivek Vihar, Delhi - DPCC",29-08-2025 07:00:00,28.672342,77.315260,CO,22,44,25
India,Delhi,Delhi,"Wazirpur, Delhi - DPCC",29-08-2025 07:00:00,28.699793,77.165453,NH3,7,18,9
India,Gujarat,Ahmedabad,"Raikhad, Ahmedabad - IITM",29-08-2025 07:00:00,23.020509,72.579261,SO2,11,15,14
India,Gujarat,Ahmedabad,"Rakhial, Ahmedabad - IITM",29-08-2025 07:00:00,23.016834,72.625775,PM10,46,118,76
India,Gujarat,Ahmedabad,"Rakhial, Ahmedabad - IITM",29-08-2025 07:00:00,23.016834,72.625775,NO2,18,39,24
India,Gujarat,Ahmedabad,"Rakhial, Ahmedabad - IITM",29-08-2025 07:00:00,23.016834,72.625775,OZONE,3,16,5
India,Gujarat,Ahmedabad,"SAC ISRO Bopal, Ahmedabad - IITM",29-08-2025 07:00:00,23.041137,72.456691,PM10,11,131,59
India,Gujarat,Ahmedabad,"SAC ISRO Bopal, Ahmedabad - IITM",29-08-2025 07:00:00,23.041137,72.456691,NH3,3,4,4
India,Gujarat,Ahmedabad,"Chandkheda, Ahmedabad - IITM",29-08-2025 07:00:00,23.107969,72.574648,PM2.5,14,38,25
India,Gujarat,Ahmedabad,"Chandkheda, Ahmedabad - IITM",29-08-2025 07:00:00,23.107969,72.574648,NH3,1,3,2
India,Gujarat,Ahmedabad,"Chandkheda, Ahmedabad - IITM",29-08-2025 07:00:00,23.107969,72.574648,SO2,9,16,13
India,Gujarat,Ahmedabad,"Gyaspur, Ahmedabad - IITM",29-08-2025 07:00:00,22.977134,72.553024,PM2.5,14,49,26
India,Gujarat,Ahmedabad,"Gyaspur, Ahmedabad - IITM",29-08-2025 07:00:00,22.977134,72.553024,NO2,34,65,52
India,Delhi,Delhi,"R K Puram, Delhi - DPCC",29-08-2025 07:00:00,28.563262,77.186937,PM10,57,164,107
India,Delhi,Delhi,"R K Puram, Delhi - DPCC",29-08-2025 07:00:00,28.563262,77.186937,CO,6,94,33
India,Delhi,Delhi,"R K Puram, Delhi - DPCC",29-08-2025 07:00:00,28.563262,77.186937,OZONE,8,44,13
India,Delhi,Delhi,"Rohini, Delhi - DPCC",29-08-2025 07:00:00,28.732528,77.119920,SO2,2,5,4
India,Delhi,Delhi,"Mundka, Delhi - DPCC",29-08-2025 07:00:00,28.684678,77.076574,SO2,8,12,9
India,Delhi,Delhi,"Najafgarh, Delhi - DPCC",29-08-2025 07:00:00,28.570173,76.933762,PM10,72,114,90
India,Delhi,Delhi,"Sonia Vihar, Delhi - DPCC",29-08-2025 07:00:00,28.710508,77.249485,PM2.5,65,287,145
India,Gujarat,Ahmedabad,"SAC ISRO Bopal, Ahmedabad - IITM",29-08-2025 07:00:00,23.041137,72.456691,OZONE,2,27,11
India,Gujarat,Ahmedabad,"SAC ISRO Satellite, Ahmedabad - IITM",29-08-2025 07:00:00,23.023389,72.515201,PM10,21,85,54
India,Gujarat,Ahmedabad,"SAC ISRO Satellite, Ahmedabad - IITM",29-08-2025 07:00:00,23.023389,72.515201,NH3,2,3,3
India,Gujarat,Ahmedabad,"SAC ISRO Satellite, Ahmedabad - IITM",29-08-2025 07:00:00,23.023389,72.515201,OZONE,2,18,6
India,Gujarat,Ahmedabad,"SVPI Airport Hansol, Ahmedabad - IITM",29-08-2025 07:00:00,23.076793,72.627874,NH3,1,2,2
India,Gujarat,Ahmedabad,"SVPI Airport Hansol, Ahmedabad - IITM",29-08-2025 07:00:00,23.076793,72.627874,SO2,1,9,4
India,Gujarat,Ahmedabad,"SVPI Airport Hansol, Ahmedabad - IITM",29-08-2025 07:00:00,23.076793,72.627874,OZONE,2,28,5
India,Gujarat,Ahmedabad,"Sardar Vallabhbhai Patel Stadium, Ahmedabad - IITM",29-08-2025 07:00:00,23.043070,72.562968,PM2.5,14,48,29
India,Gujarat,Ahmedabad,"Sardar Vallabhbhai Patel Stadium, Ahmedabad - IITM",29-08-2025 07:00:00,23.043070,72.562968,PM10,22,88,53
India,Gujarat,Ahmedabad,"Sardar Vallabhbhai Patel Stadium, Ahmedabad - IITM",29-08-2025 07:00:00,23.043070,72.562968,SO2,7,17,12
India,Karnataka,Bengaluru,"Bapuji Nagar, Bengaluru - KSPCB",29-08-2025 07:00:00,12.951913,77.539784,OZONE,2,34,4
India,Karnataka,Bengaluru,"City Railway Station, Bengaluru - KSPCB",29-08-2025 07:00:00,12.9756843,77.5660749,SO2,7,11,9
India,Karnataka,Bengaluru,"City Railway Station, Bengaluru - KSPCB",29-08-2025 07:00:00,12.9756843,77.5660749,CO,58,62,60
India,Karnataka,Bengaluru,"Hebbal, Bengaluru - KSPCB",29-08-2025 07:00:00,13.029152,77.585901,OZONE,7,9,7
India,Karnataka,Bengaluru,"Hombegowda Nagar, Bengaluru - KSPCB",29-08-2025 07:00:00,12.938539,77.590100,NH3,1,2,1
India,Karnataka,Bengaluru,"Hombegowda Nagar, Bengaluru - KSPCB",29-08-2025 07:00:00,12.938539,77.590100,SO2,6,13,10
India,Karnataka,Bengaluru,"Jayanagar 5th Block, Bengaluru - KSPCB",29-08-2025 07:00:00,12.920984,77.584908,PM10,NA,NA,NA
India,Karnataka,Bengaluru,"Jayanagar 5th Block, Bengaluru - KSPCB",29-08-2025 07:00:00,12.920984,77.584908,NH3,1,1,1
India,Karnataka,Bengaluru,"Jayanagar 5th Block, Bengaluru - KSPCB",29-08-2025 07:00:00,12.920984,77.584908,OZONE,20,60,30
India,Karnataka,Bengaluru,"Jigani, Bengaluru - KSPCB",29-08-2025 07:00:00,12.7816279,77.6299145,PM2.5,32,44,35
India,Karnataka,Bengaluru,"Jigani, Bengaluru - KSPCB",29-08-2025 07:00:00,12.7816279,77.6299145,NO2,30,31,31
India,Karnataka,Bengaluru,"Jigani, Bengaluru - KSPCB",29-08-2025 07:00:00,12.7816279,77.6299145,SO2,14,15,14
India,Karnataka,Bengaluru,"Jigani, Bengaluru - KSPCB",29-08-2025 07:00:00,12.7816279,77.6299145,CO,32,33,32
India,Karnataka,Bengaluru,"Peenya, Bengaluru - CPCB",29-08-2025 07:00:00,13.0270199,77.494094,NH3,2,3,2
India,Karnataka,Bengaluru,"Peenya, Bengaluru - CPCB",29-08-2025 07:00:00,13.0270199,77.494094,SO2,2,10,5
India,Karnataka,Bagalkot,"Vidayagiri, Bagalkot - KSPCB",29-08-2025 07:00:00,16.172806,75.659694,PM2.5,33,34,34
India,Karnataka,Bagalkot,"Vidayagiri, Bagalkot - KSPCB",29-08-2025 07:00:00,16.172806,75.659694,PM10,42,43,42
India,Karnataka,Bagalkot,"Vidayagiri, Bagalkot - KSPCB",29-08-2025 07:00:00,16.172806,75.659694,NH3,1,2,1
India,Karnataka,Belgaum,"Ramteerth Nagar, Belgaum - KSPCB",29-08-2025 07:00:00,15.888653,74.541751,SO2,4,16,9
India,Karnataka,Bengaluru,"BTM Layout, Bengaluru - CPCB",29-08-2025 07:00:00,12.9135218,77.5950804,NH3,4,4,4
India,Gujarat,Ankleshwar,"GIDC, Ankleshwar - GPCB",29-08-2025 07:00:00,21.613267,73.010555,PM2.5,35,82,54
India,Gujarat,Ankleshwar,"GIDC, Ankleshwar - GPCB",29-08-2025 07:00:00,21.613267,73.010555,NO2,23,27,24
India,Gujarat,Ankleshwar,"GIDC, Ankleshwar - GPCB",29-08-2025 07:00:00,21.613267,73.010555,NH3,6,7,7
India,Gujarat,Ankleshwar,"GIDC, Ankleshwar - GPCB",29-08-2025 07:00:00,21.613267,73.010555,CO,19,35,26
India,Gujarat,Gandhinagar,"IIPHG Lekawada, Gandhinagar - IITM",29-08-2025 07:00:00,23.243639,72.68994,PM10,14,95,57
India,Gujarat,Gandhinagar,"IIPHG Lekawada, Gandhinagar - IITM",29-08-2025 07:00:00,23.243639,72.68994,NO2,4,8,6
India,Karnataka,Bengaluru,"Sanegurava Halli, Bengaluru - KSPCB",29-08-2025 07:00:00,12.990328,77.5431385,NO2,NA,NA,NA
India,Karnataka,Bengaluru,"Sanegurava Halli, Bengaluru - KSPCB",29-08-2025 07:00:00,12.990328,77.5431385,CO,NA,NA,NA
India,Karnataka,Bengaluru,"Shivapura_Peenya, Bengaluru - KSPCB",29-08-2025 07:00:00,13.0246342,77.5080115,NH3,4,4,4
India,Karnataka,Chikkaballapur,"Chikkaballapur Rural, Chikkaballapur - KSPCB",29-08-2025 07:00:00,13.428828,77.731418,SO2,3,13,8
India,Karnataka,Chikkaballapur,"Chikkaballapur Rural, Chikkaballapur - KSPCB",29-08-2025 07:00:00,13.428828,77.731418,CO,11,36,11
India,Gujarat,Gandhinagar,"Sector-10, Gandhinagar - GPCB",29-08-2025 07:00:00,23.221714,72.654328,NH3,1,3,2
India,Gujarat,Surat,"Science Center, Surat - SMC",29-08-2025 07:00:00,21.170046,72.795405,PM10,17,64,36
India,Gujarat,Vatva,"Phase-4 GIDC, Vatva - GPCB",29-08-2025 07:00:00,22.969611,72.643500,SO2,5,23,15
India,Himachal Pradesh,Baddi,"HIMUDA Complex Phase-1, Baddi - HPPCB",29-08-2025 07:00:00,30.943887,76.801991,SO2,20,124,55
India,Himachal Pradesh,Baddi,"HIMUDA Complex Phase-1, Baddi - HPPCB",29-08-2025 07:00:00,30.943887,76.801991,OZONE,7,69,25
India,Jharkhand,Jorapokhar,"Tata Stadium, Jorapokhar - JSPCB",29-08-2025 07:00:00,23.707909,86.414670,SO2,4,4,4
India,Haryana,Gurugram,"NISE Gwal Pahari, Gurugram - IMD",29-08-2025 07:00:00,28.422681,77.148944,OZONE,18,21,18
India,Haryana,Panchgaon,"Amity University, Panchgaon - IITM",29-08-2025 07:00:00,28.3153,76.9143,PM2.5,16,329,94
India,Haryana,Panchgaon,"Amity University, Panchgaon - IITM",29-08-2025 07:00:00,28.3153,76.9143,PM10,16,188,74
India,Kerala,Thrissur,"Corporation Ground, Thrissur - Kerala PCB",29-08-2025 07:00:00,10.532400,76.215900,PM10,43,50,46
India,Kerala,Thrissur,"Corporation Ground, Thrissur - Kerala PCB",29-08-2025 07:00:00,10.532400,76.215900,SO2,1,1,1
India,Kerala,Thrissur,"Corporation Ground, Thrissur - Kerala PCB",29-08-2025 07:00:00,10.532400,76.215900,CO,17,36,33
India,Madhya Pradesh,Bhopal,"Paryavaran Parisar, Bhopal - MPPCB",29-08-2025 07:00:00,23.210494,77.425409,PM2.5,23,65,40
India,Madhya Pradesh,Bhopal,"Paryavaran Parisar, Bhopal - MPPCB",29-08-2025 07:00:00,23.210494,77.425409,NO2,8,40,17
India,Madhya Pradesh,Bhopal,"Paryavaran Parisar, Bhopal - MPPCB",29-08-2025 07:00:00,23.210494,77.425409,CO,2,56,17
India,Madhya Pradesh,Bhopal,"Paryavaran Parisar, Bhopal - MPPCB",29-08-2025 07:00:00,23.210494,77.425409,OZONE,21,43,30
India,Madhya Pradesh,Bhopal,"T T Nagar, Bhopal - MPPCB",29-08-2025 07:00:00,23.233584,77.400574,PM2.5,21,50,37
India,Madhya Pradesh,Bhopal,"T T Nagar, Bhopal - MPPCB",29-08-2025 07:00:00,23.233584,77.400574,NH3,5,6,6
India,Madhya Pradesh,Bhopal,"T T Nagar, Bhopal - MPPCB",29-08-2025 07:00:00,23.233584,77.400574,SO2,17,36,25
India,Madhya Pradesh,Dewas,"Bhopal Chauraha, Dewas - MPPCB",29-08-2025 07:00:00,22.9682591,76.064118,NO2,38,56,46
India,Madhya Pradesh,Dewas,"Bhopal Chauraha, Dewas - MPPCB",29-08-2025 07:00:00,22.9682591,76.064118,NH3,2,3,2
India,Madhya Pradesh,Dewas,"Bhopal Chauraha, Dewas - MPPCB",29-08-2025 07:00:00,22.9682591,76.064118,CO,8,28,14
India,Madhya Pradesh,Gwalior,"City Center, Gwalior - MPPCB",29-08-2025 07:00:00,26.203442,78.193251,NO2,7,8,7
India,Madhya Pradesh,Gwalior,"City Center, Gwalior - MPPCB",29-08-2025 07:00:00,26.203442,78.193251,NH3,2,2,2
India,Madhya Pradesh,Gwalior,"Deen Dayal Nagar, Gwalior - MPPCB",29-08-2025 07:00:00,26.259242,78.216432,NH3,1,11,5
India,Madhya Pradesh,Gwalior,"Deen Dayal Nagar, Gwalior - MPPCB",29-08-2025 07:00:00,26.259242,78.216432,SO2,13,14,14
India,Madhya Pradesh,Gwalior,"Deen Dayal Nagar, Gwalior - MPPCB",29-08-2025 07:00:00,26.259242,78.216432,OZONE,32,78,40
India,Karnataka,Vijayapura,"Ibrahimpur, Vijayapura - KSPCB",29-08-2025 07:00:00,16.802639,75.722694,CO,8,140,40
India,Karnataka,Yadgir,"Collector Office, Yadgir - KSPCB",29-08-2025 07:00:00,16.7602,77.1428,NO2,12,42,32
India,Karnataka,Yadgir,"Collector Office, Yadgir - KSPCB",29-08-2025 07:00:00,16.7602,77.1428,NH3,2,3,2
India,Kerala,Eloor,"Udyogamandal, Eloor - Kerala PCB",29-08-2025 07:00:00,10.073232,76.302765,PM2.5,37,458,60
India,Kerala,Kollam,"Polayathode, Kollam - Kerala PCB",29-08-2025 07:00:00,8.8787,76.6073,PM10,20,36,28
India,Kerala,Thiruvananthapuram,"Kariavattom, Thiruvananthapuram - Kerala PCB",29-08-2025 07:00:00,8.563700,76.886500,PM2.5,39,46,41
India,Kerala,Thiruvananthapuram,"Kariavattom, Thiruvananthapuram - Kerala PCB",29-08-2025 07:00:00,8.563700,76.886500,PM10,63,74,67
India,Kerala,Thiruvananthapuram,"Kariavattom, Thiruvananthapuram - Kerala PCB",29-08-2025 07:00:00,8.563700,76.886500,OZONE,36,36,36
India,Kerala,Thiruvananthapuram,"Plammoodu, Thiruvananthapuram - Kerala PCB",29-08-2025 07:00:00,8.5149093,76.9435879,PM2.5,2,58,16
India,Kerala,Thiruvananthapuram,"Plammoodu, Thiruvananthapuram - Kerala PCB",29-08-2025 07:00:00,8.5149093,76.9435879,NO2,54,96,73
India,Kerala,Thrissur,"Corporation Ground, Thrissur - Kerala PCB",29-08-2025 07:00:00,10.532400,76.215900,PM2.5,39,47,42
India,Karnataka,Kalaburagi,"Lal Bahadur Shastri Nagar, Kalaburagi - KSPCB",29-08-2025 07:00:00,17.321993,76.822628,CO,34,43,39
India,Karnataka,Kalaburagi,"Mahatma Basaveswar Colony, Kalaburgi - KSPCB",29-08-2025 07:00:00,17.336318,76.847397,NO2,10,15,13
India,Karnataka,Kalaburagi,"Mahatma Basaveswar Colony, Kalaburgi - KSPCB",29-08-2025 07:00:00,17.336318,76.847397,SO2,2,7,4
India,Karnataka,Karwar,"KHB Colony, Karwar - KSPCB",29-08-2025 07:00:00,14.816666,74.141003,PM2.5,3,163,19
India,Karnataka,Koppal,"Diwator Nagar, Koppal - KSPCB",29-08-2025 07:00:00,15.347630,76.181767,PM2.5,2,15,8
India,Karnataka,Mysuru,"Hebbal 1st Stage, Mysuru - KSPCB",29-08-2025 07:00:00,12.21041,76.37376,CO,2,23,8
India,Karnataka,Ramanagara,"Vijay Nagar, Ramanagara - KSPCB",29-08-2025 07:00:00,12.733409,77.298051,PM10,8,25,14
India,Karnataka,Davanagere,"Devaraj Urs Badavane, Davanagere - KSPCB",29-08-2025 07:00:00,14.475800,75.905200,OZONE,25,26,25
India,Karnataka,Dharwad,"Kalabhavan, Dharwad - KSPCB",29-08-2025 07:00:00,15.459706,75.008381,OZONE,11,22,16
India,Karnataka,Davanagere,"Devaraj Urs Badavane, Davanagere - KSPCB",29-08-2025 07:00:00,14.475800,75.905200,PM2.5,15,54,26
India,Karnataka,Davanagere,"Devaraj Urs Badavane, Davanagere - KSPCB",29-08-2025 07:00:00,14.475800,75.905200,NO2,10,20,14
India,Karnataka,Mangalore,"Kadri, Mangalore - KSPCB",29-08-2025 07:00:00,12.889250,74.853000,OZONE,5,43,25
India,Madhya Pradesh,Gwalior,"Maharaj Bada, Gwalior - MPPCB",29-08-2025 07:00:00,26.200388,78.147714,PM10,23,57,41
India,Madhya Pradesh,Gwalior,"Maharaj Bada, Gwalior - MPPCB",29-08-2025 07:00:00,26.200388,78.147714,OZONE,21,40,24
India,Madhya Pradesh,Indore,"Airport Area, Indore - IMC",29-08-2025 07:00:00,22.7289,75.8076,PM2.5,5,18,10
India,Madhya Pradesh,Indore,"Chhoti Gwaltoli, Indore - MPPCB",29-08-2025 07:00:00,22.4310,75.5213,PM2.5,28,78,49
India,Madhya Pradesh,Indore,"Chhoti Gwaltoli, Indore - MPPCB",29-08-2025 07:00:00,22.4310,75.5213,NH3,1,9,4
India,Madhya Pradesh,Indore,"Chhoti Gwaltoli, Indore - MPPCB",29-08-2025 07:00:00,22.4310,75.5213,SO2,8,13,11
India,Madhya Pradesh,Indore,"Chhoti Gwaltoli, Indore - MPPCB",29-08-2025 07:00:00,22.4310,75.5213,CO,28,86,44
India,Madhya Pradesh,Indore,"Maguda Nagar, Indore - IMC",29-08-2025 07:00:00,22.7524,75.8872,SO2,32,37,35
India,Maharashtra,Ahmednagar,"Tarakpur, Ahmednagar - MPCB",29-08-2025 07:00:00,19.10122,74.73339,PM10,7,395,40
India,Maharashtra,Akola,"Ramdaspeth, Akola - MPCB",29-08-2025 07:00:00,20.719516,77.000253,PM10,15,36,26
India,Maharashtra,Amravati,"Shri Shivaji Science College, Amravati - MPCB",29-08-2025 07:00:00,20.939198,77.765701,PM2.5,7,29,18
India,Maharashtra,Amravati,"Shri Shivaji Science College, Amravati - MPCB",29-08-2025 07:00:00,20.939198,77.765701,SO2,7,8,8
India,Maharashtra,Amravati,"Shri Shivaji Science College, Amravati - MPCB",29-08-2025 07:00:00,20.939198,77.765701,OZONE,15,40,24
India,Maharashtra,Aurangabad,"MIDC Chilkalthana, Aurangabad - MPCB",29-08-2025 07:00:00,19.875620,75.387310,PM2.5,18,33,25
India,Madhya Pradesh,Katni,"Gole Bazar, Katni - MPPCB",29-08-2025 07:00:00,23.50016,80.23284,SO2,16,27,19
India,Madhya Pradesh,Mandideep,"Sector-D Industrial Area, Mandideep - MPPCB",29-08-2025 07:00:00,23.108440,77.511428,NO2,16,64,33
India,Madhya Pradesh,Mandideep,"Sector-D Industrial Area, Mandideep - MPPCB",29-08-2025 07:00:00,23.108440,77.511428,NH3,2,3,3
India,Madhya Pradesh,Mandideep,"Sector-D Industrial Area, Mandideep - MPPCB",29-08-2025 07:00:00,23.108440,77.511428,OZONE,14,47,19
India,Madhya Pradesh,Pithampur,"Sector-2 Industrial Area, Pithampur - MPPCB",29-08-2025 07:00:00,22.624758,75.675238,PM2.5,29,263,68
India,Madhya Pradesh,Indore,"Regional Park, Indore - IMC",29-08-2025 07:00:00,22.6780,75.8559,CO,18,24,22
India,Madhya Pradesh,Indore,"Residency Area, Indore - IMC",29-08-2025 07:00:00,22.7084,75.8815,PM2.5,10,31,18
India,Madhya Pradesh,Indore,"Residency Area, Indore - IMC",29-08-2025 07:00:00,22.7084,75.8815,NO2,12,18,15
India,Madhya Pradesh,Indore,"Residency Area, Indore - IMC",29-08-2025 07:00:00,22.7084,75.8815,CO,12,14,13
India,Madhya Pradesh,Jabalpur,"Govindh Bhavan Colony, Jabalpur - JMC",29-08-2025 07:00:00,23.163174,79.973061,NO2,36,37,36
India,Madhya Pradesh,Jabalpur,"Govindh Bhavan Colony, Jabalpur - JMC",29-08-2025 07:00:00,23.163174,79.973061,CO,26,40,31
India,Madhya Pradesh,Ratlam,"Shasthri Nagar, Ratlam - IPCA Lab",29-08-2025 07:00:00,23.331731,75.045981,PM2.5,3,57,27
India,Madhya Pradesh,Sagar,"Civil Lines, Sagar - MPPCB",29-08-2025 07:00:00,23.838586,78.759431,PM10,NA,NA,NA
India,Madhya Pradesh,Sagar,"Deen Dayal Nagar, Sagar - MPPCB",29-08-2025 07:00:00,23.8640158,78.80289321,NO2,2,22,10
India,Madhya Pradesh,Singrauli,"Suryakiran Bhawan NCL, Singrauli - MPPCB",29-08-2025 07:00:00,24.108970,82.645580,PM10,44,102,63
India,Maharashtra,Aurangabad,"MIDC Chilkalthana, Aurangabad - MPCB",29-08-2025 07:00:00,19.875620,75.387310,NH3,1,3,2
India,Maharashtra,Aurangabad,"More Chowk Waluj, Aurangabad - MPCB",29-08-2025 07:00:00,19.8389439,75.244448,PM10,15,52,27
India,Madhya Pradesh,Jabalpur,"Suhagi, Jabalpur - JMC",29-08-2025 07:00:00,23.218135,79.957770,PM10,44,117,66
India,Madhya Pradesh,Jabalpur,"Suhagi, Jabalpur - JMC",29-08-2025 07:00:00,23.218135,79.957770,NO2,16,40,25
India,Maharashtra,Aurangabad,"More Chowk Waluj, Aurangabad - MPCB",29-08-2025 07:00:00,19.8389439,75.244448,CO,1,113,19
India,Madhya Pradesh,Indore,"Maguda Nagar, Indore - IMC",29-08-2025 07:00:00,22.7524,75.8872,OZONE,7,9,8
India,Maharashtra,Dhule,"Deopur, Dhule - MPCB",29-08-2025 07:00:00,20.918946,74.776388,SO2,NA,NA,NA
India,Maharashtra,Jalgaon,"Prabhat Colony, Jalgaon - MPCB",29-08-2025 07:00:00,21.001264,75.565602,PM2.5,20,64,37
India,Maharashtra,Jalgaon,"Prabhat Colony, Jalgaon - MPCB",29-08-2025 07:00:00,21.001264,75.565602,NO2,4,9,6
India,Maharashtra,Jalgaon,"Prabhat Colony, Jalgaon - MPCB",29-08-2025 07:00:00,21.001264,75.565602,OZONE,16,44,18
India,Maharashtra,Jalna,"Old MIDC, Jalna - MPCB",29-08-2025 07:00:00,19.854616,75.905894,NH3,3,5,4
India,Maharashtra,Jalna,"Old MIDC, Jalna - MPCB",29-08-2025 07:00:00,19.854616,75.905894,CO,4,27,7
India,Maharashtra,Kalyan,"Khadakpada, Kalyan - MPCB",29-08-2025 07:00:00,19.25292,73.142019,NH3,NA,NA,NA
India,Maharashtra,Kalyan,"Khadakpada, Kalyan - MPCB",29-08-2025 07:00:00,19.25292,73.142019,OZONE,NA,NA,NA
India,Maharashtra,Kolhapur,"Shivaji University, Kolhapur - MPCB",29-08-2025 07:00:00,16.6870449,74.2505872,PM2.5,5,27,12
India,Maharashtra,Kolhapur,"Shivaji University, Kolhapur - MPCB",29-08-2025 07:00:00,16.6870449,74.2505872,PM10,28,34,30
India,Maharashtra,Kolhapur,"Shivaji University, Kolhapur - MPCB",29-08-2025 07:00:00,16.6870449,74.2505872,NO2,2,13,8
India,Maharashtra,Latur,"Sawe Wadi, Latur - MPCB",29-08-2025 07:00:00,18.39963,76.57452,PM2.5,8,23,11
India,Maharashtra,Latur,"Sawe Wadi, Latur - MPCB",29-08-2025 07:00:00,18.39963,76.57452,PM10,9,38,19
India,Maharashtra,Latur,"Sawe Wadi, Latur - MPCB",29-08-2025 07:00:00,18.39963,76.57452,NH3,2,11,5
India,Maharashtra,Latur,"Sawe Wadi, Latur - MPCB",29-08-2025 07:00:00,18.39963,76.57452,OZONE,2,32,25
India,Maharashtra,Mahad,"Kamble Tarf Birwadi, Mahad - MPCB",29-08-2025 07:00:00,18.1023399,73.4783687,PM2.5,8,34,19
India,Maharashtra,Malegaon,"Mahesh Nagar, Malegaon - MPCB",29-08-2025 07:00:00,20.555712,74.529236,PM2.5,34,58,45
India,Maharashtra,Malegaon,"Mahesh Nagar, Malegaon - MPCB",29-08-2025 07:00:00,20.555712,74.529236,NH3,4,6,4
India,Maharashtra,Malegaon,"Mahesh Nagar, Malegaon - MPCB",29-08-2025 07:00:00,20.555712,74.529236,CO,24,48,28
India,Maharashtra,Malegaon,"Mahesh Nagar, Malegaon - MPCB",29-08-2025 07:00:00,20.555712,74.529236,OZONE,19,42,36
India,Maharashtra,Mira-Bhayandar,"Bhayandar West, Mira-Bhayandar - MPCB",29-08-2025 07:00:00,19.296481,72.840923,PM10,34,47,41
India,Maharashtra,Belapur,"CBD Belapur, Belapur - MPCB",29-08-2025 07:00:00,19.0243902,73.0406721,SO2,2,5,3
India,Maharashtra,Boisar,"Khaira, Boisar - MPCB",29-08-2025 07:00:00,19.786089,72.757971,NH3,6,13,10
India,Maharashtra,Boisar,"Khaira, Boisar - MPCB",29-08-2025 07:00:00,19.786089,72.757971,CO,12,72,24
India,Maharashtra,Chandrapur,"Chauhan Colony, Chandrapur - MPCB",29-08-2025 07:00:00,19.962900,79.298714,NO2,9,18,11
India,Maharashtra,Chandrapur,"MIDC Khutala, Chandrapur - MPCB",29-08-2025 07:00:00,19.9775302,79.2337086,OZONE,8,35,17
India,Maharashtra,Dhule,"Deopur, Dhule - MPCB",29-08-2025 07:00:00,20.918946,74.776388,PM2.5,NA,NA,NA
India,Maharashtra,Mumbai,"Deonar, Mumbai - IITM",29-08-2025 07:00:00,19.04946,72.9230,NO2,11,20,14
India,Maharashtra,Mumbai,"Ghatkopar, Mumbai - BMC",29-08-2025 07:00:00,19.083694,72.920967,NH3,2,3,2
India,Maharashtra,Mumbai,"Kandivali East, Mumbai - MPCB",29-08-2025 07:00:00,19.205800,72.868200,PM10,NA,NA,NA
India,Maharashtra,Mumbai,"Kandivali East, Mumbai - MPCB",29-08-2025 07:00:00,19.205800,72.868200,NH3,1,1,1
India,Maharashtra,Mumbai,"Kandivali East, Mumbai - MPCB",29-08-2025 07:00:00,19.205800,72.868200,CO,12,14,12
India,Maharashtra,Mumbai,"Kandivali West, Mumbai - BMC",29-08-2025 07:00:00,19.215859,72.831718,PM10,14,34,23
India,Maharashtra,Mumbai,"Kherwadi_Bandra East, Mumbai - MPCB",29-08-2025 07:00:00,19.0632143,72.8456324,PM10,32,56,44
India,Maharashtra,Aurangabad,"More Chowk Waluj, Aurangabad - MPCB",29-08-2025 07:00:00,19.8389439,75.244448,OZONE,3,24,10
India,Maharashtra,Aurangabad,"Rachnakar Colony, Aurangabad - MPCB",29-08-2025 07:00:00,19.863756,75.321188,SO2,15,31,21
India,Maharashtra,Aurangabad,"Rachnakar Colony, Aurangabad - MPCB",29-08-2025 07:00:00,19.863756,75.321188,OZONE,11,35,12
India,Maharashtra,Badlapur,"Katrap, Badlapur - MPCB",29-08-2025 07:00:00,19.16485,73.23409,SO2,5,17,11
India,Maharashtra,Badlapur,"Katrap, Badlapur - MPCB",29-08-2025 07:00:00,19.16485,73.23409,OZONE,13,39,16
India,Maharashtra,Belapur,"CBD Belapur, Belapur - MPCB",29-08-2025 07:00:00,19.0243902,73.0406721,PM2.5,17,24,20
India,Maharashtra,Belapur,"CBD Belapur, Belapur - MPCB",29-08-2025 07:00:00,19.0243902,73.0406721,NO2,7,16,12
India,Maharashtra,Mumbai,"Kherwadi_Bandra East, Mumbai - MPCB",29-08-2025 07:00:00,19.0632143,72.8456324,SO2,3,4,3
India,Maharashtra,Mumbai,"Kherwadi_Bandra East, Mumbai - MPCB",29-08-2025 07:00:00,19.0632143,72.8456324,CO,2,32,23
India,Maharashtra,Mumbai,"Kurla, Mumbai - MPCB",29-08-2025 07:00:00,19.0863,72.8888,PM10,48,84,66
India,Maharashtra,Mumbai,"Kurla, Mumbai - MPCB",29-08-2025 07:00:00,19.0863,72.8888,OZONE,24,29,28
India,Maharashtra,Mumbai,"Malad West, Mumbai - IITM",29-08-2025 07:00:00,19.19709,72.82204,PM2.5,6,63,29
India,Maharashtra,Mumbai,"Malad West, Mumbai - IITM",29-08-2025 07:00:00,19.19709,72.82204,NO2,11,50,27
India,Maharashtra,Mumbai,"Malad West, Mumbai - IITM",29-08-2025 07:00:00,19.19709,72.82204,NH3,3,7,5
India,Maharashtra,Mumbai,"Borivali East, Mumbai - MPCB",29-08-2025 07:00:00,19.2243333,72.8658113,PM2.5,NA,NA,NA
India,Maharashtra,Mumbai,"Byculla, Mumbai - BMC",29-08-2025 07:00:00,18.9767,72.8380,OZONE,10,10,10
India,Maharashtra,Mumbai,"Chakala-Andheri East, Mumbai - IITM",29-08-2025 07:00:00,19.11074,72.86084,OZONE,2,16,3
India,Maharashtra,Mumbai,"Chembur, Mumbai - MPCB",29-08-2025 07:00:00,19.0364585,72.8954371,NH3,10,17,14
India,Maharashtra,Mumbai,"Chhatrapati Shivaji Intl. Airport (T2), Mumbai - MPCB",29-08-2025 07:00:00,19.10078,72.87462,NO2,28,37,32
India,Maharashtra,Mumbai,"Colaba, Mumbai - MPCB",29-08-2025 07:00:00,18.910000,72.820000,NO2,22,24,23
India,Maharashtra,Mumbai,"Bandra Kurla Complex, Mumbai - IITM",29-08-2025 07:00:00,19.053536,72.84643,NH3,7,35,17
India,Maharashtra,Mumbai,"Bandra Kurla Complex, Mumbai - IITM",29-08-2025 07:00:00,19.053536,72.84643,OZONE,1,4,1
India,Maharashtra,Mumbai,"Bandra Kurla Complex, Mumbai - MPCB",29-08-2025 07:00:00,19.065931,72.862131,PM2.5,NA,NA,NA
India,Maharashtra,Nashik,"MIDC Ambad, Nashik - MPCB",29-08-2025 07:00:00,19.950220,73.731480,PM10,37,80,56
India,Maharashtra,Nashik,"MIDC Ambad, Nashik - MPCB",29-08-2025 07:00:00,19.950220,73.731480,NH3,2,3,2
India,Maharashtra,Nashik,"Pandav Nagari, Nashik - MPCB",29-08-2025 07:00:00,19.9591346,73.7788008,PM2.5,9,41,26
India,Maharashtra,Nashik,"Pandav Nagari, Nashik - MPCB",29-08-2025 07:00:00,19.9591346,73.7788008,PM10,12,47,30
India,Maharashtra,Nashik,"Pandav Nagari, Nashik - MPCB",29-08-2025 07:00:00,19.9591346,73.7788008,NH3,2,5,4
India,Maharashtra,Nashik,"Pandav Nagari, Nashik - MPCB",29-08-2025 07:00:00,19.9591346,73.7788008,CO,14,32,17
India,Maharashtra,Nashik,"Pandav Nagari, Nashik - MPCB",29-08-2025 07:00:00,19.9591346,73.7788008,OZONE,5,22,13
India,Maharashtra,Navi Mumbai,"Kopripada-Vashi, Navi Mumbai - MPCB",29-08-2025 07:00:00,19.090337,73.014232,NH3,1,5,2
India,Maharashtra,Navi Mumbai,"Kopripada-Vashi, Navi Mumbai - MPCB",29-08-2025 07:00:00,19.090337,73.014232,SO2,5,11,7
India,Maharashtra,Navi Mumbai,"Mahape, Navi Mumbai - MPCB",29-08-2025 07:00:00,19.1135051,73.008978,PM10,NA,NA,NA
India,Maharashtra,Navi Mumbai,"Mahape, Navi Mumbai - MPCB",29-08-2025 07:00:00,19.1135051,73.008978,NO2,NA,NA,NA
India,Maharashtra,Navi Mumbai,"Mahape, Navi Mumbai - MPCB",29-08-2025 07:00:00,19.1135051,73.008978,CO,NA,NA,NA
India,Maharashtra,Navi Mumbai,"Mahape, Navi Mumbai - MPCB",29-08-2025 07:00:00,19.1135051,73.008978,OZONE,NA,NA,NA
India,Maharashtra,Navi Mumbai,"Nerul, Navi Mumbai - MPCB",29-08-2025 07:00:00,19.008751,73.016620,PM2.5,20,48,34
India,Maharashtra,Pune,"Savitribai Phule Pune University, Pune - MPCB",29-08-2025 07:00:00,18.547056,73.826908,OZONE,1,12,1
India,Maharashtra,Pune,"Transport Nagar-Nigdi, Pune - IITM",29-08-2025 07:00:00,18.664282,73.763966,NO2,17,36,25
India,Maharashtra,Pune,"Transport Nagar-Nigdi, Pune - IITM",29-08-2025 07:00:00,18.664282,73.763966,CO,5,101,42
India,Maharashtra,Sangli,"Vijay Nagar, Sangli - MPCB",29-08-2025 07:00:00, 16.5038,74.3623,CO,14,20,14
India,Maharashtra,Solapur,"Dnyaneshwar Nagar, Solapur - MPCB",29-08-2025 07:00:00,17.6336264,75.9132495,PM2.5,9,28,17
India,Maharashtra,Solapur,"Dnyaneshwar Nagar, Solapur - MPCB",29-08-2025 07:00:00,17.6336264,75.9132495,NO2,1,15,7
India,Maharashtra,Solapur,"Dnyaneshwar Nagar, Solapur - MPCB",29-08-2025 07:00:00,17.6336264,75.9132495,SO2,1,1,1
India,Maharashtra,Solapur,"Ratandeep Housing Society, Solapur - MPCB",29-08-2025 07:00:00,17.65439,75.90649,SO2,1,6,2
India,Maharashtra,Pimpri-Chinchwad,"Park Street Wakad, Pimpri Chinchwad - MPCB",29-08-2025 07:00:00,18.59051,73.77946,PM10,27,57,43
India,Maharashtra,Pimpri-Chinchwad,"Park Street Wakad, Pimpri Chinchwad - MPCB",29-08-2025 07:00:00,18.59051,73.77946,NO2,8,21,13
India,Maharashtra,Pimpri-Chinchwad,"Park Street Wakad, Pimpri Chinchwad - MPCB",29-08-2025 07:00:00,18.59051,73.77946,OZONE,1,16,3
India,Maharashtra,Pimpri-Chinchwad,"Thergaon, Pimpri Chinchwad - MPCB",29-08-2025 07:00:00,18.616318,73.765797,PM10,36,74,51
India,Maharashtra,Pimpri-Chinchwad,"Thergaon, Pimpri Chinchwad - MPCB",29-08-2025 07:00:00,18.616318,73.765797,NO2,16,30,22
India,Maharashtra,Pimpri-Chinchwad,"Thergaon, Pimpri Chinchwad - MPCB",29-08-2025 07:00:00,18.616318,73.765797,NH3,1,5,2
India,Maharashtra,Pimpri-Chinchwad,"Thergaon, Pimpri Chinchwad - MPCB",29-08-2025 07:00:00,18.616318,73.765797,SO2,1,3,2
India,Maharashtra,Pune,"Bhumkar Nagar, Pune - IITM",29-08-2025 07:00:00,18.605770,73.749976,PM10,29,70,44
India,Maharashtra,Pune,"Bhumkar Nagar, Pune - IITM",29-08-2025 07:00:00,18.605770,73.749976,CO,22,51,30
India,Maharashtra,Navi Mumbai,"Nerul, Navi Mumbai - MPCB",29-08-2025 07:00:00,19.008751,73.016620,SO2,NA,NA,NA
India,Maharashtra,Navi Mumbai,"Sanpada, Navi Mumbai - MPCB",29-08-2025 07:00:00,19.0575752,73.0151367,NH3,7,15,11
India,Maharashtra,Navi Mumbai,"Sector-2E Kalamboli, Navi Mumbai - MPCB",29-08-2025 07:00:00,19.02579,73.10297,NO2,37,273,82
India,Maharashtra,Navi Mumbai,"Tondare-Taloja, Navi Mumbai - MPCB",29-08-2025 07:00:00,19.0630,73.1209,PM2.5,24,50,38
India,Maharashtra,Navi Mumbai,"Tondare-Taloja, Navi Mumbai - MPCB",29-08-2025 07:00:00,19.0630,73.1209,NH3,4,6,5
India,Maharashtra,Parbhani,"Masoom Colony, Parbhani - MPCB",29-08-2025 07:00:00,19.265594,76.761463,NO2,2,3,3
India,Maharashtra,Parbhani,"Masoom Colony, Parbhani - MPCB",29-08-2025 07:00:00,19.265594,76.761463,SO2,1,15,9
India,Maharashtra,Mumbai,"Vile Parle West, Mumbai - MPCB",29-08-2025 07:00:00,19.10861,72.83622,NO2,2,30,12
India,Maharashtra,Mumbai,"Vile Parle West, Mumbai - MPCB",29-08-2025 07:00:00,19.10861,72.83622,OZONE,2,27,17
India,Maharashtra,Mumbai,"Worli, Mumbai - MPCB",29-08-2025 07:00:00,18.9936162,72.8128113,CO,4,12,8
India,Maharashtra,Nagpur,"Ambazari, Nagpur - MPCB",29-08-2025 07:00:00,21.121801,79.04952,PM10,22,54,39
India,Maharashtra,Nagpur,"Mahal, Nagpur - MPCB",29-08-2025 07:00:00,21.14472,79.107595,CO,28,112,51
India,Maharashtra,Nagpur,"Opp GPO Civil Lines, Nagpur - MPCB",29-08-2025 07:00:00,21.152875,79.0517531,PM2.5,8,63,31
India,Maharashtra,Nagpur,"Ram Nagar, Nagpur - MPCB",29-08-2025 07:00:00,21.143383,79.048912,NH3,1,4,2
India,Maharashtra,Nagpur,"Ram Nagar, Nagpur - MPCB",29-08-2025 07:00:00,21.143383,79.048912,SO2,1,4,3
India,Maharashtra,Nagpur,"Ram Nagar, Nagpur - MPCB",29-08-2025 07:00:00,21.143383,79.048912,OZONE,2,25,6
India,Maharashtra,Nanded,"Sneh Nagar, Nanded - MPCB",29-08-2025 07:00:00,19.173852,77.296291,SO2,NA,NA,NA
India,Maharashtra,Nashik,"Gangapur Road, Nashik - MPCB",29-08-2025 07:00:00,20.0073285,73.7762427,PM10,19,60,33
India,Maharashtra,Nashik,"Hirawadi, Nashik - MPCB",29-08-2025 07:00:00,20.021503,73.813844,NO2,1,6,3
India,Maharashtra,Nashik,"Hirawadi, Nashik - MPCB",29-08-2025 07:00:00,20.021503,73.813844,SO2,1,6,2
India,Maharashtra,Mumbai,"Mazgaon, Mumbai - IITM",29-08-2025 07:00:00,18.96702,72.84214,NH3,8,14,10
India,Maharashtra,Mumbai,"Mindspace-Malad West, Mumbai - MPCB",29-08-2025 07:00:00,19.1878657,72.8304069,NO2,15,16,16
India,Maharashtra,Mumbai,"Mulund West, Mumbai - MPCB",29-08-2025 07:00:00,19.1750,72.9419,PM10,NA,NA,NA
India,Maharashtra,Mumbai,"Navy Nagar-Colaba, Mumbai - IITM",29-08-2025 07:00:00,18.897756,72.813320,PM2.5,33,78,52
India,Maharashtra,Mumbai,"Navy Nagar-Colaba, Mumbai - IITM",29-08-2025 07:00:00,18.897756,72.813320,NH3,3,8,4
India,Maharashtra,Mumbai,"Navy Nagar-Colaba, Mumbai - IITM",29-08-2025 07:00:00,18.897756,72.813320,OZONE,3,18,7
India,Maharashtra,Mumbai,"Siddharth Nagar-Worli, Mumbai - IITM",29-08-2025 07:00:00,19.000083,72.813993,PM2.5,20,45,31
India,Maharashtra,Mumbai,"Sion, Mumbai - MPCB",29-08-2025 07:00:00,19.047000,72.874600,PM10,22,47,35
India,Maharashtra,Mumbai,"Sion, Mumbai - MPCB",29-08-2025 07:00:00,19.047000,72.874600,SO2,9,10,9
India,Maharashtra,Mumbai,"Vasai West, Mumbai - MPCB",29-08-2025 07:00:00,19.383200,72.820400,SO2,10,123,17
India,Maharashtra,Pune,"Panchawati_Pashan, Pune - IITM",29-08-2025 07:00:00,18.536457,73.805454,OZONE,1,12,2
India,Maharashtra,Pune,"Savitribai Phule Pune University, Pune - MPCB",29-08-2025 07:00:00,18.547056,73.826908,PM10,32,68,48
India,Maharashtra,Pune,"Savitribai Phule Pune University, Pune - MPCB",29-08-2025 07:00:00,18.547056,73.826908,NO2,NA,NA,NA
India,Maharashtra,Pune,"Savitribai Phule Pune University, Pune - MPCB",29-08-2025 07:00:00,18.547056,73.826908,NH3,NA,NA,NA
India,Odisha,Bileipada,"Tata Township, Bileipada - OSPCB",29-08-2025 07:00:00,22.06156703,85.47409613,NH3,4,4,4
India,Odisha,Bileipada,"Tata Township, Bileipada - OSPCB",29-08-2025 07:00:00,22.06156703,85.47409613,OZONE,11,13,12
India,Odisha,Brajrajnagar,"GM Office, Brajrajnagar - OSPCB",29-08-2025 07:00:00,21.8004996,83.8396977,PM2.5,12,39,20
India,Odisha,Brajrajnagar,"GM Office, Brajrajnagar - OSPCB",29-08-2025 07:00:00,21.8004996,83.8396977,PM10,17,55,28
India,Odisha,Byasanagar,"Ferro Chrome Colony, Byasanagar - OSPCB",29-08-2025 07:00:00,20.94185,86.11510,NO2,2,21,17
India,Odisha,Byasanagar,"Ferro Chrome Colony, Byasanagar - OSPCB",29-08-2025 07:00:00,20.94185,86.11510,NH3,1,1,1
India,Odisha,Byasanagar,"Ferro Chrome Colony, Byasanagar - OSPCB",29-08-2025 07:00:00,20.94185,86.11510,SO2,3,6,3
India,Odisha,Cuttack,"CDA Area, Cuttack - OSPCB",29-08-2025 07:00:00,20.48891     ,85.84768     ,PM2.5,3,23,12
India,Odisha,Cuttack,"CDA Area, Cuttack - OSPCB",29-08-2025 07:00:00,20.48891     ,85.84768     ,NO2,4,15,8
India,Odisha,Cuttack,"CDA Area, Cuttack - OSPCB",29-08-2025 07:00:00,20.48891     ,85.84768     ,NH3,1,19,3
India,Odisha,Cuttack,"CDA Area, Cuttack - OSPCB",29-08-2025 07:00:00,20.48891     ,85.84768     ,SO2,2,5,3
India,Odisha,Keonjhar,"Jagamohanpur, Keonjhar - OSPCB",29-08-2025 07:00:00,21.643900,85.599355,NH3,6,13,8
India,Nagaland,Kohima,"PWD Junction, Kohima - NPCB",29-08-2025 07:00:00,25.6635413,94.0989878,OZONE,6,14,7
India,Odisha,Angul,"Hakimapada, Angul - OSPCB",29-08-2025 07:00:00,20.832874,85.104082,NO2,4,10,7
India,Odisha,Balasore,"Kalidaspur, Balasore - OSPCB",29-08-2025 07:00:00,21.51161,86.89088,NH3,2,3,2
India,Odisha,Balasore,"Kalidaspur, Balasore - OSPCB",29-08-2025 07:00:00,21.51161,86.89088,SO2,5,6,5
India,Odisha,Balasore,"Kalidaspur, Balasore - OSPCB",29-08-2025 07:00:00,21.51161,86.89088,OZONE,10,35,16
India,Odisha,Barbil,"Forest Office, Barbil - OSPCB",29-08-2025 07:00:00,22.1166054,85.3945546,NO2,5,18,11
India,Odisha,Barbil,"Forest Office, Barbil - OSPCB",29-08-2025 07:00:00,22.1166054,85.3945546,SO2,9,20,12
India,Odisha,Tensa,"Barsua Iron Ore Mines, Tensa - OSPCB",29-08-2025 07:00:00,21.869985,85.167016,PM2.5,30,30,30
India,Odisha,Tensa,"Barsua Iron Ore Mines, Tensa - OSPCB",29-08-2025 07:00:00,21.869985,85.167016,SO2,4,43,11
India,Odisha,Tensa,"Barsua Iron Ore Mines, Tensa - OSPCB",29-08-2025 07:00:00,21.869985,85.167016,OZONE,8,18,14
India,Puducherry,Puducherry,"Jawahar Nagar, Puducherry - PPCC",29-08-2025 07:00:00,11.9309,79.8027,PM2.5,9,38,22
India,Punjab,Amritsar,"Golden Temple, Amritsar - PPCB",29-08-2025 07:00:00,31.620000,74.876512,PM10,49,71,63
India,Punjab,Bathinda,"Hardev Nagar, Bathinda - PPCB",29-08-2025 07:00:00,30.233011,74.907758,SO2,1,28,12
India,Punjab,Khanna,"Kalal Majra, Khanna - PPCB",29-08-2025 07:00:00,30.736056 ,76.209694,NH3,7,7,7
India,Punjab,Mandi Gobindgarh,"RIMT University, Mandi Gobindgarh - PPCB",29-08-2025 07:00:00,30.649961,76.331442,PM2.5,33,94,48
India,Punjab,Mandi Gobindgarh,"RIMT University, Mandi Gobindgarh - PPCB",29-08-2025 07:00:00,30.649961,76.331442,NH3,6,6,6
India,Punjab,Patiala,"Model Town, Patiala - PPCB",29-08-2025 07:00:00,30.349388,76.366642,PM10,34,58,44
India,Punjab,Patiala,"Model Town, Patiala - PPCB",29-08-2025 07:00:00,30.349388,76.366642,NH3,5,6,5
India,Maharashtra,Virar,"Bolinj, Virar - MPCB",29-08-2025 07:00:00,19.4458210,72.7988231,OZONE,3,18,7
India,Meghalaya,Shillong,"Lumpyngngad, Shillong - Meghalaya PCB",29-08-2025 07:00:00,25.5586,91.8985,CO,2,16,2
India,Nagaland,Kohima,"PWD Junction, Kohima - NPCB",29-08-2025 07:00:00,25.6635413,94.0989878,NO2,3,4,3
India,Nagaland,Kohima,"PWD Junction, Kohima - NPCB",29-08-2025 07:00:00,25.6635413,94.0989878,NH3,1,1,1
India,Maharashtra,Thane,"Kasarvadavali, Thane - MPCB",29-08-2025 07:00:00,19.26777,72.97182,CO,15,44,33
India,Maharashtra,Thane,"Upvan Fort, Thane - MPCB",29-08-2025 07:00:00,19.222279,72.957979,PM10,40,76,54
India,Maharashtra,Thane,"Upvan Fort, Thane - MPCB",29-08-2025 07:00:00,19.222279,72.957979,CO,44,66,58
India,Maharashtra,Ulhasnagar,"Sidhi Vinayak Nagar, Ulhasnagar - MPCB",29-08-2025 07:00:00,19.235581,73.159121,PM2.5,28,74,52
India,Odisha,Nayagarh,"Dabuna, Nayagarh - OSPCB",29-08-2025 07:00:00,21.847279,85.416905,CO,14,22,16
India,Odisha,Nayagarh,"Dabuna, Nayagarh - OSPCB",29-08-2025 07:00:00,21.847279,85.416905,OZONE,9,24,17
India,Odisha,Rourkela,"Raghunathpali, Rourkela - OSPCB",29-08-2025 07:00:00,22.220833,84.809444,PM10,13,50,38
India,Odisha,Suakati,"OMC Colony, Suakati - OSPCB",29-08-2025 07:00:00,21.606865,85.510538,PM10,NA,NA,NA
India,Odisha,Baripada,"Meher Colony, Baripada - OSPCB",29-08-2025 07:00:00,21.941841,86.728318,SO2,NA,NA,NA
India,Odisha,Baripada,"Meher Colony, Baripada - OSPCB",29-08-2025 07:00:00,21.941841,86.728318,OZONE,5,21,14
India,Odisha,Bhubaneswar,"Patia, Bhubaneswar - OSPCB",29-08-2025 07:00:00,20.34652,85.81630,OZONE,14,46,22
India,Maharashtra,Virar,"Bolinj, Virar - MPCB",29-08-2025 07:00:00,19.4458210,72.7988231,SO2,2,5,3
India,Maharashtra,Virar,"Bolinj, Virar - MPCB",29-08-2025 07:00:00,19.4458210,72.7988231,CO,8,60,33
India,Rajasthan,Jhalawar,"Rajlaxmi Nagar, Jhalawar - RSPCB",29-08-2025 07:00:00,24.588397,76.172782,PM2.5,17,33,23
India,Rajasthan,Jhunjhunu,"Indra Nagar, Jhunjhunu - RSPCB",29-08-2025 07:00:00,28.108988,75.386577,PM10,30,110,53
India,Rajasthan,Jodhpur,"Collectorate, Jodhpur - RSPCB",29-08-2025 07:00:00,26.268249,73.0193853,PM2.5,20,181,79
India,Rajasthan,Jodhpur,"Collectorate, Jodhpur - RSPCB",29-08-2025 07:00:00,26.268249,73.0193853,PM10,21,500,111
India,Rajasthan,Jodhpur,"Digari Kalan, Jodhpur - RSPCB",29-08-2025 07:00:00,26.295810,73.082283,SO2,1,7,3
India,Rajasthan,Jodhpur,"Digari Kalan, Jodhpur - RSPCB",29-08-2025 07:00:00,26.295810,73.082283,CO,14,34,20
India,Rajasthan,Jodhpur,"Jhalamand, Jodhpur - RSPCB",29-08-2025 07:00:00,26.215415,73.070156,PM2.5,28,62,45
India,Rajasthan,Bhiwadi,"Vasundhara Nagar_UIT, Bhiwadi - RSPCB",29-08-2025 07:00:00,28.207266,76.829265,PM10,42,164,85
India,Rajasthan,Bhiwadi,"Vasundhara Nagar_UIT, Bhiwadi - RSPCB",29-08-2025 07:00:00,28.207266,76.829265,SO2,6,32,13
India,Rajasthan,Bhiwadi,"Vasundhara Nagar_UIT, Bhiwadi - RSPCB",29-08-2025 07:00:00,28.207266,76.829265,OZONE,12,26,16
India,Rajasthan,Bikaner,"MM Ground, Bikaner - RSPCB",29-08-2025 07:00:00,28.018792,73.292658,PM10,47,133,87
India,Rajasthan,Bikaner,"MM Ground, Bikaner - RSPCB",29-08-2025 07:00:00,28.018792,73.292658,NO2,6,36,12
India,Rajasthan,Bikaner,"MM Ground, Bikaner - RSPCB",29-08-2025 07:00:00,28.018792,73.292658,CO,13,73,18
India,Rajasthan,Churu,"Subash Chowk, Churu - RSPCB",29-08-2025 07:00:00,28.296139,74.961696,PM10,33,116,54
India,Rajasthan,Churu,"Subash Chowk, Churu - RSPCB",29-08-2025 07:00:00,28.296139,74.961696,NO2,3,8,6
India,Rajasthan,Jaipur,"Adarsh Nagar, Jaipur - RSPCB",29-08-2025 07:00:00,26.902909,75.836858,NH3,7,50,20
India,Rajasthan,Jaipur,"Mansarovar Sector-12, Jaipur - RSPCB",29-08-2025 07:00:00,26.843698,75.766894,NO2,6,33,16
India,Rajasthan,Jaipur,"Police Commissionerate, Jaipur - RSPCB",29-08-2025 07:00:00,26.9164092,75.7994901,PM2.5,34,93,55
India,Rajasthan,Jaipur,"RIICO Sitapura, Jaipur - RSPCB",29-08-2025 07:00:00,26.786682,75.827928,PM2.5,23,62,39
India,Rajasthan,Jaipur,"RIICO Sitapura, Jaipur - RSPCB",29-08-2025 07:00:00,26.786682,75.827928,PM10,31,92,54
India,Rajasthan,Jaipur,"RIICO Sitapura, Jaipur - RSPCB",29-08-2025 07:00:00,26.786682,75.827928,NH3,NA,NA,NA
India,Rajasthan,Churu,"Subash Chowk, Churu - RSPCB",29-08-2025 07:00:00,28.296139,74.961696,SO2,2,3,3
India,Rajasthan,Churu,"Subash Chowk, Churu - RSPCB",29-08-2025 07:00:00,28.296139,74.961696,OZONE,4,95,16
India,Rajasthan,Dausa,"Khatikan Mohalla, Dausa - RSPCB",29-08-2025 07:00:00,26.895552,76.334753,NH3,4,7,5
India,Rajasthan,Dausa,"Khatikan Mohalla, Dausa - RSPCB",29-08-2025 07:00:00,26.895552,76.334753,OZONE,10,36,22
India,Rajasthan,Dungarpur,"Bhoiwada, Dungarpur - RSPCB",29-08-2025 07:00:00,23.837789,73.714926,SO2,2,5,3
India,Rajasthan,Dungarpur,"Bhoiwada, Dungarpur - RSPCB",29-08-2025 07:00:00,23.837789,73.714926,CO,18,28,20
India,Rajasthan,Jodhpur,"Mandor, Jodhpur - RSPCB",29-08-2025 07:00:00,26.358805,73.047444,PM10,25,118,78
India,Rajasthan,Jodhpur,"Samrat Ashok Udhyan, Jodhpur - RSPCB",29-08-2025 07:00:00,26.253384,72.976571,PM2.5,11,68,34
India,Rajasthan,Jodhpur,"Samrat Ashok Udhyan, Jodhpur - RSPCB",29-08-2025 07:00:00,26.253384,72.976571,PM10,22,117,74
India,Rajasthan,Jodhpur,"Samrat Ashok Udhyan, Jodhpur - RSPCB",29-08-2025 07:00:00,26.253384,72.976571,SO2,1,5,2
India,Rajasthan,Karauli,"Satyawati Vihar, Karauli - RSPCB",29-08-2025 07:00:00,26.506177,77.025989,NO2,8,21,16
India,Rajasthan,Karauli,"Satyawati Vihar, Karauli - RSPCB",29-08-2025 07:00:00,26.506177,77.025989,NH3,1,2,2
India,Rajasthan,Bharatpur,"Krishna Nagar, Bharatpur - RSPCB",29-08-2025 07:00:00,27.215415,77.50873,SO2,3,5,4
India,Rajasthan,Bhilwara,"Pratap Nagar, Bhilwara - RSPCB",29-08-2025 07:00:00,25.339605,74.618883,NO2,7,39,21
India,Rajasthan,Bhilwara,"Pratap Nagar, Bhilwara - RSPCB",29-08-2025 07:00:00,25.339605,74.618883,NH3,2,8,4
India,Rajasthan,Bhiwadi,"RIICO Ind. Area III, Bhiwadi - RSPCB",29-08-2025 07:00:00,28.194909,76.862296,NO2,9,31,21
India,Rajasthan,Bhiwadi,"RIICO Ind. Area III, Bhiwadi - RSPCB",29-08-2025 07:00:00,28.194909,76.862296,NH3,3,10,7
India,Rajasthan,Jaipur,"Sector-2 Murlipura, Jaipur - RSPCB",29-08-2025 07:00:00,26.960669,75.771817,PM2.5,12,189,35
India,Rajasthan,Jaipur,"Sector-2 Murlipura, Jaipur - RSPCB",29-08-2025 07:00:00,26.960669,75.771817,PM10,18,183,48
India,Rajasthan,Jalore,"Mudtra Sili, Jalore - RSPCB",29-08-2025 07:00:00,25.344694,72.626208,NO2,2,34,12
India,Rajasthan,Jalore,"Mudtra Sili, Jalore - RSPCB",29-08-2025 07:00:00,25.344694,72.626208,CO,8,48,10
India,Punjab,Rupnagar,"Ratanpura, Rupnagar - Ambuja Cements",29-08-2025 07:00:00,31.0325454,76.5623046,PM2.5,28,58,39
India,Rajasthan,Alwar,"Moti Doongri, Alwar - RSPCB",29-08-2025 07:00:00,27.554793,76.611536,SO2,2,47,20
India,Rajasthan,Hanumangarh,"Housing Board, Hanumangarh - RSPCB",29-08-2025 07:00:00,29.610750,74.283608,PM10,28,75,47
India,TamilNadu,Madurai,"Uchapatti, Madurai - TNPCB",29-08-2025 07:00:00,9.865935,78.022669,OZONE,6,6,6
India,TamilNadu,Nagapattinam,"Velippalayam, Nagapattinam - TNPCB",29-08-2025 07:00:00,10.798548,79.838212,CO,11,17,12
India,TamilNadu,Namakkal,"Ponnusamy Nagar, Namakkal - TNPCB",29-08-2025 07:00:00,11.273992,78.163545,PM2.5,NA,NA,NA
India,TamilNadu,Namakkal,"Ponnusamy Nagar, Namakkal - TNPCB",29-08-2025 07:00:00,11.273992,78.163545,SO2,NA,NA,NA
India,TamilNadu,Ooty,"Bombay Castel, Ooty - TNPCB",29-08-2025 07:00:00,11.4068288,76.7138973,PM2.5,NA,NA,NA
India,TamilNadu,Ooty,"Bombay Castel, Ooty - TNPCB",29-08-2025 07:00:00,11.4068288,76.7138973,NO2,2,5,3
India,TamilNadu,Palkalaiperur,"Bharathidasan University, Palkalaiperur - TNPCB",29-08-2025 07:00:00,10.681158,78.741746,NO2,7,7,7
India,Rajasthan,Sawai Madhopur,"Sahu Nagar, Sawai Madhopur - RSPCB",29-08-2025 07:00:00,26.031443,76.359327,NH3,6,24,8
India,Rajasthan,Sikar,"Radhakishan Pura, Sikar - RSPCB",29-08-2025 07:00:00,27.608912,75.153302,NH3,2,17,6
India,Rajasthan,Sirohi,"Vedhaynath Colony, Sirohi - RSPCB",29-08-2025 07:00:00,24.885261,72.857549,PM2.5,28,58,42
India,Rajasthan,Sri Ganganagar,"Old City, Sri Ganganagar - RSPCB",29-08-2025 07:00:00,29.931624,73.864511,PM10,17,240,100
India,Rajasthan,Sri Ganganagar,"Old City, Sri Ganganagar - RSPCB",29-08-2025 07:00:00,29.931624,73.864511,NO2,33,61,49
India,Rajasthan,Sri Ganganagar,"Old City, Sri Ganganagar - RSPCB",29-08-2025 07:00:00,29.931624,73.864511,SO2,1,20,7
India,Rajasthan,Kota,"Dhanmandi, Kota - RSPCB",29-08-2025 07:00:00,25.164090,75.858137,OZONE,NA,NA,NA
India,Rajasthan,Kota,"Nayapura, Kota - RSPCB",29-08-2025 07:00:00,25.196024,75.855668,PM2.5,7,55,29
India,Rajasthan,Kota,"Shrinath Puram, Kota - RSPCB",29-08-2025 07:00:00,25.14389,75.821256,PM2.5,30,88,52
India,Rajasthan,Kota,"Shrinath Puram, Kota - RSPCB",29-08-2025 07:00:00,25.14389,75.821256,SO2,7,9,8
India,Rajasthan,Pali,"Indira Colony Vistar, Pali - RSPCB",29-08-2025 07:00:00,25.771061, 73.340227,CO,19,48,34
India,TamilNadu,Chennai,"Kodungaiyur, Chennai - TNPCB",29-08-2025 07:00:00,13.1278,80.2642,SO2,1,5,3
India,TamilNadu,Chennai,"Kodungaiyur, Chennai - TNPCB",29-08-2025 07:00:00,13.1278,80.2642,CO,5,68,22
India,TamilNadu,Chennai,"Manali Village, Chennai - TNPCB",29-08-2025 07:00:00,13.1662,80.2584,NO2,3,6,4
India,TamilNadu,Chennai,"Manali Village, Chennai - TNPCB",29-08-2025 07:00:00,13.1662,80.2584,SO2,17,24,21
India,TamilNadu,Chennai,"Manali Village, Chennai - TNPCB",29-08-2025 07:00:00,13.1662,80.2584,OZONE,29,59,50
India,TamilNadu,Chennai,"Manali, Chennai - CPCB",29-08-2025 07:00:00,13.164544,80.26285,SO2,NA,NA,NA
India,TamilNadu,Coimbatore,"SIDCO Kurichi, Coimbatore - TNPCB",29-08-2025 07:00:00,10.942451,76.978996,SO2,22,23,23
India,TamilNadu,Cuddalore,"Kudikadu, Cuddalore - TNPCB",29-08-2025 07:00:00,11.6829898,79.7532099,SO2,NA,NA,NA
India,TamilNadu,Dindigul,"Mendonsa Colony, Dindigul - TNPCB",29-08-2025 07:00:00,10.358535,77.984321,CO,4,16,8
India,TamilNadu,Hosur,"SIPCOT Phase-1, Hosur - TNPCB",29-08-2025 07:00:00,12.746998,77.813811,PM10,28,89,47
India,Rajasthan,Tonk,"Shastri Nagar, Tonk - RSPCB",29-08-2025 07:00:00,26.159933,75.780517,PM2.5,18,378,148
India,Rajasthan,Udaipur,"Ashok Nagar, Udaipur - RSPCB",29-08-2025 07:00:00,24.5886166,73.6321397,PM10,42,116,76
India,Rajasthan,Udaipur,"Ashok Nagar, Udaipur - RSPCB",29-08-2025 07:00:00,24.5886166,73.6321397,NH3,2,15,8
India,TamilNadu,Chengalpattu,"Crescent University, Chengalpattu - TNPCB",29-08-2025 07:00:00,12.8777316,80.0834807,NO2,5,16,10
India,TamilNadu,Chennai,"Royapuram, Chennai - TNPCB",29-08-2025 07:00:00,13.1036,80.2909,NO2,12,25,19
India,TamilNadu,Chennai,"Velachery Res. Area, Chennai - CPCB",29-08-2025 07:00:00,13.0052189,80.2398125,OZONE,8,12,9
India,TamilNadu,Coimbatore,"PSG College of Arts and Science, Coimbatore - TNPCB",29-08-2025 07:00:00,11.0328,77.0349,SO2,2,4,3
India,TamilNadu,Kanchipuram,"Kilambi, Kanchipuram - TNPCB",29-08-2025 07:00:00,12.864618,79.659968,PM10,16,500,74
India,TamilNadu,Madurai,"Uchapatti, Madurai - TNPCB",29-08-2025 07:00:00,9.865935,78.022669,PM10,8,36,22
India,TamilNadu,Madurai,"Uchapatti, Madurai - TNPCB",29-08-2025 07:00:00,9.865935,78.022669,NO2,16,17,16
India,Rajasthan,Rajsamand,"Dhoinda, Rajsamand - RSPCB",29-08-2025 07:00:00,25.036360,73.883502,PM2.5,33,72,48
India,TamilNadu,Perundurai,"SIPCOT Industrial Park, Perundurai - TNPCB",29-08-2025 07:00:00,11.258242,77.552761,PM2.5,7,21,14
India,TamilNadu,Perundurai,"SIPCOT Industrial Park, Perundurai - TNPCB",29-08-2025 07:00:00,11.258242,77.552761,NO2,7,8,7
India,TamilNadu,Perundurai,"SIPCOT Industrial Park, Perundurai - TNPCB",29-08-2025 07:00:00,11.258242,77.552761,CO,24,28,25
India,TamilNadu,Perundurai,"SIPCOT Industrial Park, Perundurai - TNPCB",29-08-2025 07:00:00,11.258242,77.552761,OZONE,15,31,29
India,TamilNadu,Pudukottai,"SIPCOT Nathampannai, Pudukottai - TNPCB",29-08-2025 07:00:00,10.423417,78.784889,PM2.5,22,43,31
India,TamilNadu,Ramanathapuram,"Chalai Bazaar, Ramanathapuram - TNPCB",29-08-2025 07:00:00,9.36399,78.831977,PM2.5,12,45,20
India,TamilNadu,Ramanathapuram,"Chalai Bazaar, Ramanathapuram - TNPCB",29-08-2025 07:00:00,9.36399,78.831977,NO2,10,13,12
India,TamilNadu,Ramanathapuram,"Chalai Bazaar, Ramanathapuram - TNPCB",29-08-2025 07:00:00,9.36399,78.831977,OZONE,3,8,4
India,TamilNadu,Ranipet,"VOC Nagar_SIPCOT, Ranipet - TNPCB",29-08-2025 07:00:00,12.952707,79.30394,NO2,1,3,1
India,TamilNadu,Ranipet,"VOC Nagar_SIPCOT, Ranipet - TNPCB",29-08-2025 07:00:00,12.952707,79.30394,CO,18,20,20
India,TamilNadu,Tirupur,"Kumaran College, Tirupur - TNPCB",29-08-2025 07:00:00,11.0973603,77.3228673,PM2.5,1,7,3
India,TamilNadu,Tirupur,"Kumaran College, Tirupur - TNPCB",29-08-2025 07:00:00,11.0973603,77.3228673,NO2,2,5,4
India,TamilNadu,Vellore,"Vasanthapuram, Vellore - TNPCB",29-08-2025 07:00:00,12.909494,79.131861,NO2,1,1,1
India,TamilNadu,Vellore,"Vasanthapuram, Vellore - TNPCB",29-08-2025 07:00:00,12.909494,79.131861,SO2,19,19,19
India,TamilNadu,Virudhunagar,"Collectorate Office, Virudhunagar - TNPCB",29-08-2025 07:00:00,9.559382,77.948828,SO2,18,19,19
India,Telangana,Hyderabad,"Bollaram Industrial Area, Hyderabad - TSPCB",29-08-2025 07:00:00,17.540891,78.358528,NO2,29,46,35
India,Telangana,Hyderabad,"Ramachandrapuram, Hyderabad - TSPCB",29-08-2025 07:00:00,17.528544,78.286195,NH3,6,6,6
India,Telangana,Hyderabad,"Ramachandrapuram, Hyderabad - TSPCB",29-08-2025 07:00:00,17.528544,78.286195,SO2,10,18,15
India,Telangana,Hyderabad,"Ramachandrapuram, Hyderabad - TSPCB",29-08-2025 07:00:00,17.528544,78.286195,OZONE,22,87,23
India,Telangana,Hyderabad,"Sanathnagar, Hyderabad - TSPCB",29-08-2025 07:00:00,17.4559458,78.4332152,PM2.5,5,43,26
India,Telangana,Hyderabad,"Somajiguda, Hyderabad - TSPCB",29-08-2025 07:00:00,17.417094,78.457437,NO2,16,30,22
India,Telangana,Hyderabad,"Somajiguda, Hyderabad - TSPCB",29-08-2025 07:00:00,17.417094,78.457437,OZONE,18,28,22
India,Telangana,Hyderabad,"Zoo Park, Hyderabad - TSPCB",29-08-2025 07:00:00,17.349694,78.451437,PM10,51,78,64
India,Telangana,Hyderabad,"IITH Kandi, Hyderabad - TSPCB",29-08-2025 07:00:00,17.585705,78.126199,NO2,NA,NA,NA
India,Telangana,Hyderabad,"IITH Kandi, Hyderabad - TSPCB",29-08-2025 07:00:00,17.585705,78.126199,CO,NA,NA,NA
India,Telangana,Hyderabad,"IITH Kandi, Hyderabad - TSPCB",29-08-2025 07:00:00,17.585705,78.126199,OZONE,NA,NA,NA
India,Telangana,Hyderabad,"Kompally Municipal Office, Hyderabad - TSPCB",29-08-2025 07:00:00,17.544899,78.486949,PM2.5,49,56,53
India,Telangana,Hyderabad,"Nacharam_TSIIC IALA, Hyderabad - TSPCB",29-08-2025 07:00:00,17.429398,78.569354,SO2,10,21,17
India,Telangana,Hyderabad,"Nacharam_TSIIC IALA, Hyderabad - TSPCB",29-08-2025 07:00:00,17.429398,78.569354,OZONE,18,26,18
India,Telangana,Hyderabad,"New Malakpet, Hyderabad - TSPCB",29-08-2025 07:00:00,17.37206,78.50864,NH3,NA,NA,NA
India,Uttar_Pradesh,Agra,"Shahjahan Garden, Agra - UPPCB",29-08-2025 07:00:00,27.169338,78.03582,SO2,28,34,31
India,Uttar_Pradesh,Agra,"Shastripuram, Agra - UPPCB",29-08-2025 07:00:00,27.19862,77.92066,PM2.5,28,111,72
India,Uttar_Pradesh,Agra,"Shastripuram, Agra - UPPCB",29-08-2025 07:00:00,27.19862,77.92066,NO2,24,25,24
India,Uttar_Pradesh,Agra,"Shastripuram, Agra - UPPCB",29-08-2025 07:00:00,27.19862,77.92066,SO2,30,39,35
India,Uttar_Pradesh,Bareilly,"Civil Lines, Bareilly - UPPCB",29-08-2025 07:00:00,28.359581,79.414455,PM2.5,1,3,1
India,Uttar_Pradesh,Bareilly,"Rajendra Nagar, Bareilly - UPPCB",29-08-2025 07:00:00,28.38910936,79.42963708,NH3,1,1,1
India,Uttar_Pradesh,Agra,"Rohta, Agra - UPPCB",29-08-2025 07:00:00,27.106972,78.000111,PM2.5,69,98,84
India,Uttar_Pradesh,Agra,"Rohta, Agra - UPPCB",29-08-2025 07:00:00,27.106972,78.000111,PM10,61,87,75
India,Uttar_Pradesh,Agra,"Rohta, Agra - UPPCB",29-08-2025 07:00:00,27.106972,78.000111,NO2,10,16,14
India,Uttar_Pradesh,Agra,"Sanjay Palace, Agra - UPPCB",29-08-2025 07:00:00,27.19865833,78.00598056,PM10,20,62,48
India,Uttar_Pradesh,Agra,"Shahjahan Garden, Agra - UPPCB",29-08-2025 07:00:00,27.169338,78.03582,NO2,27,28,27
India,TamilNadu,Salem,"Sona College of Technology, Salem - TNPCB",29-08-2025 07:00:00,11.679111,78.125052,OZONE,NA,NA,NA
India,TamilNadu,Thoothukudi,"Meelavittan, Thoothukudi - TNPCB",29-08-2025 07:00:00,8.816428 ,78.099039,PM10,12,83,36
India,TamilNadu,Tiruchirappalli,"St Joseph College, Tiruchirappalli - TNPCB",29-08-2025 07:00:00,10.830158,78.691849,OZONE,7,37,23
India,Telangana,Hyderabad,"Zoo Park, Hyderabad - TSPCB",29-08-2025 07:00:00,17.349694,78.451437,SO2,1,7,4
India,Tripura,Agartala,"Bardowali, Agartala - Tripura SPCB",29-08-2025 07:00:00,23.8175497,91.2726974,NO2,4,6,5
India,Telangana,Hyderabad,"ECIL Kapra, Hyderabad - TSPCB",29-08-2025 07:00:00,17.470431,78.566959,CO,9,34,14
India,Uttar_Pradesh,Lucknow,"Kendriya Vidyalaya, Lucknow - CPCB",29-08-2025 07:00:00,26.906111,80.948222,NH3,12,17,15
India,Uttar_Pradesh,Lucknow,"Kendriya Vidyalaya, Lucknow - CPCB",29-08-2025 07:00:00,26.906111,80.948222,SO2,5,17,11
India,Uttar_Pradesh,Lucknow,"Kukrail Picnic Spot-1, Lucknow - UPPCB",29-08-2025 07:00:00,26.90723,80.98579,SO2,NA,NA,NA
India,Uttar_Pradesh,Lucknow,"Lalbagh, Lucknow - CPCB",29-08-2025 07:00:00,26.8458805,80.9365541,OZONE,20,49,38
India,Uttar_Pradesh,Lucknow,"Talkatora District Industries Center, Lucknow - CPCB",29-08-2025 07:00:00,26.83399722,80.8917361,PM2.5,26,65,49
India,Uttar_Pradesh,Lucknow,"Talkatora District Industries Center, Lucknow - CPCB",29-08-2025 07:00:00,26.83399722,80.8917361,NH3,9,17,12
India,Uttar_Pradesh,Moradabad,"Eco Herbal Park, Moradabad - UPPCB",29-08-2025 07:00:00,28.840739,78.697531,NH3,3,6,5
India,Uttar_Pradesh,Moradabad,"Employment Office, Moradabad - UPPCB",29-08-2025 07:00:00,28.88528,78.73880,SO2,37,47,39
India,Uttar_Pradesh,Moradabad,"Employment Office, Moradabad - UPPCB",29-08-2025 07:00:00,28.88528,78.73880,CO,13,87,34
India,Uttar_Pradesh,Moradabad,"Jigar Colony, Moradabad - UPPCB",29-08-2025 07:00:00,28.856664,78.772638,OZONE,18,28,19
India,Uttar_Pradesh,Moradabad,"Kashiram Nagar, Moradabad - UPPCB",29-08-2025 07:00:00,28.849399,78.742362,PM10,36,78,52
India,Uttar_Pradesh,Hapur,"Anand Vihar, Hapur - UPPCB",29-08-2025 07:00:00,28.725645,77.749675,SO2,1,19,10
India,Uttar_Pradesh,Jhansi,"Shivaji Nagar, Jhansi - UPPCB",29-08-2025 07:00:00,25.4547,78.6039,PM2.5,62,135,90
India,Uttar_Pradesh,Jhansi,"Shivaji Nagar, Jhansi - UPPCB",29-08-2025 07:00:00,25.4547,78.6039,OZONE,3,8,6
India,Uttar_Pradesh,Kanpur,"FTI Kidwai Nagar, Kanpur - UPPCB",29-08-2025 07:00:00,26.428282,80.327067,NO2,17,17,17
India,Uttar_Pradesh,Kanpur,"FTI Kidwai Nagar, Kanpur - UPPCB",29-08-2025 07:00:00,26.428282,80.327067,SO2,9,10,9
India,Uttar_Pradesh,Meerut,"Ganga Nagar, Meerut - UPPCB",29-08-2025 07:00:00,28.999264,77.7590354,NO2,25,33,28
India,Uttar_Pradesh,Meerut,"Jai Bhim Nagar, Meerut - UPPCB",29-08-2025 07:00:00,28.9535882,77.7622941,NO2,11,18,14
India,Uttar_Pradesh,Meerut,"Jai Bhim Nagar, Meerut - UPPCB",29-08-2025 07:00:00,28.9535882,77.7622941,CO,28,43,32
India,Uttar_Pradesh,Meerut,"Pallavpuram Phase 2, Meerut - UPPCB",29-08-2025 07:00:00,29.063510,77.709723,PM10,35,119,72
India,Uttar_Pradesh,Meerut,"Pallavpuram Phase 2, Meerut - UPPCB",29-08-2025 07:00:00,29.063510,77.709723,SO2,6,16,11
India,Uttar_Pradesh,Ghaziabad,"Vasundhara, Ghaziabad - UPPCB",29-08-2025 07:00:00,28.6603346,77.3572563,OZONE,10,314,19
India,Uttar_Pradesh,Gorakhpur,"Madan Mohan Malaviya University of Technology, Gorakhpur - UPPCB",29-08-2025 07:00:00,26.730136,83.433859,PM2.5,16,79,36
India,Uttar_Pradesh,Gorakhpur,"Madan Mohan Malaviya University of Technology, Gorakhpur - UPPCB",29-08-2025 07:00:00,26.730136,83.433859,PM10,16,53,36
India,Uttar_Pradesh,Gorakhpur,"Madan Mohan Malaviya University of Technology, Gorakhpur - UPPCB",29-08-2025 07:00:00,26.730136,83.433859,NH3,1,1,1
India,Uttar_Pradesh,Greater Noida,"Knowledge Park - III, Greater Noida - UPPCB",29-08-2025 07:00:00,28.47272,77.482000,SO2,1,77,12
India,Uttar_Pradesh,Greater Noida,"Knowledge Park - V, Greater Noida - UPPCB",29-08-2025 07:00:00,28.557054,77.453663,CO,30,50,40
India,Uttar_Pradesh,Hapur,"Anand Vihar, Hapur - UPPCB",29-08-2025 07:00:00,28.725645,77.749675,PM2.5,42,79,59
India,Uttar_Pradesh,Hapur,"Anand Vihar, Hapur - UPPCB",29-08-2025 07:00:00,28.725645,77.749675,NH3,10,14,13
India,Uttar_Pradesh,Firozabad,"Nagla Bhau, Firozabad - UPPCB",29-08-2025 07:00:00,27.168897,78.376960,OZONE,13,20,16
India,Uttar_Pradesh,Ghaziabad,"Indirapuram, Ghaziabad - UPPCB",29-08-2025 07:00:00,28.646233,77.358075,PM10,70,142,99
India,Uttar_Pradesh,Ghaziabad,"Indirapuram, Ghaziabad - UPPCB",29-08-2025 07:00:00,28.646233,77.358075,NO2,3,40,26
India,Uttar_Pradesh,Ghaziabad,"Loni, Ghaziabad - UPPCB",29-08-2025 07:00:00,28.757294,77.278792,CO,28,84,46
India,Uttar_Pradesh,Kanpur,"NSI Kalyanpur, Kanpur - UPPCB",29-08-2025 07:00:00,26.509954,80.249612,PM2.5,28,66,46
India,Uttar_Pradesh,Kanpur,"NSI Kalyanpur, Kanpur - UPPCB",29-08-2025 07:00:00,26.509954,80.249612,NH3,2,2,2
India,Uttar_Pradesh,Bulandshahr,"Yamunapuram, Bulandshahr - UPPCB",29-08-2025 07:00:00,28.406963,77.849831,PM10,43,77,63
India,Uttar_Pradesh,Prayagraj,"Nagar Nigam, Prayagraj - UPPCB",29-08-2025 07:00:00,25.44919916 ,81.82735986 ,CO,10,22,17
India,Uttar_Pradesh,Prayagraj,"Nagar Nigam, Prayagraj - UPPCB",29-08-2025 07:00:00,25.44919916 ,81.82735986 ,OZONE,12,31,22
India,Uttar_Pradesh,Varanasi,"Ardhali Bazar, Varanasi - UPPCB",29-08-2025 07:00:00,25.3505986,82.9083074,PM10,24,54,36
India,Uttar_Pradesh,Varanasi,"Ardhali Bazar, Varanasi - UPPCB",29-08-2025 07:00:00,25.3505986,82.9083074,NO2,27,44,37
India,Uttar_Pradesh,Varanasi,"Bhelupur, Varanasi - UPPCB",29-08-2025 07:00:00,25.301778,82.996789,PM2.5,NA,NA,NA
India,Uttar_Pradesh,Varanasi,"Bhelupur, Varanasi - UPPCB",29-08-2025 07:00:00,25.301778,82.996789,NO2,NA,NA,NA
India,Uttar_Pradesh,Varanasi,"Bhelupur, Varanasi - UPPCB",29-08-2025 07:00:00,25.301778,82.996789,OZONE,2,11,4
India,Uttar_Pradesh,Varanasi,"IESD Banaras Hindu University, Varanasi - UPPCB",29-08-2025 07:00:00,25.262326,82.995408,NH3,1,1,1
India,Uttar_Pradesh,Varanasi,"IESD Banaras Hindu University, Varanasi - UPPCB",29-08-2025 07:00:00,25.262326,82.995408,CO,4,6,5
India,Uttar_Pradesh,Varanasi,"Maldahiya, Varanasi - UPPCB",29-08-2025 07:00:00,25.32393,82.99687,PM2.5,10,47,16
India,Uttar_Pradesh,Varanasi,"Maldahiya, Varanasi - UPPCB",29-08-2025 07:00:00,25.32393,82.99687,PM10,18,37,28
India,Uttar_Pradesh,Varanasi,"Maldahiya, Varanasi - UPPCB",29-08-2025 07:00:00,25.32393,82.99687,CO,7,28,13
India,Uttar_Pradesh,Varanasi,"Maldahiya, Varanasi - UPPCB",29-08-2025 07:00:00,25.32393,82.99687,OZONE,2,4,2
India,Uttar_Pradesh,Vrindavan,"Omex Eternity, Vrindavan - UPPCB",29-08-2025 07:00:00,27.5714090,77.6557570,NH3,1,2,2
India,Uttarakhand,Dehradun,"Doon University, Dehradun - UKPCB",29-08-2025 07:00:00,30.269444,78.044167,PM10,2,48,17
India,Uttarakhand,Dehradun,"Doon University, Dehradun - UKPCB",29-08-2025 07:00:00,30.269444,78.044167,NO2,1,1,1
India,Uttarakhand,Dehradun,"Doon University, Dehradun - UKPCB",29-08-2025 07:00:00,30.269444,78.044167,CO,NA,NA,NA
India,Uttarakhand,Rishikesh,"Shivaji Nagar, Rishikesh - UKPCB",29-08-2025 07:00:00,30.075911,78.2859547,PM2.5,11,19,13
India,Uttarakhand,Rishikesh,"Shivaji Nagar, Rishikesh - UKPCB",29-08-2025 07:00:00,30.075911,78.2859547,NH3,11,11,11
India,Uttarakhand,Rishikesh,"Shivaji Nagar, Rishikesh - UKPCB",29-08-2025 07:00:00,30.075911,78.2859547,CO,26,44,31
India,West_Bengal,Asansol,"Asansol Court Area, Asansol - WBPCB",29-08-2025 07:00:00,23.685297,86.945968,NO2,7,33,25
India,West_Bengal,Asansol,"Asansol Court Area, Asansol - WBPCB",29-08-2025 07:00:00,23.685297,86.945968,CO,6,67,29
India,West_Bengal,Asansol,"Evelyn Lodge, Asansol - WBPCB",29-08-2025 07:00:00,23.6979360,86.9443950,PM2.5,9,32,21
India,West_Bengal,Asansol,"Evelyn Lodge, Asansol - WBPCB",29-08-2025 07:00:00,23.6979360,86.9443950,PM10,19,50,36
India,Uttar_Pradesh,Moradabad,"Transport Nagar, Moradabad - UPPCB",29-08-2025 07:00:00,28.802625,78.753728,PM2.5,22,214,62
India,Uttar_Pradesh,Moradabad,"Transport Nagar, Moradabad - UPPCB",29-08-2025 07:00:00,28.802625,78.753728,OZONE,27,39,32
India,Uttar_Pradesh,Muzaffarnagar,"New Mandi, Muzaffarnagar - UPPCB",29-08-2025 07:00:00,29.4723508,77.7194031,CO,31,60,46
India,Uttar_Pradesh,Noida,"Sector - 125, Noida - UPPCB",29-08-2025 07:00:00,28.5447608,77.3231257,PM10,97,300,172
India,Uttar_Pradesh,Noida,"Sector - 62, Noida - IMD",29-08-2025 07:00:00,28.6245479,77.3577104,OZONE,14,214,33
India,Uttar_Pradesh,Noida,"Sector-1, Noida - UPPCB",29-08-2025 07:00:00,28.5898,77.3101,PM2.5,58,315,102
India,West_Bengal,Asansol,"Evelyn Lodge, Asansol - WBPCB",29-08-2025 07:00:00,23.6979360,86.9443950,OZONE,6,21,9
India,West_Bengal,Asansol,"Mahabir Colliery, Asansol - WBPCB",29-08-2025 07:00:00,23.6181830,87.1057180,PM2.5,7,47,24
India,West_Bengal,Asansol,"Mahabir Colliery, Asansol - WBPCB",29-08-2025 07:00:00,23.6181830,87.1057180,CO,4,39,8
India,West_Bengal,Asansol,"Trivenidevi Bhalotia College, Asansol - WBPCB",29-08-2025 07:00:00,23.616515,87.119133,NO2,7,30,12
India,West_Bengal,Barrackpore,"SVSPA Campus, Barrackpore - WBPCB",29-08-2025 07:00:00,22.7605581,88.3617589,CO,36,56,40
India,West_Bengal,Kolkata,"Ballygunge, Kolkata - WBPCB",29-08-2025 07:00:00,22.5367507,88.3638022,OZONE,14,20,18
India,West_Bengal,Kolkata,"Bidhannagar, Kolkata - WBPCB",29-08-2025 07:00:00,22.58157048,88.41002457,NH3,4,5,4
India,West_Bengal,Kolkata,"Bidhannagar, Kolkata - WBPCB",29-08-2025 07:00:00,22.58157048,88.41002457,CO,26,30,26
India,West_Bengal,Kolkata,"Fort William, Kolkata - WBPCB",29-08-2025 07:00:00,22.556640,88.342674,PM2.5,NA,NA,NA
India,West_Bengal,Kolkata,"Fort William, Kolkata - WBPCB",29-08-2025 07:00:00,22.556640,88.342674,NH3,NA,NA,NA
India,West_Bengal,Kolkata,"Jadavpur, Kolkata - WBPCB",29-08-2025 07:00:00,22.49929,88.36917,PM2.5,35,53,44
India,West_Bengal,Howrah,"Dasnagar, Howrah - WBPCB",29-08-2025 07:00:00,22.6025571,88.3105664,OZONE,15,33,18
India,West_Bengal,Howrah,"Ghusuri, Howrah - WBPCB",29-08-2025 07:00:00,22.611968,88.347422,PM2.5,11,22,16
India,West_Bengal,Howrah,"Ghusuri, Howrah - WBPCB",29-08-2025 07:00:00,22.611968,88.347422,SO2,2,6,4
India,West_Bengal,Kolkata,"Ballygunge, Kolkata - WBPCB",29-08-2025 07:00:00,22.5367507,88.3638022,PM10,25,35,30
India,West_Bengal,Kolkata,"Ballygunge, Kolkata - WBPCB",29-08-2025 07:00:00,22.5367507,88.3638022,NH3,7,8,8
India,West_Bengal,Kolkata,"Ballygunge, Kolkata - WBPCB",29-08-2025 07:00:00,22.5367507,88.3638022,CO,8,14,10
India,Uttar_Pradesh,Noida,"Sector-1, Noida - UPPCB",29-08-2025 07:00:00,28.5898,77.3101,SO2,3,9,5
India,Uttar_Pradesh,Noida,"Sector-116, Noida - UPPCB",29-08-2025 07:00:00,28.569230,77.393848,SO2,10,27,19
India,West_Bengal,Durgapur,"PCBL Residential Complex, Durgapur - WBPCB",29-08-2025 07:00:00,23.5087640,87.3544400,SO2,4,5,5
India,West_Bengal,Kolkata,"Rabindra Sarobar, Kolkata - WBPCB",29-08-2025 07:00:00,22.51106,88.35142,SO2,5,6,5
India,West_Bengal,Kolkata,"Victoria, Kolkata - WBPCB",29-08-2025 07:00:00,22.5448082,88.3403691,PM10,45,57,50
India,West_Bengal,Kolkata,"Victoria, Kolkata - WBPCB",29-08-2025 07:00:00,22.5448082,88.3403691,NO2,13,26,18
India,Assam,Guwahati,"IITG, Guwahati - PCBA",29-08-2025 07:00:00,26.2028636,91.70046436,OZONE,NA,NA,NA
India,Assam,Guwahati,"LGBI Airport, Guwahati - PCBA",29-08-2025 07:00:00,26.10887,91.589544,CO,22,58,36
India,Assam,Guwahati,"LGBI Airport, Guwahati - PCBA",29-08-2025 07:00:00,26.10887,91.589544,OZONE,11,18,15
India,Assam,Guwahati,"Pan Bazaar, Guwahati - PCBA",29-08-2025 07:00:00,26.187500,91.744194,PM2.5,2,42,20
India,Assam,Guwahati,"Pan Bazaar, Guwahati - PCBA",29-08-2025 07:00:00,26.187500,91.744194,SO2,32,54,38
India,Assam,Nagaon,"Christianpatty, Nagaon - PCBA",29-08-2025 07:00:00,26.349082,92.68449,SO2,6,14,12
India,Assam,Nagaon,"Christianpatty, Nagaon - PCBA",29-08-2025 07:00:00,26.349082,92.68449,CO,25,88,49
India,Assam,Nalbari,"Bata Chowk, Nalbari - PCBA",29-08-2025 07:00:00,26.446912,91.439057,PM2.5,8,180,51
India,Assam,Nalbari,"Bata Chowk, Nalbari - PCBA",29-08-2025 07:00:00,26.446912,91.439057,NO2,2,7,4
India,Assam,Silchar,"Tarapur, Silchar - PCBA",29-08-2025 07:00:00,24.82827,92.79525,PM10,44,48,45
India,Assam,Sivasagar,"Girls College, Sivasagar - PCBA",29-08-2025 07:00:00,26.987634,94.636574,NO2,11,15,13
India,Assam,Sivasagar,"Girls College, Sivasagar - PCBA",29-08-2025 07:00:00,26.987634,94.636574,CO,4,14,11
India,Bihar,Araria,"Kharahiya Basti, Araria - BSPCB",29-08-2025 07:00:00,26.146529,87.454184,CO,4,40,36
India,Bihar,Arrah,"New DM Office, Arrah - BSPCB",29-08-2025 07:00:00,25.5626095,84.663264,PM10,27,28,27
India,Bihar,Aurangabad,"Gurdeo Nagar, Aurangabad - BSPCB",29-08-2025 07:00:00,24.75746,84.366208,NO2,7,8,8
India,Bihar,Aurangabad,"Gurdeo Nagar, Aurangabad - BSPCB",29-08-2025 07:00:00,24.75746,84.366208,SO2,9,20,15
India,Bihar,Begusarai,"Lohiyanagar, Begusarai - BSPCB",29-08-2025 07:00:00,25.42742023,86.13886079,PM2.5,29,66,43
India,Bihar,Begusarai,"Lohiyanagar, Begusarai - BSPCB",29-08-2025 07:00:00,25.42742023,86.13886079,PM10,22,71,46
India,Andhra_Pradesh,Vijayawada,"Rajiv Nagar, Vijayawada - APPCB",29-08-2025 07:00:00,16.554731,80.649110,SO2,18,26,21
India,Andhra_Pradesh,Visakhapatnam,"GVM Corporation, Visakhapatnam - APPCB",29-08-2025 07:00:00,17.72,83.3,PM10,63,126,90
India,Andhra_Pradesh,Visakhapatnam,"GVM Corporation, Visakhapatnam - APPCB",29-08-2025 07:00:00,17.72,83.3,NO2,31,65,47
India,Andhra_Pradesh,Visakhapatnam,"GVM Corporation, Visakhapatnam - APPCB",29-08-2025 07:00:00,17.72,83.3,CO,9,62,18
India,Arunachal_Pradesh,Naharlagun,"Naharlagun, Naharlagun - APSPCB",29-08-2025 07:00:00,27.103358,93.679645,PM10,1,31,16
India,Assam,Byrnihat,"Central Academy for SFS, Byrnihat - PCBA",29-08-2025 07:00:00,26.071318,91.87488,NH3,NA,NA,NA
India,Assam,Byrnihat,"Central Academy for SFS, Byrnihat - PCBA",29-08-2025 07:00:00,26.071318,91.87488,SO2,NA,NA,NA
India,Bihar,Hajipur,"Industrial Area, Hajipur - BSPCB",29-08-2025 07:00:00,25.697189,85.245900,OZONE,18,68,24
India,Bihar,Kishanganj,"SDM Office_Khagra, Kishanganj - BSPCB",29-08-2025 07:00:00,26.0881305,87.93840336,PM10,NA,NA,NA
India,Bihar,Kishanganj,"SDM Office_Khagra, Kishanganj - BSPCB",29-08-2025 07:00:00,26.0881305,87.93840336,SO2,4,10,8
India,Bihar,Manguraha,"Forest Rest House, Manguraha - BSPCB",29-08-2025 07:00:00,27.308328,84.531742,PM10,11,125,30
India,Bihar,Manguraha,"Forest Rest House, Manguraha - BSPCB",29-08-2025 07:00:00,27.308328,84.531742,CO,4,29,16
India,Bihar,Motihari,"Gandak Colony, Motihari - BSPCB",29-08-2025 07:00:00,26.63086,84.90051,PM2.5,25,75,42
India,Bihar,Bettiah,"Kamalnath Nagar, Bettiah - BSPCB",29-08-2025 07:00:00,26.80365,84.51954,PM2.5,3,40,15
India,Bihar,Bhagalpur,"DM Office_Kachari Chowk, Bhagalpur - BSPCB",29-08-2025 07:00:00,25.251013,86.989001,PM10,21,138,43
India,Bihar,Bhagalpur,"DM Office_Kachari Chowk, Bhagalpur - BSPCB",29-08-2025 07:00:00,25.251013,86.989001,CO,12,21,18
India,Bihar,Bhagalpur,"Mayaganj, Bhagalpur - BSPCB",29-08-2025 07:00:00,25.265194,87.012947,CO,2,68,45
India,Bihar,Bihar Sharif,"D M Colony, Bihar Sharif - BSPCB",29-08-2025 07:00:00,25.204762,85.514960,PM2.5,82,93,88
India,Bihar,Bihar Sharif,"D M Colony, Bihar Sharif - BSPCB",29-08-2025 07:00:00,25.204762,85.514960,NO2,9,10,10
India,Bihar,Buxar,"Charitra Van, Buxar - BSPCB",29-08-2025 07:00:00,25.567520,83.966379,NO2,5,10,9
India,Bihar,Chhapra,"Darshan Nagar, Chhapra - BSPCB",29-08-2025 07:00:00,25.7808257,84.7446768,PM2.5,38,62,48
India,Bihar,Chhapra,"Darshan Nagar, Chhapra - BSPCB",29-08-2025 07:00:00,25.7808257,84.7446768,NO2,114,114,114
India,Bihar,Gaya,"Collectorate, Gaya - BSPCB",29-08-2025 07:00:00,24.7955,84.9994,NO2,1,2,1
India,Bihar,Gaya,"SFTI Kusdihra, Gaya - BSPCB",29-08-2025 07:00:00,24.762518,84.982348,PM2.5,8,41,16
India,Bihar,Gaya,"SFTI Kusdihra, Gaya - BSPCB",29-08-2025 07:00:00,24.762518,84.982348,PM10,18,33,23
India,Bihar,Motihari,"Gandak Colony, Motihari - BSPCB",29-08-2025 07:00:00,26.63086,84.90051,SO2,2,3,3
India,Bihar,Muzaffarpur,"Buddha Colony, Muzaffarpur - BSPCB",29-08-2025 07:00:00,26.11442,85.39813,CO,18,32,21
India,Bihar,Muzaffarpur,"Buddha Colony, Muzaffarpur - BSPCB",29-08-2025 07:00:00,26.11442,85.39813,OZONE,28,69,33
India,Bihar,Muzaffarpur,"MIT-Daudpur Kothi, Muzaffarpur - BSPCB",29-08-2025 07:00:00,26.1403345,85.3650192,PM10,39,57,44
India,Bihar,Muzaffarpur,"MIT-Daudpur Kothi, Muzaffarpur - BSPCB",29-08-2025 07:00:00,26.1403345,85.3650192,OZONE,17,30,28
India,Andhra_Pradesh,Tirupati,"Vaikuntapuram, Tirupati - APPCB",29-08-2025 07:00:00,13.615387,79.409230,PM2.5,50,82,61
India,Andhra_Pradesh,Tirupati,"Vaikuntapuram, Tirupati - APPCB",29-08-2025 07:00:00,13.615387,79.409230,SO2,24,27,25
India,Andhra_Pradesh,Tirupati,"Vaikuntapuram, Tirupati - APPCB",29-08-2025 07:00:00,13.615387,79.409230,CO,8,14,11
India,Andhra_Pradesh,Vijayawada,"Rajiv Gandhi Park, Vijayawada - APPCB",29-08-2025 07:00:00,16.509717,80.612222,NH3,1,4,3
India,Andhra_Pradesh,Vijayawada,"Rajiv Gandhi Park, Vijayawada - APPCB",29-08-2025 07:00:00,16.509717,80.612222,SO2,18,27,21
India,Andhra_Pradesh,Amaravati,"Secretariat, Amaravati - APPCB",29-08-2025 07:00:00,16.5150833,80.5181667,CO,12,29,16
India,Andhra_Pradesh,Anantapur,"Gulzarpet, Anantapur - APPCB",29-08-2025 07:00:00,14.675886,77.593027,NH3,5,6,5
India,Andhra_Pradesh,Anantapur,"Gulzarpet, Anantapur - APPCB",29-08-2025 07:00:00,14.675886,77.593027,CO,23,30,24
India,Bihar,Patna,"Govt. High School Shikarpur, Patna - BSPCB",29-08-2025 07:00:00,25.592539,85.227158,NH3,NA,NA,NA
India,Bihar,Saharsa,"Police Line, Saharsa - BSPCB",29-08-2025 07:00:00,25.892357,86.590325,SO2,13,17,16
India,Bihar,Samastipur,"DM Office_Kasipur, Samastipur - BSPCB",29-08-2025 07:00:00,25.859655,85.77944,PM10,NA,NA,NA
India,Bihar,Samastipur,"DM Office_Kasipur, Samastipur - BSPCB",29-08-2025 07:00:00,25.859655,85.77944,NH3,2,2,2
India,Bihar,Sasaram,"Dada Peer, Sasaram - BSPCB",29-08-2025 07:00:00,24.952822,84.002396,PM10,22,78,42
India,Bihar,Sasaram,"Dada Peer, Sasaram - BSPCB",29-08-2025 07:00:00,24.952822,84.002396,NH3,2,5,3
India,Bihar,Sasaram,"Dada Peer, Sasaram - BSPCB",29-08-2025 07:00:00,24.952822,84.002396,SO2,1,6,3
India,Bihar,Sasaram,"Dada Peer, Sasaram - BSPCB",29-08-2025 07:00:00,24.952822,84.002396,CO,46,56,50
India,Bihar,Siwan,"Chitragupta Nagar, Siwan - BSPCB",29-08-2025 07:00:00,26.2271665,84.3570427,PM10,20,27,25
India,Chandigarh,Chandigarh,"Sector 22, Chandigarh - CPCC",29-08-2025 07:00:00,30.735567,76.775714,NO2,2,52,28
India,Chhattisgarh,Bhilai,"Hathkhoj, Bhilai - CECB",29-08-2025 07:00:00,21.224231,81.408350,SO2,7,11,8
India,Chhattisgarh,Chhal,"Nawapara SECL Colony, Chhal - CECB",29-08-2025 07:00:00,22.118125,83.140608,NH3,6,6,6
India,Chhattisgarh,Chhal,"Nawapara SECL Colony, Chhal - CECB",29-08-2025 07:00:00,22.118125,83.140608,OZONE,5,21,19
India,Chhattisgarh,Korba,"Rampur, Korba - CECB",29-08-2025 07:00:00,22.368195,82.746431,NO2,4,9,6
India,Chhattisgarh,Korba,"Rampur, Korba - CECB",29-08-2025 07:00:00,22.368195,82.746431,NH3,1,1,1
India,Chhattisgarh,Kunjemura,"OP Jindal School, Kunjemura - CECB",29-08-2025 07:00:00,22.126650,83.483212,NH3,2,2,2
India,Chhattisgarh,Kunjemura,"OP Jindal School, Kunjemura - CECB",29-08-2025 07:00:00,22.126650,83.483212,SO2,1,7,4
India,Chhattisgarh,Raipur,"Siltara Phase-II, Raipur - CECB",29-08-2025 07:00:00,21.371751,81.664929,PM10,7,156,42
India,Chhattisgarh,Raipur,"Siltara Phase-II, Raipur - CECB",29-08-2025 07:00:00,21.371751,81.664929,NO2,3,23,7
India,Chhattisgarh,Tumidih,"OP Jindal Industrial Park, Tumidih - CECB",29-08-2025 07:00:00,22.06631475,83.33820077,PM2.5,12,68,38
India,Chhattisgarh,Tumidih,"OP Jindal Industrial Park, Tumidih - CECB",29-08-2025 07:00:00,22.06631475,83.33820077,PM10,14,130,61
India,Chhattisgarh,Tumidih,"OP Jindal Industrial Park, Tumidih - CECB",29-08-2025 07:00:00,22.06631475,83.33820077,NO2,7,48,25
India,Bihar,Patna,"Samanpura, Patna - BSPCB",29-08-2025 07:00:00,25.596727,85.085624,NH3,6,7,6
India,Bihar,Patna,"Samanpura, Patna - BSPCB",29-08-2025 07:00:00,25.596727,85.085624,CO,29,44,40
India,Bihar,Purnia,"Mariam Nagar, Purnia - BSPCB",29-08-2025 07:00:00,25.366336,87.117468,NO2,5,6,6
India,Bihar,Purnia,"Mariam Nagar, Purnia - BSPCB",29-08-2025 07:00:00,25.366336,87.117468,NH3,3,3,3
India,Bihar,Rajgir,"Dangi Tola, Rajgir - BSPCB",29-08-2025 07:00:00,25.03280,85.41948,OZONE,14,55,31
India,Chhattisgarh,Raipur,"Bhatagaon New ISBT, Raipur - CECB",29-08-2025 07:00:00,21.219665,81.630094,NO2,7,18,11
India,Chhattisgarh,Raipur,"Bhatagaon New ISBT, Raipur - CECB",29-08-2025 07:00:00,21.219665,81.630094,SO2,5,6,5
India,Chhattisgarh,Raipur,"Bhatagaon New ISBT, Raipur - CECB",29-08-2025 07:00:00,21.219665,81.630094,OZONE,5,15,7
India,Chhattisgarh,Raipur,"Krishak Nagar, Raipur - CECB",29-08-2025 07:00:00,21.237755,81.705301,NO2,13,15,14
India,Chhattisgarh,Tumidih,"OP Jindal Industrial Park, Tumidih - CECB",29-08-2025 07:00:00,22.06631475,83.33820077,CO,14,56,35
India,Delhi,Delhi,"Alipur, Delhi - DPCC",29-08-2025 07:00:00,28.815329,77.153010,NH3,11,13,12
India,Chandigarh,Chandigarh,"Sector-53, Chandigarh - CPCC",29-08-2025 07:00:00,30.719859,76.738637,OZONE,4,33,9
India,Chhattisgarh,Bhilai,"32Bungalows, Bhilai - CECB",29-08-2025 07:00:00,21.194815,81.314770,PM2.5,5,24,12
India,Bihar,Patna,"Muradpur, Patna - BSPCB",29-08-2025 07:00:00,25.619651,85.147382,SO2,2,12,6
India,Bihar,Patna,"Muradpur, Patna - BSPCB",29-08-2025 07:00:00,25.619651,85.147382,CO,30,67,52
India,Chhattisgarh,Bhilai,"Civic Center, Bhilai - Bhilai Steel Plant",29-08-2025 07:00:00,21.185571,81.343175,NO2,NA,NA,NA
India,Chhattisgarh,Bhilai,"Civic Center, Bhilai - Bhilai Steel Plant",29-08-2025 07:00:00,21.185571,81.343175,SO2,NA,NA,NA
India,Delhi,Delhi,"Dr. Karni Singh Shooting Range, Delhi - DPCC",29-08-2025 07:00:00,28.498571,77.264840,NO2,28,54,37
India,Delhi,Delhi,"Dr. Karni Singh Shooting Range, Delhi - DPCC",29-08-2025 07:00:00,28.498571,77.264840,CO,28,72,50
India,Delhi,Delhi,"Dwarka-Sector 8, Delhi - DPCC ",29-08-2025 07:00:00,28.5710274,77.0719006,PM2.5,NA,NA,NA
India,Delhi,Delhi,"Dwarka-Sector 8, Delhi - DPCC ",29-08-2025 07:00:00,28.5710274,77.0719006,NH3,NA,NA,NA
India,Delhi,Delhi,"IGI Airport (T3), Delhi - IMD",29-08-2025 07:00:00,28.5627763,77.1180053,PM10,80,161,107
India,Delhi,Delhi,"IHBAS, Dilshad Garden, Delhi - CPCB",29-08-2025 07:00:00,28.6811736,77.3025234,SO2,1,47,12
India,Delhi,Delhi,"IHBAS, Dilshad Garden, Delhi - CPCB",29-08-2025 07:00:00,28.6811736,77.3025234,OZONE,11,30,22
India,Delhi,Delhi,"ITO, Delhi - CPCB",29-08-2025 07:00:00,28.628624,77.241060,PM2.5,68,230,100
India,Delhi,Delhi,"ITO, Delhi - CPCB",29-08-2025 07:00:00,28.628624,77.241060,NH3,4,7,6
India,Delhi,Delhi,"Mundka, Delhi - DPCC",29-08-2025 07:00:00,28.684678,77.076574,NO2,25,60,43
India,Delhi,Delhi,"Mundka, Delhi - DPCC",29-08-2025 07:00:00,28.684678,77.076574,OZONE,7,86,14
India,Delhi,Delhi,"NSIT Dwarka, Delhi - CPCB",29-08-2025 07:00:00,28.60909,77.0325413,PM2.5,19,42,29
India,Delhi,Delhi,"NSIT Dwarka, Delhi - CPCB",29-08-2025 07:00:00,28.60909,77.0325413,NH3,6,7,7
India,Delhi,Delhi,"NSIT Dwarka, Delhi - CPCB",29-08-2025 07:00:00,28.60909,77.0325413,CO,13,67,30
India,Delhi,Delhi,"NSIT Dwarka, Delhi - CPCB",29-08-2025 07:00:00,28.60909,77.0325413,OZONE,10,13,12
India,Delhi,Delhi,"Najafgarh, Delhi - DPCC",29-08-2025 07:00:00,28.570173,76.933762,PM2.5,58,143,81
India,Delhi,Delhi,"Najafgarh, Delhi - DPCC",29-08-2025 07:00:00,28.570173,76.933762,NH3,5,6,5
India,Delhi,Delhi,"Narela, Delhi - DPCC",29-08-2025 07:00:00,28.822836,77.101981,OZONE,1,38,3
India,Delhi,Delhi,"Nehru Nagar, Delhi - DPCC",29-08-2025 07:00:00,28.567890,77.250515,NO2,19,39,29
India,Delhi,Delhi,"Nehru Nagar, Delhi - DPCC",29-08-2025 07:00:00,28.567890,77.250515,CO,8,32,15
India,Delhi,Delhi,"North Campus, DU, Delhi - IMD",29-08-2025 07:00:00,28.6573814,77.1585447,CO,28,101,42
India,Delhi,Delhi,"Okhla Phase-2, Delhi - DPCC",29-08-2025 07:00:00,28.530785,77.271255,PM10,69,145,111
India,Delhi,Delhi,"Okhla Phase-2, Delhi - DPCC",29-08-2025 07:00:00,28.530785,77.271255,NO2,11,35,23
India,Delhi,Delhi,"Okhla Phase-2, Delhi - DPCC",29-08-2025 07:00:00,28.530785,77.271255,OZONE,17,62,24
India,Delhi,Delhi,"Patparganj, Delhi - DPCC",29-08-2025 07:00:00,28.623763,77.287209,PM10,94,179,120
India,Delhi,Delhi,"Punjabi Bagh, Delhi - DPCC",29-08-2025 07:00:00,28.674045,77.131023,PM2.5,20,332,117
India,Delhi,Delhi,"Punjabi Bagh, Delhi - DPCC",29-08-2025 07:00:00,28.674045,77.131023,CO,30,75,49
India,Delhi,Delhi,"Alipur, Delhi - DPCC",29-08-2025 07:00:00,28.815329,77.153010,CO,22,46,30
India,Delhi,Delhi,"Alipur, Delhi - DPCC",29-08-2025 07:00:00,28.815329,77.153010,OZONE,6,58,9
India,Delhi,Delhi,"Anand Vihar, Delhi - DPCC",29-08-2025 07:00:00,28.647622,77.3158090,CO,76,104,80
India,Delhi,Delhi,"Ashok Vihar, Delhi - DPCC",29-08-2025 07:00:00,28.695381,77.181665,PM10,90,152,114
India,Delhi,Delhi,"Ashok Vihar, Delhi - DPCC",29-08-2025 07:00:00,28.695381,77.181665,SO2,13,19,16
India,Delhi,Delhi,"Ashok Vihar, Delhi - DPCC",29-08-2025 07:00:00,28.695381,77.181665,OZONE,4,53,7
India,Delhi,Delhi,"Aya Nagar, Delhi - IMD",29-08-2025 07:00:00,28.4706914,77.1099364,CO,30,57,36
India,Delhi,Delhi,"Bawana, Delhi - DPCC",29-08-2025 07:00:00,28.776200,77.051074,PM2.5,57,237,118
India,Delhi,Delhi,"Bawana, Delhi - DPCC",29-08-2025 07:00:00,28.776200,77.051074,NO2,6,26,13
India,Delhi,Delhi,"CRRI Mathura Road, Delhi - IMD",29-08-2025 07:00:00,28.5512005,77.2735737,CO,16,76,26
India,Delhi,Delhi,"Chandni Chowk, Delhi - IITM",29-08-2025 07:00:00,28.656756,77.227234,PM10,99,149,115
India,Delhi,Delhi,"Chandni Chowk, Delhi - IITM",29-08-2025 07:00:00,28.656756,77.227234,NH3,NA,NA,NA
India,Delhi,Delhi,"Chandni Chowk, Delhi - IITM",29-08-2025 07:00:00,28.656756,77.227234,SO2,10,17,12
India,Delhi,Delhi,"DTU, Delhi - CPCB",29-08-2025 07:00:00,28.7500499,77.1112615,NH3,9,14,10
India,Delhi,Delhi,"DTU, Delhi - CPCB",29-08-2025 07:00:00,28.7500499,77.1112615,CO,16,30,21
India,Delhi,Delhi,"Vivek Vihar, Delhi - DPCC",29-08-2025 07:00:00,28.672342,77.315260,PM10,70,151,105
India,Delhi,Delhi,"Wazirpur, Delhi - DPCC",29-08-2025 07:00:00,28.699793,77.165453,PM2.5,88,304,166
India,Delhi,Delhi,"Wazirpur, Delhi - DPCC",29-08-2025 07:00:00,28.699793,77.165453,CO,8,46,16
India,Gujarat,Ahmedabad,"Chandkheda, Ahmedabad - IITM",29-08-2025 07:00:00,23.107969,72.574648,PM10,19,72,44
India,Gujarat,Ahmedabad,"Chandkheda, Ahmedabad - IITM",29-08-2025 07:00:00,23.107969,72.574648,NO2,6,16,9
India,Delhi,Delhi,"Jahangirpuri, Delhi - DPCC",29-08-2025 07:00:00,28.732820,77.170633,PM10,86,411,208
India,Delhi,Delhi,"Jahangirpuri, Delhi - DPCC",29-08-2025 07:00:00,28.732820,77.170633,NO2,4,21,14
India,Delhi,Delhi,"Lodhi Road, Delhi - IITM",29-08-2025 07:00:00,28.588333,77.221667,PM10,52,122,92
India,Delhi,Delhi,"Mandir Marg, Delhi - DPCC",29-08-2025 07:00:00,28.636429,77.201067,PM10,69,149,104
India,Delhi,Delhi,"Pusa, Delhi - DPCC",29-08-2025 07:00:00,28.639652,77.146275,NO2,17,56,30
India,Delhi,Delhi,"Pusa, Delhi - DPCC",29-08-2025 07:00:00,28.639652,77.146275,CO,26,74,52
India,Delhi,Delhi,"Pusa, Delhi - IMD",29-08-2025 07:00:00,28.636110,77.173332,OZONE,6,295,7
India,Delhi,Delhi,"R K Puram, Delhi - DPCC",29-08-2025 07:00:00,28.563262,77.186937,NH3,3,6,4
India,Delhi,Delhi,"Rohini, Delhi - DPCC",29-08-2025 07:00:00,28.732528,77.119920,CO,8,34,13
India,Delhi,Delhi,"Sonia Vihar, Delhi - DPCC",29-08-2025 07:00:00,28.710508,77.249485,OZONE,8,55,15
India,Karnataka,Bengaluru,"Jigani, Bengaluru - KSPCB",29-08-2025 07:00:00,12.7816279,77.6299145,PM10,39,70,47
India,Karnataka,Bengaluru,"Jigani, Bengaluru - KSPCB",29-08-2025 07:00:00,12.7816279,77.6299145,OZONE,21,22,21
India,Karnataka,Bengaluru,"Peenya, Bengaluru - CPCB",29-08-2025 07:00:00,13.0270199,77.494094,OZONE,24,25,25
India,Karnataka,Bengaluru,"Sanegurava Halli, Bengaluru - KSPCB",29-08-2025 07:00:00,12.990328,77.5431385,PM10,NA,NA,NA
India,Karnataka,Bengaluru,"Sanegurava Halli, Bengaluru - KSPCB",29-08-2025 07:00:00,12.990328,77.5431385,SO2,NA,NA,NA
India,Karnataka,Bengaluru,"Shivapura_Peenya, Bengaluru - KSPCB",29-08-2025 07:00:00,13.0246342,77.5080115,PM2.5,36,56,45
India,Karnataka,Bengaluru,"Shivapura_Peenya, Bengaluru - KSPCB",29-08-2025 07:00:00,13.0246342,77.5080115,SO2,6,9,7
India,Karnataka,Bengaluru,"City Railway Station, Bengaluru - KSPCB",29-08-2025 07:00:00,12.9756843,77.5660749,PM10,81,95,88
India,Karnataka,Bengaluru,"City Railway Station, Bengaluru - KSPCB",29-08-2025 07:00:00,12.9756843,77.5660749,NO2,47,54,49
India,Karnataka,Bengaluru,"Hebbal, Bengaluru - KSPCB",29-08-2025 07:00:00,13.029152,77.585901,PM10,6,26,15
India,Karnataka,Bengaluru,"Hebbal, Bengaluru - KSPCB",29-08-2025 07:00:00,13.029152,77.585901,SO2,6,11,8
India,Karnataka,Bengaluru,"Hebbal, Bengaluru - KSPCB",29-08-2025 07:00:00,13.029152,77.585901,CO,3,57,16
India,Karnataka,Bengaluru,"Jayanagar 5th Block, Bengaluru - KSPCB",29-08-2025 07:00:00,12.920984,77.584908,NO2,9,28,19
India,Karnataka,Bengaluru,"Jayanagar 5th Block, Bengaluru - KSPCB",29-08-2025 07:00:00,12.920984,77.584908,SO2,3,6,4
India,Gujarat,Gandhinagar,"GIFT City, Gandhinagar - IITM",29-08-2025 07:00:00,23.163798,72.677768,PM10,14,90,51
India,Gujarat,Gandhinagar,"GIFT City, Gandhinagar - IITM",29-08-2025 07:00:00,23.163798,72.677768,CO,NA,NA,NA
India,Gujarat,Gandhinagar,"IIPHG Lekawada, Gandhinagar - IITM",29-08-2025 07:00:00,23.243639,72.68994,OZONE,1,18,3
India,Gujarat,Gandhinagar,"Sector-10, Gandhinagar - GPCB",29-08-2025 07:00:00,23.221714,72.654328,OZONE,11,22,11
India,Gujarat,Surat,"Science Center, Surat - SMC",29-08-2025 07:00:00,21.170046,72.795405,PM2.5,12,41,25
India,Gujarat,Ahmedabad,"Raikhad, Ahmedabad - IITM",29-08-2025 07:00:00,23.020509,72.579261,NH3,2,3,2
India,Gujarat,Ahmedabad,"Rakhial, Ahmedabad - IITM",29-08-2025 07:00:00,23.016834,72.625775,PM2.5,25,98,61
India,Gujarat,Ahmedabad,"SAC ISRO Bopal, Ahmedabad - IITM",29-08-2025 07:00:00,23.041137,72.456691,NO2,23,31,26
India,Gujarat,Ahmedabad,"SAC ISRO Satellite, Ahmedabad - IITM",29-08-2025 07:00:00,23.023389,72.515201,PM2.5,14,71,44
India,Gujarat,Ahmedabad,"SAC ISRO Satellite, Ahmedabad - IITM",29-08-2025 07:00:00,23.023389,72.515201,SO2,3,6,4
India,Karnataka,Bagalkot,"Vidayagiri, Bagalkot - KSPCB",29-08-2025 07:00:00,16.172806,75.659694,OZONE,12,16,16
India,Karnataka,Belgaum,"Ramteerth Nagar, Belgaum - KSPCB",29-08-2025 07:00:00,15.888653,74.541751,NO2,1,83,19
India,Karnataka,Belgaum,"Ramteerth Nagar, Belgaum - KSPCB",29-08-2025 07:00:00,15.888653,74.541751,OZONE,18,20,19
India,Karnataka,Bengaluru,"BTM Layout, Bengaluru - CPCB",29-08-2025 07:00:00,12.9135218,77.5950804,NO2,23,24,23
India,Gujarat,Vapi,"Phase-1 GIDC, Vapi - GPCB",29-08-2025 07:00:00,20.362421,72.918013,OZONE,2,2,2
India,Gujarat,Vatva,"Phase-4 GIDC, Vatva - GPCB",29-08-2025 07:00:00,22.969611,72.643500,OZONE,12,24,12
India,Haryana,Panchgaon,"Amity University, Panchgaon - IITM",29-08-2025 07:00:00,28.3153,76.9143,OZONE,11,45,14
India,Gujarat,Ahmedabad,"SVPI Airport Hansol, Ahmedabad - IITM",29-08-2025 07:00:00,23.076793,72.627874,NO2,13,106,47
India,Gujarat,Ahmedabad,"Sardar Vallabhbhai Patel Stadium, Ahmedabad - IITM",29-08-2025 07:00:00,23.043070,72.562968,NH3,11,13,12
India,Gujarat,Ahmedabad,"Maninagar, Ahmedabad - GPCB",29-08-2025 07:00:00,23.002657,72.591912,NO2,16,26,21
India,Gujarat,Ahmedabad,"Maninagar, Ahmedabad - GPCB",29-08-2025 07:00:00,23.002657,72.591912,SO2,13,28,23
India,Jharkhand,Dhanbad,"Sardar Patel Nagar, Dhanbad - JSPCB",29-08-2025 07:00:00,23.80569,86.44268,SO2,22,114,57
India,Karnataka,Tumakuru,"Thimmalapura, Tumakuru - KSPCB",29-08-2025 07:00:00,13.377516,77.099072,SO2,8,8,8
India,Karnataka,Yadgir,"Collector Office, Yadgir - KSPCB",29-08-2025 07:00:00,16.7602,77.1428,PM2.5,2,18,9
India,Karnataka,Yadgir,"Collector Office, Yadgir - KSPCB",29-08-2025 07:00:00,16.7602,77.1428,PM10,4,38,19
India,Karnataka,Yadgir,"Collector Office, Yadgir - KSPCB",29-08-2025 07:00:00,16.7602,77.1428,SO2,12,40,19
India,Karnataka,Yadgir,"Collector Office, Yadgir - KSPCB",29-08-2025 07:00:00,16.7602,77.1428,OZONE,19,19,19
India,Kerala,Eloor,"Udyogamandal, Eloor - Kerala PCB",29-08-2025 07:00:00,10.073232,76.302765,PM10,37,91,39
India,Kerala,Eloor,"Udyogamandal, Eloor - Kerala PCB",29-08-2025 07:00:00,10.073232,76.302765,SO2,1,1,1
India,Kerala,Eloor,"Udyogamandal, Eloor - Kerala PCB",29-08-2025 07:00:00,10.073232,76.302765,OZONE,11,12,12
India,Karnataka,Madikeri,"Stuart Hill, Madikeri - KSPCB",29-08-2025 07:00:00,12.415911,75.735050,NH3,NA,NA,NA
India,Karnataka,Madikeri,"Stuart Hill, Madikeri - KSPCB",29-08-2025 07:00:00,12.415911,75.735050,SO2,7,7,7
India,Karnataka,Mangalore,"Kadri, Mangalore - KSPCB",29-08-2025 07:00:00,12.889250,74.853000,PM2.5,24,52,40
India,Karnataka,Mangalore,"Kadri, Mangalore - KSPCB",29-08-2025 07:00:00,12.889250,74.853000,PM10,25,53,41
India,Karnataka,Mangalore,"Kadri, Mangalore - KSPCB",29-08-2025 07:00:00,12.889250,74.853000,SO2,6,7,7
India,Karnataka,Mysuru,"Hebbal 1st Stage, Mysuru - KSPCB",29-08-2025 07:00:00,12.21041,76.37376,NO2,8,35,20
India,Madhya Pradesh,Bhopal,"T T Nagar, Bhopal - MPPCB",29-08-2025 07:00:00,23.233584,77.400574,CO,10,109,27
India,Madhya Pradesh,Dewas,"Bhopal Chauraha, Dewas - MPPCB",29-08-2025 07:00:00,22.9682591,76.064118,SO2,13,78,41
India,Madhya Pradesh,Gwalior,"City Center, Gwalior - MPPCB",29-08-2025 07:00:00,26.203442,78.193251,SO2,16,24,21
India,Madhya Pradesh,Gwalior,"City Center, Gwalior - MPPCB",29-08-2025 07:00:00,26.203442,78.193251,CO,26,51,32
India,Karnataka,Mysuru,"Hebbal 1st Stage, Mysuru - KSPCB",29-08-2025 07:00:00,12.21041,76.37376,SO2,2,24,8
India,Karnataka,Ramanagara,"Vijay Nagar, Ramanagara - KSPCB",29-08-2025 07:00:00,12.733409,77.298051,NO2,14,16,15
India,Karnataka,Shivamogga,"Vinoba Nagara, Shivamogga - KSPCB",29-08-2025 07:00:00,13.940000,75.555917,OZONE,34,51,41
India,Kerala,Kollam,"Polayathode, Kollam - Kerala PCB",29-08-2025 07:00:00,8.8787,76.6073,NH3,1,1,1
India,Kerala,Kollam,"Polayathode, Kollam - Kerala PCB",29-08-2025 07:00:00,8.8787,76.6073,SO2,2,3,2
India,Kerala,Thiruvananthapuram,"Kariavattom, Thiruvananthapuram - Kerala PCB",29-08-2025 07:00:00,8.563700,76.886500,CO,28,60,39
India,Karnataka,Dharwad,"Kalabhavan, Dharwad - KSPCB",29-08-2025 07:00:00,15.459706,75.008381,PM10,46,55,50
India,Karnataka,Hubballi,"Lingaraj Nagar, Hubballi - KSPCB",29-08-2025 07:00:00,15.3714823,75.1160168,NO2,7,7,7
India,Karnataka,Hubballi,"Lingaraj Nagar, Hubballi - KSPCB",29-08-2025 07:00:00,15.3714823,75.1160168,OZONE,11,15,11
India,Karnataka,Bengaluru,"Silk Board, Bengaluru - KSPCB",29-08-2025 07:00:00,12.917348,77.622813,SO2,9,12,10
India,Karnataka,Chikkaballapur,"Chikkaballapur Rural, Chikkaballapur - KSPCB",29-08-2025 07:00:00,13.428828,77.731418,NO2,11,22,15
India,Karnataka,Chikkaballapur,"Chikkaballapur Rural, Chikkaballapur - KSPCB",29-08-2025 07:00:00,13.428828,77.731418,NH3,1,2,2
India,Madhya Pradesh,Bhopal,"Idgah Hills, Bhopal - MPPCB",29-08-2025 07:00:00,23.264759,77.381568,PM10,19,41,26
India,Madhya Pradesh,Bhopal,"Idgah Hills, Bhopal - MPPCB",29-08-2025 07:00:00,23.264759,77.381568,OZONE,9,33,18
India,Madhya Pradesh,Bhopal,"Paryavaran Parisar, Bhopal - MPPCB",29-08-2025 07:00:00,23.210494,77.425409,PM10,24,80,45
India,Karnataka,Karwar,"KHB Colony, Karwar - KSPCB",29-08-2025 07:00:00,14.816666,74.141003,NO2,3,54,15
India,Karnataka,Koppal,"Diwator Nagar, Koppal - KSPCB",29-08-2025 07:00:00,15.347630,76.181767,CO,52,61,58
India,Madhya Pradesh,Singrauli,"Suryakiran Bhawan NCL, Singrauli - MPPCB",29-08-2025 07:00:00,24.108970,82.645580,NO2,21,37,29
India,Madhya Pradesh,Singrauli,"Suryakiran Bhawan NCL, Singrauli - MPPCB",29-08-2025 07:00:00,24.108970,82.645580,CO,12,16,13
India,Maharashtra,Ahmednagar,"Tarakpur, Ahmednagar - MPCB",29-08-2025 07:00:00,19.10122,74.73339,SO2,4,28,12
India,Maharashtra,Ahmednagar,"Tarakpur, Ahmednagar - MPCB",29-08-2025 07:00:00,19.10122,74.73339,CO,7,66,25
India,Maharashtra,Ahmednagar,"Tarakpur, Ahmednagar - MPCB",29-08-2025 07:00:00,19.10122,74.73339,OZONE,4,22,7
India,Maharashtra,Akola,"Ramdaspeth, Akola - MPCB",29-08-2025 07:00:00,20.719516,77.000253,SO2,12,18,17
India,Maharashtra,Akola,"Ramdaspeth, Akola - MPCB",29-08-2025 07:00:00,20.719516,77.000253,CO,12,24,14
India,Maharashtra,Akola,"Ramdaspeth, Akola - MPCB",29-08-2025 07:00:00,20.719516,77.000253,OZONE,6,36,8
India,Maharashtra,Amravati,"Shivneri Colony, Amravati - MPCB",29-08-2025 07:00:00,20.9402359,77.7895248,PM2.5,8,47,24
India,Maharashtra,Amravati,"Shivneri Colony, Amravati - MPCB",29-08-2025 07:00:00,20.9402359,77.7895248,CO,10,28,13
India,Madhya Pradesh,Gwalior,"City Center, Gwalior - MPPCB",29-08-2025 07:00:00,26.203442,78.193251,OZONE,13,49,17
India,Madhya Pradesh,Gwalior,"Deen Dayal Nagar, Gwalior - MPPCB",29-08-2025 07:00:00,26.259242,78.216432,CO,10,45,17
India,Madhya Pradesh,Gwalior,"Maharaj Bada, Gwalior - MPPCB",29-08-2025 07:00:00,26.200388,78.147714,PM2.5,33,77,57
India,Madhya Pradesh,Gwalior,"Maharaj Bada, Gwalior - MPPCB",29-08-2025 07:00:00,26.200388,78.147714,NH3,1,2,2
India,Madhya Pradesh,Gwalior,"Maharaj Bada, Gwalior - MPPCB",29-08-2025 07:00:00,26.200388,78.147714,SO2,4,15,9
