country,state,city,station,last_update,latitude,longitude,pollutant_id,min_value,max_value,avg_value
India,Andhra_Pradesh,Vijayawada,"Rajiv Nagar, Vijayawada - APPCB",21-11-2025 07:00:00,16.554731,80.649110,SO2,9,30,20
India,Andhra_Pradesh,Vijayawada,"Rajiv Nagar, Vijayawada - APPCB",21-11-2025 07:00:00,16.554731,80.649110,OZONE,70,181,102
India,Andhra_Pradesh,Visakhapatnam,"GVM Corporation, Visakhapatnam - APPCB",21-11-2025 07:00:00,17.72,83.3,NO2,NA,NA,NA
India,Andhra_Pradesh,Visakhapatnam,"GVM Corporation, Visakhapatnam - APPCB",21-11-2025 07:00:00,17.72,83.3,SO2,NA,NA,NA
India,Arunachal_Pradesh,Naharlagun,"Naharlagun, Naharlagun - APSPCB",21-11-2025 07:00:00,27.103358,93.679645,CO,6,58,12
India,Assam,Byrnihat,"Central Academy for SFS, Byrnihat - PCBA",21-11-2025 07:00:00,26.071318,91.87488,PM10,73,132,94
India,Bihar,Bettiah,"Kamalnath Nagar, Bettiah - BSPCB",21-11-2025 07:00:00,26.80365,84.51954,SO2,1,34,12
India,Bihar,Bhagalpur,"DM Office_Kachari Chowk, Bhagalpur - BSPCB",21-11-2025 07:00:00,25.251013,86.989001,PM10,50,115,82
India,Bihar,Bhagalpur,"Mayaganj, Bhagalpur - BSPCB",21-11-2025 07:00:00,25.265194,87.012947,OZONE,11,74,25
India,Bihar,Bihar Sharif,"D M Colony, Bihar Sharif - BSPCB",21-11-2025 07:00:00,25.204762,85.514960,PM10,40,129,92
India,Bihar,Bihar Sharif,"D M Colony, Bihar Sharif - BSPCB",21-11-2025 07:00:00,25.204762,85.514960,NO2,9,10,9
India,Bihar,Bihar Sharif,"D M Colony, Bihar Sharif - BSPCB",21-11-2025 07:00:00,25.204762,85.514960,SO2,10,10,10
India,Assam,Nagaon,"Christianpatty, Nagaon - PCBA",21-11-2025 07:00:00,26.349082,92.68449,PM2.5,28,33,28
India,Assam,Nalbari,"Bata Chowk, Nalbari - PCBA",21-11-2025 07:00:00,26.446912,91.439057,NH3,4,6,6
India,Assam,Silchar,"Tarapur, Silchar - PCBA",21-11-2025 07:00:00,24.82827,92.79525,NO2,16,26,21
India,Assam,Silchar,"Tarapur, Silchar - PCBA",21-11-2025 07:00:00,24.82827,92.79525,SO2,4,6,5
India,Assam,Sivasagar,"Girls College, Sivasagar - PCBA",21-11-2025 07:00:00,26.987634,94.636574,PM2.5,24,86,54
India,Assam,Sivasagar,"Girls College, Sivasagar - PCBA",21-11-2025 07:00:00,26.987634,94.636574,NO2,16,39,28
India,Andhra_Pradesh,Anantapur,"Gulzarpet, Anantapur - APPCB",21-11-2025 07:00:00,14.675886,77.593027,SO2,12,19,14
India,Andhra_Pradesh,Chittoor,"Gangineni Cheruvu, Chittoor - APPCB",21-11-2025 07:00:00,13.204880,79.097889,NO2,19,23,21
India,Andhra_Pradesh,Kadapa,"Yerramukkapalli, Kadapa - APPCB",21-11-2025 07:00:00,14.465052,78.824187,PM10,48,72,64
India,Andhra_Pradesh,Rajamahendravaram,"Anand Kala Kshetram, Rajamahendravaram - APPCB",21-11-2025 07:00:00,16.9872867,81.7363176,PM2.5,24,81,44
India,Andhra_Pradesh,Tirumala,"Toll Gate, Tirumala - APPCB",21-11-2025 07:00:00,13.67,79.35,PM2.5,7,114,73
India,Andhra_Pradesh,Vijayawada,"HB Colony, Vijayawada - APPCB",21-11-2025 07:00:00,16.536107,80.594233,PM2.5,60,98,71
India,Andhra_Pradesh,Vijayawada,"Rajiv Gandhi Park, Vijayawada - APPCB",21-11-2025 07:00:00,16.509717,80.612222,PM2.5,53,71,61
India,Andhra_Pradesh,Vijayawada,"Rajiv Gandhi Park, Vijayawada - APPCB",21-11-2025 07:00:00,16.509717,80.612222,NO2,30,97,52
India,Bihar,Buxar,"Charitra Van, Buxar - BSPCB",21-11-2025 07:00:00,25.567520,83.966379,PM10,NA,NA,NA
India,Bihar,Gaya,"Collectorate, Gaya - BSPCB",21-11-2025 07:00:00,24.7955,84.9994,PM2.5,85,281,174
India,Bihar,Gaya,"Kareemganj, Gaya - BSPCB",21-11-2025 07:00:00,24.792403,84.992416,OZONE,1,48,10
India,Andaman and Nicobar,Sri Vijaya Puram,"Police Line, Sri Vijaya Puram - ANPCC",21-11-2025 07:00:00,11.654054,92.734055,NO2,NA,NA,NA
India,Andhra_Pradesh,Amaravati,"Secretariat, Amaravati - APPCB",21-11-2025 07:00:00,16.5150833,80.5181667,NO2,19,90,35
India,Bihar,Arrah,"New DM Office, Arrah - BSPCB",21-11-2025 07:00:00,25.5626095,84.663264,PM10,64,240,137
India,Bihar,Aurangabad,"Gurdeo Nagar, Aurangabad - BSPCB",21-11-2025 07:00:00,24.75746,84.366208,OZONE,1,27,5
India,Assam,Guwahati,"IITG, Guwahati - PCBA",21-11-2025 07:00:00,26.2028636,91.70046436,PM2.5,26,427,94
India,Assam,Guwahati,"LGBI Airport, Guwahati - PCBA",21-11-2025 07:00:00,26.10887,91.589544,NO2,12,17,14
India,Bihar,Gaya,"SFTI Kusdihra, Gaya - BSPCB",21-11-2025 07:00:00,24.762518,84.982348,PM10,38,72,57
India,Bihar,Purnia,"Mariam Nagar, Purnia - BSPCB",21-11-2025 07:00:00,25.366336,87.117468,PM10,7,54,29
India,Bihar,Purnia,"Mariam Nagar, Purnia - BSPCB",21-11-2025 07:00:00,25.366336,87.117468,NH3,3,3,3
India,Bihar,Rajgir,"Dangi Tola, Rajgir - BSPCB",21-11-2025 07:00:00,25.03280,85.41948,CO,82,96,89
India,Bihar,Saharsa,"Police Line, Saharsa - BSPCB",21-11-2025 07:00:00,25.892357,86.590325,PM10,46,134,91
India,Bihar,Saharsa,"Police Line, Saharsa - BSPCB",21-11-2025 07:00:00,25.892357,86.590325,NH3,4,4,4
India,Bihar,Samastipur,"DM Office_Kasipur, Samastipur - BSPCB",21-11-2025 07:00:00,25.859655,85.77944,PM10,22,110,74
India,Bihar,Sasaram,"Dada Peer, Sasaram - BSPCB",21-11-2025 07:00:00,24.952822,84.002396,PM2.5,NA,NA,NA
India,Bihar,Manguraha,"Forest Rest House, Manguraha - BSPCB",21-11-2025 07:00:00,27.308328,84.531742,NH3,1,2,2
India,Bihar,Motihari,"Gandak Colony, Motihari - BSPCB",21-11-2025 07:00:00,26.63086,84.90051,PM2.5,13,117,62
India,Bihar,Motihari,"Gandak Colony, Motihari - BSPCB",21-11-2025 07:00:00,26.63086,84.90051,NO2,5,10,8
India,Bihar,Motihari,"Gandak Colony, Motihari - BSPCB",21-11-2025 07:00:00,26.63086,84.90051,SO2,3,4,3
India,Bihar,Motihari,"Gandak Colony, Motihari - BSPCB",21-11-2025 07:00:00,26.63086,84.90051,OZONE,2,4,2
India,Bihar,Munger,"Town Hall, Munger - BSPCB",21-11-2025 07:00:00,25.376776,86.471523,NH3,4,6,6
India,Bihar,Muzaffarpur,"MIT-Daudpur Kothi, Muzaffarpur - BSPCB",21-11-2025 07:00:00,26.1403345,85.3650192,PM10,61,76,71
India,Chhattisgarh,Chhal,"Nawapara SECL Colony, Chhal - CECB",21-11-2025 07:00:00,22.118125,83.140608,SO2,2,78,23
India,Chhattisgarh,Korba,"Urja Nagar, Korba - CECB",21-11-2025 07:00:00,22.348441,82.549611,PM10,72,73,72
India,Chhattisgarh,Korba,"Urja Nagar, Korba - CECB",21-11-2025 07:00:00,22.348441,82.549611,CO,23,37,28
India,Chhattisgarh,Korba,"Urja Nagar, Korba - CECB",21-11-2025 07:00:00,22.348441,82.549611,OZONE,35,36,35
India,Chhattisgarh,Kunjemura,"OP Jindal School, Kunjemura - CECB",21-11-2025 07:00:00,22.126650,83.483212,PM10,37,116,60
India,Chhattisgarh,Kunjemura,"OP Jindal School, Kunjemura - CECB",21-11-2025 07:00:00,22.126650,83.483212,SO2,1,29,7
India,Chhattisgarh,Kunjemura,"OP Jindal School, Kunjemura - CECB",21-11-2025 07:00:00,22.126650,83.483212,OZONE,1,47,4
India,Chhattisgarh,Milupara,"Govt. Higher Secondary School, Milupara - CECB",21-11-2025 07:00:00,22.1910172,83.5197009,PM2.5,21,330,67
India,Chhattisgarh,Raipur,"AIIMS, Raipur - CECB",21-11-2025 07:00:00,21.258815,81.578979,NH3,3,4,4
India,Chhattisgarh,Raipur,"AIIMS, Raipur - CECB",21-11-2025 07:00:00,21.258815,81.578979,OZONE,3,4,4
India,Chhattisgarh,Raipur,"Bhatagaon New ISBT, Raipur - CECB",21-11-2025 07:00:00,21.219665,81.630094,NO2,1,46,22
India,Chandigarh,Chandigarh,"Sector-53, Chandigarh - CPCC",21-11-2025 07:00:00,30.719859,76.738637,NH3,5,24,18
India,Chandigarh,Chandigarh,"Sector-53, Chandigarh - CPCC",21-11-2025 07:00:00,30.719859,76.738637,SO2,4,10,7
India,Chhattisgarh,Bhilai,"32Bungalows, Bhilai - CECB",21-11-2025 07:00:00,21.194815,81.314770,OZONE,2,104,9
India,Chhattisgarh,Bhilai,"Civic Center, Bhilai - Bhilai Steel Plant",21-11-2025 07:00:00,21.185571,81.343175,OZONE,9,14,10
India,Bihar,Hajipur,"Industrial Area, Hajipur - BSPCB",21-11-2025 07:00:00,25.697189,85.245900,NO2,21,72,34
India,Bihar,Katihar,"Mirchaibari, Katihar - BSPCB",21-11-2025 07:00:00,25.560083,87.553265,PM2.5,12,90,59
India,Bihar,Katihar,"Mirchaibari, Katihar - BSPCB",21-11-2025 07:00:00,25.560083,87.553265,PM10,11,81,54
India,Bihar,Kishanganj,"SDM Office_Khagra, Kishanganj - BSPCB",21-11-2025 07:00:00,26.0881305,87.93840336,NO2,9,12,11
India,Bihar,Muzaffarpur,"Muzaffarpur Collectorate, Muzaffarpur - BSPCB",21-11-2025 07:00:00,26.1209,85.3647,OZONE,14,63,19
India,Bihar,Patna,"DRM Office Danapur, Patna - BSPCB",21-11-2025 07:00:00,25.586562,85.043586,PM10,60,210,135
India,Bihar,Patna,"Govt. High School Shikarpur, Patna - BSPCB",21-11-2025 07:00:00,25.592539,85.227158,PM10,NA,NA,NA
India,Bihar,Patna,"Muradpur, Patna - BSPCB",21-11-2025 07:00:00,25.619651,85.147382,NH3,4,5,5
India,Bihar,Patna,"Muradpur, Patna - BSPCB",21-11-2025 07:00:00,25.619651,85.147382,OZONE,4,40,5
India,Bihar,Patna,"Rajbansi Nagar, Patna - BSPCB",21-11-2025 07:00:00,25.599486,85.113666,PM10,56,194,101
India,Chandigarh,Chandigarh,"Sector 22, Chandigarh - CPCC",21-11-2025 07:00:00,30.735567,76.775714,PM10,54,221,113
India,Chandigarh,Chandigarh,"Sector-25, Chandigarh - CPCC",21-11-2025 07:00:00,30.751462,76.762879,NH3,7,12,9
India,Delhi,Delhi,"Anand Vihar, Delhi - DPCC",21-11-2025 07:00:00,28.647622,77.3158090,NH3,16,22,19
India,Delhi,Delhi,"Anand Vihar, Delhi - DPCC",21-11-2025 07:00:00,28.647622,77.3158090,CO,18,192,175
India,Delhi,Delhi,"Aya Nagar, Delhi - IMD",21-11-2025 07:00:00,28.4706914,77.1099364,PM2.5,307,414,343
India,Delhi,Delhi,"Bawana, Delhi - DPCC",21-11-2025 07:00:00,28.776200,77.051074,PM2.5,253,500,431
India,Delhi,Delhi,"Bawana, Delhi - DPCC",21-11-2025 07:00:00,28.776200,77.051074,NH3,7,11,8
India,Delhi,Delhi,"Bawana, Delhi - DPCC",21-11-2025 07:00:00,28.776200,77.051074,SO2,4,20,12
India,Delhi,Delhi,"Bawana, Delhi - DPCC",21-11-2025 07:00:00,28.776200,77.051074,OZONE,4,235,5
India,Delhi,Delhi,"Burari Crossing, Delhi - IMD",21-11-2025 07:00:00,28.7256504,77.2011573,NO2,11,216,80
India,Delhi,Delhi,"CRRI Mathura Road, Delhi - IMD",21-11-2025 07:00:00,28.5512005,77.2735737,PM10,181,448,343
India,Delhi,Delhi,"Chandni Chowk, Delhi - IITM",21-11-2025 07:00:00,28.656756,77.227234,NO2,NA,NA,NA
India,Delhi,Delhi,"Chandni Chowk, Delhi - IITM",21-11-2025 07:00:00,28.656756,77.227234,NH3,14,47,21
India,Delhi,Delhi,"DTU, Delhi - CPCB",21-11-2025 07:00:00,28.7500499,77.1112615,NO2,59,83,79
India,Delhi,Delhi,"DTU, Delhi - CPCB",21-11-2025 07:00:00,28.7500499,77.1112615,OZONE,17,31,24
India,Delhi,Delhi,"Dr. Karni Singh Shooting Range, Delhi - DPCC",21-11-2025 07:00:00,28.498571,77.264840,PM2.5,304,426,362
India,Delhi,Delhi,"Najafgarh, Delhi - DPCC",21-11-2025 07:00:00,28.570173,76.933762,PM10,155,382,251
India,Delhi,Delhi,"Najafgarh, Delhi - DPCC",21-11-2025 07:00:00,28.570173,76.933762,NO2,58,96,75
India,Delhi,Delhi,"Najafgarh, Delhi - DPCC",21-11-2025 07:00:00,28.570173,76.933762,SO2,18,42,29
India,Delhi,Delhi,"Narela, Delhi - DPCC",21-11-2025 07:00:00,28.822836,77.101981,NO2,26,147,82
India,Delhi,Delhi,"Narela, Delhi - DPCC",21-11-2025 07:00:00,28.822836,77.101981,NH3,18,21,19
India,Delhi,Delhi,"Nehru Nagar, Delhi - DPCC",21-11-2025 07:00:00,28.567890,77.250515,NH3,11,17,14
India,Delhi,Delhi,"North Campus, DU, Delhi - IMD",21-11-2025 07:00:00,28.6573814,77.1585447,NO2,89,265,163
India,Delhi,Delhi,"Dr. Karni Singh Shooting Range, Delhi - DPCC",21-11-2025 07:00:00,28.498571,77.264840,NH3,9,12,10
India,Delhi,Delhi,"Dr. Karni Singh Shooting Range, Delhi - DPCC",21-11-2025 07:00:00,28.498571,77.264840,SO2,18,32,25
India,Delhi,Delhi,"Dwarka-Sector 8, Delhi - DPCC ",21-11-2025 07:00:00,28.5710274,77.0719006,NH3,12,16,13
India,Delhi,Delhi,"Dwarka-Sector 8, Delhi - DPCC ",21-11-2025 07:00:00,28.5710274,77.0719006,OZONE,3,243,4
India,Delhi,Delhi,"IHBAS, Dilshad Garden, Delhi - CPCB",21-11-2025 07:00:00,28.6811736,77.3025234,NH3,4,6,5
India,Delhi,Delhi,"ITO, Delhi - CPCB",21-11-2025 07:00:00,28.628624,77.241060,NH3,3,8,6
India,Delhi,Delhi,"Patparganj, Delhi - DPCC",21-11-2025 07:00:00,28.623763,77.287209,PM2.5,303,436,382
India,Delhi,Delhi,"Patparganj, Delhi - DPCC",21-11-2025 07:00:00,28.623763,77.287209,NO2,35,209,130
India,Delhi,Delhi,"Patparganj, Delhi - DPCC",21-11-2025 07:00:00,28.623763,77.287209,NH3,11,17,14
India,Delhi,Delhi,"Patparganj, Delhi - DPCC",21-11-2025 07:00:00,28.623763,77.287209,OZONE,3,227,4
India,Delhi,Delhi,"Punjabi Bagh, Delhi - DPCC",21-11-2025 07:00:00,28.674045,77.131023,SO2,74,97,88
India,Delhi,Delhi,"Punjabi Bagh, Delhi - DPCC",21-11-2025 07:00:00,28.674045,77.131023,OZONE,2,163,3
India,Delhi,Delhi,"Pusa, Delhi - DPCC",21-11-2025 07:00:00,28.639652,77.146275,CO,46,105,73
India,Delhi,Delhi,"Jahangirpuri, Delhi - DPCC",21-11-2025 07:00:00,28.732820,77.170633,OZONE,6,246,7
India,Delhi,Delhi,"Jawaharlal Nehru Stadium, Delhi - DPCC",21-11-2025 07:00:00,28.580280,77.233829,NO2,49,222,115
India,Delhi,Delhi,"Jawaharlal Nehru Stadium, Delhi - DPCC",21-11-2025 07:00:00,28.580280,77.233829,OZONE,3,201,3
India,Delhi,Delhi,"Lodhi Road, Delhi - IMD",21-11-2025 07:00:00,28.5918245,77.2273074,OZONE,11,149,28
India,Delhi,Delhi,"Major Dhyan Chand National Stadium, Delhi - DPCC",21-11-2025 07:00:00,28.611281,77.237738,SO2,21,31,25
India,Chhattisgarh,Raipur,"Siltara Phase-II, Raipur - CECB",21-11-2025 07:00:00,21.371751,81.664929,PM2.5,1,87,41
India,Chhattisgarh,Tumidih,"OP Jindal Industrial Park, Tumidih - CECB",21-11-2025 07:00:00,22.06631475,83.33820077,PM10,49,316,90
India,Chhattisgarh,Tumidih,"OP Jindal Industrial Park, Tumidih - CECB",21-11-2025 07:00:00,22.06631475,83.33820077,OZONE,4,99,7
India,Delhi,Delhi,"Anand Vihar, Delhi - DPCC",21-11-2025 07:00:00,28.647622,77.3158090,NO2,90,210,142
India,Delhi,Delhi,"R K Puram, Delhi - DPCC",21-11-2025 07:00:00,28.563262,77.186937,PM2.5,260,500,402
India,Delhi,Delhi,"R K Puram, Delhi - DPCC",21-11-2025 07:00:00,28.563262,77.186937,PM10,144,468,317
India,Delhi,Delhi,"Shadipur, Delhi - CPCB",21-11-2025 07:00:00,28.6514781,77.1473105,CO,42,130,112
India,Delhi,Delhi,"Sirifort, Delhi - CPCB",21-11-2025 07:00:00,28.5504249,77.2159377,OZONE,8,16,11
India,Delhi,Delhi,"Mundka, Delhi - DPCC",21-11-2025 07:00:00,28.684678,77.076574,PM2.5,322,500,434
India,Delhi,Delhi,"Mundka, Delhi - DPCC",21-11-2025 07:00:00,28.684678,77.076574,NH3,14,26,19
India,Delhi,Delhi,"Mundka, Delhi - DPCC",21-11-2025 07:00:00,28.684678,77.076574,OZONE,2,163,3
India,Delhi,Delhi,"Sonia Vihar, Delhi - DPCC",21-11-2025 07:00:00,28.710508,77.249485,PM2.5,320,500,394
India,Delhi,Delhi,"Sonia Vihar, Delhi - DPCC",21-11-2025 07:00:00,28.710508,77.249485,PM10,186,445,315
India,Delhi,Delhi,"Sonia Vihar, Delhi - DPCC",21-11-2025 07:00:00,28.710508,77.249485,NO2,34,149,74
India,Delhi,Delhi,"Sri Aurobindo Marg, Delhi - DPCC",21-11-2025 07:00:00,28.531346,77.190156,PM2.5,277,397,345
India,Delhi,Delhi,"Sri Aurobindo Marg, Delhi - DPCC",21-11-2025 07:00:00,28.531346,77.190156,NO2,13,62,33
India,Delhi,Delhi,"Sri Aurobindo Marg, Delhi - DPCC",21-11-2025 07:00:00,28.531346,77.190156,SO2,8,18,13
India,Delhi,Delhi,"Wazirpur, Delhi - DPCC",21-11-2025 07:00:00,28.699793,77.165453,NO2,63,136,104
India,Delhi,Delhi,"Wazirpur, Delhi - DPCC",21-11-2025 07:00:00,28.699793,77.165453,SO2,3,19,12
India,Delhi,Delhi,"Wazirpur, Delhi - DPCC",21-11-2025 07:00:00,28.699793,77.165453,CO,42,146,143
India,Gujarat,Ahmedabad,"Chandkheda, Ahmedabad - IITM",21-11-2025 07:00:00,23.107969,72.574648,PM10,116,243,161
India,Haryana,Bahadurgarh,"Arya Nagar, Bahadurgarh - HSPCB",21-11-2025 07:00:00,28.6701,76.9254,PM2.5,NA,NA,NA
India,Haryana,Ballabgarh,"Nathu Colony, Ballabgarh - HSPCB",21-11-2025 07:00:00,28.3419248,77.319699,PM2.5,171,270,201
India,Haryana,Ballabgarh,"Nathu Colony, Ballabgarh - HSPCB",21-11-2025 07:00:00,28.3419248,77.319699,OZONE,10,15,15
India,Haryana,Charkhi Dadri,"Mini Secretariat, Charkhi Dadri - HSPCB",21-11-2025 07:00:00,28.593883,76.270653,SO2,9,12,10
India,Haryana,Charkhi Dadri,"Mini Secretariat, Charkhi Dadri - HSPCB",21-11-2025 07:00:00,28.593883,76.270653,OZONE,12,17,15
India,Haryana,Dharuhera,"Municipal Corporation Office, Dharuhera -  HSPCB",21-11-2025 07:00:00,28.206800,76.799700,PM2.5,NA,NA,NA
India,Haryana,Dharuhera,"Municipal Corporation Office, Dharuhera -  HSPCB",21-11-2025 07:00:00,28.206800,76.799700,OZONE,7,23,10
India,Haryana,Faridabad,"New Industrial Town, Faridabad - HSPCB",21-11-2025 07:00:00,28.39072,77.30059,NO2,24,26,25
India,Haryana,Faridabad,"New Industrial Town, Faridabad - HSPCB",21-11-2025 07:00:00,28.39072,77.30059,SO2,8,9,8
India,Haryana,Faridabad,"Sector 11, Faridabad - HSPCB",21-11-2025 07:00:00,28.376058,77.315741,NO2,1,66,17
India,Haryana,Faridabad,"Sector 11, Faridabad - HSPCB",21-11-2025 07:00:00,28.376058,77.315741,SO2,3,115,75
India,Haryana,Faridabad,"Sector 11, Faridabad - HSPCB",21-11-2025 07:00:00,28.376058,77.315741,OZONE,1,123,1
India,Haryana,Fatehabad,"Huda Sector, Fatehabad - HSPCB",21-11-2025 07:00:00,29.503664,75.467934,OZONE,20,27,22
India,Haryana,Gurugram,"Sector-51, Gurugram - HSPCB",21-11-2025 07:00:00,28.4227,77.0667,PM10,48,427,275
India,Haryana,Gurugram,"Sector-51, Gurugram - HSPCB",21-11-2025 07:00:00,28.4227,77.0667,CO,23,42,34
India,Haryana,Gurugram,"Teri Gram, Gurugram - HSPCB",21-11-2025 07:00:00,28.4275,77.1465,NO2,NA,NA,NA
India,Haryana,Hisar,"Urban Estate-II, Hisar - HSPCB",21-11-2025 07:00:00,29.140560,75.744941,PM2.5,74,197,134
India,Gujarat,Surat,"Science Center, Surat - SMC",21-11-2025 07:00:00,21.170046,72.795405,PM10,42,152,94
India,Gujarat,Vatva,"Phase-4 GIDC, Vatva - GPCB",21-11-2025 07:00:00,22.969611,72.643500,PM10,67,276,114
India,Haryana,Ambala,"Patti Mehar, Ambala - HSPCB",21-11-2025 07:00:00,30.379589,76.778328,PM10,137,402,210
India,Haryana,Ambala,"Patti Mehar, Ambala - HSPCB",21-11-2025 07:00:00,30.379589,76.778328,NO2,20,25,22
India,Haryana,Ambala,"Patti Mehar, Ambala - HSPCB",21-11-2025 07:00:00,30.379589,76.778328,NH3,9,11,10
India,Gujarat,Ankleshwar,"GIDC, Ankleshwar - GPCB",21-11-2025 07:00:00,21.613267,73.010555,PM10,98,297,155
India,Gujarat,Ankleshwar,"GIDC, Ankleshwar - GPCB",21-11-2025 07:00:00,21.613267,73.010555,NO2,22,31,24
India,Gujarat,Ankleshwar,"GIDC, Ankleshwar - GPCB",21-11-2025 07:00:00,21.613267,73.010555,OZONE,32,56,52
India,Gujarat,Gandhinagar,"GIFT City, Gandhinagar - IITM",21-11-2025 07:00:00,23.163798,72.677768,NH3,3,16,6
India,Gujarat,Gandhinagar,"Sector-10, Gandhinagar - GPCB",21-11-2025 07:00:00,23.221714,72.654328,NO2,16,41,23
India,Gujarat,Ahmedabad,"Rakhial, Ahmedabad - IITM",21-11-2025 07:00:00,23.016834,72.625775,CO,5,131,41
India,Gujarat,Ahmedabad,"SAC ISRO Satellite, Ahmedabad - IITM",21-11-2025 07:00:00,23.023389,72.515201,PM2.5,78,183,118
India,Gujarat,Ahmedabad,"SVPI Airport Hansol, Ahmedabad - IITM",21-11-2025 07:00:00,23.076793,72.627874,PM2.5,NA,NA,NA
India,Haryana,Kaithal,"Rishi Nagar, Kaithal - HSPCB",21-11-2025 07:00:00,29.8006,76.4155,OZONE,7,25,11
India,Haryana,Karnal,"Sector-12, Karnal - HSPCB",21-11-2025 07:00:00,29.695300,77.002700,PM2.5,227,336,295
India,Haryana,Karnal,"Sector-12, Karnal - HSPCB",21-11-2025 07:00:00,29.695300,77.002700,NH3,7,8,7
India,Gujarat,Ahmedabad,"Gyaspur, Ahmedabad - IITM",21-11-2025 07:00:00,22.977134,72.553024,PM10,147,369,244
India,Gujarat,Ahmedabad,"Rakhial, Ahmedabad - IITM",21-11-2025 07:00:00,23.016834,72.625775,PM2.5,143,362,226
India,Himachal Pradesh,Baddi,"HIMUDA Complex Phase-1, Baddi - HPPCB",21-11-2025 07:00:00,30.943887,76.801991,SO2,27,111,47
India,Jammu_and_Kashmir,Srinagar,"Rajbagh, Srinagar - JKSPCB",21-11-2025 07:00:00,34.066206,74.819820,SO2,3,4,3
India,Jammu_and_Kashmir,Srinagar,"Rajbagh, Srinagar - JKSPCB",21-11-2025 07:00:00,34.066206,74.819820,OZONE,NA,NA,NA
India,Jharkhand,Dhanbad,"Sardar Patel Nagar, Dhanbad - JSPCB",21-11-2025 07:00:00,23.80569,86.44268,PM2.5,NA,NA,NA
India,Karnataka,Bagalkot,"Vidayagiri, Bagalkot - KSPCB",21-11-2025 07:00:00,16.172806,75.659694,NO2,11,12,12
India,Karnataka,Bagalkot,"Vidayagiri, Bagalkot - KSPCB",21-11-2025 07:00:00,16.172806,75.659694,SO2,7,7,7
India,Karnataka,Belgaum,"Ramteerth Nagar, Belgaum - KSPCB",21-11-2025 07:00:00,15.888653,74.541751,NO2,46,120,66
India,Karnataka,Bengaluru,"Jayanagar 5th Block, Bengaluru - KSPCB",21-11-2025 07:00:00,12.920984,77.584908,PM10,53,112,80
India,Karnataka,Bengaluru,"Jigani, Bengaluru - KSPCB",21-11-2025 07:00:00,12.7816279,77.6299145,PM2.5,41,42,42
India,Karnataka,Bengaluru,"Jigani, Bengaluru - KSPCB",21-11-2025 07:00:00,12.7816279,77.6299145,PM10,50,57,54
India,Karnataka,Bengaluru,"Jigani, Bengaluru - KSPCB",21-11-2025 07:00:00,12.7816279,77.6299145,SO2,18,19,18
India,Karnataka,Bengaluru,"Jigani, Bengaluru - KSPCB",21-11-2025 07:00:00,12.7816279,77.6299145,OZONE,17,21,17
India,Karnataka,Bengaluru,"Kasturi Nagar, Bengaluru - KSPCB",21-11-2025 07:00:00,13.003872,77.664217,NH3,2,2,2
India,Karnataka,Bengaluru,"Kasturi Nagar, Bengaluru - KSPCB",21-11-2025 07:00:00,13.003872,77.664217,SO2,10,12,11
India,Karnataka,Bengaluru,"Kasturi Nagar, Bengaluru - KSPCB",21-11-2025 07:00:00,13.003872,77.664217,CO,43,54,48
India,Karnataka,Bengaluru,"Peenya, Bengaluru - CPCB",21-11-2025 07:00:00,13.0270199,77.494094,NO2,25,32,29
India,Karnataka,Bengaluru,"BTM Layout, Bengaluru - CPCB",21-11-2025 07:00:00,12.9135218,77.5950804,OZONE,23,24,23
India,Karnataka,Bengaluru,"BWSSB Kadabesanahalli, Bengaluru - CPCB",21-11-2025 07:00:00,12.9352049,77.6814488,OZONE,29,29,29
India,Karnataka,Bengaluru,"City Railway Station, Bengaluru - KSPCB",21-11-2025 07:00:00,12.9756843,77.5660749,SO2,NA,NA,NA
India,Karnataka,Bengaluru,"Hebbal, Bengaluru - KSPCB",21-11-2025 07:00:00,13.029152,77.585901,NH3,1,2,1
India,Karnataka,Bengaluru,"Hebbal, Bengaluru - KSPCB",21-11-2025 07:00:00,13.029152,77.585901,CO,16,21,20
India,Karnataka,Bengaluru,"Hebbal, Bengaluru - KSPCB",21-11-2025 07:00:00,13.029152,77.585901,OZONE,7,14,8
India,Karnataka,Bengaluru,"Hombegowda Nagar, Bengaluru - KSPCB",21-11-2025 07:00:00,12.938539,77.590100,PM10,67,103,80
India,Karnataka,Hubballi,"Lingaraj Nagar, Hubballi - KSPCB",21-11-2025 07:00:00,15.3714823,75.1160168,PM2.5,44,67,47
India,Karnataka,Kalaburagi,"Lal Bahadur Shastri Nagar, Kalaburagi - KSPCB",21-11-2025 07:00:00,17.321993,76.822628,PM2.5,30,63,47
India,Karnataka,Kalaburagi,"Lal Bahadur Shastri Nagar, Kalaburagi - KSPCB",21-11-2025 07:00:00,17.321993,76.822628,NH3,1,1,1
India,Karnataka,Kalaburagi,"Mahatma Basaveswar Colony, Kalaburgi - KSPCB",21-11-2025 07:00:00,17.336318,76.847397,NH3,3,3,3
India,Karnataka,Kalaburagi,"Mahatma Basaveswar Colony, Kalaburgi - KSPCB",21-11-2025 07:00:00,17.336318,76.847397,SO2,3,7,4
India,Karnataka,Kalaburagi,"Mahatma Basaveswar Colony, Kalaburgi - KSPCB",21-11-2025 07:00:00,17.336318,76.847397,CO,36,50,43
India,Karnataka,Koppal,"Diwator Nagar, Koppal - KSPCB",21-11-2025 07:00:00,15.347630,76.181767,NO2,33,39,36
India,Haryana,Palwal,"Shyam Nagar, Palwal - HSPCB",21-11-2025 07:00:00,28.1485564,77.3320667,PM2.5,37,129,77
India,Haryana,Palwal,"Shyam Nagar, Palwal - HSPCB",21-11-2025 07:00:00,28.1485564,77.3320667,PM10,45,125,88
India,Haryana,Panchkula,"Sector-6, Panchkula - HSPCB ",21-11-2025 07:00:00,30.7057778,76.8531805555555,NO2,24,26,25
India,Haryana,Panchkula,"Sector-6, Panchkula - HSPCB ",21-11-2025 07:00:00,30.7057778,76.8531805555555,OZONE,16,35,22
India,Haryana,Panipat,"Sector-18, Panipat - HSPCB",21-11-2025 07:00:00,29.432304,76.972765,NO2,NA,NA,NA
India,Haryana,Rohtak,"MD University, Rohtak - HSPCB",21-11-2025 07:00:00,28.52123,76.37138,PM2.5,240,319,292
India,Haryana,Rohtak,"MD University, Rohtak - HSPCB",21-11-2025 07:00:00,28.52123,76.37138,SO2,4,6,5
India,Karnataka,Bengaluru,"RVCE-Mailasandra, Bengaluru - KSPCB",21-11-2025 07:00:00,12.921418,77.502466,PM2.5,49,72,53
India,Karnataka,Bengaluru,"RVCE-Mailasandra, Bengaluru - KSPCB",21-11-2025 07:00:00,12.921418,77.502466,OZONE,16,16,16
India,Karnataka,Bengaluru,"Sanegurava Halli, Bengaluru - KSPCB",21-11-2025 07:00:00,12.990328,77.5431385,PM10,51,54,51
India,Karnataka,Bengaluru,"Sanegurava Halli, Bengaluru - KSPCB",21-11-2025 07:00:00,12.990328,77.5431385,CO,18,47,25
India,Karnataka,Bengaluru,"Shivapura_Peenya, Bengaluru - KSPCB",21-11-2025 07:00:00,13.0246342,77.5080115,NO2,NA,NA,NA
India,Karnataka,Bengaluru,"Silk Board, Bengaluru - KSPCB",21-11-2025 07:00:00,12.917348,77.622813,PM10,88,142,114
India,Karnataka,Bengaluru,"Silk Board, Bengaluru - KSPCB",21-11-2025 07:00:00,12.917348,77.622813,NH3,2,2,2
India,Haryana,Sirsa,"F-Block, Sirsa - HSPCB",21-11-2025 07:00:00,29.536400,75.015800,PM10,48,133,96
India,Haryana,Sonipat,"Murthal, Sonipat - HSPCB",21-11-2025 07:00:00,29.027200,77.062100,NO2,26,60,46
India,Haryana,Yamuna Nagar,"Gobind Pura, Yamuna Nagar - HSPCB",21-11-2025 07:00:00,30.1480566,77.2893471,NO2,11,20,16
India,Haryana,Yamuna Nagar,"Gobind Pura, Yamuna Nagar - HSPCB",21-11-2025 07:00:00,30.1480566,77.2893471,NH3,1,6,4
India,Himachal Pradesh,Baddi,"HIMUDA Complex Phase-1, Baddi - HPPCB",21-11-2025 07:00:00,30.943887,76.801991,NO2,12,90,38
India,Himachal Pradesh,Baddi,"HIMUDA Complex Phase-1, Baddi - HPPCB",21-11-2025 07:00:00,30.943887,76.801991,NH3,5,7,6
India,Haryana,Kurukshetra,"Sector-7, Kurukshetra - HSPCB",21-11-2025 07:00:00,29.966942,76.875879,PM2.5,115,294,209
India,Haryana,Kurukshetra,"Sector-7, Kurukshetra - HSPCB",21-11-2025 07:00:00,29.966942,76.875879,NO2,16,20,18
India,Haryana,Kurukshetra,"Sector-7, Kurukshetra - HSPCB",21-11-2025 07:00:00,29.966942,76.875879,OZONE,7,89,9
India,Haryana,Manesar,"Sector-2 IMT, Manesar - HSPCB",21-11-2025 07:00:00,28.360699,76.936090,SO2,6,38,12
India,Haryana,Narnaul,"Shastri Nagar, Narnaul - HSPCB",21-11-2025 07:00:00,28.060249,76.113115,SO2,6,7,7
India,Karnataka,Chikkamagaluru,"Kalyana Nagara, Chikkamagaluru - KSPCB",21-11-2025 07:00:00,13.328028,75.797056,OZONE,37,64,42
India,Karnataka,Davanagere,"Devaraj Urs Badavane, Davanagere - KSPCB",21-11-2025 07:00:00,14.475800,75.905200,NH3,1,5,3
India,Karnataka,Dharwad,"Kalabhavan, Dharwad - KSPCB",21-11-2025 07:00:00,15.459706,75.008381,NO2,22,27,26
India,Karnataka,Dharwad,"Kalabhavan, Dharwad - KSPCB",21-11-2025 07:00:00,15.459706,75.008381,NH3,5,6,6
India,Madhya Pradesh,Sagar,"Civil Lines, Sagar - MPPCB",21-11-2025 07:00:00,23.838586,78.759431,CO,40,92,57
India,Madhya Pradesh,Satna,"Bandhavgar Colony, Satna - Birla Cement",21-11-2025 07:00:00,24.58434363,80.8549414,PM10,62,65,64
India,Madhya Pradesh,Satna,"Bandhavgar Colony, Satna - Birla Cement",21-11-2025 07:00:00,24.58434363,80.8549414,NO2,12,12,12
India,Madhya Pradesh,Satna,"Bandhavgar Colony, Satna - Birla Cement",21-11-2025 07:00:00,24.58434363,80.8549414,SO2,18,19,19
India,Madhya Pradesh,Singrauli,"Suryakiran Bhawan NCL, Singrauli - MPPCB",21-11-2025 07:00:00,24.108970,82.645580,NH3,12,15,14
India,Madhya Pradesh,Singrauli,"Suryakiran Bhawan NCL, Singrauli - MPPCB",21-11-2025 07:00:00,24.108970,82.645580,SO2,24,35,30
India,Madhya Pradesh,Singrauli,"Suryakiran Bhawan NCL, Singrauli - MPPCB",21-11-2025 07:00:00,24.108970,82.645580,OZONE,1,40,2
India,Maharashtra,Ahmednagar,"Tarakpur, Ahmednagar - MPCB",21-11-2025 07:00:00,19.10122,74.73339,PM10,74,138,105
India,Maharashtra,Ahmednagar,"Tarakpur, Ahmednagar - MPCB",21-11-2025 07:00:00,19.10122,74.73339,NO2,18,27,22
India,Madhya Pradesh,Bhopal,"Paryavaran Parisar, Bhopal - MPPCB",21-11-2025 07:00:00,23.210494,77.425409,PM10,121,474,212
India,Madhya Pradesh,Bhopal,"T T Nagar, Bhopal - MPPCB",21-11-2025 07:00:00,23.233584,77.400574,PM2.5,219,434,308
India,Madhya Pradesh,Damoh,"Shrivastav Colony, Damoh - MPPCB",21-11-2025 07:00:00,23.81748678,79.446246,SO2,26,27,26
India,Madhya Pradesh,Damoh,"Shrivastav Colony, Damoh - MPPCB",21-11-2025 07:00:00,23.81748678,79.446246,CO,21,24,22
India,Madhya Pradesh,Dewas,"Bhopal Chauraha, Dewas - MPPCB",21-11-2025 07:00:00,22.9682591,76.064118,PM10,133,256,166
India,Madhya Pradesh,Dewas,"Bhopal Chauraha, Dewas - MPPCB",21-11-2025 07:00:00,22.9682591,76.064118,NO2,7,8,7
India,Madhya Pradesh,Dewas,"Bhopal Chauraha, Dewas - MPPCB",21-11-2025 07:00:00,22.9682591,76.064118,SO2,32,60,51
India,Madhya Pradesh,Katni,"Gole Bazar, Katni - MPPCB",21-11-2025 07:00:00,23.50016,80.23284,CO,30,111,84
India,Madhya Pradesh,Katni,"Gole Bazar, Katni - MPPCB",21-11-2025 07:00:00,23.50016,80.23284,OZONE,10,193,12
India,Madhya Pradesh,Maihar,"Sahilara, Maihar - KJS Cements",21-11-2025 07:00:00,24.2613009,80.7231783,SO2,16,17,17
India,Madhya Pradesh,Maihar,"Sahilara, Maihar - KJS Cements",21-11-2025 07:00:00,24.2613009,80.7231783,CO,36,100,39
India,Madhya Pradesh,Mandideep,"Sector-D Industrial Area, Mandideep - MPPCB",21-11-2025 07:00:00,23.108440,77.511428,SO2,34,115,68
India,Madhya Pradesh,Ratlam,"Shasthri Nagar, Ratlam - IPCA Lab",21-11-2025 07:00:00,23.331731,75.045981,PM10,150,232,180
India,Karnataka,Vijayapura,"Ibrahimpur, Vijayapura - KSPCB",21-11-2025 07:00:00,16.802639,75.722694,OZONE,16,16,16
India,Karnataka,Yadgir,"Collector Office, Yadgir - KSPCB",21-11-2025 07:00:00,16.7602,77.1428,OZONE,18,27,19
India,Kerala,Eloor,"Udyogamandal, Eloor - Kerala PCB",21-11-2025 07:00:00,10.073232,76.302765,PM2.5,49,134,66
India,Kerala,Eloor,"Udyogamandal, Eloor - Kerala PCB",21-11-2025 07:00:00,10.073232,76.302765,SO2,1,1,1
India,Kerala,Eloor,"Udyogamandal, Eloor - Kerala PCB",21-11-2025 07:00:00,10.073232,76.302765,CO,28,107,39
India,Kerala,Kollam,"Polayathode, Kollam - Kerala PCB",21-11-2025 07:00:00,8.8787,76.6073,PM10,55,89,78
India,Karnataka,Mysuru,"Hebbal 1st Stage, Mysuru - KSPCB",21-11-2025 07:00:00,12.21041,76.37376,NO2,12,35,21
India,Karnataka,Mysuru,"Hebbal 1st Stage, Mysuru - KSPCB",21-11-2025 07:00:00,12.21041,76.37376,NH3,3,8,5
India,Karnataka,Mysuru,"Hebbal 1st Stage, Mysuru - KSPCB",21-11-2025 07:00:00,12.21041,76.37376,OZONE,4,37,9
India,Karnataka,Shivamogga,"Vinoba Nagara, Shivamogga - KSPCB",21-11-2025 07:00:00,13.940000,75.555917,NH3,3,4,4
India,Karnataka,Shivamogga,"Vinoba Nagara, Shivamogga - KSPCB",21-11-2025 07:00:00,13.940000,75.555917,OZONE,11,61,29
India,Karnataka,Vijayapura,"Ibrahimpur, Vijayapura - KSPCB",21-11-2025 07:00:00,16.802639,75.722694,PM10,NA,NA,NA
India,Karnataka,Vijayapura,"Ibrahimpur, Vijayapura - KSPCB",21-11-2025 07:00:00,16.802639,75.722694,CO,13,26,22
India,Madhya Pradesh,Jabalpur,"Govindh Bhavan Colony, Jabalpur - JMC",21-11-2025 07:00:00,23.163174,79.973061,PM10,101,135,118
India,Madhya Pradesh,Jabalpur,"Govindh Bhavan Colony, Jabalpur - JMC",21-11-2025 07:00:00,23.163174,79.973061,NO2,19,30,24
India,Madhya Pradesh,Jabalpur,"Govindh Bhavan Colony, Jabalpur - JMC",21-11-2025 07:00:00,23.163174,79.973061,SO2,13,16,14
India,Madhya Pradesh,Jabalpur,"Gupteshwar, Jabalpur - JMC",21-11-2025 07:00:00,23.142888,79.916147,PM10,104,333,168
India,Madhya Pradesh,Jabalpur,"Marhatal, Jabalpur - MPPCB",21-11-2025 07:00:00,23.168606,79.932247,NH3,4,9,6
India,Madhya Pradesh,Jabalpur,"Marhatal, Jabalpur - MPPCB",21-11-2025 07:00:00,23.168606,79.932247,SO2,7,49,29
India,Madhya Pradesh,Jabalpur,"Marhatal, Jabalpur - MPPCB",21-11-2025 07:00:00,23.168606,79.932247,OZONE,9,213,23
India,Kerala,Thiruvananthapuram,"Plammoodu, Thiruvananthapuram - Kerala PCB",21-11-2025 07:00:00,8.5149093,76.9435879,PM2.5,13,38,23
India,Kerala,Thiruvananthapuram,"Plammoodu, Thiruvananthapuram - Kerala PCB",21-11-2025 07:00:00,8.5149093,76.9435879,NO2,9,73,36
India,Kerala,Thiruvananthapuram,"Plammoodu, Thiruvananthapuram - Kerala PCB",21-11-2025 07:00:00,8.5149093,76.9435879,CO,11,22,16
India,Madhya Pradesh,Bhopal,"Idgah Hills, Bhopal - MPPCB",21-11-2025 07:00:00,23.264759,77.381568,NO2,20,64,33
India,Madhya Pradesh,Bhopal,"Idgah Hills, Bhopal - MPPCB",21-11-2025 07:00:00,23.264759,77.381568,NH3,7,10,8
India,Madhya Pradesh,Indore,"Regional Park, Indore - IMC",21-11-2025 07:00:00,22.6780,75.8559,PM10,NA,NA,NA
India,Madhya Pradesh,Indore,"Regional Park, Indore - IMC",21-11-2025 07:00:00,22.6780,75.8559,SO2,22,28,24
India,Madhya Pradesh,Indore,"Regional Park, Indore - IMC",21-11-2025 07:00:00,22.6780,75.8559,OZONE,12,22,17
India,Madhya Pradesh,Indore,"Residency Area, Indore - IMC",21-11-2025 07:00:00,22.7084,75.8815,PM2.5,NA,NA,NA
India,Madhya Pradesh,Indore,"Residency Area, Indore - IMC",21-11-2025 07:00:00,22.7084,75.8815,CO,NA,NA,NA
India,Madhya Pradesh,Gwalior,"Deen Dayal Nagar, Gwalior - MPPCB",21-11-2025 07:00:00,26.259242,78.216432,NH3,4,17,12
India,Madhya Pradesh,Gwalior,"Maharaj Bada, Gwalior - MPPCB",21-11-2025 07:00:00,26.200388,78.147714,OZONE,2,104,9
India,Maharashtra,Mumbai,"Borivali East, Mumbai - IITM",21-11-2025 07:00:00,19.23241,72.86895,CO,9,68,40
India,Maharashtra,Mumbai,"Byculla, Mumbai - BMC",21-11-2025 07:00:00,18.9767,72.8380,NO2,64,176,114
India,Maharashtra,Mumbai,"Chakala-Andheri East, Mumbai - IITM",21-11-2025 07:00:00,19.11074,72.86084,PM10,119,215,156
India,Maharashtra,Mumbai,"Chakala-Andheri East, Mumbai - IITM",21-11-2025 07:00:00,19.11074,72.86084,NO2,44,182,98
India,Maharashtra,Mumbai,"Chembur, Mumbai - MPCB",21-11-2025 07:00:00,19.0364585,72.8954371,PM10,100,157,132
India,Maharashtra,Mumbai,"Chembur, Mumbai - MPCB",21-11-2025 07:00:00,19.0364585,72.8954371,NO2,27,145,77
India,Maharashtra,Mumbai,"Chembur, Mumbai - MPCB",21-11-2025 07:00:00,19.0364585,72.8954371,NH3,2,3,2
India,Maharashtra,Mumbai,"Chembur, Mumbai - MPCB",21-11-2025 07:00:00,19.0364585,72.8954371,CO,50,104,84
India,Maharashtra,Mumbai,"Chembur, Mumbai - MPCB",21-11-2025 07:00:00,19.0364585,72.8954371,OZONE,1,149,11
India,Maharashtra,Mumbai,"Chhatrapati Shivaji Intl. Airport (T2), Mumbai - MPCB",21-11-2025 07:00:00,19.10078,72.87462,NO2,19,28,22
India,Maharashtra,Dhule,"Deopur, Dhule - MPCB",21-11-2025 07:00:00,20.918946,74.776388,PM10,71,123,94
India,Maharashtra,Dhule,"Deopur, Dhule - MPCB",21-11-2025 07:00:00,20.918946,74.776388,NH3,2,12,3
India,Maharashtra,Dhule,"Deopur, Dhule - MPCB",21-11-2025 07:00:00,20.918946,74.776388,SO2,7,15,11
India,Maharashtra,Jalgaon,"Prabhat Colony, Jalgaon - MPCB",21-11-2025 07:00:00,21.001264,75.565602,SO2,2,18,9
India,Maharashtra,Jalgaon,"Prabhat Colony, Jalgaon - MPCB",21-11-2025 07:00:00,21.001264,75.565602,CO,4,60,11
India,Maharashtra,Jalna,"Old MIDC, Jalna - MPCB",21-11-2025 07:00:00,19.854616,75.905894,PM10,80,133,106
India,Maharashtra,Kalyan,"Khadakpada, Kalyan - MPCB",21-11-2025 07:00:00,19.25292,73.142019,PM2.5,28,312,132
India,Maharashtra,Kalyan,"Khadakpada, Kalyan - MPCB",21-11-2025 07:00:00,19.25292,73.142019,NH3,1,1,1
India,Maharashtra,Kalyan,"Khadakpada, Kalyan - MPCB",21-11-2025 07:00:00,19.25292,73.142019,CO,66,106,92
India,Maharashtra,Kalyan,"Khadakpada, Kalyan - MPCB",21-11-2025 07:00:00,19.25292,73.142019,OZONE,8,9,9
India,Maharashtra,Kalyan,"Pimpleshwar Mandir, Kalyan - MPCB",21-11-2025 07:00:00,19.192056,72.9585188,NH3,1,11,4
India,Maharashtra,Kalyan,"Pimpleshwar Mandir, Kalyan - MPCB",21-11-2025 07:00:00,19.192056,72.9585188,OZONE,5,80,8
India,Maharashtra,Kolhapur,"Shivaji University, Kolhapur - MPCB",21-11-2025 07:00:00,16.6870449,74.2505872,NH3,2,4,3
India,Maharashtra,Kolhapur,"Shivaji University, Kolhapur - MPCB",21-11-2025 07:00:00,16.6870449,74.2505872,SO2,5,6,6
India,Maharashtra,Kolhapur,"Sinchan Bhavan, Kolhapur - MPCB",21-11-2025 07:00:00,16.7143745,74.2426398,NH3,7,38,18
India,Maharashtra,Kolhapur,"Sinchan Bhavan, Kolhapur - MPCB",21-11-2025 07:00:00,16.7143745,74.2426398,OZONE,1,54,16
India,Maharashtra,Latur,"Sawe Wadi, Latur - MPCB",21-11-2025 07:00:00,18.39963,76.57452,NH3,5,34,10
India,Maharashtra,Akola,"Ramdaspeth, Akola - MPCB",21-11-2025 07:00:00,20.719516,77.000253,PM2.5,59,311,127
India,Maharashtra,Akola,"Ramdaspeth, Akola - MPCB",21-11-2025 07:00:00,20.719516,77.000253,PM10,61,210,119
India,Maharashtra,Akola,"Ramdaspeth, Akola - MPCB",21-11-2025 07:00:00,20.719516,77.000253,NH3,4,14,9
India,Maharashtra,Akola,"Ramdaspeth, Akola - MPCB",21-11-2025 07:00:00,20.719516,77.000253,CO,18,110,66
India,Maharashtra,Amravati,"Shivneri Colony, Amravati - MPCB",21-11-2025 07:00:00,20.9402359,77.7895248,PM2.5,123,199,164
India,Maharashtra,Amravati,"Shivneri Colony, Amravati - MPCB",21-11-2025 07:00:00,20.9402359,77.7895248,NO2,12,46,23
India,Maharashtra,Amravati,"Shivneri Colony, Amravati - MPCB",21-11-2025 07:00:00,20.9402359,77.7895248,SO2,18,29,22
India,Maharashtra,Amravati,"Shri Shivaji Science College, Amravati - MPCB",21-11-2025 07:00:00,20.939198,77.765701,PM10,107,356,161
India,Maharashtra,Mahad,"Kamble Tarf Birwadi, Mahad - MPCB",21-11-2025 07:00:00,18.1023399,73.4783687,PM2.5,39,469,124
India,Maharashtra,Mahad,"Kamble Tarf Birwadi, Mahad - MPCB",21-11-2025 07:00:00,18.1023399,73.4783687,NO2,10,64,27
India,Maharashtra,Malegaon,"Mahesh Nagar, Malegaon - MPCB",21-11-2025 07:00:00,20.555712,74.529236,PM2.5,NA,NA,NA
India,Maharashtra,Malegaon,"Mahesh Nagar, Malegaon - MPCB",21-11-2025 07:00:00,20.555712,74.529236,PM10,NA,NA,NA
India,Maharashtra,Mumbai,"Bandra Kurla Complex, Mumbai - MPCB",21-11-2025 07:00:00,19.065931,72.862131,PM2.5,58,193,110
India,Maharashtra,Mumbai,"Bandra Kurla Complex, Mumbai - MPCB",21-11-2025 07:00:00,19.065931,72.862131,OZONE,1,153,4
India,Maharashtra,Mumbai,"Borivali East, Mumbai - IITM",21-11-2025 07:00:00,19.23241,72.86895,PM2.5,99,220,151
India,Maharashtra,Belapur,"CBD Belapur, Belapur - MPCB",21-11-2025 07:00:00,19.0243902,73.0406721,CO,17,66,36
India,Maharashtra,Bhiwandi,"Gokul Nagar, Bhiwandi - MPCB",21-11-2025 07:00:00,19.309073,73.057223,NO2,17,30,24
India,Maharashtra,Boisar,"Khaira, Boisar - MPCB",21-11-2025 07:00:00,19.786089,72.757971,PM10,90,165,115
India,Maharashtra,Boisar,"Khaira, Boisar - MPCB",21-11-2025 07:00:00,19.786089,72.757971,NH3,5,14,7
India,Maharashtra,Boisar,"Khaira, Boisar - MPCB",21-11-2025 07:00:00,19.786089,72.757971,CO,19,86,36
India,Maharashtra,Chandrapur,"Chauhan Colony, Chandrapur - MPCB",21-11-2025 07:00:00,19.962900,79.298714,NO2,30,34,32
India,Maharashtra,Aurangabad,"More Chowk Waluj, Aurangabad - MPCB",21-11-2025 07:00:00,19.8389439,75.244448,NO2,9,24,19
India,Maharashtra,Aurangabad,"More Chowk Waluj, Aurangabad - MPCB",21-11-2025 07:00:00,19.8389439,75.244448,CO,1,94,40
India,Maharashtra,Aurangabad,"Rachnakar Colony, Aurangabad - MPCB",21-11-2025 07:00:00,19.863756,75.321188,PM10,62,168,107
India,Maharashtra,Aurangabad,"Rachnakar Colony, Aurangabad - MPCB",21-11-2025 07:00:00,19.863756,75.321188,NO2,16,20,19
India,Maharashtra,Mumbai,"Chhatrapati Shivaji Intl. Airport (T2), Mumbai - MPCB",21-11-2025 07:00:00,19.10078,72.87462,CO,14,22,19
India,Maharashtra,Mumbai,"Colaba, Mumbai - MPCB",21-11-2025 07:00:00,18.910000,72.820000,PM10,51,86,63
India,Maharashtra,Belapur,"CBD Belapur, Belapur - MPCB",21-11-2025 07:00:00,19.0243902,73.0406721,PM2.5,83,233,164
India,Maharashtra,Mumbai,"Mazgaon, Mumbai - IITM",21-11-2025 07:00:00,18.96702,72.84214,PM10,131,189,156
India,Maharashtra,Mumbai,"Mazgaon, Mumbai - IITM",21-11-2025 07:00:00,18.96702,72.84214,NH3,10,22,16
India,Maharashtra,Mumbai,"Mazgaon, Mumbai - IITM",21-11-2025 07:00:00,18.96702,72.84214,CO,56,133,114
India,Maharashtra,Mumbai,"Mindspace-Malad West, Mumbai - MPCB",21-11-2025 07:00:00,19.1878657,72.8304069,NH3,6,36,17
India,Maharashtra,Mumbai,"Mindspace-Malad West, Mumbai - MPCB",21-11-2025 07:00:00,19.1878657,72.8304069,SO2,14,15,15
India,Maharashtra,Mumbai,"Mindspace-Malad West, Mumbai - MPCB",21-11-2025 07:00:00,19.1878657,72.8304069,CO,35,105,84
India,Maharashtra,Mumbai,"Mindspace-Malad West, Mumbai - MPCB",21-11-2025 07:00:00,19.1878657,72.8304069,OZONE,1,87,4
India,Maharashtra,Mumbai,"Navy Nagar-Colaba, Mumbai - IITM",21-11-2025 07:00:00,18.897756,72.813320,CO,17,62,48
India,Maharashtra,Mumbai,"Navy Nagar-Colaba, Mumbai - IITM",21-11-2025 07:00:00,18.897756,72.813320,OZONE,6,176,19
India,Maharashtra,Nagpur,"Mahal, Nagpur - MPCB",21-11-2025 07:00:00,21.14472,79.107595,CO,50,136,74
India,Maharashtra,Nagpur,"Opp GPO Civil Lines, Nagpur - MPCB",21-11-2025 07:00:00,21.152875,79.0517531,PM10,119,241,169
India,Maharashtra,Nagpur,"Opp GPO Civil Lines, Nagpur - MPCB",21-11-2025 07:00:00,21.152875,79.0517531,NO2,17,127,53
India,Maharashtra,Nagpur,"Ram Nagar, Nagpur - MPCB",21-11-2025 07:00:00,21.143383,79.048912,PM2.5,188,330,251
India,Maharashtra,Nagpur,"Ram Nagar, Nagpur - MPCB",21-11-2025 07:00:00,21.143383,79.048912,NH3,3,14,6
India,Maharashtra,Nagpur,"Ram Nagar, Nagpur - MPCB",21-11-2025 07:00:00,21.143383,79.048912,SO2,26,112,48
India,Maharashtra,Nanded,"Sneh Nagar, Nanded - MPCB",21-11-2025 07:00:00,19.173852,77.296291,PM10,115,189,145
India,Maharashtra,Mumbai,"Sion, Mumbai - MPCB",21-11-2025 07:00:00,19.047000,72.874600,SO2,10,17,15
India,Maharashtra,Mumbai,"Vasai West, Mumbai - MPCB",21-11-2025 07:00:00,19.383200,72.820400,NO2,14,30,26
India,Maharashtra,Mumbai,"Vile Parle West, Mumbai - MPCB",21-11-2025 07:00:00,19.10861,72.83622,NH3,2,5,5
India,Maharashtra,Mumbai,"Worli, Mumbai - MPCB",21-11-2025 07:00:00,18.9936162,72.8128113,CO,5,16,9
India,Maharashtra,Nagpur,"Ambazari, Nagpur - MPCB",21-11-2025 07:00:00,21.121801,79.04952,PM10,123,166,149
India,Maharashtra,Nagpur,"Ambazari, Nagpur - MPCB",21-11-2025 07:00:00,21.121801,79.04952,NO2,15,130,41
India,Maharashtra,Nagpur,"Ambazari, Nagpur - MPCB",21-11-2025 07:00:00,21.121801,79.04952,SO2,17,119,40
India,Maharashtra,Mumbai,"Kandivali West, Mumbai - BMC",21-11-2025 07:00:00,19.215859,72.831718,CO,10,70,49
India,Maharashtra,Mumbai,"Kherwadi_Bandra East, Mumbai - MPCB",21-11-2025 07:00:00,19.0632143,72.8456324,NH3,8,17,13
India,Maharashtra,Mumbai,"Khindipada-Bhandup West, Mumbai - IITM",21-11-2025 07:00:00,19.1653323,72.922099,PM10,83,159,123
India,Maharashtra,Mumbai,"Khindipada-Bhandup West, Mumbai - IITM",21-11-2025 07:00:00,19.1653323,72.922099,NH3,1,3,2
India,Maharashtra,Mumbai,"Kurla, Mumbai - MPCB",21-11-2025 07:00:00,19.0863,72.8888,PM2.5,65,125,86
India,Maharashtra,Mumbai,"Kurla, Mumbai - MPCB",21-11-2025 07:00:00,19.0863,72.8888,OZONE,28,29,29
India,Maharashtra,Nashik,"Gangapur Road, Nashik - MPCB",21-11-2025 07:00:00,20.0073285,73.7762427,NH3,3,3,3
India,Maharashtra,Nashik,"Hirawadi, Nashik - MPCB",21-11-2025 07:00:00,20.021503,73.813844,NH3,2,9,4
India,Maharashtra,Nashik,"Hirawadi, Nashik - MPCB",21-11-2025 07:00:00,20.021503,73.813844,OZONE,14,90,32
India,Maharashtra,Nashik,"MIDC Ambad, Nashik - MPCB",21-11-2025 07:00:00,19.950220,73.731480,PM2.5,77,144,104
India,Maharashtra,Nashik,"MIDC Ambad, Nashik - MPCB",21-11-2025 07:00:00,19.950220,73.731480,NH3,6,9,8
India,Maharashtra,Nashik,"Pandav Nagari, Nashik - MPCB",21-11-2025 07:00:00,19.9591346,73.7788008,NO2,9,57,21
India,Maharashtra,Mumbai,"Colaba, Mumbai - MPCB",21-11-2025 07:00:00,18.910000,72.820000,OZONE,11,11,11
India,Maharashtra,Mumbai,"Deonar, Mumbai - IITM",21-11-2025 07:00:00,19.04946,72.9230,NH3,7,14,11
India,Maharashtra,Mumbai,"Ghatkopar, Mumbai - BMC",21-11-2025 07:00:00,19.083694,72.920967,PM10,57,99,81
India,Maharashtra,Mumbai,"Ghatkopar, Mumbai - BMC",21-11-2025 07:00:00,19.083694,72.920967,SO2,6,13,9
India,Maharashtra,Mumbai,"Kandivali West, Mumbai - BMC",21-11-2025 07:00:00,19.215859,72.831718,PM2.5,99,257,160
India,Maharashtra,Mumbai,"Powai, Mumbai - MPCB",21-11-2025 07:00:00,19.137500,72.915056,NO2,7,8,8
India,Maharashtra,Mumbai,"Powai, Mumbai - MPCB",21-11-2025 07:00:00,19.137500,72.915056,CO,17,18,18
India,Maharashtra,Mumbai,"Shivaji Nagar, Mumbai - BMC",21-11-2025 07:00:00,19.060498,72.923356,PM2.5,NA,NA,NA
India,Maharashtra,Mumbai,"Siddharth Nagar-Worli, Mumbai - IITM",21-11-2025 07:00:00,19.000083,72.813993,PM10,79,150,125
India,Maharashtra,Mumbai,"Sion, Mumbai - MPCB",21-11-2025 07:00:00,19.047000,72.874600,NH3,6,8,7
India,Maharashtra,Navi Mumbai,"Tondare-Taloja, Navi Mumbai - MPCB",21-11-2025 07:00:00,19.0630,73.1209,NO2,21,55,37
India,Maharashtra,Parbhani,"Masoom Colony, Parbhani - MPCB",21-11-2025 07:00:00,19.265594,76.761463,PM10,106,168,142
India,Maharashtra,Parbhani,"Masoom Colony, Parbhani - MPCB",21-11-2025 07:00:00,19.265594,76.761463,SO2,4,17,8
India,Maharashtra,Pimpri-Chinchwad,"Gavalinagar, Pimpri Chinchwad - MPCB",21-11-2025 07:00:00,18.63673,73.82487,PM10,116,281,165
India,Maharashtra,Navi Mumbai,"Kopripada-Vashi, Navi Mumbai - MPCB",21-11-2025 07:00:00,19.090337,73.014232,PM2.5,42,172,103
India,Maharashtra,Navi Mumbai,"Kopripada-Vashi, Navi Mumbai - MPCB",21-11-2025 07:00:00,19.090337,73.014232,PM10,39,217,94
India,Maharashtra,Navi Mumbai,"Nerul, Navi Mumbai - MPCB",21-11-2025 07:00:00,19.008751,73.016620,NH3,4,4,4
India,Maharashtra,Virar,"Bolinj, Virar - MPCB",21-11-2025 07:00:00,19.4458210,72.7988231,SO2,6,10,8
India,Maharashtra,Virar,"Bolinj, Virar - MPCB",21-11-2025 07:00:00,19.4458210,72.7988231,OZONE,10,96,36
India,Meghalaya,Shillong,"Lumpyngngad, Shillong - Meghalaya PCB",21-11-2025 07:00:00,25.5586,91.8985,SO2,5,6,6
India,Meghalaya,Shillong,"Lumpyngngad, Shillong - Meghalaya PCB",21-11-2025 07:00:00,25.5586,91.8985,CO,1,8,1
India,Nagaland,Kohima,"PWD Junction, Kohima - NPCB",21-11-2025 07:00:00,25.6635413,94.0989878,CO,2,14,5
India,Odisha,Angul,"Hakimapada, Angul - OSPCB",21-11-2025 07:00:00,20.832874,85.104082,NH3,5,12,9
India,Odisha,Balasore,"Kalidaspur, Balasore - OSPCB",21-11-2025 07:00:00,21.51161,86.89088,NH3,1,3,2
India,Odisha,Brajrajnagar,"GM Office, Brajrajnagar - OSPCB",21-11-2025 07:00:00,21.8004996,83.8396977,NH3,5,16,10
India,Odisha,Byasanagar,"Ferro Chrome Colony, Byasanagar - OSPCB",21-11-2025 07:00:00,20.94185,86.11510,NO2,6,28,14
India,Odisha,Byasanagar,"Ferro Chrome Colony, Byasanagar - OSPCB",21-11-2025 07:00:00,20.94185,86.11510,NH3,1,3,2
India,Odisha,Byasanagar,"Ferro Chrome Colony, Byasanagar - OSPCB",21-11-2025 07:00:00,20.94185,86.11510,OZONE,22,105,45
India,Odisha,Cuttack,"CDA Area, Cuttack - OSPCB",21-11-2025 07:00:00,20.48891     ,85.84768     ,PM2.5,48,220,116
India,Odisha,Cuttack,"CDA Area, Cuttack - OSPCB",21-11-2025 07:00:00,20.48891     ,85.84768     ,SO2,4,9,6
India,Odisha,Keonjhar,"Jagamohanpur, Keonjhar - OSPCB",21-11-2025 07:00:00,21.643900,85.599355,SO2,11,28,17
India,Maharashtra,Pune,"Hadapsar, Pune - IITM",21-11-2025 07:00:00,18.501793,73.927532,CO,74,92,85
India,Maharashtra,Pune,"Katraj Dairy, Pune - MPCB",21-11-2025 07:00:00,18.454450,73.854155,NO2,33,97,62
India,Maharashtra,Pune,"Katraj Dairy, Pune - MPCB",21-11-2025 07:00:00,18.454450,73.854155,NH3,4,16,7
India,Maharashtra,Pune,"Panchawati_Pashan, Pune - IITM",21-11-2025 07:00:00,18.536457,73.805454,PM2.5,47,82,64
India,Maharashtra,Pune,"Panchawati_Pashan, Pune - IITM",21-11-2025 07:00:00,18.536457,73.805454,CO,28,51,40
India,Maharashtra,Pune,"Revenue Colony-Shivajinagar, Pune - IITM",21-11-2025 07:00:00,18.530085,73.849598,SO2,1,18,7
India,Maharashtra,Pune,"Revenue Colony-Shivajinagar, Pune - IITM",21-11-2025 07:00:00,18.530085,73.849598,CO,57,147,129
India,Maharashtra,Pune,"Revenue Colony-Shivajinagar, Pune - IITM",21-11-2025 07:00:00,18.530085,73.849598,OZONE,NA,NA,NA
India,Maharashtra,Thane,"Kasarvadavali, Thane - MPCB",21-11-2025 07:00:00,19.26777,72.97182,PM10,96,162,134
India,Maharashtra,Thane,"Kasarvadavali, Thane - MPCB",21-11-2025 07:00:00,19.26777,72.97182,NO2,13,104,52
India,Maharashtra,Thane,"Kasarvadavali, Thane - MPCB",21-11-2025 07:00:00,19.26777,72.97182,NH3,1,19,7
India,Maharashtra,Thane,"Upvan Fort, Thane - MPCB",21-11-2025 07:00:00,19.222279,72.957979,PM2.5,16,89,51
India,Maharashtra,Thane,"Upvan Fort, Thane - MPCB",21-11-2025 07:00:00,19.222279,72.957979,NH3,1,1,1
India,Maharashtra,Ulhasnagar,"Sidhi Vinayak Nagar, Ulhasnagar - MPCB",21-11-2025 07:00:00,19.235581,73.159121,SO2,7,99,24
India,Maharashtra,Virar,"Bolinj, Virar - MPCB",21-11-2025 07:00:00,19.4458210,72.7988231,PM2.5,77,234,148
India,Maharashtra,Pune,"Savitribai Phule Pune University, Pune - MPCB",21-11-2025 07:00:00,18.547056,73.826908,NO2,2,44,16
India,Maharashtra,Pune,"Savitribai Phule Pune University, Pune - MPCB",21-11-2025 07:00:00,18.547056,73.826908,SO2,1,4,3
India,Maharashtra,Pune,"Savitribai Phule Pune University, Pune - MPCB",21-11-2025 07:00:00,18.547056,73.826908,CO,16,123,97
India,Maharashtra,Sangli,"Vijay Nagar, Sangli - MPCB",21-11-2025 07:00:00, 16.5038,74.3623,PM2.5,176,311,224
India,Maharashtra,Sangli,"Vijay Nagar, Sangli - MPCB",21-11-2025 07:00:00, 16.5038,74.3623,NO2,26,88,40
India,Maharashtra,Sangli,"Vijay Nagar, Sangli - MPCB",21-11-2025 07:00:00, 16.5038,74.3623,NH3,1,5,3
India,Maharashtra,Solapur,"Dnyaneshwar Nagar, Solapur - MPCB",21-11-2025 07:00:00,17.6336264,75.9132495,PM10,70,401,125
India,Maharashtra,Pimpri-Chinchwad,"Park Street Wakad, Pimpri Chinchwad - MPCB",21-11-2025 07:00:00,18.59051,73.77946,SO2,2,9,6
India,Maharashtra,Pimpri-Chinchwad,"Park Street Wakad, Pimpri Chinchwad - MPCB",21-11-2025 07:00:00,18.59051,73.77946,CO,24,132,98
India,Maharashtra,Pimpri-Chinchwad,"Thergaon, Pimpri Chinchwad - MPCB",21-11-2025 07:00:00,18.616318,73.765797,NH3,4,6,5
India,Maharashtra,Pimpri-Chinchwad,"Thergaon, Pimpri Chinchwad - MPCB",21-11-2025 07:00:00,18.616318,73.765797,OZONE,1,81,6
India,Maharashtra,Pune,"Bhumkar Nagar, Pune - IITM",21-11-2025 07:00:00,18.605770,73.749976,OZONE,NA,NA,NA
India,Maharashtra,Pune,"Dhankawadi, Pune - IITM",21-11-2025 07:00:00,18.459883,73.852193,PM10,NA,NA,NA
India,Odisha,Barbil,"Forest Office, Barbil - OSPCB",21-11-2025 07:00:00,22.1166054,85.3945546,NH3,2,4,3
India,Odisha,Bhubaneswar,"Lingraj Mandir, Bhubaneswar - OSPCB",21-11-2025 07:00:00,20.240790,85.836784,PM10,59,135,97
India,Odisha,Bhubaneswar,"Patia, Bhubaneswar - OSPCB",21-11-2025 07:00:00,20.34652,85.81630,PM10,31,145,104
India,Odisha,Bhubaneswar,"Patia, Bhubaneswar - OSPCB",21-11-2025 07:00:00,20.34652,85.81630,OZONE,15,91,36
India,Odisha,Bileipada,"Tata Township, Bileipada - OSPCB",21-11-2025 07:00:00,22.06156703,85.47409613,NH3,4,4,4
India,Odisha,Rairangpur,"Divisional Forest Office, Rairangpur - OSPCB",21-11-2025 07:00:00,22.265816,86.174829,NH3,1,1,1
India,Odisha,Rourkela,"Fertilizer Township, Rourkela - OSPCB",21-11-2025 07:00:00,22.18972222,84.86277778,CO,2,110,26
India,Odisha,Rourkela,"Raghunathpali, Rourkela - OSPCB",21-11-2025 07:00:00,22.220833,84.809444,SO2,3,7,4
India,Maharashtra,Solapur,"Ratandeep Housing Society, Solapur - MPCB",21-11-2025 07:00:00,17.65439,75.90649,PM10,84,141,112
India,Rajasthan,Dungarpur,"Bhoiwada, Dungarpur - RSPCB",21-11-2025 07:00:00,23.837789,73.714926,PM2.5,143,349,276
India,Rajasthan,Dungarpur,"Bhoiwada, Dungarpur - RSPCB",21-11-2025 07:00:00,23.837789,73.714926,CO,18,101,32
India,Rajasthan,Dungarpur,"Bhoiwada, Dungarpur - RSPCB",21-11-2025 07:00:00,23.837789,73.714926,OZONE,2,181,8
India,Rajasthan,Hanumangarh,"Housing Board, Hanumangarh - RSPCB",21-11-2025 07:00:00,29.610750,74.283608,PM2.5,98,342,211
India,Rajasthan,Hanumangarh,"Housing Board, Hanumangarh - RSPCB",21-11-2025 07:00:00,29.610750,74.283608,SO2,4,21,9
India,Rajasthan,Jaipur,"Adarsh Nagar, Jaipur - RSPCB",21-11-2025 07:00:00,26.902909,75.836858,OZONE,14,101,17
India,Rajasthan,Jaipur,"Mansarovar Sector-12, Jaipur - RSPCB",21-11-2025 07:00:00,26.843698,75.766894,PM2.5,140,360,299
India,Rajasthan,Jaipur,"Mansarovar Sector-12, Jaipur - RSPCB",21-11-2025 07:00:00,26.843698,75.766894,NH3,11,14,13
India,Odisha,Talcher,"Talcher Coalfields,Talcher - OSPCB",21-11-2025 07:00:00,20.9360711,85.1707021,PM10,74,314,181
India,Odisha,Talcher,"Talcher Coalfields,Talcher - OSPCB",21-11-2025 07:00:00,20.9360711,85.1707021,SO2,30,100,57
India,Odisha,Tensa,"Barsua Iron Ore Mines, Tensa - OSPCB",21-11-2025 07:00:00,21.869985,85.167016,SO2,14,47,22
India,Odisha,Tensa,"Barsua Iron Ore Mines, Tensa - OSPCB",21-11-2025 07:00:00,21.869985,85.167016,OZONE,5,30,8
India,Puducherry,Puducherry,"Jawahar Nagar, Puducherry - PPCC",21-11-2025 07:00:00,11.9309,79.8027,OZONE,16,63,25
India,Rajasthan,Bhiwadi,"RIICO Ind. Area III, Bhiwadi - RSPCB",21-11-2025 07:00:00,28.194909,76.862296,CO,30,98,82
India,Rajasthan,Bhiwadi,"Vasundhara Nagar_UIT, Bhiwadi - RSPCB",21-11-2025 07:00:00,28.207266,76.829265,CO,44,121,84
India,Rajasthan,Bhiwadi,"Vasundhara Nagar_UIT, Bhiwadi - RSPCB",21-11-2025 07:00:00,28.207266,76.829265,OZONE,4,135,6
India,Rajasthan,Bundi,"New Colony, Bundi - RSPCB",21-11-2025 07:00:00,25.435774,75.644272,PM2.5,190,399,297
India,Rajasthan,Bundi,"New Colony, Bundi - RSPCB",21-11-2025 07:00:00,25.435774,75.644272,NH3,3,6,4
India,Rajasthan,Ajmer,"Civil Lines,  Ajmer - RSPCB",21-11-2025 07:00:00,26.470859,74.646594,PM10,84,185,145
India,Rajasthan,Alwar,"Moti Doongri, Alwar - RSPCB",21-11-2025 07:00:00,27.554793,76.611536,NO2,58,103,77
India,Rajasthan,Banswara,"Rati Talai, Banswara - RSPCB",21-11-2025 07:00:00,23.555190,74.440010,NO2,18,144,54
India,Rajasthan,Banswara,"Rati Talai, Banswara - RSPCB",21-11-2025 07:00:00,23.555190,74.440010,NH3,6,12,8
India,Rajasthan,Banswara,"Rati Talai, Banswara - RSPCB",21-11-2025 07:00:00,23.555190,74.440010,OZONE,4,211,75
India,Rajasthan,Chittorgarh,"Shastri Nagar, Chittorgarh - RSPCB",21-11-2025 07:00:00,24.892047,74.623527,PM10,84,218,129
India,Rajasthan,Churu,"Subash Chowk, Churu - RSPCB",21-11-2025 07:00:00,28.296139,74.961696,NH3,9,40,18
India,Rajasthan,Dausa,"Khatikan Mohalla, Dausa - RSPCB",21-11-2025 07:00:00,26.895552,76.334753,PM2.5,100,353,212
India,Rajasthan,Dausa,"Khatikan Mohalla, Dausa - RSPCB",21-11-2025 07:00:00,26.895552,76.334753,SO2,3,12,6
India,Rajasthan,Jaipur,"Police Commissionerate, Jaipur - RSPCB",21-11-2025 07:00:00,26.9164092,75.7994901,SO2,6,8,7
India,Rajasthan,Jaipur,"RIICO Sitapura, Jaipur - RSPCB",21-11-2025 07:00:00,26.786682,75.827928,PM10,147,415,253
India,Rajasthan,Jaipur,"RIICO Sitapura, Jaipur - RSPCB",21-11-2025 07:00:00,26.786682,75.827928,CO,30,132,82
India,Rajasthan,Jaipur,"Sector-2 Murlipura, Jaipur - RSPCB",21-11-2025 07:00:00,26.960669,75.771817,PM2.5,NA,NA,NA
India,Rajasthan,Barmer,"Railway Colony, Barmer - RSPCB",21-11-2025 07:00:00,25.747299,71.393989,SO2,5,19,9
India,Rajasthan,Bharatpur,"Krishna Nagar, Bharatpur - RSPCB",21-11-2025 07:00:00,27.215415,77.50873,PM10,72,410,155
India,Rajasthan,Bharatpur,"Krishna Nagar, Bharatpur - RSPCB",21-11-2025 07:00:00,27.215415,77.50873,OZONE,1,227,6
India,Rajasthan,Bhilwara,"Pratap Nagar, Bhilwara - RSPCB",21-11-2025 07:00:00,25.339605,74.618883,PM10,93,295,162
India,Punjab,Jalandhar,"Civil Line, Jalandhar - PPCB",21-11-2025 07:00:00,31.321907,75.578914,OZONE,44,52,45
India,Punjab,Mandi Gobindgarh,"RIMT University, Mandi Gobindgarh - PPCB",21-11-2025 07:00:00,30.649961,76.331442,NH3,6,6,6
India,Punjab,Patiala,"Model Town, Patiala - PPCB",21-11-2025 07:00:00,30.349388,76.366642,OZONE,10,42,11
India,Rajasthan,Barmer,"Railway Colony, Barmer - RSPCB",21-11-2025 07:00:00,25.747299,71.393989,PM10,66,352,128
India,Rajasthan,Sawai Madhopur,"Sahu Nagar, Sawai Madhopur - RSPCB",21-11-2025 07:00:00,26.031443,76.359327,NO2,10,42,19
India,Rajasthan,Sawai Madhopur,"Sahu Nagar, Sawai Madhopur - RSPCB",21-11-2025 07:00:00,26.031443,76.359327,CO,28,116,49
India,Rajasthan,Sawai Madhopur,"Sahu Nagar, Sawai Madhopur - RSPCB",21-11-2025 07:00:00,26.031443,76.359327,OZONE,1,162,6
India,Rajasthan,Sikar,"Radhakishan Pura, Sikar - RSPCB",21-11-2025 07:00:00,27.608912,75.153302,PM2.5,93,413,222
India,Rajasthan,Sikar,"Radhakishan Pura, Sikar - RSPCB",21-11-2025 07:00:00,27.608912,75.153302,NO2,14,160,64
India,Rajasthan,Sikar,"Radhakishan Pura, Sikar - RSPCB",21-11-2025 07:00:00,27.608912,75.153302,NH3,9,25,15
India,Rajasthan,Sikar,"Radhakishan Pura, Sikar - RSPCB",21-11-2025 07:00:00,27.608912,75.153302,SO2,3,17,9
India,Rajasthan,Sikar,"Radhakishan Pura, Sikar - RSPCB",21-11-2025 07:00:00,27.608912,75.153302,CO,23,135,52
India,Rajasthan,Sirohi,"Vedhaynath Colony, Sirohi - RSPCB",21-11-2025 07:00:00,24.885261,72.857549,OZONE,6,132,67
India,Rajasthan,Sri Ganganagar,"Old City, Sri Ganganagar - RSPCB",21-11-2025 07:00:00,29.931624,73.864511,PM2.5,41,107,71
India,TamilNadu,Gummidipoondi,"Anthoni Pillai Nagar, Gummidipoondi - TNPCB",21-11-2025 07:00:00,13.4127,80.1081,PM10,83,193,124
India,TamilNadu,Gummidipoondi,"Anthoni Pillai Nagar, Gummidipoondi - TNPCB",21-11-2025 07:00:00,13.4127,80.1081,SO2,28,80,45
India,TamilNadu,Madurai,"Uchapatti, Madurai - TNPCB",21-11-2025 07:00:00,9.865935,78.022669,NO2,NA,NA,NA
India,TamilNadu,Madurai,"Uchapatti, Madurai - TNPCB",21-11-2025 07:00:00,9.865935,78.022669,NH3,NA,NA,NA
India,TamilNadu,Madurai,"Uchapatti, Madurai - TNPCB",21-11-2025 07:00:00,9.865935,78.022669,OZONE,1,1,1
India,TamilNadu,Nagapattinam,"Velippalayam, Nagapattinam - TNPCB",21-11-2025 07:00:00,10.798548,79.838212,NO2,5,5,5
India,TamilNadu,Nagapattinam,"Velippalayam, Nagapattinam - TNPCB",21-11-2025 07:00:00,10.798548,79.838212,NH3,2,2,2
India,TamilNadu,Ooty,"Bombay Castel, Ooty - TNPCB",21-11-2025 07:00:00,11.4068288,76.7138973,SO2,NA,NA,NA
India,TamilNadu,Ooty,"Bombay Castel, Ooty - TNPCB",21-11-2025 07:00:00,11.4068288,76.7138973,OZONE,NA,NA,NA
India,Rajasthan,Jodhpur,"Samrat Ashok Udhyan, Jodhpur - RSPCB",21-11-2025 07:00:00,26.253384,72.976571,CO,38,119,94
India,Rajasthan,Karauli,"Satyawati Vihar, Karauli - RSPCB",21-11-2025 07:00:00,26.506177,77.025989,OZONE,5,97,11
India,Rajasthan,Kota,"Dhanmandi, Kota - RSPCB",21-11-2025 07:00:00,25.164090,75.858137,PM10,113,300,184
India,Rajasthan,Kota,"Dhanmandi, Kota - RSPCB",21-11-2025 07:00:00,25.164090,75.858137,NH3,2,6,4
India,Rajasthan,Kota,"Nayapura, Kota - RSPCB",21-11-2025 07:00:00,25.196024,75.855668,PM10,123,190,159
India,Rajasthan,Kota,"Nayapura, Kota - RSPCB",21-11-2025 07:00:00,25.196024,75.855668,SO2,5,15,8
India,Rajasthan,Kota,"Nayapura, Kota - RSPCB",21-11-2025 07:00:00,25.196024,75.855668,OZONE,2,245,3
India,Rajasthan,Kota,"Shrinath Puram, Kota - RSPCB",21-11-2025 07:00:00,25.14389,75.821256,PM10,1,200,139
India,Rajasthan,Jaisalmer,"Sadar Bazar, Jaisalmer - RSPCB",21-11-2025 07:00:00,26.912329,70.909168,PM10,64,348,151
India,Rajasthan,Jaisalmer,"Sadar Bazar, Jaisalmer - RSPCB",21-11-2025 07:00:00,26.912329,70.909168,SO2,2,8,4
India,Rajasthan,Jaisalmer,"Sadar Bazar, Jaisalmer - RSPCB",21-11-2025 07:00:00,26.912329,70.909168,CO,28,103,41
India,Rajasthan,Jalore,"Mudtra Sili, Jalore - RSPCB",21-11-2025 07:00:00,25.344694,72.626208,PM2.5,60,314,158
India,Rajasthan,Jalore,"Mudtra Sili, Jalore - RSPCB",21-11-2025 07:00:00,25.344694,72.626208,NH3,NA,NA,NA
India,Rajasthan,Jhalawar,"Rajlaxmi Nagar, Jhalawar - RSPCB",21-11-2025 07:00:00,24.588397,76.172782,PM10,73,181,120
India,Rajasthan,Jhunjhunu,"Indra Nagar, Jhunjhunu - RSPCB",21-11-2025 07:00:00,28.108988,75.386577,PM10,92,276,162
India,Rajasthan,Jhunjhunu,"Indra Nagar, Jhunjhunu - RSPCB",21-11-2025 07:00:00,28.108988,75.386577,NH3,3,18,10
India,Rajasthan,Sri Ganganagar,"Old City, Sri Ganganagar - RSPCB",21-11-2025 07:00:00,29.931624,73.864511,SO2,3,19,9
India,Rajasthan,Tonk,"Shastri Nagar, Tonk - RSPCB",21-11-2025 07:00:00,26.159933,75.780517,NO2,23,145,61
India,Rajasthan,Udaipur,"Ashok Nagar, Udaipur - RSPCB",21-11-2025 07:00:00,24.5886166,73.6321397,PM10,83,226,139
India,Sikkim,Gangtok,"Zero Point GICI, Gangtok - SSPCB",21-11-2025 07:00:00,27.338530,88.614099,PM2.5,7,36,18
India,Sikkim,Gangtok,"Zero Point GICI, Gangtok - SSPCB",21-11-2025 07:00:00,27.338530,88.614099,PM10,12,36,18
India,Sikkim,Gangtok,"Zero Point GICI, Gangtok - SSPCB",21-11-2025 07:00:00,27.338530,88.614099,NO2,6,7,6
India,Sikkim,Gangtok,"Zero Point GICI, Gangtok - SSPCB",21-11-2025 07:00:00,27.338530,88.614099,CO,2,20,2
India,Rajasthan,Jodhpur,"Digari Kalan, Jodhpur - RSPCB",21-11-2025 07:00:00,26.295810,73.082283,NO2,8,120,47
India,Rajasthan,Jodhpur,"Digari Kalan, Jodhpur - RSPCB",21-11-2025 07:00:00,26.295810,73.082283,NH3,6,18,10
India,Rajasthan,Jodhpur,"Mandor, Jodhpur - RSPCB",21-11-2025 07:00:00,26.358805,73.047444,PM2.5,60,177,110
India,Rajasthan,Jodhpur,"Mandor, Jodhpur - RSPCB",21-11-2025 07:00:00,26.358805,73.047444,CO,13,51,30
India,Rajasthan,Jodhpur,"Mandor, Jodhpur - RSPCB",21-11-2025 07:00:00,26.358805,73.047444,OZONE,7,157,27
India,TamilNadu,Chennai,"Arumbakkam, Chennai - TNPCB",21-11-2025 07:00:00,13.0664,80.2112 ,NH3,1,2,2
India,TamilNadu,Chennai,"Manali Village, Chennai - TNPCB",21-11-2025 07:00:00,13.1662,80.2584,NO2,4,5,4
India,TamilNadu,Chennai,"Perungudi, Chennai - TNPCB",21-11-2025 07:00:00,12.9533,80.2357,PM2.5,48,133,81
India,Rajasthan,Kota,"Shrinath Puram, Kota - RSPCB",21-11-2025 07:00:00,25.14389,75.821256,SO2,7,31,11
India,Rajasthan,Pratapgarh,"Pragati Nagar, Pratapgarh - RSPCB",21-11-2025 07:00:00,24.041198,74.780702,NH3,7,11,9
India,Rajasthan,Pratapgarh,"Pragati Nagar, Pratapgarh - RSPCB",21-11-2025 07:00:00,24.041198,74.780702,CO,31,49,33
India,TamilNadu,Chennai,"Velachery Res. Area, Chennai - CPCB",21-11-2025 07:00:00,13.0052189,80.2398125,NH3,3,4,3
India,TamilNadu,Cuddalore,"Kudikadu, Cuddalore - TNPCB",21-11-2025 07:00:00,11.6829898,79.7532099,SO2,19,28,20
India,Uttar_Pradesh,Ghaziabad,"Sanjay Nagar, Ghaziabad - UPPCB",21-11-2025 07:00:00,28.685382,77.453839,PM2.5,317,500,443
India,Uttar_Pradesh,Ghaziabad,"Sanjay Nagar, Ghaziabad - UPPCB",21-11-2025 07:00:00,28.685382,77.453839,NH3,2,18,10
India,Uttar_Pradesh,Ghaziabad,"Sanjay Nagar, Ghaziabad - UPPCB",21-11-2025 07:00:00,28.685382,77.453839,SO2,14,34,19
India,Uttar_Pradesh,Ghaziabad,"Vasundhara, Ghaziabad - UPPCB",21-11-2025 07:00:00,28.6603346,77.3572563,NH3,21,36,28
India,Uttar_Pradesh,Ghaziabad,"Vasundhara, Ghaziabad - UPPCB",21-11-2025 07:00:00,28.6603346,77.3572563,SO2,8,22,15
India,Uttar_Pradesh,Gorakhpur,"Madan Mohan Malaviya University of Technology, Gorakhpur - UPPCB",21-11-2025 07:00:00,26.730136,83.433859,NO2,11,12,11
India,Uttar_Pradesh,Gorakhpur,"Madan Mohan Malaviya University of Technology, Gorakhpur - UPPCB",21-11-2025 07:00:00,26.730136,83.433859,OZONE,NA,NA,NA
India,Uttar_Pradesh,Greater Noida,"Knowledge Park - III, Greater Noida - UPPCB",21-11-2025 07:00:00,28.47272,77.482000,PM10,153,447,314
India,Uttar_Pradesh,Greater Noida,"Knowledge Park - III, Greater Noida - UPPCB",21-11-2025 07:00:00,28.47272,77.482000,NO2,24,182,83
India,Uttar_Pradesh,Greater Noida,"Knowledge Park - III, Greater Noida - UPPCB",21-11-2025 07:00:00,28.47272,77.482000,NH3,9,23,14
India,Uttar_Pradesh,Greater Noida,"Knowledge Park - III, Greater Noida - UPPCB",21-11-2025 07:00:00,28.47272,77.482000,SO2,18,50,31
India,TamilNadu,Perundurai,"SIPCOT Industrial Park, Perundurai - TNPCB",21-11-2025 07:00:00,11.258242,77.552761,SO2,12,13,13
India,TamilNadu,Thoothukudi,"Meelavittan, Thoothukudi - TNPCB",21-11-2025 07:00:00,8.816428 ,78.099039,OZONE,1,9,2
India,TamilNadu,Virudhunagar,"Collectorate Office, Virudhunagar - TNPCB",21-11-2025 07:00:00,9.559382,77.948828,SO2,NA,NA,NA
India,Telangana,Hyderabad,"Bollaram Industrial Area, Hyderabad - TSPCB",21-11-2025 07:00:00,17.540891,78.358528,NO2,27,49,38
India,Telangana,Hyderabad,"Bollaram Industrial Area, Hyderabad - TSPCB",21-11-2025 07:00:00,17.540891,78.358528,NH3,3,6,5
India,Telangana,Hyderabad,"Bollaram Industrial Area, Hyderabad - TSPCB",21-11-2025 07:00:00,17.540891,78.358528,OZONE,43,58,46
India,Telangana,Hyderabad,"Central University, Hyderabad - TSPCB",21-11-2025 07:00:00,17.460103,78.334361,SO2,6,15,9
India,Telangana,Hyderabad,"Central University, Hyderabad - TSPCB",21-11-2025 07:00:00,17.460103,78.334361,OZONE,8,25,9
India,Uttar_Pradesh,Bulandshahr,"Yamunapuram, Bulandshahr - UPPCB",21-11-2025 07:00:00,28.406963,77.849831,NH3,14,18,15
India,Uttar_Pradesh,Firozabad,"Nagla Bhau, Firozabad - UPPCB",21-11-2025 07:00:00,27.168897,78.376960,PM10,47,119,90
India,Uttar_Pradesh,Firozabad,"Nagla Bhau, Firozabad - UPPCB",21-11-2025 07:00:00,27.168897,78.376960,NO2,NA,NA,NA
India,Uttar_Pradesh,Firozabad,"Nagla Bhau, Firozabad - UPPCB",21-11-2025 07:00:00,27.168897,78.376960,CO,18,28,25
India,Uttar_Pradesh,Firozabad,"Vibhab Nagar, Firozabad - UPPCB",21-11-2025 07:00:00,27.1594,78.3953,PM2.5,65,314,169
India,Uttar_Pradesh,Firozabad,"Vibhab Nagar, Firozabad - UPPCB",21-11-2025 07:00:00,27.1594,78.3953,PM10,51,153,99
India,Uttar_Pradesh,Firozabad,"Vibhab Nagar, Firozabad - UPPCB",21-11-2025 07:00:00,27.1594,78.3953,CO,7,46,39
India,Uttar_Pradesh,Ghaziabad,"Indirapuram, Ghaziabad - UPPCB",21-11-2025 07:00:00,28.646233,77.358075,PM2.5,219,448,370
India,Uttar_Pradesh,Ghaziabad,"Indirapuram, Ghaziabad - UPPCB",21-11-2025 07:00:00,28.646233,77.358075,OZONE,6,93,16
India,Telangana,Hyderabad,"Ramachandrapuram, Hyderabad - TSPCB",21-11-2025 07:00:00,17.528544,78.286195,PM2.5,35,48,41
India,Telangana,Hyderabad,"Sanathnagar, Hyderabad - TSPCB",21-11-2025 07:00:00,17.4559458,78.4332152,NO2,26,29,28
India,Telangana,Hyderabad,"Sanathnagar, Hyderabad - TSPCB",21-11-2025 07:00:00,17.4559458,78.4332152,OZONE,13,16,14
India,Telangana,Hyderabad,"Somajiguda, Hyderabad - TSPCB",21-11-2025 07:00:00,17.417094,78.457437,NO2,13,18,15
India,Telangana,Hyderabad,"Somajiguda, Hyderabad - TSPCB",21-11-2025 07:00:00,17.417094,78.457437,CO,20,56,27
India,Tripura,Agartala,"Bardowali, Agartala - Tripura SPCB",21-11-2025 07:00:00,23.8175497,91.2726974,NH3,2,3,2
India,Uttar_Pradesh,Agra,"Manoharpur, Agra - UPPCB",21-11-2025 07:00:00,27.23711,78.01936,NO2,26,27,26
India,Uttar_Pradesh,Agra,"Sanjay Palace, Agra - UPPCB",21-11-2025 07:00:00,27.19865833,78.00598056,PM10,67,218,148
India,Uttar_Pradesh,Agra,"Sector-3B Avas Vikas Colony, Agra - UPPCB",21-11-2025 07:00:00,27.19412,77.96237,OZONE,6,93,16
India,Uttar_Pradesh,Agra,"Shahjahan Garden, Agra - UPPCB",21-11-2025 07:00:00,27.169338,78.03582,PM2.5,45,216,112
India,Uttar_Pradesh,Agra,"Shahjahan Garden, Agra - UPPCB",21-11-2025 07:00:00,27.169338,78.03582,NO2,20,23,20
India,Uttar_Pradesh,Agra,"Shahjahan Garden, Agra - UPPCB",21-11-2025 07:00:00,27.169338,78.03582,SO2,17,28,24
India,Telangana,Hyderabad,"Kokapet, Hyderabad - TSPCB",21-11-2025 07:00:00,17.393559,78.339194,PM10,111,130,121
India,Telangana,Hyderabad,"Kokapet, Hyderabad - TSPCB",21-11-2025 07:00:00,17.393559,78.339194,NO2,11,15,13
India,Telangana,Hyderabad,"Nacharam_TSIIC IALA, Hyderabad - TSPCB",21-11-2025 07:00:00,17.429398,78.569354,PM10,74,97,80
India,Telangana,Hyderabad,"Nacharam_TSIIC IALA, Hyderabad - TSPCB",21-11-2025 07:00:00,17.429398,78.569354,NH3,2,5,4
India,Telangana,Hyderabad,"Nacharam_TSIIC IALA, Hyderabad - TSPCB",21-11-2025 07:00:00,17.429398,78.569354,OZONE,16,36,21
India,Telangana,Hyderabad,"New Malakpet, Hyderabad - TSPCB",21-11-2025 07:00:00,17.37206,78.50864,NH3,2,4,3
India,Telangana,Hyderabad,"New Malakpet, Hyderabad - TSPCB",21-11-2025 07:00:00,17.37206,78.50864,CO,20,42,31
India,Uttar_Pradesh,Agra,"Shahjahan Garden, Agra - UPPCB",21-11-2025 07:00:00,27.169338,78.03582,OZONE,1,7,2
India,Uttar_Pradesh,Agra,"Shastripuram, Agra - UPPCB",21-11-2025 07:00:00,27.19862,77.92066,SO2,13,24,18
India,Uttar_Pradesh,Baghpat,"Sardar Patel Inter College, Baghpat - UPPCB",21-11-2025 07:00:00,28.964949,77.278761,NO2,39,98,68
India,Uttar_Pradesh,Baghpat,"Sardar Patel Inter College, Baghpat - UPPCB",21-11-2025 07:00:00,28.964949,77.278761,OZONE,3,89,15
India,Uttar_Pradesh,Bareilly,"Civil Lines, Bareilly - UPPCB",21-11-2025 07:00:00,28.359581,79.414455,PM10,44,85,65
India,Telangana,Hyderabad,"ICRISAT Patancheru, Hyderabad - TSPCB",21-11-2025 07:00:00,17.518400,78.278777,SO2,5,65,17
India,Telangana,Hyderabad,"ICRISAT Patancheru, Hyderabad - TSPCB",21-11-2025 07:00:00,17.518400,78.278777,CO,18,56,34
India,Telangana,Hyderabad,"IDA Pashamylaram, Hyderabad - TSPCB",21-11-2025 07:00:00,17.5316895,78.218939,PM2.5,NA,NA,NA
India,Telangana,Hyderabad,"IDA Pashamylaram, Hyderabad - TSPCB",21-11-2025 07:00:00,17.5316895,78.218939,SO2,NA,NA,NA
India,Telangana,Hyderabad,"IDA Pashamylaram, Hyderabad - TSPCB",21-11-2025 07:00:00,17.5316895,78.218939,OZONE,7,19,8
India,Telangana,Hyderabad,"IITH Kandi, Hyderabad - TSPCB",21-11-2025 07:00:00,17.585705,78.126199,NH3,NA,NA,NA
India,Uttar_Pradesh,Hapur,"Anand Vihar, Hapur - UPPCB",21-11-2025 07:00:00,28.725645,77.749675,PM2.5,319,486,418
India,Uttar_Pradesh,Hapur,"Anand Vihar, Hapur - UPPCB",21-11-2025 07:00:00,28.725645,77.749675,PM10,184,464,353
India,Uttar_Pradesh,Hapur,"Anand Vihar, Hapur - UPPCB",21-11-2025 07:00:00,28.725645,77.749675,SO2,9,59,28
India,Uttar_Pradesh,Hapur,"Anand Vihar, Hapur - UPPCB",21-11-2025 07:00:00,28.725645,77.749675,OZONE,11,207,12
India,Uttar_Pradesh,Kanpur,"FTI Kidwai Nagar, Kanpur - UPPCB",21-11-2025 07:00:00,26.428282,80.327067,SO2,32,42,38
India,Uttar_Pradesh,Kanpur,"FTI Kidwai Nagar, Kanpur - UPPCB",21-11-2025 07:00:00,26.428282,80.327067,OZONE,20,24,21
India,Uttar_Pradesh,Moradabad,"Transport Nagar, Moradabad - UPPCB",21-11-2025 07:00:00,28.802625,78.753728,OZONE,25,47,26
India,Uttar_Pradesh,Muzaffarnagar,"New Mandi, Muzaffarnagar - UPPCB",21-11-2025 07:00:00,29.4723508,77.7194031,NH3,11,20,15
India,Uttar_Pradesh,Muzaffarnagar,"New Mandi, Muzaffarnagar - UPPCB",21-11-2025 07:00:00,29.4723508,77.7194031,CO,18,120,56
India,Uttar_Pradesh,Noida,"Sector - 125, Noida - UPPCB",21-11-2025 07:00:00,28.5447608,77.3231257,PM2.5,310,500,438
India,Uttar_Pradesh,Noida,"Sector - 125, Noida - UPPCB",21-11-2025 07:00:00,28.5447608,77.3231257,NO2,16,185,63
India,Uttar_Pradesh,Noida,"Sector - 62, Noida - IMD",21-11-2025 07:00:00,28.6245479,77.3577104,PM2.5,196,413,334
India,Uttar_Pradesh,Noida,"Sector - 62, Noida - IMD",21-11-2025 07:00:00,28.6245479,77.3577104,PM10,155,415,277
India,Uttar_Pradesh,Noida,"Sector - 62, Noida - IMD",21-11-2025 07:00:00,28.6245479,77.3577104,OZONE,14,169,35
India,West_Bengal,Asansol,"Asansol Court Area, Asansol - WBPCB",21-11-2025 07:00:00,23.685297,86.945968,CO,22,80,66
India,West_Bengal,Asansol,"Mahabir Colliery, Asansol - WBPCB",21-11-2025 07:00:00,23.6181830,87.1057180,NH3,NA,NA,NA
India,West_Bengal,Asansol,"Mahabir Colliery, Asansol - WBPCB",21-11-2025 07:00:00,23.6181830,87.1057180,CO,NA,NA,NA
India,West_Bengal,Asansol,"Trivenidevi Bhalotia College, Asansol - WBPCB",21-11-2025 07:00:00,23.616515,87.119133,SO2,2,6,4
India,West_Bengal,Asansol,"Trivenidevi Bhalotia College, Asansol - WBPCB",21-11-2025 07:00:00,23.616515,87.119133,CO,8,97,64
India,West_Bengal,Asansol,"Trivenidevi Bhalotia College, Asansol - WBPCB",21-11-2025 07:00:00,23.616515,87.119133,OZONE,9,64,11
India,West_Bengal,Barrackpore,"SVSPA Campus, Barrackpore - WBPCB",21-11-2025 07:00:00,22.7605581,88.3617589,PM10,62,168,113
India,West_Bengal,Barrackpore,"SVSPA Campus, Barrackpore - WBPCB",21-11-2025 07:00:00,22.7605581,88.3617589,NO2,11,38,21
India,Uttar_Pradesh,Prayagraj,"Motilal Nehru NIT, Prayagraj - UPPCB",21-11-2025 07:00:00,25.494,81.863,SO2,10,39,31
India,Uttar_Pradesh,Prayagraj,"Motilal Nehru NIT, Prayagraj - UPPCB",21-11-2025 07:00:00,25.494,81.863,CO,20,84,58
India,Uttar_Pradesh,Prayagraj,"Nagar Nigam, Prayagraj - UPPCB",21-11-2025 07:00:00,25.44919916 ,81.82735986 ,SO2,55,92,74
India,Uttar_Pradesh,Prayagraj,"Nagar Nigam, Prayagraj - UPPCB",21-11-2025 07:00:00,25.44919916 ,81.82735986 ,CO,34,101,68
India,Uttar_Pradesh,Prayagraj,"Nagar Nigam, Prayagraj - UPPCB",21-11-2025 07:00:00,25.44919916 ,81.82735986 ,OZONE,11,27,19
India,Uttar_Pradesh,Varanasi,"Ardhali Bazar, Varanasi - UPPCB",21-11-2025 07:00:00,25.3505986,82.9083074,PM2.5,36,158,92
India,Uttar_Pradesh,Varanasi,"Bhelupur, Varanasi - UPPCB",21-11-2025 07:00:00,25.301778,82.996789,PM2.5,46,304,145
India,Uttar_Pradesh,Varanasi,"Bhelupur, Varanasi - UPPCB",21-11-2025 07:00:00,25.301778,82.996789,NH3,1,1,1
India,Uttar_Pradesh,Varanasi,"IESD Banaras Hindu University, Varanasi - UPPCB",21-11-2025 07:00:00,25.262326,82.995408,SO2,28,36,31
India,Uttar_Pradesh,Vrindavan,"Omex Eternity, Vrindavan - UPPCB",21-11-2025 07:00:00,27.5714090,77.6557570,SO2,3,24,12
India,Uttarakhand,Kashipur,"Govt. Girls Inter College, Kashipur - UKPCB",21-11-2025 07:00:00,29.2124114,78.9611753,PM2.5,NA,NA,NA
India,Uttarakhand,Kashipur,"Govt. Girls Inter College, Kashipur - UKPCB",21-11-2025 07:00:00,29.2124114,78.9611753,OZONE,1,20,1
India,Uttarakhand,Rishikesh,"Shivaji Nagar, Rishikesh - UKPCB",21-11-2025 07:00:00,30.075911,78.2859547,PM10,48,88,68
India,Uttarakhand,Rishikesh,"Shivaji Nagar, Rishikesh - UKPCB",21-11-2025 07:00:00,30.075911,78.2859547,NH3,5,8,6
India,Uttar_Pradesh,Kanpur,"Nehru Nagar, Kanpur - UPPCB",21-11-2025 07:00:00,26.4703136,80.3229863,NO2,21,48,32
India,Uttar_Pradesh,Kanpur,"Nehru Nagar, Kanpur - UPPCB",21-11-2025 07:00:00,26.4703136,80.3229863,SO2,2,18,8
India,Uttar_Pradesh,Kanpur,"Nehru Nagar, Kanpur - UPPCB",21-11-2025 07:00:00,26.4703136,80.3229863,OZONE,6,37,6
India,Uttar_Pradesh,Khurja,"Kalindi Kunj, Khurja - UPPCB",21-11-2025 07:00:00,28.2348927,77.8683002,SO2,14,15,14
India,Uttar_Pradesh,Khurja,"Kalindi Kunj, Khurja - UPPCB",21-11-2025 07:00:00,28.2348927,77.8683002,CO,30,90,69
India,Uttar_Pradesh,Lucknow,"B R Ambedkar University, Lucknow - UPPCB",21-11-2025 07:00:00,26.766433,80.927299,PM10,102,239,168
India,Uttar_Pradesh,Lucknow,"B R Ambedkar University, Lucknow - UPPCB",21-11-2025 07:00:00,26.766433,80.927299,SO2,24,25,24
India,Uttar_Pradesh,Lucknow,"B R Ambedkar University, Lucknow - UPPCB",21-11-2025 07:00:00,26.766433,80.927299,CO,54,60,60
India,Uttar_Pradesh,Lucknow,"Kendriya Vidyalaya, Lucknow - CPCB",21-11-2025 07:00:00,26.906111,80.948222,OZONE,10,77,14
India,Uttar_Pradesh,Lucknow,"Kukrail Picnic Spot-1, Lucknow - UPPCB",21-11-2025 07:00:00,26.90723,80.98579,NO2,31,32,32
India,Uttar_Pradesh,Lucknow,"Kukrail Picnic Spot-1, Lucknow - UPPCB",21-11-2025 07:00:00,26.90723,80.98579,SO2,41,47,42
India,Uttar_Pradesh,Lucknow,"Lalbagh, Lucknow - CPCB",21-11-2025 07:00:00,26.8458805,80.9365541,NO2,30,38,33
India,Uttar_Pradesh,Lucknow,"Talkatora District Industries Center, Lucknow - CPCB",21-11-2025 07:00:00,26.83399722,80.8917361,NO2,21,52,43
India,Uttar_Pradesh,Lucknow,"Talkatora District Industries Center, Lucknow - CPCB",21-11-2025 07:00:00,26.83399722,80.8917361,NH3,4,12,8
India,Uttar_Pradesh,Lucknow,"Talkatora District Industries Center, Lucknow - CPCB",21-11-2025 07:00:00,26.83399722,80.8917361,SO2,2,23,8
India,Uttar_Pradesh,Meerut,"Ganga Nagar, Meerut - UPPCB",21-11-2025 07:00:00,28.999264,77.7590354,CO,1,136,94
India,Uttar_Pradesh,Meerut,"Pallavpuram Phase 2, Meerut - UPPCB",21-11-2025 07:00:00,29.063510,77.709723,PM2.5,368,481,426
India,Uttar_Pradesh,Moradabad,"Buddhi Vihar, Moradabad - UPPCB",21-11-2025 07:00:00,28.83526,78.74460,PM2.5,69,260,129
India,Uttar_Pradesh,Moradabad,"Buddhi Vihar, Moradabad - UPPCB",21-11-2025 07:00:00,28.83526,78.74460,NO2,29,29,29
India,Uttar_Pradesh,Noida,"Sector-1, Noida - UPPCB",21-11-2025 07:00:00,28.5898,77.3101,NH3,18,40,25
India,Uttar_Pradesh,Noida,"Sector-1, Noida - UPPCB",21-11-2025 07:00:00,28.5898,77.3101,OZONE,4,132,7
India,Uttar_Pradesh,Noida,"Sector-116, Noida - UPPCB",21-11-2025 07:00:00,28.569230,77.393848,NH3,5,25,17
India,Uttar_Pradesh,Prayagraj,"Jhunsi, Prayagraj - UPPCB",21-11-2025 07:00:00,25.425602,81.917152,OZONE,15,27,16
India,Uttar_Pradesh,Moradabad,"Jigar Colony, Moradabad - UPPCB",21-11-2025 07:00:00,28.856664,78.772638,NH3,6,9,6
India,West_Bengal,Durgapur,"Mahishkapur Road_B-Zone, Durgapur - WBPCB",21-11-2025 07:00:00,23.567923,87.306843,PM10,57,167,116
India,West_Bengal,Durgapur,"Mahishkapur Road_B-Zone, Durgapur - WBPCB",21-11-2025 07:00:00,23.567923,87.306843,NH3,1,2,2
India,West_Bengal,Durgapur,"Mahishkapur Road_B-Zone, Durgapur - WBPCB",21-11-2025 07:00:00,23.567923,87.306843,SO2,13,29,16
India,West_Bengal,Durgapur,"Mahishkapur Road_B-Zone, Durgapur - WBPCB",21-11-2025 07:00:00,23.567923,87.306843,CO,30,90,60
India,West_Bengal,Durgapur,"PCBL Residential Complex, Durgapur - WBPCB",21-11-2025 07:00:00,23.5087640,87.3544400,NO2,13,29,22
India,West_Bengal,Durgapur,"PCBL Residential Complex, Durgapur - WBPCB",21-11-2025 07:00:00,23.5087640,87.3544400,CO,42,96,68
India,West_Bengal,Durgapur,"Womens College_City Center, Durgapur - WBPCB (Formerly known as Sidhu Kanhu Indoor Stadium)",21-11-2025 07:00:00,23.549395,87.300496,PM10,53,162,115
India,West_Bengal,Haldia,"Priyambada Housing Estate, Haldia - WBPCB",21-11-2025 07:00:00,22.06047,88.109737,NH3,2,4,3
India,West_Bengal,Howrah,"Belur Math, Howrah - WBPCB",21-11-2025 07:00:00,22.629801,88.352017,NH3,7,13,10
India,West_Bengal,Howrah,"Belur Math, Howrah - WBPCB",21-11-2025 07:00:00,22.629801,88.352017,CO,20,100,67
India,West_Bengal,Howrah,"Botanical Garden, Howrah - WBPCB",21-11-2025 07:00:00,22.554954,88.292568,CO,12,95,86
India,West_Bengal,Howrah,"Dasnagar, Howrah - WBPCB",21-11-2025 07:00:00,22.6025571,88.3105664,PM2.5,55,310,167
India,West_Bengal,Howrah,"Dasnagar, Howrah - WBPCB",21-11-2025 07:00:00,22.6025571,88.3105664,PM10,61,186,128
India,West_Bengal,Howrah,"Ghusuri, Howrah - WBPCB",21-11-2025 07:00:00,22.611968,88.347422,NH3,7,15,11
India,West_Bengal,Howrah,"Padmapukur, Howrah - WBPCB",21-11-2025 07:00:00,22.5687319,88.2797276,PM10,110,420,204
India,West_Bengal,Howrah,"Padmapukur, Howrah - WBPCB",21-11-2025 07:00:00,22.5687319,88.2797276,NO2,15,51,30
India,West_Bengal,Howrah,"Padmapukur, Howrah - WBPCB",21-11-2025 07:00:00,22.5687319,88.2797276,NH3,3,11,7
India,West_Bengal,Kolkata,"Ballygunge, Kolkata - WBPCB",21-11-2025 07:00:00,22.5367507,88.3638022,PM2.5,71,296,174
India,West_Bengal,Kolkata,"Ballygunge, Kolkata - WBPCB",21-11-2025 07:00:00,22.5367507,88.3638022,SO2,8,27,18
India,West_Bengal,Kolkata,"Bidhannagar, Kolkata - WBPCB",21-11-2025 07:00:00,22.58157048,88.41002457,NO2,10,33,19
India,West_Bengal,Kolkata,"Bidhannagar, Kolkata - WBPCB",21-11-2025 07:00:00,22.58157048,88.41002457,CO,53,106,100
India,West_Bengal,Kolkata,"Fort William, Kolkata - WBPCB",21-11-2025 07:00:00,22.556640,88.342674,PM2.5,80,326,209
India,West_Bengal,Kolkata,"Fort William, Kolkata - WBPCB",21-11-2025 07:00:00,22.556640,88.342674,NH3,9,11,10
India,West_Bengal,Kolkata,"Jadavpur, Kolkata - WBPCB",21-11-2025 07:00:00,22.49929,88.36917,NO2,33,105,67
India,West_Bengal,Kolkata,"Rabindra Bharati University, Kolkata - WBPCB",21-11-2025 07:00:00,22.627847,88.380669,NH3,12,13,12
India,West_Bengal,Kolkata,"Rabindra Bharati University, Kolkata - WBPCB",21-11-2025 07:00:00,22.627847,88.380669,OZONE,6,92,6
India,West_Bengal,Kolkata,"Rabindra Sarobar, Kolkata - WBPCB",21-11-2025 07:00:00,22.51106,88.35142,NO2,38,228,142
India,West_Bengal,Kolkata,"Rabindra Sarobar, Kolkata - WBPCB",21-11-2025 07:00:00,22.51106,88.35142,SO2,6,40,16
India,West_Bengal,Kolkata,"Victoria, Kolkata - WBPCB",21-11-2025 07:00:00,22.5448082,88.3403691,CO,19,80,68
India,West_Bengal,Siliguri,"Ward-32 Bapupara, Siliguri - WBPCB",21-11-2025 07:00:00,26.6879226,88.4152495,PM10,34,182,78
India,Bihar,Araria,"Kharahiya Basti, Araria - BSPCB",21-11-2025 07:00:00,26.146529,87.454184,NO2,1,39,14
India,Bihar,Arrah,"New DM Office, Arrah - BSPCB",21-11-2025 07:00:00,25.5626095,84.663264,NH3,1,1,1
India,Bihar,Arrah,"New DM Office, Arrah - BSPCB",21-11-2025 07:00:00,25.5626095,84.663264,OZONE,4,14,8
India,Bihar,Aurangabad,"Gurdeo Nagar, Aurangabad - BSPCB",21-11-2025 07:00:00,24.75746,84.366208,NH3,1,2,2
India,Bihar,Aurangabad,"Gurdeo Nagar, Aurangabad - BSPCB",21-11-2025 07:00:00,24.75746,84.366208,SO2,1,18,9
India,Bihar,Begusarai,"Lohiyanagar, Begusarai - BSPCB",21-11-2025 07:00:00,25.42742023,86.13886079,PM2.5,23,305,102
India,Bihar,Begusarai,"Lohiyanagar, Begusarai - BSPCB",21-11-2025 07:00:00,25.42742023,86.13886079,PM10,27,197,91
India,Bihar,Begusarai,"Lohiyanagar, Begusarai - BSPCB",21-11-2025 07:00:00,25.42742023,86.13886079,OZONE,11,120,14
India,Bihar,Bettiah,"Kamalnath Nagar, Bettiah - BSPCB",21-11-2025 07:00:00,26.80365,84.51954,PM2.5,20,177,68
India,Andhra_Pradesh,Tirumala,"Toll Gate, Tirumala - APPCB",21-11-2025 07:00:00,13.67,79.35,PM10,9,80,55
India,Andhra_Pradesh,Tirumala,"Toll Gate, Tirumala - APPCB",21-11-2025 07:00:00,13.67,79.35,OZONE,7,336,148
India,Andhra_Pradesh,Tirupati,"Vaikuntapuram, Tirupati - APPCB",21-11-2025 07:00:00,13.615387,79.409230,PM10,41,149,103
India,Andhra_Pradesh,Tirupati,"Vaikuntapuram, Tirupati - APPCB",21-11-2025 07:00:00,13.615387,79.409230,SO2,9,19,15
India,Andhra_Pradesh,Vijayawada,"HB Colony, Vijayawada - APPCB",21-11-2025 07:00:00,16.536107,80.594233,NO2,19,24,21
India,Andhra_Pradesh,Vijayawada,"Rajiv Gandhi Park, Vijayawada - APPCB",21-11-2025 07:00:00,16.509717,80.612222,OZONE,8,48,14
India,Andhra_Pradesh,Vijayawada,"Rajiv Nagar, Vijayawada - APPCB",21-11-2025 07:00:00,16.554731,80.649110,NO2,10,12,10
India,Andhra_Pradesh,Chittoor,"Gangineni Cheruvu, Chittoor - APPCB",21-11-2025 07:00:00,13.204880,79.097889,NH3,5,6,6
India,Andhra_Pradesh,Kadapa,"Yerramukkapalli, Kadapa - APPCB",21-11-2025 07:00:00,14.465052,78.824187,PM2.5,45,58,53
India,Andhra_Pradesh,Kadapa,"Yerramukkapalli, Kadapa - APPCB",21-11-2025 07:00:00,14.465052,78.824187,NO2,17,24,23
India,Andhra_Pradesh,Kadapa,"Yerramukkapalli, Kadapa - APPCB",21-11-2025 07:00:00,14.465052,78.824187,CO,25,48,37
India,Andhra_Pradesh,Rajamahendravaram,"Anand Kala Kshetram, Rajamahendravaram - APPCB",21-11-2025 07:00:00,16.9872867,81.7363176,NO2,16,53,25
India,Andhra_Pradesh,Rajamahendravaram,"Anand Kala Kshetram, Rajamahendravaram - APPCB",21-11-2025 07:00:00,16.9872867,81.7363176,SO2,5,27,13
India,Andhra_Pradesh,Rajamahendravaram,"Anand Kala Kshetram, Rajamahendravaram - APPCB",21-11-2025 07:00:00,16.9872867,81.7363176,CO,22,36,26
India,Assam,Nagaon,"Christianpatty, Nagaon - PCBA",21-11-2025 07:00:00,26.349082,92.68449,NO2,1,9,1
India,Assam,Nagaon,"Christianpatty, Nagaon - PCBA",21-11-2025 07:00:00,26.349082,92.68449,SO2,9,14,12
India,Assam,Nalbari,"Bata Chowk, Nalbari - PCBA",21-11-2025 07:00:00,26.446912,91.439057,NO2,10,15,14
India,Assam,Nalbari,"Bata Chowk, Nalbari - PCBA",21-11-2025 07:00:00,26.446912,91.439057,SO2,4,8,8
India,Assam,Nalbari,"Bata Chowk, Nalbari - PCBA",21-11-2025 07:00:00,26.446912,91.439057,OZONE,10,21,20
India,Assam,Silchar,"Tarapur, Silchar - PCBA",21-11-2025 07:00:00,24.82827,92.79525,OZONE,1,10,1
India,Assam,Sivasagar,"Girls College, Sivasagar - PCBA",21-11-2025 07:00:00,26.987634,94.636574,NH3,5,19,11
India,Bihar,Bhagalpur,"DM Office_Kachari Chowk, Bhagalpur - BSPCB",21-11-2025 07:00:00,25.251013,86.989001,SO2,33,54,43
India,Bihar,Bhagalpur,"Mayaganj, Bhagalpur - BSPCB",21-11-2025 07:00:00,25.265194,87.012947,PM2.5,8,103,45
India,Bihar,Bhagalpur,"Mayaganj, Bhagalpur - BSPCB",21-11-2025 07:00:00,25.265194,87.012947,NO2,7,8,7
India,Bihar,Bhagalpur,"Mayaganj, Bhagalpur - BSPCB",21-11-2025 07:00:00,25.265194,87.012947,NH3,8,16,11
India,Bihar,Bhagalpur,"Mayaganj, Bhagalpur - BSPCB",21-11-2025 07:00:00,25.265194,87.012947,SO2,39,76,56
India,Bihar,Bihar Sharif,"D M Colony, Bihar Sharif - BSPCB",21-11-2025 07:00:00,25.204762,85.514960,PM2.5,52,263,144
India,Assam,Guwahati,"IITG, Guwahati - PCBA",21-11-2025 07:00:00,26.2028636,91.70046436,NH3,5,5,5
India,Assam,Guwahati,"IITG, Guwahati - PCBA",21-11-2025 07:00:00,26.2028636,91.70046436,SO2,23,25,24
India,Assam,Guwahati,"LGBI Airport, Guwahati - PCBA",21-11-2025 07:00:00,26.10887,91.589544,NH3,6,6,6
India,Assam,Guwahati,"Railway Colony, Guwahati - PCBA",21-11-2025 07:00:00,26.181742,91.78063,PM10,24,190,95
India,Bihar,Buxar,"Charitra Van, Buxar - BSPCB",21-11-2025 07:00:00,25.567520,83.966379,PM2.5,NA,NA,NA
India,Bihar,Buxar,"Charitra Van, Buxar - BSPCB",21-11-2025 07:00:00,25.567520,83.966379,OZONE,2,76,8
India,Bihar,Gaya,"Kareemganj, Gaya - BSPCB",21-11-2025 07:00:00,24.792403,84.992416,PM2.5,58,193,118
India,Bihar,Gaya,"Kareemganj, Gaya - BSPCB",21-11-2025 07:00:00,24.792403,84.992416,SO2,10,16,15
India,Bihar,Gaya,"SFTI Kusdihra, Gaya - BSPCB",21-11-2025 07:00:00,24.762518,84.982348,OZONE,12,50,14
India,Bihar,Kishanganj,"SDM Office_Khagra, Kishanganj - BSPCB",21-11-2025 07:00:00,26.0881305,87.93840336,PM10,NA,NA,NA
India,Andhra_Pradesh,Visakhapatnam,"GVM Corporation, Visakhapatnam - APPCB",21-11-2025 07:00:00,17.72,83.3,CO,NA,NA,NA
India,Andhra_Pradesh,Visakhapatnam,"GVM Corporation, Visakhapatnam - APPCB",21-11-2025 07:00:00,17.72,83.3,OZONE,NA,NA,NA
India,Andaman and Nicobar,Sri Vijaya Puram,"Police Line, Sri Vijaya Puram - ANPCC",21-11-2025 07:00:00,11.654054,92.734055,PM2.5,NA,NA,NA
India,Bihar,Sasaram,"Dada Peer, Sasaram - BSPCB",21-11-2025 07:00:00,24.952822,84.002396,SO2,NA,NA,NA
India,Bihar,Sasaram,"Dada Peer, Sasaram - BSPCB",21-11-2025 07:00:00,24.952822,84.002396,CO,50,54,51
India,Bihar,Siwan,"Chitragupta Nagar, Siwan - BSPCB",21-11-2025 07:00:00,26.2271665,84.3570427,PM2.5,17,92,61
India,Chandigarh,Chandigarh,"Sector 22, Chandigarh - CPCC",21-11-2025 07:00:00,30.735567,76.775714,PM2.5,60,305,151
India,Chandigarh,Chandigarh,"Sector 22, Chandigarh - CPCC",21-11-2025 07:00:00,30.735567,76.775714,NH3,4,24,19
India,Chandigarh,Chandigarh,"Sector 22, Chandigarh - CPCC",21-11-2025 07:00:00,30.735567,76.775714,SO2,6,44,17
India,Chandigarh,Chandigarh,"Sector-25, Chandigarh - CPCC",21-11-2025 07:00:00,30.751462,76.762879,PM2.5,64,293,153
India,Chandigarh,Chandigarh,"Sector-25, Chandigarh - CPCC",21-11-2025 07:00:00,30.751462,76.762879,NO2,17,49,32
India,Chandigarh,Chandigarh,"Sector-25, Chandigarh - CPCC",21-11-2025 07:00:00,30.751462,76.762879,SO2,7,11,9
India,Chandigarh,Chandigarh,"Sector-53, Chandigarh - CPCC",21-11-2025 07:00:00,30.719859,76.738637,NO2,56,114,99
India,Chhattisgarh,Raipur,"Siltara Phase-II, Raipur - CECB",21-11-2025 07:00:00,21.371751,81.664929,OZONE,3,8,3
India,Chhattisgarh,Tumidih,"OP Jindal Industrial Park, Tumidih - CECB",21-11-2025 07:00:00,22.06631475,83.33820077,CO,26,92,40
India,Delhi,Delhi,"Alipur, Delhi - DPCC",21-11-2025 07:00:00,28.815329,77.153010,PM2.5,328,446,377
India,Delhi,Delhi,"Alipur, Delhi - DPCC",21-11-2025 07:00:00,28.815329,77.153010,NO2,44,110,80
India,Delhi,Delhi,"Alipur, Delhi - DPCC",21-11-2025 07:00:00,28.815329,77.153010,NH3,18,21,19
India,Delhi,Delhi,"Alipur, Delhi - DPCC",21-11-2025 07:00:00,28.815329,77.153010,CO,54,110,103
India,Delhi,Delhi,"Anand Vihar, Delhi - DPCC",21-11-2025 07:00:00,28.647622,77.3158090,PM10,199,500,405
India,Chhattisgarh,Milupara,"Govt. Higher Secondary School, Milupara - CECB",21-11-2025 07:00:00,22.1910172,83.5197009,PM10,35,280,78
India,Chhattisgarh,Milupara,"Govt. Higher Secondary School, Milupara - CECB",21-11-2025 07:00:00,22.1910172,83.5197009,OZONE,5,118,11
India,Chhattisgarh,Raipur,"AIIMS, Raipur - CECB",21-11-2025 07:00:00,21.258815,81.578979,PM2.5,23,59,37
India,Chhattisgarh,Raipur,"AIIMS, Raipur - CECB",21-11-2025 07:00:00,21.258815,81.578979,NO2,63,77,71
India,Chhattisgarh,Raipur,"Bhatagaon New ISBT, Raipur - CECB",21-11-2025 07:00:00,21.219665,81.630094,PM2.5,32,91,64
India,Chhattisgarh,Raipur,"Bhatagaon New ISBT, Raipur - CECB",21-11-2025 07:00:00,21.219665,81.630094,PM10,42,143,91
India,Chhattisgarh,Raipur,"Krishak Nagar, Raipur - CECB",21-11-2025 07:00:00,21.237755,81.705301,PM10,21,86,47
India,Bihar,Purnia,"Mariam Nagar, Purnia - BSPCB",21-11-2025 07:00:00,25.366336,87.117468,CO,23,66,51
India,Bihar,Purnia,"Mariam Nagar, Purnia - BSPCB",21-11-2025 07:00:00,25.366336,87.117468,OZONE,19,33,22
India,Bihar,Rajgir,"Dangi Tola, Rajgir - BSPCB",21-11-2025 07:00:00,25.03280,85.41948,NH3,6,7,6
India,Bihar,Saharsa,"Police Line, Saharsa - BSPCB",21-11-2025 07:00:00,25.892357,86.590325,PM2.5,5,257,94
India,Bihar,Samastipur,"DM Office_Kasipur, Samastipur - BSPCB",21-11-2025 07:00:00,25.859655,85.77944,PM2.5,22,130,76
India,Bihar,Samastipur,"DM Office_Kasipur, Samastipur - BSPCB",21-11-2025 07:00:00,25.859655,85.77944,OZONE,7,9,8
India,Bihar,Patna,"IGSC Planetarium Complex, Patna - BSPCB",21-11-2025 07:00:00,25.610369,85.132568,SO2,4,26,21
India,Bihar,Patna,"IGSC Planetarium Complex, Patna - BSPCB",21-11-2025 07:00:00,25.610369,85.132568,OZONE,26,30,29
India,Bihar,Patna,"Rajbansi Nagar, Patna - BSPCB",21-11-2025 07:00:00,25.599486,85.113666,NO2,74,144,109
India,Bihar,Patna,"Rajbansi Nagar, Patna - BSPCB",21-11-2025 07:00:00,25.599486,85.113666,SO2,6,8,7
India,Bihar,Patna,"Rajbansi Nagar, Patna - BSPCB",21-11-2025 07:00:00,25.599486,85.113666,CO,22,105,54
India,Bihar,Patna,"Samanpura, Patna - BSPCB",21-11-2025 07:00:00,25.596727,85.085624,PM2.5,38,390,229
India,Bihar,Patna,"Samanpura, Patna - BSPCB",21-11-2025 07:00:00,25.596727,85.085624,SO2,2,2,2
India,Chhattisgarh,Bhilai,"32Bungalows, Bhilai - CECB",21-11-2025 07:00:00,21.194815,81.314770,NO2,20,102,53
India,Chhattisgarh,Bhilai,"Civic Center, Bhilai - Bhilai Steel Plant",21-11-2025 07:00:00,21.185571,81.343175,NO2,10,11,11
India,Chhattisgarh,Bhilai,"Hathkhoj, Bhilai - CECB",21-11-2025 07:00:00,21.224231,81.408350,OZONE,9,64,15
India,Chhattisgarh,Bilaspur,"Mangala, Bilaspur - NTPC",21-11-2025 07:00:00,22.08815,82.13737,CO,18,78,31
India,Bihar,Manguraha,"Forest Rest House, Manguraha - BSPCB",21-11-2025 07:00:00,27.308328,84.531742,OZONE,9,17,10
India,Bihar,Munger,"Town Hall, Munger - BSPCB",21-11-2025 07:00:00,25.376776,86.471523,PM2.5,43,293,111
India,Bihar,Munger,"Town Hall, Munger - BSPCB",21-11-2025 07:00:00,25.376776,86.471523,SO2,15,22,19
India,Bihar,Munger,"Town Hall, Munger - BSPCB",21-11-2025 07:00:00,25.376776,86.471523,CO,21,46,32
India,Bihar,Munger,"Town Hall, Munger - BSPCB",21-11-2025 07:00:00,25.376776,86.471523,OZONE,11,22,12
India,Bihar,Muzaffarpur,"MIT-Daudpur Kothi, Muzaffarpur - BSPCB",21-11-2025 07:00:00,26.1403345,85.3650192,SO2,11,31,15
India,Bihar,Patna,"DRM Office Danapur, Patna - BSPCB",21-11-2025 07:00:00,25.586562,85.043586,NO2,29,80,50
India,Bihar,Patna,"Govt. High School Shikarpur, Patna - BSPCB",21-11-2025 07:00:00,25.592539,85.227158,CO,NA,NA,NA
India,Chhattisgarh,Korba,"Rampur, Korba - CECB",21-11-2025 07:00:00,22.368195,82.746431,PM2.5,36,58,49
India,Chhattisgarh,Korba,"Rampur, Korba - CECB",21-11-2025 07:00:00,22.368195,82.746431,NO2,11,32,19
India,Delhi,Delhi,"R K Puram, Delhi - DPCC",21-11-2025 07:00:00,28.563262,77.186937,NO2,18,154,68
India,Delhi,Delhi,"Rohini, Delhi - DPCC",21-11-2025 07:00:00,28.732528,77.119920,PM10,252,482,413
India,Delhi,Delhi,"Rohini, Delhi - DPCC",21-11-2025 07:00:00,28.732528,77.119920,NH3,18,30,23
India,Delhi,Delhi,"Rohini, Delhi - DPCC",21-11-2025 07:00:00,28.732528,77.119920,SO2,1,12,5
India,Delhi,Delhi,"Shadipur, Delhi - CPCB",21-11-2025 07:00:00,28.6514781,77.1473105,PM10,191,356,286
India,Delhi,Delhi,"Sirifort, Delhi - CPCB",21-11-2025 07:00:00,28.5504249,77.2159377,NO2,40,66,53
India,Delhi,Delhi,"Sirifort, Delhi - CPCB",21-11-2025 07:00:00,28.5504249,77.2159377,NH3,7,12,10
India,Delhi,Delhi,"Sirifort, Delhi - CPCB",21-11-2025 07:00:00,28.5504249,77.2159377,CO,57,158,148
India,Delhi,Delhi,"Sonia Vihar, Delhi - DPCC",21-11-2025 07:00:00,28.710508,77.249485,NH3,7,9,8
India,Delhi,Delhi,"Sonia Vihar, Delhi - DPCC",21-11-2025 07:00:00,28.710508,77.249485,SO2,7,22,12
India,Delhi,Delhi,"Dwarka-Sector 8, Delhi - DPCC ",21-11-2025 07:00:00,28.5710274,77.0719006,PM10,178,421,297
India,Delhi,Delhi,"Dwarka-Sector 8, Delhi - DPCC ",21-11-2025 07:00:00,28.5710274,77.0719006,CO,62,185,127
India,Delhi,Delhi,"IGI Airport (T3), Delhi - IMD",21-11-2025 07:00:00,28.5627763,77.1180053,PM10,160,440,307
India,Delhi,Delhi,"IGI Airport (T3), Delhi - IMD",21-11-2025 07:00:00,28.5627763,77.1180053,OZONE,1,5,4
India,Delhi,Delhi,"IHBAS, Dilshad Garden, Delhi - CPCB",21-11-2025 07:00:00,28.6811736,77.3025234,CO,48,104,85
India,Delhi,Delhi,"ITO, Delhi - CPCB",21-11-2025 07:00:00,28.628624,77.241060,PM2.5,324,452,381
India,Delhi,Delhi,"ITO, Delhi - CPCB",21-11-2025 07:00:00,28.628624,77.241060,SO2,17,30,23
India,Delhi,Delhi,"Vivek Vihar, Delhi - DPCC",21-11-2025 07:00:00,28.672342,77.315260,PM2.5,322,491,414
India,Delhi,Delhi,"Vivek Vihar, Delhi - DPCC",21-11-2025 07:00:00,28.672342,77.315260,OZONE,3,35,5
India,Delhi,Delhi,"Wazirpur, Delhi - DPCC",21-11-2025 07:00:00,28.699793,77.165453,PM2.5,315,500,438
India,Delhi,Delhi,"Wazirpur, Delhi - DPCC",21-11-2025 07:00:00,28.699793,77.165453,PM10,254,500,442
India,Delhi,Delhi,"Wazirpur, Delhi - DPCC",21-11-2025 07:00:00,28.699793,77.165453,NH3,13,19,16
India,Delhi,Delhi,"Wazirpur, Delhi - DPCC",21-11-2025 07:00:00,28.699793,77.165453,OZONE,3,198,7
India,Gujarat,Ahmedabad,"Chandkheda, Ahmedabad - IITM",21-11-2025 07:00:00,23.107969,72.574648,SO2,8,20,14
India,Gujarat,Ahmedabad,"Chandkheda, Ahmedabad - IITM",21-11-2025 07:00:00,23.107969,72.574648,OZONE,19,106,61
India,Delhi,Delhi,"Najafgarh, Delhi - DPCC",21-11-2025 07:00:00,28.570173,76.933762,CO,56,123,116
India,Delhi,Delhi,"Narela, Delhi - DPCC",21-11-2025 07:00:00,28.822836,77.101981,PM10,182,447,362
India,Delhi,Delhi,"Nehru Nagar, Delhi - DPCC",21-11-2025 07:00:00,28.567890,77.250515,PM10,168,449,344
India,Delhi,Delhi,"North Campus, DU, Delhi - IMD",21-11-2025 07:00:00,28.6573814,77.1585447,PM10,183,500,330
India,Delhi,Delhi,"North Campus, DU, Delhi - IMD",21-11-2025 07:00:00,28.6573814,77.1585447,OZONE,18,328,29
India,Delhi,Delhi,"Okhla Phase-2, Delhi - DPCC",21-11-2025 07:00:00,28.530785,77.271255,NH3,14,78,42
India,Delhi,Delhi,"Jawaharlal Nehru Stadium, Delhi - DPCC",21-11-2025 07:00:00,28.580280,77.233829,NH3,5,6,5
India,Delhi,Delhi,"Jawaharlal Nehru Stadium, Delhi - DPCC",21-11-2025 07:00:00,28.580280,77.233829,SO2,15,48,24
India,Delhi,Delhi,"Lodhi Road, Delhi - IMD",21-11-2025 07:00:00,28.5918245,77.2273074,NO2,1,107,35
India,Delhi,Delhi,"Lodhi Road, Delhi - IMD",21-11-2025 07:00:00,28.5918245,77.2273074,CO,53,111,110
India,Delhi,Delhi,"Major Dhyan Chand National Stadium, Delhi - DPCC",21-11-2025 07:00:00,28.611281,77.237738,PM10,165,426,287
India,Delhi,Delhi,"Okhla Phase-2, Delhi - DPCC",21-11-2025 07:00:00,28.530785,77.271255,SO2,17,34,22
India,Delhi,Delhi,"Patparganj, Delhi - DPCC",21-11-2025 07:00:00,28.623763,77.287209,PM10,197,448,347
India,Delhi,Delhi,"Punjabi Bagh, Delhi - DPCC",21-11-2025 07:00:00,28.674045,77.131023,PM10,177,444,331
India,Delhi,Delhi,"Pusa, Delhi - DPCC",21-11-2025 07:00:00,28.639652,77.146275,SO2,3,17,8
India,Delhi,Delhi,"Pusa, Delhi - IMD",21-11-2025 07:00:00,28.636110,77.173332,OZONE,1,180,9
India,Delhi,Delhi,"Mandir Marg, Delhi - DPCC",21-11-2025 07:00:00,28.636429,77.201067,SO2,77,118,98
India,Delhi,Delhi,"Mundka, Delhi - DPCC",21-11-2025 07:00:00,28.684678,77.076574,CO,8,158,139
India,Delhi,Delhi,"NSIT Dwarka, Delhi - CPCB",21-11-2025 07:00:00,28.60909,77.0325413,NO2,56,88,76
India,Delhi,Delhi,"NSIT Dwarka, Delhi - CPCB",21-11-2025 07:00:00,28.60909,77.0325413,SO2,11,19,14
India,Delhi,Delhi,"CRRI Mathura Road, Delhi - IMD",21-11-2025 07:00:00,28.5512005,77.2735737,CO,42,146,140
India,Delhi,Delhi,"Dr. Karni Singh Shooting Range, Delhi - DPCC",21-11-2025 07:00:00,28.498571,77.264840,PM10,159,403,249
India,Delhi,Delhi,"Dr. Karni Singh Shooting Range, Delhi - DPCC",21-11-2025 07:00:00,28.498571,77.264840,CO,36,102,75
India,Delhi,Delhi,"Ashok Vihar, Delhi - DPCC",21-11-2025 07:00:00,28.695381,77.181665,PM2.5,303,493,412
India,Delhi,Delhi,"Ashok Vihar, Delhi - DPCC",21-11-2025 07:00:00,28.695381,77.181665,SO2,7,29,18
India,Delhi,Delhi,"Burari Crossing, Delhi - IMD",21-11-2025 07:00:00,28.7256504,77.2011573,OZONE,11,313,15
India,Haryana,Ballabgarh,"Nathu Colony, Ballabgarh - HSPCB",21-11-2025 07:00:00,28.3419248,77.319699,PM10,135,175,147
India,Haryana,Ballabgarh,"Nathu Colony, Ballabgarh - HSPCB",21-11-2025 07:00:00,28.3419248,77.319699,NH3,3,3,3
India,Haryana,Bhiwani,"H.B. Colony, Bhiwani - HSPCB",21-11-2025 07:00:00,28.806223,76.141105,NO2,1,35,31
India,Haryana,Bhiwani,"H.B. Colony, Bhiwani - HSPCB",21-11-2025 07:00:00,28.806223,76.141105,SO2,12,13,13
India,Haryana,Bhiwani,"H.B. Colony, Bhiwani - HSPCB",21-11-2025 07:00:00,28.806223,76.141105,CO,10,14,13
India,Haryana,Charkhi Dadri,"Mini Secretariat, Charkhi Dadri - HSPCB",21-11-2025 07:00:00,28.593883,76.270653,NO2,9,23,15
India,Haryana,Charkhi Dadri,"Mini Secretariat, Charkhi Dadri - HSPCB",21-11-2025 07:00:00,28.593883,76.270653,CO,6,25,16
India,Haryana,Faridabad,"New Industrial Town, Faridabad - HSPCB",21-11-2025 07:00:00,28.39072,77.30059,PM10,190,197,193
India,Haryana,Faridabad,"New Industrial Town, Faridabad - HSPCB",21-11-2025 07:00:00,28.39072,77.30059,NH3,11,12,11
India,Haryana,Mandikhera,"General Hospital, Mandikhera - HSPCB",21-11-2025 07:00:00,27.9002,76.9938,SO2,31,37,34
India,Haryana,Manesar,"Sector-2 IMT, Manesar - HSPCB",21-11-2025 07:00:00,28.360699,76.936090,PM2.5,66,360,266
India,Haryana,Manesar,"Sector-2 IMT, Manesar - HSPCB",21-11-2025 07:00:00,28.360699,76.936090,PM10,61,255,166
India,Haryana,Manesar,"Sector-2 IMT, Manesar - HSPCB",21-11-2025 07:00:00,28.360699,76.936090,NH3,16,19,18
India,Haryana,Narnaul,"Shastri Nagar, Narnaul - HSPCB",21-11-2025 07:00:00,28.060249,76.113115,PM2.5,96,323,228
India,Haryana,Palwal,"Shyam Nagar, Palwal - HSPCB",21-11-2025 07:00:00,28.1485564,77.3320667,SO2,12,13,13
India,Haryana,Palwal,"Shyam Nagar, Palwal - HSPCB",21-11-2025 07:00:00,28.1485564,77.3320667,CO,27,59,46
India,Haryana,Palwal,"Shyam Nagar, Palwal - HSPCB",21-11-2025 07:00:00,28.1485564,77.3320667,OZONE,23,25,24
India,Gujarat,Gandhinagar,"GIFT City, Gandhinagar - IITM",21-11-2025 07:00:00,23.163798,72.677768,SO2,2,19,9
India,Gujarat,Gandhinagar,"IIPHG Lekawada, Gandhinagar - IITM",21-11-2025 07:00:00,23.243639,72.68994,PM10,108,157,130
India,Gujarat,Gandhinagar,"Sector-10, Gandhinagar - GPCB",21-11-2025 07:00:00,23.221714,72.654328,OZONE,5,98,26
India,Gujarat,Nandesari,"GIDC, Nandesari - Nandesari Ind. Association",21-11-2025 07:00:00,22.410802,73.097923,PM2.5,242,314,286
India,Gujarat,Nandesari,"GIDC, Nandesari - Nandesari Ind. Association",21-11-2025 07:00:00,22.410802,73.097923,SO2,NA,NA,NA
India,Haryana,Faridabad,"New Industrial Town, Faridabad - HSPCB",21-11-2025 07:00:00,28.39072,77.30059,OZONE,26,35,30
India,Haryana,Faridabad,"Sector 11, Faridabad - HSPCB",21-11-2025 07:00:00,28.376058,77.315741,PM10,104,185,145
India,Haryana,Fatehabad,"Huda Sector, Fatehabad - HSPCB",21-11-2025 07:00:00,29.503664,75.467934,NH3,13,15,14
India,Haryana,Fatehabad,"Huda Sector, Fatehabad - HSPCB",21-11-2025 07:00:00,29.503664,75.467934,CO,25,44,28
India,Haryana,Gurugram,"Sector-51, Gurugram - HSPCB",21-11-2025 07:00:00,28.4227,77.0667,PM2.5,50,500,354
India,Gujarat,Vapi,"Phase-1 GIDC, Vapi - GPCB",21-11-2025 07:00:00,20.362421,72.918013,PM2.5,66,265,161
India,Gujarat,Vapi,"Phase-1 GIDC, Vapi - GPCB",21-11-2025 07:00:00,20.362421,72.918013,NH3,1,5,3
India,Gujarat,Vatva,"Phase-4 GIDC, Vatva - GPCB",21-11-2025 07:00:00,22.969611,72.643500,NH3,4,8,6
India,Haryana,Bahadurgarh,"Arya Nagar, Bahadurgarh - HSPCB",21-11-2025 07:00:00,28.6701,76.9254,NH3,12,13,13
India,Haryana,Bahadurgarh,"Arya Nagar, Bahadurgarh - HSPCB",21-11-2025 07:00:00,28.6701,76.9254,CO,39,50,47
India,Gujarat,Ahmedabad,"Gyaspur, Ahmedabad - IITM",21-11-2025 07:00:00,22.977134,72.553024,NO2,41,177,108
India,Gujarat,Ahmedabad,"Gyaspur, Ahmedabad - IITM",21-11-2025 07:00:00,22.977134,72.553024,CO,14,126,81
India,Gujarat,Ahmedabad,"Maninagar, Ahmedabad - GPCB",21-11-2025 07:00:00,23.002657,72.591912,PM10,72,172,107
India,Gujarat,Ahmedabad,"Rakhial, Ahmedabad - IITM",21-11-2025 07:00:00,23.016834,72.625775,NO2,13,212,46
India,Gujarat,Ahmedabad,"Rakhial, Ahmedabad - IITM",21-11-2025 07:00:00,23.016834,72.625775,OZONE,2,102,28
India,Haryana,Gurugram,"Sector-51, Gurugram - HSPCB",21-11-2025 07:00:00,28.4227,77.0667,NH3,6,10,8
India,Haryana,Gurugram,"Vikas Sadan, Gurugram - HSPCB",21-11-2025 07:00:00,28.4501238,77.0263051,SO2,2,8,5
India,Haryana,Hisar,"Urban Estate-II, Hisar - HSPCB",21-11-2025 07:00:00,29.140560,75.744941,NO2,11,12,12
India,Haryana,Hisar,"Urban Estate-II, Hisar - HSPCB",21-11-2025 07:00:00,29.140560,75.744941,CO,55,115,68
India,Gujarat,Ahmedabad,"SAC ISRO Bopal, Ahmedabad - IITM",21-11-2025 07:00:00,23.041137,72.456691,NO2,NA,NA,NA
India,Gujarat,Ahmedabad,"SAC ISRO Bopal, Ahmedabad - IITM",21-11-2025 07:00:00,23.041137,72.456691,SO2,1,23,12
India,Gujarat,Ahmedabad,"SAC ISRO Satellite, Ahmedabad - IITM",21-11-2025 07:00:00,23.023389,72.515201,SO2,3,8,5
India,Haryana,Karnal,"Sector-12, Karnal - HSPCB",21-11-2025 07:00:00,29.695300,77.002700,SO2,55,122,99
India,Karnataka,Bengaluru,"BWSSB Kadabesanahalli, Bengaluru - CPCB",21-11-2025 07:00:00,12.9352049,77.6814488,PM10,80,150,103
India,Karnataka,Bengaluru,"BWSSB Kadabesanahalli, Bengaluru - CPCB",21-11-2025 07:00:00,12.9352049,77.6814488,SO2,2,8,5
India,Karnataka,Bengaluru,"City Railway Station, Bengaluru - KSPCB",21-11-2025 07:00:00,12.9756843,77.5660749,PM10,NA,NA,NA
India,Karnataka,Bengaluru,"City Railway Station, Bengaluru - KSPCB",21-11-2025 07:00:00,12.9756843,77.5660749,CO,NA,NA,NA
India,Karnataka,Bengaluru,"Hebbal, Bengaluru - KSPCB",21-11-2025 07:00:00,13.029152,77.585901,PM2.5,43,91,63
India,Karnataka,Bengaluru,"Hebbal, Bengaluru - KSPCB",21-11-2025 07:00:00,13.029152,77.585901,PM10,50,107,73
India,Karnataka,Bengaluru,"Hombegowda Nagar, Bengaluru - KSPCB",21-11-2025 07:00:00,12.938539,77.590100,NO2,14,48,23
India,Karnataka,Bengaluru,"Hombegowda Nagar, Bengaluru - KSPCB",21-11-2025 07:00:00,12.938539,77.590100,NH3,3,3,3
India,Karnataka,Bengaluru,"Hombegowda Nagar, Bengaluru - KSPCB",21-11-2025 07:00:00,12.938539,77.590100,CO,13,34,17
India,Karnataka,Bengaluru,"Jayanagar 5th Block, Bengaluru - KSPCB",21-11-2025 07:00:00,12.920984,77.584908,OZONE,19,55,41
India,Haryana,Panchgaon,"Amity University, Panchgaon - IITM",21-11-2025 07:00:00,28.3153,76.9143,PM2.5,27,295,99
India,Haryana,Panchgaon,"Amity University, Panchgaon - IITM",21-11-2025 07:00:00,28.3153,76.9143,SO2,1,9,4
India,Haryana,Panchkula,"Sector-6, Panchkula - HSPCB ",21-11-2025 07:00:00,30.7057778,76.8531805555555,SO2,8,9,9
India,Haryana,Panipat,"Sector-18, Panipat - HSPCB",21-11-2025 07:00:00,29.432304,76.972765,PM2.5,NA,NA,NA
India,Haryana,Panipat,"Sector-18, Panipat - HSPCB",21-11-2025 07:00:00,29.432304,76.972765,SO2,NA,NA,NA
