country,state,city,station,last_update,latitude,longitude,pollutant_id,min_value,max_value,avg_value
India,Andhra_Pradesh,Kadapa,"Yerramukkapalli, Kadapa - APPCB",10-02-2026 09:00:00,14.465052,78.824187,SO2,7,19,16
India,Andhra_Pradesh,Rajamahendravaram,"Anand Kala Kshetram, Rajamahendravaram - APPCB",10-02-2026 09:00:00,16.9872867,81.7363176,NH3,5,7,6
India,Andhra_Pradesh,Tirupati,"Vaikuntapuram, Tirupati - APPCB",10-02-2026 09:00:00,13.615387,79.409230,PM10,NA,NA,NA
India,Andhra_Pradesh,Tirupati,"Vaikuntapuram, Tirupati - APPCB",10-02-2026 09:00:00,13.615387,79.409230,NO2,20,22,20
India,Andhra_Pradesh,Vijayawada,"HB Colony, Vijayawada - APPCB",10-02-2026 09:00:00,16.536107,80.594233,PM2.5,68,158,99
India,Andhra_Pradesh,Vijayawada,"HB Colony, Vijayawada - APPCB",10-02-2026 09:00:00,16.536107,80.594233,SO2,11,20,17
India,Andhra_Pradesh,Vijayawada,"Kanuru, Vijayawada - APPCB",10-02-2026 09:00:00,16.486692,80.699436,PM2.5,58,71,63
India,Bihar,Katihar,"Mirchaibari, Katihar - BSPCB",10-02-2026 09:00:00,25.560083,87.553265,PM2.5,65,177,99
India,Bihar,Kishanganj,"SDM Office_Khagra, Kishanganj - BSPCB",10-02-2026 09:00:00,26.0881305,87.93840336,SO2,5,8,6
India,Bihar,Manguraha,"Forest Rest House, Manguraha - BSPCB",10-02-2026 09:00:00,27.308328,84.531742,PM10,97,171,129
India,Bihar,Motihari,"Gandak Colony, Motihari - BSPCB",10-02-2026 09:00:00,26.63086,84.90051,PM10,52,182,122
India,Bihar,Motihari,"Gandak Colony, Motihari - BSPCB",10-02-2026 09:00:00,26.63086,84.90051,OZONE,3,4,3
India,Bihar,Munger,"Town Hall, Munger - BSPCB",10-02-2026 09:00:00,25.376776,86.471523,NH3,2,2,2
India,Bihar,Aurangabad,"Gurdeo Nagar, Aurangabad - BSPCB",10-02-2026 09:00:00,24.75746,84.366208,PM10,NA,NA,NA
India,Bihar,Aurangabad,"Gurdeo Nagar, Aurangabad - BSPCB",10-02-2026 09:00:00,24.75746,84.366208,NO2,7,8,8
India,Bihar,Begusarai,"Lohiyanagar, Begusarai - BSPCB",10-02-2026 09:00:00,25.42742023,86.13886079,PM2.5,82,297,141
India,Bihar,Begusarai,"Lohiyanagar, Begusarai - BSPCB",10-02-2026 09:00:00,25.42742023,86.13886079,NO2,5,12,8
India,Bihar,Begusarai,"Lohiyanagar, Begusarai - BSPCB",10-02-2026 09:00:00,25.42742023,86.13886079,OZONE,33,157,36
India,Bihar,Bettiah,"Kamalnath Nagar, Bettiah - BSPCB",10-02-2026 09:00:00,26.80365,84.51954,NO2,8,9,8
India,Bihar,Bhagalpur,"DM Office_Kachari Chowk, Bhagalpur - BSPCB",10-02-2026 09:00:00,25.251013,86.989001,NO2,7,14,9
India,Assam,Byrnihat,"Central Academy for SFS, Byrnihat - PCBA",10-02-2026 09:00:00,26.071318,91.87488,NO2,4,10,8
India,Assam,Guwahati,"LGBI Airport, Guwahati - PCBA",10-02-2026 09:00:00,26.10887,91.589544,NH3,5,13,5
India,Assam,Guwahati,"LGBI Airport, Guwahati - PCBA",10-02-2026 09:00:00,26.10887,91.589544,CO,6,66,33
India,Assam,Guwahati,"Pan Bazaar, Guwahati - PCBA",10-02-2026 09:00:00,26.187500,91.744194,PM2.5,1,1,1
India,Assam,Guwahati,"Pan Bazaar, Guwahati - PCBA",10-02-2026 09:00:00,26.187500,91.744194,NH3,1,1,1
India,Assam,Nagaon,"Christianpatty, Nagaon - PCBA",10-02-2026 09:00:00,26.349082,92.68449,PM2.5,75,147,109
India,Assam,Nagaon,"Christianpatty, Nagaon - PCBA",10-02-2026 09:00:00,26.349082,92.68449,NO2,1,1,1
India,Andhra_Pradesh,Amaravati,"Secretariat, Amaravati - APPCB",10-02-2026 09:00:00,16.5150833,80.5181667,CO,18,82,57
India,Andhra_Pradesh,Amaravati,"Secretariat, Amaravati - APPCB",10-02-2026 09:00:00,16.5150833,80.5181667,OZONE,4,60,9
India,Andhra_Pradesh,Anantapur,"Gulzarpet, Anantapur - APPCB",10-02-2026 09:00:00,14.675886,77.593027,PM10,78,100,85
India,Andhra_Pradesh,Anantapur,"Gulzarpet, Anantapur - APPCB",10-02-2026 09:00:00,14.675886,77.593027,NH3,4,6,4
India,Andhra_Pradesh,Chittoor,"Gangineni Cheruvu, Chittoor - APPCB",10-02-2026 09:00:00,13.204880,79.097889,SO2,12,39,20
India,Assam,Nalbari,"Bata Chowk, Nalbari - PCBA",10-02-2026 09:00:00,26.446912,91.439057,NH3,6,6,6
India,Assam,Silchar,"Tarapur, Silchar - PCBA",10-02-2026 09:00:00,24.82827,92.79525,PM2.5,11,94,49
India,Assam,Sivasagar,"Girls College, Sivasagar - PCBA",10-02-2026 09:00:00,26.987634,94.636574,NH3,5,29,13
India,Assam,Sivasagar,"Girls College, Sivasagar - PCBA",10-02-2026 09:00:00,26.987634,94.636574,OZONE,4,91,10
India,Bihar,Bhagalpur,"Mayaganj, Bhagalpur - BSPCB",10-02-2026 09:00:00,25.265194,87.012947,OZONE,15,27,20
India,Bihar,Bihar Sharif,"D M Colony, Bihar Sharif - BSPCB",10-02-2026 09:00:00,25.204762,85.514960,PM10,27,94,55
India,Bihar,Buxar,"Charitra Van, Buxar - BSPCB",10-02-2026 09:00:00,25.567520,83.966379,PM10,41,114,74
India,Andhra_Pradesh,Vijayawada,"Rajiv Nagar, Vijayawada - APPCB",10-02-2026 09:00:00,16.554731,80.649110,SO2,NA,NA,NA
India,Arunachal_Pradesh,Naharlagun,"Naharlagun, Naharlagun - APSPCB",10-02-2026 09:00:00,27.103358,93.679645,PM10,71,500,189
India,Arunachal_Pradesh,Naharlagun,"Naharlagun, Naharlagun - APSPCB",10-02-2026 09:00:00,27.103358,93.679645,SO2,9,11,10
India,Bihar,Gaya,"Kareemganj, Gaya - BSPCB",10-02-2026 09:00:00,24.792403,84.992416,PM2.5,25,127,54
India,Bihar,Gaya,"SFTI Kusdihra, Gaya - BSPCB",10-02-2026 09:00:00,24.762518,84.982348,CO,20,54,48
India,Chandigarh,Chandigarh,"Sector-53, Chandigarh - CPCC",10-02-2026 09:00:00,30.719859,76.738637,NH3,10,12,11
India,Chhattisgarh,Bhilai,"32Bungalows, Bhilai - CECB",10-02-2026 09:00:00,21.194815,81.314770,PM2.5,12,36,21
India,Chhattisgarh,Bhilai,"32Bungalows, Bhilai - CECB",10-02-2026 09:00:00,21.194815,81.314770,CO,22,44,37
India,Chhattisgarh,Bhilai,"32Bungalows, Bhilai - CECB",10-02-2026 09:00:00,21.194815,81.314770,OZONE,2,33,2
India,Chhattisgarh,Bhilai,"Civic Center, Bhilai - Bhilai Steel Plant",10-02-2026 09:00:00,21.185571,81.343175,PM2.5,24,57,43
India,Chhattisgarh,Bhilai,"Civic Center, Bhilai - Bhilai Steel Plant",10-02-2026 09:00:00,21.185571,81.343175,PM10,17,76,50
India,Chhattisgarh,Bhilai,"Civic Center, Bhilai - Bhilai Steel Plant",10-02-2026 09:00:00,21.185571,81.343175,SO2,7,15,9
India,Chhattisgarh,Bhilai,"Civic Center, Bhilai - Bhilai Steel Plant",10-02-2026 09:00:00,21.185571,81.343175,OZONE,10,13,10
India,Chhattisgarh,Bhilai,"Hathkhoj, Bhilai - CECB",10-02-2026 09:00:00,21.224231,81.408350,OZONE,3,13,6
India,Chhattisgarh,Bilaspur,"Mangala, Bilaspur - NTPC",10-02-2026 09:00:00,22.08815,82.13737,SO2,13,43,22
India,Chhattisgarh,Chhal,"Nawapara SECL Colony, Chhal - CECB",10-02-2026 09:00:00,22.118125,83.140608,SO2,4,93,33
India,Chhattisgarh,Korba,"Rampur, Korba - CECB",10-02-2026 09:00:00,22.368195,82.746431,PM2.5,26,94,53
India,Delhi,Delhi,"DTU, Delhi - CPCB",10-02-2026 09:00:00,28.7500499,77.1112615,OZONE,1,48,5
India,Delhi,Delhi,"Dr. Karni Singh Shooting Range, Delhi - DPCC",10-02-2026 09:00:00,28.498571,77.264840,SO2,7,27,13
India,Delhi,Delhi,"Dr. Karni Singh Shooting Range, Delhi - DPCC",10-02-2026 09:00:00,28.498571,77.264840,CO,16,105,27
India,Delhi,Delhi,"IHBAS, Dilshad Garden, Delhi - CPCB",10-02-2026 09:00:00,28.6811736,77.3025234,PM10,121,248,182
India,Delhi,Delhi,"IHBAS, Dilshad Garden, Delhi - CPCB",10-02-2026 09:00:00,28.6811736,77.3025234,NO2,53,139,95
India,Delhi,Delhi,"IIT Delhi, Delhi - IITM",10-02-2026 09:00:00,28.542460,77.191651,PM2.5,79,339,232
India,Delhi,Delhi,"IIT Delhi, Delhi - IITM",10-02-2026 09:00:00,28.542460,77.191651,PM10,109,342,195
India,Delhi,Delhi,"IIT Delhi, Delhi - IITM",10-02-2026 09:00:00,28.542460,77.191651,NO2,20,117,50
India,Delhi,Delhi,"ITO, Delhi - CPCB",10-02-2026 09:00:00,28.628624,77.241060,PM10,128,349,180
India,Delhi,Delhi,"ITO, Delhi - CPCB",10-02-2026 09:00:00,28.628624,77.241060,NH3,1,4,2
India,Delhi,Delhi,"Jahangirpuri, Delhi - DPCC",10-02-2026 09:00:00,28.732820,77.170633,PM2.5,207,443,320
India,Delhi,Delhi,"Jahangirpuri, Delhi - DPCC",10-02-2026 09:00:00,28.732820,77.170633,PM10,164,414,272
India,Delhi,Delhi,"Ashok Vihar, Delhi - DPCC",10-02-2026 09:00:00,28.695381,77.181665,NO2,43,134,94
India,Delhi,Delhi,"Ashok Vihar, Delhi - DPCC",10-02-2026 09:00:00,28.695381,77.181665,OZONE,6,197,7
India,Delhi,Delhi,"Aya Nagar, Delhi - IMD",10-02-2026 09:00:00,28.4706914,77.1099364,PM10,112,418,224
India,Delhi,Delhi,"Bawana, Delhi - DPCC",10-02-2026 09:00:00,28.776200,77.051074,NH3,6,7,6
India,Delhi,Delhi,"Bawana, Delhi - DPCC",10-02-2026 09:00:00,28.776200,77.051074,OZONE,3,217,4
India,Delhi,Delhi,"Burari Crossing, Delhi - IMD",10-02-2026 09:00:00,28.7256504,77.2011573,PM2.5,88,423,262
India,Delhi,Delhi,"CRRI Mathura Road, Delhi - IMD",10-02-2026 09:00:00,28.5512005,77.2735737,PM2.5,66,369,234
India,Delhi,Delhi,"Chandni Chowk, Delhi - IITM",10-02-2026 09:00:00,28.656756,77.227234,PM2.5,203,382,283
India,Delhi,Delhi,"DTU, Delhi - CPCB",10-02-2026 09:00:00,28.7500499,77.1112615,PM10,138,408,218
India,Delhi,Delhi,"DTU, Delhi - CPCB",10-02-2026 09:00:00,28.7500499,77.1112615,NH3,4,9,5
India,Delhi,Delhi,"DTU, Delhi - CPCB",10-02-2026 09:00:00,28.7500499,77.1112615,SO2,28,35,30
India,Chhattisgarh,Raipur,"Krishak Nagar, Raipur - CECB",10-02-2026 09:00:00,21.237755,81.705301,PM2.5,38,68,46
India,Chhattisgarh,Raipur,"Krishak Nagar, Raipur - CECB",10-02-2026 09:00:00,21.237755,81.705301,NO2,15,28,20
India,Chhattisgarh,Raipur,"Siltara Phase-II, Raipur - CECB",10-02-2026 09:00:00,21.371751,81.664929,NO2,32,50,44
India,Chhattisgarh,Tumidih,"OP Jindal Industrial Park, Tumidih - CECB",10-02-2026 09:00:00,22.06631475,83.33820077,PM2.5,35,120,72
India,Delhi,Delhi,"Alipur, Delhi - DPCC",10-02-2026 09:00:00,28.815329,77.153010,NH3,NA,NA,NA
India,Delhi,Delhi,"Anand Vihar, Delhi - DPCC",10-02-2026 09:00:00,28.647622,77.3158090,NO2,36,95,62
India,Delhi,Delhi,"Anand Vihar, Delhi - DPCC",10-02-2026 09:00:00,28.647622,77.3158090,NH3,4,10,6
India,Delhi,Delhi,"Ashok Vihar, Delhi - DPCC",10-02-2026 09:00:00,28.695381,77.181665,PM2.5,200,477,336
India,Delhi,Delhi,"Ashok Vihar, Delhi - DPCC",10-02-2026 09:00:00,28.695381,77.181665,PM10,160,439,288
India,Bihar,Patna,"IGSC Planetarium Complex, Patna - BSPCB",10-02-2026 09:00:00,25.610369,85.132568,SO2,15,22,18
India,Bihar,Patna,"IGSC Planetarium Complex, Patna - BSPCB",10-02-2026 09:00:00,25.610369,85.132568,CO,29,42,30
India,Bihar,Patna,"Rajbansi Nagar, Patna - BSPCB",10-02-2026 09:00:00,25.599486,85.113666,SO2,4,9,6
India,Bihar,Patna,"Rajbansi Nagar, Patna - BSPCB",10-02-2026 09:00:00,25.599486,85.113666,OZONE,20,60,37
India,Bihar,Patna,"Samanpura, Patna - BSPCB",10-02-2026 09:00:00,25.596727,85.085624,PM2.5,55,149,102
India,Bihar,Patna,"Samanpura, Patna - BSPCB",10-02-2026 09:00:00,25.596727,85.085624,PM10,103,196,152
India,Bihar,Patna,"Samanpura, Patna - BSPCB",10-02-2026 09:00:00,25.596727,85.085624,NO2,5,48,26
India,Bihar,Purnia,"Mariam Nagar, Purnia - BSPCB",10-02-2026 09:00:00,25.366336,87.117468,NO2,5,6,6
India,Bihar,Purnia,"Mariam Nagar, Purnia - BSPCB",10-02-2026 09:00:00,25.366336,87.117468,NH3,3,3,3
India,Bihar,Rajgir,"Dangi Tola, Rajgir - BSPCB",10-02-2026 09:00:00,25.03280,85.41948,NO2,8,10,9
India,Bihar,Munger,"Town Hall, Munger - BSPCB",10-02-2026 09:00:00,25.376776,86.471523,OZONE,6,11,10
India,Bihar,Muzaffarpur,"Buddha Colony, Muzaffarpur - BSPCB",10-02-2026 09:00:00,26.11442,85.39813,PM10,101,153,124
India,Bihar,Muzaffarpur,"Buddha Colony, Muzaffarpur - BSPCB",10-02-2026 09:00:00,26.11442,85.39813,NH3,6,12,10
India,Bihar,Muzaffarpur,"MIT-Daudpur Kothi, Muzaffarpur - BSPCB",10-02-2026 09:00:00,26.1403345,85.3650192,OZONE,17,69,28
India,Bihar,Patna,"DRM Office Danapur, Patna - BSPCB",10-02-2026 09:00:00,25.586562,85.043586,NH3,4,5,5
India,Bihar,Patna,"Govt. High School Shikarpur, Patna - BSPCB",10-02-2026 09:00:00,25.592539,85.227158,PM10,120,224,167
India,Bihar,Patna,"Govt. High School Shikarpur, Patna - BSPCB",10-02-2026 09:00:00,25.592539,85.227158,CO,57,108,82
India,Bihar,Patna,"IGSC Planetarium Complex, Patna - BSPCB",10-02-2026 09:00:00,25.610369,85.132568,PM2.5,44,222,128
India,Bihar,Samastipur,"DM Office_Kasipur, Samastipur - BSPCB",10-02-2026 09:00:00,25.859655,85.77944,NH3,1,1,1
India,Bihar,Sasaram,"Dada Peer, Sasaram - BSPCB",10-02-2026 09:00:00,24.952822,84.002396,NO2,2,6,2
India,Bihar,Sasaram,"Dada Peer, Sasaram - BSPCB",10-02-2026 09:00:00,24.952822,84.002396,SO2,3,5,4
India,Bihar,Siwan,"Chitragupta Nagar, Siwan - BSPCB",10-02-2026 09:00:00,26.2271665,84.3570427,CO,26,104,73
India,Chandigarh,Chandigarh,"Sector 22, Chandigarh - CPCC",10-02-2026 09:00:00,30.735567,76.775714,NH3,3,18,12
India,Chandigarh,Chandigarh,"Sector 22, Chandigarh - CPCC",10-02-2026 09:00:00,30.735567,76.775714,CO,38,115,44
India,Chandigarh,Chandigarh,"Sector-25, Chandigarh - CPCC",10-02-2026 09:00:00,30.751462,76.762879,PM2.5,116,307,193
India,Chhattisgarh,Kunjemura,"OP Jindal School, Kunjemura - CECB",10-02-2026 09:00:00,22.126650,83.483212,PM10,59,251,129
India,Chhattisgarh,Kunjemura,"OP Jindal School, Kunjemura - CECB",10-02-2026 09:00:00,22.126650,83.483212,NO2,15,67,38
India,Chhattisgarh,Kunjemura,"OP Jindal School, Kunjemura - CECB",10-02-2026 09:00:00,22.126650,83.483212,OZONE,1,62,1
India,Chhattisgarh,Raipur,"AIIMS, Raipur - CECB",10-02-2026 09:00:00,21.258815,81.578979,NH3,4,5,4
India,Chhattisgarh,Raipur,"AIIMS, Raipur - CECB",10-02-2026 09:00:00,21.258815,81.578979,OZONE,1,5,1
India,Chhattisgarh,Raipur,"Bhatagaon New ISBT, Raipur - CECB",10-02-2026 09:00:00,21.219665,81.630094,PM2.5,22,71,47
India,Delhi,Delhi,"Jahangirpuri, Delhi - DPCC",10-02-2026 09:00:00,28.732820,77.170633,OZONE,3,165,5
India,Delhi,Delhi,"Jawaharlal Nehru Stadium, Delhi - DPCC",10-02-2026 09:00:00,28.580280,77.233829,OZONE,1,145,1
India,Delhi,Delhi,"Major Dhyan Chand National Stadium, Delhi - DPCC",10-02-2026 09:00:00,28.611281,77.237738,CO,46,126,105
India,Delhi,Delhi,"Mandir Marg, Delhi - DPCC",10-02-2026 09:00:00,28.636429,77.201067,CO,80,115,108
India,Delhi,Delhi,"Mundka, Delhi - DPCC",10-02-2026 09:00:00,28.684678,77.076574,CO,8,127,110
India,Gujarat,Gandhinagar,"Sector-10, Gandhinagar - GPCB",10-02-2026 09:00:00,23.221714,72.654328,CO,47,66,53
India,Gujarat,Mehsana,"Sadanand Nagar, Mehsana - Nexteng Enviro",10-02-2026 09:00:00,23.593150,72.372792,NH3,1,3,3
India,Gujarat,Mehsana,"Sadanand Nagar, Mehsana - Nexteng Enviro",10-02-2026 09:00:00,23.593150,72.372792,OZONE,9,27,9
India,Gujarat,Rajkot,"Mavdi, Rajkot - Nexteng Enviro ",10-02-2026 09:00:00,22.248853,70.776774,PM10,44,147,75
India,Gujarat,Rajkot,"Mavdi, Rajkot - Nexteng Enviro ",10-02-2026 09:00:00,22.248853,70.776774,NO2,11,48,20
India,Gujarat,Rajkot,"Mavdi, Rajkot - Nexteng Enviro ",10-02-2026 09:00:00,22.248853,70.776774,CO,106,114,108
India,Gujarat,Surat,"Katargam, Surat - Nexteng Enviro",10-02-2026 09:00:00,21.217779 ,72.834787 ,PM2.5,85,310,192
India,Gujarat,Surat,"Katargam, Surat - Nexteng Enviro",10-02-2026 09:00:00,21.217779 ,72.834787 ,PM10,98,224,140
India,Gujarat,Vadodara,"Bapunagar, Vadodara - Nexteng Enviro",10-02-2026 09:00:00,22.320153,73.216285,OZONE,1,4,1
India,Gujarat,Vapi,"Phase-1 GIDC, Vapi - GPCB",10-02-2026 09:00:00,20.362421,72.918013,PM2.5,NA,NA,NA
India,Delhi,Delhi,"Patparganj, Delhi - DPCC",10-02-2026 09:00:00,28.623763,77.287209,CO,50,141,116
India,Delhi,Delhi,"Punjabi Bagh, Delhi - DPCC",10-02-2026 09:00:00,28.674045,77.131023,SO2,17,29,21
India,Delhi,Delhi,"Pusa, Delhi - DPCC",10-02-2026 09:00:00,28.639652,77.146275,NO2,44,114,82
India,Delhi,Delhi,"Pusa, Delhi - DPCC",10-02-2026 09:00:00,28.639652,77.146275,SO2,4,37,15
India,Delhi,Delhi,"Pusa, Delhi - DPCC",10-02-2026 09:00:00,28.639652,77.146275,CO,50,108,92
India,Delhi,Delhi,"R K Puram, Delhi - DPCC",10-02-2026 09:00:00,28.563262,77.186937,PM10,97,390,215
India,Delhi,Delhi,"R K Puram, Delhi - DPCC",10-02-2026 09:00:00,28.563262,77.186937,NO2,16,118,57
India,Delhi,Delhi,"R K Puram, Delhi - DPCC",10-02-2026 09:00:00,28.563262,77.186937,NH3,7,11,9
India,Delhi,Delhi,"Rohini, Delhi - DPCC",10-02-2026 09:00:00,28.732528,77.119920,CO,44,120,110
India,Delhi,Delhi,"Shadipur, Delhi - CPCB",10-02-2026 09:00:00,28.6514781,77.1473105,PM2.5,275,434,331
India,Delhi,Delhi,"Shadipur, Delhi - CPCB",10-02-2026 09:00:00,28.6514781,77.1473105,NO2,57,183,96
India,Haryana,Charkhi Dadri,"Mini Secretariat, Charkhi Dadri - HSPCB",10-02-2026 09:00:00,28.593883,76.270653,OZONE,14,17,16
India,Haryana,Dharuhera,"Municipal Corporation Office, Dharuhera -  HSPCB",10-02-2026 09:00:00,28.206800,76.799700,PM10,112,191,147
India,Haryana,Faridabad,"New Industrial Town, Faridabad - HSPCB",10-02-2026 09:00:00,28.39072,77.30059,PM10,128,136,133
India,Haryana,Faridabad,"Sector 11, Faridabad - HSPCB",10-02-2026 09:00:00,28.376058,77.315741,CO,10,55,43
India,Haryana,Faridabad,"Sector 30, Faridabad - HSPCB",10-02-2026 09:00:00,28.4417,77.3217,PM10,100,111,103
India,Haryana,Faridabad,"Sector 30, Faridabad - HSPCB",10-02-2026 09:00:00,28.4417,77.3217,NH3,10,12,11
India,Haryana,Fatehabad,"Huda Sector, Fatehabad - HSPCB",10-02-2026 09:00:00,29.503664,75.467934,PM2.5,60,162,81
India,Haryana,Fatehabad,"Huda Sector, Fatehabad - HSPCB",10-02-2026 09:00:00,29.503664,75.467934,NH3,13,15,14
India,Delhi,Delhi,"NSIT Dwarka, Delhi - CPCB",10-02-2026 09:00:00,28.60909,77.0325413,NH3,NA,NA,NA
India,Delhi,Delhi,"NSIT Dwarka, Delhi - CPCB",10-02-2026 09:00:00,28.60909,77.0325413,CO,NA,NA,NA
India,Delhi,Delhi,"Narela, Delhi - DPCC",10-02-2026 09:00:00,28.822836,77.101981,PM10,171,432,329
India,Delhi,Delhi,"Narela, Delhi - DPCC",10-02-2026 09:00:00,28.822836,77.101981,NH3,5,6,5
India,Delhi,Delhi,"Nehru Nagar, Delhi - DPCC",10-02-2026 09:00:00,28.567890,77.250515,PM10,139,475,288
India,Delhi,Delhi,"North Campus, DU, Delhi - IMD",10-02-2026 09:00:00,28.6573814,77.1585447,PM10,138,398,188
India,Delhi,Delhi,"Okhla Phase-2, Delhi - DPCC",10-02-2026 09:00:00,28.530785,77.271255,SO2,14,80,23
India,Delhi,Delhi,"Patparganj, Delhi - DPCC",10-02-2026 09:00:00,28.623763,77.287209,SO2,15,23,19
India,Gujarat,Ahmedabad,"SAC ISRO Satellite, Ahmedabad - IITM",10-02-2026 09:00:00,23.023389,72.515201,NH3,5,17,8
India,Gujarat,Ahmedabad,"SVPI Airport Hansol, Ahmedabad - IITM",10-02-2026 09:00:00,23.076793,72.627874,SO2,4,33,10
India,Gujarat,Ahmedabad,"SVPI Airport Hansol, Ahmedabad - IITM",10-02-2026 09:00:00,23.076793,72.627874,CO,2,88,11
India,Gujarat,Ankleshwar,"GIDC, Ankleshwar - GPCB",10-02-2026 09:00:00,21.613267,73.010555,OZONE,9,94,15
India,Gujarat,Bhavnagar,"Vidhyanagar, Bhavnagar - Nexteng Enviro",10-02-2026 09:00:00,21.755417,72.139056,NH3,5,8,7
India,Gujarat,Bhavnagar,"Vidhyanagar, Bhavnagar - Nexteng Enviro",10-02-2026 09:00:00,21.755417,72.139056,SO2,25,109,65
India,Gujarat,Gandhinagar,"GIFT City, Gandhinagar - IITM",10-02-2026 09:00:00,23.163798,72.677768,NO2,19,100,49
India,Delhi,Delhi,"Sirifort, Delhi - CPCB",10-02-2026 09:00:00,28.5504249,77.2159377,PM2.5,113,366,285
India,Delhi,Delhi,"Sonia Vihar, Delhi - DPCC",10-02-2026 09:00:00,28.710508,77.249485,SO2,35,113,51
India,Delhi,Delhi,"Sri Aurobindo Marg, Delhi - DPCC",10-02-2026 09:00:00,28.531346,77.190156,PM2.5,68,267,187
India,Delhi,Delhi,"Sri Aurobindo Marg, Delhi - DPCC",10-02-2026 09:00:00,28.531346,77.190156,OZONE,1,128,2
India,Delhi,Delhi,"Vivek Vihar, Delhi - DPCC",10-02-2026 09:00:00,28.672342,77.315260,PM10,145,437,274
India,Delhi,Delhi,"Vivek Vihar, Delhi - DPCC",10-02-2026 09:00:00,28.672342,77.315260,OZONE,NA,NA,NA
India,Gujarat,Ahmedabad,"Chandkheda, Ahmedabad - IITM",10-02-2026 09:00:00,23.107969,72.574648,SO2,2,53,19
India,Gujarat,Ahmedabad,"Gyaspur, Ahmedabad - IITM",10-02-2026 09:00:00,22.977134,72.553024,NH3,3,18,8
India,Gujarat,Ahmedabad,"Gyaspur, Ahmedabad - IITM",10-02-2026 09:00:00,22.977134,72.553024,OZONE,2,177,6
India,Gujarat,Ahmedabad,"Maninagar, Ahmedabad - GPCB",10-02-2026 09:00:00,23.002657,72.591912,NO2,104,111,106
India,Gujarat,Ahmedabad,"Raikhad, Ahmedabad - IITM",10-02-2026 09:00:00,23.020509,72.579261,NO2,26,163,70
India,Gujarat,Ahmedabad,"Raikhad, Ahmedabad - IITM",10-02-2026 09:00:00,23.020509,72.579261,CO,1,72,23
India,Gujarat,Ahmedabad,"Rakhial, Ahmedabad - IITM",10-02-2026 09:00:00,23.016834,72.625775,NH3,4,12,7
India,Gujarat,Ahmedabad,"Rakhial, Ahmedabad - IITM",10-02-2026 09:00:00,23.016834,72.625775,SO2,30,95,47
India,Haryana,Gurugram,"NISE Gwal Pahari, Gurugram - IMD",10-02-2026 09:00:00,28.422681,77.148944,NO2,19,53,32
India,Haryana,Gurugram,"NISE Gwal Pahari, Gurugram - IMD",10-02-2026 09:00:00,28.422681,77.148944,CO,30,100,70
India,Haryana,Gurugram,"Vikas Sadan, Gurugram - HSPCB",10-02-2026 09:00:00,28.4501238,77.0263051,PM10,148,500,275
India,Haryana,Gurugram,"Vikas Sadan, Gurugram - HSPCB",10-02-2026 09:00:00,28.4501238,77.0263051,NO2,9,45,26
India,Haryana,Hisar,"Urban Estate-II, Hisar - HSPCB",10-02-2026 09:00:00,29.140560,75.744941,PM10,76,110,92
India,Haryana,Hisar,"Urban Estate-II, Hisar - HSPCB",10-02-2026 09:00:00,29.140560,75.744941,NO2,26,27,26
India,Gujarat,Vapi,"Phase-1 GIDC, Vapi - GPCB",10-02-2026 09:00:00,20.362421,72.918013,NO2,NA,NA,NA
India,Haryana,Ambala,"Patti Mehar, Ambala - HSPCB",10-02-2026 09:00:00,30.379589,76.778328,NH3,NA,NA,NA
India,Haryana,Ballabgarh,"Nathu Colony, Ballabgarh - HSPCB",10-02-2026 09:00:00,28.3419248,77.319699,PM2.5,65,313,176
India,Haryana,Ballabgarh,"Nathu Colony, Ballabgarh - HSPCB",10-02-2026 09:00:00,28.3419248,77.319699,SO2,1,5,3
India,Haryana,Bhiwani,"H.B. Colony, Bhiwani - HSPCB",10-02-2026 09:00:00,28.806223,76.141105,NH3,1,9,8
India,Karnataka,Mysuru,"Hebbal 1st Stage, Mysuru - KSPCB",10-02-2026 09:00:00,12.21041,76.37376,OZONE,6,93,24
India,Karnataka,Ramanagara,"Vijay Nagar, Ramanagara - KSPCB",10-02-2026 09:00:00,12.733409,77.298051,PM10,111,210,145
India,Karnataka,Ramanagara,"Vijay Nagar, Ramanagara - KSPCB",10-02-2026 09:00:00,12.733409,77.298051,SO2,14,30,20
India,Karnataka,Shivamogga,"Vinoba Nagara, Shivamogga - KSPCB",10-02-2026 09:00:00,13.940000,75.555917,OZONE,13,91,21
India,Karnataka,Tumakuru,"Thimmalapura, Tumakuru - KSPCB",10-02-2026 09:00:00,13.377516,77.099072,PM10,108,364,144
India,Karnataka,Tumakuru,"Thimmalapura, Tumakuru - KSPCB",10-02-2026 09:00:00,13.377516,77.099072,NO2,31,32,32
India,Karnataka,Tumakuru,"Thimmalapura, Tumakuru - KSPCB",10-02-2026 09:00:00,13.377516,77.099072,NH3,6,6,6
India,Karnataka,Tumakuru,"Thimmalapura, Tumakuru - KSPCB",10-02-2026 09:00:00,13.377516,77.099072,CO,52,54,53
India,Karnataka,Yadgir,"Collector Office, Yadgir - KSPCB",10-02-2026 09:00:00,16.7602,77.1428,PM2.5,56,127,84
India,Karnataka,Yadgir,"Collector Office, Yadgir - KSPCB",10-02-2026 09:00:00,16.7602,77.1428,SO2,10,129,19
India,Karnataka,Yadgir,"Collector Office, Yadgir - KSPCB",10-02-2026 09:00:00,16.7602,77.1428,CO,10,32,21
India,Karnataka,Yadgir,"Collector Office, Yadgir - KSPCB",10-02-2026 09:00:00,16.7602,77.1428,OZONE,17,19,18
India,Kerala,Eloor,"Udyogamandal, Eloor - Kerala PCB",10-02-2026 09:00:00,10.073232,76.302765,NO2,7,8,8
India,Kerala,Kannur,"Thavakkara, Kannur - Kerala PCB",10-02-2026 09:00:00,11.875000,75.373200,PM10,71,117,88
India,Kerala,Kannur,"Thavakkara, Kannur - Kerala PCB",10-02-2026 09:00:00,11.875000,75.373200,NO2,14,16,15
India,Kerala,Kannur,"Thavakkara, Kannur - Kerala PCB",10-02-2026 09:00:00,11.875000,75.373200,OZONE,28,32,28
India,Kerala,Thiruvananthapuram,"Kariavattom, Thiruvananthapuram - Kerala PCB",10-02-2026 09:00:00,8.563700,76.886500,PM2.5,NA,NA,NA
India,Kerala,Thiruvananthapuram,"Kariavattom, Thiruvananthapuram - Kerala PCB",10-02-2026 09:00:00,8.563700,76.886500,PM10,NA,NA,NA
India,Kerala,Thiruvananthapuram,"Kariavattom, Thiruvananthapuram - Kerala PCB",10-02-2026 09:00:00,8.563700,76.886500,NO2,NA,NA,NA
India,Kerala,Thiruvananthapuram,"Kariavattom, Thiruvananthapuram - Kerala PCB",10-02-2026 09:00:00,8.563700,76.886500,NH3,NA,NA,NA
India,Kerala,Thiruvananthapuram,"Plammoodu, Thiruvananthapuram - Kerala PCB",10-02-2026 09:00:00,8.5149093,76.9435879,SO2,7,32,21
India,Kerala,Thiruvananthapuram,"Plammoodu, Thiruvananthapuram - Kerala PCB",10-02-2026 09:00:00,8.5149093,76.9435879,CO,13,32,15
India,Kerala,Thrissur,"Corporation Ground, Thrissur - Kerala PCB",10-02-2026 09:00:00,10.532400,76.215900,OZONE,29,30,29
India,Madhya Pradesh,Bhopal,"Idgah Hills, Bhopal - MPPCB",10-02-2026 09:00:00,23.264759,77.381568,PM10,68,174,105
India,Madhya Pradesh,Bhopal,"Idgah Hills, Bhopal - MPPCB",10-02-2026 09:00:00,23.264759,77.381568,NH3,4,6,5
India,Madhya Pradesh,Bhopal,"Idgah Hills, Bhopal - MPPCB",10-02-2026 09:00:00,23.264759,77.381568,OZONE,10,86,44
India,Karnataka,Chikkamagaluru,"Kalyana Nagara, Chikkamagaluru - KSPCB",10-02-2026 09:00:00,13.328028,75.797056,PM10,32,57,45
India,Karnataka,Chikkamagaluru,"Kalyana Nagara, Chikkamagaluru - KSPCB",10-02-2026 09:00:00,13.328028,75.797056,NO2,19,36,25
India,Karnataka,Dharwad,"Kalabhavan, Dharwad - KSPCB",10-02-2026 09:00:00,15.459706,75.008381,CO,54,96,83
India,Karnataka,Dharwad,"Kalabhavan, Dharwad - KSPCB",10-02-2026 09:00:00,15.459706,75.008381,OZONE,24,31,31
India,Karnataka,Hubballi,"Lingaraj Nagar, Hubballi - KSPCB",10-02-2026 09:00:00,15.3714823,75.1160168,NO2,7,11,10
India,Karnataka,Hubballi,"Lingaraj Nagar, Hubballi - KSPCB",10-02-2026 09:00:00,15.3714823,75.1160168,SO2,2,7,3
India,Karnataka,Kalaburagi,"Mahatma Basaveswar Colony, Kalaburgi - KSPCB",10-02-2026 09:00:00,17.336318,76.847397,PM10,18,76,62
India,Karnataka,Kalaburagi,"Mahatma Basaveswar Colony, Kalaburgi - KSPCB",10-02-2026 09:00:00,17.336318,76.847397,CO,31,89,43
India,Karnataka,Madikeri,"Stuart Hill, Madikeri - KSPCB",10-02-2026 09:00:00,12.415911,75.735050,CO,8,19,14
India,Karnataka,Mysuru,"Hebbal 1st Stage, Mysuru - KSPCB",10-02-2026 09:00:00,12.21041,76.37376,PM2.5,51,112,74
India,Haryana,Sirsa,"F-Block, Sirsa - HSPCB",10-02-2026 09:00:00,29.536400,75.015800,NH3,NA,NA,NA
India,Haryana,Sirsa,"F-Block, Sirsa - HSPCB",10-02-2026 09:00:00,29.536400,75.015800,CO,NA,NA,NA
India,Haryana,Yamuna Nagar,"Gobind Pura, Yamuna Nagar - HSPCB",10-02-2026 09:00:00,30.1480566,77.2893471,PM2.5,188,355,292
India,Haryana,Yamuna Nagar,"Gobind Pura, Yamuna Nagar - HSPCB",10-02-2026 09:00:00,30.1480566,77.2893471,NO2,36,38,37
India,Himachal Pradesh,Baddi,"HIMUDA Complex Phase-1, Baddi - HPPCB",10-02-2026 09:00:00,30.943887,76.801991,OZONE,16,112,43
India,Jammu_and_Kashmir,Srinagar,"Khunmoh, Srinagar - JKPCC",10-02-2026 09:00:00,34.06313,74.96017,PM10,NA,NA,NA
India,Jammu_and_Kashmir,Srinagar,"Rajbagh, Srinagar - JKPCC",10-02-2026 09:00:00,34.066206,74.819820,PM2.5,15,33,25
India,Jammu_and_Kashmir,Srinagar,"Rajbagh, Srinagar - JKPCC",10-02-2026 09:00:00,34.066206,74.819820,CO,10,21,11
India,Jharkhand,Dhanbad,"Sardar Patel Nagar, Dhanbad - JSPCB",10-02-2026 09:00:00,23.80569,86.44268,PM2.5,21,152,56
India,Haryana,Jind,"Police Lines, Jind - HSPCB",10-02-2026 09:00:00,29.307814,76.337619,OZONE,13,31,17
India,Haryana,Kaithal,"Rishi Nagar, Kaithal - HSPCB",10-02-2026 09:00:00,29.8006,76.4155,PM10,96,149,122
India,Haryana,Kaithal,"Rishi Nagar, Kaithal - HSPCB",10-02-2026 09:00:00,29.8006,76.4155,OZONE,2,24,4
India,Haryana,Karnal,"Sector-12, Karnal - HSPCB",10-02-2026 09:00:00,29.695300,77.002700,NO2,6,7,6
India,Haryana,Kurukshetra,"Sector-7, Kurukshetra - HSPCB",10-02-2026 09:00:00,29.966942,76.875879,NO2,16,21,19
India,Haryana,Kurukshetra,"Sector-7, Kurukshetra - HSPCB",10-02-2026 09:00:00,29.966942,76.875879,NH3,5,5,5
India,Haryana,Mandikhera,"General Hospital, Mandikhera(Nuh) - HSPCB",10-02-2026 09:00:00,27.9002,76.9938,PM2.5,68,187,100
India,Haryana,Mandikhera,"General Hospital, Mandikhera(Nuh) - HSPCB",10-02-2026 09:00:00,27.9002,76.9938,NH3,12,14,13
India,Haryana,Mandikhera,"General Hospital, Mandikhera(Nuh) - HSPCB",10-02-2026 09:00:00,27.9002,76.9938,SO2,32,36,34
India,Haryana,Manesar,"Sector-2 IMT, Manesar - HSPCB",10-02-2026 09:00:00,28.360699,76.936090,CO,12,42,22
India,Karnataka,Bengaluru,"Hebbal, Bengaluru - KSPCB",10-02-2026 09:00:00,13.029152,77.585901,SO2,12,22,15
India,Karnataka,Bengaluru,"Hombegowda Nagar, Bengaluru - KSPCB",10-02-2026 09:00:00,12.938539,77.590100,NH3,4,6,5
India,Karnataka,Bengaluru,"Hombegowda Nagar, Bengaluru - KSPCB",10-02-2026 09:00:00,12.938539,77.590100,SO2,12,23,17
India,Karnataka,Bengaluru,"Jayanagar 5th Block, Bengaluru - KSPCB",10-02-2026 09:00:00,12.920984,77.584908,PM2.5,80,128,98
India,Karnataka,Bengaluru,"Jayanagar 5th Block, Bengaluru - KSPCB",10-02-2026 09:00:00,12.920984,77.584908,NH3,2,3,2
India,Karnataka,Bengaluru,"Jayanagar 5th Block, Bengaluru - KSPCB",10-02-2026 09:00:00,12.920984,77.584908,OZONE,11,176,83
India,Karnataka,Bengaluru,"Jigani, Bengaluru - KSPCB",10-02-2026 09:00:00,12.7816279,77.6299145,PM2.5,50,81,67
India,Karnataka,Bengaluru,"Peenya, Bengaluru - CPCB",10-02-2026 09:00:00,13.0270199,77.494094,PM2.5,23,48,34
India,Karnataka,Bengaluru,"Peenya, Bengaluru - CPCB",10-02-2026 09:00:00,13.0270199,77.494094,NO2,18,30,25
India,Karnataka,Bengaluru,"Peenya, Bengaluru - CPCB",10-02-2026 09:00:00,13.0270199,77.494094,SO2,5,22,12
India,Karnataka,Bengaluru,"Sanegurava Halli, Bengaluru - KSPCB",10-02-2026 09:00:00,12.990328,77.5431385,PM10,50,53,52
India,Karnataka,Bengaluru,"Shivapura_Peenya, Bengaluru - KSPCB",10-02-2026 09:00:00,13.0246342,77.5080115,PM10,92,128,111
India,Karnataka,Bengaluru,"Shivapura_Peenya, Bengaluru - KSPCB",10-02-2026 09:00:00,13.0246342,77.5080115,SO2,3,7,5
India,Karnataka,Bengaluru,"Silk Board, Bengaluru - KSPCB",10-02-2026 09:00:00,12.917348,77.622813,PM10,102,239,136
India,Karnataka,Bengaluru,"Silk Board, Bengaluru - KSPCB",10-02-2026 09:00:00,12.917348,77.622813,NH3,3,8,6
India,Karnataka,Chamarajanagar,"Urban, Chamarajanagar - KSPCB",10-02-2026 09:00:00,11.55358,76.55521,PM10,13,92,55
India,Karnataka,Chamarajanagar,"Urban, Chamarajanagar - KSPCB",10-02-2026 09:00:00,11.55358,76.55521,SO2,3,5,3
India,Karnataka,Chamarajanagar,"Urban, Chamarajanagar - KSPCB",10-02-2026 09:00:00,11.55358,76.55521,OZONE,14,49,18
India,Haryana,Narnaul,"Shastri Nagar, Narnaul - HSPCB",10-02-2026 09:00:00,28.060249,76.113115,NO2,51,82,63
India,Haryana,Palwal,"Shyam Nagar, Palwal - HSPCB",10-02-2026 09:00:00,28.1485564,77.3320667,NH3,8,9,9
India,Haryana,Palwal,"Shyam Nagar, Palwal - HSPCB",10-02-2026 09:00:00,28.1485564,77.3320667,CO,18,48,32
India,Haryana,Panchkula,"Sector-6, Panchkula - HSPCB ",10-02-2026 09:00:00,30.7057778,76.8531805555555,SO2,14,15,15
India,Haryana,Panipat,"Sector-18, Panipat - HSPCB",10-02-2026 09:00:00,29.432304,76.972765,NH3,2,3,2
India,Karnataka,Belgaum,"Ramteerth Nagar, Belgaum - KSPCB",10-02-2026 09:00:00,15.888653,74.541751,NO2,NA,NA,NA
India,Karnataka,Bengaluru,"Bapuji Nagar, Bengaluru - KSPCB",10-02-2026 09:00:00,12.951913,77.539784,CO,NA,NA,NA
India,Karnataka,Bengaluru,"City Railway Station, Bengaluru - KSPCB",10-02-2026 09:00:00,12.9756843,77.5660749,NO2,32,36,34
India,Madhya Pradesh,Bhopal,"Paryavaran Parisar, Bhopal - MPPCB",10-02-2026 09:00:00,23.210494,77.425409,PM10,71,296,141
India,Madhya Pradesh,Bhopal,"Paryavaran Parisar, Bhopal - MPPCB",10-02-2026 09:00:00,23.210494,77.425409,NO2,24,87,56
India,Madhya Pradesh,Bhopal,"T T Nagar, Bhopal - MPPCB",10-02-2026 09:00:00,23.233584,77.400574,PM2.5,55,117,74
India,Madhya Pradesh,Bhopal,"T T Nagar, Bhopal - MPPCB",10-02-2026 09:00:00,23.233584,77.400574,SO2,15,34,20
India,Madhya Pradesh,Bhopal,"T T Nagar, Bhopal - MPPCB",10-02-2026 09:00:00,23.233584,77.400574,OZONE,21,159,86
India,Madhya Pradesh,Damoh,"Shrivastav Colony, Damoh - MPPCB",10-02-2026 09:00:00,23.81748678,79.446246,PM2.5,13,262,37
India,Madhya Pradesh,Damoh,"Shrivastav Colony, Damoh - MPPCB",10-02-2026 09:00:00,23.81748678,79.446246,SO2,NA,NA,NA
India,Madhya Pradesh,Damoh,"Shrivastav Colony, Damoh - MPPCB",10-02-2026 09:00:00,23.81748678,79.446246,CO,6,24,22
India,Madhya Pradesh,Dewas,"Bhopal Chauraha, Dewas - MPPCB",10-02-2026 09:00:00,22.9682591,76.064118,OZONE,11,91,14
India,Madhya Pradesh,Gwalior,"City Center, Gwalior - MPPCB",10-02-2026 09:00:00,26.203442,78.193251,SO2,11,24,18
India,Madhya Pradesh,Gwalior,"City Center, Gwalior - MPPCB",10-02-2026 09:00:00,26.203442,78.193251,CO,26,102,45
India,Madhya Pradesh,Gwalior,"Deen Dayal Nagar, Gwalior - MPPCB",10-02-2026 09:00:00,26.259242,78.216432,NO2,17,74,41
India,Madhya Pradesh,Gwalior,"Deen Dayal Nagar, Gwalior - MPPCB",10-02-2026 09:00:00,26.259242,78.216432,SO2,6,19,12
India,Madhya Pradesh,Jabalpur,"Govindh Bhavan Colony, Jabalpur - JMC",10-02-2026 09:00:00,23.163174,79.973061,PM10,37,85,52
India,Madhya Pradesh,Jabalpur,"Govindh Bhavan Colony, Jabalpur - JMC",10-02-2026 09:00:00,23.163174,79.973061,NO2,9,15,11
India,Madhya Pradesh,Jabalpur,"Govindh Bhavan Colony, Jabalpur - JMC",10-02-2026 09:00:00,23.163174,79.973061,NH3,2,2,2
India,Madhya Pradesh,Jabalpur,"Govindh Bhavan Colony, Jabalpur - JMC",10-02-2026 09:00:00,23.163174,79.973061,SO2,4,6,5
India,Madhya Pradesh,Jabalpur,"Gupteshwar, Jabalpur - JMC",10-02-2026 09:00:00,23.142888,79.916147,SO2,14,20,18
India,Madhya Pradesh,Jabalpur,"Gupteshwar, Jabalpur - JMC",10-02-2026 09:00:00,23.142888,79.916147,OZONE,32,87,32
India,Madhya Pradesh,Jabalpur,"Marhatal, Jabalpur - MPPCB",10-02-2026 09:00:00,23.168606,79.932247,NH3,1,3,2
India,Madhya Pradesh,Katni,"Gole Bazar, Katni - MPPCB",10-02-2026 09:00:00,23.50016,80.23284,PM2.5,15,201,91
India,Madhya Pradesh,Katni,"Gole Bazar, Katni - MPPCB",10-02-2026 09:00:00,23.50016,80.23284,PM10,33,236,105
India,Madhya Pradesh,Katni,"Gole Bazar, Katni - MPPCB",10-02-2026 09:00:00,23.50016,80.23284,NH3,2,4,3
India,Madhya Pradesh,Katni,"Gole Bazar, Katni - MPPCB",10-02-2026 09:00:00,23.50016,80.23284,SO2,18,54,36
India,Madhya Pradesh,Pithampur,"Sector-2 Industrial Area, Pithampur - MPPCB",10-02-2026 09:00:00,22.624758,75.675238,PM2.5,80,326,214
India,Madhya Pradesh,Pithampur,"Sector-2 Industrial Area, Pithampur - MPPCB",10-02-2026 09:00:00,22.624758,75.675238,PM10,89,299,180
India,Maharashtra,Ahmednagar,"Tarakpur, Ahmednagar - MPCB",10-02-2026 09:00:00,19.10122,74.73339,PM10,64,185,122
India,Maharashtra,Ahmednagar,"Tarakpur, Ahmednagar - MPCB",10-02-2026 09:00:00,19.10122,74.73339,NO2,14,29,21
India,Maharashtra,Akola,"Ramdaspeth, Akola - MPCB",10-02-2026 09:00:00,20.719516,77.000253,PM10,55,142,90
India,Maharashtra,Akola,"Ramdaspeth, Akola - MPCB",10-02-2026 09:00:00,20.719516,77.000253,CO,16,71,19
India,Maharashtra,Amravati,"Shivneri Colony, Amravati - MPCB",10-02-2026 09:00:00,20.9402359,77.7895248,NO2,10,24,15
India,Maharashtra,Amravati,"Shivneri Colony, Amravati - MPCB",10-02-2026 09:00:00,20.9402359,77.7895248,NH3,5,5,5
India,Maharashtra,Amravati,"Shivneri Colony, Amravati - MPCB",10-02-2026 09:00:00,20.9402359,77.7895248,OZONE,29,93,36
India,Maharashtra,Amravati,"Shri Shivaji Science College, Amravati - MPCB",10-02-2026 09:00:00,20.939198,77.765701,CO,8,100,32
India,Maharashtra,Amravati,"Shri Shivaji Science College, Amravati - MPCB",10-02-2026 09:00:00,20.939198,77.765701,OZONE,11,83,46
India,Maharashtra,Aurangabad,"MIDC Chilkalthana, Aurangabad - MPCB",10-02-2026 09:00:00,19.875620,75.387310,NO2,22,85,54
India,Maharashtra,Boisar,"Khaira, Boisar - MPCB",10-02-2026 09:00:00,19.786089,72.757971,OZONE,1,81,20
India,Maharashtra,Chandrapur,"Chauhan Colony, Chandrapur - MPCB",10-02-2026 09:00:00,19.962900,79.298714,PM2.5,NA,NA,NA
India,Maharashtra,Chandrapur,"MIDC Khutala, Chandrapur - MPCB",10-02-2026 09:00:00,19.9775302,79.2337086,PM10,126,132,129
India,Maharashtra,Chandrapur,"MIDC Khutala, Chandrapur - MPCB",10-02-2026 09:00:00,19.9775302,79.2337086,NO2,9,29,15
India,Maharashtra,Chandrapur,"MIDC Khutala, Chandrapur - MPCB",10-02-2026 09:00:00,19.9775302,79.2337086,OZONE,17,19,18
India,Maharashtra,Jalgaon,"Prabhat Colony, Jalgaon - MPCB",10-02-2026 09:00:00,21.001264,75.565602,CO,20,67,22
India,Maharashtra,Jalgaon,"Prabhat Colony, Jalgaon - MPCB",10-02-2026 09:00:00,21.001264,75.565602,OZONE,3,93,28
India,Maharashtra,Jalna,"Old MIDC, Jalna - MPCB",10-02-2026 09:00:00,19.854616,75.905894,PM2.5,75,124,91
India,Madhya Pradesh,Sagar,"Deen Dayal Nagar, Sagar - MPPCB",10-02-2026 09:00:00,23.8640158,78.80289321,NO2,6,53,15
India,Madhya Pradesh,Sagar,"Deen Dayal Nagar, Sagar - MPPCB",10-02-2026 09:00:00,23.8640158,78.80289321,CO,12,22,15
India,Madhya Pradesh,Singrauli,"Suryakiran Bhawan NCL, Singrauli - MPPCB",10-02-2026 09:00:00,24.108970,82.645580,PM10,102,412,226
India,Madhya Pradesh,Singrauli,"Suryakiran Bhawan NCL, Singrauli - MPPCB",10-02-2026 09:00:00,24.108970,82.645580,NH3,1,2,1
India,Madhya Pradesh,Singrauli,"Suryakiran Bhawan NCL, Singrauli - MPPCB",10-02-2026 09:00:00,24.108970,82.645580,SO2,41,84,56
India,Madhya Pradesh,Ujjain,"Mahashweta Nagar, Ujjain - MPPCB",10-02-2026 09:00:00,23.1633321,75.800225,PM2.5,76,275,179
India,Maharashtra,Jalna,"Old MIDC, Jalna - MPCB",10-02-2026 09:00:00,19.854616,75.905894,OZONE,20,50,25
India,Maharashtra,Kalyan,"Pimpleshwar Mandir, Kalyan - MPCB",10-02-2026 09:00:00,19.192056,72.9585188,PM2.5,NA,NA,NA
India,Maharashtra,Latur,"Sawe Wadi, Latur - MPCB",10-02-2026 09:00:00,18.39963,76.57452,NH3,5,25,10
India,Maharashtra,Latur,"Sawe Wadi, Latur - MPCB",10-02-2026 09:00:00,18.39963,76.57452,SO2,4,18,10
India,Maharashtra,Latur,"Sawe Wadi, Latur - MPCB",10-02-2026 09:00:00,18.39963,76.57452,OZONE,22,61,32
India,Maharashtra,Mahad,"Kamble Tarf Birwadi, Mahad - MPCB",10-02-2026 09:00:00,18.1023399,73.4783687,SO2,1,135,27
India,Maharashtra,Aurangabad,"MIDC Chilkalthana, Aurangabad - MPCB",10-02-2026 09:00:00,19.875620,75.387310,SO2,11,21,16
India,Maharashtra,Aurangabad,"MIDC Chilkalthana, Aurangabad - MPCB",10-02-2026 09:00:00,19.875620,75.387310,CO,16,83,46
India,Maharashtra,Aurangabad,"More Chowk Waluj, Aurangabad - MPCB",10-02-2026 09:00:00,19.8389439,75.244448,NO2,16,25,19
India,Maharashtra,Aurangabad,"Rachnakar Colony, Aurangabad - MPCB",10-02-2026 09:00:00,19.863756,75.321188,PM10,67,227,128
India,Maharashtra,Badlapur,"Katrap, Badlapur - MPCB",10-02-2026 09:00:00,19.16485,73.23409,PM2.5,79,500,127
India,Madhya Pradesh,Indore,"Airport Area, Indore - IMC",10-02-2026 09:00:00,22.7289,75.8076,SO2,2,4,3
India,Madhya Pradesh,Indore,"Chhoti Gwaltoli, Indore - MPPCB",10-02-2026 09:00:00,22.4310,75.5213,PM2.5,52,407,151
India,Madhya Pradesh,Indore,"Chhoti Gwaltoli, Indore - MPPCB",10-02-2026 09:00:00,22.4310,75.5213,CO,34,117,102
India,Madhya Pradesh,Indore,"Maguda Nagar, Indore - IMC",10-02-2026 09:00:00,22.7524,75.8872,PM10,23,177,79
India,Madhya Pradesh,Indore,"Regional Park, Indore - IMC",10-02-2026 09:00:00,22.6780,75.8559,SO2,8,12,10
India,Maharashtra,Bhiwandi,"Gokul Nagar, Bhiwandi - MPCB",10-02-2026 09:00:00,19.309073,73.057223,NO2,16,50,33
India,Maharashtra,Mumbai,"Malad West, Mumbai - IITM",10-02-2026 09:00:00,19.19709,72.82204,CO,6,94,26
India,Maharashtra,Mumbai,"Malad West, Mumbai - IITM",10-02-2026 09:00:00,19.19709,72.82204,OZONE,45,84,65
India,Maharashtra,Mumbai,"Mazgaon, Mumbai - IITM",10-02-2026 09:00:00,18.96702,72.84214,PM2.5,53,198,101
India,Maharashtra,Mumbai,"Mazgaon, Mumbai - IITM",10-02-2026 09:00:00,18.96702,72.84214,NO2,32,114,84
India,Maharashtra,Mumbai,"Mazgaon, Mumbai - IITM",10-02-2026 09:00:00,18.96702,72.84214,NH3,13,19,15
India,Maharashtra,Mumbai,"Mindspace-Malad West, Mumbai - MPCB",10-02-2026 09:00:00,19.1878657,72.8304069,PM10,104,115,111
India,Maharashtra,Mumbai,"Mindspace-Malad West, Mumbai - MPCB",10-02-2026 09:00:00,19.1878657,72.8304069,NH3,2,23,5
India,Maharashtra,Mumbai,"Mindspace-Malad West, Mumbai - MPCB",10-02-2026 09:00:00,19.1878657,72.8304069,CO,18,66,27
India,Maharashtra,Mumbai,"Mulund West, Mumbai - MPCB",10-02-2026 09:00:00,19.1750,72.9419,SO2,NA,NA,NA
India,Maharashtra,Mumbai,"Navy Nagar-Colaba, Mumbai - IITM",10-02-2026 09:00:00,18.897756,72.813320,PM2.5,82,195,117
India,Maharashtra,Mumbai,"Navy Nagar-Colaba, Mumbai - IITM",10-02-2026 09:00:00,18.897756,72.813320,OZONE,5,75,42
India,Maharashtra,Mumbai,"Powai, Mumbai - MPCB",10-02-2026 09:00:00,19.137500,72.915056,NO2,7,8,8
India,Maharashtra,Mumbai,"Sewri, Mumbai - BMC",10-02-2026 09:00:00,19.000084,72.856730,PM10,42,141,95
India,Maharashtra,Mumbai,"Kandivali West, Mumbai - BMC",10-02-2026 09:00:00,19.215859,72.831718,CO,30,98,54
India,Maharashtra,Mumbai,"Kherwadi_Bandra East, Mumbai - MPCB",10-02-2026 09:00:00,19.0632143,72.8456324,PM2.5,65,181,93
India,Maharashtra,Mumbai,"Kherwadi_Bandra East, Mumbai - MPCB",10-02-2026 09:00:00,19.0632143,72.8456324,CO,7,46,21
India,Maharashtra,Mumbai,"Kherwadi_Bandra East, Mumbai - MPCB",10-02-2026 09:00:00,19.0632143,72.8456324,OZONE,1,82,9
India,Maharashtra,Mumbai,"Khindipada-Bhandup West, Mumbai - IITM",10-02-2026 09:00:00,19.1653323,72.922099,NO2,14,57,27
India,Maharashtra,Mumbai,"Khindipada-Bhandup West, Mumbai - IITM",10-02-2026 09:00:00,19.1653323,72.922099,NH3,5,7,6
India,Maharashtra,Mumbai,"Khindipada-Bhandup West, Mumbai - IITM",10-02-2026 09:00:00,19.1653323,72.922099,SO2,2,30,12
India,Maharashtra,Mumbai,"Kurla, Mumbai - MPCB",10-02-2026 09:00:00,19.0863,72.8888,NH3,2,2,2
India,Maharashtra,Mumbai,"Malad West, Mumbai - IITM",10-02-2026 09:00:00,19.19709,72.82204,PM2.5,33,124,74
India,Maharashtra,Mumbai,"Malad West, Mumbai - IITM",10-02-2026 09:00:00,19.19709,72.82204,NO2,30,112,55
India,Maharashtra,Mumbai,"Borivali East, Mumbai - IITM",10-02-2026 09:00:00,19.23241,72.86895,PM2.5,59,127,83
India,Maharashtra,Mumbai,"Borivali East, Mumbai - IITM",10-02-2026 09:00:00,19.23241,72.86895,NH3,5,7,6
India,Maharashtra,Mumbai,"Byculla, Mumbai - BMC",10-02-2026 09:00:00,18.9767,72.8380,NO2,36,142,65
India,Maharashtra,Mumbai,"Byculla, Mumbai - BMC",10-02-2026 09:00:00,18.9767,72.8380,SO2,1,5,2
India,Maharashtra,Mumbai,"Chakala-Andheri East, Mumbai - IITM",10-02-2026 09:00:00,19.11074,72.86084,PM2.5,20,189,113
India,Maharashtra,Mumbai,"Chakala-Andheri East, Mumbai - IITM",10-02-2026 09:00:00,19.11074,72.86084,NO2,29,71,44
India,Maharashtra,Mumbai,"Chakala-Andheri East, Mumbai - IITM",10-02-2026 09:00:00,19.11074,72.86084,NH3,6,14,8
India,Maharashtra,Mumbai,"Chembur, Mumbai - MPCB",10-02-2026 09:00:00,19.0364585,72.8954371,NO2,23,62,41
India,Maharashtra,Mumbai,"Chembur, Mumbai - MPCB",10-02-2026 09:00:00,19.0364585,72.8954371,NH3,13,17,15
India,Maharashtra,Nagpur,"Opp GPO Civil Lines, Nagpur - MPCB",10-02-2026 09:00:00,21.152875,79.0517531,NH3,4,16,10
India,Maharashtra,Nagpur,"Ram Nagar, Nagpur - MPCB",10-02-2026 09:00:00,21.143383,79.048912,NH3,4,4,4
India,Maharashtra,Nanded,"Sneh Nagar, Nanded - MPCB",10-02-2026 09:00:00,19.173852,77.296291,PM10,89,161,128
India,Maharashtra,Nashik,"Gangapur Road, Nashik - MPCB",10-02-2026 09:00:00,20.0073285,73.7762427,NO2,5,5,5
India,Maharashtra,Nashik,"Gangapur Road, Nashik - MPCB",10-02-2026 09:00:00,20.0073285,73.7762427,CO,21,22,22
India,Maharashtra,Nashik,"Gangapur Road, Nashik - MPCB",10-02-2026 09:00:00,20.0073285,73.7762427,OZONE,10,47,47
India,Maharashtra,Nashik,"MIDC Ambad, Nashik - MPCB",10-02-2026 09:00:00,19.950220,73.731480,NH3,2,5,4
India,Maharashtra,Mumbai,"Shivaji Nagar, Mumbai - BMC",10-02-2026 09:00:00,19.060498,72.923356,OZONE,1,77,20
India,Maharashtra,Mumbai,"Siddharth Nagar-Worli, Mumbai - IITM",10-02-2026 09:00:00,19.000083,72.813993,NH3,4,9,5
India,Maharashtra,Mumbai,"Siddharth Nagar-Worli, Mumbai - IITM",10-02-2026 09:00:00,19.000083,72.813993,CO,2,76,50
India,Maharashtra,Mumbai,"Vile Parle West, Mumbai - MPCB",10-02-2026 09:00:00,19.10861,72.83622,PM2.5,54,155,70
India,Maharashtra,Nagpur,"Ambazari, Nagpur - MPCB",10-02-2026 09:00:00,21.121801,79.04952,CO,4,86,38
India,Maharashtra,Nagpur,"Mahal, Nagpur - MPCB",10-02-2026 09:00:00,21.14472,79.107595,NH3,7,9,8
India,Maharashtra,Mumbai,"Chhatrapati Shivaji Intl. Airport (T2), Mumbai - MPCB",10-02-2026 09:00:00,19.10078,72.87462,PM2.5,75,280,106
India,Maharashtra,Mumbai,"Chhatrapati Shivaji Intl. Airport (T2), Mumbai - MPCB",10-02-2026 09:00:00,19.10078,72.87462,SO2,19,24,21
India,Maharashtra,Mumbai,"Deonar, Mumbai - IITM",10-02-2026 09:00:00,19.04946,72.9230,SO2,6,22,9
India,Maharashtra,Mumbai,"Ghatkopar, Mumbai - BMC",10-02-2026 09:00:00,19.083694,72.920967,SO2,1,5,2
India,Maharashtra,Mumbai,"Kandivali East, Mumbai - MPCB",10-02-2026 09:00:00,19.205800,72.868200,NO2,30,30,30
India,Maharashtra,Malegaon,"Mahesh Nagar, Malegaon - MPCB",10-02-2026 09:00:00,20.555712,74.529236,NO2,5,12,7
India,Maharashtra,Malegaon,"Mahesh Nagar, Malegaon - MPCB",10-02-2026 09:00:00,20.555712,74.529236,NH3,1,2,1
India,Maharashtra,Mira-Bhayandar,"Bhayandar West, Mira-Bhayandar - MPCB",10-02-2026 09:00:00,19.296481,72.840923,PM10,68,142,103
India,Maharashtra,Mumbai,"Bandra Kurla Complex, Mumbai - IITM",10-02-2026 09:00:00,19.053536,72.84643,NH3,NA,NA,NA
India,Maharashtra,Navi Mumbai,"Kopripada-Vashi, Navi Mumbai - MPCB",10-02-2026 09:00:00,19.090337,73.014232,PM10,NA,NA,NA
India,Maharashtra,Navi Mumbai,"Sector-2E Kalamboli, Navi Mumbai - MPCB",10-02-2026 09:00:00,19.02579,73.10297,NO2,12,60,37
India,Maharashtra,Mumbai,"Kandivali West, Mumbai - BMC",10-02-2026 09:00:00,19.215859,72.831718,PM10,103,146,115
India,Odisha,Tensa,"Barsua Iron Ore Mines, Tensa - OSPCB",10-02-2026 09:00:00,21.869985,85.167016,PM10,NA,NA,NA
India,Odisha,Tensa,"Barsua Iron Ore Mines, Tensa - OSPCB",10-02-2026 09:00:00,21.869985,85.167016,CO,32,51,35
India,Puducherry,Puducherry,"Jawahar Nagar, Puducherry - PPCC",10-02-2026 09:00:00,11.9309,79.8027,NO2,5,46,24
India,Punjab,Amritsar,"Golden Temple, Amritsar - PPCB",10-02-2026 09:00:00,31.620000,74.876512,SO2,18,53,25
India,Punjab,Amritsar,"Golden Temple, Amritsar - PPCB",10-02-2026 09:00:00,31.620000,74.876512,CO,36,101,66
India,Punjab,Bathinda,"Hardev Nagar, Bathinda - PPCB",10-02-2026 09:00:00,30.233011,74.907758,PM10,83,180,113
India,Punjab,Bathinda,"Hardev Nagar, Bathinda - PPCB",10-02-2026 09:00:00,30.233011,74.907758,NO2,14,20,17
India,Punjab,Bathinda,"Hardev Nagar, Bathinda - PPCB",10-02-2026 09:00:00,30.233011,74.907758,CO,74,80,78
India,Punjab,Jalandhar,"Civil Line, Jalandhar - PPCB",10-02-2026 09:00:00,31.321907,75.578914,OZONE,38,59,42
India,Punjab,Khanna,"Kalal Majra, Khanna - PPCB",10-02-2026 09:00:00,30.736056 ,76.209694,PM2.5,61,437,130
India,Maharashtra,Pune,"Panchawati_Pashan, Pune - IITM",10-02-2026 09:00:00,18.536457,73.805454,OZONE,2,59,8
India,Maharashtra,Pune,"Revenue Colony-Shivajinagar, Pune - IITM",10-02-2026 09:00:00,18.530085,73.849598,NO2,22,116,60
India,Maharashtra,Pune,"Revenue Colony-Shivajinagar, Pune - IITM",10-02-2026 09:00:00,18.530085,73.849598,OZONE,9,155,32
India,Maharashtra,Sangli,"Vijay Nagar, Sangli - MPCB",10-02-2026 09:00:00, 16.5038,74.3623,NH3,1,7,3
India,Maharashtra,Solapur,"Dnyaneshwar Nagar, Solapur - MPCB",10-02-2026 09:00:00,17.6336264,75.9132495,NH3,6,80,18
India,Maharashtra,Solapur,"Dnyaneshwar Nagar, Solapur - MPCB",10-02-2026 09:00:00,17.6336264,75.9132495,SO2,5,14,9
India,Maharashtra,Solapur,"Ratandeep Housing Society, Solapur - MPCB",10-02-2026 09:00:00,17.65439,75.90649,NH3,2,51,11
India,Maharashtra,Thane,"Kasarvadavali, Thane - MPCB",10-02-2026 09:00:00,19.26777,72.97182,PM2.5,41,67,49
India,Punjab,Khanna,"Kalal Majra, Khanna - PPCB",10-02-2026 09:00:00,30.736056 ,76.209694,NO2,25,31,28
India,Punjab,Khanna,"Kalal Majra, Khanna - PPCB",10-02-2026 09:00:00,30.736056 ,76.209694,NH3,7,7,7
India,Punjab,Ludhiana,"Punjab Agricultural University, Ludhiana - PPCB",10-02-2026 09:00:00,30.9028,75.8086,CO,36,99,69
India,Punjab,Ludhiana,"Punjab Agricultural University, Ludhiana - PPCB",10-02-2026 09:00:00,30.9028,75.8086,OZONE,15,30,16
India,Punjab,Mandi Gobindgarh,"RIMT University, Mandi Gobindgarh - PPCB",10-02-2026 09:00:00,30.649961,76.331442,CO,14,137,67
India,Punjab,Patiala,"Model Town, Patiala - PPCB",10-02-2026 09:00:00,30.349388,76.366642,PM2.5,49,97,78
India,Punjab,Patiala,"Model Town, Patiala - PPCB",10-02-2026 09:00:00,30.349388,76.366642,SO2,8,28,16
India,Punjab,Rupnagar,"Ratanpura, Rupnagar - Ambuja Cements",10-02-2026 09:00:00,31.0325454,76.5623046,PM2.5,17,68,39
India,Odisha,Brajrajnagar,"GM Office, Brajrajnagar - OSPCB",10-02-2026 09:00:00,21.8004996,83.8396977,OZONE,8,31,30
India,Odisha,Byasanagar,"Ferro Chrome Colony, Byasanagar - OSPCB",10-02-2026 09:00:00,20.94185,86.11510,OZONE,31,186,66
India,Odisha,Cuttack,"CDA Area, Cuttack - OSPCB",10-02-2026 09:00:00,20.48891     ,85.84768     ,PM10,NA,NA,NA
India,Odisha,Rourkela,"Raghunathpali, Rourkela - OSPCB",10-02-2026 09:00:00,22.220833,84.809444,NH3,1,2,1
India,Odisha,Rourkela,"Sector-2, Rourkela - OSPCB",10-02-2026 09:00:00,22.24500000,84.88111111,PM2.5,45,70,54
India,Odisha,Talcher,"Talcher Coalfields,Talcher - OSPCB",10-02-2026 09:00:00,20.9360711,85.1707021,PM2.5,28,405,148
India,Odisha,Talcher,"Talcher Coalfields,Talcher - OSPCB",10-02-2026 09:00:00,20.9360711,85.1707021,NH3,6,8,6
India,Maharashtra,Thane,"Kasarvadavali, Thane - MPCB",10-02-2026 09:00:00,19.26777,72.97182,CO,14,66,45
India,Maharashtra,Thane,"Kasarvadavali, Thane - MPCB",10-02-2026 09:00:00,19.26777,72.97182,OZONE,1,96,7
India,Maharashtra,Thane,"Upvan Fort, Thane - MPCB",10-02-2026 09:00:00,19.222279,72.957979,NO2,11,47,26
India,Maharashtra,Ulhasnagar,"Sidhi Vinayak Nagar, Ulhasnagar - MPCB",10-02-2026 09:00:00,19.235581,73.159121,NO2,11,33,22
India,Maharashtra,Virar,"Bolinj, Virar - MPCB",10-02-2026 09:00:00,19.4458210,72.7988231,PM10,61,147,94
India,Maharashtra,Virar,"Bolinj, Virar - MPCB",10-02-2026 09:00:00,19.4458210,72.7988231,NO2,11,84,33
India,Maharashtra,Virar,"Bolinj, Virar - MPCB",10-02-2026 09:00:00,19.4458210,72.7988231,CO,21,120,67
India,Mizoram,Aizawl,"Sikulpuikawn, Aizawl - Mizoram PCB",10-02-2026 09:00:00,23.7176342,92.7192841,SO2,16,17,16
India,Maharashtra,Pimpri-Chinchwad,"Thergaon, Pimpri Chinchwad - MPCB",10-02-2026 09:00:00,18.616318,73.765797,SO2,1,6,3
India,Maharashtra,Pimpri-Chinchwad,"Thergaon, Pimpri Chinchwad - MPCB",10-02-2026 09:00:00,18.616318,73.765797,OZONE,2,96,14
India,Maharashtra,Pune,"Bhumkar Nagar, Pune - IITM",10-02-2026 09:00:00,18.605770,73.749976,PM10,NA,NA,NA
India,Maharashtra,Pune,"Bhumkar Nagar, Pune - IITM",10-02-2026 09:00:00,18.605770,73.749976,CO,NA,NA,NA
India,Maharashtra,Pune,"Hadapsar, Pune - IITM",10-02-2026 09:00:00,18.501793,73.927532,PM2.5,153,317,255
India,Maharashtra,Pune,"Katraj Dairy, Pune - MPCB",10-02-2026 09:00:00,18.454450,73.854155,CO,51,102,70
India,Maharashtra,Pune,"Mhada Colony, Pune - IITM",10-02-2026 09:00:00,18.573040,73.927715,PM10,153,273,209
India,Odisha,Baripada,"Meher Colony, Baripada - OSPCB",10-02-2026 09:00:00,21.941841,86.728318,CO,25,102,30
India,Odisha,Bileipada,"Tata Township, Bileipada - OSPCB",10-02-2026 09:00:00,22.06156703,85.47409613,OZONE,22,24,23
India,Odisha,Brajrajnagar,"GM Office, Brajrajnagar - OSPCB",10-02-2026 09:00:00,21.8004996,83.8396977,PM2.5,27,307,105
India,Maharashtra,Parbhani,"Masoom Colony, Parbhani - MPCB",10-02-2026 09:00:00,19.265594,76.761463,NO2,9,20,14
India,Maharashtra,Pimpri-Chinchwad,"Gavalinagar, Pimpri Chinchwad - MPCB",10-02-2026 09:00:00,18.63673,73.82487,CO,24,87,64
India,Maharashtra,Pimpri-Chinchwad,"Park Street Wakad, Pimpri Chinchwad - MPCB",10-02-2026 09:00:00,18.59051,73.77946,SO2,4,13,8
India,Nagaland,Kohima,"PWD Junction, Kohima - NPCB",10-02-2026 09:00:00,25.6635413,94.0989878,NO2,3,4,4
India,Nagaland,Kohima,"PWD Junction, Kohima - NPCB",10-02-2026 09:00:00,25.6635413,94.0989878,SO2,77,81,78
India,Odisha,Baripada,"Meher Colony, Baripada - OSPCB",10-02-2026 09:00:00,21.941841,86.728318,PM10,76,152,106
India,Rajasthan,Hanumangarh,"Housing Board, Hanumangarh - RSPCB",10-02-2026 09:00:00,29.610750,74.283608,PM2.5,NA,NA,NA
India,Rajasthan,Hanumangarh,"Housing Board, Hanumangarh - RSPCB",10-02-2026 09:00:00,29.610750,74.283608,SO2,4,18,10
India,Rajasthan,Jaipur,"Adarsh Nagar, Jaipur - RSPCB",10-02-2026 09:00:00,26.902909,75.836858,NH3,10,14,11
India,Rajasthan,Jaipur,"Adarsh Nagar, Jaipur - RSPCB",10-02-2026 09:00:00,26.902909,75.836858,SO2,11,30,21
India,Rajasthan,Jaipur,"Mansarovar Sector-12, Jaipur - RSPCB",10-02-2026 09:00:00,26.843698,75.766894,PM10,82,191,125
India,Rajasthan,Jaipur,"Mansarovar Sector-12, Jaipur - RSPCB",10-02-2026 09:00:00,26.843698,75.766894,NO2,20,56,29
India,Rajasthan,Jaipur,"Police Commissionerate, Jaipur - RSPCB",10-02-2026 09:00:00,26.9164092,75.7994901,PM2.5,25,135,86
India,Rajasthan,Jaipur,"Police Commissionerate, Jaipur - RSPCB",10-02-2026 09:00:00,26.9164092,75.7994901,SO2,21,33,26
India,Rajasthan,Jaipur,"Police Commissionerate, Jaipur - RSPCB",10-02-2026 09:00:00,26.9164092,75.7994901,OZONE,25,90,37
India,Rajasthan,Jaipur,"RIICO Sitapura, Jaipur - RSPCB",10-02-2026 09:00:00,26.786682,75.827928,CO,16,100,40
India,Rajasthan,Jaipur,"RIICO Sitapura, Jaipur - RSPCB",10-02-2026 09:00:00,26.786682,75.827928,OZONE,9,119,72
India,Rajasthan,Jaipur,"Sector-2 Murlipura, Jaipur - RSPCB",10-02-2026 09:00:00,26.960669,75.771817,PM10,58,165,94
India,Rajasthan,Jaipur,"Sector-2 Murlipura, Jaipur - RSPCB",10-02-2026 09:00:00,26.960669,75.771817,NO2,6,104,36
India,Rajasthan,Jaipur,"Shastri Nagar, Jaipur - RSPCB",10-02-2026 09:00:00,26.9502929,75.730943,NH3,7,20,12
India,Rajasthan,Jaipur,"Shastri Nagar, Jaipur - RSPCB",10-02-2026 09:00:00,26.9502929,75.730943,SO2,11,70,34
India,Rajasthan,Jaipur,"Shastri Nagar, Jaipur - RSPCB",10-02-2026 09:00:00,26.9502929,75.730943,CO,69,143,95
India,Rajasthan,Jaisalmer,"Sadar Bazar, Jaisalmer - RSPCB",10-02-2026 09:00:00,26.912329,70.909168,PM10,73,411,119
India,Rajasthan,Jaisalmer,"Sadar Bazar, Jaisalmer - RSPCB",10-02-2026 09:00:00,26.912329,70.909168,NO2,13,73,29
India,Rajasthan,Jaisalmer,"Sadar Bazar, Jaisalmer - RSPCB",10-02-2026 09:00:00,26.912329,70.909168,NH3,5,11,7
India,Rajasthan,Jhalawar,"Rajlaxmi Nagar, Jhalawar - RSPCB",10-02-2026 09:00:00,24.588397,76.172782,NO2,95,157,125
India,Rajasthan,Jhalawar,"Rajlaxmi Nagar, Jhalawar - RSPCB",10-02-2026 09:00:00,24.588397,76.172782,NH3,7,14,10
India,Rajasthan,Jhunjhunu,"Indra Nagar, Jhunjhunu - RSPCB",10-02-2026 09:00:00,28.108988,75.386577,PM10,101,345,153
India,Rajasthan,Jhunjhunu,"Indra Nagar, Jhunjhunu - RSPCB",10-02-2026 09:00:00,28.108988,75.386577,NO2,11,76,35
India,Rajasthan,Jhunjhunu,"Indra Nagar, Jhunjhunu - RSPCB",10-02-2026 09:00:00,28.108988,75.386577,NH3,5,10,8
India,Rajasthan,Jodhpur,"Collectorate, Jodhpur - RSPCB",10-02-2026 09:00:00,26.268249,73.0193853,NO2,15,39,25
India,Rajasthan,Jodhpur,"Digari Kalan, Jodhpur - RSPCB",10-02-2026 09:00:00,26.295810,73.082283,PM10,52,432,141
India,Rajasthan,Jodhpur,"Digari Kalan, Jodhpur - RSPCB",10-02-2026 09:00:00,26.295810,73.082283,NO2,13,96,48
India,Rajasthan,Jodhpur,"Digari Kalan, Jodhpur - RSPCB",10-02-2026 09:00:00,26.295810,73.082283,OZONE,1,114,5
India,Rajasthan,Jodhpur,"Jhalamand, Jodhpur - RSPCB",10-02-2026 09:00:00,26.215415,73.070156,NH3,9,39,21
India,Rajasthan,Jodhpur,"Mandor, Jodhpur - RSPCB",10-02-2026 09:00:00,26.358805,73.047444,NH3,4,7,5
India,Rajasthan,Jodhpur,"Samrat Ashok Udhyan, Jodhpur - RSPCB",10-02-2026 09:00:00,26.253384,72.976571,NH3,3,5,4
India,Rajasthan,Karauli,"Satyawati Vihar, Karauli - RSPCB",10-02-2026 09:00:00,26.506177,77.025989,SO2,2,15,6
India,Rajasthan,Kota,"Dhanmandi, Kota - RSPCB",10-02-2026 09:00:00,25.164090,75.858137,SO2,3,71,19
India,Rajasthan,Kota,"Shrinath Puram, Kota - RSPCB",10-02-2026 09:00:00,25.14389,75.821256,PM10,86,137,107
India,Rajasthan,Kota,"Shrinath Puram, Kota - RSPCB",10-02-2026 09:00:00,25.14389,75.821256,OZONE,1,22,7
India,Rajasthan,Nagaur,"Karni Colony, Nagaur - RSPCB",10-02-2026 09:00:00,27.213494,73.734444,PM10,58,500,161
India,Rajasthan,Nagaur,"Karni Colony, Nagaur - RSPCB",10-02-2026 09:00:00,27.213494,73.734444,NH3,7,16,11
India,Rajasthan,Nagaur,"Karni Colony, Nagaur - RSPCB",10-02-2026 09:00:00,27.213494,73.734444,OZONE,9,122,64
India,Rajasthan,Bundi,"New Colony, Bundi - RSPCB",10-02-2026 09:00:00,25.435774,75.644272,SO2,6,54,16
India,Rajasthan,Chittorgarh,"Shastri Nagar, Chittorgarh - RSPCB",10-02-2026 09:00:00,24.892047,74.623527,NO2,14,126,54
India,Rajasthan,Chittorgarh,"Shastri Nagar, Chittorgarh - RSPCB",10-02-2026 09:00:00,24.892047,74.623527,NH3,NA,NA,NA
India,Rajasthan,Chittorgarh,"Shastri Nagar, Chittorgarh - RSPCB",10-02-2026 09:00:00,24.892047,74.623527,SO2,1,32,8
India,Rajasthan,Churu,"Subash Chowk, Churu - RSPCB",10-02-2026 09:00:00,28.296139,74.961696,OZONE,37,117,44
India,Rajasthan,Dholpur,"Raja Ganj, Dholpur - RSPCB",10-02-2026 09:00:00,26.699557,77.898881,NO2,19,40,28
India,Rajasthan,Dholpur,"Raja Ganj, Dholpur - RSPCB",10-02-2026 09:00:00,26.699557,77.898881,NH3,11,16,13
India,Rajasthan,Pali,"Indira Colony Vistar, Pali - RSPCB",10-02-2026 09:00:00,25.771061, 73.340227,OZONE,5,63,19
India,Rajasthan,Pratapgarh,"Pragati Nagar, Pratapgarh - RSPCB",10-02-2026 09:00:00,24.041198,74.780702,PM10,69,346,151
India,Rajasthan,Pratapgarh,"Pragati Nagar, Pratapgarh - RSPCB",10-02-2026 09:00:00,24.041198,74.780702,SO2,2,14,5
India,Rajasthan,Pratapgarh,"Pragati Nagar, Pratapgarh - RSPCB",10-02-2026 09:00:00,24.041198,74.780702,CO,18,94,33
India,Rajasthan,Rajsamand,"Dhoinda, Rajsamand - RSPCB",10-02-2026 09:00:00,25.036360,73.883502,PM2.5,33,197,103
India,Rajasthan,Sirohi,"Vedhaynath Colony, Sirohi - RSPCB",10-02-2026 09:00:00,24.885261,72.857549,NO2,9,132,40
India,Rajasthan,Ajmer,"Civil Lines,  Ajmer - RSPCB",10-02-2026 09:00:00,26.470859,74.646594,NH3,3,4,4
India,Rajasthan,Ajmer,"Civil Lines,  Ajmer - RSPCB",10-02-2026 09:00:00,26.470859,74.646594,CO,18,33,26
India,Rajasthan,Baran,"Bamboliya, Baran - RSPCB",10-02-2026 09:00:00,25.106006,76.469948,PM10,67,137,95
India,Rajasthan,Baran,"Bamboliya, Baran - RSPCB",10-02-2026 09:00:00,25.106006,76.469948,NH3,8,11,10
India,Rajasthan,Baran,"Bamboliya, Baran - RSPCB",10-02-2026 09:00:00,25.106006,76.469948,SO2,4,8,6
India,Rajasthan,Barmer,"Railway Colony, Barmer - RSPCB",10-02-2026 09:00:00,25.747299,71.393989,CO,2,102,72
India,Rajasthan,Bhiwadi,"Vasundhara Nagar_UIT, Bhiwadi - RSPCB",10-02-2026 09:00:00,28.207266,76.829265,NH3,4,7,6
India,Rajasthan,Bikaner,"MM Ground, Bikaner - RSPCB",10-02-2026 09:00:00,28.018792,73.292658,NO2,14,146,63
India,Rajasthan,Bundi,"New Colony, Bundi - RSPCB",10-02-2026 09:00:00,25.435774,75.644272,NH3,4,5,5
India,Rajasthan,Bharatpur,"Krishna Nagar, Bharatpur - RSPCB",10-02-2026 09:00:00,27.215415,77.50873,OZONE,11,161,28
India,Rajasthan,Bhilwara,"Pratap Nagar, Bhilwara - RSPCB",10-02-2026 09:00:00,25.339605,74.618883,NH3,1,54,10
India,Rajasthan,Bhilwara,"Pratap Nagar, Bhilwara - RSPCB",10-02-2026 09:00:00,25.339605,74.618883,SO2,9,87,23
India,TamilNadu,Perundurai,"SIPCOT Industrial Park, Perundurai - TNPCB",10-02-2026 09:00:00,11.258242,77.552761,OZONE,21,23,21
India,TamilNadu,Pudukottai,"SIPCOT Nathampannai, Pudukottai - TNPCB",10-02-2026 09:00:00,10.423417,78.784889,PM10,72,125,92
India,TamilNadu,Ramanathapuram,"Chalai Bazaar, Ramanathapuram - TNPCB",10-02-2026 09:00:00,9.36399,78.831977,OZONE,NA,NA,NA
India,TamilNadu,Thanjavur,"Parisutham Nagar, Thanjavur - TNPCB",10-02-2026 09:00:00,10.7654824,79.1389968,SO2,17,17,17
India,TamilNadu,Thoothukudi,"Meelavittan, Thoothukudi - TNPCB",10-02-2026 09:00:00,8.816428 ,78.099039,PM10,55,116,78
India,TamilNadu,Thoothukudi,"Meelavittan, Thoothukudi - TNPCB",10-02-2026 09:00:00,8.816428 ,78.099039,NO2,6,21,15
India,Telangana,Hyderabad,"Bollaram Industrial Area, Hyderabad - TSPCB",10-02-2026 09:00:00,17.540891,78.358528,SO2,5,10,7
India,Telangana,Hyderabad,"Central University, Hyderabad - TSPCB",10-02-2026 09:00:00,17.460103,78.334361,CO,20,58,37
India,TamilNadu,Chennai,"Perungudi, Chennai - TNPCB",10-02-2026 09:00:00,12.9533,80.2357,SO2,1,9,5
India,TamilNadu,Chennai,"Perungudi, Chennai - TNPCB",10-02-2026 09:00:00,12.9533,80.2357,CO,50,68,55
India,TamilNadu,Chennai,"Royapuram, Chennai - TNPCB",10-02-2026 09:00:00,13.1036,80.2909,PM10,77,362,177
India,TamilNadu,Chennai,"Royapuram, Chennai - TNPCB",10-02-2026 09:00:00,13.1036,80.2909,SO2,5,8,6
India,TamilNadu,Chennai,"Royapuram, Chennai - TNPCB",10-02-2026 09:00:00,13.1036,80.2909,OZONE,14,32,17
India,TamilNadu,Coimbatore,"PSG College of Arts and Science, Coimbatore - TNPCB",10-02-2026 09:00:00,11.0328,77.0349,PM2.5,90,253,179
India,TamilNadu,Coimbatore,"PSG College of Arts and Science, Coimbatore - TNPCB",10-02-2026 09:00:00,11.0328,77.0349,PM10,69,122,101
India,TamilNadu,Coimbatore,"SIDCO Kurichi, Coimbatore - TNPCB",10-02-2026 09:00:00,10.942451,76.978996,PM2.5,66,134,88
India,TamilNadu,Gummidipoondi,"Anthoni Pillai Nagar, Gummidipoondi - TNPCB",10-02-2026 09:00:00,13.4127,80.1081,SO2,19,77,33
India,Uttar_Pradesh,Agra,"Sector-3B Avas Vikas Colony, Agra - UPPCB",10-02-2026 09:00:00,27.19412,77.96237,PM2.5,59,123,87
India,Uttar_Pradesh,Agra,"Shahjahan Garden, Agra - UPPCB",10-02-2026 09:00:00,27.169338,78.03582,SO2,24,36,31
India,Uttar_Pradesh,Agra,"Shastripuram, Agra - UPPCB",10-02-2026 09:00:00,27.19862,77.92066,OZONE,11,12,11
India,Uttar_Pradesh,Baghpat,"Sardar Patel Inter College, Baghpat - UPPCB",10-02-2026 09:00:00,28.964949,77.278761,PM2.5,122,350,296
India,Uttar_Pradesh,Baghpat,"Sardar Patel Inter College, Baghpat - UPPCB",10-02-2026 09:00:00,28.964949,77.278761,PM10,128,294,219
India,Uttar_Pradesh,Baghpat,"Sardar Patel Inter College, Baghpat - UPPCB",10-02-2026 09:00:00,28.964949,77.278761,NO2,25,48,35
India,Uttar_Pradesh,Baghpat,"Sardar Patel Inter College, Baghpat - UPPCB",10-02-2026 09:00:00,28.964949,77.278761,SO2,29,96,47
India,Uttar_Pradesh,Bareilly,"Civil Lines, Bareilly - UPPCB",10-02-2026 09:00:00,28.359581,79.414455,PM10,48,89,68
India,Telangana,Hyderabad,"Somajiguda, Hyderabad - TSPCB",10-02-2026 09:00:00,17.417094,78.457437,NO2,14,16,14
India,Telangana,Hyderabad,"Somajiguda, Hyderabad - TSPCB",10-02-2026 09:00:00,17.417094,78.457437,SO2,19,21,20
India,Telangana,Hyderabad,"Zoo Park, Hyderabad - TSPCB",10-02-2026 09:00:00,17.349694,78.451437,PM2.5,27,181,116
India,Telangana,Hyderabad,"Zoo Park, Hyderabad - TSPCB",10-02-2026 09:00:00,17.349694,78.451437,PM10,38,156,125
India,Telangana,Hyderabad,"Zoo Park, Hyderabad - TSPCB",10-02-2026 09:00:00,17.349694,78.451437,OZONE,23,26,24
India,Uttar_Pradesh,Agra,"Manoharpur, Agra - UPPCB",10-02-2026 09:00:00,27.23711,78.01936,OZONE,7,7,7
India,Uttar_Pradesh,Agra,"Rohta, Agra - UPPCB",10-02-2026 09:00:00,27.106972,78.000111,NO2,15,16,15
India,Uttar_Pradesh,Agra,"Sanjay Palace, Agra - UPPCB",10-02-2026 09:00:00,27.19865833,78.00598056,PM2.5,81,308,192
India,Telangana,Hyderabad,"Kokapet, Hyderabad - TSPCB",10-02-2026 09:00:00,17.393559,78.339194,SO2,13,17,15
India,Telangana,Hyderabad,"Kompally Municipal Office, Hyderabad - TSPCB",10-02-2026 09:00:00,17.544899,78.486949,NO2,10,13,12
India,Telangana,Hyderabad,"Kompally Municipal Office, Hyderabad - TSPCB",10-02-2026 09:00:00,17.544899,78.486949,CO,9,44,26
India,Telangana,Hyderabad,"Nacharam_TSIIC IALA, Hyderabad - TSPCB",10-02-2026 09:00:00,17.429398,78.569354,PM10,84,101,89
India,Telangana,Hyderabad,"New Malakpet, Hyderabad - TSPCB",10-02-2026 09:00:00,17.37206,78.50864,CO,28,42,31
India,Telangana,Hyderabad,"Ramachandrapuram, Hyderabad - TSPCB",10-02-2026 09:00:00,17.528544,78.286195,OZONE,24,35,25
India,Telangana,Hyderabad,"Sanathnagar, Hyderabad - TSPCB",10-02-2026 09:00:00,17.4559458,78.4332152,SO2,NA,NA,NA
India,TamilNadu,Chennai,"Arumbakkam, Chennai - TNPCB",10-02-2026 09:00:00,13.0664,80.2112 ,PM2.5,86,321,139
India,TamilNadu,Chennai,"Kodungaiyur, Chennai - TNPCB",10-02-2026 09:00:00,13.1278,80.2642,SO2,3,13,7
India,TamilNadu,Chennai,"Manali Village, Chennai - TNPCB",10-02-2026 09:00:00,13.1662,80.2584,NO2,5,6,5
India,TamilNadu,Chennai,"Manali Village, Chennai - TNPCB",10-02-2026 09:00:00,13.1662,80.2584,CO,27,38,31
India,TamilNadu,Chennai,"Manali, Chennai - CPCB",10-02-2026 09:00:00,13.164544,80.26285,PM10,83,136,101
India,TamilNadu,Chennai,"Manali, Chennai - CPCB",10-02-2026 09:00:00,13.164544,80.26285,NO2,8,12,10
India,TamilNadu,Chennai,"Manali, Chennai - CPCB",10-02-2026 09:00:00,13.164544,80.26285,CO,14,96,26
India,TamilNadu,Chennai,"Perungudi, Chennai - TNPCB",10-02-2026 09:00:00,12.9533,80.2357,NO2,4,10,6
India,Telangana,Hyderabad,"ECIL Kapra, Hyderabad - TSPCB",10-02-2026 09:00:00,17.470431,78.566959,NO2,15,54,28
India,Telangana,Hyderabad,"ECIL Kapra, Hyderabad - TSPCB",10-02-2026 09:00:00,17.470431,78.566959,NH3,3,7,6
India,Telangana,Hyderabad,"ECIL Kapra, Hyderabad - TSPCB",10-02-2026 09:00:00,17.470431,78.566959,SO2,4,12,8
India,Telangana,Hyderabad,"ICRISAT Patancheru, Hyderabad - TSPCB",10-02-2026 09:00:00,17.518400,78.278777,SO2,5,13,9
India,Telangana,Hyderabad,"IDA Pashamylaram, Hyderabad - TSPCB",10-02-2026 09:00:00,17.5316895,78.218939,PM2.5,NA,NA,NA
India,Telangana,Hyderabad,"IDA Pashamylaram, Hyderabad - TSPCB",10-02-2026 09:00:00,17.5316895,78.218939,SO2,NA,NA,NA
India,Telangana,Hyderabad,"Kokapet, Hyderabad - TSPCB",10-02-2026 09:00:00,17.393559,78.339194,PM2.5,58,72,66
India,Rajasthan,Sri Ganganagar,"Old City, Sri Ganganagar - RSPCB",10-02-2026 09:00:00,29.931624,73.864511,NH3,5,9,7
India,Rajasthan,Udaipur,"Ashok Nagar, Udaipur - RSPCB",10-02-2026 09:00:00,24.5886166,73.6321397,NO2,1,44,28
India,Rajasthan,Udaipur,"Ashok Nagar, Udaipur - RSPCB",10-02-2026 09:00:00,24.5886166,73.6321397,OZONE,2,58,13
India,Sikkim,Gangtok,"Zero Point GICI, Gangtok - SSPCB",10-02-2026 09:00:00,27.338530,88.614099,PM10,60,88,74
India,Sikkim,Gangtok,"Zero Point GICI, Gangtok - SSPCB",10-02-2026 09:00:00,27.338530,88.614099,NO2,6,7,6
India,Sikkim,Gangtok,"Zero Point GICI, Gangtok - SSPCB",10-02-2026 09:00:00,27.338530,88.614099,CO,13,62,18
India,Uttar_Pradesh,Bareilly,"Civil Lines, Bareilly - UPPCB",10-02-2026 09:00:00,28.359581,79.414455,NO2,2,3,2
India,Uttar_Pradesh,Bareilly,"Civil Lines, Bareilly - UPPCB",10-02-2026 09:00:00,28.359581,79.414455,NH3,1,2,1
India,Uttar_Pradesh,Bareilly,"Civil Lines, Bareilly - UPPCB",10-02-2026 09:00:00,28.359581,79.414455,CO,55,141,102
India,Uttar_Pradesh,Bareilly,"Rajendra Nagar, Bareilly - UPPCB",10-02-2026 09:00:00,28.38910936,79.42963708,SO2,36,43,40
India,Uttar_Pradesh,Moradabad,"Transport Nagar, Moradabad - UPPCB",10-02-2026 09:00:00,28.802625,78.753728,OZONE,26,38,28
India,Uttar_Pradesh,Noida,"Sector - 125, Noida - UPPCB",10-02-2026 09:00:00,28.5447608,77.3231257,PM10,95,447,208
India,Uttar_Pradesh,Noida,"Sector - 125, Noida - UPPCB",10-02-2026 09:00:00,28.5447608,77.3231257,NO2,35,143,82
India,Uttar_Pradesh,Noida,"Sector - 125, Noida - UPPCB",10-02-2026 09:00:00,28.5447608,77.3231257,CO,24,115,78
India,Uttar_Pradesh,Noida,"Sector-1, Noida - UPPCB",10-02-2026 09:00:00,28.5898,77.3101,SO2,8,32,14
India,Uttar_Pradesh,Noida,"Sector-1, Noida - UPPCB",10-02-2026 09:00:00,28.5898,77.3101,OZONE,1,5,2
India,Uttar_Pradesh,Noida,"Sector-116, Noida - UPPCB",10-02-2026 09:00:00,28.569230,77.393848,PM2.5,57,392,266
India,Uttar_Pradesh,Noida,"Sector-116, Noida - UPPCB",10-02-2026 09:00:00,28.569230,77.393848,CO,1,137,75
India,Uttar_Pradesh,Lucknow,"Lalbagh, Lucknow - CPCB",10-02-2026 09:00:00,26.8458805,80.9365541,PM2.5,4,334,100
India,Uttar_Pradesh,Lucknow,"Lalbagh, Lucknow - CPCB",10-02-2026 09:00:00,26.8458805,80.9365541,PM10,1,479,183
India,Uttar_Pradesh,Lucknow,"Lalbagh, Lucknow - CPCB",10-02-2026 09:00:00,26.8458805,80.9365541,NO2,39,57,48
India,Uttar_Pradesh,Lucknow,"Lalbagh, Lucknow - CPCB",10-02-2026 09:00:00,26.8458805,80.9365541,OZONE,5,59,9
India,Uttar_Pradesh,Lucknow,"Talkatora District Industries Center, Lucknow - CPCB",10-02-2026 09:00:00,26.83399722,80.8917361,SO2,2,26,10
India,Uttar_Pradesh,Meerut,"Ganga Nagar, Meerut - UPPCB",10-02-2026 09:00:00,28.999264,77.7590354,NH3,8,24,12
India,Uttar_Pradesh,Meerut,"Jai Bhim Nagar, Meerut - UPPCB",10-02-2026 09:00:00,28.9535882,77.7622941,CO,20,101,63
India,Uttar_Pradesh,Bulandshahr,"Yamunapuram, Bulandshahr - UPPCB",10-02-2026 09:00:00,28.406963,77.849831,CO,20,125,58
India,Uttar_Pradesh,Firozabad,"Nagla Bhau, Firozabad - UPPCB",10-02-2026 09:00:00,27.168897,78.376960,NO2,17,17,17
India,Uttar_Pradesh,Firozabad,"Nagla Bhau, Firozabad - UPPCB",10-02-2026 09:00:00,27.168897,78.376960,SO2,2,64,21
India,Uttar_Pradesh,Ghaziabad,"Indirapuram, Ghaziabad - UPPCB",10-02-2026 09:00:00,28.646233,77.358075,NO2,36,240,122
India,Uttar_Pradesh,Ghaziabad,"Indirapuram, Ghaziabad - UPPCB",10-02-2026 09:00:00,28.646233,77.358075,OZONE,9,26,10
India,Uttar_Pradesh,Ghaziabad,"Loni, Ghaziabad - UPPCB",10-02-2026 09:00:00,28.757294,77.278792,OZONE,1,106,2
India,Uttar_Pradesh,Ghaziabad,"Sanjay Nagar, Ghaziabad - UPPCB",10-02-2026 09:00:00,28.685382,77.453839,NH3,5,9,7
India,Uttar_Pradesh,Khurja,"Kalindi Kunj, Khurja - UPPCB",10-02-2026 09:00:00,28.2348927,77.8683002,NH3,1,1,1
India,Uttar_Pradesh,Khurja,"Kalindi Kunj, Khurja - UPPCB",10-02-2026 09:00:00,28.2348927,77.8683002,SO2,14,15,14
India,Uttar_Pradesh,Lucknow,"B R Ambedkar University, Lucknow - UPPCB",10-02-2026 09:00:00,26.766433,80.927299,SO2,25,38,30
India,Uttar_Pradesh,Lucknow,"Gomti Nagar, Lucknow - UPPCB",10-02-2026 09:00:00,26.868120,81.005119,PM10,28,112,72
India,Uttar_Pradesh,Lucknow,"Kendriya Vidyalaya, Lucknow - CPCB",10-02-2026 09:00:00,26.906111,80.948222,PM2.5,36,246,145
India,Uttar_Pradesh,Lucknow,"Kukrail Picnic Spot-1, Lucknow - UPPCB",10-02-2026 09:00:00,26.90723,80.98579,SO2,44,48,45
India,Uttar_Pradesh,Moradabad,"Eco Herbal Park, Moradabad - UPPCB",10-02-2026 09:00:00,28.840739,78.697531,OZONE,2,88,2
India,Uttar_Pradesh,Moradabad,"Employment Office, Moradabad - UPPCB",10-02-2026 09:00:00,28.88528,78.73880,PM10,90,182,135
India,Uttar_Pradesh,Moradabad,"Jigar Colony, Moradabad - UPPCB",10-02-2026 09:00:00,28.856664,78.772638,NH3,6,6,6
India,Uttar_Pradesh,Moradabad,"Kashiram Nagar, Moradabad - UPPCB",10-02-2026 09:00:00,28.849399,78.742362,PM2.5,46,278,132
India,Uttar_Pradesh,Moradabad,"Kashiram Nagar, Moradabad - UPPCB",10-02-2026 09:00:00,28.849399,78.742362,SO2,114,140,127
India,Uttar_Pradesh,Moradabad,"Transport Nagar, Moradabad - UPPCB",10-02-2026 09:00:00,28.802625,78.753728,PM2.5,47,261,138
India,Uttar_Pradesh,Kanpur,"FTI Kidwai Nagar, Kanpur - UPPCB",10-02-2026 09:00:00,26.428282,80.327067,SO2,17,25,22
India,Uttar_Pradesh,Kanpur,"FTI Kidwai Nagar, Kanpur - UPPCB",10-02-2026 09:00:00,26.428282,80.327067,OZONE,6,8,8
India,Uttar_Pradesh,Kanpur,"NSI Kalyanpur, Kanpur - UPPCB",10-02-2026 09:00:00,26.509954,80.249612,NH3,5,5,5
India,Uttar_Pradesh,Kanpur,"NSI Kalyanpur, Kanpur - UPPCB",10-02-2026 09:00:00,26.509954,80.249612,SO2,26,43,31
India,Uttar_Pradesh,Kanpur,"NSI Kalyanpur, Kanpur - UPPCB",10-02-2026 09:00:00,26.509954,80.249612,CO,26,68,65
India,Uttar_Pradesh,Kanpur,"Nehru Nagar, Kanpur - UPPCB",10-02-2026 09:00:00,26.4703136,80.3229863,OZONE,6,22,6
India,Uttar_Pradesh,Khurja,"Kalindi Kunj, Khurja - UPPCB",10-02-2026 09:00:00,28.2348927,77.8683002,PM2.5,1,133,56
India,Uttar_Pradesh,Prayagraj,"Jhunsi, Prayagraj - UPPCB",10-02-2026 09:00:00,25.425602,81.917152,PM10,41,164,90
India,Uttar_Pradesh,Prayagraj,"Motilal Nehru NIT, Prayagraj - UPPCB",10-02-2026 09:00:00,25.494,81.863,CO,11,101,38
India,Uttar_Pradesh,Prayagraj,"Nagar Nigam, Prayagraj - UPPCB",10-02-2026 09:00:00,25.44919916 ,81.82735986 ,PM2.5,21,85,52
India,Uttar_Pradesh,Prayagraj,"Nagar Nigam, Prayagraj - UPPCB",10-02-2026 09:00:00,25.44919916 ,81.82735986 ,NO2,5,5,5
India,Uttar_Pradesh,Varanasi,"IESD Banaras Hindu University, Varanasi - UPPCB",10-02-2026 09:00:00,25.262326,82.995408,NH3,2,7,4
India,Uttar_Pradesh,Gorakhpur,"Madan Mohan Malaviya University of Technology, Gorakhpur - UPPCB",10-02-2026 09:00:00,26.730136,83.433859,PM10,46,133,83
India,Uttar_Pradesh,Gorakhpur,"Madan Mohan Malaviya University of Technology, Gorakhpur - UPPCB",10-02-2026 09:00:00,26.730136,83.433859,NH3,1,1,1
India,Uttar_Pradesh,Greater Noida,"Knowledge Park - III, Greater Noida - UPPCB",10-02-2026 09:00:00,28.47272,77.482000,OZONE,3,92,4
India,Uttar_Pradesh,Hapur,"Anand Vihar, Hapur - UPPCB",10-02-2026 09:00:00,28.725645,77.749675,PM2.5,97,327,245
India,Uttar_Pradesh,Ghaziabad,"Sanjay Nagar, Ghaziabad - UPPCB",10-02-2026 09:00:00,28.685382,77.453839,OZONE,11,59,12
India,Uttar_Pradesh,Ghaziabad,"Vasundhara, Ghaziabad - UPPCB",10-02-2026 09:00:00,28.6603346,77.3572563,NO2,34,130,78
India,Uttar_Pradesh,Ghaziabad,"Vasundhara, Ghaziabad - UPPCB",10-02-2026 09:00:00,28.6603346,77.3572563,CO,7,153,56
India,Uttar_Pradesh,Ghaziabad,"Vasundhara, Ghaziabad - UPPCB",10-02-2026 09:00:00,28.6603346,77.3572563,OZONE,6,138,8
India,Uttar_Pradesh,Varanasi,"IESD Banaras Hindu University, Varanasi - UPPCB",10-02-2026 09:00:00,25.262326,82.995408,CO,6,36,19
India,Uttarakhand,Kashipur,"Govt. Girls Inter College, Kashipur - UKPCB",10-02-2026 09:00:00,29.2124114,78.9611753,NH3,NA,NA,NA
India,West_Bengal,Asansol,"Asansol Court Area, Asansol - WBPCB",10-02-2026 09:00:00,23.685297,86.945968,NO2,15,28,22
India,West_Bengal,Asansol,"Asansol Court Area, Asansol - WBPCB",10-02-2026 09:00:00,23.685297,86.945968,NH3,2,9,5
India,West_Bengal,Asansol,"Asansol Court Area, Asansol - WBPCB",10-02-2026 09:00:00,23.685297,86.945968,CO,10,90,54
India,West_Bengal,Asansol,"Asansol Court Area, Asansol - WBPCB",10-02-2026 09:00:00,23.685297,86.945968,OZONE,15,44,21
India,West_Bengal,Asansol,"Evelyn Lodge, Asansol - WBPCB",10-02-2026 09:00:00,23.6979360,86.9443950,CO,14,82,58
India,West_Bengal,Asansol,"Mahabir Colliery, Asansol - WBPCB",10-02-2026 09:00:00,23.6181830,87.1057180,PM2.5,26,323,147
India,West_Bengal,Asansol,"Mahabir Colliery, Asansol - WBPCB",10-02-2026 09:00:00,23.6181830,87.1057180,NH3,1,2,1
India,West_Bengal,Asansol,"Trivenidevi Bhalotia College, Asansol - WBPCB",10-02-2026 09:00:00,23.616515,87.119133,NO2,21,47,34
India,West_Bengal,Barrackpore,"SVSPA Campus, Barrackpore - WBPCB",10-02-2026 09:00:00,22.7605581,88.3617589,PM2.5,43,196,106
India,West_Bengal,Barrackpore,"SVSPA Campus, Barrackpore - WBPCB",10-02-2026 09:00:00,22.7605581,88.3617589,PM10,59,148,93
India,West_Bengal,Barrackpore,"SVSPA Campus, Barrackpore - WBPCB",10-02-2026 09:00:00,22.7605581,88.3617589,NH3,4,6,5
India,West_Bengal,Barrackpore,"SVSPA Campus, Barrackpore - WBPCB",10-02-2026 09:00:00,22.7605581,88.3617589,OZONE,2,62,3
India,West_Bengal,Durgapur,"Mahishkapur Road_B-Zone, Durgapur - WBPCB",10-02-2026 09:00:00,23.567923,87.306843,NO2,11,83,42
India,West_Bengal,Durgapur,"PCBL Residential Complex, Durgapur - WBPCB",10-02-2026 09:00:00,23.5087640,87.3544400,PM2.5,44,301,115
India,West_Bengal,Durgapur,"PCBL Residential Complex, Durgapur - WBPCB",10-02-2026 09:00:00,23.5087640,87.3544400,SO2,5,15,7
India,West_Bengal,Durgapur,"PCBL Residential Complex, Durgapur - WBPCB",10-02-2026 09:00:00,23.5087640,87.3544400,OZONE,1,56,14
India,West_Bengal,Durgapur,"Womens College_City Center, Durgapur - WBPCB",10-02-2026 09:00:00,23.549395,87.300496,CO,18,56,48
India,West_Bengal,Haldia,"Priyambada Housing Estate, Haldia - WBPCB",10-02-2026 09:00:00,22.06047,88.109737,PM2.5,57,254,133
India,West_Bengal,Haldia,"Priyambada Housing Estate, Haldia - WBPCB",10-02-2026 09:00:00,22.06047,88.109737,SO2,12,19,15
India,West_Bengal,Howrah,"Belur Math, Howrah - WBPCB",10-02-2026 09:00:00,22.629801,88.352017,SO2,12,53,19
India,West_Bengal,Howrah,"Belur Math, Howrah - WBPCB",10-02-2026 09:00:00,22.629801,88.352017,CO,16,103,58
India,West_Bengal,Howrah,"Belur Math, Howrah - WBPCB",10-02-2026 09:00:00,22.629801,88.352017,OZONE,14,40,16
India,West_Bengal,Howrah,"Botanical Garden, Howrah - WBPCB",10-02-2026 09:00:00,22.554954,88.292568,PM2.5,37,221,112
India,West_Bengal,Howrah,"Botanical Garden, Howrah - WBPCB",10-02-2026 09:00:00,22.554954,88.292568,PM10,61,190,116
India,West_Bengal,Howrah,"Botanical Garden, Howrah - WBPCB",10-02-2026 09:00:00,22.554954,88.292568,CO,11,109,76
India,West_Bengal,Howrah,"Botanical Garden, Howrah - WBPCB",10-02-2026 09:00:00,22.554954,88.292568,OZONE,6,47,6
India,West_Bengal,Howrah,"Dasnagar, Howrah - WBPCB",10-02-2026 09:00:00,22.6025571,88.3105664,NO2,10,151,64
India,West_Bengal,Howrah,"Ghusuri, Howrah - WBPCB",10-02-2026 09:00:00,22.611968,88.347422,PM10,116,348,184
India,West_Bengal,Howrah,"Ghusuri, Howrah - WBPCB",10-02-2026 09:00:00,22.611968,88.347422,NO2,14,33,23
India,West_Bengal,Howrah,"Padmapukur, Howrah - WBPCB",10-02-2026 09:00:00,22.5687319,88.2797276,NH3,4,33,12
India,West_Bengal,Kolkata,"Ballygunge, Kolkata - WBPCB",10-02-2026 09:00:00,22.5367507,88.3638022,NH3,7,12,9
India,West_Bengal,Kolkata,"Ballygunge, Kolkata - WBPCB",10-02-2026 09:00:00,22.5367507,88.3638022,SO2,11,63,21
India,West_Bengal,Kolkata,"Bidhannagar, Kolkata - WBPCB",10-02-2026 09:00:00,22.58157048,88.41002457,SO2,7,18,11
India,West_Bengal,Kolkata,"Jadavpur, Kolkata - WBPCB",10-02-2026 09:00:00,22.49929,88.36917,PM10,93,278,162
India,West_Bengal,Kolkata,"Jadavpur, Kolkata - WBPCB",10-02-2026 09:00:00,22.49929,88.36917,OZONE,3,94,5
India,West_Bengal,Kolkata,"Rabindra Sarobar, Kolkata - WBPCB",10-02-2026 09:00:00,22.51106,88.35142,NO2,21,191,106
India,West_Bengal,Kolkata,"Victoria, Kolkata - WBPCB",10-02-2026 09:00:00,22.5448082,88.3403691,PM10,15,200,128
India,West_Bengal,Kolkata,"Victoria, Kolkata - WBPCB",10-02-2026 09:00:00,22.5448082,88.3403691,SO2,10,31,18
India,West_Bengal,Kolkata,"Victoria, Kolkata - WBPCB",10-02-2026 09:00:00,22.5448082,88.3403691,OZONE,8,67,11
India,West_Bengal,Siliguri,"Ward-32 Bapupara, Siliguri - WBPCB",10-02-2026 09:00:00,26.6879226,88.4152495,PM10,111,165,136
India,West_Bengal,Siliguri,"Ward-32 Bapupara, Siliguri - WBPCB",10-02-2026 09:00:00,26.6879226,88.4152495,NH3,10,10,10
India,Andhra_Pradesh,Vijayawada,"Kanuru, Vijayawada - APPCB",10-02-2026 09:00:00,16.486692,80.699436,PM10,55,66,60
India,Andhra_Pradesh,Vijayawada,"Kanuru, Vijayawada - APPCB",10-02-2026 09:00:00,16.486692,80.699436,SO2,17,20,19
India,Andhra_Pradesh,Vijayawada,"Rajiv Gandhi Park, Vijayawada - APPCB",10-02-2026 09:00:00,16.509717,80.612222,PM10,37,66,49
India,Andhra_Pradesh,Vijayawada,"Rajiv Gandhi Park, Vijayawada - APPCB",10-02-2026 09:00:00,16.509717,80.612222,NO2,14,36,20
India,Andhra_Pradesh,Vijayawada,"Rajiv Gandhi Park, Vijayawada - APPCB",10-02-2026 09:00:00,16.509717,80.612222,SO2,14,18,15
India,Andhra_Pradesh,Vijayawada,"Rajiv Nagar, Vijayawada - APPCB",10-02-2026 09:00:00,16.554731,80.649110,PM10,NA,NA,NA
India,Andhra_Pradesh,Vijayawada,"Rajiv Nagar, Vijayawada - APPCB",10-02-2026 09:00:00,16.554731,80.649110,NH3,NA,NA,NA
India,Andhra_Pradesh,Visakhapatnam,"GVM Corporation, Visakhapatnam - APPCB",10-02-2026 09:00:00,17.72,83.3,NH3,3,4,3
India,Andhra_Pradesh,Visakhapatnam,"GVM Corporation, Visakhapatnam - APPCB",10-02-2026 09:00:00,17.72,83.3,SO2,1,37,11
India,Arunachal_Pradesh,Naharlagun,"Naharlagun, Naharlagun - APSPCB",10-02-2026 09:00:00,27.103358,93.679645,PM2.5,65,500,216
India,Arunachal_Pradesh,Naharlagun,"Naharlagun, Naharlagun - APSPCB",10-02-2026 09:00:00,27.103358,93.679645,NO2,7,8,7
India,Bihar,Bhagalpur,"DM Office_Kachari Chowk, Bhagalpur - BSPCB",10-02-2026 09:00:00,25.251013,86.989001,SO2,28,75,50
India,Bihar,Bhagalpur,"DM Office_Kachari Chowk, Bhagalpur - BSPCB",10-02-2026 09:00:00,25.251013,86.989001,CO,9,26,18
India,Bihar,Bhagalpur,"Mayaganj, Bhagalpur - BSPCB",10-02-2026 09:00:00,25.265194,87.012947,SO2,44,54,48
India,Bihar,Bihar Sharif,"D M Colony, Bihar Sharif - BSPCB",10-02-2026 09:00:00,25.204762,85.514960,SO2,10,10,10
India,Bihar,Buxar,"Charitra Van, Buxar - BSPCB",10-02-2026 09:00:00,25.567520,83.966379,NH3,3,3,3
India,Bihar,Buxar,"Charitra Van, Buxar - BSPCB",10-02-2026 09:00:00,25.567520,83.966379,OZONE,1,42,3
India,Bihar,Chhapra,"Darshan Nagar, Chhapra - BSPCB",10-02-2026 09:00:00,25.7808257,84.7446768,PM2.5,33,432,97
India,Bihar,Chhapra,"Darshan Nagar, Chhapra - BSPCB",10-02-2026 09:00:00,25.7808257,84.7446768,SO2,25,29,27
India,Bihar,Gaya,"Collectorate, Gaya - BSPCB",10-02-2026 09:00:00,24.7955,84.9994,PM2.5,NA,NA,NA
India,Bihar,Gaya,"SFTI Kusdihra, Gaya - BSPCB",10-02-2026 09:00:00,24.762518,84.982348,OZONE,5,39,6
India,Bihar,Katihar,"Mirchaibari, Katihar - BSPCB",10-02-2026 09:00:00,25.560083,87.553265,NO2,8,10,9
India,Bihar,Katihar,"Mirchaibari, Katihar - BSPCB",10-02-2026 09:00:00,25.560083,87.553265,NH3,1,1,1
India,Bihar,Kishanganj,"SDM Office_Khagra, Kishanganj - BSPCB",10-02-2026 09:00:00,26.0881305,87.93840336,PM2.5,25,52,36
India,Bihar,Kishanganj,"SDM Office_Khagra, Kishanganj - BSPCB",10-02-2026 09:00:00,26.0881305,87.93840336,PM10,44,88,62
India,Bihar,Manguraha,"Forest Rest House, Manguraha - BSPCB",10-02-2026 09:00:00,27.308328,84.531742,PM2.5,73,200,119
India,Bihar,Manguraha,"Forest Rest House, Manguraha - BSPCB",10-02-2026 09:00:00,27.308328,84.531742,NO2,4,11,6
India,Bihar,Manguraha,"Forest Rest House, Manguraha - BSPCB",10-02-2026 09:00:00,27.308328,84.531742,NH3,1,1,1
India,Bihar,Munger,"Town Hall, Munger - BSPCB",10-02-2026 09:00:00,25.376776,86.471523,NO2,4,5,5
India,Bihar,Muzaffarpur,"Buddha Colony, Muzaffarpur - BSPCB",10-02-2026 09:00:00,26.11442,85.39813,NO2,27,64,42
India,Bihar,Muzaffarpur,"Buddha Colony, Muzaffarpur - BSPCB",10-02-2026 09:00:00,26.11442,85.39813,SO2,3,8,6
India,Bihar,Muzaffarpur,"MIT-Daudpur Kothi, Muzaffarpur - BSPCB",10-02-2026 09:00:00,26.1403345,85.3650192,CO,45,64,53
India,Bihar,Muzaffarpur,"Muzaffarpur Collectorate, Muzaffarpur - BSPCB",10-02-2026 09:00:00,26.1209,85.3647,CO,32,90,54
India,Bihar,Muzaffarpur,"Muzaffarpur Collectorate, Muzaffarpur - BSPCB",10-02-2026 09:00:00,26.1209,85.3647,OZONE,10,19,12
India,Bihar,Patna,"DRM Office Danapur, Patna - BSPCB",10-02-2026 09:00:00,25.586562,85.043586,PM10,83,273,145
India,Andhra_Pradesh,Kadapa,"Yerramukkapalli, Kadapa - APPCB",10-02-2026 09:00:00,14.465052,78.824187,NH3,3,4,3
India,Andhra_Pradesh,Kadapa,"Yerramukkapalli, Kadapa - APPCB",10-02-2026 09:00:00,14.465052,78.824187,OZONE,13,15,14
India,Andhra_Pradesh,Rajamahendravaram,"Anand Kala Kshetram, Rajamahendravaram - APPCB",10-02-2026 09:00:00,16.9872867,81.7363176,PM2.5,73,143,114
India,Andhra_Pradesh,Rajamahendravaram,"Anand Kala Kshetram, Rajamahendravaram - APPCB",10-02-2026 09:00:00,16.9872867,81.7363176,CO,16,49,36
India,Andhra_Pradesh,Tirumala,"Toll Gate, Tirumala - APPCB",10-02-2026 09:00:00,13.67,79.35,SO2,4,17,10
India,Andhra_Pradesh,Tirupati,"Vaikuntapuram, Tirupati - APPCB",10-02-2026 09:00:00,13.615387,79.409230,PM2.5,NA,NA,NA
India,Andhra_Pradesh,Tirupati,"Vaikuntapuram, Tirupati - APPCB",10-02-2026 09:00:00,13.615387,79.409230,CO,22,44,25
India,Bihar,Aurangabad,"Gurdeo Nagar, Aurangabad - BSPCB",10-02-2026 09:00:00,24.75746,84.366208,NH3,1,2,2
India,Bihar,Aurangabad,"Gurdeo Nagar, Aurangabad - BSPCB",10-02-2026 09:00:00,24.75746,84.366208,CO,100,104,102
India,Bihar,Begusarai,"Lohiyanagar, Begusarai - BSPCB",10-02-2026 09:00:00,25.42742023,86.13886079,NH3,9,11,11
India,Bihar,Bettiah,"Kamalnath Nagar, Bettiah - BSPCB",10-02-2026 09:00:00,26.80365,84.51954,OZONE,12,23,22
India,Bihar,Bhagalpur,"DM Office_Kachari Chowk, Bhagalpur - BSPCB",10-02-2026 09:00:00,25.251013,86.989001,PM2.5,42,88,62
India,Assam,Nagaon,"Christianpatty, Nagaon - PCBA",10-02-2026 09:00:00,26.349082,92.68449,SO2,10,15,12
India,Assam,Nalbari,"Bata Chowk, Nalbari - PCBA",10-02-2026 09:00:00,26.446912,91.439057,SO2,7,8,8
India,Assam,Silchar,"Tarapur, Silchar - PCBA",10-02-2026 09:00:00,24.82827,92.79525,NO2,17,26,24
India,Assam,Silchar,"Tarapur, Silchar - PCBA",10-02-2026 09:00:00,24.82827,92.79525,NH3,1,1,1
India,Assam,Sivasagar,"Girls College, Sivasagar - PCBA",10-02-2026 09:00:00,26.987634,94.636574,PM2.5,13,93,55
India,Arunachal_Pradesh,Naharlagun,"Naharlagun, Naharlagun - APSPCB",10-02-2026 09:00:00,27.103358,93.679645,OZONE,5,7,6
India,Assam,Byrnihat,"Central Academy for SFS, Byrnihat - PCBA",10-02-2026 09:00:00,26.071318,91.87488,OZONE,13,36,15
India,Assam,Guwahati,"LGBI Airport, Guwahati - PCBA",10-02-2026 09:00:00,26.10887,91.589544,SO2,7,17,12
India,Assam,Guwahati,"Pan Bazaar, Guwahati - PCBA",10-02-2026 09:00:00,26.187500,91.744194,OZONE,12,20,12
India,Andhra_Pradesh,Amaravati,"Secretariat, Amaravati - APPCB",10-02-2026 09:00:00,16.5150833,80.5181667,NO2,18,57,32
India,Andhra_Pradesh,Anantapur,"Gulzarpet, Anantapur - APPCB",10-02-2026 09:00:00,14.675886,77.593027,PM2.5,78,109,88
India,Bihar,Gaya,"Kareemganj, Gaya - BSPCB",10-02-2026 09:00:00,24.792403,84.992416,OZONE,17,56,21
India,Delhi,Delhi,"Mandir Marg, Delhi - DPCC",10-02-2026 09:00:00,28.636429,77.201067,OZONE,6,232,9
India,Delhi,Delhi,"Mundka, Delhi - DPCC",10-02-2026 09:00:00,28.684678,77.076574,PM10,145,500,369
India,Delhi,Delhi,"Mundka, Delhi - DPCC",10-02-2026 09:00:00,28.684678,77.076574,SO2,17,39,27
India,Delhi,Delhi,"Mundka, Delhi - DPCC",10-02-2026 09:00:00,28.684678,77.076574,OZONE,4,150,5
India,Delhi,Delhi,"Najafgarh, Delhi - DPCC",10-02-2026 09:00:00,28.570173,76.933762,NO2,100,155,120
India,Delhi,Delhi,"Najafgarh, Delhi - DPCC",10-02-2026 09:00:00,28.570173,76.933762,CO,14,114,66
India,Delhi,Delhi,"Najafgarh, Delhi - DPCC",10-02-2026 09:00:00,28.570173,76.933762,OZONE,3,265,5
India,Delhi,Delhi,"Narela, Delhi - DPCC",10-02-2026 09:00:00,28.822836,77.101981,OZONE,7,235,10
India,Delhi,Delhi,"Nehru Nagar, Delhi - DPCC",10-02-2026 09:00:00,28.567890,77.250515,PM2.5,87,500,323
India,Delhi,Delhi,"Nehru Nagar, Delhi - DPCC",10-02-2026 09:00:00,28.567890,77.250515,NH3,5,10,7
India,Delhi,Delhi,"Nehru Nagar, Delhi - DPCC",10-02-2026 09:00:00,28.567890,77.250515,CO,5,156,55
India,Delhi,Delhi,"Nehru Nagar, Delhi - DPCC",10-02-2026 09:00:00,28.567890,77.250515,OZONE,1,139,2
India,Delhi,Delhi,"North Campus, DU, Delhi - IMD",10-02-2026 09:00:00,28.6573814,77.1585447,PM2.5,80,383,234
India,Chhattisgarh,Raipur,"AIIMS, Raipur - CECB",10-02-2026 09:00:00,21.258815,81.578979,PM10,21,114,66
India,Chhattisgarh,Raipur,"AIIMS, Raipur - CECB",10-02-2026 09:00:00,21.258815,81.578979,NO2,37,49,46
India,Chhattisgarh,Raipur,"AIIMS, Raipur - CECB",10-02-2026 09:00:00,21.258815,81.578979,CO,26,88,56
India,Chhattisgarh,Raipur,"Bhatagaon New ISBT, Raipur - CECB",10-02-2026 09:00:00,21.219665,81.630094,NO2,5,57,31
India,Chhattisgarh,Raipur,"Bhatagaon New ISBT, Raipur - CECB",10-02-2026 09:00:00,21.219665,81.630094,OZONE,2,9,2
India,Chhattisgarh,Raipur,"Krishak Nagar, Raipur - CECB",10-02-2026 09:00:00,21.237755,81.705301,SO2,4,11,6
India,Chhattisgarh,Raipur,"Siltara Phase-II, Raipur - CECB",10-02-2026 09:00:00,21.371751,81.664929,NH3,2,2,2
India,Chhattisgarh,Raipur,"Siltara Phase-II, Raipur - CECB",10-02-2026 09:00:00,21.371751,81.664929,SO2,2,13,5
India,Chhattisgarh,Raipur,"Siltara Phase-II, Raipur - CECB",10-02-2026 09:00:00,21.371751,81.664929,OZONE,NA,NA,NA
India,Chhattisgarh,Tumidih,"OP Jindal Industrial Park, Tumidih - CECB",10-02-2026 09:00:00,22.06631475,83.33820077,OZONE,4,87,8
India,Delhi,Delhi,"Alipur, Delhi - DPCC",10-02-2026 09:00:00,28.815329,77.153010,NO2,NA,NA,NA
India,Chandigarh,Chandigarh,"Sector-25, Chandigarh - CPCC",10-02-2026 09:00:00,30.751462,76.762879,NH3,5,9,8
India,Chandigarh,Chandigarh,"Sector-25, Chandigarh - CPCC",10-02-2026 09:00:00,30.751462,76.762879,OZONE,NA,NA,NA
India,Chandigarh,Chandigarh,"Sector-53, Chandigarh - CPCC",10-02-2026 09:00:00,30.719859,76.738637,PM10,66,179,108
India,Chandigarh,Chandigarh,"Sector-53, Chandigarh - CPCC",10-02-2026 09:00:00,30.719859,76.738637,NO2,30,150,74
India,Chandigarh,Chandigarh,"Sector-53, Chandigarh - CPCC",10-02-2026 09:00:00,30.719859,76.738637,OZONE,1,78,2
India,Chhattisgarh,Bhilai,"32Bungalows, Bhilai - CECB",10-02-2026 09:00:00,21.194815,81.314770,NO2,23,47,34
India,Chhattisgarh,Bhilai,"32Bungalows, Bhilai - CECB",10-02-2026 09:00:00,21.194815,81.314770,NH3,1,2,2
India,Chhattisgarh,Bhilai,"32Bungalows, Bhilai - CECB",10-02-2026 09:00:00,21.194815,81.314770,SO2,7,10,8
India,Chhattisgarh,Bhilai,"Civic Center, Bhilai - Bhilai Steel Plant",10-02-2026 09:00:00,21.185571,81.343175,NO2,14,233,51
India,Chhattisgarh,Bhilai,"Civic Center, Bhilai - Bhilai Steel Plant",10-02-2026 09:00:00,21.185571,81.343175,CO,19,34,34
India,Chhattisgarh,Bhilai,"Hathkhoj, Bhilai - CECB",10-02-2026 09:00:00,21.224231,81.408350,SO2,11,105,32
India,Bihar,Rajgir,"Dangi Tola, Rajgir - BSPCB",10-02-2026 09:00:00,25.03280,85.41948,PM2.5,3,88,42
India,Bihar,Rajgir,"Dangi Tola, Rajgir - BSPCB",10-02-2026 09:00:00,25.03280,85.41948,SO2,18,25,21
India,Bihar,Rajgir,"Dangi Tola, Rajgir - BSPCB",10-02-2026 09:00:00,25.03280,85.41948,CO,76,102,87
India,Bihar,Saharsa,"Police Line, Saharsa - BSPCB",10-02-2026 09:00:00,25.892357,86.590325,NH3,4,5,4
India,Bihar,Samastipur,"DM Office_Kasipur, Samastipur - BSPCB",10-02-2026 09:00:00,25.859655,85.77944,PM10,68,168,98
India,Bihar,Sasaram,"Dada Peer, Sasaram - BSPCB",10-02-2026 09:00:00,24.952822,84.002396,OZONE,16,33,17
India,Bihar,Siwan,"Chitragupta Nagar, Siwan - BSPCB",10-02-2026 09:00:00,26.2271665,84.3570427,NO2,2,2,2
India,Chandigarh,Chandigarh,"Sector 22, Chandigarh - CPCC",10-02-2026 09:00:00,30.735567,76.775714,NO2,42,411,194
India,Delhi,Delhi,"Chandni Chowk, Delhi - IITM",10-02-2026 09:00:00,28.656756,77.227234,NH3,5,16,8
India,Delhi,Delhi,"Chandni Chowk, Delhi - IITM",10-02-2026 09:00:00,28.656756,77.227234,SO2,16,87,35
India,Delhi,Delhi,"DTU, Delhi - CPCB",10-02-2026 09:00:00,28.7500499,77.1112615,PM2.5,165,392,286
India,Delhi,Delhi,"DTU, Delhi - CPCB",10-02-2026 09:00:00,28.7500499,77.1112615,CO,28,107,103
India,Delhi,Delhi,"Dr. Karni Singh Shooting Range, Delhi - DPCC",10-02-2026 09:00:00,28.498571,77.264840,NH3,6,9,7
India,Delhi,Delhi,"Dr. Karni Singh Shooting Range, Delhi - DPCC",10-02-2026 09:00:00,28.498571,77.264840,OZONE,3,170,35
India,Delhi,Delhi,"Dwarka-Sector 8, Delhi - DPCC ",10-02-2026 09:00:00,28.5710274,77.0719006,PM2.5,55,350,253
India,Delhi,Delhi,"Dwarka-Sector 8, Delhi - DPCC ",10-02-2026 09:00:00,28.5710274,77.0719006,NO2,75,170,125
India,Delhi,Delhi,"IGI Airport (T3), Delhi - IMD",10-02-2026 09:00:00,28.5627763,77.1180053,CO,10,107,72
India,Delhi,Delhi,"IGI Airport (T3), Delhi - IMD",10-02-2026 09:00:00,28.5627763,77.1180053,OZONE,4,64,6
India,Chhattisgarh,Chhal,"Nawapara SECL Colony, Chhal - CECB",10-02-2026 09:00:00,22.118125,83.140608,PM10,41,186,83
India,Chhattisgarh,Chhal,"Nawapara SECL Colony, Chhal - CECB",10-02-2026 09:00:00,22.118125,83.140608,NO2,9,32,16
India,Chhattisgarh,Chhal,"Nawapara SECL Colony, Chhal - CECB",10-02-2026 09:00:00,22.118125,83.140608,CO,18,55,32
India,Chhattisgarh,Korba,"Urja Nagar, Korba - CECB",10-02-2026 09:00:00,22.348441,82.549611,PM2.5,6,346,73
India,Chhattisgarh,Korba,"Urja Nagar, Korba - CECB",10-02-2026 09:00:00,22.348441,82.549611,NO2,15,23,19
India,Chhattisgarh,Milupara,"Govt. Higher Secondary School, Milupara - CECB",10-02-2026 09:00:00,22.1910172,83.5197009,NH3,1,2,2
India,Delhi,Delhi,"IIT Delhi, Delhi - IITM",10-02-2026 09:00:00,28.542460,77.191651,CO,26,110,86
India,Delhi,Delhi,"ITO, Delhi - CPCB",10-02-2026 09:00:00,28.628624,77.241060,NO2,38,135,73
India,Delhi,Delhi,"Lodhi Road, Delhi - IMD",10-02-2026 09:00:00,28.5918245,77.2273074,PM2.5,76,286,175
India,Delhi,Delhi,"Lodhi Road, Delhi - IMD",10-02-2026 09:00:00,28.5918245,77.2273074,NO2,13,75,43
India,Delhi,Delhi,"Major Dhyan Chand National Stadium, Delhi - DPCC",10-02-2026 09:00:00,28.611281,77.237738,PM2.5,78,306,222
India,Delhi,Delhi,"Major Dhyan Chand National Stadium, Delhi - DPCC",10-02-2026 09:00:00,28.611281,77.237738,OZONE,1,200,2
India,Bihar,Patna,"Govt. High School Shikarpur, Patna - BSPCB",10-02-2026 09:00:00,25.592539,85.227158,SO2,3,7,5
India,Bihar,Patna,"Muradpur, Patna - BSPCB",10-02-2026 09:00:00,25.619651,85.147382,CO,6,64,52
India,Bihar,Patna,"Rajbansi Nagar, Patna - BSPCB",10-02-2026 09:00:00,25.599486,85.113666,PM2.5,66,185,108
India,Bihar,Patna,"Rajbansi Nagar, Patna - BSPCB",10-02-2026 09:00:00,25.599486,85.113666,NO2,18,51,29
India,Delhi,Delhi,"Alipur, Delhi - DPCC",10-02-2026 09:00:00,28.815329,77.153010,CO,NA,NA,NA
India,Delhi,Delhi,"Ashok Vihar, Delhi - DPCC",10-02-2026 09:00:00,28.695381,77.181665,NH3,7,8,8
India,Delhi,Delhi,"Aya Nagar, Delhi - IMD",10-02-2026 09:00:00,28.4706914,77.1099364,PM2.5,64,364,211
India,Delhi,Delhi,"R K Puram, Delhi - DPCC",10-02-2026 09:00:00,28.563262,77.186937,SO2,8,37,19
India,Delhi,Delhi,"R K Puram, Delhi - DPCC",10-02-2026 09:00:00,28.563262,77.186937,OZONE,8,144,10
India,Delhi,Delhi,"Rohini, Delhi - DPCC",10-02-2026 09:00:00,28.732528,77.119920,PM10,184,430,305
India,Delhi,Delhi,"Rohini, Delhi - DPCC",10-02-2026 09:00:00,28.732528,77.119920,NH3,8,15,11
India,Delhi,Delhi,"Shadipur, Delhi - CPCB",10-02-2026 09:00:00,28.6514781,77.1473105,PM10,145,410,203
India,Delhi,Delhi,"Shadipur, Delhi - CPCB",10-02-2026 09:00:00,28.6514781,77.1473105,NH3,11,18,13
India,Delhi,Delhi,"Sirifort, Delhi - CPCB",10-02-2026 09:00:00,28.5504249,77.2159377,OZONE,4,30,4
India,Delhi,Delhi,"Sonia Vihar, Delhi - DPCC",10-02-2026 09:00:00,28.710508,77.249485,PM2.5,240,388,329
India,Delhi,Delhi,"Sonia Vihar, Delhi - DPCC",10-02-2026 09:00:00,28.710508,77.249485,PM10,190,391,298
India,Delhi,Delhi,"Sonia Vihar, Delhi - DPCC",10-02-2026 09:00:00,28.710508,77.249485,CO,92,143,117
India,Delhi,Delhi,"Sri Aurobindo Marg, Delhi - DPCC",10-02-2026 09:00:00,28.531346,77.190156,NO2,18,91,46
India,Delhi,Delhi,"Sri Aurobindo Marg, Delhi - DPCC",10-02-2026 09:00:00,28.531346,77.190156,CO,14,101,65
India,Delhi,Delhi,"Vivek Vihar, Delhi - DPCC",10-02-2026 09:00:00,28.672342,77.315260,PM2.5,178,386,293
India,Delhi,Delhi,"Vivek Vihar, Delhi - DPCC",10-02-2026 09:00:00,28.672342,77.315260,NO2,38,111,75
India,Haryana,Gurugram,"Vikas Sadan, Gurugram - HSPCB",10-02-2026 09:00:00,28.4501238,77.0263051,OZONE,4,31,12
India,Haryana,Hisar,"Urban Estate-II, Hisar - HSPCB",10-02-2026 09:00:00,29.140560,75.744941,PM2.5,46,81,60
India,Haryana,Hisar,"Urban Estate-II, Hisar - HSPCB",10-02-2026 09:00:00,29.140560,75.744941,NH3,10,11,11
India,Haryana,Hisar,"Urban Estate-II, Hisar - HSPCB",10-02-2026 09:00:00,29.140560,75.744941,OZONE,22,126,47
India,Haryana,Jind,"Police Lines, Jind - HSPCB",10-02-2026 09:00:00,29.307814,76.337619,PM2.5,87,310,184
India,Haryana,Jind,"Police Lines, Jind - HSPCB",10-02-2026 09:00:00,29.307814,76.337619,CO,2,68,33
India,Haryana,Kaithal,"Rishi Nagar, Kaithal - HSPCB",10-02-2026 09:00:00,29.8006,76.4155,SO2,27,33,31
India,Haryana,Kaithal,"Rishi Nagar, Kaithal - HSPCB",10-02-2026 09:00:00,29.8006,76.4155,CO,8,80,47
India,Haryana,Karnal,"Sector-12, Karnal - HSPCB",10-02-2026 09:00:00,29.695300,77.002700,PM2.5,103,311,231
India,Haryana,Karnal,"Sector-12, Karnal - HSPCB",10-02-2026 09:00:00,29.695300,77.002700,SO2,6,6,6
India,Haryana,Kurukshetra,"Sector-7, Kurukshetra - HSPCB",10-02-2026 09:00:00,29.966942,76.875879,PM2.5,85,334,224
India,Gujarat,Ahmedabad,"Rakhial, Ahmedabad - IITM",10-02-2026 09:00:00,23.016834,72.625775,OZONE,2,122,18
India,Gujarat,Ahmedabad,"SAC ISRO Satellite, Ahmedabad - IITM",10-02-2026 09:00:00,23.023389,72.515201,PM2.5,57,189,113
India,Gujarat,Ahmedabad,"SAC ISRO Satellite, Ahmedabad - IITM",10-02-2026 09:00:00,23.023389,72.515201,PM10,71,186,123
India,Gujarat,Ahmedabad,"SVPI Airport Hansol, Ahmedabad - IITM",10-02-2026 09:00:00,23.076793,72.627874,NH3,4,27,8
India,Gujarat,Ahmedabad,"SVPI Airport Hansol, Ahmedabad - IITM",10-02-2026 09:00:00,23.076793,72.627874,OZONE,3,92,19
India,Gujarat,Ankleshwar,"GIDC, Ankleshwar - GPCB",10-02-2026 09:00:00,21.613267,73.010555,NO2,19,27,25
India,Gujarat,Ankleshwar,"GIDC, Ankleshwar - GPCB",10-02-2026 09:00:00,21.613267,73.010555,CO,30,91,62
India,Gujarat,Bhavnagar,"Vidhyanagar, Bhavnagar - Nexteng Enviro",10-02-2026 09:00:00,21.755417,72.139056,NO2,50,73,58
India,Delhi,Delhi,"Vivek Vihar, Delhi - DPCC",10-02-2026 09:00:00,28.672342,77.315260,SO2,NA,NA,NA
India,Delhi,Delhi,"Vivek Vihar, Delhi - DPCC",10-02-2026 09:00:00,28.672342,77.315260,CO,NA,NA,NA
India,Delhi,Delhi,"Wazirpur, Delhi - DPCC",10-02-2026 09:00:00,28.699793,77.165453,PM2.5,220,500,343
India,Delhi,Delhi,"Wazirpur, Delhi - DPCC",10-02-2026 09:00:00,28.699793,77.165453,PM10,182,494,346
India,Delhi,Delhi,"Wazirpur, Delhi - DPCC",10-02-2026 09:00:00,28.699793,77.165453,SO2,4,13,8
India,Gujarat,Ahmedabad,"Chandkheda, Ahmedabad - IITM",10-02-2026 09:00:00,23.107969,72.574648,PM10,38,151,112
India,Gujarat,Ahmedabad,"Chandkheda, Ahmedabad - IITM",10-02-2026 09:00:00,23.107969,72.574648,NH3,5,14,8
India,Gujarat,Ahmedabad,"Gyaspur, Ahmedabad - IITM",10-02-2026 09:00:00,22.977134,72.553024,PM10,98,194,140
India,Gujarat,Ahmedabad,"Gyaspur, Ahmedabad - IITM",10-02-2026 09:00:00,22.977134,72.553024,CO,6,63,15
India,Haryana,Ballabgarh,"Nathu Colony, Ballabgarh - HSPCB",10-02-2026 09:00:00,28.3419248,77.319699,PM10,134,424,248
India,Haryana,Bhiwani,"H.B. Colony, Bhiwani - HSPCB",10-02-2026 09:00:00,28.806223,76.141105,PM10,NA,NA,NA
India,Haryana,Bhiwani,"H.B. Colony, Bhiwani - HSPCB",10-02-2026 09:00:00,28.806223,76.141105,CO,8,10,10
India,Haryana,Charkhi Dadri,"Mini Secretariat, Charkhi Dadri - HSPCB",10-02-2026 09:00:00,28.593883,76.270653,NH3,5,8,6
India,Haryana,Charkhi Dadri,"Mini Secretariat, Charkhi Dadri - HSPCB",10-02-2026 09:00:00,28.593883,76.270653,SO2,10,11,10
India,Haryana,Faridabad,"New Industrial Town, Faridabad - HSPCB",10-02-2026 09:00:00,28.39072,77.30059,CO,10,12,12
India,Haryana,Faridabad,"Sector 11, Faridabad - HSPCB",10-02-2026 09:00:00,28.376058,77.315741,PM2.5,66,388,216
India,Gujarat,Surat,"Science Center, Surat - SMC",10-02-2026 09:00:00,21.170046,72.795405,PM10,64,121,93
India,Gujarat,Vapi,"Phase-1 GIDC, Vapi - GPCB",10-02-2026 09:00:00,20.362421,72.918013,SO2,NA,NA,NA
India,Gujarat,Vatva,"Phase-4 GIDC, Vatva - GPCB",10-02-2026 09:00:00,22.969611,72.643500,OZONE,29,46,29
India,Haryana,Ambala,"Patti Mehar, Ambala - HSPCB",10-02-2026 09:00:00,30.379589,76.778328,SO2,NA,NA,NA
India,Haryana,Ambala,"Patti Mehar, Ambala - HSPCB",10-02-2026 09:00:00,30.379589,76.778328,CO,NA,NA,NA
India,Haryana,Ambala,"Patti Mehar, Ambala - HSPCB",10-02-2026 09:00:00,30.379589,76.778328,OZONE,NA,NA,NA
India,Haryana,Bahadurgarh,"Arya Nagar, Bahadurgarh - HSPCB",10-02-2026 09:00:00,28.6701,76.9254,NO2,12,14,13
India,Gujarat,Gandhinagar,"GIFT City, Gandhinagar - IITM",10-02-2026 09:00:00,23.163798,72.677768,PM2.5,14,309,183
India,Gujarat,Gandhinagar,"GIFT City, Gandhinagar - IITM",10-02-2026 09:00:00,23.163798,72.677768,SO2,4,20,10
India,Gujarat,Gandhinagar,"IIPHG Lekawada, Gandhinagar - IITM",10-02-2026 09:00:00,23.243639,72.68994,PM10,106,129,117
India,Gujarat,Gandhinagar,"IIPHG Lekawada, Gandhinagar - IITM",10-02-2026 09:00:00,23.243639,72.68994,NH3,NA,NA,NA
India,Gujarat,Gandhinagar,"IIPHG Lekawada, Gandhinagar - IITM",10-02-2026 09:00:00,23.243639,72.68994,CO,21,118,92
India,Gujarat,Gandhinagar,"IIPHG Lekawada, Gandhinagar - IITM",10-02-2026 09:00:00,23.243639,72.68994,OZONE,2,76,4
India,Gujarat,Gandhinagar,"Sector-10, Gandhinagar - GPCB",10-02-2026 09:00:00,23.221714,72.654328,NO2,33,81,46
India,Gujarat,Gandhinagar,"Sector-10, Gandhinagar - GPCB",10-02-2026 09:00:00,23.221714,72.654328,OZONE,3,144,7
India,Delhi,Delhi,"North Campus, DU, Delhi - IMD",10-02-2026 09:00:00,28.6573814,77.1585447,NO2,51,144,97
India,Delhi,Delhi,"North Campus, DU, Delhi - IMD",10-02-2026 09:00:00,28.6573814,77.1585447,OZONE,12,318,15
India,Delhi,Delhi,"Patparganj, Delhi - DPCC",10-02-2026 09:00:00,28.623763,77.287209,NO2,35,152,98
India,Delhi,Delhi,"Punjabi Bagh, Delhi - DPCC",10-02-2026 09:00:00,28.674045,77.131023,PM10,144,271,209
India,Delhi,Delhi,"Punjabi Bagh, Delhi - DPCC",10-02-2026 09:00:00,28.674045,77.131023,NO2,43,87,63
India,Haryana,Faridabad,"Sector 30, Faridabad - HSPCB",10-02-2026 09:00:00,28.4417,77.3217,PM2.5,90,111,94
India,Haryana,Faridabad,"Sector 30, Faridabad - HSPCB",10-02-2026 09:00:00,28.4417,77.3217,NO2,36,40,37
India,Haryana,Fatehabad,"Huda Sector, Fatehabad - HSPCB",10-02-2026 09:00:00,29.503664,75.467934,PM10,90,164,109
India,Haryana,Fatehabad,"Huda Sector, Fatehabad - HSPCB",10-02-2026 09:00:00,29.503664,75.467934,NO2,18,20,19
India,Jammu_and_Kashmir,Pampore,"Khrew, Pampore - JKPCC",10-02-2026 09:00:00,34.031606,75.009712,SO2,2,2,2
India,Jammu_and_Kashmir,Srinagar,"Khunmoh, Srinagar - JKPCC",10-02-2026 09:00:00,34.06313,74.96017,PM2.5,NA,NA,NA
India,Jammu_and_Kashmir,Srinagar,"Rajbagh, Srinagar - JKPCC",10-02-2026 09:00:00,34.066206,74.819820,PM10,24,52,40
India,Jammu_and_Kashmir,Srinagar,"Rajbagh, Srinagar - JKPCC",10-02-2026 09:00:00,34.066206,74.819820,SO2,3,4,3
India,Jharkhand,Dhanbad,"Sardar Patel Nagar, Dhanbad - JSPCB",10-02-2026 09:00:00,23.80569,86.44268,OZONE,1,109,2
India,Karnataka,Bagalkot,"Vidayagiri, Bagalkot - KSPCB",10-02-2026 09:00:00,16.172806,75.659694,PM2.5,35,36,35
India,Karnataka,Bagalkot,"Vidayagiri, Bagalkot - KSPCB",10-02-2026 09:00:00,16.172806,75.659694,SO2,7,7,7
India,Karnataka,Belgaum,"Ramteerth Nagar, Belgaum - KSPCB",10-02-2026 09:00:00,15.888653,74.541751,OZONE,NA,NA,NA
India,Karnataka,Bengaluru,"BTM Layout, Bengaluru - CPCB",10-02-2026 09:00:00,12.9135218,77.5950804,PM10,93,96,95
India,Karnataka,Bengaluru,"BTM Layout, Bengaluru - CPCB",10-02-2026 09:00:00,12.9135218,77.5950804,NO2,NA,NA,NA
India,Karnataka,Hubballi,"Lingaraj Nagar, Hubballi - KSPCB",10-02-2026 09:00:00,15.3714823,75.1160168,OZONE,6,50,9
India,Karnataka,Kalaburagi,"Mahatma Basaveswar Colony, Kalaburgi - KSPCB",10-02-2026 09:00:00,17.336318,76.847397,NH3,2,3,3
India,Karnataka,Madikeri,"Stuart Hill, Madikeri - KSPCB",10-02-2026 09:00:00,12.415911,75.735050,SO2,7,7,7
India,Karnataka,Mysuru,"Hebbal 1st Stage, Mysuru - KSPCB",10-02-2026 09:00:00,12.21041,76.37376,SO2,2,28,8
India,Karnataka,Mysuru,"Hebbal 1st Stage, Mysuru - KSPCB",10-02-2026 09:00:00,12.21041,76.37376,CO,1,120,24
