country,state,city,station,last_update,latitude,longitude,pollutant_id,min_value,max_value,avg_value
India,Andhra_Pradesh,Chittoor,"Gangineni Cheruvu, Chittoor - APPCB",14-10-2025 07:00:00,13.204880,79.097889,NO2,9,16,13
India,Andhra_Pradesh,Chittoor,"Gangineni Cheruvu, Chittoor - APPCB",14-10-2025 07:00:00,13.204880,79.097889,NH3,6,10,8
India,Andhra_Pradesh,Kadapa,"Yerramukkapalli, Kadapa - APPCB",14-10-2025 07:00:00,14.465052,78.824187,CO,NA,NA,NA
India,Andhra_Pradesh,Kadapa,"Yerramukkapalli, Kadapa - APPCB",14-10-2025 07:00:00,14.465052,78.824187,OZONE,NA,NA,NA
India,Andhra_Pradesh,Tirumala,"Toll Gate, Tirumala - APPCB",14-10-2025 07:00:00,13.67,79.35,PM2.5,38,75,53
India,Andhra_Pradesh,Tirumala,"Toll Gate, Tirumala - APPCB",14-10-2025 07:00:00,13.67,79.35,OZONE,8,23,13
India,Andhra_Pradesh,Tirupati,"Vaikuntapuram, Tirupati - APPCB",14-10-2025 07:00:00,13.615387,79.409230,PM10,NA,NA,NA
India,Andhra_Pradesh,Tirupati,"Vaikuntapuram, Tirupati - APPCB",14-10-2025 07:00:00,13.615387,79.409230,NH3,NA,NA,NA
India,Assam,Guwahati,"LGBI Airport, Guwahati - PCBA",14-10-2025 07:00:00,26.10887,91.589544,OZONE,13,17,15
India,Assam,Guwahati,"Pan Bazaar, Guwahati - PCBA",14-10-2025 07:00:00,26.187500,91.744194,CO,12,79,49
India,Assam,Guwahati,"Pan Bazaar, Guwahati - PCBA",14-10-2025 07:00:00,26.187500,91.744194,OZONE,17,19,18
India,Assam,Guwahati,"Railway Colony, Guwahati - PCBA",14-10-2025 07:00:00,26.181742,91.78063,NO2,3,4,3
India,Assam,Nagaon,"Christianpatty, Nagaon - PCBA",14-10-2025 07:00:00,26.349082,92.68449,NO2,1,2,1
India,Assam,Nagaon,"Christianpatty, Nagaon - PCBA",14-10-2025 07:00:00,26.349082,92.68449,SO2,8,14,12
India,Assam,Nalbari,"Bata Chowk, Nalbari - PCBA",14-10-2025 07:00:00,26.446912,91.439057,PM10,46,47,47
India,Bihar,Bhagalpur,"Mayaganj, Bhagalpur - BSPCB",14-10-2025 07:00:00,25.265194,87.012947,CO,43,88,49
India,Bihar,Bihar Sharif,"D M Colony, Bihar Sharif - BSPCB",14-10-2025 07:00:00,25.204762,85.514960,NH3,2,2,2
India,Bihar,Bihar Sharif,"D M Colony, Bihar Sharif - BSPCB",14-10-2025 07:00:00,25.204762,85.514960,OZONE,21,32,29
India,Bihar,Buxar,"Charitra Van, Buxar - BSPCB",14-10-2025 07:00:00,25.567520,83.966379,PM2.5,55,64,63
India,Bihar,Buxar,"Charitra Van, Buxar - BSPCB",14-10-2025 07:00:00,25.567520,83.966379,SO2,1,9,4
India,Bihar,Chhapra,"Darshan Nagar, Chhapra - BSPCB",14-10-2025 07:00:00,25.7808257,84.7446768,NO2,2,2,2
India,Arunachal_Pradesh,Naharlagun,"Naharlagun, Naharlagun - APSPCB",14-10-2025 07:00:00,27.103358,93.679645,SO2,8,8,8
India,Arunachal_Pradesh,Naharlagun,"Naharlagun, Naharlagun - APSPCB",14-10-2025 07:00:00,27.103358,93.679645,OZONE,5,5,5
India,Assam,Byrnihat,"Central Academy for SFS, Byrnihat - PCBA",14-10-2025 07:00:00,26.071318,91.87488,PM2.5,NA,NA,NA
India,Assam,Byrnihat,"Central Academy for SFS, Byrnihat - PCBA",14-10-2025 07:00:00,26.071318,91.87488,SO2,NA,NA,NA
India,Assam,Byrnihat,"Central Academy for SFS, Byrnihat - PCBA",14-10-2025 07:00:00,26.071318,91.87488,CO,26,71,54
India,Assam,Guwahati,"IITG, Guwahati - PCBA",14-10-2025 07:00:00,26.2028636,91.70046436,SO2,22,27,24
India,Andaman and Nicobar,Sri Vijaya Puram,"Police Line, Sri Vijaya Puram - ANPCC",14-10-2025 07:00:00,11.654054,92.734055,SO2,NA,NA,NA
India,Andhra_Pradesh,Amaravati,"Secretariat, Amaravati - APPCB",14-10-2025 07:00:00,16.5150833,80.5181667,PM2.5,5,33,17
India,Andhra_Pradesh,Amaravati,"Secretariat, Amaravati - APPCB",14-10-2025 07:00:00,16.5150833,80.5181667,NO2,17,36,23
India,Andhra_Pradesh,Amaravati,"Secretariat, Amaravati - APPCB",14-10-2025 07:00:00,16.5150833,80.5181667,NH3,3,5,4
India,Andhra_Pradesh,Anantapur,"Gulzarpet, Anantapur - APPCB",14-10-2025 07:00:00,14.675886,77.593027,NO2,13,21,15
India,Assam,Silchar,"Tarapur, Silchar - PCBA",14-10-2025 07:00:00,24.82827,92.79525,PM2.5,40,45,41
India,Assam,Sivasagar,"Girls College, Sivasagar - PCBA",14-10-2025 07:00:00,26.987634,94.636574,NH3,3,7,4
India,Bihar,Araria,"Kharahiya Basti, Araria - BSPCB",14-10-2025 07:00:00,26.146529,87.454184,CO,24,36,34
India,Bihar,Arrah,"New DM Office, Arrah - BSPCB",14-10-2025 07:00:00,25.5626095,84.663264,PM10,NA,NA,NA
India,Andhra_Pradesh,Vijayawada,"HB Colony, Vijayawada - APPCB",14-10-2025 07:00:00,16.536107,80.594233,NH3,3,6,4
India,Andhra_Pradesh,Vijayawada,"Rajiv Gandhi Park, Vijayawada - APPCB",14-10-2025 07:00:00,16.509717,80.612222,PM10,52,74,62
India,Andhra_Pradesh,Vijayawada,"Rajiv Nagar, Vijayawada - APPCB",14-10-2025 07:00:00,16.554731,80.649110,NO2,6,8,6
India,Andhra_Pradesh,Vijayawada,"Rajiv Nagar, Vijayawada - APPCB",14-10-2025 07:00:00,16.554731,80.649110,SO2,11,20,16
India,Andhra_Pradesh,Vijayawada,"Rajiv Nagar, Vijayawada - APPCB",14-10-2025 07:00:00,16.554731,80.649110,CO,15,33,24
India,Bihar,Begusarai,"Lohiyanagar, Begusarai - BSPCB",14-10-2025 07:00:00,25.42742023,86.13886079,PM10,16,28,22
India,Bihar,Bettiah,"Kamalnath Nagar, Bettiah - BSPCB",14-10-2025 07:00:00,26.80365,84.51954,PM2.5,NA,NA,NA
India,Bihar,Bettiah,"Kamalnath Nagar, Bettiah - BSPCB",14-10-2025 07:00:00,26.80365,84.51954,PM10,66,123,88
India,Bihar,Gaya,"SFTI Kusdihra, Gaya - BSPCB",14-10-2025 07:00:00,24.762518,84.982348,NH3,3,4,3
India,Bihar,Gaya,"SFTI Kusdihra, Gaya - BSPCB",14-10-2025 07:00:00,24.762518,84.982348,SO2,7,13,9
India,Bihar,Bhagalpur,"Mayaganj, Bhagalpur - BSPCB",14-10-2025 07:00:00,25.265194,87.012947,PM2.5,67,97,78
India,Bihar,Patna,"Samanpura, Patna - BSPCB",14-10-2025 07:00:00,25.596727,85.085624,OZONE,16,42,18
India,Bihar,Purnia,"Mariam Nagar, Purnia - BSPCB",14-10-2025 07:00:00,25.366336,87.117468,PM2.5,42,167,83
India,Bihar,Purnia,"Mariam Nagar, Purnia - BSPCB",14-10-2025 07:00:00,25.366336,87.117468,NH3,3,3,3
India,Bihar,Rajgir,"Dangi Tola, Rajgir - BSPCB",14-10-2025 07:00:00,25.03280,85.41948,NO2,9,10,9
India,Bihar,Rajgir,"Dangi Tola, Rajgir - BSPCB",14-10-2025 07:00:00,25.03280,85.41948,SO2,18,24,21
India,Bihar,Samastipur,"DM Office_Kasipur, Samastipur - BSPCB",14-10-2025 07:00:00,25.859655,85.77944,PM10,NA,NA,NA
India,Bihar,Samastipur,"DM Office_Kasipur, Samastipur - BSPCB",14-10-2025 07:00:00,25.859655,85.77944,NO2,8,9,8
India,Bihar,Katihar,"Mirchaibari, Katihar - BSPCB",14-10-2025 07:00:00,25.560083,87.553265,SO2,12,21,16
India,Bihar,Kishanganj,"SDM Office_Khagra, Kishanganj - BSPCB",14-10-2025 07:00:00,26.0881305,87.93840336,PM10,47,101,78
India,Bihar,Kishanganj,"SDM Office_Khagra, Kishanganj - BSPCB",14-10-2025 07:00:00,26.0881305,87.93840336,SO2,6,8,7
India,Bihar,Manguraha,"Forest Rest House, Manguraha - BSPCB",14-10-2025 07:00:00,27.308328,84.531742,PM10,44,195,72
India,Bihar,Muzaffarpur,"Muzaffarpur Collectorate, Muzaffarpur - BSPCB",14-10-2025 07:00:00,26.1209,85.3647,OZONE,9,87,10
India,Bihar,Patna,"DRM Office Danapur, Patna - BSPCB",14-10-2025 07:00:00,25.586562,85.043586,PM2.5,61,94,77
India,Bihar,Patna,"DRM Office Danapur, Patna - BSPCB",14-10-2025 07:00:00,25.586562,85.043586,NO2,45,54,51
India,Bihar,Patna,"DRM Office Danapur, Patna - BSPCB",14-10-2025 07:00:00,25.586562,85.043586,NH3,4,6,5
India,Bihar,Gaya,"SFTI Kusdihra, Gaya - BSPCB",14-10-2025 07:00:00,24.762518,84.982348,OZONE,8,40,11
India,Bihar,Hajipur,"Industrial Area, Hajipur - BSPCB",14-10-2025 07:00:00,25.697189,85.245900,CO,NA,NA,NA
India,Bihar,Katihar,"Mirchaibari, Katihar - BSPCB",14-10-2025 07:00:00,25.560083,87.553265,NO2,10,18,14
India,Bihar,Patna,"Muradpur, Patna - BSPCB",14-10-2025 07:00:00,25.619651,85.147382,OZONE,4,39,5
India,Bihar,Patna,"Samanpura, Patna - BSPCB",14-10-2025 07:00:00,25.596727,85.085624,PM2.5,97,302,166
India,Bihar,Patna,"Samanpura, Patna - BSPCB",14-10-2025 07:00:00,25.596727,85.085624,SO2,1,2,1
India,Bihar,Munger,"Town Hall, Munger - BSPCB",14-10-2025 07:00:00,25.376776,86.471523,CO,18,28,24
India,Bihar,Munger,"Town Hall, Munger - BSPCB",14-10-2025 07:00:00,25.376776,86.471523,OZONE,14,32,17
India,Bihar,Patna,"IGSC Planetarium Complex, Patna - BSPCB",14-10-2025 07:00:00,25.610369,85.132568,NO2,NA,NA,NA
India,Bihar,Sasaram,"Dada Peer, Sasaram - BSPCB",14-10-2025 07:00:00,24.952822,84.002396,PM2.5,17,70,28
India,Bihar,Motihari,"Gandak Colony, Motihari - BSPCB",14-10-2025 07:00:00,26.63086,84.90051,NO2,4,11,8
India,Chhattisgarh,Bhilai,"Civic Center, Bhilai - Bhilai Steel Plant",14-10-2025 07:00:00,21.185571,81.343175,OZONE,2,17,7
India,Chhattisgarh,Bhilai,"Hathkhoj, Bhilai - CECB",14-10-2025 07:00:00,21.224231,81.408350,CO,14,58,38
India,Chhattisgarh,Bilaspur,"Mangala, Bilaspur - NTPC",14-10-2025 07:00:00,22.08815,82.13737,PM2.5,55,121,76
India,Chhattisgarh,Bilaspur,"Mangala, Bilaspur - NTPC",14-10-2025 07:00:00,22.08815,82.13737,SO2,8,17,14
India,Chhattisgarh,Bhilai,"32Bungalows, Bhilai - CECB",14-10-2025 07:00:00,21.194815,81.314770,PM10,52,110,77
India,Chhattisgarh,Bhilai,"32Bungalows, Bhilai - CECB",14-10-2025 07:00:00,21.194815,81.314770,NO2,17,69,38
India,Chhattisgarh,Bhilai,"32Bungalows, Bhilai - CECB",14-10-2025 07:00:00,21.194815,81.314770,CO,15,52,34
India,Chhattisgarh,Bhilai,"Civic Center, Bhilai - Bhilai Steel Plant",14-10-2025 07:00:00,21.185571,81.343175,PM10,54,128,90
India,Chhattisgarh,Bhilai,"Civic Center, Bhilai - Bhilai Steel Plant",14-10-2025 07:00:00,21.185571,81.343175,NO2,5,12,7
India,Chandigarh,Chandigarh,"Sector-25, Chandigarh - CPCC",14-10-2025 07:00:00,30.751462,76.762879,PM10,41,107,77
India,Chandigarh,Chandigarh,"Sector-25, Chandigarh - CPCC",14-10-2025 07:00:00,30.751462,76.762879,NH3,4,7,5
India,Chandigarh,Chandigarh,"Sector-53, Chandigarh - CPCC",14-10-2025 07:00:00,30.719859,76.738637,NO2,46,76,60
India,Chandigarh,Chandigarh,"Sector-53, Chandigarh - CPCC",14-10-2025 07:00:00,30.719859,76.738637,SO2,8,24,14
India,Chhattisgarh,Kunjemura,"OP Jindal School, Kunjemura - CECB",14-10-2025 07:00:00,22.126650,83.483212,PM2.5,17,44,26
India,Chhattisgarh,Kunjemura,"OP Jindal School, Kunjemura - CECB",14-10-2025 07:00:00,22.126650,83.483212,NO2,3,3,3
India,Chhattisgarh,Kunjemura,"OP Jindal School, Kunjemura - CECB",14-10-2025 07:00:00,22.126650,83.483212,SO2,2,14,6
India,Chhattisgarh,Kunjemura,"OP Jindal School, Kunjemura - CECB",14-10-2025 07:00:00,22.126650,83.483212,OZONE,4,14,13
India,Bihar,Siwan,"Chitragupta Nagar, Siwan - BSPCB",14-10-2025 07:00:00,26.2271665,84.3570427,PM2.5,45,157,94
India,Bihar,Siwan,"Chitragupta Nagar, Siwan - BSPCB",14-10-2025 07:00:00,26.2271665,84.3570427,NO2,1,1,1
India,Bihar,Siwan,"Chitragupta Nagar, Siwan - BSPCB",14-10-2025 07:00:00,26.2271665,84.3570427,SO2,3,4,3
India,Chhattisgarh,Raipur,"AIIMS, Raipur - CECB",14-10-2025 07:00:00,21.258815,81.578979,PM10,36,106,64
India,Chhattisgarh,Raipur,"AIIMS, Raipur - CECB",14-10-2025 07:00:00,21.258815,81.578979,OZONE,5,14,6
India,Chhattisgarh,Chhal,"Nawapara SECL Colony, Chhal - CECB",14-10-2025 07:00:00,22.118125,83.140608,PM2.5,27,110,69
India,Chhattisgarh,Chhal,"Nawapara SECL Colony, Chhal - CECB",14-10-2025 07:00:00,22.118125,83.140608,PM10,24,122,79
India,Chandigarh,Chandigarh,"Sector 22, Chandigarh - CPCC",14-10-2025 07:00:00,30.735567,76.775714,PM10,45,152,92
India,Chandigarh,Chandigarh,"Sector 22, Chandigarh - CPCC",14-10-2025 07:00:00,30.735567,76.775714,NO2,19,126,51
India,Chhattisgarh,Milupara,"Govt. Higher Secondary School, Milupara - CECB",14-10-2025 07:00:00,22.1910172,83.5197009,SO2,14,15,15
India,Delhi,Delhi,"Burari Crossing, Delhi - IMD",14-10-2025 07:00:00,28.7256504,77.2011573,NO2,16,39,25
India,Delhi,Delhi,"Burari Crossing, Delhi - IMD",14-10-2025 07:00:00,28.7256504,77.2011573,CO,18,104,75
India,Delhi,Delhi,"Chandni Chowk, Delhi - IITM",14-10-2025 07:00:00,28.656756,77.227234,SO2,12,21,16
India,Delhi,Delhi,"Anand Vihar, Delhi - DPCC",14-10-2025 07:00:00,28.647622,77.3158090,OZONE,9,76,11
India,Delhi,Delhi,"Ashok Vihar, Delhi - DPCC",14-10-2025 07:00:00,28.695381,77.181665,PM2.5,85,323,220
India,Delhi,Delhi,"Ashok Vihar, Delhi - DPCC",14-10-2025 07:00:00,28.695381,77.181665,OZONE,2,138,10
India,Delhi,Delhi,"IHBAS, Dilshad Garden, Delhi - CPCB",14-10-2025 07:00:00,28.6811736,77.3025234,OZONE,18,22,20
India,Delhi,Delhi,"ITO, Delhi - CPCB",14-10-2025 07:00:00,28.628624,77.241060,PM2.5,80,310,197
India,Delhi,Delhi,"Jahangirpuri, Delhi - DPCC",14-10-2025 07:00:00,28.732820,77.170633,CO,42,113,96
India,Delhi,Delhi,"Jawaharlal Nehru Stadium, Delhi - DPCC",14-10-2025 07:00:00,28.580280,77.233829,PM2.5,85,311,186
India,Chhattisgarh,Raipur,"Siltara Phase-II, Raipur - CECB",14-10-2025 07:00:00,21.371751,81.664929,NO2,13,57,29
India,Chhattisgarh,Raipur,"Siltara Phase-II, Raipur - CECB",14-10-2025 07:00:00,21.371751,81.664929,SO2,7,11,8
India,Delhi,Delhi,"Anand Vihar, Delhi - DPCC",14-10-2025 07:00:00,28.647622,77.3158090,PM2.5,78,337,222
India,Delhi,Delhi,"Anand Vihar, Delhi - DPCC",14-10-2025 07:00:00,28.647622,77.3158090,SO2,26,46,35
India,Delhi,Delhi,"Dwarka-Sector 8, Delhi - DPCC ",14-10-2025 07:00:00,28.5710274,77.0719006,SO2,19,26,22
India,Delhi,Delhi,"Dwarka-Sector 8, Delhi - DPCC ",14-10-2025 07:00:00,28.5710274,77.0719006,CO,32,132,86
India,Delhi,Delhi,"Dr. Karni Singh Shooting Range, Delhi - DPCC",14-10-2025 07:00:00,28.498571,77.264840,NO2,55,100,74
India,Delhi,Delhi,"ITO, Delhi - CPCB",14-10-2025 07:00:00,28.628624,77.241060,NH3,4,6,5
India,Delhi,Delhi,"Mandir Marg, Delhi - DPCC",14-10-2025 07:00:00,28.636429,77.201067,OZONE,7,157,7
India,Delhi,Delhi,"Mundka, Delhi - DPCC",14-10-2025 07:00:00,28.684678,77.076574,PM2.5,67,359,209
India,Delhi,Delhi,"Jawaharlal Nehru Stadium, Delhi - DPCC",14-10-2025 07:00:00,28.580280,77.233829,PM10,136,308,190
India,Delhi,Delhi,"Jawaharlal Nehru Stadium, Delhi - DPCC",14-10-2025 07:00:00,28.580280,77.233829,NO2,32,146,83
India,Delhi,Delhi,"Narela, Delhi - DPCC",14-10-2025 07:00:00,28.822836,77.101981,PM10,132,303,188
India,Delhi,Delhi,"Narela, Delhi - DPCC",14-10-2025 07:00:00,28.822836,77.101981,NO2,9,50,28
India,Delhi,Delhi,"NSIT Dwarka, Delhi - CPCB",14-10-2025 07:00:00,28.60909,77.0325413,PM10,115,176,148
India,Delhi,Delhi,"Nehru Nagar, Delhi - DPCC",14-10-2025 07:00:00,28.567890,77.250515,PM10,125,232,169
India,Delhi,Delhi,"Lodhi Road, Delhi - IMD",14-10-2025 07:00:00,28.5918245,77.2273074,OZONE,13,193,15
India,Delhi,Delhi,"NSIT Dwarka, Delhi - CPCB",14-10-2025 07:00:00,28.60909,77.0325413,CO,12,115,54
India,Delhi,Delhi,"Lodhi Road, Delhi - IMD",14-10-2025 07:00:00,28.5918245,77.2273074,NO2,9,65,27
India,Delhi,Delhi,"Narela, Delhi - DPCC",14-10-2025 07:00:00,28.822836,77.101981,CO,22,66,39
India,Delhi,Delhi,"Punjabi Bagh, Delhi - DPCC",14-10-2025 07:00:00,28.674045,77.131023,PM2.5,87,352,199
India,Delhi,Delhi,"Punjabi Bagh, Delhi - DPCC",14-10-2025 07:00:00,28.674045,77.131023,PM10,124,382,205
India,Delhi,Delhi,"Okhla Phase-2, Delhi - DPCC",14-10-2025 07:00:00,28.530785,77.271255,SO2,13,20,16
India,Delhi,Delhi,"Okhla Phase-2, Delhi - DPCC",14-10-2025 07:00:00,28.530785,77.271255,CO,20,105,83
India,Delhi,Delhi,"Patparganj, Delhi - DPCC",14-10-2025 07:00:00,28.623763,77.287209,CO,2,105,71
India,Delhi,Delhi,"Patparganj, Delhi - DPCC",14-10-2025 07:00:00,28.623763,77.287209,OZONE,6,300,8
India,Delhi,Delhi,"North Campus, DU, Delhi - IMD",14-10-2025 07:00:00,28.6573814,77.1585447,PM10,124,219,167
India,Delhi,Delhi,"R K Puram, Delhi - DPCC",14-10-2025 07:00:00,28.563262,77.186937,CO,22,101,87
India,Delhi,Delhi,"Nehru Nagar, Delhi - DPCC",14-10-2025 07:00:00,28.567890,77.250515,SO2,2,30,12
India,Delhi,Delhi,"Rohini, Delhi - DPCC",14-10-2025 07:00:00,28.732528,77.119920,PM10,115,403,200
India,Delhi,Delhi,"Pusa, Delhi - DPCC",14-10-2025 07:00:00,28.639652,77.146275,NO2,39,168,87
India,Delhi,Delhi,"Pusa, Delhi - IMD",14-10-2025 07:00:00,28.636110,77.173332,OZONE,1,117,2
India,Delhi,Delhi,"Sirifort, Delhi - CPCB",14-10-2025 07:00:00,28.5504249,77.2159377,PM10,142,427,238
India,Delhi,Delhi,"Sirifort, Delhi - CPCB",14-10-2025 07:00:00,28.5504249,77.2159377,NH3,7,14,10
India,Delhi,Delhi,"Vivek Vihar, Delhi - DPCC",14-10-2025 07:00:00,28.672342,77.315260,NO2,18,113,58
India,Delhi,Delhi,"Vivek Vihar, Delhi - DPCC",14-10-2025 07:00:00,28.672342,77.315260,NH3,9,10,10
India,Delhi,Delhi,"Vivek Vihar, Delhi - DPCC",14-10-2025 07:00:00,28.672342,77.315260,PM10,126,284,186
India,Delhi,Delhi,"Shadipur, Delhi - CPCB",14-10-2025 07:00:00,28.6514781,77.1473105,PM2.5,37,128,83
India,Delhi,Delhi,"Sirifort, Delhi - CPCB",14-10-2025 07:00:00,28.5504249,77.2159377,PM2.5,60,143,82
India,Delhi,Delhi,"Sonia Vihar, Delhi - DPCC",14-10-2025 07:00:00,28.710508,77.249485,NO2,16,64,41
India,Delhi,Delhi,"Shadipur, Delhi - CPCB",14-10-2025 07:00:00,28.6514781,77.1473105,NH3,13,19,15
India,Delhi,Delhi,"Sirifort, Delhi - CPCB",14-10-2025 07:00:00,28.5504249,77.2159377,CO,21,100,90
India,Delhi,Delhi,"Wazirpur, Delhi - DPCC",14-10-2025 07:00:00,28.699793,77.165453,NO2,49,146,89
India,Gujarat,Ahmedabad,"Chandkheda, Ahmedabad - IITM",14-10-2025 07:00:00,23.107969,72.574648,CO,1,86,54
India,Gujarat,Ahmedabad,"Gyaspur, Ahmedabad - IITM",14-10-2025 07:00:00,22.977134,72.553024,PM2.5,54,320,156
India,Gujarat,Ahmedabad,"Rakhial, Ahmedabad - IITM",14-10-2025 07:00:00,23.016834,72.625775,CO,NA,NA,NA
India,Gujarat,Ahmedabad,"Rakhial, Ahmedabad - IITM",14-10-2025 07:00:00,23.016834,72.625775,OZONE,1,71,4
India,Gujarat,Ahmedabad,"SAC ISRO Bopal, Ahmedabad - IITM",14-10-2025 07:00:00,23.041137,72.456691,CO,6,54,48
India,Gujarat,Ahmedabad,"SAC ISRO Bopal, Ahmedabad - IITM",14-10-2025 07:00:00,23.041137,72.456691,NH3,2,4,3
India,Gujarat,Ahmedabad,"Chandkheda, Ahmedabad - IITM",14-10-2025 07:00:00,23.107969,72.574648,NH3,6,27,15
India,Gujarat,Ahmedabad,"Maninagar, Ahmedabad - GPCB",14-10-2025 07:00:00,23.002657,72.591912,NO2,24,71,37
India,Gujarat,Ahmedabad,"Gyaspur, Ahmedabad - IITM",14-10-2025 07:00:00,22.977134,72.553024,OZONE,3,73,4
India,Gujarat,Ahmedabad,"Rakhial, Ahmedabad - IITM",14-10-2025 07:00:00,23.016834,72.625775,NH3,4,8,6
India,Delhi,Delhi,"Wazirpur, Delhi - DPCC",14-10-2025 07:00:00,28.699793,77.165453,CO,28,90,52
India,Gujarat,Gandhinagar,"Sector-10, Gandhinagar - GPCB",14-10-2025 07:00:00,23.221714,72.654328,SO2,2,11,8
India,Gujarat,Gandhinagar,"Sector-10, Gandhinagar - GPCB",14-10-2025 07:00:00,23.221714,72.654328,CO,23,38,33
India,Gujarat,Gandhinagar,"Sector-10, Gandhinagar - GPCB",14-10-2025 07:00:00,23.221714,72.654328,OZONE,8,74,22
India,Gujarat,Nandesari,"GIDC, Nandesari - Nandesari Ind. Association",14-10-2025 07:00:00,22.410802,73.097923,PM2.5,58,230,140
India,Gujarat,Ahmedabad,"SVPI Airport Hansol, Ahmedabad - IITM",14-10-2025 07:00:00,23.076793,72.627874,CO,32,106,71
India,Gujarat,Ahmedabad,"SAC ISRO Satellite, Ahmedabad - IITM",14-10-2025 07:00:00,23.023389,72.515201,CO,4,104,54
India,Gujarat,Gandhinagar,"GIFT City, Gandhinagar - IITM",14-10-2025 07:00:00,23.163798,72.677768,PM10,94,127,111
India,Gujarat,Gandhinagar,"IIPHG Lekawada, Gandhinagar - IITM",14-10-2025 07:00:00,23.243639,72.68994,CO,1,96,10
India,Gujarat,Gandhinagar,"GIFT City, Gandhinagar - IITM",14-10-2025 07:00:00,23.163798,72.677768,NH3,2,9,5
India,Gujarat,Gandhinagar,"Sector-10, Gandhinagar - GPCB",14-10-2025 07:00:00,23.221714,72.654328,NO2,27,28,28
India,Gujarat,Ankleshwar,"GIDC, Ankleshwar - GPCB",14-10-2025 07:00:00,21.613267,73.010555,PM2.5,29,67,54
India,Gujarat,Ankleshwar,"GIDC, Ankleshwar - GPCB",14-10-2025 07:00:00,21.613267,73.010555,SO2,53,81,68
India,Haryana,Faridabad,"Sector 11, Faridabad - HSPCB",14-10-2025 07:00:00,28.376058,77.315741,CO,48,52,50
India,Haryana,Faridabad,"Sector 11, Faridabad - HSPCB",14-10-2025 07:00:00,28.376058,77.315741,OZONE,19,21,20
India,Haryana,Faridabad,"Sector 30, Faridabad - HSPCB",14-10-2025 07:00:00,28.4417,77.3217,PM10,95,102,100
India,Gujarat,Surat,"Science Center, Surat - SMC",14-10-2025 07:00:00,21.170046,72.795405,CO,34,40,39
India,Gujarat,Vapi,"Phase-1 GIDC, Vapi - GPCB",14-10-2025 07:00:00,20.362421,72.918013,PM2.5,NA,NA,NA
India,Haryana,Faridabad,"New Industrial Town, Faridabad - HSPCB",14-10-2025 07:00:00,28.39072,77.30059,PM2.5,123,144,132
India,Haryana,Faridabad,"New Industrial Town, Faridabad - HSPCB",14-10-2025 07:00:00,28.39072,77.30059,NH3,11,12,11
India,Haryana,Charkhi Dadri,"Mini Secretariat, Charkhi Dadri - HSPCB",14-10-2025 07:00:00,28.593883,76.270653,OZONE,14,17,15
India,Haryana,Faridabad,"New Industrial Town, Faridabad - HSPCB",14-10-2025 07:00:00,28.39072,77.30059,OZONE,26,34,29
India,Haryana,Ballabgarh,"Nathu Colony, Ballabgarh - HSPCB",14-10-2025 07:00:00,28.3419248,77.319699,PM10,76,281,167
India,Haryana,Faridabad,"New Industrial Town, Faridabad - HSPCB",14-10-2025 07:00:00,28.39072,77.30059,CO,8,12,11
India,Haryana,Bahadurgarh,"Arya Nagar, Bahadurgarh - HSPCB",14-10-2025 07:00:00,28.6701,76.9254,NO2,11,15,13
India,Gujarat,Vatva,"Phase-4 GIDC, Vatva - GPCB",14-10-2025 07:00:00,22.969611,72.643500,SO2,4,25,17
India,Haryana,Panchgaon,"Amity University, Panchgaon - IITM",14-10-2025 07:00:00,28.3153,76.9143,CO,32,68,56
India,Haryana,Panchkula,"Sector-6, Panchkula - HSPCB ",14-10-2025 07:00:00,30.7057778,76.8531805555555,CO,16,22,19
India,Haryana,Panipat,"Sector-18, Panipat - HSPCB",14-10-2025 07:00:00,29.432304,76.972765,NO2,3,426,151
India,Haryana,Rohtak,"MD University, Rohtak - HSPCB",14-10-2025 07:00:00,28.52123,76.37138,PM10,35,144,85
India,Haryana,Rohtak,"MD University, Rohtak - HSPCB",14-10-2025 07:00:00,28.52123,76.37138,NO2,33,41,36
India,Haryana,Sirsa,"F-Block, Sirsa - HSPCB",14-10-2025 07:00:00,29.536400,75.015800,PM2.5,4,41,20
India,Haryana,Sirsa,"F-Block, Sirsa - HSPCB",14-10-2025 07:00:00,29.536400,75.015800,PM10,10,109,48
India,Haryana,Sirsa,"F-Block, Sirsa - HSPCB",14-10-2025 07:00:00,29.536400,75.015800,NH3,2,10,5
India,Haryana,Karnal,"Sector-12, Karnal - HSPCB",14-10-2025 07:00:00,29.695300,77.002700,NH3,NA,NA,NA
India,Haryana,Karnal,"Sector-12, Karnal - HSPCB",14-10-2025 07:00:00,29.695300,77.002700,OZONE,26,26,26
India,Haryana,Kurukshetra,"Sector-7, Kurukshetra - HSPCB",14-10-2025 07:00:00,29.966942,76.875879,NH3,1,5,2
India,Haryana,Kurukshetra,"Sector-7, Kurukshetra - HSPCB",14-10-2025 07:00:00,29.966942,76.875879,CO,16,32,26
India,Haryana,Kurukshetra,"Sector-7, Kurukshetra - HSPCB",14-10-2025 07:00:00,29.966942,76.875879,OZONE,1,2,1
India,Haryana,Manesar,"Sector-2 IMT, Manesar - HSPCB",14-10-2025 07:00:00,28.360699,76.936090,PM10,59,314,144
India,Haryana,Manesar,"Sector-2 IMT, Manesar - HSPCB",14-10-2025 07:00:00,28.360699,76.936090,NH3,3,7,5
India,Haryana,Palwal,"Shyam Nagar, Palwal - HSPCB",14-10-2025 07:00:00,28.1485564,77.3320667,PM2.5,58,61,60
India,Haryana,Palwal,"Shyam Nagar, Palwal - HSPCB",14-10-2025 07:00:00,28.1485564,77.3320667,NO2,23,24,24
India,Himachal Pradesh,Baddi,"HIMUDA Complex Phase-1, Baddi - HPPCB",14-10-2025 07:00:00,30.943887,76.801991,NH3,3,6,4
India,Jammu_and_Kashmir,Srinagar,"Rajbagh, Srinagar - JKSPCB",14-10-2025 07:00:00,34.066206,74.819820,SO2,NA,NA,NA
India,Jharkhand,Dhanbad,"Sardar Patel Nagar, Dhanbad - JSPCB",14-10-2025 07:00:00,23.80569,86.44268,NO2,97,98,98
India,Karnataka,Bagalkot,"Vidayagiri, Bagalkot - KSPCB",14-10-2025 07:00:00,16.172806,75.659694,PM10,42,42,42
India,Karnataka,Bengaluru,"Jayanagar 5th Block, Bengaluru - KSPCB",14-10-2025 07:00:00,12.920984,77.584908,NH3,1,2,1
India,Karnataka,Bengaluru,"Jayanagar 5th Block, Bengaluru - KSPCB",14-10-2025 07:00:00,12.920984,77.584908,OZONE,11,41,22
India,Karnataka,Bengaluru,"Kasturi Nagar, Bengaluru - KSPCB",14-10-2025 07:00:00,13.003872,77.664217,PM10,60,62,61
India,Karnataka,Bengaluru,"Kasturi Nagar, Bengaluru - KSPCB",14-10-2025 07:00:00,13.003872,77.664217,SO2,8,10,9
India,Karnataka,Bengaluru,"RVCE-Mailasandra, Bengaluru - KSPCB",14-10-2025 07:00:00,12.921418,77.502466,PM10,NA,NA,NA
India,Karnataka,Bengaluru,"RVCE-Mailasandra, Bengaluru - KSPCB",14-10-2025 07:00:00,12.921418,77.502466,SO2,4,8,6
India,Karnataka,Bengaluru,"Bapuji Nagar, Bengaluru - KSPCB",14-10-2025 07:00:00,12.951913,77.539784,PM2.5,48,173,105
India,Karnataka,Bengaluru,"City Railway Station, Bengaluru - KSPCB",14-10-2025 07:00:00,12.9756843,77.5660749,CO,58,62,60
India,Karnataka,Bengaluru,"Hebbal, Bengaluru - KSPCB",14-10-2025 07:00:00,13.029152,77.585901,NO2,20,26,23
India,Karnataka,Bengaluru,"Hebbal, Bengaluru - KSPCB",14-10-2025 07:00:00,13.029152,77.585901,SO2,1,8,4
India,Karnataka,Dharwad,"Kalabhavan, Dharwad - KSPCB",14-10-2025 07:00:00,15.459706,75.008381,NH3,4,4,4
India,Karnataka,Hubballi,"Lingaraj Nagar, Hubballi - KSPCB",14-10-2025 07:00:00,15.3714823,75.1160168,NO2,11,11,11
India,Karnataka,Kalaburagi,"Mahatma Basaveswar Colony, Kalaburgi - KSPCB",14-10-2025 07:00:00,17.336318,76.847397,PM10,32,85,45
India,Karnataka,Koppal,"Diwator Nagar, Koppal - KSPCB",14-10-2025 07:00:00,15.347630,76.181767,PM2.5,NA,NA,NA
India,Karnataka,Mangalore,"Kadri, Mangalore - KSPCB",14-10-2025 07:00:00,12.889250,74.853000,SO2,NA,NA,NA
India,Karnataka,Ramanagara,"Vijay Nagar, Ramanagara - KSPCB",14-10-2025 07:00:00,12.733409,77.298051,NO2,30,75,60
India,Haryana,Faridabad,"Sector 30, Faridabad - HSPCB",14-10-2025 07:00:00,28.4417,77.3217,NH3,11,13,11
India,Haryana,Jind,"Police Lines, Jind - HSPCB",14-10-2025 07:00:00,29.307814,76.337619,CO,2,109,30
India,Haryana,Jind,"Police Lines, Jind - HSPCB",14-10-2025 07:00:00,29.307814,76.337619,OZONE,1,2,1
India,Karnataka,Bengaluru,"Silk Board, Bengaluru - KSPCB",14-10-2025 07:00:00,12.917348,77.622813,SO2,8,10,9
India,Karnataka,Chikkamagaluru,"Kalyana Nagara, Chikkamagaluru - KSPCB",14-10-2025 07:00:00,13.328028,75.797056,SO2,1,5,3
India,Kerala,Thiruvananthapuram,"Plammoodu, Thiruvananthapuram - Kerala PCB",14-10-2025 07:00:00,8.5149093,76.9435879,OZONE,76,348,213
India,Madhya Pradesh,Bhopal,"Idgah Hills, Bhopal - MPPCB",14-10-2025 07:00:00,23.264759,77.381568,PM2.5,38,80,57
India,Madhya Pradesh,Bhopal,"Idgah Hills, Bhopal - MPPCB",14-10-2025 07:00:00,23.264759,77.381568,NH3,4,6,5
India,Madhya Pradesh,Bhopal,"Paryavaran Parisar, Bhopal - MPPCB",14-10-2025 07:00:00,23.210494,77.425409,PM2.5,42,180,81
India,Madhya Pradesh,Bhopal,"T T Nagar, Bhopal - MPPCB",14-10-2025 07:00:00,23.233584,77.400574,PM2.5,39,132,76
India,Madhya Pradesh,Bhopal,"T T Nagar, Bhopal - MPPCB",14-10-2025 07:00:00,23.233584,77.400574,NH3,4,5,5
India,Karnataka,Shivamogga,"Vinoba Nagara, Shivamogga - KSPCB",14-10-2025 07:00:00,13.940000,75.555917,PM10,53,68,64
India,Karnataka,Shivamogga,"Vinoba Nagara, Shivamogga - KSPCB",14-10-2025 07:00:00,13.940000,75.555917,CO,14,28,20
India,Karnataka,Vijayapura,"Ibrahimpur, Vijayapura - KSPCB",14-10-2025 07:00:00,16.802639,75.722694,NO2,9,10,9
India,Karnataka,Vijayapura,"Ibrahimpur, Vijayapura - KSPCB",14-10-2025 07:00:00,16.802639,75.722694,NH3,1,2,1
India,Karnataka,Yadgir,"Collector Office, Yadgir - KSPCB",14-10-2025 07:00:00,16.7602,77.1428,PM10,72,95,82
India,Karnataka,Yadgir,"Collector Office, Yadgir - KSPCB",14-10-2025 07:00:00,16.7602,77.1428,SO2,1,26,15
India,Madhya Pradesh,Gwalior,"Maharaj Bada, Gwalior - MPPCB",14-10-2025 07:00:00,26.200388,78.147714,PM2.5,52,304,102
India,Madhya Pradesh,Gwalior,"Maharaj Bada, Gwalior - MPPCB",14-10-2025 07:00:00,26.200388,78.147714,SO2,4,9,6
India,Madhya Pradesh,Indore,"Maguda Nagar, Indore - IMC",14-10-2025 07:00:00,22.7524,75.8872,NO2,2,2,2
India,Madhya Pradesh,Indore,"Maguda Nagar, Indore - IMC",14-10-2025 07:00:00,22.7524,75.8872,SO2,41,44,42
India,Madhya Pradesh,Indore,"Regional Park, Indore - IMC",14-10-2025 07:00:00,22.6780,75.8559,PM10,54,107,79
India,Madhya Pradesh,Indore,"Regional Park, Indore - IMC",14-10-2025 07:00:00,22.6780,75.8559,NO2,7,12,8
India,Madhya Pradesh,Indore,"Residency Area, Indore - IMC",14-10-2025 07:00:00,22.7084,75.8815,CO,14,22,19
India,Madhya Pradesh,Jabalpur,"Govindh Bhavan Colony, Jabalpur - JMC",14-10-2025 07:00:00,23.163174,79.973061,NO2,12,20,14
India,Madhya Pradesh,Jabalpur,"Govindh Bhavan Colony, Jabalpur - JMC",14-10-2025 07:00:00,23.163174,79.973061,OZONE,6,100,15
India,Madhya Pradesh,Jabalpur,"Gupteshwar, Jabalpur - JMC",14-10-2025 07:00:00,23.142888,79.916147,PM2.5,30,61,40
India,Madhya Pradesh,Jabalpur,"Gupteshwar, Jabalpur - JMC",14-10-2025 07:00:00,23.142888,79.916147,NH3,1,7,3
India,Madhya Pradesh,Singrauli,"Suryakiran Bhawan NCL, Singrauli - MPPCB",14-10-2025 07:00:00,24.108970,82.645580,OZONE,11,73,16
India,Maharashtra,Amravati,"Shivneri Colony, Amravati - MPCB",14-10-2025 07:00:00,20.9402359,77.7895248,NH3,2,2,2
India,Maharashtra,Amravati,"Shri Shivaji Science College, Amravati - MPCB",14-10-2025 07:00:00,20.939198,77.765701,NO2,3,76,20
India,Maharashtra,Amravati,"Shri Shivaji Science College, Amravati - MPCB",14-10-2025 07:00:00,20.939198,77.765701,SO2,3,26,10
India,Madhya Pradesh,Pithampur,"Sector-2 Industrial Area, Pithampur - MPPCB",14-10-2025 07:00:00,22.624758,75.675238,SO2,18,46,27
India,Madhya Pradesh,Ratlam,"Shasthri Nagar, Ratlam - IPCA Lab",14-10-2025 07:00:00,23.331731,75.045981,PM10,77,148,113
India,Madhya Pradesh,Ratlam,"Shasthri Nagar, Ratlam - IPCA Lab",14-10-2025 07:00:00,23.331731,75.045981,NO2,33,37,35
India,Madhya Pradesh,Sagar,"Civil Lines, Sagar - MPPCB",14-10-2025 07:00:00,23.838586,78.759431,SO2,14,24,19
India,Kerala,Kannur,"Thavakkara, Kannur - Kerala PCB",14-10-2025 07:00:00,11.875000,75.373200,NH3,2,2,2
India,Kerala,Kannur,"Thavakkara, Kannur - Kerala PCB",14-10-2025 07:00:00,11.875000,75.373200,SO2,4,5,5
India,Kerala,Kollam,"Polayathode, Kollam - Kerala PCB",14-10-2025 07:00:00,8.8787,76.6073,CO,14,17,16
India,Kerala,Thiruvananthapuram,"Kariavattom, Thiruvananthapuram - Kerala PCB",14-10-2025 07:00:00,8.563700,76.886500,OZONE,36,37,36
India,Madhya Pradesh,Jabalpur,"Marhatal, Jabalpur - MPPCB",14-10-2025 07:00:00,23.168606,79.932247,OZONE,14,29,29
India,Madhya Pradesh,Jabalpur,"Suhagi, Jabalpur - JMC",14-10-2025 07:00:00,23.218135,79.957770,NO2,33,96,49
India,Madhya Pradesh,Jabalpur,"Suhagi, Jabalpur - JMC",14-10-2025 07:00:00,23.218135,79.957770,NH3,2,2,2
India,Madhya Pradesh,Mandideep,"Sector-D Industrial Area, Mandideep - MPPCB",14-10-2025 07:00:00,23.108440,77.511428,PM2.5,60,346,157
India,Madhya Pradesh,Bhopal,"T T Nagar, Bhopal - MPPCB",14-10-2025 07:00:00,23.233584,77.400574,CO,14,128,68
India,Madhya Pradesh,Gwalior,"City Center, Gwalior - MPPCB",14-10-2025 07:00:00,26.203442,78.193251,NH3,2,2,2
India,Madhya Pradesh,Gwalior,"Deen Dayal Nagar, Gwalior - MPPCB",14-10-2025 07:00:00,26.259242,78.216432,PM10,80,318,133
India,Maharashtra,Amravati,"Shri Shivaji Science College, Amravati - MPCB",14-10-2025 07:00:00,20.939198,77.765701,OZONE,1,80,32
India,Maharashtra,Aurangabad,"MIDC Chilkalthana, Aurangabad - MPCB",14-10-2025 07:00:00,19.875620,75.387310,NO2,8,129,36
India,Maharashtra,Aurangabad,"MIDC Chilkalthana, Aurangabad - MPCB",14-10-2025 07:00:00,19.875620,75.387310,SO2,1,2,1
India,Maharashtra,Aurangabad,"More Chowk Waluj, Aurangabad - MPCB",14-10-2025 07:00:00,19.8389439,75.244448,SO2,15,19,17
India,Maharashtra,Aurangabad,"More Chowk Waluj, Aurangabad - MPCB",14-10-2025 07:00:00,19.8389439,75.244448,CO,1,62,32
India,Maharashtra,Aurangabad,"Rachnakar Colony, Aurangabad - MPCB",14-10-2025 07:00:00,19.863756,75.321188,PM2.5,54,133,95
India,Maharashtra,Badlapur,"Katrap, Badlapur - MPCB",14-10-2025 07:00:00,19.16485,73.23409,NH3,3,7,5
India,Maharashtra,Mumbai,"Bandra Kurla Complex, Mumbai - MPCB",14-10-2025 07:00:00,19.065931,72.862131,OZONE,1,158,5
India,Maharashtra,Mumbai,"Borivali East, Mumbai - IITM",14-10-2025 07:00:00,19.23241,72.86895,NO2,36,104,60
India,Maharashtra,Mumbai,"Borivali East, Mumbai - MPCB",14-10-2025 07:00:00,19.2243333,72.8658113,PM2.5,40,99,73
India,Maharashtra,Mumbai,"Byculla, Mumbai - BMC",14-10-2025 07:00:00,18.9767,72.8380,PM2.5,74,176,115
India,Maharashtra,Mumbai,"Byculla, Mumbai - BMC",14-10-2025 07:00:00,18.9767,72.8380,NH3,6,22,12
India,Maharashtra,Mumbai,"Chakala-Andheri East, Mumbai - IITM",14-10-2025 07:00:00,19.11074,72.86084,CO,12,64,48
India,Maharashtra,Mumbai,"Chembur, Mumbai - MPCB",14-10-2025 07:00:00,19.0364585,72.8954371,PM2.5,95,165,124
India,Maharashtra,Mumbai,"Chembur, Mumbai - MPCB",14-10-2025 07:00:00,19.0364585,72.8954371,NH3,3,6,4
India,Maharashtra,Mumbai,"Chembur, Mumbai - MPCB",14-10-2025 07:00:00,19.0364585,72.8954371,OZONE,8,198,33
India,Maharashtra,Mumbai,"Chhatrapati Shivaji Intl. Airport (T2), Mumbai - MPCB",14-10-2025 07:00:00,19.10078,72.87462,NH3,2,2,2
India,Maharashtra,Mumbai,"Chhatrapati Shivaji Intl. Airport (T2), Mumbai - MPCB",14-10-2025 07:00:00,19.10078,72.87462,CO,28,42,38
India,Maharashtra,Mumbai,"Colaba, Mumbai - MPCB",14-10-2025 07:00:00,18.910000,72.820000,OZONE,11,11,11
India,Maharashtra,Mumbai,"Deonar, Mumbai - IITM",14-10-2025 07:00:00,19.04946,72.9230,NO2,15,91,39
India,Maharashtra,Mumbai,"Deonar, Mumbai - IITM",14-10-2025 07:00:00,19.04946,72.9230,OZONE,1,54,4
India,Maharashtra,Chandrapur,"Chauhan Colony, Chandrapur - MPCB",14-10-2025 07:00:00,19.962900,79.298714,SO2,33,33,33
India,Maharashtra,Chandrapur,"Chauhan Colony, Chandrapur - MPCB",14-10-2025 07:00:00,19.962900,79.298714,CO,16,23,19
India,Maharashtra,Chandrapur,"MIDC Khutala, Chandrapur - MPCB",14-10-2025 07:00:00,19.9775302,79.2337086,PM10,129,137,131
India,Maharashtra,Jalgaon,"Prabhat Colony, Jalgaon - MPCB",14-10-2025 07:00:00,21.001264,75.565602,OZONE,10,68,15
India,Maharashtra,Jalna,"Old MIDC, Jalna - MPCB",14-10-2025 07:00:00,19.854616,75.905894,PM2.5,NA,NA,NA
India,Maharashtra,Jalna,"Old MIDC, Jalna - MPCB",14-10-2025 07:00:00,19.854616,75.905894,SO2,NA,NA,NA
India,Maharashtra,Malegaon,"Mahesh Nagar, Malegaon - MPCB",14-10-2025 07:00:00,20.555712,74.529236,PM10,64,170,109
India,Maharashtra,Malegaon,"Mahesh Nagar, Malegaon - MPCB",14-10-2025 07:00:00,20.555712,74.529236,NH3,1,8,2
India,Maharashtra,Mira-Bhayandar,"Bhayandar West, Mira-Bhayandar - MPCB",14-10-2025 07:00:00,19.296481,72.840923,NH3,NA,NA,NA
India,Maharashtra,Mumbai,"Bandra Kurla Complex, Mumbai - IITM",14-10-2025 07:00:00,19.053536,72.84643,PM2.5,118,283,214
India,Maharashtra,Mumbai,"Bandra Kurla Complex, Mumbai - IITM",14-10-2025 07:00:00,19.053536,72.84643,NH3,24,67,51
India,Maharashtra,Mumbai,"Bandra Kurla Complex, Mumbai - IITM",14-10-2025 07:00:00,19.053536,72.84643,SO2,1,14,2
India,Maharashtra,Mumbai,"Ghatkopar, Mumbai - BMC",14-10-2025 07:00:00,19.083694,72.920967,OZONE,3,3,3
India,Maharashtra,Mumbai,"Kandivali East, Mumbai - MPCB",14-10-2025 07:00:00,19.205800,72.868200,NH3,1,1,1
India,Maharashtra,Mumbai,"Kandivali West, Mumbai - BMC",14-10-2025 07:00:00,19.215859,72.831718,NH3,1,3,2
India,Maharashtra,Mumbai,"Kandivali West, Mumbai - BMC",14-10-2025 07:00:00,19.215859,72.831718,CO,16,44,30
India,Maharashtra,Mumbai,"Kherwadi_Bandra East, Mumbai - MPCB",14-10-2025 07:00:00,19.0632143,72.8456324,OZONE,1,80,3
India,Maharashtra,Kolhapur,"Sinchan Bhavan, Kolhapur - MPCB",14-10-2025 07:00:00,16.7143745,74.2426398,PM2.5,NA,NA,NA
India,Maharashtra,Kolhapur,"Sinchan Bhavan, Kolhapur - MPCB",14-10-2025 07:00:00,16.7143745,74.2426398,NH3,NA,NA,NA
India,Maharashtra,Latur,"Sawe Wadi, Latur - MPCB",14-10-2025 07:00:00,18.39963,76.57452,PM2.5,61,93,76
India,Maharashtra,Latur,"Sawe Wadi, Latur - MPCB",14-10-2025 07:00:00,18.39963,76.57452,PM10,49,91,72
India,Maharashtra,Mahad,"Kamble Tarf Birwadi, Mahad - MPCB",14-10-2025 07:00:00,18.1023399,73.4783687,CO,18,47,23
India,Maharashtra,Badlapur,"Katrap, Badlapur - MPCB",14-10-2025 07:00:00,19.16485,73.23409,OZONE,12,81,13
India,Maharashtra,Bhiwandi,"Gokul Nagar, Bhiwandi - MPCB",14-10-2025 07:00:00,19.309073,73.057223,PM10,61,150,108
India,Maharashtra,Chandrapur,"Chauhan Colony, Chandrapur - MPCB",14-10-2025 07:00:00,19.962900,79.298714,PM10,92,171,118
India,Maharashtra,Mumbai,"Mazgaon, Mumbai - IITM",14-10-2025 07:00:00,18.96702,72.84214,SO2,5,12,9
India,Maharashtra,Mumbai,"Mazgaon, Mumbai - IITM",14-10-2025 07:00:00,18.96702,72.84214,CO,2,87,64
India,Maharashtra,Mumbai,"Mindspace-Malad West, Mumbai - MPCB",14-10-2025 07:00:00,19.1878657,72.8304069,SO2,14,16,15
India,Maharashtra,Pune,"Panchawati_Pashan, Pune - IITM",14-10-2025 07:00:00,18.536457,73.805454,OZONE,1,94,4
India,Maharashtra,Pune,"Savitribai Phule Pune University, Pune - MPCB",14-10-2025 07:00:00,18.547056,73.826908,CO,8,93,79
India,Maharashtra,Pune,"Transport Nagar-Nigdi, Pune - IITM",14-10-2025 07:00:00,18.664282,73.763966,CO,18,106,88
India,Maharashtra,Sangli,"Vijay Nagar, Sangli - MPCB",14-10-2025 07:00:00, 16.5038,74.3623,PM2.5,NA,NA,NA
India,Maharashtra,Sangli,"Vijay Nagar, Sangli - MPCB",14-10-2025 07:00:00, 16.5038,74.3623,NO2,NA,NA,NA
India,Maharashtra,Solapur,"Dnyaneshwar Nagar, Solapur - MPCB",14-10-2025 07:00:00,17.6336264,75.9132495,PM10,74,128,103
India,Maharashtra,Solapur,"Dnyaneshwar Nagar, Solapur - MPCB",14-10-2025 07:00:00,17.6336264,75.9132495,OZONE,19,57,40
India,Maharashtra,Pimpri-Chinchwad,"Thergaon, Pimpri Chinchwad - MPCB",14-10-2025 07:00:00,18.616318,73.765797,CO,2,60,24
India,Maharashtra,Pune,"Bhumkar Nagar, Pune - IITM",14-10-2025 07:00:00,18.605770,73.749976,OZONE,3,86,12
India,Maharashtra,Pune,"Hadapsar, Pune - IITM",14-10-2025 07:00:00,18.501793,73.927532,PM10,27,110,60
India,Maharashtra,Pune,"Hadapsar, Pune - IITM",14-10-2025 07:00:00,18.501793,73.927532,NO2,19,26,21
India,Maharashtra,Pune,"Katraj Dairy, Pune - MPCB",14-10-2025 07:00:00,18.454450,73.854155,PM2.5,51,110,72
India,Maharashtra,Pune,"Mhada Colony, Pune - IITM",14-10-2025 07:00:00,18.573040,73.927715,OZONE,10,84,12
India,Maharashtra,Mumbai,"Shivaji Nagar, Mumbai - BMC",14-10-2025 07:00:00,19.060498,72.923356,NH3,2,3,2
India,Maharashtra,Mumbai,"Siddharth Nagar-Worli, Mumbai - IITM",14-10-2025 07:00:00,19.000083,72.813993,OZONE,3,74,27
India,Maharashtra,Mumbai,"Sion, Mumbai - MPCB",14-10-2025 07:00:00,19.047000,72.874600,PM2.5,23,348,185
India,Maharashtra,Mumbai,"Vasai West, Mumbai - MPCB",14-10-2025 07:00:00,19.383200,72.820400,PM10,67,339,119
India,Maharashtra,Mumbai,"Vasai West, Mumbai - MPCB",14-10-2025 07:00:00,19.383200,72.820400,NO2,16,20,17
India,Maharashtra,Mumbai,"Vasai West, Mumbai - MPCB",14-10-2025 07:00:00,19.383200,72.820400,NH3,2,3,2
India,Maharashtra,Mumbai,"Vasai West, Mumbai - MPCB",14-10-2025 07:00:00,19.383200,72.820400,SO2,8,8,8
India,Maharashtra,Navi Mumbai,"Tondare-Taloja, Navi Mumbai - MPCB",14-10-2025 07:00:00,19.0630,73.1209,CO,16,55,33
India,Maharashtra,Pimpri-Chinchwad,"Gavalinagar, Pimpri Chinchwad - MPCB",14-10-2025 07:00:00,18.63673,73.82487,PM2.5,67,97,81
India,Maharashtra,Pimpri-Chinchwad,"Gavalinagar, Pimpri Chinchwad - MPCB",14-10-2025 07:00:00,18.63673,73.82487,NH3,2,3,2
India,Maharashtra,Pimpri-Chinchwad,"Park Street Wakad, Pimpri Chinchwad - MPCB",14-10-2025 07:00:00,18.59051,73.77946,NO2,16,49,28
India,Maharashtra,Pimpri-Chinchwad,"Park Street Wakad, Pimpri Chinchwad - MPCB",14-10-2025 07:00:00,18.59051,73.77946,NH3,1,2,2
India,Maharashtra,Pimpri-Chinchwad,"Park Street Wakad, Pimpri Chinchwad - MPCB",14-10-2025 07:00:00,18.59051,73.77946,CO,12,44,30
India,Maharashtra,Mumbai,"Vasai West, Mumbai - MPCB",14-10-2025 07:00:00,19.383200,72.820400,OZONE,11,28,13
India,Maharashtra,Mumbai,"Vile Parle West, Mumbai - MPCB",14-10-2025 07:00:00,19.10861,72.83622,OZONE,3,27,25
India,Maharashtra,Nagpur,"Ambazari, Nagpur - MPCB",14-10-2025 07:00:00,21.121801,79.04952,PM10,80,127,106
India,Maharashtra,Nagpur,"Ambazari, Nagpur - MPCB",14-10-2025 07:00:00,21.121801,79.04952,NO2,8,62,21
India,Maharashtra,Nagpur,"Ambazari, Nagpur - MPCB",14-10-2025 07:00:00,21.121801,79.04952,CO,14,76,27
India,Maharashtra,Nagpur,"Ambazari, Nagpur - MPCB",14-10-2025 07:00:00,21.121801,79.04952,OZONE,2,77,15
India,Maharashtra,Mumbai,"Navy Nagar-Colaba, Mumbai - IITM",14-10-2025 07:00:00,18.897756,72.813320,SO2,4,11,7
India,Maharashtra,Mumbai,"Powai, Mumbai - MPCB",14-10-2025 07:00:00,19.137500,72.915056,NO2,7,8,8
India,Maharashtra,Mumbai,"Powai, Mumbai - MPCB",14-10-2025 07:00:00,19.137500,72.915056,SO2,27,30,28
India,Maharashtra,Mumbai,"Sewri, Mumbai - BMC",14-10-2025 07:00:00,19.000084,72.856730,OZONE,111,194,151
India,Maharashtra,Mumbai,"Shivaji Nagar, Mumbai - BMC",14-10-2025 07:00:00,19.060498,72.923356,NO2,27,68,43
India,Maharashtra,Nagpur,"Ram Nagar, Nagpur - MPCB",14-10-2025 07:00:00,21.143383,79.048912,PM10,79,136,112
India,Maharashtra,Nanded,"Sneh Nagar, Nanded - MPCB",14-10-2025 07:00:00,19.173852,77.296291,PM10,34,56,44
India,Maharashtra,Nanded,"Sneh Nagar, Nanded - MPCB",14-10-2025 07:00:00,19.173852,77.296291,NH3,3,5,4
India,Maharashtra,Nanded,"Sneh Nagar, Nanded - MPCB",14-10-2025 07:00:00,19.173852,77.296291,SO2,6,6,6
India,Maharashtra,Nashik,"Gangapur Road, Nashik - MPCB",14-10-2025 07:00:00,20.0073285,73.7762427,NO2,5,5,5
India,Maharashtra,Nashik,"Pandav Nagari, Nashik - MPCB",14-10-2025 07:00:00,19.9591346,73.7788008,PM2.5,50,124,87
India,Maharashtra,Nashik,"Pandav Nagari, Nashik - MPCB",14-10-2025 07:00:00,19.9591346,73.7788008,NO2,6,29,14
India,Maharashtra,Navi Mumbai,"Kopripada-Vashi, Navi Mumbai - MPCB",14-10-2025 07:00:00,19.090337,73.014232,NO2,10,63,28
India,Maharashtra,Navi Mumbai,"Kopripada-Vashi, Navi Mumbai - MPCB",14-10-2025 07:00:00,19.090337,73.014232,CO,10,68,41
India,Maharashtra,Navi Mumbai,"Sector-2E Kalamboli, Navi Mumbai - MPCB",14-10-2025 07:00:00,19.02579,73.10297,NH3,1,9,6
India,Punjab,Mandi Gobindgarh,"RIMT University, Mandi Gobindgarh - PPCB",14-10-2025 07:00:00,30.649961,76.331442,CO,8,116,58
India,Punjab,Patiala,"Model Town, Patiala - PPCB",14-10-2025 07:00:00,30.349388,76.366642,OZONE,27,28,28
India,Punjab,Rupnagar,"Ratanpura, Rupnagar - Ambuja Cements",14-10-2025 07:00:00,31.0325454,76.5623046,PM2.5,5,303,89
India,Punjab,Rupnagar,"Ratanpura, Rupnagar - Ambuja Cements",14-10-2025 07:00:00,31.0325454,76.5623046,SO2,1,120,16
India,Punjab,Rupnagar,"Ratanpura, Rupnagar - Ambuja Cements",14-10-2025 07:00:00,31.0325454,76.5623046,CO,8,36,29
India,Rajasthan,Ajmer,"Civil Lines,  Ajmer - RSPCB",14-10-2025 07:00:00,26.470859,74.646594,PM2.5,66,161,92
India,Rajasthan,Ajmer,"Civil Lines,  Ajmer - RSPCB",14-10-2025 07:00:00,26.470859,74.646594,OZONE,5,22,7
India,Rajasthan,Alwar,"Moti Doongri, Alwar - RSPCB",14-10-2025 07:00:00,27.554793,76.611536,OZONE,17,60,19
India,Meghalaya,Shillong,"Lumpyngngad, Shillong - Meghalaya PCB",14-10-2025 07:00:00,25.5586,91.8985,PM10,3,25,11
India,Meghalaya,Shillong,"Lumpyngngad, Shillong - Meghalaya PCB",14-10-2025 07:00:00,25.5586,91.8985,SO2,5,5,5
India,Nagaland,Kohima,"PWD Junction, Kohima - NPCB",14-10-2025 07:00:00,25.6635413,94.0989878,PM10,15,116,61
India,Nagaland,Kohima,"PWD Junction, Kohima - NPCB",14-10-2025 07:00:00,25.6635413,94.0989878,NH3,1,1,1
India,Nagaland,Kohima,"PWD Junction, Kohima - NPCB",14-10-2025 07:00:00,25.6635413,94.0989878,CO,3,14,8
India,Odisha,Angul,"Hakimapada, Angul - OSPCB",14-10-2025 07:00:00,20.832874,85.104082,OZONE,2,28,2
India,Odisha,Balasore,"Kalidaspur, Balasore - OSPCB",14-10-2025 07:00:00,21.51161,86.89088,PM10,63,179,97
India,Odisha,Balasore,"Kalidaspur, Balasore - OSPCB",14-10-2025 07:00:00,21.51161,86.89088,NO2,4,67,14
India,Odisha,Keonjhar,"Jagamohanpur, Keonjhar - OSPCB",14-10-2025 07:00:00,21.643900,85.599355,PM10,91,149,110
India,Odisha,Keonjhar,"Jagamohanpur, Keonjhar - OSPCB",14-10-2025 07:00:00,21.643900,85.599355,NO2,20,31,24
India,Odisha,Keonjhar,"Jagamohanpur, Keonjhar - OSPCB",14-10-2025 07:00:00,21.643900,85.599355,SO2,12,22,14
India,Odisha,Nayagarh,"Dabuna, Nayagarh - OSPCB",14-10-2025 07:00:00,21.847279,85.416905,PM2.5,30,56,43
India,Odisha,Nayagarh,"Dabuna, Nayagarh - OSPCB",14-10-2025 07:00:00,21.847279,85.416905,SO2,6,9,7
India,Odisha,Rairangpur,"Divisional Forest Office, Rairangpur - OSPCB",14-10-2025 07:00:00,22.265816,86.174829,PM2.5,25,38,31
India,Odisha,Rairangpur,"Divisional Forest Office, Rairangpur - OSPCB",14-10-2025 07:00:00,22.265816,86.174829,PM10,80,129,114
India,Odisha,Rairangpur,"Divisional Forest Office, Rairangpur - OSPCB",14-10-2025 07:00:00,22.265816,86.174829,NH3,2,3,2
India,Odisha,Balasore,"Kalidaspur, Balasore - OSPCB",14-10-2025 07:00:00,21.51161,86.89088,CO,20,29,23
India,Odisha,Barbil,"Forest Office, Barbil - OSPCB",14-10-2025 07:00:00,22.1166054,85.3945546,PM10,60,340,119
India,Odisha,Baripada,"Meher Colony, Baripada - OSPCB",14-10-2025 07:00:00,21.941841,86.728318,NH3,1,1,1
India,Odisha,Bhubaneswar,"Lingraj Mandir, Bhubaneswar - OSPCB",14-10-2025 07:00:00,20.240790,85.836784,CO,20,108,64
India,Odisha,Bhubaneswar,"Patia, Bhubaneswar - OSPCB",14-10-2025 07:00:00,20.34652,85.81630,NH3,13,33,23
India,Punjab,Jalandhar,"Civil Line, Jalandhar - PPCB",14-10-2025 07:00:00,31.321907,75.578914,NO2,24,30,28
India,Punjab,Jalandhar,"Civil Line, Jalandhar - PPCB",14-10-2025 07:00:00,31.321907,75.578914,OZONE,35,43,42
India,Punjab,Khanna,"Kalal Majra, Khanna - PPCB",14-10-2025 07:00:00,30.736056 ,76.209694,SO2,5,7,6
India,Punjab,Ludhiana,"Punjab Agricultural University, Ludhiana - PPCB",14-10-2025 07:00:00,30.9028,75.8086,CO,1,96,70
India,Punjab,Mandi Gobindgarh,"RIMT University, Mandi Gobindgarh - PPCB",14-10-2025 07:00:00,30.649961,76.331442,PM10,17,60,35
India,Maharashtra,Thane,"Kasarvadavali, Thane - MPCB",14-10-2025 07:00:00,19.26777,72.97182,PM10,108,160,132
India,Maharashtra,Thane,"Upvan Fort, Thane - MPCB",14-10-2025 07:00:00,19.222279,72.957979,SO2,2,7,4
India,Maharashtra,Virar,"Bolinj, Virar - MPCB",14-10-2025 07:00:00,19.4458210,72.7988231,NO2,6,46,18
India,Odisha,Rourkela,"Raghunathpali, Rourkela - OSPCB",14-10-2025 07:00:00,22.220833,84.809444,PM10,48,115,72
India,Odisha,Rourkela,"Raghunathpali, Rourkela - OSPCB",14-10-2025 07:00:00,22.220833,84.809444,OZONE,17,75,26
India,Punjab,Amritsar,"Golden Temple, Amritsar - PPCB",14-10-2025 07:00:00,31.620000,74.876512,SO2,13,31,20
India,Odisha,Byasanagar,"Ferro Chrome Colony, Byasanagar - OSPCB",14-10-2025 07:00:00,20.94185,86.11510,OZONE,14,153,21
India,Odisha,Bileipada,"Tata Township, Bileipada - OSPCB",14-10-2025 07:00:00,22.06156703,85.47409613,PM2.5,NA,NA,NA
India,Rajasthan,Bhiwadi,"RIICO Ind. Area III, Bhiwadi - RSPCB",14-10-2025 07:00:00,28.194909,76.862296,PM2.5,71,341,200
India,Rajasthan,Bhiwadi,"RIICO Ind. Area III, Bhiwadi - RSPCB",14-10-2025 07:00:00,28.194909,76.862296,PM10,104,405,199
India,Rajasthan,Bhiwadi,"RIICO Ind. Area III, Bhiwadi - RSPCB",14-10-2025 07:00:00,28.194909,76.862296,CO,17,71,59
India,Rajasthan,Bhiwadi,"Vasundhara Nagar_UIT, Bhiwadi - RSPCB",14-10-2025 07:00:00,28.207266,76.829265,PM10,81,278,165
India,Rajasthan,Bhiwadi,"Vasundhara Nagar_UIT, Bhiwadi - RSPCB",14-10-2025 07:00:00,28.207266,76.829265,NH3,5,7,6
India,Rajasthan,Bhiwadi,"Vasundhara Nagar_UIT, Bhiwadi - RSPCB",14-10-2025 07:00:00,28.207266,76.829265,OZONE,1,108,1
India,Rajasthan,Bikaner,"MM Ground, Bikaner - RSPCB",14-10-2025 07:00:00,28.018792,73.292658,CO,10,146,57
India,Rajasthan,Bundi,"New Colony, Bundi - RSPCB",14-10-2025 07:00:00,25.435774,75.644272,PM2.5,12,93,46
India,Rajasthan,Bundi,"New Colony, Bundi - RSPCB",14-10-2025 07:00:00,25.435774,75.644272,NH3,2,6,3
India,Rajasthan,Bundi,"New Colony, Bundi - RSPCB",14-10-2025 07:00:00,25.435774,75.644272,OZONE,11,145,60
India,Rajasthan,Chittorgarh,"Shastri Nagar, Chittorgarh - RSPCB",14-10-2025 07:00:00,24.892047,74.623527,PM2.5,17,163,78
India,Rajasthan,Chittorgarh,"Shastri Nagar, Chittorgarh - RSPCB",14-10-2025 07:00:00,24.892047,74.623527,NO2,10,89,42
India,Rajasthan,Churu,"Subash Chowk, Churu - RSPCB",14-10-2025 07:00:00,28.296139,74.961696,PM10,83,186,128
India,Rajasthan,Dausa,"Khatikan Mohalla, Dausa - RSPCB",14-10-2025 07:00:00,26.895552,76.334753,NH3,5,18,11
India,Rajasthan,Dausa,"Khatikan Mohalla, Dausa - RSPCB",14-10-2025 07:00:00,26.895552,76.334753,CO,44,102,78
India,Rajasthan,Jodhpur,"Collectorate, Jodhpur - RSPCB",14-10-2025 07:00:00,26.268249,73.0193853,PM10,22,491,189
India,Rajasthan,Jodhpur,"Digari Kalan, Jodhpur - RSPCB",14-10-2025 07:00:00,26.295810,73.082283,PM10,75,310,128
India,Rajasthan,Jodhpur,"Digari Kalan, Jodhpur - RSPCB",14-10-2025 07:00:00,26.295810,73.082283,NO2,3,90,35
India,Rajasthan,Jodhpur,"Digari Kalan, Jodhpur - RSPCB",14-10-2025 07:00:00,26.295810,73.082283,CO,12,93,53
India,Rajasthan,Jodhpur,"Mandor, Jodhpur - RSPCB",14-10-2025 07:00:00,26.358805,73.047444,NO2,2,82,26
India,Rajasthan,Jodhpur,"Mandor, Jodhpur - RSPCB",14-10-2025 07:00:00,26.358805,73.047444,NH3,2,5,4
India,Rajasthan,Jodhpur,"Mandor, Jodhpur - RSPCB",14-10-2025 07:00:00,26.358805,73.047444,CO,8,36,20
India,Rajasthan,Jodhpur,"Mandor, Jodhpur - RSPCB",14-10-2025 07:00:00,26.358805,73.047444,OZONE,2,149,23
India,Rajasthan,Jaisalmer,"Sadar Bazar, Jaisalmer - RSPCB",14-10-2025 07:00:00,26.912329,70.909168,OZONE,2,103,31
India,Rajasthan,Jalore,"Mudtra Sili, Jalore - RSPCB",14-10-2025 07:00:00,25.344694,72.626208,PM10,105,409,188
India,Rajasthan,Jalore,"Mudtra Sili, Jalore - RSPCB",14-10-2025 07:00:00,25.344694,72.626208,NO2,20,103,44
India,Rajasthan,Jhalawar,"Rajlaxmi Nagar, Jhalawar - RSPCB",14-10-2025 07:00:00,24.588397,76.172782,PM2.5,15,63,35
India,Rajasthan,Jhalawar,"Rajlaxmi Nagar, Jhalawar - RSPCB",14-10-2025 07:00:00,24.588397,76.172782,OZONE,6,128,21
India,Rajasthan,Jhunjhunu,"Indra Nagar, Jhunjhunu - RSPCB",14-10-2025 07:00:00,28.108988,75.386577,OZONE,5,122,41
India,Rajasthan,Jaipur,"Police Commissionerate, Jaipur - RSPCB",14-10-2025 07:00:00,26.9164092,75.7994901,PM2.5,57,252,130
India,Rajasthan,Jaipur,"Police Commissionerate, Jaipur - RSPCB",14-10-2025 07:00:00,26.9164092,75.7994901,PM10,88,176,119
India,Rajasthan,Jaipur,"RIICO Sitapura, Jaipur - RSPCB",14-10-2025 07:00:00,26.786682,75.827928,PM10,76,411,160
India,Rajasthan,Jaipur,"Sector-2 Murlipura, Jaipur - RSPCB",14-10-2025 07:00:00,26.960669,75.771817,SO2,5,25,8
India,Rajasthan,Jaipur,"Shastri Nagar, Jaipur - RSPCB",14-10-2025 07:00:00,26.9502929,75.730943,PM2.5,48,193,90
India,Rajasthan,Jodhpur,"Samrat Ashok Udhyan, Jodhpur - RSPCB",14-10-2025 07:00:00,26.253384,72.976571,NH3,6,7,6
India,Rajasthan,Karauli,"Satyawati Vihar, Karauli - RSPCB",14-10-2025 07:00:00,26.506177,77.025989,SO2,7,38,12
India,Rajasthan,Kota,"Dhanmandi, Kota - RSPCB",14-10-2025 07:00:00,25.164090,75.858137,CO,6,105,57
India,Rajasthan,Kota,"Nayapura, Kota - RSPCB",14-10-2025 07:00:00,25.196024,75.855668,PM10,30,103,68
India,Rajasthan,Kota,"Nayapura, Kota - RSPCB",14-10-2025 07:00:00,25.196024,75.855668,CO,13,93,49
India,Rajasthan,Nagaur,"Karni Colony, Nagaur - RSPCB",14-10-2025 07:00:00,27.213494,73.734444,CO,12,40,19
India,Rajasthan,Nagaur,"Karni Colony, Nagaur - RSPCB",14-10-2025 07:00:00,27.213494,73.734444,OZONE,17,92,43
India,Rajasthan,Pali,"Indira Colony Vistar, Pali - RSPCB",14-10-2025 07:00:00,25.771061, 73.340227,NH3,7,10,8
India,Rajasthan,Pratapgarh,"Pragati Nagar, Pratapgarh - RSPCB",14-10-2025 07:00:00,24.041198,74.780702,NO2,5,58,13
India,Rajasthan,Pratapgarh,"Pragati Nagar, Pratapgarh - RSPCB",14-10-2025 07:00:00,24.041198,74.780702,NH3,4,8,5
India,Rajasthan,Banswara,"Rati Talai, Banswara - RSPCB",14-10-2025 07:00:00,23.555190,74.440010,PM10,33,148,74
India,Rajasthan,Baran,"Bamboliya, Baran - RSPCB",14-10-2025 07:00:00,25.106006,76.469948,NO2,5,46,18
India,Rajasthan,Baran,"Bamboliya, Baran - RSPCB",14-10-2025 07:00:00,25.106006,76.469948,SO2,1,5,2
India,Rajasthan,Bharatpur,"Krishna Nagar, Bharatpur - RSPCB",14-10-2025 07:00:00,27.215415,77.50873,PM2.5,33,110,76
India,Rajasthan,Bharatpur,"Krishna Nagar, Bharatpur - RSPCB",14-10-2025 07:00:00,27.215415,77.50873,OZONE,13,145,47
India,Rajasthan,Dholpur,"Raja Ganj, Dholpur - RSPCB",14-10-2025 07:00:00,26.699557,77.898881,SO2,9,11,10
India,Rajasthan,Dungarpur,"Bhoiwada, Dungarpur - RSPCB",14-10-2025 07:00:00,23.837789,73.714926,PM2.5,17,45,28
India,TamilNadu,Namakkal,"Ponnusamy Nagar, Namakkal - TNPCB",14-10-2025 07:00:00,11.273992,78.163545,NO2,7,10,9
India,TamilNadu,Ooty,"Bombay Castel, Ooty - TNPCB",14-10-2025 07:00:00,11.4068288,76.7138973,OZONE,5,6,5
India,TamilNadu,Palkalaiperur,"Bharathidasan University, Palkalaiperur - TNPCB",14-10-2025 07:00:00,10.681158,78.741746,SO2,5,6,6
India,TamilNadu,Perundurai,"SIPCOT Industrial Park, Perundurai - TNPCB",14-10-2025 07:00:00,11.258242,77.552761,PM10,NA,NA,NA
India,TamilNadu,Perundurai,"SIPCOT Industrial Park, Perundurai - TNPCB",14-10-2025 07:00:00,11.258242,77.552761,NO2,6,11,8
India,TamilNadu,Perundurai,"SIPCOT Industrial Park, Perundurai - TNPCB",14-10-2025 07:00:00,11.258242,77.552761,SO2,12,23,15
India,TamilNadu,Perundurai,"SIPCOT Industrial Park, Perundurai - TNPCB",14-10-2025 07:00:00,11.258242,77.552761,OZONE,15,77,17
India,TamilNadu,Pudukottai,"SIPCOT Nathampannai, Pudukottai - TNPCB",14-10-2025 07:00:00,10.423417,78.784889,NH3,2,3,3
India,TamilNadu,Chennai,"Perungudi, Chennai - TNPCB",14-10-2025 07:00:00,12.9533,80.2357,PM10,18,500,99
India,TamilNadu,Chennai,"Perungudi, Chennai - TNPCB",14-10-2025 07:00:00,12.9533,80.2357,OZONE,1,26,2
India,TamilNadu,Chennai,"Royapuram, Chennai - TNPCB",14-10-2025 07:00:00,13.1036,80.2909,NH3,2,7,5
India,TamilNadu,Chennai,"Velachery Res. Area, Chennai - CPCB",14-10-2025 07:00:00,13.0052189,80.2398125,PM2.5,19,59,31
India,TamilNadu,Coimbatore,"PSG College of Arts and Science, Coimbatore - TNPCB",14-10-2025 07:00:00,11.0328,77.0349,SO2,NA,NA,NA
India,TamilNadu,Coimbatore,"SIDCO Kurichi, Coimbatore - TNPCB",14-10-2025 07:00:00,10.942451,76.978996,PM10,53,107,80
India,Rajasthan,Sawai Madhopur,"Sahu Nagar, Sawai Madhopur - RSPCB",14-10-2025 07:00:00,26.031443,76.359327,NO2,8,25,14
India,Rajasthan,Sawai Madhopur,"Sahu Nagar, Sawai Madhopur - RSPCB",14-10-2025 07:00:00,26.031443,76.359327,NH3,12,14,12
India,Rajasthan,Sawai Madhopur,"Sahu Nagar, Sawai Madhopur - RSPCB",14-10-2025 07:00:00,26.031443,76.359327,CO,31,98,50
India,Rajasthan,Sikar,"Radhakishan Pura, Sikar - RSPCB",14-10-2025 07:00:00,27.608912,75.153302,NH3,2,7,5
India,Rajasthan,Sri Ganganagar,"Old City, Sri Ganganagar - RSPCB",14-10-2025 07:00:00,29.931624,73.864511,PM2.5,37,173,63
India,Rajasthan,Sri Ganganagar,"Old City, Sri Ganganagar - RSPCB",14-10-2025 07:00:00,29.931624,73.864511,NO2,31,149,76
India,Rajasthan,Sri Ganganagar,"Old City, Sri Ganganagar - RSPCB",14-10-2025 07:00:00,29.931624,73.864511,SO2,1,11,5
India,Rajasthan,Sri Ganganagar,"Old City, Sri Ganganagar - RSPCB",14-10-2025 07:00:00,29.931624,73.864511,OZONE,9,65,28
India,Rajasthan,Tonk,"Shastri Nagar, Tonk - RSPCB",14-10-2025 07:00:00,26.159933,75.780517,NH3,4,8,6
India,Rajasthan,Udaipur,"Ashok Nagar, Udaipur - RSPCB",14-10-2025 07:00:00,24.5886166,73.6321397,NO2,21,116,58
India,Rajasthan,Udaipur,"Ashok Nagar, Udaipur - RSPCB",14-10-2025 07:00:00,24.5886166,73.6321397,NH3,5,9,7
India,TamilNadu,Dindigul,"Mendonsa Colony, Dindigul - TNPCB",14-10-2025 07:00:00,10.358535,77.984321,OZONE,NA,NA,NA
India,TamilNadu,Gummidipoondi,"Anthoni Pillai Nagar, Gummidipoondi - TNPCB",14-10-2025 07:00:00,13.4127,80.1081,PM2.5,40,350,148
India,TamilNadu,Hosur,"SIPCOT Phase-1, Hosur - TNPCB",14-10-2025 07:00:00,12.746998,77.813811,NH3,1,1,1
India,TamilNadu,Hosur,"SIPCOT Phase-1, Hosur - TNPCB",14-10-2025 07:00:00,12.746998,77.813811,SO2,55,59,57
India,TamilNadu,Chengalpattu,"Crescent University, Chengalpattu - TNPCB",14-10-2025 07:00:00,12.8777316,80.0834807,CO,6,9,6
India,TamilNadu,Chennai,"Kodungaiyur, Chennai - TNPCB",14-10-2025 07:00:00,13.1278,80.2642,NH3,6,19,11
India,TamilNadu,Chennai,"Manali Village, Chennai - TNPCB",14-10-2025 07:00:00,13.1662,80.2584,NH3,1,2,1
India,Rajasthan,Pratapgarh,"Pragati Nagar, Pratapgarh - RSPCB",14-10-2025 07:00:00,24.041198,74.780702,OZONE,32,98,43
India,Rajasthan,Rajsamand,"Dhoinda, Rajsamand - RSPCB",14-10-2025 07:00:00,25.036360,73.883502,PM2.5,25,93,45
India,Rajasthan,Rajsamand,"Dhoinda, Rajsamand - RSPCB",14-10-2025 07:00:00,25.036360,73.883502,NH3,5,13,9
India,TamilNadu,Karur,"Kamadenu Nagar, Karur - TNPCB",14-10-2025 07:00:00,10.967820,78.080882,OZONE,6,10,8
India,TamilNadu,Nagapattinam,"Velippalayam, Nagapattinam - TNPCB",14-10-2025 07:00:00,10.798548,79.838212,CO,12,19,13
India,Sikkim,Gangtok,"Zero Point GICI, Gangtok - SSPCB",14-10-2025 07:00:00,27.338530,88.614099,OZONE,14,46,19
India,Uttar_Pradesh,Agra,"Shastripuram, Agra - UPPCB",14-10-2025 07:00:00,27.19862,77.92066,OZONE,4,7,6
India,Uttar_Pradesh,Baghpat,"Sardar Patel Inter College, Baghpat - UPPCB",14-10-2025 07:00:00,28.964949,77.278761,CO,14,74,29
India,Uttar_Pradesh,Bareilly,"Civil Lines, Bareilly - UPPCB",14-10-2025 07:00:00,28.359581,79.414455,PM10,29,50,38
India,Uttar_Pradesh,Bareilly,"Civil Lines, Bareilly - UPPCB",14-10-2025 07:00:00,28.359581,79.414455,NO2,2,3,2
India,Uttar_Pradesh,Bareilly,"Rajendra Nagar, Bareilly - UPPCB",14-10-2025 07:00:00,28.38910936,79.42963708,PM2.5,62,205,141
India,Uttar_Pradesh,Bareilly,"Rajendra Nagar, Bareilly - UPPCB",14-10-2025 07:00:00,28.38910936,79.42963708,NO2,9,10,9
India,Uttar_Pradesh,Bareilly,"Rajendra Nagar, Bareilly - UPPCB",14-10-2025 07:00:00,28.38910936,79.42963708,CO,27,48,41
India,Uttar_Pradesh,Bulandshahr,"Yamunapuram, Bulandshahr - UPPCB",14-10-2025 07:00:00,28.406963,77.849831,CO,24,92,71
India,Uttar_Pradesh,Ghaziabad,"Vasundhara, Ghaziabad - UPPCB",14-10-2025 07:00:00,28.6603346,77.3572563,NH3,9,14,10
India,Uttar_Pradesh,Gorakhpur,"Madan Mohan Malaviya University of Technology, Gorakhpur - UPPCB",14-10-2025 07:00:00,26.730136,83.433859,PM2.5,57,164,95
India,Uttar_Pradesh,Greater Noida,"Knowledge Park - III, Greater Noida - UPPCB",14-10-2025 07:00:00,28.47272,77.482000,NO2,30,144,90
India,Uttar_Pradesh,Greater Noida,"Knowledge Park - III, Greater Noida - UPPCB",14-10-2025 07:00:00,28.47272,77.482000,NH3,8,14,11
India,Uttar_Pradesh,Greater Noida,"Knowledge Park - V, Greater Noida - UPPCB",14-10-2025 07:00:00,28.557054,77.453663,NO2,30,146,90
India,Uttar_Pradesh,Greater Noida,"Knowledge Park - V, Greater Noida - UPPCB",14-10-2025 07:00:00,28.557054,77.453663,NH3,7,10,9
India,Uttar_Pradesh,Greater Noida,"Knowledge Park - V, Greater Noida - UPPCB",14-10-2025 07:00:00,28.557054,77.453663,SO2,12,20,16
India,Uttar_Pradesh,Greater Noida,"Knowledge Park - V, Greater Noida - UPPCB",14-10-2025 07:00:00,28.557054,77.453663,OZONE,5,180,9
India,Uttar_Pradesh,Agra,"Manoharpur, Agra - UPPCB",14-10-2025 07:00:00,27.23711,78.01936,SO2,NA,NA,NA
India,Uttar_Pradesh,Agra,"Manoharpur, Agra - UPPCB",14-10-2025 07:00:00,27.23711,78.01936,CO,NA,NA,NA
India,Uttar_Pradesh,Agra,"Manoharpur, Agra - UPPCB",14-10-2025 07:00:00,27.23711,78.01936,OZONE,NA,NA,NA
India,Uttar_Pradesh,Agra,"Rohta, Agra - UPPCB",14-10-2025 07:00:00,27.106972,78.000111,PM10,23,160,99
India,Uttar_Pradesh,Agra,"Rohta, Agra - UPPCB",14-10-2025 07:00:00,27.106972,78.000111,NO2,17,17,17
India,Uttar_Pradesh,Agra,"Sector-3B Avas Vikas Colony, Agra - UPPCB",14-10-2025 07:00:00,27.19412,77.96237,NO2,25,31,29
India,Uttar_Pradesh,Agra,"Sector-3B Avas Vikas Colony, Agra - UPPCB",14-10-2025 07:00:00,27.19412,77.96237,CO,27,78,67
India,Uttar_Pradesh,Agra,"Shahjahan Garden, Agra - UPPCB",14-10-2025 07:00:00,27.169338,78.03582,PM10,49,196,130
India,Uttar_Pradesh,Agra,"Shahjahan Garden, Agra - UPPCB",14-10-2025 07:00:00,27.169338,78.03582,NH3,1,1,1
India,Uttar_Pradesh,Agra,"Shahjahan Garden, Agra - UPPCB",14-10-2025 07:00:00,27.169338,78.03582,SO2,19,28,24
India,TamilNadu,Tirunelveli,"Municipal Corporation Office, Tirunelveli - TNPCB",14-10-2025 07:00:00,8.728442,77.6962,PM10,24,78,39
India,TamilNadu,Tirunelveli,"Municipal Corporation Office, Tirunelveli - TNPCB",14-10-2025 07:00:00,8.728442,77.6962,NH3,1,4,2
India,TamilNadu,Tirunelveli,"Municipal Corporation Office, Tirunelveli - TNPCB",14-10-2025 07:00:00,8.728442,77.6962,OZONE,6,7,6
India,TamilNadu,Virudhunagar,"Collectorate Office, Virudhunagar - TNPCB",14-10-2025 07:00:00,9.559382,77.948828,PM2.5,40,94,64
India,TamilNadu,Virudhunagar,"Collectorate Office, Virudhunagar - TNPCB",14-10-2025 07:00:00,9.559382,77.948828,CO,18,20,19
India,TamilNadu,Virudhunagar,"Collectorate Office, Virudhunagar - TNPCB",14-10-2025 07:00:00,9.559382,77.948828,OZONE,2,4,3
India,Telangana,Hyderabad,"Bollaram Industrial Area, Hyderabad - TSPCB",14-10-2025 07:00:00,17.540891,78.358528,PM2.5,45,138,92
India,Telangana,Hyderabad,"Bollaram Industrial Area, Hyderabad - TSPCB",14-10-2025 07:00:00,17.540891,78.358528,PM10,44,156,98
India,TamilNadu,Ramanathapuram,"Chalai Bazaar, Ramanathapuram - TNPCB",14-10-2025 07:00:00,9.36399,78.831977,PM2.5,23,64,41
India,TamilNadu,Ranipet,"VOC Nagar_SIPCOT, Ranipet - TNPCB",14-10-2025 07:00:00,12.952707,79.30394,CO,18,20,20
India,TamilNadu,Salem,"Sona College of Technology, Salem - TNPCB",14-10-2025 07:00:00,11.679111,78.125052,PM2.5,NA,NA,NA
India,TamilNadu,Thoothukudi,"Meelavittan, Thoothukudi - TNPCB",14-10-2025 07:00:00,8.816428 ,78.099039,PM10,29,90,47
India,TamilNadu,Thoothukudi,"Meelavittan, Thoothukudi - TNPCB",14-10-2025 07:00:00,8.816428 ,78.099039,CO,11,99,36
India,Telangana,Hyderabad,"Somajiguda, Hyderabad - TSPCB",14-10-2025 07:00:00,17.417094,78.457437,PM2.5,32,324,156
India,Tripura,Agartala,"Bardowali, Agartala - Tripura SPCB",14-10-2025 07:00:00,23.8175497,91.2726974,NH3,6,9,8
India,Uttar_Pradesh,Agra,"Manoharpur, Agra - UPPCB",14-10-2025 07:00:00,27.23711,78.01936,PM2.5,NA,NA,NA
India,Uttar_Pradesh,Agra,"Manoharpur, Agra - UPPCB",14-10-2025 07:00:00,27.23711,78.01936,NO2,NA,NA,NA
India,Telangana,Hyderabad,"ECIL Kapra, Hyderabad - TSPCB",14-10-2025 07:00:00,17.470431,78.566959,NH3,3,5,4
India,Telangana,Hyderabad,"IDA Pashamylaram, Hyderabad - TSPCB",14-10-2025 07:00:00,17.5316895,78.218939,PM10,80,156,128
India,Telangana,Hyderabad,"IDA Pashamylaram, Hyderabad - TSPCB",14-10-2025 07:00:00,17.5316895,78.218939,OZONE,10,17,13
India,Telangana,Hyderabad,"Kokapet, Hyderabad - TSPCB",14-10-2025 07:00:00,17.393559,78.339194,PM10,68,143,91
India,Uttar_Pradesh,Firozabad,"Nagla Bhau, Firozabad - UPPCB",14-10-2025 07:00:00,27.168897,78.376960,PM2.5,17,232,47
India,Uttar_Pradesh,Firozabad,"Nagla Bhau, Firozabad - UPPCB",14-10-2025 07:00:00,27.168897,78.376960,CO,12,26,15
India,Uttar_Pradesh,Ghaziabad,"Indirapuram, Ghaziabad - UPPCB",14-10-2025 07:00:00,28.646233,77.358075,NH3,13,16,15
India,Uttar_Pradesh,Ghaziabad,"Indirapuram, Ghaziabad - UPPCB",14-10-2025 07:00:00,28.646233,77.358075,OZONE,10,106,17
India,Telangana,Hyderabad,"Kokapet, Hyderabad - TSPCB",14-10-2025 07:00:00,17.393559,78.339194,NH3,3,3,3
India,Telangana,Hyderabad,"Kompally Municipal Office, Hyderabad - TSPCB",14-10-2025 07:00:00,17.544899,78.486949,NO2,NA,NA,NA
India,Telangana,Hyderabad,"Ramachandrapuram, Hyderabad - TSPCB",14-10-2025 07:00:00,17.528544,78.286195,PM2.5,40,47,44
India,Uttar_Pradesh,Varanasi,"Maldahiya, Varanasi - UPPCB",14-10-2025 07:00:00,25.32393,82.99687,OZONE,2,22,2
India,Uttar_Pradesh,Vrindavan,"Omex Eternity, Vrindavan - UPPCB",14-10-2025 07:00:00,27.5714090,77.6557570,CO,22,50,39
India,Uttarakhand,Dehradun,"Doon University, Dehradun - UKPCB",14-10-2025 07:00:00,30.269444,78.044167,NO2,1,3,1
India,Uttarakhand,Dehradun,"Doon University, Dehradun - UKPCB",14-10-2025 07:00:00,30.269444,78.044167,CO,12,24,17
India,Uttarakhand,Kashipur,"Govt. Girls Inter College, Kashipur - UKPCB",14-10-2025 07:00:00,29.2124114,78.9611753,NH3,3,14,6
India,Uttarakhand,Kashipur,"Govt. Girls Inter College, Kashipur - UKPCB",14-10-2025 07:00:00,29.2124114,78.9611753,CO,8,13,10
India,Uttarakhand,Rishikesh,"Shivaji Nagar, Rishikesh - UKPCB",14-10-2025 07:00:00,30.075911,78.2859547,PM10,18,236,56
India,Uttarakhand,Rishikesh,"Shivaji Nagar, Rishikesh - UKPCB",14-10-2025 07:00:00,30.075911,78.2859547,CO,7,36,16
India,Uttar_Pradesh,Hapur,"Anand Vihar, Hapur - UPPCB",14-10-2025 07:00:00,28.725645,77.749675,NH3,5,8,7
India,Uttar_Pradesh,Hapur,"Anand Vihar, Hapur - UPPCB",14-10-2025 07:00:00,28.725645,77.749675,SO2,15,80,28
India,Uttar_Pradesh,Jhansi,"Shivaji Nagar, Jhansi - UPPCB",14-10-2025 07:00:00,25.4547,78.6039,NH3,4,4,4
India,Uttar_Pradesh,Kanpur,"FTI Kidwai Nagar, Kanpur - UPPCB",14-10-2025 07:00:00,26.428282,80.327067,PM10,55,254,108
India,Uttar_Pradesh,Kanpur,"NSI Kalyanpur, Kanpur - UPPCB",14-10-2025 07:00:00,26.509954,80.249612,NH3,3,3,3
India,Uttar_Pradesh,Kanpur,"NSI Kalyanpur, Kanpur - UPPCB",14-10-2025 07:00:00,26.509954,80.249612,OZONE,19,21,20
India,Uttar_Pradesh,Kanpur,"Nehru Nagar, Kanpur - UPPCB",14-10-2025 07:00:00,26.4703136,80.3229863,NO2,34,60,47
India,Uttar_Pradesh,Moradabad,"Jigar Colony, Moradabad - UPPCB",14-10-2025 07:00:00,28.856664,78.772638,NO2,24,25,25
India,Uttar_Pradesh,Moradabad,"Transport Nagar, Moradabad - UPPCB",14-10-2025 07:00:00,28.802625,78.753728,NH3,5,6,5
India,Uttar_Pradesh,Moradabad,"Transport Nagar, Moradabad - UPPCB",14-10-2025 07:00:00,28.802625,78.753728,OZONE,26,52,27
India,Uttar_Pradesh,Muzaffarnagar,"New Mandi, Muzaffarnagar - UPPCB",14-10-2025 07:00:00,29.4723508,77.7194031,PM10,82,282,155
India,Uttar_Pradesh,Noida,"Sector - 125, Noida - UPPCB",14-10-2025 07:00:00,28.5447608,77.3231257,PM2.5,69,398,230
India,Uttar_Pradesh,Noida,"Sector - 125, Noida - UPPCB",14-10-2025 07:00:00,28.5447608,77.3231257,NH3,8,11,9
India,Uttar_Pradesh,Lucknow,"Kukrail Picnic Spot-1, Lucknow - UPPCB",14-10-2025 07:00:00,26.90723,80.98579,SO2,25,28,27
India,Uttar_Pradesh,Lucknow,"Lalbagh, Lucknow - CPCB",14-10-2025 07:00:00,26.8458805,80.9365541,PM2.5,57,260,127
India,Uttar_Pradesh,Lucknow,"Lalbagh, Lucknow - CPCB",14-10-2025 07:00:00,26.8458805,80.9365541,PM10,102,169,134
India,Uttar_Pradesh,Lucknow,"Lalbagh, Lucknow - CPCB",14-10-2025 07:00:00,26.8458805,80.9365541,NH3,16,23,19
India,Uttar_Pradesh,Meerut,"Ganga Nagar, Meerut - UPPCB",14-10-2025 07:00:00,28.999264,77.7590354,PM10,116,411,194
India,Uttar_Pradesh,Kanpur,"Nehru Nagar, Kanpur - UPPCB",14-10-2025 07:00:00,26.4703136,80.3229863,OZONE,6,61,6
India,Uttar_Pradesh,Khurja,"Kalindi Kunj, Khurja - UPPCB",14-10-2025 07:00:00,28.2348927,77.8683002,OZONE,5,6,5
India,Uttar_Pradesh,Lucknow,"B R Ambedkar University, Lucknow - UPPCB",14-10-2025 07:00:00,26.766433,80.927299,NO2,11,12,12
India,Uttar_Pradesh,Lucknow,"Gomti Nagar, Lucknow - UPPCB",14-10-2025 07:00:00,26.868120,81.005119,SO2,10,12,11
India,West_Bengal,Asansol,"Evelyn Lodge, Asansol - WBPCB",14-10-2025 07:00:00,23.6979360,86.9443950,NH3,1,1,1
India,West_Bengal,Asansol,"Evelyn Lodge, Asansol - WBPCB",14-10-2025 07:00:00,23.6979360,86.9443950,SO2,4,7,5
India,West_Bengal,Asansol,"Mahabir Colliery, Asansol - WBPCB",14-10-2025 07:00:00,23.6181830,87.1057180,NO2,11,63,35
India,West_Bengal,Asansol,"Mahabir Colliery, Asansol - WBPCB",14-10-2025 07:00:00,23.6181830,87.1057180,NH3,1,1,1
India,West_Bengal,Asansol,"Trivenidevi Bhalotia College, Asansol - WBPCB",14-10-2025 07:00:00,23.616515,87.119133,CO,62,101,85
India,Uttar_Pradesh,Noida,"Sector-1, Noida - UPPCB",14-10-2025 07:00:00,28.5898,77.3101,NO2,20,132,83
India,Uttar_Pradesh,Noida,"Sector-1, Noida - UPPCB",14-10-2025 07:00:00,28.5898,77.3101,SO2,8,12,10
India,Uttar_Pradesh,Prayagraj,"Jhunsi, Prayagraj - UPPCB",14-10-2025 07:00:00,25.425602,81.917152,SO2,8,19,11
India,Uttar_Pradesh,Prayagraj,"Motilal Nehru NIT, Prayagraj - UPPCB",14-10-2025 07:00:00,25.494,81.863,PM2.5,39,112,69
India,Uttar_Pradesh,Prayagraj,"Nagar Nigam, Prayagraj - UPPCB",14-10-2025 07:00:00,25.44919916 ,81.82735986 ,CO,21,83,63
India,Uttar_Pradesh,Varanasi,"IESD Banaras Hindu University, Varanasi - UPPCB",14-10-2025 07:00:00,25.262326,82.995408,PM10,71,122,102
India,Uttar_Pradesh,Meerut,"Pallavpuram Phase 2, Meerut - UPPCB",14-10-2025 07:00:00,29.063510,77.709723,SO2,8,25,16
India,Uttar_Pradesh,Moradabad,"Buddhi Vihar, Moradabad - UPPCB",14-10-2025 07:00:00,28.83526,78.74460,SO2,27,85,50
India,West_Bengal,Barrackpore,"SVSPA Campus, Barrackpore - WBPCB",14-10-2025 07:00:00,22.7605581,88.3617589,SO2,15,19,17
India,West_Bengal,Barrackpore,"SVSPA Campus, Barrackpore - WBPCB",14-10-2025 07:00:00,22.7605581,88.3617589,OZONE,5,47,9
India,West_Bengal,Durgapur,"Mahishkapur Road_B-Zone, Durgapur - WBPCB",14-10-2025 07:00:00,23.567923,87.306843,NO2,7,34,17
India,West_Bengal,Durgapur,"PCBL Residential Complex, Durgapur - WBPCB",14-10-2025 07:00:00,23.5087640,87.3544400,SO2,5,6,5
India,West_Bengal,Durgapur,"Womens College_City Center, Durgapur - WBPCB (Formerly known as Sidhu Kanhu Indoor Stadium)",14-10-2025 07:00:00,23.549395,87.300496,PM2.5,23,73,48
India,West_Bengal,Durgapur,"Womens College_City Center, Durgapur - WBPCB (Formerly known as Sidhu Kanhu Indoor Stadium)",14-10-2025 07:00:00,23.549395,87.300496,NH3,2,3,3
India,West_Bengal,Durgapur,"Womens College_City Center, Durgapur - WBPCB (Formerly known as Sidhu Kanhu Indoor Stadium)",14-10-2025 07:00:00,23.549395,87.300496,OZONE,7,64,12
India,West_Bengal,Howrah,"Belur Math, Howrah - WBPCB",14-10-2025 07:00:00,22.629801,88.352017,NH3,9,10,10
India,West_Bengal,Howrah,"Belur Math, Howrah - WBPCB",14-10-2025 07:00:00,22.629801,88.352017,CO,18,36,28
India,West_Bengal,Howrah,"Botanical Garden, Howrah - WBPCB",14-10-2025 07:00:00,22.554954,88.292568,OZONE,22,69,24
India,West_Bengal,Howrah,"Dasnagar, Howrah - WBPCB",14-10-2025 07:00:00,22.6025571,88.3105664,NH3,1,1,1
India,West_Bengal,Howrah,"Padmapukur, Howrah - WBPCB",14-10-2025 07:00:00,22.5687319,88.2797276,PM10,84,130,111
India,West_Bengal,Howrah,"Padmapukur, Howrah - WBPCB",14-10-2025 07:00:00,22.5687319,88.2797276,NH3,3,11,7
India,West_Bengal,Kolkata,"Ballygunge, Kolkata - WBPCB",14-10-2025 07:00:00,22.5367507,88.3638022,SO2,4,11,7
India,West_Bengal,Kolkata,"Fort William, Kolkata - WBPCB",14-10-2025 07:00:00,22.556640,88.342674,PM10,77,114,99
India,West_Bengal,Kolkata,"Jadavpur, Kolkata - WBPCB",14-10-2025 07:00:00,22.49929,88.36917,NH3,6,12,9
India,West_Bengal,Kolkata,"Jadavpur, Kolkata - WBPCB",14-10-2025 07:00:00,22.49929,88.36917,CO,16,39,29
India,West_Bengal,Kolkata,"Rabindra Bharati University, Kolkata - WBPCB",14-10-2025 07:00:00,22.627847,88.380669,PM2.5,66,84,76
India,West_Bengal,Kolkata,"Rabindra Sarobar, Kolkata - WBPCB",14-10-2025 07:00:00,22.51106,88.35142,CO,22,42,30
India,West_Bengal,Kolkata,"Victoria, Kolkata - WBPCB",14-10-2025 07:00:00,22.5448082,88.3403691,PM10,95,142,123
India,West_Bengal,Kolkata,"Victoria, Kolkata - WBPCB",14-10-2025 07:00:00,22.5448082,88.3403691,NH3,4,5,4
India,West_Bengal,Siliguri,"Ward-32 Bapupara, Siliguri - WBPCB",14-10-2025 07:00:00,26.6879226,88.4152495,PM2.5,27,71,59
India,West_Bengal,Siliguri,"Ward-32 Bapupara, Siliguri - WBPCB",14-10-2025 07:00:00,26.6879226,88.4152495,NO2,17,24,20
India,Bihar,Araria,"Kharahiya Basti, Araria - BSPCB",14-10-2025 07:00:00,26.146529,87.454184,SO2,15,23,20
India,Bihar,Araria,"Kharahiya Basti, Araria - BSPCB",14-10-2025 07:00:00,26.146529,87.454184,OZONE,10,11,11
India,Bihar,Arrah,"New DM Office, Arrah - BSPCB",14-10-2025 07:00:00,25.5626095,84.663264,PM2.5,NA,NA,NA
India,Bihar,Arrah,"New DM Office, Arrah - BSPCB",14-10-2025 07:00:00,25.5626095,84.663264,NH3,NA,NA,NA
India,Bihar,Arrah,"New DM Office, Arrah - BSPCB",14-10-2025 07:00:00,25.5626095,84.663264,OZONE,NA,NA,NA
India,Bihar,Aurangabad,"Gurdeo Nagar, Aurangabad - BSPCB",14-10-2025 07:00:00,24.75746,84.366208,NH3,1,2,2
India,Bihar,Aurangabad,"Gurdeo Nagar, Aurangabad - BSPCB",14-10-2025 07:00:00,24.75746,84.366208,SO2,3,19,11
India,Bihar,Begusarai,"Lohiyanagar, Begusarai - BSPCB",14-10-2025 07:00:00,25.42742023,86.13886079,NO2,6,20,14
India,Bihar,Begusarai,"Lohiyanagar, Begusarai - BSPCB",14-10-2025 07:00:00,25.42742023,86.13886079,CO,14,68,47
India,Bihar,Bettiah,"Kamalnath Nagar, Bettiah - BSPCB",14-10-2025 07:00:00,26.80365,84.51954,NO2,5,12,8
India,Andhra_Pradesh,Anantapur,"Gulzarpet, Anantapur - APPCB",14-10-2025 07:00:00,14.675886,77.593027,PM2.5,56,114,81
India,Andhra_Pradesh,Anantapur,"Gulzarpet, Anantapur - APPCB",14-10-2025 07:00:00,14.675886,77.593027,OZONE,9,20,11
India,Andhra_Pradesh,Chittoor,"Gangineni Cheruvu, Chittoor - APPCB",14-10-2025 07:00:00,13.204880,79.097889,OZONE,5,114,10
India,Andhra_Pradesh,Kadapa,"Yerramukkapalli, Kadapa - APPCB",14-10-2025 07:00:00,14.465052,78.824187,PM10,NA,NA,NA
India,Andhra_Pradesh,Kadapa,"Yerramukkapalli, Kadapa - APPCB",14-10-2025 07:00:00,14.465052,78.824187,NO2,NA,NA,NA
India,Andhra_Pradesh,Rajamahendravaram,"Anand Kala Kshetram, Rajamahendravaram - APPCB",14-10-2025 07:00:00,16.9872867,81.7363176,PM10,14,48,27
India,Andhra_Pradesh,Rajamahendravaram,"Anand Kala Kshetram, Rajamahendravaram - APPCB",14-10-2025 07:00:00,16.9872867,81.7363176,NO2,7,46,20
India,Andhra_Pradesh,Rajamahendravaram,"Anand Kala Kshetram, Rajamahendravaram - APPCB",14-10-2025 07:00:00,16.9872867,81.7363176,NH3,2,3,2
India,Andhra_Pradesh,Tirumala,"Toll Gate, Tirumala - APPCB",14-10-2025 07:00:00,13.67,79.35,PM10,31,67,47
India,Andhra_Pradesh,Tirumala,"Toll Gate, Tirumala - APPCB",14-10-2025 07:00:00,13.67,79.35,NH3,1,2,1
India,Andhra_Pradesh,Tirupati,"Vaikuntapuram, Tirupati - APPCB",14-10-2025 07:00:00,13.615387,79.409230,OZONE,NA,NA,NA
India,Andhra_Pradesh,Vijayawada,"HB Colony, Vijayawada - APPCB",14-10-2025 07:00:00,16.536107,80.594233,NO2,11,24,15
India,Andhra_Pradesh,Vijayawada,"HB Colony, Vijayawada - APPCB",14-10-2025 07:00:00,16.536107,80.594233,SO2,8,16,10
India,Andhra_Pradesh,Vijayawada,"Rajiv Gandhi Park, Vijayawada - APPCB",14-10-2025 07:00:00,16.509717,80.612222,SO2,18,22,20
India,Andhra_Pradesh,Vijayawada,"Rajiv Nagar, Vijayawada - APPCB",14-10-2025 07:00:00,16.554731,80.649110,PM2.5,NA,NA,NA
India,Andhra_Pradesh,Visakhapatnam,"GVM Corporation, Visakhapatnam - APPCB",14-10-2025 07:00:00,17.72,83.3,PM2.5,41,81,55
India,Assam,Guwahati,"IITG, Guwahati - PCBA",14-10-2025 07:00:00,26.2028636,91.70046436,OZONE,NA,NA,NA
India,Assam,Guwahati,"LGBI Airport, Guwahati - PCBA",14-10-2025 07:00:00,26.10887,91.589544,PM2.5,41,43,42
India,Assam,Guwahati,"LGBI Airport, Guwahati - PCBA",14-10-2025 07:00:00,26.10887,91.589544,NO2,11,88,18
India,Assam,Guwahati,"LGBI Airport, Guwahati - PCBA",14-10-2025 07:00:00,26.10887,91.589544,NH3,6,6,6
India,Assam,Guwahati,"Pan Bazaar, Guwahati - PCBA",14-10-2025 07:00:00,26.187500,91.744194,PM10,18,61,37
India,Assam,Nagaon,"Christianpatty, Nagaon - PCBA",14-10-2025 07:00:00,26.349082,92.68449,PM10,47,102,51
India,Assam,Nalbari,"Bata Chowk, Nalbari - PCBA",14-10-2025 07:00:00,26.446912,91.439057,PM2.5,52,53,53
India,Assam,Nalbari,"Bata Chowk, Nalbari - PCBA",14-10-2025 07:00:00,26.446912,91.439057,SO2,18,21,21
India,Assam,Silchar,"Tarapur, Silchar - PCBA",14-10-2025 07:00:00,24.82827,92.79525,PM10,49,57,51
India,Assam,Silchar,"Tarapur, Silchar - PCBA",14-10-2025 07:00:00,24.82827,92.79525,NO2,17,19,19
India,Assam,Silchar,"Tarapur, Silchar - PCBA",14-10-2025 07:00:00,24.82827,92.79525,NH3,1,1,1
India,Assam,Sivasagar,"Girls College, Sivasagar - PCBA",14-10-2025 07:00:00,26.987634,94.636574,CO,15,46,35
India,Bihar,Araria,"Kharahiya Basti, Araria - BSPCB",14-10-2025 07:00:00,26.146529,87.454184,PM2.5,52,91,63
India,Bihar,Buxar,"Charitra Van, Buxar - BSPCB",14-10-2025 07:00:00,25.567520,83.966379,PM10,60,71,70
India,Bihar,Chhapra,"Darshan Nagar, Chhapra - BSPCB",14-10-2025 07:00:00,25.7808257,84.7446768,PM10,NA,NA,NA
India,Bihar,Chhapra,"Darshan Nagar, Chhapra - BSPCB",14-10-2025 07:00:00,25.7808257,84.7446768,NH3,NA,NA,NA
India,Bihar,Chhapra,"Darshan Nagar, Chhapra - BSPCB",14-10-2025 07:00:00,25.7808257,84.7446768,CO,2,8,6
India,Bihar,Gaya,"Kareemganj, Gaya - BSPCB",14-10-2025 07:00:00,24.792403,84.992416,SO2,15,16,16
India,Bihar,Gaya,"Kareemganj, Gaya - BSPCB",14-10-2025 07:00:00,24.792403,84.992416,CO,38,40,39
India,Bihar,Gaya,"Kareemganj, Gaya - BSPCB",14-10-2025 07:00:00,24.792403,84.992416,OZONE,3,25,8
India,Bihar,Gaya,"SFTI Kusdihra, Gaya - BSPCB",14-10-2025 07:00:00,24.762518,84.982348,PM2.5,33,60,42
India,Bihar,Gaya,"SFTI Kusdihra, Gaya - BSPCB",14-10-2025 07:00:00,24.762518,84.982348,CO,20,26,24
India,Bihar,Hajipur,"Industrial Area, Hajipur - BSPCB",14-10-2025 07:00:00,25.697189,85.245900,PM10,NA,NA,NA
India,Andaman and Nicobar,Sri Vijaya Puram,"Police Line, Sri Vijaya Puram - ANPCC",14-10-2025 07:00:00,11.654054,92.734055,CO,NA,NA,NA
India,Andaman and Nicobar,Sri Vijaya Puram,"Police Line, Sri Vijaya Puram - ANPCC",14-10-2025 07:00:00,11.654054,92.734055,OZONE,NA,NA,NA
India,Andhra_Pradesh,Amaravati,"Secretariat, Amaravati - APPCB",14-10-2025 07:00:00,16.5150833,80.5181667,PM10,14,73,42
India,Assam,Byrnihat,"Central Academy for SFS, Byrnihat - PCBA",14-10-2025 07:00:00,26.071318,91.87488,PM10,72,133,100
India,Assam,Byrnihat,"Central Academy for SFS, Byrnihat - PCBA",14-10-2025 07:00:00,26.071318,91.87488,NO2,NA,NA,NA
India,Assam,Guwahati,"IITG, Guwahati - PCBA",14-10-2025 07:00:00,26.2028636,91.70046436,NO2,1,6,3
India,Bihar,Bhagalpur,"Mayaganj, Bhagalpur - BSPCB",14-10-2025 07:00:00,25.265194,87.012947,SO2,48,93,57
India,Bihar,Bihar Sharif,"D M Colony, Bihar Sharif - BSPCB",14-10-2025 07:00:00,25.204762,85.514960,PM2.5,48,59,55
India,Bihar,Patna,"Govt. High School Shikarpur, Patna - BSPCB",14-10-2025 07:00:00,25.592539,85.227158,PM2.5,39,74,56
India,Bihar,Patna,"Govt. High School Shikarpur, Patna - BSPCB",14-10-2025 07:00:00,25.592539,85.227158,NH3,4,5,5
India,Bihar,Patna,"Govt. High School Shikarpur, Patna - BSPCB",14-10-2025 07:00:00,25.592539,85.227158,SO2,7,65,10
India,Bihar,Patna,"Govt. High School Shikarpur, Patna - BSPCB",14-10-2025 07:00:00,25.592539,85.227158,CO,16,30,23
India,Bihar,Patna,"IGSC Planetarium Complex, Patna - BSPCB",14-10-2025 07:00:00,25.610369,85.132568,PM2.5,NA,NA,NA
India,Bihar,Patna,"IGSC Planetarium Complex, Patna - BSPCB",14-10-2025 07:00:00,25.610369,85.132568,CO,NA,NA,NA
India,Bihar,Muzaffarpur,"MIT-Daudpur Kothi, Muzaffarpur - BSPCB",14-10-2025 07:00:00,26.1403345,85.3650192,PM2.5,32,61,47
India,Bihar,Muzaffarpur,"MIT-Daudpur Kothi, Muzaffarpur - BSPCB",14-10-2025 07:00:00,26.1403345,85.3650192,NH3,1,3,2
India,Bihar,Muzaffarpur,"MIT-Daudpur Kothi, Muzaffarpur - BSPCB",14-10-2025 07:00:00,26.1403345,85.3650192,SO2,14,51,28
India,Bihar,Muzaffarpur,"MIT-Daudpur Kothi, Muzaffarpur - BSPCB",14-10-2025 07:00:00,26.1403345,85.3650192,OZONE,24,58,55
India,Bihar,Muzaffarpur,"Muzaffarpur Collectorate, Muzaffarpur - BSPCB",14-10-2025 07:00:00,26.1209,85.3647,NO2,8,25,14
India,Bihar,Patna,"Muradpur, Patna - BSPCB",14-10-2025 07:00:00,25.619651,85.147382,NO2,7,10,9
India,Bihar,Patna,"Muradpur, Patna - BSPCB",14-10-2025 07:00:00,25.619651,85.147382,CO,29,64,49
India,Bihar,Patna,"Rajbansi Nagar, Patna - BSPCB",14-10-2025 07:00:00,25.599486,85.113666,PM10,76,103,87
India,Bihar,Patna,"Rajbansi Nagar, Patna - BSPCB",14-10-2025 07:00:00,25.599486,85.113666,NO2,27,34,31
India,Bihar,Patna,"Rajbansi Nagar, Patna - BSPCB",14-10-2025 07:00:00,25.599486,85.113666,OZONE,7,11,7
India,Bihar,Manguraha,"Forest Rest House, Manguraha - BSPCB",14-10-2025 07:00:00,27.308328,84.531742,PM2.5,37,253,61
India,Bihar,Motihari,"Gandak Colony, Motihari - BSPCB",14-10-2025 07:00:00,26.63086,84.90051,SO2,2,3,3
India,Bihar,Motihari,"Gandak Colony, Motihari - BSPCB",14-10-2025 07:00:00,26.63086,84.90051,OZONE,2,4,3
India,Bihar,Sasaram,"Dada Peer, Sasaram - BSPCB",14-10-2025 07:00:00,24.952822,84.002396,OZONE,11,41,17
India,Bihar,Siwan,"Chitragupta Nagar, Siwan - BSPCB",14-10-2025 07:00:00,26.2271665,84.3570427,PM10,98,163,124
India,Bihar,Muzaffarpur,"Buddha Colony, Muzaffarpur - BSPCB",14-10-2025 07:00:00,26.11442,85.39813,NO2,4,11,7
India,Bihar,Muzaffarpur,"Buddha Colony, Muzaffarpur - BSPCB",14-10-2025 07:00:00,26.11442,85.39813,NH3,6,9,7
India,Bihar,Kishanganj,"SDM Office_Khagra, Kishanganj - BSPCB",14-10-2025 07:00:00,26.0881305,87.93840336,NO2,7,8,7
India,Bihar,Katihar,"Mirchaibari, Katihar - BSPCB",14-10-2025 07:00:00,25.560083,87.553265,PM2.5,33,40,36
India,Bihar,Patna,"Samanpura, Patna - BSPCB",14-10-2025 07:00:00,25.596727,85.085624,CO,32,52,46
India,Chhattisgarh,Raipur,"Bhatagaon New ISBT, Raipur - CECB",14-10-2025 07:00:00,21.219665,81.630094,SO2,7,10,8
India,Chhattisgarh,Raipur,"Bhatagaon New ISBT, Raipur - CECB",14-10-2025 07:00:00,21.219665,81.630094,CO,12,32,25
India,Chhattisgarh,Raipur,"Bhatagaon New ISBT, Raipur - CECB",14-10-2025 07:00:00,21.219665,81.630094,OZONE,2,12,4
India,Chhattisgarh,Raipur,"Krishak Nagar, Raipur - CECB",14-10-2025 07:00:00,21.237755,81.705301,SO2,NA,NA,NA
India,Chhattisgarh,Raipur,"Krishak Nagar, Raipur - CECB",14-10-2025 07:00:00,21.237755,81.705301,CO,12,24,22
India,Chhattisgarh,Raipur,"Siltara Phase-II, Raipur - CECB",14-10-2025 07:00:00,21.371751,81.664929,NH3,3,3,3
India,Chhattisgarh,Korba,"Urja Nagar, Korba - CECB",14-10-2025 07:00:00,22.348441,82.549611,NO2,21,26,24
India,Chhattisgarh,Korba,"Urja Nagar, Korba - CECB",14-10-2025 07:00:00,22.348441,82.549611,NH3,1,2,2
India,Chhattisgarh,Korba,"Urja Nagar, Korba - CECB",14-10-2025 07:00:00,22.348441,82.549611,CO,16,42,30
India,Chhattisgarh,Korba,"Urja Nagar, Korba - CECB",14-10-2025 07:00:00,22.348441,82.549611,OZONE,35,37,35
India,Chhattisgarh,Kunjemura,"OP Jindal School, Kunjemura - CECB",14-10-2025 07:00:00,22.126650,83.483212,CO,25,34,28
India,Chhattisgarh,Bhilai,"Civic Center, Bhilai - Bhilai Steel Plant",14-10-2025 07:00:00,21.185571,81.343175,NH3,3,3,3
India,Chhattisgarh,Bhilai,"Hathkhoj, Bhilai - CECB",14-10-2025 07:00:00,21.224231,81.408350,NO2,11,68,33
India,Chhattisgarh,Bhilai,"Hathkhoj, Bhilai - CECB",14-10-2025 07:00:00,21.224231,81.408350,SO2,9,17,12
India,Chhattisgarh,Bhilai,"Hathkhoj, Bhilai - CECB",14-10-2025 07:00:00,21.224231,81.408350,OZONE,10,36,13
India,Chhattisgarh,Raipur,"AIIMS, Raipur - CECB",14-10-2025 07:00:00,21.258815,81.578979,NO2,13,20,16
India,Chhattisgarh,Raipur,"AIIMS, Raipur - CECB",14-10-2025 07:00:00,21.258815,81.578979,NH3,4,5,5
India,Chhattisgarh,Raipur,"Bhatagaon New ISBT, Raipur - CECB",14-10-2025 07:00:00,21.219665,81.630094,NH3,2,2,2
India,Chhattisgarh,Bhilai,"32Bungalows, Bhilai - CECB",14-10-2025 07:00:00,21.194815,81.314770,PM2.5,30,57,41
India,Chhattisgarh,Bhilai,"32Bungalows, Bhilai - CECB",14-10-2025 07:00:00,21.194815,81.314770,NH3,5,5,5
India,Chhattisgarh,Bhilai,"32Bungalows, Bhilai - CECB",14-10-2025 07:00:00,21.194815,81.314770,SO2,7,32,15
India,Chhattisgarh,Milupara,"Govt. Higher Secondary School, Milupara - CECB",14-10-2025 07:00:00,22.1910172,83.5197009,NO2,10,54,18
India,Chhattisgarh,Milupara,"Govt. Higher Secondary School, Milupara - CECB",14-10-2025 07:00:00,22.1910172,83.5197009,NH3,1,2,1
India,Chandigarh,Chandigarh,"Sector-25, Chandigarh - CPCC",14-10-2025 07:00:00,30.751462,76.762879,PM2.5,20,98,69
India,Chandigarh,Chandigarh,"Sector-25, Chandigarh - CPCC",14-10-2025 07:00:00,30.751462,76.762879,OZONE,3,46,5
India,Chhattisgarh,Tumidih,"OP Jindal Industrial Park, Tumidih - CECB",14-10-2025 07:00:00,22.06631475,83.33820077,PM2.5,32,70,48
India,Chhattisgarh,Chhal,"Nawapara SECL Colony, Chhal - CECB",14-10-2025 07:00:00,22.118125,83.140608,OZONE,36,115,40
India,Delhi,Delhi,"Anand Vihar, Delhi - DPCC",14-10-2025 07:00:00,28.647622,77.3158090,PM10,155,500,366
India,Delhi,Delhi,"Anand Vihar, Delhi - DPCC",14-10-2025 07:00:00,28.647622,77.3158090,NH3,2,3,2
India,Delhi,Delhi,"Ashok Vihar, Delhi - DPCC",14-10-2025 07:00:00,28.695381,77.181665,NO2,19,113,57
India,Delhi,Delhi,"Ashok Vihar, Delhi - DPCC",14-10-2025 07:00:00,28.695381,77.181665,SO2,11,27,17
India,Delhi,Delhi,"Aya Nagar, Delhi - IMD",14-10-2025 07:00:00,28.4706914,77.1099364,PM2.5,47,301,150
India,Delhi,Delhi,"Aya Nagar, Delhi - IMD",14-10-2025 07:00:00,28.4706914,77.1099364,PM10,85,244,176
India,Delhi,Delhi,"Aya Nagar, Delhi - IMD",14-10-2025 07:00:00,28.4706914,77.1099364,CO,28,68,60
India,Chhattisgarh,Tumidih,"OP Jindal Industrial Park, Tumidih - CECB",14-10-2025 07:00:00,22.06631475,83.33820077,PM10,37,114,72
India,Chhattisgarh,Tumidih,"OP Jindal Industrial Park, Tumidih - CECB",14-10-2025 07:00:00,22.06631475,83.33820077,NH3,1,2,2
India,Chhattisgarh,Tumidih,"OP Jindal Industrial Park, Tumidih - CECB",14-10-2025 07:00:00,22.06631475,83.33820077,SO2,5,9,6
India,Delhi,Delhi,"Alipur, Delhi - DPCC",14-10-2025 07:00:00,28.815329,77.153010,NH3,2,5,3
India,Delhi,Delhi,"Alipur, Delhi - DPCC",14-10-2025 07:00:00,28.815329,77.153010,CO,21,88,69
India,Delhi,Delhi,"Burari Crossing, Delhi - IMD",14-10-2025 07:00:00,28.7256504,77.2011573,PM10,125,283,184
India,Delhi,Delhi,"CRRI Mathura Road, Delhi - IMD",14-10-2025 07:00:00,28.5512005,77.2735737,NO2,12,51,26
India,Delhi,Delhi,"Chandni Chowk, Delhi - IITM",14-10-2025 07:00:00,28.656756,77.227234,PM2.5,65,234,129
India,Delhi,Delhi,"Chandni Chowk, Delhi - IITM",14-10-2025 07:00:00,28.656756,77.227234,PM10,88,409,199
India,Delhi,Delhi,"Bawana, Delhi - DPCC",14-10-2025 07:00:00,28.776200,77.051074,NO2,5,51,27
India,Delhi,Delhi,"Bawana, Delhi - DPCC",14-10-2025 07:00:00,28.776200,77.051074,NH3,4,6,5
India,Delhi,Delhi,"Bawana, Delhi - DPCC",14-10-2025 07:00:00,28.776200,77.051074,SO2,9,18,12
India,Delhi,Delhi,"IHBAS, Dilshad Garden, Delhi - CPCB",14-10-2025 07:00:00,28.6811736,77.3025234,NO2,67,83,71
India,Delhi,Delhi,"IHBAS, Dilshad Garden, Delhi - CPCB",14-10-2025 07:00:00,28.6811736,77.3025234,NH3,4,5,4
India,Delhi,Delhi,"Dr. Karni Singh Shooting Range, Delhi - DPCC",14-10-2025 07:00:00,28.498571,77.264840,PM10,126,207,167
India,Delhi,Delhi,"IGI Airport (T3), Delhi - IMD",14-10-2025 07:00:00,28.5627763,77.1180053,PM2.5,58,231,145
India,Delhi,Delhi,"Jahangirpuri, Delhi - DPCC",14-10-2025 07:00:00,28.732820,77.170633,PM2.5,88,388,253
India,Delhi,Delhi,"DTU, Delhi - CPCB",14-10-2025 07:00:00,28.7500499,77.1112615,CO,19,64,58
India,Delhi,Delhi,"Najafgarh, Delhi - DPCC",14-10-2025 07:00:00,28.570173,76.933762,NO2,112,131,123
India,Delhi,Delhi,"Najafgarh, Delhi - DPCC",14-10-2025 07:00:00,28.570173,76.933762,NH3,1,2,2
India,Delhi,Delhi,"Najafgarh, Delhi - DPCC",14-10-2025 07:00:00,28.570173,76.933762,SO2,2,6,4
India,Delhi,Delhi,"Jahangirpuri, Delhi - DPCC",14-10-2025 07:00:00,28.732820,77.170633,NO2,35,105,68
India,Delhi,Delhi,"Jahangirpuri, Delhi - DPCC",14-10-2025 07:00:00,28.732820,77.170633,SO2,3,42,16
India,Delhi,Delhi,"Major Dhyan Chand National Stadium, Delhi - DPCC",14-10-2025 07:00:00,28.611281,77.237738,SO2,8,16,11
India,Delhi,Delhi,"Major Dhyan Chand National Stadium, Delhi - DPCC",14-10-2025 07:00:00,28.611281,77.237738,NH3,13,15,14
India,Delhi,Delhi,"Jawaharlal Nehru Stadium, Delhi - DPCC",14-10-2025 07:00:00,28.580280,77.233829,NH3,4,6,6
India,Delhi,Delhi,"Mandir Marg, Delhi - DPCC",14-10-2025 07:00:00,28.636429,77.201067,PM10,94,195,135
India,Delhi,Delhi,"Najafgarh, Delhi - DPCC",14-10-2025 07:00:00,28.570173,76.933762,OZONE,4,46,7
India,Delhi,Delhi,"Mundka, Delhi - DPCC",14-10-2025 07:00:00,28.684678,77.076574,NO2,34,112,66
India,Delhi,Delhi,"Narela, Delhi - DPCC",14-10-2025 07:00:00,28.822836,77.101981,NH3,14,16,15
India,Delhi,Delhi,"North Campus, DU, Delhi - IMD",14-10-2025 07:00:00,28.6573814,77.1585447,CO,18,130,102
India,Delhi,Delhi,"North Campus, DU, Delhi - IMD",14-10-2025 07:00:00,28.6573814,77.1585447,OZONE,35,307,38
India,Delhi,Delhi,"Nehru Nagar, Delhi - DPCC",14-10-2025 07:00:00,28.567890,77.250515,CO,2,107,58
India,Delhi,Delhi,"Nehru Nagar, Delhi - DPCC",14-10-2025 07:00:00,28.567890,77.250515,OZONE,2,189,4
India,Delhi,Delhi,"Nehru Nagar, Delhi - DPCC",14-10-2025 07:00:00,28.567890,77.250515,PM2.5,85,310,205
India,Delhi,Delhi,"Sirifort, Delhi - CPCB",14-10-2025 07:00:00,28.5504249,77.2159377,NO2,35,57,47
India,Delhi,Delhi,"R K Puram, Delhi - DPCC",14-10-2025 07:00:00,28.563262,77.186937,NH3,2,4,3
India,Delhi,Delhi,"Sonia Vihar, Delhi - DPCC",14-10-2025 07:00:00,28.710508,77.249485,NH3,5,6,6
India,Delhi,Delhi,"Patparganj, Delhi - DPCC",14-10-2025 07:00:00,28.623763,77.287209,SO2,2,14,11
India,Delhi,Delhi,"Pusa, Delhi - DPCC",14-10-2025 07:00:00,28.639652,77.146275,CO,26,106,73
India,Delhi,Delhi,"Rohini, Delhi - DPCC",14-10-2025 07:00:00,28.732528,77.119920,SO2,3,15,6
India,Gujarat,Ahmedabad,"Chandkheda, Ahmedabad - IITM",14-10-2025 07:00:00,23.107969,72.574648,PM2.5,40,136,83
India,Gujarat,Ahmedabad,"Raikhad, Ahmedabad - IITM",14-10-2025 07:00:00,23.020509,72.579261,PM10,115,235,151
India,Gujarat,Ahmedabad,"Maninagar, Ahmedabad - GPCB",14-10-2025 07:00:00,23.002657,72.591912,OZONE,27,90,31
India,Gujarat,Ahmedabad,"Maninagar, Ahmedabad - GPCB",14-10-2025 07:00:00,23.002657,72.591912,PM10,18,105,55
India,Delhi,Delhi,"Sri Aurobindo Marg, Delhi - DPCC",14-10-2025 07:00:00,28.531346,77.190156,OZONE,1,113,2
India,Gujarat,Ahmedabad,"Chandkheda, Ahmedabad - IITM",14-10-2025 07:00:00,23.107969,72.574648,NO2,10,114,56
India,Gujarat,Ahmedabad,"Gyaspur, Ahmedabad - IITM",14-10-2025 07:00:00,22.977134,72.553024,NH3,2,20,7
India,Delhi,Delhi,"Wazirpur, Delhi - DPCC",14-10-2025 07:00:00,28.699793,77.165453,PM2.5,87,333,234
India,Delhi,Delhi,"Vivek Vihar, Delhi - DPCC",14-10-2025 07:00:00,28.672342,77.315260,OZONE,2,43,4
India,Gujarat,Ahmedabad,"SVPI Airport Hansol, Ahmedabad - IITM",14-10-2025 07:00:00,23.076793,72.627874,NO2,34,112,65
India,Gujarat,Ahmedabad,"SVPI Airport Hansol, Ahmedabad - IITM",14-10-2025 07:00:00,23.076793,72.627874,SO2,7,15,10
India,Gujarat,Ahmedabad,"SAC ISRO Bopal, Ahmedabad - IITM",14-10-2025 07:00:00,23.041137,72.456691,PM2.5,133,345,256
India,Gujarat,Ahmedabad,"SAC ISRO Bopal, Ahmedabad - IITM",14-10-2025 07:00:00,23.041137,72.456691,PM10,114,252,171
India,Gujarat,Ankleshwar,"GIDC, Ankleshwar - GPCB",14-10-2025 07:00:00,21.613267,73.010555,PM10,68,90,74
India,Gujarat,Ankleshwar,"GIDC, Ankleshwar - GPCB",14-10-2025 07:00:00,21.613267,73.010555,NO2,22,34,28
India,Gujarat,Nandesari,"GIDC, Nandesari - Nandesari Ind. Association",14-10-2025 07:00:00,22.410802,73.097923,PM10,82,198,142
India,Gujarat,Gandhinagar,"IIPHG Lekawada, Gandhinagar - IITM",14-10-2025 07:00:00,23.243639,72.68994,OZONE,2,31,5
India,Gujarat,Ahmedabad,"SAC ISRO Satellite, Ahmedabad - IITM",14-10-2025 07:00:00,23.023389,72.515201,NH3,NA,NA,NA
India,Gujarat,Gandhinagar,"GIFT City, Gandhinagar - IITM",14-10-2025 07:00:00,23.163798,72.677768,NO2,8,67,32
India,Gujarat,Ahmedabad,"Raikhad, Ahmedabad - IITM",14-10-2025 07:00:00,23.020509,72.579261,NO2,26,127,79
India,Gujarat,Surat,"Science Center, Surat - SMC",14-10-2025 07:00:00,21.170046,72.795405,SO2,18,24,21
India,Haryana,Palwal,"Shyam Nagar, Palwal - HSPCB",14-10-2025 07:00:00,28.1485564,77.3320667,OZONE,23,25,24
India,Haryana,Panchgaon,"Amity University, Panchgaon - IITM",14-10-2025 07:00:00,28.3153,76.9143,OZONE,1,83,2
India,Haryana,Panchkula,"Sector-6, Panchkula - HSPCB ",14-10-2025 07:00:00,30.7057778,76.8531805555555,PM2.5,68,218,120
India,Haryana,Panchkula,"Sector-6, Panchkula - HSPCB ",14-10-2025 07:00:00,30.7057778,76.8531805555555,NO2,26,29,27
India,Haryana,Panipat,"Sector-18, Panipat - HSPCB",14-10-2025 07:00:00,29.432304,76.972765,PM2.5,91,267,163
India,Haryana,Jind,"Police Lines, Jind - HSPCB",14-10-2025 07:00:00,29.307814,76.337619,PM10,37,72,57
India,Haryana,Karnal,"Sector-12, Karnal - HSPCB",14-10-2025 07:00:00,29.695300,77.002700,PM10,NA,NA,NA
India,Haryana,Karnal,"Sector-12, Karnal - HSPCB",14-10-2025 07:00:00,29.695300,77.002700,SO2,NA,NA,NA
India,Haryana,Kurukshetra,"Sector-7, Kurukshetra - HSPCB",14-10-2025 07:00:00,29.966942,76.875879,PM10,NA,NA,NA
India,Haryana,Kurukshetra,"Sector-7, Kurukshetra - HSPCB",14-10-2025 07:00:00,29.966942,76.875879,NO2,NA,NA,NA
India,Haryana,Kurukshetra,"Sector-7, Kurukshetra - HSPCB",14-10-2025 07:00:00,29.966942,76.875879,SO2,5,14,9
India,Haryana,Faridabad,"Sector 30, Faridabad - HSPCB",14-10-2025 07:00:00,28.4417,77.3217,PM2.5,40,43,42
India,Haryana,Faridabad,"Sector 30, Faridabad - HSPCB",14-10-2025 07:00:00,28.4417,77.3217,OZONE,17,19,18
India,Haryana,Fatehabad,"Huda Sector, Fatehabad - HSPCB",14-10-2025 07:00:00,29.503664,75.467934,NO2,18,20,19
India,Haryana,Fatehabad,"Huda Sector, Fatehabad - HSPCB",14-10-2025 07:00:00,29.503664,75.467934,SO2,NA,NA,NA
India,Haryana,Ballabgarh,"Nathu Colony, Ballabgarh - HSPCB",14-10-2025 07:00:00,28.3419248,77.319699,OZONE,15,15,15
India,Haryana,Charkhi Dadri,"Mini Secretariat, Charkhi Dadri - HSPCB",14-10-2025 07:00:00,28.593883,76.270653,NO2,9,24,15
India,Gujarat,Vapi,"Phase-1 GIDC, Vapi - GPCB",14-10-2025 07:00:00,20.362421,72.918013,NH3,NA,NA,NA
India,Gujarat,Vatva,"Phase-4 GIDC, Vatva - GPCB",14-10-2025 07:00:00,22.969611,72.643500,PM2.5,83,84,83
India,Haryana,Faridabad,"New Industrial Town, Faridabad - HSPCB",14-10-2025 07:00:00,28.39072,77.30059,PM10,110,117,113
India,Haryana,Bahadurgarh,"Arya Nagar, Bahadurgarh - HSPCB",14-10-2025 07:00:00,28.6701,76.9254,PM10,166,361,235
India,Haryana,Faridabad,"Sector 11, Faridabad - HSPCB",14-10-2025 07:00:00,28.376058,77.315741,NH3,6,6,6
India,Gujarat,Vatva,"Phase-4 GIDC, Vatva - GPCB",14-10-2025 07:00:00,22.969611,72.643500,NH3,1,6,3
India,Karnataka,Chamarajanagar,"Urban, Chamarajanagar - KSPCB",14-10-2025 07:00:00,11.55358,76.55521,SO2,2,5,4
India,Karnataka,Chamarajanagar,"Urban, Chamarajanagar - KSPCB",14-10-2025 07:00:00,11.55358,76.55521,CO,14,119,27
India,Karnataka,Chamarajanagar,"Urban, Chamarajanagar - KSPCB",14-10-2025 07:00:00,11.55358,76.55521,OZONE,14,30,16
India,Karnataka,Chikkamagaluru,"Kalyana Nagara, Chikkamagaluru - KSPCB",14-10-2025 07:00:00,13.328028,75.797056,PM2.5,40,83,60
India,Karnataka,Chikkamagaluru,"Kalyana Nagara, Chikkamagaluru - KSPCB",14-10-2025 07:00:00,13.328028,75.797056,NH3,2,3,3
India,Karnataka,Davanagere,"Devaraj Urs Badavane, Davanagere - KSPCB",14-10-2025 07:00:00,14.475800,75.905200,PM2.5,48,332,110
India,Karnataka,Dharwad,"Kalabhavan, Dharwad - KSPCB",14-10-2025 07:00:00,15.459706,75.008381,NO2,16,16,16
India,Karnataka,Dharwad,"Kalabhavan, Dharwad - KSPCB",14-10-2025 07:00:00,15.459706,75.008381,CO,30,53,43
India,Karnataka,Hubballi,"Lingaraj Nagar, Hubballi - KSPCB",14-10-2025 07:00:00,15.3714823,75.1160168,PM2.5,35,38,36
India,Karnataka,Hubballi,"Lingaraj Nagar, Hubballi - KSPCB",14-10-2025 07:00:00,15.3714823,75.1160168,NH3,2,2,2
India,Karnataka,Mysuru,"Hebbal 1st Stage, Mysuru - KSPCB",14-10-2025 07:00:00,12.21041,76.37376,PM2.5,29,72,46
India,Karnataka,Mysuru,"Hebbal 1st Stage, Mysuru - KSPCB",14-10-2025 07:00:00,12.21041,76.37376,PM10,53,101,70
India,Karnataka,Mysuru,"Hebbal 1st Stage, Mysuru - KSPCB",14-10-2025 07:00:00,12.21041,76.37376,NO2,20,26,21
India,Karnataka,Ramanagara,"Vijay Nagar, Ramanagara - KSPCB",14-10-2025 07:00:00,12.733409,77.298051,SO2,14,21,17
India,Karnataka,Ramanagara,"Vijay Nagar, Ramanagara - KSPCB",14-10-2025 07:00:00,12.733409,77.298051,CO,2,28,13
India,Karnataka,Shivamogga,"Vinoba Nagara, Shivamogga - KSPCB",14-10-2025 07:00:00,13.940000,75.555917,NH3,1,4,3
India,Karnataka,Vijayapura,"Ibrahimpur, Vijayapura - KSPCB",14-10-2025 07:00:00,16.802639,75.722694,PM10,43,44,44
India,Karnataka,Vijayapura,"Ibrahimpur, Vijayapura - KSPCB",14-10-2025 07:00:00,16.802639,75.722694,CO,18,120,35
India,Karnataka,Yadgir,"Collector Office, Yadgir - KSPCB",14-10-2025 07:00:00,16.7602,77.1428,PM2.5,56,95,73
India,Karnataka,Hubballi,"Lingaraj Nagar, Hubballi - KSPCB",14-10-2025 07:00:00,15.3714823,75.1160168,CO,10,22,13
India,Karnataka,Hubballi,"Lingaraj Nagar, Hubballi - KSPCB",14-10-2025 07:00:00,15.3714823,75.1160168,OZONE,14,14,14
India,Karnataka,Kalaburagi,"Mahatma Basaveswar Colony, Kalaburgi - KSPCB",14-10-2025 07:00:00,17.336318,76.847397,SO2,2,5,3
India,Karnataka,Kalaburagi,"Mahatma Basaveswar Colony, Kalaburgi - KSPCB",14-10-2025 07:00:00,17.336318,76.847397,OZONE,13,22,13
India,Karnataka,Karwar,"KHB Colony, Karwar - KSPCB",14-10-2025 07:00:00,14.816666,74.141003,SO2,25,25,25
India,Karnataka,Karwar,"KHB Colony, Karwar - KSPCB",14-10-2025 07:00:00,14.816666,74.141003,CO,10,10,10
India,Karnataka,Koppal,"Diwator Nagar, Koppal - KSPCB",14-10-2025 07:00:00,15.347630,76.181767,NO2,NA,NA,NA
India,Karnataka,Koppal,"Diwator Nagar, Koppal - KSPCB",14-10-2025 07:00:00,15.347630,76.181767,NH3,NA,NA,NA
India,Karnataka,Mangalore,"Kadri, Mangalore - KSPCB",14-10-2025 07:00:00,12.889250,74.853000,PM2.5,NA,NA,NA
India,Jharkhand,Dhanbad,"Sardar Patel Nagar, Dhanbad - JSPCB",14-10-2025 07:00:00,23.80569,86.44268,SO2,27,29,28
India,Jharkhand,Dhanbad,"Sardar Patel Nagar, Dhanbad - JSPCB",14-10-2025 07:00:00,23.80569,86.44268,OZONE,1,26,2
India,Karnataka,Bengaluru,"BTM Layout, Bengaluru - CPCB",14-10-2025 07:00:00,12.9135218,77.5950804,PM10,NA,NA,NA
India,Karnataka,Bengaluru,"BTM Layout, Bengaluru - CPCB",14-10-2025 07:00:00,12.9135218,77.5950804,SO2,NA,NA,NA
India,Karnataka,Bengaluru,"BTM Layout, Bengaluru - CPCB",14-10-2025 07:00:00,12.9135218,77.5950804,CO,12,28,23
India,Karnataka,Bengaluru,"Bapuji Nagar, Bengaluru - KSPCB",14-10-2025 07:00:00,12.951913,77.539784,PM10,72,169,129
India,Karnataka,Bengaluru,"Bapuji Nagar, Bengaluru - KSPCB",14-10-2025 07:00:00,12.951913,77.539784,OZONE,8,51,14
India,Karnataka,Bengaluru,"City Railway Station, Bengaluru - KSPCB",14-10-2025 07:00:00,12.9756843,77.5660749,PM10,86,102,94
India,Karnataka,Bengaluru,"Peenya, Bengaluru - CPCB",14-10-2025 07:00:00,13.0270199,77.494094,CO,14,41,23
India,Karnataka,Bengaluru,"Shivapura_Peenya, Bengaluru - KSPCB",14-10-2025 07:00:00,13.0246342,77.5080115,PM2.5,83,170,125
India,Karnataka,Bengaluru,"Shivapura_Peenya, Bengaluru - KSPCB",14-10-2025 07:00:00,13.0246342,77.5080115,NO2,24,26,25
India,Karnataka,Bengaluru,"Silk Board, Bengaluru - KSPCB",14-10-2025 07:00:00,12.917348,77.622813,PM10,45,206,120
India,Karnataka,Bengaluru,"Silk Board, Bengaluru - KSPCB",14-10-2025 07:00:00,12.917348,77.622813,CO,4,26,8
India,Karnataka,Bengaluru,"Silk Board, Bengaluru - KSPCB",14-10-2025 07:00:00,12.917348,77.622813,OZONE,10,11,11
India,Karnataka,Chamarajanagar,"Urban, Chamarajanagar - KSPCB",14-10-2025 07:00:00,11.55358,76.55521,NO2,15,30,24
India,Karnataka,Chamarajanagar,"Urban, Chamarajanagar - KSPCB",14-10-2025 07:00:00,11.55358,76.55521,NH3,1,2,2
India,Haryana,Rohtak,"MD University, Rohtak - HSPCB",14-10-2025 07:00:00,28.52123,76.37138,PM2.5,NA,NA,NA
India,Haryana,Rohtak,"MD University, Rohtak - HSPCB",14-10-2025 07:00:00,28.52123,76.37138,CO,19,34,30
India,Haryana,Sirsa,"F-Block, Sirsa - HSPCB",14-10-2025 07:00:00,29.536400,75.015800,CO,46,72,61
India,Jammu_and_Kashmir,Srinagar,"Rajbagh, Srinagar - JKSPCB",14-10-2025 07:00:00,34.066206,74.819820,PM2.5,NA,NA,NA
India,Jammu_and_Kashmir,Srinagar,"Rajbagh, Srinagar - JKSPCB",14-10-2025 07:00:00,34.066206,74.819820,CO,13,16,15
India,Jharkhand,Dhanbad,"Sardar Patel Nagar, Dhanbad - JSPCB",14-10-2025 07:00:00,23.80569,86.44268,PM2.5,12,98,51
India,Karnataka,Bengaluru,"Kasturi Nagar, Bengaluru - KSPCB",14-10-2025 07:00:00,13.003872,77.664217,NH3,5,6,6
India,Karnataka,Bengaluru,"Kasturi Nagar, Bengaluru - KSPCB",14-10-2025 07:00:00,13.003872,77.664217,CO,18,44,35
India,Karnataka,Bengaluru,"Kasturi Nagar, Bengaluru - KSPCB",14-10-2025 07:00:00,13.003872,77.664217,OZONE,24,24,24
India,Karnataka,Bengaluru,"Peenya, Bengaluru - CPCB",14-10-2025 07:00:00,13.0270199,77.494094,PM2.5,18,72,40
India,Karnataka,Bengaluru,"Peenya, Bengaluru - CPCB",14-10-2025 07:00:00,13.0270199,77.494094,SO2,1,14,5
India,Kerala,Eloor,"Udyogamandal, Eloor - Kerala PCB",14-10-2025 07:00:00,10.073232,76.302765,PM2.5,42,69,54
India,Kerala,Eloor,"Udyogamandal, Eloor - Kerala PCB",14-10-2025 07:00:00,10.073232,76.302765,SO2,1,1,1
India,Kerala,Eloor,"Udyogamandal, Eloor - Kerala PCB",14-10-2025 07:00:00,10.073232,76.302765,OZONE,10,13,12
India,Kerala,Kollam,"Polayathode, Kollam - Kerala PCB",14-10-2025 07:00:00,8.8787,76.6073,NH3,1,1,1
India,Kerala,Thiruvananthapuram,"Plammoodu, Thiruvananthapuram - Kerala PCB",14-10-2025 07:00:00,8.5149093,76.9435879,PM2.5,3,130,53
India,Kerala,Thrissur,"Corporation Ground, Thrissur - Kerala PCB",14-10-2025 07:00:00,10.532400,76.215900,NO2,8,10,9
India,Kerala,Thrissur,"Corporation Ground, Thrissur - Kerala PCB",14-10-2025 07:00:00,10.532400,76.215900,SO2,1,1,1
India,Madhya Pradesh,Satna,"Bandhavgar Colony, Satna - Birla Cement",14-10-2025 07:00:00,24.58434363,80.8549414,NO2,22,32,28
India,Madhya Pradesh,Satna,"Bandhavgar Colony, Satna - Birla Cement",14-10-2025 07:00:00,24.58434363,80.8549414,SO2,20,23,20
India,Madhya Pradesh,Satna,"Bandhavgar Colony, Satna - Birla Cement",14-10-2025 07:00:00,24.58434363,80.8549414,CO,17,42,23
India,Madhya Pradesh,Singrauli,"Suryakiran Bhawan NCL, Singrauli - MPPCB",14-10-2025 07:00:00,24.108970,82.645580,PM10,112,184,139
India,Madhya Pradesh,Singrauli,"Suryakiran Bhawan NCL, Singrauli - MPPCB",14-10-2025 07:00:00,24.108970,82.645580,NO2,16,17,17
India,Madhya Pradesh,Singrauli,"Suryakiran Bhawan NCL, Singrauli - MPPCB",14-10-2025 07:00:00,24.108970,82.645580,CO,12,14,12
India,Maharashtra,Ahmednagar,"Tarakpur, Ahmednagar - MPCB",14-10-2025 07:00:00,19.10122,74.73339,PM10,58,123,85
India,Maharashtra,Ahmednagar,"Tarakpur, Ahmednagar - MPCB",14-10-2025 07:00:00,19.10122,74.73339,CO,12,103,23
India,Maharashtra,Ahmednagar,"Tarakpur, Ahmednagar - MPCB",14-10-2025 07:00:00,19.10122,74.73339,OZONE,4,73,15
India,Maharashtra,Akola,"Ramdaspeth, Akola - MPCB",14-10-2025 07:00:00,20.719516,77.000253,NO2,10,55,20
India,Maharashtra,Amravati,"Shivneri Colony, Amravati - MPCB",14-10-2025 07:00:00,20.9402359,77.7895248,PM10,74,200,121
India,Madhya Pradesh,Gwalior,"Deen Dayal Nagar, Gwalior - MPPCB",14-10-2025 07:00:00,26.259242,78.216432,PM2.5,44,247,86
India,Madhya Pradesh,Gwalior,"Deen Dayal Nagar, Gwalior - MPPCB",14-10-2025 07:00:00,26.259242,78.216432,SO2,11,16,14
India,Madhya Pradesh,Gwalior,"Maharaj Bada, Gwalior - MPPCB",14-10-2025 07:00:00,26.200388,78.147714,PM10,85,328,134
