country,state,city,station,last_update,latitude,longitude,pollutant_id,min_value,max_value,avg_value
India,Assam,Sivasagar,"Girls College, Sivasagar - PCBA",09-04-2026 09:00:00,26.987634,94.636574,CO,15,30,24
India,Bihar,Araria,"Kharahiya Basti, Araria - BSPCB",09-04-2026 09:00:00,26.146529,87.454184,PM10,18,98,62
India,Bihar,Araria,"Kharahiya Basti, Araria - BSPCB",09-04-2026 09:00:00,26.146529,87.454184,CO,66,106,92
India,Bihar,Araria,"Kharahiya Basti, Araria - BSPCB",09-04-2026 09:00:00,26.146529,87.454184,OZONE,9,11,10
India,Bihar,Arrah,"New DM Office, Arrah - BSPCB",09-04-2026 09:00:00,25.5626095,84.663264,PM10,34,125,57
India,Bihar,Begusarai,"Lohiyanagar, Begusarai - BSPCB",09-04-2026 09:00:00,25.42742023,86.13886079,CO,16,20,17
India,Bihar,Bettiah,"Kamalnath Nagar, Bettiah - BSPCB",09-04-2026 09:00:00,26.80365,84.51954,NH3,1,1,1
India,Andhra_Pradesh,Eluru,"District Court, Eluru - APPCB",09-04-2026 09:00:00,16.711754,81.092095,SO2,7,12,8
India,Andhra_Pradesh,Kadapa,"Yerramukkapalli, Kadapa - APPCB",09-04-2026 09:00:00,14.465052,78.824187,PM2.5,55,81,71
India,Andhra_Pradesh,Kadapa,"Yerramukkapalli, Kadapa - APPCB",09-04-2026 09:00:00,14.465052,78.824187,SO2,12,20,13
India,Andhra_Pradesh,Kadapa,"Yerramukkapalli, Kadapa - APPCB",09-04-2026 09:00:00,14.465052,78.824187,CO,20,40,22
India,Andhra_Pradesh,Machilipatnam,"Srinivas Nagar Colony, Machilipatnam - APPCB",09-04-2026 09:00:00,16.186555,81.13219,PM10,NA,NA,NA
India,Andhra_Pradesh,Machilipatnam,"Srinivas Nagar Colony, Machilipatnam - APPCB",09-04-2026 09:00:00,16.186555,81.13219,SO2,NA,NA,NA
India,Andhra_Pradesh,Nellore,"Ambedkar Nagar, Nellore - APPCB ",09-04-2026 09:00:00,14.438164 ,79.966814 ,PM2.5,37,97,60
India,Andhra_Pradesh,Tirupati,"Vaikuntapuram, Tirupati - APPCB",09-04-2026 09:00:00,13.615387,79.409230,NH3,5,6,5
India,Andhra_Pradesh,Vijayawada,"HB Colony, Vijayawada - APPCB",09-04-2026 09:00:00,16.536107,80.594233,PM10,38,109,83
India,Andhra_Pradesh,Vijayawada,"HB Colony, Vijayawada - APPCB",09-04-2026 09:00:00,16.536107,80.594233,NO2,18,30,23
India,Andhra_Pradesh,Vijayawada,"HB Colony, Vijayawada - APPCB",09-04-2026 09:00:00,16.536107,80.594233,NH3,3,7,5
India,Andhra_Pradesh,Vijayawada,"HB Colony, Vijayawada - APPCB",09-04-2026 09:00:00,16.536107,80.594233,OZONE,24,43,36
India,Andhra_Pradesh,Vijayawada,"Rajiv Gandhi Park, Vijayawada - APPCB",09-04-2026 09:00:00,16.509717,80.612222,NH3,5,7,6
India,Assam,Guwahati,"Railway Colony, Guwahati - PCBA",09-04-2026 09:00:00,26.181742,91.78063,NO2,3,4,3
India,Assam,Guwahati,"Railway Colony, Guwahati - PCBA",09-04-2026 09:00:00,26.181742,91.78063,SO2,1,14,6
India,Assam,Nagaon,"Christianpatty, Nagaon - PCBA",09-04-2026 09:00:00,26.349082,92.68449,NO2,1,221,16
India,Assam,Nagaon,"Christianpatty, Nagaon - PCBA",09-04-2026 09:00:00,26.349082,92.68449,CO,10,26,22
India,Assam,Nalbari,"Bata Chowk, Nalbari - PCBA",09-04-2026 09:00:00,26.446912,91.439057,NO2,14,15,14
India,Assam,Nalbari,"Bata Chowk, Nalbari - PCBA",09-04-2026 09:00:00,26.446912,91.439057,OZONE,13,16,16
India,Andhra_Pradesh,Nellore,"Ambedkar Nagar, Nellore - APPCB ",09-04-2026 09:00:00,14.438164 ,79.966814 ,NO2,14,17,15
India,Andhra_Pradesh,Nellore,"Ambedkar Nagar, Nellore - APPCB ",09-04-2026 09:00:00,14.438164 ,79.966814 ,CO,4,21,12
India,Andhra_Pradesh,Rajamahendravaram,"Anand Kala Kshetram, Rajamahendravaram - APPCB",09-04-2026 09:00:00,16.9872867,81.7363176,SO2,5,12,7
India,Andhra_Pradesh,Rajamahendravaram,"Anand Kala Kshetram, Rajamahendravaram - APPCB",09-04-2026 09:00:00,16.9872867,81.7363176,CO,22,38,27
India,Andhra_Pradesh,Tirumala,"Toll Gate, Tirumala - APPCB",09-04-2026 09:00:00,13.67,79.35,PM10,47,88,69
India,Andhra_Pradesh,Vijayawada,"Rajiv Nagar, Vijayawada - APPCB",09-04-2026 09:00:00,16.554731,80.649110,NH3,4,7,6
India,Andhra_Pradesh,Visakhapatnam,"GVM Corporation, Visakhapatnam - APPCB",09-04-2026 09:00:00,17.72,83.3,PM2.5,42,117,74
India,Andhra_Pradesh,Visakhapatnam,"GVM Corporation, Visakhapatnam - APPCB",09-04-2026 09:00:00,17.72,83.3,PM10,92,279,135
India,Andhra_Pradesh,Visakhapatnam,"GVM Corporation, Visakhapatnam - APPCB",09-04-2026 09:00:00,17.72,83.3,NH3,3,4,3
India,Andhra_Pradesh,Visakhapatnam,"GVM Corporation, Visakhapatnam - APPCB",09-04-2026 09:00:00,17.72,83.3,OZONE,5,40,12
India,Andhra_Pradesh,Anantapur,"Gulzarpet, Anantapur - APPCB",09-04-2026 09:00:00,14.675886,77.593027,NO2,NA,NA,NA
India,Andhra_Pradesh,Chittoor,"Gangineni Cheruvu, Chittoor - APPCB",09-04-2026 09:00:00,13.204880,79.097889,PM10,36,70,47
India,Andaman and Nicobar,Sri Vijaya Puram,"Police Line, Sri Vijaya Puram - ANPCC",09-04-2026 09:00:00,11.654054,92.734055,PM2.5,NA,NA,NA
India,Andaman and Nicobar,Sri Vijaya Puram,"Police Line, Sri Vijaya Puram - ANPCC",09-04-2026 09:00:00,11.654054,92.734055,OZONE,NA,NA,NA
India,Assam,Guwahati,"LGBI Airport, Guwahati - PCBA",09-04-2026 09:00:00,26.10887,91.589544,NO2,14,28,17
India,Assam,Guwahati,"LGBI Airport, Guwahati - PCBA",09-04-2026 09:00:00,26.10887,91.589544,NH3,2,28,5
India,Assam,Guwahati,"Pan Bazaar, Guwahati - PCBA",09-04-2026 09:00:00,26.187500,91.744194,SO2,10,11,11
India,Bihar,Gaya,"Kareemganj, Gaya - BSPCB",09-04-2026 09:00:00,24.792403,84.992416,OZONE,22,81,34
India,Bihar,Gaya,"SFTI Kusdihra, Gaya - BSPCB",09-04-2026 09:00:00,24.762518,84.982348,PM2.5,23,47,37
India,Bihar,Gaya,"SFTI Kusdihra, Gaya - BSPCB",09-04-2026 09:00:00,24.762518,84.982348,NH3,3,5,4
India,Bihar,Hajipur,"Industrial Area, Hajipur - BSPCB",09-04-2026 09:00:00,25.697189,85.245900,NO2,13,40,18
India,Bihar,Buxar,"Charitra Van, Buxar - BSPCB",09-04-2026 09:00:00,25.567520,83.966379,NH3,3,3,3
India,Bihar,Buxar,"Charitra Van, Buxar - BSPCB",09-04-2026 09:00:00,25.567520,83.966379,SO2,23,37,33
India,Bihar,Buxar,"Charitra Van, Buxar - BSPCB",09-04-2026 09:00:00,25.567520,83.966379,CO,19,33,25
India,Bihar,Chhapra,"Darshan Nagar, Chhapra - BSPCB",09-04-2026 09:00:00,25.7808257,84.7446768,PM2.5,75,98,87
India,Bihar,Muzaffarpur,"Buddha Colony, Muzaffarpur - BSPCB",09-04-2026 09:00:00,26.11442,85.39813,PM10,83,161,125
India,Bihar,Muzaffarpur,"Buddha Colony, Muzaffarpur - BSPCB",09-04-2026 09:00:00,26.11442,85.39813,NO2,34,53,40
India,Bihar,Muzaffarpur,"Buddha Colony, Muzaffarpur - BSPCB",09-04-2026 09:00:00,26.11442,85.39813,SO2,4,9,7
India,Bihar,Bhagalpur,"Mayaganj, Bhagalpur - BSPCB",09-04-2026 09:00:00,25.265194,87.012947,NO2,7,8,7
India,Bihar,Bhagalpur,"Mayaganj, Bhagalpur - BSPCB",09-04-2026 09:00:00,25.265194,87.012947,SO2,45,61,50
India,Bihar,Kishanganj,"SDM Office_Khagra, Kishanganj - BSPCB",09-04-2026 09:00:00,26.0881305,87.93840336,PM10,18,37,28
India,Bihar,Muzaffarpur,"Muzaffarpur Collectorate, Muzaffarpur - BSPCB",09-04-2026 09:00:00,26.1209,85.3647,OZONE,2,10,3
India,Bihar,Manguraha,"Forest Rest House, Manguraha - BSPCB",09-04-2026 09:00:00,27.308328,84.531742,PM10,NA,NA,NA
India,Bihar,Bihar Sharif,"D M Colony, Bihar Sharif - BSPCB",09-04-2026 09:00:00,25.204762,85.514960,OZONE,1,2,2
India,Bihar,Bhagalpur,"Mayaganj, Bhagalpur - BSPCB",09-04-2026 09:00:00,25.265194,87.012947,OZONE,7,33,10
India,Bihar,Patna,"Govt. High School Shikarpur, Patna - BSPCB",09-04-2026 09:00:00,25.592539,85.227158,CO,23,66,38
India,Bihar,Patna,"IGSC Planetarium Complex, Patna - BSPCB",09-04-2026 09:00:00,25.610369,85.132568,PM2.5,59,194,100
India,Bihar,Patna,"Muradpur, Patna - BSPCB",09-04-2026 09:00:00,25.619651,85.147382,NO2,10,12,11
India,Bihar,Patna,"Muradpur, Patna - BSPCB",09-04-2026 09:00:00,25.619651,85.147382,OZONE,14,94,26
India,Bihar,Patna,"Rajbansi Nagar, Patna - BSPCB",09-04-2026 09:00:00,25.599486,85.113666,NH3,2,3,3
India,Bihar,Samastipur,"DM Office_Kasipur, Samastipur - BSPCB",09-04-2026 09:00:00,25.859655,85.77944,OZONE,7,9,8
India,Bihar,Sasaram,"Dada Peer, Sasaram - BSPCB",09-04-2026 09:00:00,24.952822,84.002396,PM2.5,25,55,33
India,Bihar,Sasaram,"Dada Peer, Sasaram - BSPCB",09-04-2026 09:00:00,24.952822,84.002396,NH3,2,8,4
India,Bihar,Sasaram,"Dada Peer, Sasaram - BSPCB",09-04-2026 09:00:00,24.952822,84.002396,OZONE,2,42,24
India,Bihar,Siwan,"Chitragupta Nagar, Siwan - BSPCB",09-04-2026 09:00:00,26.2271665,84.3570427,PM2.5,12,75,30
India,Bihar,Siwan,"Chitragupta Nagar, Siwan - BSPCB",09-04-2026 09:00:00,26.2271665,84.3570427,NH3,1,1,1
India,Bihar,Purnia,"Mariam Nagar, Purnia - BSPCB",09-04-2026 09:00:00,25.366336,87.117468,PM2.5,53,68,59
India,Bihar,Purnia,"Mariam Nagar, Purnia - BSPCB",09-04-2026 09:00:00,25.366336,87.117468,PM10,43,54,47
India,Bihar,Rajgir,"Dangi Tola, Rajgir - BSPCB",09-04-2026 09:00:00,25.03280,85.41948,PM2.5,32,83,53
India,Bihar,Samastipur,"DM Office_Kasipur, Samastipur - BSPCB",09-04-2026 09:00:00,25.859655,85.77944,PM2.5,48,167,80
India,Chandigarh,Chandigarh,"Sector 22, Chandigarh - CPCC",09-04-2026 09:00:00,30.735567,76.775714,NH3,13,23,18
India,Chandigarh,Chandigarh,"Sector-25, Chandigarh - CPCC",09-04-2026 09:00:00,30.751462,76.762879,CO,10,20,14
India,Bihar,Saharsa,"Police Line, Saharsa - BSPCB",09-04-2026 09:00:00,25.892357,86.590325,PM2.5,7,140,43
India,Chandigarh,Chandigarh,"Sector 22, Chandigarh - CPCC",09-04-2026 09:00:00,30.735567,76.775714,CO,57,90,70
India,Chhattisgarh,Bhilai,"Hathkhoj, Bhilai - CECB",09-04-2026 09:00:00,21.224231,81.408350,OZONE,5,16,10
India,Chhattisgarh,Bilaspur,"Mangala, Bilaspur - NTPC",09-04-2026 09:00:00,22.08815,82.13737,PM2.5,37,90,65
India,Chhattisgarh,Bilaspur,"Mangala, Bilaspur - NTPC",09-04-2026 09:00:00,22.08815,82.13737,SO2,14,43,22
India,Chhattisgarh,Chhal,"Nawapara SECL Colony, Chhal - CECB",09-04-2026 09:00:00,22.118125,83.140608,PM10,32,63,50
India,Chhattisgarh,Chhal,"Nawapara SECL Colony, Chhal - CECB",09-04-2026 09:00:00,22.118125,83.140608,NO2,7,16,11
India,Chhattisgarh,Chhal,"Nawapara SECL Colony, Chhal - CECB",09-04-2026 09:00:00,22.118125,83.140608,SO2,2,55,16
India,Chhattisgarh,Korba,"Rampur, Korba - CECB",09-04-2026 09:00:00,22.368195,82.746431,SO2,NA,NA,NA
India,Chhattisgarh,Raipur,"AIIMS, Raipur - CECB",09-04-2026 09:00:00,21.258815,81.578979,PM10,60,121,87
India,Chhattisgarh,Raipur,"Bhatagaon New ISBT, Raipur - CECB",09-04-2026 09:00:00,21.219665,81.630094,PM10,36,84,57
India,Chhattisgarh,Raipur,"Bhatagaon New ISBT, Raipur - CECB",09-04-2026 09:00:00,21.219665,81.630094,SO2,1,42,10
India,Chhattisgarh,Raipur,"Krishak Nagar, Raipur - CECB",09-04-2026 09:00:00,21.237755,81.705301,PM2.5,37,70,51
India,Chhattisgarh,Korba,"Urja Nagar, Korba - CECB",09-04-2026 09:00:00,22.348441,82.549611,SO2,6,29,17
India,Chhattisgarh,Korba,"Urja Nagar, Korba - CECB",09-04-2026 09:00:00,22.348441,82.549611,OZONE,2,8,2
India,Chhattisgarh,Kunjemura,"OP Jindal School, Kunjemura - CECB",09-04-2026 09:00:00,22.126650,83.483212,PM10,27,67,49
India,Chhattisgarh,Bhilai,"Civic Center, Bhilai - Bhilai Steel Plant",09-04-2026 09:00:00,21.185571,81.343175,PM10,43,77,56
India,Chhattisgarh,Bhilai,"Civic Center, Bhilai - Bhilai Steel Plant",09-04-2026 09:00:00,21.185571,81.343175,NO2,13,14,13
India,Chhattisgarh,Bhilai,"Civic Center, Bhilai - Bhilai Steel Plant",09-04-2026 09:00:00,21.185571,81.343175,NH3,3,3,3
India,Chhattisgarh,Bhilai,"Civic Center, Bhilai - Bhilai Steel Plant",09-04-2026 09:00:00,21.185571,81.343175,CO,25,32,26
India,Chhattisgarh,Raipur,"Krishak Nagar, Raipur - CECB",09-04-2026 09:00:00,21.237755,81.705301,NH3,2,2,2
India,Chhattisgarh,Raipur,"Krishak Nagar, Raipur - CECB",09-04-2026 09:00:00,21.237755,81.705301,CO,8,32,23
India,Chhattisgarh,Raipur,"Siltara Phase-II, Raipur - CECB",09-04-2026 09:00:00,21.371751,81.664929,PM10,41,121,82
India,Chhattisgarh,Milupara,"Govt. Higher Secondary School, Milupara - CECB",09-04-2026 09:00:00,22.1910172,83.5197009,SO2,NA,NA,NA
India,Chhattisgarh,Milupara,"Govt. Higher Secondary School, Milupara - CECB",09-04-2026 09:00:00,22.1910172,83.5197009,CO,12,30,12
India,Chhattisgarh,Milupara,"Govt. Higher Secondary School, Milupara - CECB",09-04-2026 09:00:00,22.1910172,83.5197009,OZONE,49,127,55
India,Chhattisgarh,Milupara,"Govt. Higher Secondary School, Milupara - CECB",09-04-2026 09:00:00,22.1910172,83.5197009,PM2.5,NA,NA,NA
India,Chhattisgarh,Bhilai,"Hathkhoj, Bhilai - CECB",09-04-2026 09:00:00,21.224231,81.408350,PM2.5,26,47,37
India,Chhattisgarh,Bhilai,"Hathkhoj, Bhilai - CECB",09-04-2026 09:00:00,21.224231,81.408350,SO2,11,47,24
India,Delhi,Delhi,"IGNOU_Maidan Garhi, Delhi - DPCC",09-04-2026 09:00:00,28.493624 ,77.201159 ,PM10,56,111,77
India,Delhi,Delhi,"IGNOU_Maidan Garhi, Delhi - DPCC",09-04-2026 09:00:00,28.493624 ,77.201159 ,NH3,2,5,3
India,Delhi,Delhi,"IGNOU_Maidan Garhi, Delhi - DPCC",09-04-2026 09:00:00,28.493624 ,77.201159 ,SO2,35,40,36
India,Delhi,Delhi,"IIT Delhi, Delhi - IITM",09-04-2026 09:00:00,28.542460,77.191651,PM2.5,26,74,47
India,Delhi,Delhi,"DTU, Delhi - CPCB",09-04-2026 09:00:00,28.7500499,77.1112615,PM10,63,121,90
India,Delhi,Delhi,"DTU, Delhi - CPCB",09-04-2026 09:00:00,28.7500499,77.1112615,NO2,7,47,24
India,Delhi,Delhi,"DTU, Delhi - CPCB",09-04-2026 09:00:00,28.7500499,77.1112615,SO2,27,39,35
India,Delhi,Delhi,"DTU, Delhi - CPCB",09-04-2026 09:00:00,28.7500499,77.1112615,CO,4,30,26
India,Delhi,Delhi,"Burari Crossing, Delhi - IMD",09-04-2026 09:00:00,28.7256504,77.2011573,PM10,50,141,90
India,Delhi,Delhi,"Burari Crossing, Delhi - IMD",09-04-2026 09:00:00,28.7256504,77.2011573,CO,12,37,26
India,Delhi,Delhi,"Burari Crossing, Delhi - IMD",09-04-2026 09:00:00,28.7256504,77.2011573,OZONE,27,161,30
India,Chhattisgarh,Tumidih,"OP Jindal Industrial Park, Tumidih - CECB",09-04-2026 09:00:00,22.06631475,83.33820077,PM2.5,30,48,39
India,Chhattisgarh,Tumidih,"OP Jindal Industrial Park, Tumidih - CECB",09-04-2026 09:00:00,22.06631475,83.33820077,NO2,26,80,50
India,Delhi,Delhi,"Dwarka-Sector 8, Delhi - DPCC ",09-04-2026 09:00:00,28.5710274,77.0719006,NO2,34,90,61
India,Delhi,Delhi,"Cantonment Area, Delhi - DPCC ",09-04-2026 09:00:00,28.594169 ,77.125100 ,CO,23,42,40
India,Delhi,Delhi,"Anand Vihar, Delhi - DPCC",09-04-2026 09:00:00,28.647622,77.3158090,PM10,58,184,118
India,Delhi,Delhi,"Alipur, Delhi - DPCC",09-04-2026 09:00:00,28.815329,77.153010,PM2.5,33,197,81
India,Delhi,Delhi,"Bawana, Delhi - DPCC",09-04-2026 09:00:00,28.776200,77.051074,PM2.5,47,143,89
India,Delhi,Delhi,"NSIT Dwarka, Delhi - CPCB",09-04-2026 09:00:00,28.60909,77.0325413,NH3,4,11,8
India,Delhi,Delhi,"NSUT Jaffarpur, Delhi - DPCC",09-04-2026 09:00:00,28.594004 ,76.909423 ,PM10,44,118,77
India,Delhi,Delhi,"NSUT Jaffarpur, Delhi - DPCC",09-04-2026 09:00:00,28.594004 ,76.909423 ,OZONE,19,71,39
India,Delhi,Delhi,"Najafgarh, Delhi - DPCC",09-04-2026 09:00:00,28.570173,76.933762,NO2,12,74,36
India,Delhi,Delhi,"Narela, Delhi - DPCC",09-04-2026 09:00:00,28.822836,77.101981,OZONE,2,77,4
India,Delhi,Delhi,"IIT Delhi, Delhi - IITM",09-04-2026 09:00:00,28.542460,77.191651,OZONE,9,59,15
India,Delhi,Delhi,"ITO, Delhi - CPCB",09-04-2026 09:00:00,28.628624,77.241060,NO2,21,71,48
India,Delhi,Delhi,"ITO, Delhi - CPCB",09-04-2026 09:00:00,28.628624,77.241060,NH3,3,6,5
India,Delhi,Delhi,"JNU, Delhi - DPCC",09-04-2026 09:00:00,28.540721 ,77.168544 ,PM2.5,38,75,55
India,Delhi,Delhi,"Nehru Nagar, Delhi - DPCC",09-04-2026 09:00:00,28.567890,77.250515,NH3,2,11,6
India,Delhi,Delhi,"Nehru Nagar, Delhi - DPCC",09-04-2026 09:00:00,28.567890,77.250515,SO2,2,26,8
India,Delhi,Delhi,"Nehru Nagar, Delhi - DPCC",09-04-2026 09:00:00,28.567890,77.250515,CO,3,119,13
India,Delhi,Delhi,"New Moti Bagh, Delhi - MHUA",09-04-2026 09:00:00,28.57834,77.18400,NO2,8,9,9
India,Delhi,Delhi,"Patparganj, Delhi - DPCC",09-04-2026 09:00:00,28.623763,77.287209,PM2.5,23,83,52
India,Delhi,Delhi,"Patparganj, Delhi - DPCC",09-04-2026 09:00:00,28.623763,77.287209,NH3,8,11,9
India,Delhi,Delhi,"Patparganj, Delhi - DPCC",09-04-2026 09:00:00,28.623763,77.287209,SO2,9,40,19
India,Delhi,Delhi,"Punjabi Bagh, Delhi - DPCC",09-04-2026 09:00:00,28.674045,77.131023,NO2,12,52,30
India,Delhi,Delhi,"New Moti Bagh, Delhi - MHUA",09-04-2026 09:00:00,28.57834,77.18400,CO,16,28,23
India,Delhi,Delhi,"North Campus, DU, Delhi - IMD",09-04-2026 09:00:00,28.6573814,77.1585447,CO,28,70,42
India,Delhi,Delhi,"Okhla Phase-2, Delhi - DPCC",09-04-2026 09:00:00,28.530785,77.271255,NO2,34,70,47
India,Delhi,Delhi,"Jahangirpuri, Delhi - DPCC",09-04-2026 09:00:00,28.732820,77.170633,OZONE,8,99,15
India,Delhi,Delhi,"Lodhi Road, Delhi - IMD",09-04-2026 09:00:00,28.5918245,77.2273074,OZONE,27,123,38
India,Delhi,Delhi,"Mandir Marg, Delhi - DPCC",09-04-2026 09:00:00,28.636429,77.201067,CO,32,59,52
India,Delhi,Delhi,"Mundka, Delhi - DPCC",09-04-2026 09:00:00,28.684678,77.076574,PM10,78,201,121
India,Delhi,Delhi,"Pusa, Delhi - IMD",09-04-2026 09:00:00,28.636110,77.173332,OZONE,27,315,56
India,Delhi,Delhi,"R K Puram, Delhi - DPCC",09-04-2026 09:00:00,28.563262,77.186937,NO2,20,71,35
India,Delhi,Delhi,"Punjabi Bagh, Delhi - DPCC",09-04-2026 09:00:00,28.674045,77.131023,NH3,3,4,3
India,Gujarat,Ahmedabad,"SAC ISRO Bopal, Ahmedabad - IITM",09-04-2026 09:00:00,23.041137,72.456691,CO,2,28,18
India,Gujarat,Ahmedabad,"SAC ISRO Satellite, Ahmedabad - IITM",09-04-2026 09:00:00,23.023389,72.515201,PM2.5,11,50,28
India,Gujarat,Ahmedabad,"SAC ISRO Satellite, Ahmedabad - IITM",09-04-2026 09:00:00,23.023389,72.515201,PM10,13,57,34
India,Gujarat,Ahmedabad,"SVPI Airport Hansol, Ahmedabad - IITM",09-04-2026 09:00:00,23.076793,72.627874,OZONE,NA,NA,NA
India,Delhi,Delhi,"Wazirpur, Delhi - DPCC",09-04-2026 09:00:00,28.699793,77.165453,OZONE,NA,NA,NA
India,Gujarat,Ahmedabad,"Maninagar, Ahmedabad - GPCB",09-04-2026 09:00:00,23.002657,72.591912,PM2.5,38,175,89
India,Gujarat,Ahmedabad,"Maninagar, Ahmedabad - GPCB",09-04-2026 09:00:00,23.002657,72.591912,PM10,63,114,89
India,Gujarat,Ahmedabad,"Maninagar, Ahmedabad - GPCB",09-04-2026 09:00:00,23.002657,72.591912,NO2,80,86,81
India,Delhi,Delhi,"Vivek Vihar, Delhi - DPCC",09-04-2026 09:00:00,28.672342,77.315260,PM10,58,152,101
India,Delhi,Delhi,"Vivek Vihar, Delhi - DPCC",09-04-2026 09:00:00,28.672342,77.315260,NH3,6,8,7
India,Delhi,Delhi,"Vivek Vihar, Delhi - DPCC",09-04-2026 09:00:00,28.672342,77.315260,SO2,12,64,26
India,Delhi,Delhi,"Vivek Vihar, Delhi - DPCC",09-04-2026 09:00:00,28.672342,77.315260,CO,56,79,66
India,Delhi,Delhi,"Sirifort, Delhi - CPCB",09-04-2026 09:00:00,28.5504249,77.2159377,PM2.5,53,106,70
India,Delhi,Delhi,"Sonia Vihar, Delhi - DPCC",09-04-2026 09:00:00,28.710508,77.249485,PM10,52,172,81
India,Delhi,Delhi,"Sri Aurobindo Marg, Delhi - DPCC",09-04-2026 09:00:00,28.531346,77.190156,PM2.5,45,73,58
India,Delhi,Delhi,"Talkatora Garden, Delhi - DPCC",09-04-2026 09:00:00,28.621810,77.1944633,PM2.5,51,84,64
India,Gujarat,Ahmedabad,"Rakhial, Ahmedabad - IITM",09-04-2026 09:00:00,23.016834,72.625775,CO,14,64,41
India,Delhi,Delhi,"Talkatora Garden, Delhi - DPCC",09-04-2026 09:00:00,28.621810,77.1944633,OZONE,2,20,2
India,Delhi,Delhi,"Rohini, Delhi - DPCC",09-04-2026 09:00:00,28.732528,77.119920,CO,22,99,33
India,Gujarat,Bhavnagar,"Vidhyanagar, Bhavnagar - Nexteng Enviro",09-04-2026 09:00:00,21.755417,72.139056,SO2,5,8,7
India,Gujarat,Gandhinagar,"GIFT City, Gandhinagar - IITM",09-04-2026 09:00:00,23.163798,72.677768,NH3,4,9,6
India,Gujarat,Gandhinagar,"GIFT City, Gandhinagar - IITM",09-04-2026 09:00:00,23.163798,72.677768,CO,57,93,71
India,Gujarat,Gandhinagar,"Sector-10, Gandhinagar - GPCB",09-04-2026 09:00:00,23.221714,72.654328,NO2,7,16,12
India,Gujarat,Gandhinagar,"Sector-10, Gandhinagar - GPCB",09-04-2026 09:00:00,23.221714,72.654328,SO2,1,12,5
India,Gujarat,Mehsana,"Sadanand Nagar, Mehsana - Nexteng Enviro",09-04-2026 09:00:00,23.593150,72.372792,PM2.5,15,174,62
India,Haryana,Bahadurgarh,"Arya Nagar, Bahadurgarh - HSPCB",09-04-2026 09:00:00,28.6701,76.9254,PM2.5,39,54,47
India,Haryana,Bahadurgarh,"Arya Nagar, Bahadurgarh - HSPCB",09-04-2026 09:00:00,28.6701,76.9254,PM10,52,76,65
India,Haryana,Bahadurgarh,"Arya Nagar, Bahadurgarh - HSPCB",09-04-2026 09:00:00,28.6701,76.9254,SO2,5,7,6
India,Haryana,Ballabgarh,"Nathu Colony, Ballabgarh - HSPCB",09-04-2026 09:00:00,28.3419248,77.319699,PM2.5,22,71,41
India,Gujarat,Vadodara,"Bapunagar, Vadodara - Nexteng Enviro",09-04-2026 09:00:00,22.320153,73.216285,NO2,1,14,10
India,Gujarat,Vapi,"Phase-1 GIDC, Vapi - GPCB",09-04-2026 09:00:00,20.362421,72.918013,NO2,NA,NA,NA
India,Gujarat,Vapi,"Phase-1 GIDC, Vapi - GPCB",09-04-2026 09:00:00,20.362421,72.918013,NH3,NA,NA,NA
India,Gujarat,Vatva,"Phase-4 GIDC, Vatva - GPCB",09-04-2026 09:00:00,22.969611,72.643500,OZONE,29,46,30
India,Gujarat,Surat,"Science Center, Surat - SMC",09-04-2026 09:00:00,21.170046,72.795405,NO2,15,16,15
India,Gujarat,Surat,"Science Center, Surat - SMC",09-04-2026 09:00:00,21.170046,72.795405,SO2,17,20,18
India,Gujarat,Surat,"Science Center, Surat - SMC",09-04-2026 09:00:00,21.170046,72.795405,CO,29,38,32
India,Haryana,Charkhi Dadri,"Mini Secretariat, Charkhi Dadri - HSPCB",09-04-2026 09:00:00,28.593883,76.270653,PM2.5,21,232,109
India,Gujarat,Mehsana,"Sadanand Nagar, Mehsana - Nexteng Enviro",09-04-2026 09:00:00,23.593150,72.372792,CO,55,74,60
India,Gujarat,Rajkot,"Mavdi, Rajkot - Nexteng Enviro ",09-04-2026 09:00:00,22.248853,70.776774,NH3,1,2,1
India,Haryana,Bhiwani,"H.B. Colony, Bhiwani - HSPCB",09-04-2026 09:00:00,28.806223,76.141105,NH3,8,12,10
India,Gujarat,Ankleshwar,"GIDC, Ankleshwar - GPCB",09-04-2026 09:00:00,21.613267,73.010555,PM2.5,45,83,62
India,Haryana,Rohtak,"MD University, Rohtak - HSPCB",09-04-2026 09:00:00,28.52123,76.37138,PM10,21,81,57
India,Haryana,Sirsa,"F-Block, Sirsa - HSPCB",09-04-2026 09:00:00,29.536400,75.015800,CO,6,13,9
India,Haryana,Yamuna Nagar,"Gobind Pura, Yamuna Nagar - HSPCB",09-04-2026 09:00:00,30.1480566,77.2893471,PM2.5,55,208,95
India,Haryana,Yamuna Nagar,"Gobind Pura, Yamuna Nagar - HSPCB",09-04-2026 09:00:00,30.1480566,77.2893471,NH3,1,4,3
India,Haryana,Yamuna Nagar,"Gobind Pura, Yamuna Nagar - HSPCB",09-04-2026 09:00:00,30.1480566,77.2893471,OZONE,8,34,12
India,Himachal Pradesh,Baddi,"HIMUDA Complex Phase-1, Baddi - HPPCB",09-04-2026 09:00:00,30.943887,76.801991,PM10,NA,NA,NA
India,Himachal Pradesh,Baddi,"HIMUDA Complex Phase-1, Baddi - HPPCB",09-04-2026 09:00:00,30.943887,76.801991,NH3,2,5,2
India,Himachal Pradesh,Baddi,"HIMUDA Complex Phase-1, Baddi - HPPCB",09-04-2026 09:00:00,30.943887,76.801991,SO2,22,48,30
India,Himachal Pradesh,Baddi,"HIMUDA Complex Phase-1, Baddi - HPPCB",09-04-2026 09:00:00,30.943887,76.801991,CO,33,50,39
India,Haryana,Manesar,"Sector-2 IMT, Manesar - HSPCB",09-04-2026 09:00:00,28.360699,76.936090,CO,7,18,14
India,Haryana,Narnaul,"Shastri Nagar, Narnaul - HSPCB",09-04-2026 09:00:00,28.060249,76.113115,CO,30,44,38
India,Haryana,Panchgaon,"Amity University, Panchgaon - IITM",09-04-2026 09:00:00,28.3153,76.9143,NO2,5,11,8
India,Haryana,Panchgaon,"Amity University, Panchgaon - IITM",09-04-2026 09:00:00,28.3153,76.9143,OZONE,24,79,34
India,Haryana,Panchkula,"Sector-6, Panchkula - HSPCB ",09-04-2026 09:00:00,30.7057778,76.8531805555555,OZONE,NA,NA,NA
India,Haryana,Kaithal,"Rishi Nagar, Kaithal - HSPCB",09-04-2026 09:00:00,29.8006,76.4155,SO2,39,106,55
India,Haryana,Karnal,"Sector-12, Karnal - HSPCB",09-04-2026 09:00:00,29.695300,77.002700,SO2,3,11,8
India,Haryana,Karnal,"Sector-12, Karnal - HSPCB",09-04-2026 09:00:00,29.695300,77.002700,OZONE,13,51,23
India,Haryana,Mandikhera,"General Hospital, Mandikhera(Nuh) - HSPCB",09-04-2026 09:00:00,27.9002,76.9938,PM10,NA,NA,NA
India,Haryana,Manesar,"Sector-2 IMT, Manesar - HSPCB",09-04-2026 09:00:00,28.360699,76.936090,NH3,6,8,7
India,Haryana,Gurugram,"Teri Gram, Gurugram - HSPCB",09-04-2026 09:00:00,28.4275,77.1465,PM10,20,127,62
India,Haryana,Gurugram,"Teri Gram, Gurugram - HSPCB",09-04-2026 09:00:00,28.4275,77.1465,NH3,11,20,15
India,Haryana,Gurugram,"Vikas Sadan, Gurugram - HSPCB",09-04-2026 09:00:00,28.4501238,77.0263051,SO2,3,8,5
India,Haryana,Hisar,"Urban Estate-II, Hisar - HSPCB",09-04-2026 09:00:00,29.140560,75.744941,PM2.5,1,83,33
India,Haryana,Hisar,"Urban Estate-II, Hisar - HSPCB",09-04-2026 09:00:00,29.140560,75.744941,PM10,37,87,62
India,Haryana,Gurugram,"NISE Gwal Pahari, Gurugram - IMD",09-04-2026 09:00:00,28.422681,77.148944,OZONE,11,83,18
India,Haryana,Gurugram,"Sector-51, Gurugram - HSPCB",09-04-2026 09:00:00,28.4227,77.0667,NH3,6,10,8
India,Haryana,Gurugram,"Sector-51, Gurugram - HSPCB",09-04-2026 09:00:00,28.4227,77.0667,CO,12,30,25
India,Haryana,Gurugram,"Sector-51, Gurugram - HSPCB",09-04-2026 09:00:00,28.4227,77.0667,OZONE,7,34,10
India,Haryana,Faridabad,"New Industrial Town, Faridabad - HSPCB",09-04-2026 09:00:00,28.39072,77.30059,OZONE,13,17,15
India,Haryana,Faridabad,"Sector 11, Faridabad - HSPCB",09-04-2026 09:00:00,28.376058,77.315741,PM2.5,24,249,99
India,Haryana,Faridabad,"Sector 11, Faridabad - HSPCB",09-04-2026 09:00:00,28.376058,77.315741,SO2,3,3,3
India,Haryana,Dharuhera,"Municipal Corporation Office, Dharuhera -  HSPCB",09-04-2026 09:00:00,28.206800,76.799700,SO2,6,7,6
India,Haryana,Faridabad,"New Industrial Town, Faridabad - HSPCB",09-04-2026 09:00:00,28.39072,77.30059,CO,9,13,12
India,Jammu_and_Kashmir,Srinagar,"Khunmoh, Srinagar - JKPCC",09-04-2026 09:00:00,34.06313,74.96017,NO2,2,31,10
India,Jammu_and_Kashmir,Srinagar,"Rajbagh, Srinagar - JKPCC",09-04-2026 09:00:00,34.066206,74.819820,PM2.5,12,12,12
India,Haryana,Kaithal,"Rishi Nagar, Kaithal - HSPCB",09-04-2026 09:00:00,29.8006,76.4155,PM10,28,64,43
India,Karnataka,Bengaluru,"Hebbal, Bengaluru - KSPCB",09-04-2026 09:00:00,13.029152,77.585901,NO2,25,104,41
India,Karnataka,Bengaluru,"Hebbal, Bengaluru - KSPCB",09-04-2026 09:00:00,13.029152,77.585901,OZONE,8,10,10
India,Karnataka,Bengaluru,"Hombegowda Nagar, Bengaluru - KSPCB",09-04-2026 09:00:00,12.938539,77.590100,CO,2,52,11
India,Karnataka,Bengaluru,"Hombegowda Nagar, Bengaluru - KSPCB",09-04-2026 09:00:00,12.938539,77.590100,OZONE,6,123,58
India,Karnataka,Bengaluru,"Jayanagar 5th Block, Bengaluru - KSPCB",09-04-2026 09:00:00,12.920984,77.584908,NH3,1,1,1
India,Karnataka,Bengaluru,"Jigani, Bengaluru - KSPCB",09-04-2026 09:00:00,12.7816279,77.6299145,PM2.5,49,75,60
India,Karnataka,Bengaluru,"Peenya, Bengaluru - CPCB",09-04-2026 09:00:00,13.0270199,77.494094,NO2,17,31,25
India,Karnataka,Belgaum,"Ramteerth Nagar, Belgaum - KSPCB",09-04-2026 09:00:00,15.888653,74.541751,OZONE,19,20,19
India,Karnataka,Bengaluru,"BWSSB Kadabesanahalli, Bengaluru - CPCB",09-04-2026 09:00:00,12.9352049,77.6814488,PM2.5,4,59,27
India,Karnataka,Bengaluru,"BWSSB Kadabesanahalli, Bengaluru - CPCB",09-04-2026 09:00:00,12.9352049,77.6814488,PM10,8,112,55
India,Karnataka,Bengaluru,"Bapuji Nagar, Bengaluru - KSPCB",09-04-2026 09:00:00,12.951913,77.539784,PM2.5,30,113,52
India,Karnataka,Bengaluru,"Bapuji Nagar, Bengaluru - KSPCB",09-04-2026 09:00:00,12.951913,77.539784,CO,12,103,26
India,Karnataka,Bengaluru,"City Railway Station, Bengaluru - KSPCB",09-04-2026 09:00:00,12.9756843,77.5660749,PM10,NA,NA,NA
India,Karnataka,Bengaluru,"City Railway Station, Bengaluru - KSPCB",09-04-2026 09:00:00,12.9756843,77.5660749,NO2,NA,NA,NA
India,Karnataka,Bengaluru,"Sanegurava Halli, Bengaluru - KSPCB",09-04-2026 09:00:00,12.990328,77.5431385,CO,4,42,17
India,Karnataka,Bengaluru,"Silk Board, Bengaluru - KSPCB",09-04-2026 09:00:00,12.917348,77.622813,PM10,73,173,110
India,Karnataka,Bengaluru,"Silk Board, Bengaluru - KSPCB",09-04-2026 09:00:00,12.917348,77.622813,NH3,1,2,1
India,Karnataka,Bidar,"Naubad, Bidar - KSPCB",09-04-2026 09:00:00,17.930306,77.482194,PM10,NA,NA,NA
India,Karnataka,Bidar,"Naubad, Bidar - KSPCB",09-04-2026 09:00:00,17.930306,77.482194,NO2,NA,NA,NA
India,Karnataka,Chamarajanagar,"Urban, Chamarajanagar - KSPCB",09-04-2026 09:00:00,11.55358,76.55521,NH3,1,2,2
India,Karnataka,Chamarajanagar,"Urban, Chamarajanagar - KSPCB",09-04-2026 09:00:00,11.55358,76.55521,CO,14,24,22
India,Karnataka,Chikkaballapur,"Chikkaballapur Rural, Chikkaballapur - KSPCB",09-04-2026 09:00:00,13.428828,77.731418,SO2,1,18,11
India,Karnataka,Chikkamagaluru,"Kalyana Nagara, Chikkamagaluru - KSPCB",09-04-2026 09:00:00,13.328028,75.797056,NH3,NA,NA,NA
India,Karnataka,Dharwad,"Kalabhavan, Dharwad - KSPCB",09-04-2026 09:00:00,15.459706,75.008381,NO2,26,30,29
India,Karnataka,Bengaluru,"RVCE-Mailasandra, Bengaluru - KSPCB",09-04-2026 09:00:00,12.921418,77.502466,NO2,20,26,26
India,Karnataka,Bagalkot,"Vidayagiri, Bagalkot - KSPCB",09-04-2026 09:00:00,16.172806,75.659694,PM2.5,18,36,35
India,Karnataka,Bagalkot,"Vidayagiri, Bagalkot - KSPCB",09-04-2026 09:00:00,16.172806,75.659694,NO2,6,12,11
India,Karnataka,Dharwad,"Kalabhavan, Dharwad - KSPCB",09-04-2026 09:00:00,15.459706,75.008381,SO2,6,7,7
India,Madhya Pradesh,Bhopal,"Idgah Hills, Bhopal - MPPCB",09-04-2026 09:00:00,23.264759,77.381568,OZONE,19,57,36
India,Madhya Pradesh,Bhopal,"Paryavaran Parisar, Bhopal - MPPCB",09-04-2026 09:00:00,23.210494,77.425409,PM2.5,23,87,48
India,Madhya Pradesh,Bhopal,"T T Nagar, Bhopal - MPPCB",09-04-2026 09:00:00,23.233584,77.400574,SO2,1,23,13
India,Karnataka,Yadgir,"Collector Office, Yadgir - KSPCB",09-04-2026 09:00:00,16.7602,77.1428,NO2,12,35,18
India,Karnataka,Yadgir,"Collector Office, Yadgir - KSPCB",09-04-2026 09:00:00,16.7602,77.1428,OZONE,1,15,14
India,Kerala,Kannur,"Thavakkara, Kannur - Kerala PCB",09-04-2026 09:00:00,11.875000,75.373200,PM2.5,61,91,80
India,Karnataka,Hubballi,"Lingaraj Nagar, Hubballi - KSPCB",09-04-2026 09:00:00,15.3714823,75.1160168,SO2,1,2,2
India,Karnataka,Kalaburagi,"Mahatma Basaveswar Colony, Kalaburgi - KSPCB",09-04-2026 09:00:00,17.336318,76.847397,PM2.5,14,54,39
India,Kerala,Thiruvananthapuram,"Kariavattom, Thiruvananthapuram - Kerala PCB",09-04-2026 09:00:00,8.563700,76.886500,SO2,1,13,5
India,Kerala,Thrissur,"Corporation Ground, Thrissur - Kerala PCB",09-04-2026 09:00:00,10.532400,76.215900,OZONE,29,32,29
India,Karnataka,Mangalore,"Kadri, Mangalore - KSPCB",09-04-2026 09:00:00,12.889250,74.853000,NH3,1,2,2
India,Karnataka,Mysuru,"Hebbal 1st Stage, Mysuru - KSPCB",09-04-2026 09:00:00,12.21041,76.37376,NO2,8,27,17
India,Kerala,Kannur,"Thavakkara, Kannur - Kerala PCB",09-04-2026 09:00:00,11.875000,75.373200,CO,12,18,16
India,Kerala,Kollam,"Polayathode, Kollam - Kerala PCB",09-04-2026 09:00:00,8.8787,76.6073,PM2.5,40,51,46
India,Madhya Pradesh,Dewas,"Bhopal Chauraha, Dewas - MPPCB",09-04-2026 09:00:00,22.9682591,76.064118,PM10,88,298,167
India,Madhya Pradesh,Dewas,"Bhopal Chauraha, Dewas - MPPCB",09-04-2026 09:00:00,22.9682591,76.064118,CO,25,85,64
India,Karnataka,Kalaburagi,"Mahatma Basaveswar Colony, Kalaburgi - KSPCB",09-04-2026 09:00:00,17.336318,76.847397,CO,30,62,55
India,Karnataka,Tumakuru,"Thimmalapura, Tumakuru - KSPCB",09-04-2026 09:00:00,13.377516,77.099072,NH3,3,3,3
India,Madhya Pradesh,Singrauli,"Suryakiran Bhawan NCL, Singrauli - MPPCB",09-04-2026 09:00:00,24.108970,82.645580,SO2,22,47,36
India,Madhya Pradesh,Singrauli,"Suryakiran Bhawan NCL, Singrauli - MPPCB",09-04-2026 09:00:00,24.108970,82.645580,OZONE,2,4,3
India,Madhya Pradesh,Ujjain,"Mahashweta Nagar, Ujjain - MPPCB",09-04-2026 09:00:00,23.1633321,75.800225,CO,NA,NA,NA
India,Madhya Pradesh,Ujjain,"Mahashweta Nagar, Ujjain - MPPCB",09-04-2026 09:00:00,23.1633321,75.800225,OZONE,NA,NA,NA
India,Maharashtra,Ahmednagar,"Tarakpur, Ahmednagar - MPCB",09-04-2026 09:00:00,19.10122,74.73339,NO2,15,26,21
India,Maharashtra,Ahmednagar,"Tarakpur, Ahmednagar - MPCB",09-04-2026 09:00:00,19.10122,74.73339,NH3,5,6,6
India,Maharashtra,Ahmednagar,"Tarakpur, Ahmednagar - MPCB",09-04-2026 09:00:00,19.10122,74.73339,SO2,1,6,4
India,Maharashtra,Ahmednagar,"Tarakpur, Ahmednagar - MPCB",09-04-2026 09:00:00,19.10122,74.73339,CO,6,50,12
India,Maharashtra,Akola,"Ramdaspeth, Akola - MPCB",09-04-2026 09:00:00,20.719516,77.000253,NO2,7,20,13
India,Maharashtra,Akola,"Ramdaspeth, Akola - MPCB",09-04-2026 09:00:00,20.719516,77.000253,SO2,10,17,13
India,Maharashtra,Akola,"Ramdaspeth, Akola - MPCB",09-04-2026 09:00:00,20.719516,77.000253,OZONE,10,92,21
India,Maharashtra,Ambernath,"Chinchpada, Ambernath - MPCB",09-04-2026 09:00:00,19.2157840,73.1997810,NH3,3,5,4
India,Maharashtra,Amravati,"Shivneri Colony, Amravati - MPCB",09-04-2026 09:00:00,20.9402359,77.7895248,PM2.5,40,64,53
India,Madhya Pradesh,Katni,"Gole Bazar, Katni - MPPCB",09-04-2026 09:00:00,23.50016,80.23284,OZONE,34,71,47
India,Madhya Pradesh,Mandideep,"Sector-D Industrial Area, Mandideep - MPPCB",09-04-2026 09:00:00,23.108440,77.511428,NH3,7,10,9
India,Madhya Pradesh,Mandideep,"Sector-D Industrial Area, Mandideep - MPPCB",09-04-2026 09:00:00,23.108440,77.511428,OZONE,11,87,37
India,Madhya Pradesh,Pithampur,"Sector-2 Industrial Area, Pithampur - MPPCB",09-04-2026 09:00:00,22.624758,75.675238,NH3,13,19,15
India,Madhya Pradesh,Sagar,"Civil Lines, Sagar - MPPCB",09-04-2026 09:00:00,23.838586,78.759431,PM10,57,98,75
India,Madhya Pradesh,Sagar,"Civil Lines, Sagar - MPPCB",09-04-2026 09:00:00,23.838586,78.759431,NH3,1,11,4
India,Madhya Pradesh,Sagar,"Civil Lines, Sagar - MPPCB",09-04-2026 09:00:00,23.838586,78.759431,OZONE,35,74,44
India,Madhya Pradesh,Sagar,"Deen Dayal Nagar, Sagar - MPPCB",09-04-2026 09:00:00,23.8640158,78.80289321,PM2.5,1,61,28
India,Madhya Pradesh,Sagar,"Deen Dayal Nagar, Sagar - MPPCB",09-04-2026 09:00:00,23.8640158,78.80289321,CO,68,84,73
India,Madhya Pradesh,Jabalpur,"Govindh Bhavan Colony, Jabalpur - JMC",09-04-2026 09:00:00,23.163174,79.973061,NH3,NA,NA,NA
India,Madhya Pradesh,Jabalpur,"Govindh Bhavan Colony, Jabalpur - JMC",09-04-2026 09:00:00,23.163174,79.973061,CO,NA,NA,NA
India,Madhya Pradesh,Jabalpur,"Gupteshwar, Jabalpur - JMC",09-04-2026 09:00:00,23.142888,79.916147,PM2.5,59,121,82
India,Madhya Pradesh,Jabalpur,"Gupteshwar, Jabalpur - JMC",09-04-2026 09:00:00,23.142888,79.916147,SO2,13,22,16
India,Madhya Pradesh,Jabalpur,"Marhatal, Jabalpur - MPPCB",09-04-2026 09:00:00,23.168606,79.932247,PM2.5,38,107,67
India,Madhya Pradesh,Jabalpur,"Marhatal, Jabalpur - MPPCB",09-04-2026 09:00:00,23.168606,79.932247,PM10,51,182,113
India,Madhya Pradesh,Jabalpur,"Marhatal, Jabalpur - MPPCB",09-04-2026 09:00:00,23.168606,79.932247,CO,52,116,98
India,Madhya Pradesh,Jabalpur,"Marhatal, Jabalpur - MPPCB",09-04-2026 09:00:00,23.168606,79.932247,OZONE,12,56,15
India,Madhya Pradesh,Jabalpur,"Suhagi, Jabalpur - JMC",09-04-2026 09:00:00,23.218135,79.957770,OZONE,2,40,16
India,Maharashtra,Amravati,"Shri Shivaji Science College, Amravati - MPCB",09-04-2026 09:00:00,20.939198,77.765701,PM2.5,38,64,53
India,Maharashtra,Aurangabad,"More Chowk Waluj, Aurangabad - MPCB",09-04-2026 09:00:00,19.8389439,75.244448,NO2,2,27,16
India,Maharashtra,Aurangabad,"More Chowk Waluj, Aurangabad - MPCB",09-04-2026 09:00:00,19.8389439,75.244448,NH3,1,9,5
India,Maharashtra,Aurangabad,"Rachnakar Colony, Aurangabad - MPCB",09-04-2026 09:00:00,19.863756,75.321188,PM10,46,106,89
India,Maharashtra,Badlapur,"Katrap, Badlapur - MPCB",09-04-2026 09:00:00,19.16485,73.23409,NH3,3,8,6
India,Madhya Pradesh,Indore,"Chhoti Gwaltoli, Indore - MPPCB",09-04-2026 09:00:00,22.4310,75.5213,NO2,28,130,94
India,Madhya Pradesh,Indore,"Chhoti Gwaltoli, Indore - MPPCB",09-04-2026 09:00:00,22.4310,75.5213,NH3,18,24,22
India,Madhya Pradesh,Indore,"Chhoti Gwaltoli, Indore - MPPCB",09-04-2026 09:00:00,22.4310,75.5213,SO2,8,47,15
India,Madhya Pradesh,Indore,"Chhoti Gwaltoli, Indore - MPPCB",09-04-2026 09:00:00,22.4310,75.5213,CO,21,105,72
India,Madhya Pradesh,Indore,"Chhoti Gwaltoli, Indore - MPPCB",09-04-2026 09:00:00,22.4310,75.5213,OZONE,2,28,12
India,Madhya Pradesh,Indore,"Regional Park, Indore - IMC",09-04-2026 09:00:00,22.6780,75.8559,CO,1,50,49
India,Madhya Pradesh,Indore,"Residency Area, Indore - IMC",09-04-2026 09:00:00,22.7084,75.8815,PM2.5,32,304,141
India,Madhya Pradesh,Indore,"Residency Area, Indore - IMC",09-04-2026 09:00:00,22.7084,75.8815,SO2,18,22,19
India,Madhya Pradesh,Gwalior,"City Center, Gwalior - MPPCB",09-04-2026 09:00:00,26.203442,78.193251,CO,28,90,36
India,Madhya Pradesh,Gwalior,"Deen Dayal Nagar, Gwalior - MPPCB",09-04-2026 09:00:00,26.259242,78.216432,PM2.5,29,183,68
India,Madhya Pradesh,Indore,"Airport Area, Indore - IMC",09-04-2026 09:00:00,22.7289,75.8076,PM10,73,289,133
India,Madhya Pradesh,Indore,"Airport Area, Indore - IMC",09-04-2026 09:00:00,22.7289,75.8076,CO,44,82,71
India,Maharashtra,Kalyan,"Pimpleshwar Mandir, Kalyan - MPCB",09-04-2026 09:00:00,19.192056,72.9585188,NH3,3,4,3
India,Maharashtra,Kalyan,"Pimpleshwar Mandir, Kalyan - MPCB",09-04-2026 09:00:00,19.192056,72.9585188,SO2,7,12,9
India,Maharashtra,Kolhapur,"Shivaji University, Kolhapur - MPCB",09-04-2026 09:00:00,16.6870449,74.2505872,NO2,18,64,39
India,Maharashtra,Kolhapur,"Shivaji University, Kolhapur - MPCB",09-04-2026 09:00:00,16.6870449,74.2505872,CO,6,28,12
India,Maharashtra,Kolhapur,"Sinchan Bhavan, Kolhapur - MPCB",09-04-2026 09:00:00,16.7143745,74.2426398,OZONE,7,81,11
India,Maharashtra,Latur,"Sawe Wadi, Latur - MPCB",09-04-2026 09:00:00,18.39963,76.57452,NO2,9,24,15
India,Maharashtra,Chandrapur,"Chauhan Colony, Chandrapur - MPCB",09-04-2026 09:00:00,19.962900,79.298714,PM10,110,246,147
India,Maharashtra,Chandrapur,"MIDC Khutala, Chandrapur - MPCB",09-04-2026 09:00:00,19.9775302,79.2337086,CO,36,41,39
India,Maharashtra,Dombivli,"Kalu Nagar, Dombivli - MPCB",09-04-2026 09:00:00,19.2268427 ,73.0788456 ,PM2.5,10,47,20
India,Maharashtra,Mumbai,"Borivali East, Mumbai - MPCB",09-04-2026 09:00:00,19.2243333,72.8658113,OZONE,NA,NA,NA
India,Maharashtra,Mumbai,"Byculla, Mumbai - BMC",09-04-2026 09:00:00,18.9767,72.8380,PM10,43,61,52
India,Maharashtra,Mumbai,"Byculla, Mumbai - BMC",09-04-2026 09:00:00,18.9767,72.8380,CO,34,47,35
India,Maharashtra,Mumbai,"Chakala-Andheri East, Mumbai - IITM",09-04-2026 09:00:00,19.11074,72.86084,PM2.5,29,49,38
India,Maharashtra,Hingoli,"Ashta Vinayak Nagar, Hingoli - MPCB",09-04-2026 09:00:00,19.710842,77.151824,PM10,54,92,75
India,Maharashtra,Hingoli,"Ashta Vinayak Nagar, Hingoli - MPCB",09-04-2026 09:00:00,19.710842,77.151824,OZONE,48,87,56
India,Maharashtra,Jalgaon,"Prabhat Colony, Jalgaon - MPCB",09-04-2026 09:00:00,21.001264,75.565602,NH3,1,3,2
India,Maharashtra,Jalgaon,"Prabhat Colony, Jalgaon - MPCB",09-04-2026 09:00:00,21.001264,75.565602,SO2,4,8,6
India,Maharashtra,Badlapur,"Katrap, Badlapur - MPCB",09-04-2026 09:00:00,19.16485,73.23409,CO,25,44,32
India,Maharashtra,Beed,"Bir, Beed - MPCB",09-04-2026 09:00:00,18.988474,75.753873,PM10,72,134,97
India,Maharashtra,Beed,"Bir, Beed - MPCB",09-04-2026 09:00:00,18.988474,75.753873,NH3,4,5,5
India,Maharashtra,Beed,"Bir, Beed - MPCB",09-04-2026 09:00:00,18.988474,75.753873,OZONE,6,26,11
India,Maharashtra,Bhiwandi,"Gokul Nagar, Bhiwandi - MPCB",09-04-2026 09:00:00,19.309073,73.057223,PM2.5,42,79,53
India,Maharashtra,Bhiwandi,"Gokul Nagar, Bhiwandi - MPCB",09-04-2026 09:00:00,19.309073,73.057223,NO2,11,33,21
India,Maharashtra,Bhiwandi,"Gokul Nagar, Bhiwandi - MPCB",09-04-2026 09:00:00,19.309073,73.057223,NH3,3,6,5
India,Maharashtra,Bhiwandi,"Gokul Nagar, Bhiwandi - MPCB",09-04-2026 09:00:00,19.309073,73.057223,CO,12,52,39
India,Maharashtra,Mumbai,"Bandra Kurla Complex, Mumbai - IITM",09-04-2026 09:00:00,19.053536,72.84643,CO,4,38,13
India,Maharashtra,Mumbai,"Bandra Kurla Complex, Mumbai - MPCB",09-04-2026 09:00:00,19.065931,72.862131,CO,8,14,10
India,Maharashtra,Kalyan,"Khadakpada, Kalyan - MPCB",09-04-2026 09:00:00,19.25292,73.142019,PM10,14,72,44
India,Maharashtra,Kalyan,"Khadakpada, Kalyan - MPCB",09-04-2026 09:00:00,19.25292,73.142019,NO2,36,37,36
India,Maharashtra,Mira-Bhayandar,"Bhayandar West, Mira-Bhayandar - MPCB",09-04-2026 09:00:00,19.296481,72.840923,PM2.5,18,63,33
India,Maharashtra,Mumbai,"Siddharth Nagar-Worli, Mumbai - IITM",09-04-2026 09:00:00,19.000083,72.813993,NH3,2,2,2
India,Maharashtra,Mumbai,"Sion, Mumbai - MPCB",09-04-2026 09:00:00,19.047000,72.874600,NO2,27,31,29
India,Maharashtra,Mumbai,"Sion, Mumbai - MPCB",09-04-2026 09:00:00,19.047000,72.874600,SO2,1,4,1
India,Maharashtra,Mumbai,"Sion, Mumbai - MPCB",09-04-2026 09:00:00,19.047000,72.874600,CO,13,18,17
India,Maharashtra,Mumbai,"Vile Parle West, Mumbai - MPCB",09-04-2026 09:00:00,19.10861,72.83622,SO2,47,52,49
India,Maharashtra,Mumbai,"Worli, Mumbai -MPCB",09-04-2026 09:00:00,18.9942180,72.8158167,PM10,2,146,63
India,Maharashtra,Mumbai,"Worli, Mumbai -MPCB",09-04-2026 09:00:00,18.9942180,72.8158167,SO2,30,32,31
India,Maharashtra,Nagpur,"Ambazari, Nagpur - MPCB",09-04-2026 09:00:00,21.121801,79.04952,NO2,11,40,17
India,Maharashtra,Mumbai,"Kandivali West, Mumbai - BMC",09-04-2026 09:00:00,19.215859,72.831718,PM10,29,68,56
India,Maharashtra,Mumbai,"Kandivali West, Mumbai - BMC",09-04-2026 09:00:00,19.215859,72.831718,SO2,1,4,2
India,Maharashtra,Mumbai,"Kherwadi_Bandra East, Mumbai - MPCB",09-04-2026 09:00:00,19.0632143,72.8456324,PM2.5,13,59,33
India,Maharashtra,Mumbai,"Khindipada-Bhandup West, Mumbai - IITM",09-04-2026 09:00:00,19.1653323,72.922099,PM10,26,74,46
India,Maharashtra,Mumbai,"Khindipada-Bhandup West, Mumbai - IITM",09-04-2026 09:00:00,19.1653323,72.922099,CO,13,41,22
India,Maharashtra,Mumbai,"Malad West, Mumbai - IITM",09-04-2026 09:00:00,19.19709,72.82204,PM2.5,8,42,24
India,Maharashtra,Mumbai,"Mulund West, Mumbai - MPCB",09-04-2026 09:00:00,19.1750,72.9419,CO,NA,NA,NA
India,Maharashtra,Mumbai,"Navy Nagar-Colaba, Mumbai - IITM",09-04-2026 09:00:00,18.897756,72.813320,PM2.5,19,66,39
India,Maharashtra,Mumbai,"Powai, Mumbai - MPCB",09-04-2026 09:00:00,19.137500,72.915056,NO2,7,8,7
India,Maharashtra,Mumbai,"Sewri, Mumbai - BMC",09-04-2026 09:00:00,19.000084,72.856730,PM10,38,93,47
India,Maharashtra,Nashik,"Hirawadi, Nashik - MPCB",09-04-2026 09:00:00,20.021503,73.813844,OZONE,5,53,11
India,Maharashtra,Nashik,"MIDC Ambad, Nashik - MPCB",09-04-2026 09:00:00,19.950220,73.731480,PM10,71,137,105
India,Maharashtra,Nashik,"MIDC Ambad, Nashik - MPCB",09-04-2026 09:00:00,19.950220,73.731480,NH3,2,3,2
India,Maharashtra,Mumbai,"Chhatrapati Shivaji Intl. Airport (T2), Mumbai - MPCB",09-04-2026 09:00:00,19.10078,72.87462,PM2.5,36,60,46
India,Maharashtra,Mumbai,"Colaba, Mumbai - MPCB",09-04-2026 09:00:00,18.910000,72.820000,NH3,4,4,4
India,Maharashtra,Navi Mumbai,"Kopripada-Vashi, Navi Mumbai - MPCB",09-04-2026 09:00:00,19.090337,73.014232,NO2,8,21,12
India,Maharashtra,Navi Mumbai,"Kopripada-Vashi, Navi Mumbai - MPCB",09-04-2026 09:00:00,19.090337,73.014232,SO2,1,2,1
India,Maharashtra,Mumbai,"Deonar, Mumbai - IITM",09-04-2026 09:00:00,19.04946,72.9230,PM10,104,144,119
India,Maharashtra,Mumbai,"Deonar, Mumbai - IITM",09-04-2026 09:00:00,19.04946,72.9230,NO2,3,14,7
India,Maharashtra,Nanded,"Sneh Nagar, Nanded - MPCB",09-04-2026 09:00:00,19.173852,77.296291,PM2.5,NA,NA,NA
India,Maharashtra,Nagpur,"Ram Nagar, Nagpur - MPCB",09-04-2026 09:00:00,21.143383,79.048912,NH3,4,4,4
India,Maharashtra,Pune,"Katraj Dairy, Pune - MPCB",09-04-2026 09:00:00,18.454450,73.854155,PM2.5,12,14,13
India,Maharashtra,Pune,"Katraj Dairy, Pune - MPCB",09-04-2026 09:00:00,18.454450,73.854155,NH3,1,5,2
India,Maharashtra,Pune,"Katraj Dairy, Pune - MPCB",09-04-2026 09:00:00,18.454450,73.854155,SO2,2,3,3
India,Maharashtra,Pune,"Mhada Colony, Pune - IITM",09-04-2026 09:00:00,18.573040,73.927715,CO,2,72,49
India,Maharashtra,Pune,"Panchawati_Pashan, Pune - IITM",09-04-2026 09:00:00,18.536457,73.805454,PM10,40,102,69
India,Maharashtra,Pune,"Revenue Colony-Shivajinagar, Pune - IITM",09-04-2026 09:00:00,18.530085,73.849598,OZONE,3,28,9
India,Maharashtra,Pune,"Savitribai Phule Pune University, Pune - MPCB",09-04-2026 09:00:00,18.547056,73.826908,NO2,8,23,15
India,Maharashtra,Sangli,"Vijay Nagar, Sangli - MPCB",09-04-2026 09:00:00, 16.5038,74.3623,SO2,NA,NA,NA
India,Maharashtra,Sangli,"Vijay Nagar, Sangli - MPCB",09-04-2026 09:00:00, 16.5038,74.3623,OZONE,NA,NA,NA
India,Maharashtra,Navi Mumbai,"Tondare-Taloja, Navi Mumbai - MPCB",09-04-2026 09:00:00,19.0630,73.1209,SO2,2,3,2
India,Maharashtra,Parbhani,"Masoom Colony, Parbhani - MPCB",09-04-2026 09:00:00,19.265594,76.761463,PM2.5,35,119,62
India,Maharashtra,Parbhani,"Masoom Colony, Parbhani - MPCB",09-04-2026 09:00:00,19.265594,76.761463,PM10,73,395,110
India,Maharashtra,Parbhani,"Masoom Colony, Parbhani - MPCB",09-04-2026 09:00:00,19.265594,76.761463,NH3,2,5,4
India,Maharashtra,Parbhani,"Masoom Colony, Parbhani - MPCB",09-04-2026 09:00:00,19.265594,76.761463,OZONE,4,8,7
India,Maharashtra,Pimpri-Chinchwad,"Park Street Wakad, Pimpri Chinchwad - MPCB",09-04-2026 09:00:00,18.59051,73.77946,PM10,38,67,47
India,Maharashtra,Pimpri-Chinchwad,"Park Street Wakad, Pimpri Chinchwad - MPCB",09-04-2026 09:00:00,18.59051,73.77946,NO2,16,31,22
India,Maharashtra,Pimpri-Chinchwad,"Park Street Wakad, Pimpri Chinchwad - MPCB",09-04-2026 09:00:00,18.59051,73.77946,SO2,1,3,2
India,Maharashtra,Solapur,"Ratandeep Housing Society, Solapur - MPCB",09-04-2026 09:00:00,17.65439,75.90649,NO2,31,105,50
India,Maharashtra,Solapur,"Ratandeep Housing Society, Solapur - MPCB",09-04-2026 09:00:00,17.65439,75.90649,NH3,4,15,6
India,Maharashtra,Thane,"Kasarvadavali, Thane - MPCB",09-04-2026 09:00:00,19.26777,72.97182,OZONE,4,17,9
India,Maharashtra,Thane,"Upvan Fort, Thane - MPCB",09-04-2026 09:00:00,19.222279,72.957979,NO2,2,8,5
India,Maharashtra,Thane,"Upvan Fort, Thane - MPCB",09-04-2026 09:00:00,19.222279,72.957979,NH3,3,3,3
India,Maharashtra,Thane,"Upvan Fort, Thane - MPCB",09-04-2026 09:00:00,19.222279,72.957979,SO2,1,22,9
India,Maharashtra,Ulhasnagar,"Vithalwadi, Ulhasnagar - MPCB",09-04-2026 09:00:00,19.2307571 ,73.1551920,PM10,40,73,53
India,Maharashtra,Ulhasnagar,"Vithalwadi, Ulhasnagar - MPCB",09-04-2026 09:00:00,19.2307571 ,73.1551920,NO2,10,24,16
India,Maharashtra,Virar,"Bolinj, Virar - MPCB",09-04-2026 09:00:00,19.4458210,72.7988231,NO2,13,53,25
India,Maharashtra,Virar,"Bolinj, Virar - MPCB",09-04-2026 09:00:00,19.4458210,72.7988231,NH3,5,26,9
India,Maharashtra,Virar,"Bolinj, Virar - MPCB",09-04-2026 09:00:00,19.4458210,72.7988231,SO2,1,4,2
India,Nagaland,Kohima,"PWD Junction, Kohima - NPCB",09-04-2026 09:00:00,25.6635413,94.0989878,NH3,1,1,1
India,Nagaland,Kohima,"PWD Junction, Kohima - NPCB",09-04-2026 09:00:00,25.6635413,94.0989878,CO,2,12,4
India,Odisha,Angul,"Hakimapada, Angul - OSPCB",09-04-2026 09:00:00,20.832874,85.104082,NO2,5,64,18
India,Odisha,Angul,"Hakimapada, Angul - OSPCB",09-04-2026 09:00:00,20.832874,85.104082,CO,50,130,92
India,Odisha,Angul,"Hakimapada, Angul - OSPCB",09-04-2026 09:00:00,20.832874,85.104082,OZONE,16,134,25
India,Odisha,Baripada,"Meher Colony, Baripada - OSPCB",09-04-2026 09:00:00,21.941841,86.728318,PM2.5,17,42,28
India,Maharashtra,Pimpri-Chinchwad,"Thergaon, Pimpri Chinchwad - MPCB",09-04-2026 09:00:00,18.616318,73.765797,PM2.5,42,136,71
India,Maharashtra,Pimpri-Chinchwad,"Thergaon, Pimpri Chinchwad - MPCB",09-04-2026 09:00:00,18.616318,73.765797,SO2,1,2,1
India,Maharashtra,Pimpri-Chinchwad,"Transport Nagar-Nigdi, Pune - IITM",09-04-2026 09:00:00,18.664282,73.763966,PM10,39,84,59
India,Maharashtra,Navi Mumbai,"Nerul, Navi Mumbai - MPCB",09-04-2026 09:00:00,19.008751,73.016620,PM10,22,63,35
India,Maharashtra,Navi Mumbai,"Nerul, Navi Mumbai - MPCB",09-04-2026 09:00:00,19.008751,73.016620,SO2,NA,NA,NA
India,Maharashtra,Navi Mumbai,"Sanpada, Navi Mumbai - MPCB",09-04-2026 09:00:00,19.0575752,73.0151367,PM10,50,105,71
India,Odisha,Bileipada,"Tata Township, Bileipada - OSPCB",09-04-2026 09:00:00,22.06156703,85.47409613,PM2.5,11,68,40
India,Odisha,Baripada,"Meher Colony, Baripada - OSPCB",09-04-2026 09:00:00,21.941841,86.728318,OZONE,12,45,24
India,Odisha,Byasanagar,"Ferro Chrome Colony, Byasanagar - OSPCB",09-04-2026 09:00:00,20.94185,86.11510,OZONE,23,99,36
India,Odisha,Cuttack,"CDA Area, Cuttack - OSPCB",09-04-2026 09:00:00,20.48891     ,85.84768     ,NH3,2,2,2
India,Odisha,Keonjhar,"Jagamohanpur, Keonjhar - OSPCB",09-04-2026 09:00:00,21.643900,85.599355,NH3,2,2,2
India,Odisha,Nayagarh,"Dabuna, Nayagarh - OSPCB",09-04-2026 09:00:00,21.847279,85.416905,PM2.5,31,54,41
India,Odisha,Nayagarh,"Dabuna, Nayagarh - OSPCB",09-04-2026 09:00:00,21.847279,85.416905,PM10,23,78,55
India,Odisha,Nayagarh,"Dabuna, Nayagarh - OSPCB",09-04-2026 09:00:00,21.847279,85.416905,NH3,6,6,6
India,Odisha,Rairangpur,"Divisional Forest Office, Rairangpur - OSPCB",09-04-2026 09:00:00,22.265816,86.174829,PM10,30,55,41
India,Odisha,Rairangpur,"Divisional Forest Office, Rairangpur - OSPCB",09-04-2026 09:00:00,22.265816,86.174829,NH3,1,1,1
India,Odisha,Rourkela,"Fertilizer Township, Rourkela - OSPCB",09-04-2026 09:00:00,22.18972222,84.86277778,SO2,10,13,12
India,Punjab,Patiala,"Model Town, Patiala - PPCB",09-04-2026 09:00:00,30.349388,76.366642,CO,10,30,18
India,Punjab,Rupnagar,"Ratanpura, Rupnagar - Ambuja Cements",09-04-2026 09:00:00,31.0325454,76.5623046,SO2,8,15,12
India,Rajasthan,Alwar,"Moti Doongri, Alwar - RSPCB",09-04-2026 09:00:00,27.554793,76.611536,PM2.5,46,78,61
India,Rajasthan,Banswara,"Rati Talai, Banswara - RSPCB",09-04-2026 09:00:00,23.555190,74.440010,PM2.5,16,113,53
India,Rajasthan,Banswara,"Rati Talai, Banswara - RSPCB",09-04-2026 09:00:00,23.555190,74.440010,SO2,2,13,4
India,Rajasthan,Banswara,"Rati Talai, Banswara - RSPCB",09-04-2026 09:00:00,23.555190,74.440010,OZONE,4,95,23
India,Rajasthan,Baran,"Bamboliya, Baran - RSPCB",09-04-2026 09:00:00,25.106006,76.469948,PM2.5,7,62,37
India,Rajasthan,Baran,"Bamboliya, Baran - RSPCB",09-04-2026 09:00:00,25.106006,76.469948,NH3,5,10,7
India,Rajasthan,Baran,"Bamboliya, Baran - RSPCB",09-04-2026 09:00:00,25.106006,76.469948,CO,2,23,17
India,Rajasthan,Barmer,"Railway Colony, Barmer - RSPCB",09-04-2026 09:00:00,25.747299,71.393989,PM10,71,145,112
India,Rajasthan,Barmer,"Railway Colony, Barmer - RSPCB",09-04-2026 09:00:00,25.747299,71.393989,NH3,NA,NA,NA
India,Rajasthan,Barmer,"Railway Colony, Barmer - RSPCB",09-04-2026 09:00:00,25.747299,71.393989,SO2,4,19,5
India,Rajasthan,Barmer,"Railway Colony, Barmer - RSPCB",09-04-2026 09:00:00,25.747299,71.393989,CO,4,25,13
India,Odisha,Talcher,"Talcher Coalfields,Talcher - OSPCB",09-04-2026 09:00:00,20.9360711,85.1707021,PM2.5,2,76,33
India,Odisha,Talcher,"Talcher Coalfields,Talcher - OSPCB",09-04-2026 09:00:00,20.9360711,85.1707021,SO2,15,49,28
India,Odisha,Tensa,"Barsua Iron Ore Mines, Tensa - OSPCB",09-04-2026 09:00:00,21.869985,85.167016,OZONE,7,44,12
India,Puducherry,Puducherry,"Jawahar Nagar, Puducherry - PPCC",09-04-2026 09:00:00,11.9309,79.8027,PM2.5,16,41,27
India,Rajasthan,Bhilwara,"Pratap Nagar, Bhilwara - RSPCB",09-04-2026 09:00:00,25.339605,74.618883,NO2,7,54,19
India,Rajasthan,Bhilwara,"Pratap Nagar, Bhilwara - RSPCB",09-04-2026 09:00:00,25.339605,74.618883,NH3,NA,NA,NA
India,Rajasthan,Bhiwadi,"RIICO Ind. Area III, Bhiwadi - RSPCB",09-04-2026 09:00:00,28.194909,76.862296,NO2,14,56,34
India,Rajasthan,Bhiwadi,"RIICO Ind. Area III, Bhiwadi - RSPCB",09-04-2026 09:00:00,28.194909,76.862296,CO,4,44,34
India,Odisha,Brajrajnagar,"GM Office, Brajrajnagar - OSPCB",09-04-2026 09:00:00,21.8004996,83.8396977,NO2,12,13,13
India,Odisha,Byasanagar,"Ferro Chrome Colony, Byasanagar - OSPCB",09-04-2026 09:00:00,20.94185,86.11510,PM2.5,22,45,34
India,Odisha,Byasanagar,"Ferro Chrome Colony, Byasanagar - OSPCB",09-04-2026 09:00:00,20.94185,86.11510,NH3,2,3,2
India,Punjab,Jalandhar,"Civil Line, Jalandhar - PPCB",09-04-2026 09:00:00,31.321907,75.578914,SO2,19,22,20
India,Punjab,Jalandhar,"Civil Line, Jalandhar - PPCB",09-04-2026 09:00:00,31.321907,75.578914,CO,31,39,34
India,Punjab,Ludhiana,"Punjab Agricultural University, Ludhiana - PPCB",09-04-2026 09:00:00,30.9028,75.8086,SO2,13,31,21
India,Puducherry,Puducherry,"Jawahar Nagar, Puducherry - PPCC",09-04-2026 09:00:00,11.9309,79.8027,SO2,3,13,8
India,Puducherry,Puducherry,"Jawahar Nagar, Puducherry - PPCC",09-04-2026 09:00:00,11.9309,79.8027,OZONE,15,52,21
India,Odisha,Suakati,"OMC Colony, Suakati - OSPCB",09-04-2026 09:00:00,21.606865,85.510538,PM10,51,74,57
India,Odisha,Suakati,"OMC Colony, Suakati - OSPCB",09-04-2026 09:00:00,21.606865,85.510538,NH3,7,7,7
India,Rajasthan,Karauli,"Satyawati Vihar, Karauli - RSPCB",09-04-2026 09:00:00,26.506177,77.025989,NH3,10,27,13
India,Rajasthan,Karauli,"Satyawati Vihar, Karauli - RSPCB",09-04-2026 09:00:00,26.506177,77.025989,SO2,2,7,4
India,Rajasthan,Kota,"Nayapura, Kota - RSPCB",09-04-2026 09:00:00,25.196024,75.855668,NO2,21,104,41
India,Rajasthan,Kota,"Nayapura, Kota - RSPCB",09-04-2026 09:00:00,25.196024,75.855668,NH3,3,7,5
India,Rajasthan,Kota,"Nayapura, Kota - RSPCB",09-04-2026 09:00:00,25.196024,75.855668,CO,6,79,13
India,Rajasthan,Kota,"Shrinath Puram, Kota - RSPCB",09-04-2026 09:00:00,25.14389,75.821256,PM2.5,59,222,114
India,Rajasthan,Kota,"Shrinath Puram, Kota - RSPCB",09-04-2026 09:00:00,25.14389,75.821256,NO2,2,11,8
India,Rajasthan,Kota,"Shrinath Puram, Kota - RSPCB",09-04-2026 09:00:00,25.14389,75.821256,OZONE,5,13,8
India,Rajasthan,Nagaur,"Karni Colony, Nagaur - RSPCB",09-04-2026 09:00:00,27.213494,73.734444,NO2,10,49,20
India,Rajasthan,Nagaur,"Karni Colony, Nagaur - RSPCB",09-04-2026 09:00:00,27.213494,73.734444,OZONE,33,101,40
India,Rajasthan,Pali,"Indira Colony Vistar, Pali - RSPCB",09-04-2026 09:00:00,25.771061, 73.340227,PM2.5,55,154,102
India,Rajasthan,Bhiwadi,"Vasundhara Nagar_UIT, Bhiwadi - RSPCB",09-04-2026 09:00:00,28.207266,76.829265,PM2.5,28,263,108
India,Rajasthan,Bikaner,"MM Ground, Bikaner - RSPCB",09-04-2026 09:00:00,28.018792,73.292658,NH3,6,11,8
India,Rajasthan,Bikaner,"MM Ground, Bikaner - RSPCB",09-04-2026 09:00:00,28.018792,73.292658,SO2,7,11,9
India,Rajasthan,Bikaner,"MM Ground, Bikaner - RSPCB",09-04-2026 09:00:00,28.018792,73.292658,CO,8,53,26
India,Rajasthan,Bundi,"New Colony, Bundi - RSPCB",09-04-2026 09:00:00,25.435774,75.644272,SO2,4,9,6
India,Rajasthan,Bundi,"New Colony, Bundi - RSPCB",09-04-2026 09:00:00,25.435774,75.644272,CO,8,72,19
India,Rajasthan,Bundi,"New Colony, Bundi - RSPCB",09-04-2026 09:00:00,25.435774,75.644272,OZONE,26,118,45
India,Rajasthan,Chittorgarh,"Shastri Nagar, Chittorgarh - RSPCB",09-04-2026 09:00:00,24.892047,74.623527,PM10,59,325,133
India,Rajasthan,Jaipur,"Sector-2 Murlipura, Jaipur - RSPCB",09-04-2026 09:00:00,26.960669,75.771817,PM10,26,100,59
India,Rajasthan,Jaipur,"Sector-2 Murlipura, Jaipur - RSPCB",09-04-2026 09:00:00,26.960669,75.771817,NO2,2,82,23
India,Rajasthan,Jaipur,"Sector-2 Murlipura, Jaipur - RSPCB",09-04-2026 09:00:00,26.960669,75.771817,OZONE,15,82,60
India,Rajasthan,Jaipur,"Shastri Nagar, Jaipur - RSPCB",09-04-2026 09:00:00,26.9502929,75.730943,NO2,32,87,45
India,Rajasthan,Jaipur,"Shastri Nagar, Jaipur - RSPCB",09-04-2026 09:00:00,26.9502929,75.730943,CO,22,120,34
India,Rajasthan,Jaisalmer,"Sadar Bazar, Jaisalmer - RSPCB",09-04-2026 09:00:00,26.912329,70.909168,PM2.5,13,133,32
India,Rajasthan,Jaisalmer,"Sadar Bazar, Jaisalmer - RSPCB",09-04-2026 09:00:00,26.912329,70.909168,NH3,10,17,12
India,Rajasthan,Jaipur,"Adarsh Nagar, Jaipur - RSPCB",09-04-2026 09:00:00,26.902909,75.836858,PM10,NA,NA,NA
India,Rajasthan,Jaipur,"Adarsh Nagar, Jaipur - RSPCB",09-04-2026 09:00:00,26.902909,75.836858,CO,10,46,34
India,Rajasthan,Jaipur,"Mansarovar Sector-12, Jaipur - RSPCB",09-04-2026 09:00:00,26.843698,75.766894,CO,54,104,59
India,Rajasthan,Jaipur,"Police Commissionerate, Jaipur - RSPCB",09-04-2026 09:00:00,26.9164092,75.7994901,OZONE,NA,NA,NA
India,Rajasthan,Jaisalmer,"Sadar Bazar, Jaisalmer - RSPCB",09-04-2026 09:00:00,26.912329,70.909168,OZONE,58,87,69
India,Rajasthan,Jalore,"Mudtra Sili, Jalore - RSPCB",09-04-2026 09:00:00,25.344694,72.626208,SO2,2,14,4
India,Rajasthan,Jhunjhunu,"Indra Nagar, Jhunjhunu - RSPCB",09-04-2026 09:00:00,28.108988,75.386577,NO2,12,82,31
India,Rajasthan,Jodhpur,"Jhalamand, Jodhpur - RSPCB",09-04-2026 09:00:00,26.215415,73.070156,OZONE,8,63,18
India,Rajasthan,Jodhpur,"Samrat Ashok Udhyan, Jodhpur - RSPCB",09-04-2026 09:00:00,26.253384,72.976571,SO2,1,4,2
India,Rajasthan,Jodhpur,"Samrat Ashok Udhyan, Jodhpur - RSPCB",09-04-2026 09:00:00,26.253384,72.976571,CO,12,32,20
India,Rajasthan,Jodhpur,"Samrat Ashok Udhyan, Jodhpur - RSPCB",09-04-2026 09:00:00,26.253384,72.976571,OZONE,39,132,54
India,Rajasthan,Dholpur,"Raja Ganj, Dholpur - RSPCB",09-04-2026 09:00:00,26.699557,77.898881,PM10,24,66,39
India,Rajasthan,Hanumangarh,"Housing Board, Hanumangarh - RSPCB",09-04-2026 09:00:00,29.610750,74.283608,PM10,26,132,60
India,Rajasthan,Jodhpur,"Digari Kalan, Jodhpur - RSPCB",09-04-2026 09:00:00,26.295810,73.082283,NH3,4,6,5
India,Rajasthan,Jodhpur,"Digari Kalan, Jodhpur - RSPCB",09-04-2026 09:00:00,26.295810,73.082283,OZONE,15,96,27
India,Rajasthan,Dausa,"Khatikan Mohalla, Dausa - RSPCB",09-04-2026 09:00:00,26.895552,76.334753,PM2.5,20,137,60
India,TamilNadu,Chennai,"Perungudi, Chennai - TNPCB",09-04-2026 09:00:00,12.9533,80.2357,PM10,23,89,53
India,TamilNadu,Chennai,"Perungudi, Chennai - TNPCB",09-04-2026 09:00:00,12.9533,80.2357,CO,13,53,27
India,TamilNadu,Chennai,"Perungudi, Chennai - TNPCB",09-04-2026 09:00:00,12.9533,80.2357,OZONE,1,5,2
India,TamilNadu,Chennai,"Royapuram, Chennai - TNPCB",09-04-2026 09:00:00,13.1036,80.2909,SO2,5,7,6
India,TamilNadu,Chennai,"Royapuram, Chennai - TNPCB",09-04-2026 09:00:00,13.1036,80.2909,CO,20,26,23
India,TamilNadu,Chennai,"Velachery Res. Area, Chennai - CPCB",09-04-2026 09:00:00,13.0052189,80.2398125,NO2,12,14,12
India,TamilNadu,Chennai,"Velachery Res. Area, Chennai - CPCB",09-04-2026 09:00:00,13.0052189,80.2398125,SO2,4,6,5
India,TamilNadu,Chennai,"Velachery Res. Area, Chennai - CPCB",09-04-2026 09:00:00,13.0052189,80.2398125,OZONE,8,12,9
India,TamilNadu,Coimbatore,"PSG College of Arts and Science, Coimbatore - TNPCB",09-04-2026 09:00:00,11.0328,77.0349,PM2.5,33,81,47
India,TamilNadu,Coimbatore,"PSG College of Arts and Science, Coimbatore - TNPCB",09-04-2026 09:00:00,11.0328,77.0349,SO2,2,9,4
India,TamilNadu,Coimbatore,"SIDCO Kurichi, Coimbatore - TNPCB",09-04-2026 09:00:00,10.942451,76.978996,SO2,25,26,25
India,TamilNadu,Coimbatore,"SIDCO Kurichi, Coimbatore - TNPCB",09-04-2026 09:00:00,10.942451,76.978996,CO,24,34,28
India,TamilNadu,Gummidipoondi,"Anthoni Pillai Nagar, Gummidipoondi - TNPCB",09-04-2026 09:00:00,13.4127,80.1081,PM10,74,156,101
India,TamilNadu,Gummidipoondi,"Anthoni Pillai Nagar, Gummidipoondi - TNPCB",09-04-2026 09:00:00,13.4127,80.1081,NH3,1,1,1
India,TamilNadu,Madurai,"Uchapatti, Madurai - TNPCB",09-04-2026 09:00:00,9.865935,78.022669,SO2,48,56,50
India,TamilNadu,Ooty,"Bombay Castel, Ooty - TNPCB",09-04-2026 09:00:00,11.4068288,76.7138973,NO2,NA,NA,NA
India,Rajasthan,Tonk,"Shastri Nagar, Tonk - RSPCB",09-04-2026 09:00:00,26.159933,75.780517,OZONE,66,175,90
India,Rajasthan,Udaipur,"Ashok Nagar, Udaipur - RSPCB",09-04-2026 09:00:00,24.5886166,73.6321397,PM2.5,53,382,115
India,Rajasthan,Udaipur,"Ashok Nagar, Udaipur - RSPCB",09-04-2026 09:00:00,24.5886166,73.6321397,NO2,23,88,58
India,Sikkim,Gangtok,"Zero Point GICI, Gangtok - SSPCB",09-04-2026 09:00:00,27.338530,88.614099,NO2,6,7,6
India,Sikkim,Gangtok,"Zero Point GICI, Gangtok - SSPCB",09-04-2026 09:00:00,27.338530,88.614099,SO2,1,1,1
India,TamilNadu,Chennai,"Kodungaiyur, Chennai - TNPCB",09-04-2026 09:00:00,13.1278,80.2642,NO2,11,16,14
India,TamilNadu,Chennai,"Kodungaiyur, Chennai - TNPCB",09-04-2026 09:00:00,13.1278,80.2642,CO,27,36,32
India,TamilNadu,Perundurai,"SIPCOT Industrial Park, Perundurai - TNPCB",09-04-2026 09:00:00,11.258242,77.552761,NH3,3,5,4
India,TamilNadu,Perundurai,"SIPCOT Industrial Park, Perundurai - TNPCB",09-04-2026 09:00:00,11.258242,77.552761,SO2,10,16,15
India,TamilNadu,Thoothukudi,"Meelavittan, Thoothukudi - TNPCB",09-04-2026 09:00:00,8.816428 ,78.099039,OZONE,24,34,31
India,TamilNadu,Tirupur,"Kumaran College, Tirupur - TNPCB",09-04-2026 09:00:00,11.0973603,77.3228673,PM2.5,27,80,41
India,TamilNadu,Tirupur,"Kumaran College, Tirupur - TNPCB",09-04-2026 09:00:00,11.0973603,77.3228673,CO,18,35,31
India,Telangana,Hyderabad,"ECIL Kapra, Hyderabad - TSPCB",09-04-2026 09:00:00,17.470431,78.566959,PM10,73,105,88
India,Telangana,Hyderabad,"ICRISAT Patancheru, Hyderabad - TSPCB",09-04-2026 09:00:00,17.518400,78.278777,NO2,1,12,4
India,Telangana,Hyderabad,"IDA Pashamylaram, Hyderabad - TSPCB",09-04-2026 09:00:00,17.5316895,78.218939,PM2.5,42,183,87
India,Telangana,Hyderabad,"IDA Pashamylaram, Hyderabad - TSPCB",09-04-2026 09:00:00,17.5316895,78.218939,OZONE,17,20,18
India,Rajasthan,Rajsamand,"Dhoinda, Rajsamand - RSPCB",09-04-2026 09:00:00,25.036360,73.883502,SO2,1,13,4
India,Rajasthan,Sikar,"Radhakishan Pura, Sikar - RSPCB",09-04-2026 09:00:00,27.608912,75.153302,CO,16,80,18
India,Rajasthan,Sirohi,"Vedhaynath Colony, Sirohi - RSPCB",09-04-2026 09:00:00,24.885261,72.857549,SO2,3,38,5
India,Telangana,Hyderabad,"Central University, Hyderabad - TSPCB",09-04-2026 09:00:00,17.460103,78.334361,PM2.5,9,40,23
India,Telangana,Hyderabad,"Central University, Hyderabad - TSPCB",09-04-2026 09:00:00,17.460103,78.334361,NH3,2,8,4
India,Telangana,Hyderabad,"IITH Kandi, Hyderabad - TSPCB",09-04-2026 09:00:00,17.585705,78.126199,NH3,3,5,4
India,Rajasthan,Tonk,"Shastri Nagar, Tonk - RSPCB",09-04-2026 09:00:00,26.159933,75.780517,CO,23,33,26
India,Tripura,Agartala,"Bardowali, Agartala - Tripura SPCB",09-04-2026 09:00:00,23.8175497,91.2726974,PM10,45,167,89
India,Tripura,Agartala,"Bardowali, Agartala - Tripura SPCB",09-04-2026 09:00:00,23.8175497,91.2726974,NO2,18,37,24
India,Tripura,Agartala,"Bardowali, Agartala - Tripura SPCB",09-04-2026 09:00:00,23.8175497,91.2726974,NH3,5,8,6
India,Tripura,Agartala,"Bardowali, Agartala - Tripura SPCB",09-04-2026 09:00:00,23.8175497,91.2726974,CO,10,29,13
India,Uttar_Pradesh,Agra,"Manoharpur, Agra - UPPCB",09-04-2026 09:00:00,27.23711,78.01936,PM2.5,19,49,34
India,Uttar_Pradesh,Agra,"Manoharpur, Agra - UPPCB",09-04-2026 09:00:00,27.23711,78.01936,PM10,12,149,74
India,Uttar_Pradesh,Agra,"Manoharpur, Agra - UPPCB",09-04-2026 09:00:00,27.23711,78.01936,NH3,5,6,5
India,Uttar_Pradesh,Agra,"Manoharpur, Agra - UPPCB",09-04-2026 09:00:00,27.23711,78.01936,SO2,8,13,10
India,Uttar_Pradesh,Agra,"Manoharpur, Agra - UPPCB",09-04-2026 09:00:00,27.23711,78.01936,CO,18,18,18
India,Uttar_Pradesh,Agra,"Rohta, Agra - UPPCB",09-04-2026 09:00:00,27.106972,78.000111,NO2,13,13,13
India,Uttar_Pradesh,Agra,"Rohta, Agra - UPPCB",09-04-2026 09:00:00,27.106972,78.000111,NH3,5,5,5
India,Uttar_Pradesh,Agra,"Sanjay Palace, Agra - UPPCB",09-04-2026 09:00:00,27.19865833,78.00598056,PM10,31,100,61
India,Uttar_Pradesh,Agra,"Sanjay Palace, Agra - UPPCB",09-04-2026 09:00:00,27.19865833,78.00598056,SO2,17,18,17
India,Uttar_Pradesh,Agra,"Sector-3B Avas Vikas Colony, Agra - UPPCB",09-04-2026 09:00:00,27.19412,77.96237,PM2.5,34,69,52
India,Uttar_Pradesh,Ghaziabad,"Vasundhara, Ghaziabad - UPPCB",09-04-2026 09:00:00,28.6603346,77.3572563,OZONE,25,182,38
India,Uttar_Pradesh,Gorakhpur,"Madan Mohan Malaviya University of Technology, Gorakhpur - UPPCB",09-04-2026 09:00:00,26.730136,83.433859,NH3,1,1,1
India,Uttar_Pradesh,Gorakhpur,"Madan Mohan Malaviya University of Technology, Gorakhpur - UPPCB",09-04-2026 09:00:00,26.730136,83.433859,CO,2,3,2
India,Uttar_Pradesh,Greater Noida,"Knowledge Park - III, Greater Noida - UPPCB",09-04-2026 09:00:00,28.47272,77.482000,NO2,13,45,29
India,Uttar_Pradesh,Greater Noida,"Knowledge Park - V, Greater Noida - UPPCB",09-04-2026 09:00:00,28.557054,77.453663,CO,22,102,29
India,Uttar_Pradesh,Firozabad,"Nagla Bhau, Firozabad - UPPCB",09-04-2026 09:00:00,27.168897,78.376960,NO2,17,17,17
India,Uttar_Pradesh,Firozabad,"Nagla Bhau, Firozabad - UPPCB",09-04-2026 09:00:00,27.168897,78.376960,CO,18,42,26
India,Uttar_Pradesh,Firozabad,"Nagla Bhau, Firozabad - UPPCB",09-04-2026 09:00:00,27.168897,78.376960,OZONE,7,18,11
India,Uttar_Pradesh,Firozabad,"Vibhab Nagar, Firozabad - UPPCB",09-04-2026 09:00:00,27.1594,78.3953,PM2.5,25,55,34
India,Uttar_Pradesh,Firozabad,"Vibhab Nagar, Firozabad - UPPCB",09-04-2026 09:00:00,27.1594,78.3953,NH3,2,2,2
India,Uttar_Pradesh,Ghaziabad,"Loni, Ghaziabad - UPPCB",09-04-2026 09:00:00,28.757294,77.278792,CO,16,28,23
India,Uttar_Pradesh,Bareilly,"Rajendra Nagar, Bareilly - UPPCB",09-04-2026 09:00:00,28.38910936,79.42963708,PM2.5,9,26,14
India,Uttar_Pradesh,Bulandshahr,"Yamunapuram, Bulandshahr - UPPCB",09-04-2026 09:00:00,28.406963,77.849831,PM2.5,10,76,30
India,Uttar_Pradesh,Firozabad,"Nagla Bhau, Firozabad - UPPCB",09-04-2026 09:00:00,27.168897,78.376960,PM10,25,58,40
India,Telangana,Hyderabad,"Kokapet, Hyderabad - TSPCB",09-04-2026 09:00:00,17.393559,78.339194,OZONE,20,36,20
India,Telangana,Hyderabad,"Kompally Municipal Office, Hyderabad - TSPCB",09-04-2026 09:00:00,17.544899,78.486949,SO2,4,14,12
India,Telangana,Hyderabad,"Nacharam_TSIIC IALA, Hyderabad - TSPCB",09-04-2026 09:00:00,17.429398,78.569354,NH3,4,7,6
India,Telangana,Hyderabad,"New Malakpet, Hyderabad - TSPCB",09-04-2026 09:00:00,17.37206,78.50864,SO2,14,19,16
India,Telangana,Hyderabad,"Ramachandrapuram, Hyderabad - TSPCB",09-04-2026 09:00:00,17.528544,78.286195,SO2,7,19,11
India,Telangana,Hyderabad,"Somajiguda, Hyderabad - TSPCB",09-04-2026 09:00:00,17.417094,78.457437,PM10,81,101,86
India,Uttar_Pradesh,Agra,"Shastripuram, Agra - UPPCB",09-04-2026 09:00:00,27.19862,77.92066,SO2,4,5,5
India,Uttar_Pradesh,Agra,"Shastripuram, Agra - UPPCB",09-04-2026 09:00:00,27.19862,77.92066,CO,6,10,8
India,Uttar_Pradesh,Hapur,"Anand Vihar, Hapur - UPPCB",09-04-2026 09:00:00,28.725645,77.749675,NO2,9,34,15
India,Uttar_Pradesh,Hapur,"Anand Vihar, Hapur - UPPCB",09-04-2026 09:00:00,28.725645,77.749675,NH3,9,17,11
India,Telangana,Hyderabad,"Kokapet, Hyderabad - TSPCB",09-04-2026 09:00:00,17.393559,78.339194,PM2.5,57,85,65
India,Uttar_Pradesh,Lucknow,"Kukrail Picnic Spot-1, Lucknow - UPPCB",09-04-2026 09:00:00,26.90723,80.98579,SO2,20,30,22
India,Uttar_Pradesh,Lucknow,"Talkatora District Industries Center, Lucknow - CPCB",09-04-2026 09:00:00,26.83399722,80.8917361,PM2.5,35,86,60
India,Uttar_Pradesh,Lucknow,"Talkatora District Industries Center, Lucknow - CPCB",09-04-2026 09:00:00,26.83399722,80.8917361,CO,8,100,23
India,Uttar_Pradesh,Meerut,"Ganga Nagar, Meerut - UPPCB",09-04-2026 09:00:00,28.999264,77.7590354,NO2,57,100,77
India,Uttar_Pradesh,Meerut,"Ganga Nagar, Meerut - UPPCB",09-04-2026 09:00:00,28.999264,77.7590354,NH3,3,4,3
India,Uttar_Pradesh,Meerut,"Ganga Nagar, Meerut - UPPCB",09-04-2026 09:00:00,28.999264,77.7590354,OZONE,4,32,8
India,Uttar_Pradesh,Moradabad,"Buddhi Vihar, Moradabad - UPPCB",09-04-2026 09:00:00,28.83526,78.74460,NH3,5,5,5
India,Uttar_Pradesh,Moradabad,"Buddhi Vihar, Moradabad - UPPCB",09-04-2026 09:00:00,28.83526,78.74460,SO2,22,26,23
India,Uttar_Pradesh,Moradabad,"Buddhi Vihar, Moradabad - UPPCB",09-04-2026 09:00:00,28.83526,78.74460,CO,28,40,31
India,Uttar_Pradesh,Moradabad,"Eco Herbal Park, Moradabad - UPPCB",09-04-2026 09:00:00,28.840739,78.697531,PM10,8,74,22
India,Uttar_Pradesh,Moradabad,"Eco Herbal Park, Moradabad - UPPCB",09-04-2026 09:00:00,28.840739,78.697531,NH3,2,8,4
India,Uttar_Pradesh,Moradabad,"Employment Office, Moradabad - UPPCB",09-04-2026 09:00:00,28.88528,78.73880,PM2.5,NA,NA,NA
India,Uttar_Pradesh,Moradabad,"Employment Office, Moradabad - UPPCB",09-04-2026 09:00:00,28.88528,78.73880,NO2,NA,NA,NA
India,Uttar_Pradesh,Meerut,"Pallavpuram Phase 2, Meerut - UPPCB",09-04-2026 09:00:00,29.063510,77.709723,SO2,3,32,15
India,Uttar_Pradesh,Modinagar,"SRM University, Modinagar - UPPCB",09-04-2026 09:00:00,28.798171 ,77.540243 ,PM2.5,49,131,85
India,Uttar_Pradesh,Modinagar,"SRM University, Modinagar - UPPCB",09-04-2026 09:00:00,28.798171 ,77.540243 ,PM10,82,160,125
India,Uttar_Pradesh,Modinagar,"SRM University, Modinagar - UPPCB",09-04-2026 09:00:00,28.798171 ,77.540243 ,SO2,1,18,11
India,Uttar_Pradesh,Moradabad,"Buddhi Vihar, Moradabad - UPPCB",09-04-2026 09:00:00,28.83526,78.74460,NO2,28,29,29
India,Uttar_Pradesh,Khora,"Prashant Garden, Khora - UPPCB",09-04-2026 09:00:00,28.61119,77.34206,SO2,8,24,10
India,Uttar_Pradesh,Khurja,"Kalindi Kunj, Khurja - UPPCB",09-04-2026 09:00:00,28.2348927,77.8683002,PM2.5,NA,NA,NA
India,Uttar_Pradesh,Khurja,"Kalindi Kunj, Khurja - UPPCB",09-04-2026 09:00:00,28.2348927,77.8683002,NH3,1,1,1
India,Uttar_Pradesh,Khurja,"Kalindi Kunj, Khurja - UPPCB",09-04-2026 09:00:00,28.2348927,77.8683002,SO2,9,124,15
India,Uttar_Pradesh,Noida,"Sector - 62, Noida - IMD",09-04-2026 09:00:00,28.6245479,77.3577104,PM2.5,18,77,45
India,Uttar_Pradesh,Noida,"Sector-1, Noida - UPPCB",09-04-2026 09:00:00,28.5898,77.3101,SO2,9,53,18
India,Uttar_Pradesh,Lucknow,"Gomti Nagar, Lucknow - UPPCB",09-04-2026 09:00:00,26.868120,81.005119,PM2.5,4,42,20
India,Uttar_Pradesh,Lucknow,"Gomti Nagar, Lucknow - UPPCB",09-04-2026 09:00:00,26.868120,81.005119,CO,32,37,33
India,Uttar_Pradesh,Moradabad,"Transport Nagar, Moradabad - UPPCB",09-04-2026 09:00:00,28.802625,78.753728,NO2,NA,NA,NA
India,Uttar_Pradesh,Moradabad,"Transport Nagar, Moradabad - UPPCB",09-04-2026 09:00:00,28.802625,78.753728,SO2,NA,NA,NA
India,Uttar_Pradesh,Kanpur,"Nehru Nagar, Kanpur - UPPCB",09-04-2026 09:00:00,26.4703136,80.3229863,PM10,14,84,46
India,Uttar_Pradesh,Kanpur,"NSI Kalyanpur, Kanpur - UPPCB",09-04-2026 09:00:00,26.509954,80.249612,SO2,11,15,12
India,Uttar_Pradesh,Varanasi,"Bhelupur, Varanasi - UPPCB",09-04-2026 09:00:00,25.301778,82.996789,OZONE,5,9,5
India,Uttar_Pradesh,Varanasi,"IESD Banaras Hindu University, Varanasi - UPPCB",09-04-2026 09:00:00,25.262326,82.995408,CO,2,4,3
India,Uttar_Pradesh,Varanasi,"Maldahiya, Varanasi - UPPCB",09-04-2026 09:00:00,25.32393,82.99687,CO,15,28,17
India,Uttar_Pradesh,Prayagraj,"Motilal Nehru NIT, Prayagraj - UPPCB",09-04-2026 09:00:00,25.494,81.863,NH3,8,8,8
India,Uttar_Pradesh,Prayagraj,"Motilal Nehru NIT, Prayagraj - UPPCB",09-04-2026 09:00:00,25.494,81.863,CO,5,16,11
India,Uttar_Pradesh,Prayagraj,"Nagar Nigam, Prayagraj - UPPCB",09-04-2026 09:00:00,25.44919916 ,81.82735986 ,NO2,5,5,5
India,Uttarakhand,Rishikesh,"Shivaji Nagar, Rishikesh - UKPCB",09-04-2026 09:00:00,30.075911,78.2859547,NO2,17,23,20
India,West_Bengal,Asansol,"Asansol Court Area, Asansol - WBPCB",09-04-2026 09:00:00,23.685297,86.945968,PM2.5,36,79,56
India,Uttarakhand,Kashipur,"Govt. Girls Inter College, Kashipur - UKPCB",09-04-2026 09:00:00,29.2124114,78.9611753,CO,10,20,17
India,Uttar_Pradesh,Vrindavan,"Omex Eternity, Vrindavan - UPPCB",09-04-2026 09:00:00,27.5714090,77.6557570,OZONE,15,16,15
India,West_Bengal,Asansol,"Asansol Court Area, Asansol - WBPCB",09-04-2026 09:00:00,23.685297,86.945968,SO2,8,29,16
India,Uttar_Pradesh,Vrindavan,"Omex Eternity, Vrindavan - UPPCB",09-04-2026 09:00:00,27.5714090,77.6557570,NO2,27,27,27
India,Uttar_Pradesh,Prayagraj,"Jhunsi, Prayagraj - UPPCB",09-04-2026 09:00:00,25.425602,81.917152,CO,9,17,11
India,Uttar_Pradesh,Noida,"Sector-116, Noida - UPPCB",09-04-2026 09:00:00,28.569230,77.393848,SO2,8,16,11
India,West_Bengal,Howrah,"Belur Math, Howrah - WBPCB",09-04-2026 09:00:00,22.629801,88.352017,OZONE,13,33,17
India,West_Bengal,Howrah,"Botanical Garden, Howrah - WBPCB",09-04-2026 09:00:00,22.554954,88.292568,SO2,2,45,13
India,West_Bengal,Howrah,"Dasnagar, Howrah - WBPCB",09-04-2026 09:00:00,22.6025571,88.3105664,OZONE,18,63,25
India,West_Bengal,Howrah,"Ghusuri, Howrah - WBPCB",09-04-2026 09:00:00,22.611968,88.347422,PM10,29,73,59
India,West_Bengal,Howrah,"Ghusuri, Howrah - WBPCB",09-04-2026 09:00:00,22.611968,88.347422,OZONE,3,31,14
India,West_Bengal,Howrah,"Padmapukur, Howrah - WBPCB",09-04-2026 09:00:00,22.5687319,88.2797276,PM2.5,13,34,23
India,West_Bengal,Howrah,"Padmapukur, Howrah - WBPCB",09-04-2026 09:00:00,22.5687319,88.2797276,NH3,4,4,4
India,West_Bengal,Howrah,"Padmapukur, Howrah - WBPCB",09-04-2026 09:00:00,22.5687319,88.2797276,CO,53,101,90
India,West_Bengal,Kolkata,"Ballygunge, Kolkata - WBPCB",09-04-2026 09:00:00,22.5367507,88.3638022,PM2.5,4,63,38
India,West_Bengal,Asansol,"Trivenidevi Bhalotia College, Asansol - WBPCB",09-04-2026 09:00:00,23.616515,87.119133,NH3,4,5,5
India,West_Bengal,Barrackpore,"SVSPA Campus, Barrackpore - WBPCB",09-04-2026 09:00:00,22.7605581,88.3617589,PM10,13,64,33
India,West_Bengal,Barrackpore,"SVSPA Campus, Barrackpore - WBPCB",09-04-2026 09:00:00,22.7605581,88.3617589,SO2,13,15,14
India,West_Bengal,Barrackpore,"SVSPA Campus, Barrackpore - WBPCB",09-04-2026 09:00:00,22.7605581,88.3617589,CO,21,34,27
India,West_Bengal,Barrackpore,"SVSPA Campus, Barrackpore - WBPCB",09-04-2026 09:00:00,22.7605581,88.3617589,OZONE,4,35,8
India,West_Bengal,Haldia,"Priyambada Housing Estate, Haldia - WBPCB",09-04-2026 09:00:00,22.06047,88.109737,OZONE,8,79,8
India,West_Bengal,Howrah,"Belur Math, Howrah - WBPCB",09-04-2026 09:00:00,22.629801,88.352017,PM2.5,24,50,36
India,West_Bengal,Howrah,"Belur Math, Howrah - WBPCB",09-04-2026 09:00:00,22.629801,88.352017,NO2,24,89,42
India,West_Bengal,Asansol,"Evelyn Lodge, Asansol - WBPCB",09-04-2026 09:00:00,23.6979360,86.9443950,PM2.5,14,56,35
India,West_Bengal,Asansol,"Evelyn Lodge, Asansol - WBPCB",09-04-2026 09:00:00,23.6979360,86.9443950,NH3,5,6,5
India,West_Bengal,Asansol,"Mahabir Colliery, Asansol - WBPCB",09-04-2026 09:00:00,23.6181830,87.1057180,NH3,1,2,1
India,West_Bengal,Asansol,"Mahabir Colliery, Asansol - WBPCB",09-04-2026 09:00:00,23.6181830,87.1057180,OZONE,7,55,10
India,West_Bengal,Durgapur,"PCBL Residential Complex, Durgapur - WBPCB",09-04-2026 09:00:00,23.5087640,87.3544400,NO2,25,55,37
India,West_Bengal,Durgapur,"Womens College_City Center, Durgapur - WBPCB",09-04-2026 09:00:00,23.549395,87.300496,NO2,22,35,27
India,West_Bengal,Haldia,"Priyambada Housing Estate, Haldia - WBPCB",09-04-2026 09:00:00,22.06047,88.109737,PM2.5,10,32,19
India,West_Bengal,Asansol,"Mahabir Colliery, Asansol - WBPCB",09-04-2026 09:00:00,23.6181830,87.1057180,PM10,37,67,55
India,West_Bengal,Kolkata,"Ballygunge, Kolkata - WBPCB",09-04-2026 09:00:00,22.5367507,88.3638022,NH3,7,11,8
India,West_Bengal,Kolkata,"Ballygunge, Kolkata - WBPCB",09-04-2026 09:00:00,22.5367507,88.3638022,CO,16,30,22
India,West_Bengal,Kolkata,"Bidhannagar, Kolkata - WBPCB",09-04-2026 09:00:00,22.58157048,88.41002457,NO2,17,18,18
India,West_Bengal,Kolkata,"Bidhannagar, Kolkata - WBPCB",09-04-2026 09:00:00,22.58157048,88.41002457,OZONE,8,35,12
India,West_Bengal,Kolkata,"Fort William, Kolkata - WBPCB",09-04-2026 09:00:00,22.556640,88.342674,PM2.5,14,35,25
India,West_Bengal,Kolkata,"Jadavpur, Kolkata - WBPCB",09-04-2026 09:00:00,22.49929,88.36917,PM2.5,24,49,35
India,West_Bengal,Kolkata,"Jadavpur, Kolkata - WBPCB",09-04-2026 09:00:00,22.49929,88.36917,OZONE,5,58,6
India,West_Bengal,Kolkata,"Rabindra Bharati University, Kolkata - WBPCB",09-04-2026 09:00:00,22.627847,88.380669,CO,26,42,33
India,West_Bengal,Kolkata,"Rabindra Sarobar, Kolkata - WBPCB",09-04-2026 09:00:00,22.51106,88.35142,PM2.5,27,50,35
India,West_Bengal,Kolkata,"Victoria, Kolkata - WBPCB",09-04-2026 09:00:00,22.5448082,88.3403691,NH3,7,8,8
India,West_Bengal,Siliguri,"Ward-32 Bapupara, Siliguri - WBPCB",09-04-2026 09:00:00,26.6879226,88.4152495,NO2,49,127,78
India,Assam,Guwahati,"Railway Colony, Guwahati - PCBA",09-04-2026 09:00:00,26.181742,91.78063,OZONE,1,7,1
India,Assam,Nagaon,"Christianpatty, Nagaon - PCBA",09-04-2026 09:00:00,26.349082,92.68449,NH3,4,4,4
India,Assam,Nalbari,"Bata Chowk, Nalbari - PCBA",09-04-2026 09:00:00,26.446912,91.439057,NH3,6,7,6
India,Assam,Silchar,"Tarapur, Silchar - PCBA",09-04-2026 09:00:00,24.82827,92.79525,PM10,33,87,65
India,Assam,Silchar,"Tarapur, Silchar - PCBA",09-04-2026 09:00:00,24.82827,92.79525,NH3,1,1,1
India,Assam,Silchar,"Tarapur, Silchar - PCBA",09-04-2026 09:00:00,24.82827,92.79525,SO2,6,8,7
India,Assam,Sivasagar,"Girls College, Sivasagar - PCBA",09-04-2026 09:00:00,26.987634,94.636574,OZONE,19,80,27
India,Andhra_Pradesh,Tirumala,"Toll Gate, Tirumala - APPCB",09-04-2026 09:00:00,13.67,79.35,CO,16,34,19
India,Andhra_Pradesh,Tirumala,"Toll Gate, Tirumala - APPCB",09-04-2026 09:00:00,13.67,79.35,OZONE,21,77,31
India,Andhra_Pradesh,Tirupati,"Vaikuntapuram, Tirupati - APPCB",09-04-2026 09:00:00,13.615387,79.409230,PM10,NA,NA,NA
India,Andhra_Pradesh,Tirupati,"Vaikuntapuram, Tirupati - APPCB",09-04-2026 09:00:00,13.615387,79.409230,NO2,19,29,22
India,Andhra_Pradesh,Vijayawada,"Rajiv Gandhi Park, Vijayawada - APPCB",09-04-2026 09:00:00,16.509717,80.612222,PM10,44,82,61
India,Andhra_Pradesh,Vijayawada,"Rajiv Nagar, Vijayawada - APPCB",09-04-2026 09:00:00,16.554731,80.649110,PM2.5,43,68,61
India,Andhra_Pradesh,Vijayawada,"Rajiv Nagar, Vijayawada - APPCB",09-04-2026 09:00:00,16.554731,80.649110,NO2,21,26,22
India,Andhra_Pradesh,Vijayawada,"Rajiv Nagar, Vijayawada - APPCB",09-04-2026 09:00:00,16.554731,80.649110,SO2,5,18,10
India,Arunachal_Pradesh,Naharlagun,"Naharlagun, Naharlagun - APSPCB",09-04-2026 09:00:00,27.103358,93.679645,PM2.5,NA,NA,NA
India,Arunachal_Pradesh,Naharlagun,"Naharlagun, Naharlagun - APSPCB",09-04-2026 09:00:00,27.103358,93.679645,NH3,NA,NA,NA
India,Arunachal_Pradesh,Naharlagun,"Naharlagun, Naharlagun - APSPCB",09-04-2026 09:00:00,27.103358,93.679645,OZONE,NA,NA,NA
India,Andhra_Pradesh,Rajamahendravaram,"Anand Kala Kshetram, Rajamahendravaram - APPCB",09-04-2026 09:00:00,16.9872867,81.7363176,NO2,4,21,11
India,Andhra_Pradesh,Machilipatnam,"Srinivas Nagar Colony, Machilipatnam - APPCB",09-04-2026 09:00:00,16.186555,81.13219,PM2.5,NA,NA,NA
India,Andhra_Pradesh,Chittoor,"Gangineni Cheruvu, Chittoor - APPCB",09-04-2026 09:00:00,13.204880,79.097889,SO2,9,23,12
India,Andhra_Pradesh,Amaravati,"Secretariat, Amaravati - APPCB",09-04-2026 09:00:00,16.5150833,80.5181667,NO2,7,13,8
India,Andhra_Pradesh,Tirumala,"Toll Gate, Tirumala - APPCB",09-04-2026 09:00:00,13.67,79.35,PM2.5,29,93,63
India,Andhra_Pradesh,Tirumala,"Toll Gate, Tirumala - APPCB",09-04-2026 09:00:00,13.67,79.35,SO2,2,14,6
India,Bihar,Araria,"Kharahiya Basti, Araria - BSPCB",09-04-2026 09:00:00,26.146529,87.454184,PM2.5,17,140,74
India,Bihar,Araria,"Kharahiya Basti, Araria - BSPCB",09-04-2026 09:00:00,26.146529,87.454184,NH3,5,6,6
India,Bihar,Aurangabad,"Gurdeo Nagar, Aurangabad - BSPCB",09-04-2026 09:00:00,24.75746,84.366208,NH3,1,2,1
India,Bihar,Aurangabad,"Gurdeo Nagar, Aurangabad - BSPCB",09-04-2026 09:00:00,24.75746,84.366208,SO2,8,15,12
India,Bihar,Aurangabad,"Gurdeo Nagar, Aurangabad - BSPCB",09-04-2026 09:00:00,24.75746,84.366208,CO,100,102,102
India,Bihar,Aurangabad,"Gurdeo Nagar, Aurangabad - BSPCB",09-04-2026 09:00:00,24.75746,84.366208,OZONE,6,40,10
India,Bihar,Begusarai,"Lohiyanagar, Begusarai - BSPCB",09-04-2026 09:00:00,25.42742023,86.13886079,PM2.5,NA,NA,NA
India,Bihar,Begusarai,"Lohiyanagar, Begusarai - BSPCB",09-04-2026 09:00:00,25.42742023,86.13886079,SO2,33,35,34
India,Bihar,Bettiah,"Kamalnath Nagar, Bettiah - BSPCB",09-04-2026 09:00:00,26.80365,84.51954,PM2.5,2,33,11
India,Bihar,Bettiah,"Kamalnath Nagar, Bettiah - BSPCB",09-04-2026 09:00:00,26.80365,84.51954,OZONE,22,25,23
India,Bihar,Bhagalpur,"DM Office_Kachari Chowk, Bhagalpur - BSPCB",09-04-2026 09:00:00,25.251013,86.989001,PM2.5,17,55,36
India,Bihar,Bhagalpur,"DM Office_Kachari Chowk, Bhagalpur - BSPCB",09-04-2026 09:00:00,25.251013,86.989001,PM10,21,121,53
India,Bihar,Gaya,"Kareemganj, Gaya - BSPCB",09-04-2026 09:00:00,24.792403,84.992416,NH3,1,5,1
India,Bihar,Gaya,"SFTI Kusdihra, Gaya - BSPCB",09-04-2026 09:00:00,24.762518,84.982348,NO2,20,26,23
India,Bihar,Bhagalpur,"DM Office_Kachari Chowk, Bhagalpur - BSPCB",09-04-2026 09:00:00,25.251013,86.989001,CO,1,26,15
India,Bihar,Bihar Sharif,"D M Colony, Bihar Sharif - BSPCB",09-04-2026 09:00:00,25.204762,85.514960,PM10,15,51,29
India,Bihar,Hajipur,"Industrial Area, Hajipur - BSPCB",09-04-2026 09:00:00,25.697189,85.245900,OZONE,9,331,20
India,Bihar,Motihari,"Gandak Colony, Motihari - BSPCB",09-04-2026 09:00:00,26.63086,84.90051,PM2.5,10,72,42
India,Bihar,Katihar,"Mirchaibari, Katihar - BSPCB",09-04-2026 09:00:00,25.560083,87.553265,CO,66,87,74
India,Bihar,Buxar,"Charitra Van, Buxar - BSPCB",09-04-2026 09:00:00,25.567520,83.966379,PM2.5,NA,NA,NA
India,Bihar,Gaya,"Collectorate, Gaya - BSPCB",09-04-2026 09:00:00,24.7955,84.9994,NO2,NA,NA,NA
India,Bihar,Patna,"DRM Office Danapur, Patna - BSPCB",09-04-2026 09:00:00,25.586562,85.043586,NH3,8,9,8
India,Bihar,Patna,"Govt. High School Shikarpur, Patna - BSPCB",09-04-2026 09:00:00,25.592539,85.227158,PM2.5,69,85,76
India,Bihar,Patna,"IGSC Planetarium Complex, Patna - BSPCB",09-04-2026 09:00:00,25.610369,85.132568,NO2,1,2,2
India,Bihar,Patna,"IGSC Planetarium Complex, Patna - BSPCB",09-04-2026 09:00:00,25.610369,85.132568,SO2,1,26,19
India,Bihar,Patna,"IGSC Planetarium Complex, Patna - BSPCB",09-04-2026 09:00:00,25.610369,85.132568,CO,6,49,38
India,Bihar,Patna,"Muradpur, Patna - BSPCB",09-04-2026 09:00:00,25.619651,85.147382,NH3,4,5,5
India,Bihar,Patna,"Muradpur, Patna - BSPCB",09-04-2026 09:00:00,25.619651,85.147382,CO,4,30,20
India,Bihar,Patna,"Rajbansi Nagar, Patna - BSPCB",09-04-2026 09:00:00,25.599486,85.113666,PM10,75,126,100
India,Bihar,Motihari,"Gandak Colony, Motihari - BSPCB",09-04-2026 09:00:00,26.63086,84.90051,NO2,8,12,10
India,Bihar,Motihari,"Gandak Colony, Motihari - BSPCB",09-04-2026 09:00:00,26.63086,84.90051,CO,36,53,47
India,Bihar,Munger,"Town Hall, Munger - BSPCB",09-04-2026 09:00:00,25.376776,86.471523,PM10,NA,NA,NA
India,Bihar,Munger,"Town Hall, Munger - BSPCB",09-04-2026 09:00:00,25.376776,86.471523,SO2,NA,NA,NA
India,Bihar,Muzaffarpur,"Buddha Colony, Muzaffarpur - BSPCB",09-04-2026 09:00:00,26.11442,85.39813,PM2.5,89,224,135
India,Bihar,Muzaffarpur,"Buddha Colony, Muzaffarpur - BSPCB",09-04-2026 09:00:00,26.11442,85.39813,CO,13,39,29
India,Bihar,Muzaffarpur,"MIT-Daudpur Kothi, Muzaffarpur - BSPCB",09-04-2026 09:00:00,26.1403345,85.3650192,SO2,9,12,10
India,Chandigarh,Chandigarh,"Sector-53, Chandigarh - CPCC",09-04-2026 09:00:00,30.719859,76.738637,OZONE,2,62,8
India,Chhattisgarh,Bhilai,"32Bungalows, Bhilai - CECB",09-04-2026 09:00:00,21.194815,81.314770,PM10,30,53,44
India,Chhattisgarh,Bhilai,"32Bungalows, Bhilai - CECB",09-04-2026 09:00:00,21.194815,81.314770,NH3,1,1,1
India,Chhattisgarh,Bhilai,"32Bungalows, Bhilai - CECB",09-04-2026 09:00:00,21.194815,81.314770,SO2,10,70,18
India,Chhattisgarh,Bhilai,"32Bungalows, Bhilai - CECB",09-04-2026 09:00:00,21.194815,81.314770,OZONE,6,22,10
India,Chhattisgarh,Bhilai,"Civic Center, Bhilai - Bhilai Steel Plant",09-04-2026 09:00:00,21.185571,81.343175,PM2.5,15,56,32
India,Bihar,Patna,"Samanpura, Patna - BSPCB",09-04-2026 09:00:00,25.596727,85.085624,NO2,34,42,38
India,Bihar,Patna,"Samanpura, Patna - BSPCB",09-04-2026 09:00:00,25.596727,85.085624,OZONE,23,35,30
India,Bihar,Purnia,"Mariam Nagar, Purnia - BSPCB",09-04-2026 09:00:00,25.366336,87.117468,SO2,16,17,17
India,Bihar,Purnia,"Mariam Nagar, Purnia - BSPCB",09-04-2026 09:00:00,25.366336,87.117468,CO,36,60,57
India,Bihar,Rajgir,"Dangi Tola, Rajgir - BSPCB",09-04-2026 09:00:00,25.03280,85.41948,PM10,26,83,50
India,Bihar,Rajgir,"Dangi Tola, Rajgir - BSPCB",09-04-2026 09:00:00,25.03280,85.41948,NH3,3,3,3
India,Bihar,Muzaffarpur,"Muzaffarpur Collectorate, Muzaffarpur - BSPCB",09-04-2026 09:00:00,26.1209,85.3647,SO2,4,9,5
India,Bihar,Samastipur,"DM Office_Kasipur, Samastipur - BSPCB",09-04-2026 09:00:00,25.859655,85.77944,NH3,1,1,1
India,Chandigarh,Chandigarh,"Sector-25, Chandigarh - CPCC",09-04-2026 09:00:00,30.751462,76.762879,OZONE,1,31,6
India,Bihar,Siwan,"Chitragupta Nagar, Siwan - BSPCB",09-04-2026 09:00:00,26.2271665,84.3570427,NO2,2,2,2
India,Chhattisgarh,Raipur,"AIIMS, Raipur - CECB",09-04-2026 09:00:00,21.258815,81.578979,CO,14,54,40
India,Chhattisgarh,Raipur,"Bhatagaon New ISBT, Raipur - CECB",09-04-2026 09:00:00,21.219665,81.630094,PM2.5,17,50,34
India,Chhattisgarh,Raipur,"Bhatagaon New ISBT, Raipur - CECB",09-04-2026 09:00:00,21.219665,81.630094,NO2,22,41,29
India,Chhattisgarh,Kunjemura,"OP Jindal School, Kunjemura - CECB",09-04-2026 09:00:00,22.126650,83.483212,PM2.5,14,40,25
India,Chhattisgarh,Raipur,"Siltara Phase-II, Raipur - CECB",09-04-2026 09:00:00,21.371751,81.664929,OZONE,3,25,4
India,Chhattisgarh,Raipur,"Krishak Nagar, Raipur - CECB",09-04-2026 09:00:00,21.237755,81.705301,OZONE,1,74,2
India,Chhattisgarh,Korba,"Urja Nagar, Korba - CECB",09-04-2026 09:00:00,22.348441,82.549611,NO2,21,37,24
India,Chhattisgarh,Bhilai,"Hathkhoj, Bhilai - CECB",09-04-2026 09:00:00,21.224231,81.408350,NO2,17,84,35
India,Chhattisgarh,Raipur,"AIIMS, Raipur - CECB",09-04-2026 09:00:00,21.258815,81.578979,PM2.5,26,87,52
India,Chhattisgarh,Korba,"Urja Nagar, Korba - CECB",09-04-2026 09:00:00,22.348441,82.549611,NH3,1,1,1
India,Chhattisgarh,Korba,"Rampur, Korba - CECB",09-04-2026 09:00:00,22.368195,82.746431,CO,NA,NA,NA
India,Delhi,Delhi,"ITO, Delhi - CPCB",09-04-2026 09:00:00,28.628624,77.241060,PM2.5,44,78,62
India,Delhi,Delhi,"ITO, Delhi - CPCB",09-04-2026 09:00:00,28.628624,77.241060,PM10,57,117,86
India,Delhi,Delhi,"ITO, Delhi - CPCB",09-04-2026 09:00:00,28.628624,77.241060,SO2,9,31,23
India,Delhi,Delhi,"Jahangirpuri, Delhi - DPCC",09-04-2026 09:00:00,28.732820,77.170633,NO2,30,67,44
India,Delhi,Delhi,"Jahangirpuri, Delhi - DPCC",09-04-2026 09:00:00,28.732820,77.170633,NH3,9,12,10
India,Delhi,Delhi,"Lodhi Road, Delhi - IMD",09-04-2026 09:00:00,28.5918245,77.2273074,PM10,52,107,78
India,Delhi,Delhi,"Lodhi Road, Delhi - IMD",09-04-2026 09:00:00,28.5918245,77.2273074,NO2,13,30,19
India,Delhi,Delhi,"Major Dhyan Chand National Stadium, Delhi - DPCC",09-04-2026 09:00:00,28.611281,77.237738,PM2.5,27,73,37
India,Delhi,Delhi,"Cantonment Area, Delhi - DPCC ",09-04-2026 09:00:00,28.594169 ,77.125100 ,OZONE,5,49,9
India,Delhi,Delhi,"Chandni Chowk, Delhi - IITM",09-04-2026 09:00:00,28.656756,77.227234,SO2,11,22,15
India,Delhi,Delhi,"Chandni Chowk, Delhi - IITM",09-04-2026 09:00:00,28.656756,77.227234,CO,103,116,106
India,Delhi,Delhi,"Chandni Chowk, Delhi - IITM",09-04-2026 09:00:00,28.656756,77.227234,OZONE,24,120,37
India,Delhi,Delhi,"Commonwealth Sports Complex, Delhi - DPCC",09-04-2026 09:00:00,28.615828 ,77.271992 ,NO2,11,109,48
India,Delhi,Delhi,"Commonwealth Sports Complex, Delhi - DPCC",09-04-2026 09:00:00,28.615828 ,77.271992 ,OZONE,19,108,36
India,Delhi,Delhi,"DTU, Delhi - CPCB",09-04-2026 09:00:00,28.7500499,77.1112615,PM2.5,43,233,99
India,Chhattisgarh,Tumidih,"OP Jindal Industrial Park, Tumidih - CECB",09-04-2026 09:00:00,22.06631475,83.33820077,SO2,5,13,8
India,Chhattisgarh,Tumidih,"OP Jindal Industrial Park, Tumidih - CECB",09-04-2026 09:00:00,22.06631475,83.33820077,CO,15,44,16
India,Chhattisgarh,Tumidih,"OP Jindal Industrial Park, Tumidih - CECB",09-04-2026 09:00:00,22.06631475,83.33820077,OZONE,29,95,43
India,Delhi,Delhi,"Alipur, Delhi - DPCC",09-04-2026 09:00:00,28.815329,77.153010,PM10,53,135,86
India,Delhi,Delhi,"Alipur, Delhi - DPCC",09-04-2026 09:00:00,28.815329,77.153010,OZONE,5,60,8
India,Delhi,Delhi,"Anand Vihar, Delhi - DPCC",09-04-2026 09:00:00,28.647622,77.3158090,NH3,3,4,3
India,Delhi,Delhi,"Anand Vihar, Delhi - DPCC",09-04-2026 09:00:00,28.647622,77.3158090,SO2,3,42,24
India,Delhi,Delhi,"Ashok Vihar, Delhi - DPCC",09-04-2026 09:00:00,28.695381,77.181665,CO,10,39,19
India,Delhi,Delhi,"Bawana, Delhi - DPCC",09-04-2026 09:00:00,28.776200,77.051074,NH3,5,6,6
India,Delhi,Delhi,"IGNOU_Maidan Garhi, Delhi - DPCC",09-04-2026 09:00:00,28.493624 ,77.201159 ,OZONE,3,119,16
India,Delhi,Delhi,"IHBAS, Dilshad Garden, Delhi - CPCB",09-04-2026 09:00:00,28.6811736,77.3025234,PM10,40,101,77
India,Delhi,Delhi,"IHBAS, Dilshad Garden, Delhi - CPCB",09-04-2026 09:00:00,28.6811736,77.3025234,NO2,40,92,55
India,Delhi,Delhi,"IHBAS, Dilshad Garden, Delhi - CPCB",09-04-2026 09:00:00,28.6811736,77.3025234,SO2,2,33,16
India,Delhi,Delhi,"IGI Airport (T3), Delhi - IMD",09-04-2026 09:00:00,28.5627763,77.1180053,NO2,16,39,26
India,Delhi,Delhi,"IGI Airport (T3), Delhi - IMD",09-04-2026 09:00:00,28.5627763,77.1180053,OZONE,20,93,26
India,Delhi,Delhi,"IGNOU_Maidan Garhi, Delhi - DPCC",09-04-2026 09:00:00,28.493624 ,77.201159 ,CO,23,48,38
India,Delhi,Delhi,"Dr. Karni Singh Shooting Range, Delhi - DPCC",09-04-2026 09:00:00,28.498571,77.264840,NH3,3,5,4
India,Delhi,Delhi,"Dr. Karni Singh Shooting Range, Delhi - DPCC",09-04-2026 09:00:00,28.498571,77.264840,SO2,12,23,14
India,Delhi,Delhi,"Dr. Karni Singh Shooting Range, Delhi - DPCC",09-04-2026 09:00:00,28.498571,77.264840,OZONE,10,130,22
India,Delhi,Delhi,"CRRI Mathura Road, Delhi - IMD",09-04-2026 09:00:00,28.5512005,77.2735737,CO,15,38,32
India,Delhi,Delhi,"Cantonment Area, Delhi - DPCC ",09-04-2026 09:00:00,28.594169 ,77.125100 ,NH3,3,8,5
India,Delhi,Delhi,"Pusa, Delhi - IMD",09-04-2026 09:00:00,28.636110,77.173332,NO2,45,167,91
India,Delhi,Delhi,"R K Puram, Delhi - DPCC",09-04-2026 09:00:00,28.563262,77.186937,SO2,NA,NA,NA
India,Delhi,Delhi,"Rohini, Delhi - DPCC",09-04-2026 09:00:00,28.732528,77.119920,PM2.5,52,352,153
India,Delhi,Delhi,"Rohini, Delhi - DPCC",09-04-2026 09:00:00,28.732528,77.119920,SO2,10,25,14
India,Delhi,Delhi,"Rohini, Delhi - DPCC",09-04-2026 09:00:00,28.732528,77.119920,OZONE,10,115,18
India,Delhi,Delhi,"Shadipur, Delhi - CPCB",09-04-2026 09:00:00,28.6514781,77.1473105,PM2.5,29,222,74
India,Delhi,Delhi,"Sri Aurobindo Marg, Delhi - DPCC",09-04-2026 09:00:00,28.531346,77.190156,CO,12,34,22
India,Delhi,Delhi,"Talkatora Garden, Delhi - DPCC",09-04-2026 09:00:00,28.621810,77.1944633,PM10,44,108,73
India,Delhi,Delhi,"Talkatora Garden, Delhi - DPCC",09-04-2026 09:00:00,28.621810,77.1944633,NH3,3,5,4
India,Delhi,Delhi,"North Campus, DU, Delhi - IMD",09-04-2026 09:00:00,28.6573814,77.1585447,OZONE,4,137,10
India,Delhi,Delhi,"Patparganj, Delhi - DPCC",09-04-2026 09:00:00,28.623763,77.287209,PM10,55,130,87
India,Delhi,Delhi,"Patparganj, Delhi - DPCC",09-04-2026 09:00:00,28.623763,77.287209,NO2,29,79,43
India,Delhi,Delhi,"Mandir Marg, Delhi - DPCC",09-04-2026 09:00:00,28.636429,77.201067,PM10,NA,NA,NA
India,Delhi,Delhi,"Mundka, Delhi - DPCC",09-04-2026 09:00:00,28.684678,77.076574,NH3,6,9,7
India,Delhi,Delhi,"Mundka, Delhi - DPCC",09-04-2026 09:00:00,28.684678,77.076574,SO2,18,22,20
India,Delhi,Delhi,"Najafgarh, Delhi - DPCC",09-04-2026 09:00:00,28.570173,76.933762,CO,16,107,42
India,Delhi,Delhi,"Narela, Delhi - DPCC",09-04-2026 09:00:00,28.822836,77.101981,NO2,5,32,16
India,Delhi,Delhi,"Pusa, Delhi - DPCC",09-04-2026 09:00:00,28.639652,77.146275,PM2.5,37,92,53
India,Delhi,Delhi,"Pusa, Delhi - DPCC",09-04-2026 09:00:00,28.639652,77.146275,OZONE,10,130,27
India,Delhi,Delhi,"Major Dhyan Chand National Stadium, Delhi - DPCC",09-04-2026 09:00:00,28.611281,77.237738,SO2,10,22,13
India,Delhi,Delhi,"Sonia Vihar, Delhi - DPCC",09-04-2026 09:00:00,28.710508,77.249485,CO,20,90,64
India,Delhi,Delhi,"Shadipur, Delhi - CPCB",09-04-2026 09:00:00,28.6514781,77.1473105,NH3,6,8,7
India,Gujarat,Ankleshwar,"GIDC, Ankleshwar - GPCB",09-04-2026 09:00:00,21.613267,73.010555,SO2,21,27,21
India,Gujarat,Bhavnagar,"Vidhyanagar, Bhavnagar - Nexteng Enviro",09-04-2026 09:00:00,21.755417,72.139056,NH3,2,4,3
India,Gujarat,Bhavnagar,"Vidhyanagar, Bhavnagar - Nexteng Enviro",09-04-2026 09:00:00,21.755417,72.139056,CO,80,85,82
India,Gujarat,Gandhinagar,"GIFT City, Gandhinagar - IITM",09-04-2026 09:00:00,23.163798,72.677768,PM2.5,22,52,39
India,Gujarat,Gandhinagar,"Sector-10, Gandhinagar - GPCB",09-04-2026 09:00:00,23.221714,72.654328,NH3,1,2,1
India,Gujarat,Mehsana,"Sadanand Nagar, Mehsana - Nexteng Enviro",09-04-2026 09:00:00,23.593150,72.372792,PM10,47,162,108
India,Gujarat,Ahmedabad,"Gyaspur, Ahmedabad - IITM",09-04-2026 09:00:00,22.977134,72.553024,PM10,70,152,122
India,Gujarat,Ahmedabad,"Gyaspur, Ahmedabad - IITM",09-04-2026 09:00:00,22.977134,72.553024,NO2,23,96,59
India,Gujarat,Ahmedabad,"Gyaspur, Ahmedabad - IITM",09-04-2026 09:00:00,22.977134,72.553024,OZONE,1,20,3
India,Gujarat,Ahmedabad,"Maninagar, Ahmedabad - GPCB",09-04-2026 09:00:00,23.002657,72.591912,SO2,53,100,81
India,Gujarat,Ahmedabad,"Maninagar, Ahmedabad - GPCB",09-04-2026 09:00:00,23.002657,72.591912,OZONE,37,129,60
India,Gujarat,Ahmedabad,"Raikhad, Ahmedabad - IITM",09-04-2026 09:00:00,23.020509,72.579261,CO,4,63,33
India,Gujarat,Ahmedabad,"Rakhial, Ahmedabad - IITM",09-04-2026 09:00:00,23.016834,72.625775,PM10,79,115,100
India,Gujarat,Ahmedabad,"Rakhial, Ahmedabad - IITM",09-04-2026 09:00:00,23.016834,72.625775,NO2,26,135,54
India,Gujarat,Ahmedabad,"Rakhial, Ahmedabad - IITM",09-04-2026 09:00:00,23.016834,72.625775,SO2,1,18,5
India,Gujarat,Ahmedabad,"Chandkheda, Ahmedabad - IITM",09-04-2026 09:00:00,23.107969,72.574648,SO2,1,5,3
India,Gujarat,Ahmedabad,"Gyaspur, Ahmedabad - IITM",09-04-2026 09:00:00,22.977134,72.553024,PM2.5,37,72,56
India,Gujarat,Nandesari,"GIDC, Nandesari - Nandesari Ind. Association",09-04-2026 09:00:00,22.410802,73.097923,PM10,80,159,114
India,Gujarat,Nandesari,"GIDC, Nandesari - Nandesari Ind. Association",09-04-2026 09:00:00,22.410802,73.097923,CO,20,89,42
India,Gujarat,Ahmedabad,"SVPI Airport Hansol, Ahmedabad - IITM",09-04-2026 09:00:00,23.076793,72.627874,PM10,NA,NA,NA
India,Gujarat,Ahmedabad,"SAC ISRO Bopal, Ahmedabad - IITM",09-04-2026 09:00:00,23.041137,72.456691,SO2,3,7,5
India,Delhi,Delhi,"Vivek Vihar, Delhi - DPCC",09-04-2026 09:00:00,28.672342,77.315260,PM2.5,52,248,94
India,Delhi,Delhi,"Wazirpur, Delhi - DPCC",09-04-2026 09:00:00,28.699793,77.165453,PM10,NA,NA,NA
India,Gujarat,Rajkot,"Mavdi, Rajkot - Nexteng Enviro ",09-04-2026 09:00:00,22.248853,70.776774,NO2,6,24,11
India,Gujarat,Surat,"Katargam, Surat - Nexteng Enviro",09-04-2026 09:00:00,21.217779 ,72.834787 ,SO2,4,6,5
India,Gujarat,Surat,"Katargam, Surat - Nexteng Enviro",09-04-2026 09:00:00,21.217779 ,72.834787 ,CO,34,42,36
India,Gujarat,Vapi,"Phase-1 GIDC, Vapi - GPCB",09-04-2026 09:00:00,20.362421,72.918013,OZONE,NA,NA,NA
India,Haryana,Ambala,"Patti Mehar, Ambala - HSPCB",09-04-2026 09:00:00,30.379589,76.778328,PM10,18,72,42
India,Haryana,Ambala,"Patti Mehar, Ambala - HSPCB",09-04-2026 09:00:00,30.379589,76.778328,NO2,8,11,10
India,Haryana,Ambala,"Patti Mehar, Ambala - HSPCB",09-04-2026 09:00:00,30.379589,76.778328,CO,22,49,22
India,Haryana,Ambala,"Patti Mehar, Ambala - HSPCB",09-04-2026 09:00:00,30.379589,76.778328,OZONE,13,26,22
India,Haryana,Ballabgarh,"Nathu Colony, Ballabgarh - HSPCB",09-04-2026 09:00:00,28.3419248,77.319699,NO2,20,21,20
India,Haryana,Charkhi Dadri,"Mini Secretariat, Charkhi Dadri - HSPCB",09-04-2026 09:00:00,28.593883,76.270653,PM10,21,144,86
India,Gujarat,Vadodara,"Bapunagar, Vadodara - Nexteng Enviro",09-04-2026 09:00:00,22.320153,73.216285,PM10,82,129,103
India,Gujarat,Surat,"Katargam, Surat - Nexteng Enviro",09-04-2026 09:00:00,21.217779 ,72.834787 ,OZONE,11,12,11
India,Haryana,Bhiwani,"H.B. Colony, Bhiwani - HSPCB",09-04-2026 09:00:00,28.806223,76.141105,PM2.5,36,83,51
India,Haryana,Bhiwani,"H.B. Colony, Bhiwani - HSPCB",09-04-2026 09:00:00,28.806223,76.141105,OZONE,6,14,8
India,Haryana,Bhiwani,"H.B. Colony, Bhiwani - HSPCB",09-04-2026 09:00:00,28.806223,76.141105,SO2,1,12,4
India,Haryana,Faridabad,"Sector 11, Faridabad - HSPCB",09-04-2026 09:00:00,28.376058,77.315741,NO2,30,33,31
India,Haryana,Faridabad,"Sector 30, Faridabad - HSPCB",09-04-2026 09:00:00,28.4417,77.3217,PM2.5,51,500,92
India,Haryana,Fatehabad,"Huda Sector, Fatehabad - HSPCB",09-04-2026 09:00:00,29.503664,75.467934,NO2,17,21,19
India,Haryana,Fatehabad,"Huda Sector, Fatehabad - HSPCB",09-04-2026 09:00:00,29.503664,75.467934,NH3,13,14,14
India,Haryana,Fatehabad,"Huda Sector, Fatehabad - HSPCB",09-04-2026 09:00:00,29.503664,75.467934,CO,25,34,29
India,Haryana,Gurugram,"NISE Gwal Pahari, Gurugram - IMD",09-04-2026 09:00:00,28.422681,77.148944,PM2.5,16,99,48
India,Haryana,Gurugram,"NISE Gwal Pahari, Gurugram - IMD",09-04-2026 09:00:00,28.422681,77.148944,PM10,25,117,68
India,Haryana,Gurugram,"NISE Gwal Pahari, Gurugram - IMD",09-04-2026 09:00:00,28.422681,77.148944,CO,36,48,45
India,Haryana,Kaithal,"Rishi Nagar, Kaithal - HSPCB",09-04-2026 09:00:00,29.8006,76.4155,OZONE,6,20,10
India,Haryana,Karnal,"Sector-12, Karnal - HSPCB",09-04-2026 09:00:00,29.695300,77.002700,PM10,27,112,58
India,Haryana,Karnal,"Sector-12, Karnal - HSPCB",09-04-2026 09:00:00,29.695300,77.002700,NH3,6,6,6
India,Haryana,Kurukshetra,"Sector-7, Kurukshetra - HSPCB",09-04-2026 09:00:00,29.966942,76.875879,SO2,1,65,9
India,Haryana,Kurukshetra,"Sector-7, Kurukshetra - HSPCB",09-04-2026 09:00:00,29.966942,76.875879,CO,2,26,12
India,Haryana,Kurukshetra,"Sector-7, Kurukshetra - HSPCB",09-04-2026 09:00:00,29.966942,76.875879,OZONE,3,45,26
India,Haryana,Mandikhera,"General Hospital, Mandikhera(Nuh) - HSPCB",09-04-2026 09:00:00,27.9002,76.9938,NO2,NA,NA,NA
India,Haryana,Manesar,"Sector-2 IMT, Manesar - HSPCB",09-04-2026 09:00:00,28.360699,76.936090,SO2,2,13,8
India,Haryana,Manesar,"Sector-2 IMT, Manesar - HSPCB",09-04-2026 09:00:00,28.360699,76.936090,OZONE,7,9,7
India,Haryana,Palwal,"Shyam Nagar, Palwal - HSPCB",09-04-2026 09:00:00,28.1485564,77.3320667,NH3,8,9,9
India,Haryana,Panchkula,"Sector-6, Panchkula - HSPCB ",09-04-2026 09:00:00,30.7057778,76.8531805555555,NO2,NA,NA,NA
India,Haryana,Panipat,"Sector-18, Panipat - HSPCB",09-04-2026 09:00:00,29.432304,76.972765,PM2.5,10,51,31
India,Haryana,Gurugram,"Teri Gram, Gurugram - HSPCB",09-04-2026 09:00:00,28.4275,77.1465,NO2,36,78,55
India,Haryana,Gurugram,"Teri Gram, Gurugram - HSPCB",09-04-2026 09:00:00,28.4275,77.1465,SO2,3,11,7
India,Haryana,Gurugram,"Teri Gram, Gurugram - HSPCB",09-04-2026 09:00:00,28.4275,77.1465,CO,18,26,19
India,Haryana,Hisar,"Urban Estate-II, Hisar - HSPCB",09-04-2026 09:00:00,29.140560,75.744941,SO2,NA,NA,NA
India,Haryana,Hisar,"Urban Estate-II, Hisar - HSPCB",09-04-2026 09:00:00,29.140560,75.744941,OZONE,15,156,25
India,Haryana,Gurugram,"Sector-51, Gurugram - HSPCB",09-04-2026 09:00:00,28.4227,77.0667,PM2.5,46,163,110
India,Haryana,Gurugram,"Sector-51, Gurugram - HSPCB",09-04-2026 09:00:00,28.4227,77.0667,SO2,4,9,6
India,Haryana,Jind,"Police Lines, Jind - HSPCB",09-04-2026 09:00:00,29.307814,76.337619,PM10,14,51,34
India,Haryana,Jind,"Police Lines, Jind - HSPCB",09-04-2026 09:00:00,29.307814,76.337619,NO2,31,44,37
India,Haryana,Dharuhera,"Municipal Corporation Office, Dharuhera -  HSPCB",09-04-2026 09:00:00,28.206800,76.799700,PM10,42,153,80
India,Haryana,Charkhi Dadri,"Mini Secretariat, Charkhi Dadri - HSPCB",09-04-2026 09:00:00,28.593883,76.270653,OZONE,14,17,15
India,Haryana,Charkhi Dadri,"Mini Secretariat, Charkhi Dadri - HSPCB",09-04-2026 09:00:00,28.593883,76.270653,NH3,5,8,6
India,Karnataka,Bagalkot,"Vidayagiri, Bagalkot - KSPCB",09-04-2026 09:00:00,16.172806,75.659694,SO2,3,7,7
India,Karnataka,Belgaum,"Ramteerth Nagar, Belgaum - KSPCB",09-04-2026 09:00:00,15.888653,74.541751,PM2.5,NA,NA,NA
India,Karnataka,Bengaluru,"BTM Layout, Bengaluru - CPCB",09-04-2026 09:00:00,12.9135218,77.5950804,PM2.5,29,54,38
India,Karnataka,Bengaluru,"BTM Layout, Bengaluru - CPCB",09-04-2026 09:00:00,12.9135218,77.5950804,PM10,88,89,88
India,Karnataka,Bengaluru,"BTM Layout, Bengaluru - CPCB",09-04-2026 09:00:00,12.9135218,77.5950804,NO2,60,73,62
India,Karnataka,Bengaluru,"BWSSB Kadabesanahalli, Bengaluru - CPCB",09-04-2026 09:00:00,12.9352049,77.6814488,NO2,NA,NA,NA
India,Karnataka,Bengaluru,"BWSSB Kadabesanahalli, Bengaluru - CPCB",09-04-2026 09:00:00,12.9352049,77.6814488,NH3,NA,NA,NA
India,Karnataka,Bengaluru,"BWSSB Kadabesanahalli, Bengaluru - CPCB",09-04-2026 09:00:00,12.9352049,77.6814488,SO2,1,32,8
India,Karnataka,Bengaluru,"Bapuji Nagar, Bengaluru - KSPCB",09-04-2026 09:00:00,12.951913,77.539784,PM10,70,190,114
India,Karnataka,Bengaluru,"Bapuji Nagar, Bengaluru - KSPCB",09-04-2026 09:00:00,12.951913,77.539784,NO2,25,42,31
India,Karnataka,Bengaluru,"City Railway Station, Bengaluru - KSPCB",09-04-2026 09:00:00,12.9756843,77.5660749,CO,NA,NA,NA
India,Haryana,Panipat,"Sector-18, Panipat - HSPCB",09-04-2026 09:00:00,29.432304,76.972765,SO2,11,11,11
India,Haryana,Rohtak,"MD University, Rohtak - HSPCB",09-04-2026 09:00:00,28.52123,76.37138,SO2,11,13,12
India,Haryana,Rohtak,"MD University, Rohtak - HSPCB",09-04-2026 09:00:00,28.52123,76.37138,OZONE,38,40,39
India,Haryana,Sirsa,"F-Block, Sirsa - HSPCB",09-04-2026 09:00:00,29.536400,75.015800,PM2.5,3,40,17
India,Haryana,Sirsa,"F-Block, Sirsa - HSPCB",09-04-2026 09:00:00,29.536400,75.015800,PM10,6,68,29
India,Haryana,Sonipat,"Murthal, Sonipat - HSPCB",09-04-2026 09:00:00,29.027200,77.062100,PM2.5,61,301,154
India,Haryana,Sonipat,"Murthal, Sonipat - HSPCB",09-04-2026 09:00:00,29.027200,77.062100,PM10,107,199,153
India,Haryana,Sonipat,"Murthal, Sonipat - HSPCB",09-04-2026 09:00:00,29.027200,77.062100,SO2,4,4,4
India,Haryana,Sonipat,"Murthal, Sonipat - HSPCB",09-04-2026 09:00:00,29.027200,77.062100,CO,51,68,64
India,Haryana,Sonipat,"Murthal, Sonipat - HSPCB",09-04-2026 09:00:00,29.027200,77.062100,OZONE,25,26,26
India,Haryana,Yamuna Nagar,"Gobind Pura, Yamuna Nagar - HSPCB",09-04-2026 09:00:00,30.1480566,77.2893471,PM10,55,136,85
India,Karnataka,Bengaluru,"Silk Board, Bengaluru - KSPCB",09-04-2026 09:00:00,12.917348,77.622813,CO,13,90,16
India,Karnataka,Bidar,"Naubad, Bidar - KSPCB",09-04-2026 09:00:00,17.930306,77.482194,NH3,NA,NA,NA
India,Karnataka,Chamarajanagar,"Urban, Chamarajanagar - KSPCB",09-04-2026 09:00:00,11.55358,76.55521,SO2,2,5,4
India,Karnataka,Chikkaballapur,"Chikkaballapur Rural, Chikkaballapur - KSPCB",09-04-2026 09:00:00,13.428828,77.731418,NH3,3,5,4
