country,state,city,station,last_update,latitude,longitude,pollutant_id,min_value,max_value,avg_value
India,Bihar,Gaya,"Kareemganj, Gaya - BSPCB",16-01-2026 08:00:00,24.792403,84.992416,SO2,4,16,10
India,Bihar,Gaya,"SFTI Kusdihra, Gaya - BSPCB",16-01-2026 08:00:00,24.762518,84.982348,NO2,19,24,21
India,Bihar,Gaya,"SFTI Kusdihra, Gaya - BSPCB",16-01-2026 08:00:00,24.762518,84.982348,OZONE,10,52,12
India,Bihar,Hajipur,"Industrial Area, Hajipur - BSPCB",16-01-2026 08:00:00,25.697189,85.245900,NH3,4,11,8
India,Bihar,Katihar,"Mirchaibari, Katihar - BSPCB",16-01-2026 08:00:00,25.560083,87.553265,PM10,74,137,101
India,Bihar,Katihar,"Mirchaibari, Katihar - BSPCB",16-01-2026 08:00:00,25.560083,87.553265,NO2,8,10,9
India,Bihar,Katihar,"Mirchaibari, Katihar - BSPCB",16-01-2026 08:00:00,25.560083,87.553265,OZONE,21,28,24
India,Bihar,Kishanganj,"SDM Office_Khagra, Kishanganj - BSPCB",16-01-2026 08:00:00,26.0881305,87.93840336,PM2.5,22,42,34
India,Bihar,Kishanganj,"SDM Office_Khagra, Kishanganj - BSPCB",16-01-2026 08:00:00,26.0881305,87.93840336,SO2,6,8,7
India,Bihar,Kishanganj,"SDM Office_Khagra, Kishanganj - BSPCB",16-01-2026 08:00:00,26.0881305,87.93840336,OZONE,15,18,16
India,Andhra_Pradesh,Vijayawada,"Kanuru, Vijayawada - APPCB",16-01-2026 08:00:00,16.486692,80.699436,OZONE,27,27,27
India,Andhra_Pradesh,Vijayawada,"Rajiv Gandhi Park, Vijayawada - APPCB",16-01-2026 08:00:00,16.509717,80.612222,NH3,3,5,5
India,Andhra_Pradesh,Vijayawada,"Rajiv Gandhi Park, Vijayawada - APPCB",16-01-2026 08:00:00,16.509717,80.612222,SO2,15,16,15
India,Andhra_Pradesh,Vijayawada,"Rajiv Nagar, Vijayawada - APPCB",16-01-2026 08:00:00,16.554731,80.649110,PM2.5,80,135,94
India,Andhra_Pradesh,Visakhapatnam,"GVM Corporation, Visakhapatnam - APPCB",16-01-2026 08:00:00,17.72,83.3,SO2,5,32,14
India,Andhra_Pradesh,Visakhapatnam,"GVM Corporation, Visakhapatnam - APPCB",16-01-2026 08:00:00,17.72,83.3,CO,NA,NA,NA
India,Andhra_Pradesh,Visakhapatnam,"GVM Corporation, Visakhapatnam - APPCB",16-01-2026 08:00:00,17.72,83.3,OZONE,16,90,59
India,Arunachal_Pradesh,Naharlagun,"Naharlagun, Naharlagun - APSPCB",16-01-2026 08:00:00,27.103358,93.679645,NH3,1,1,1
India,Arunachal_Pradesh,Naharlagun,"Naharlagun, Naharlagun - APSPCB",16-01-2026 08:00:00,27.103358,93.679645,OZONE,5,6,6
India,Bihar,Muzaffarpur,"Muzaffarpur Collectorate, Muzaffarpur - BSPCB",16-01-2026 08:00:00,26.1209,85.3647,SO2,4,6,5
India,Bihar,Muzaffarpur,"Muzaffarpur Collectorate, Muzaffarpur - BSPCB",16-01-2026 08:00:00,26.1209,85.3647,OZONE,6,24,10
India,Bihar,Patna,"DRM Office Danapur, Patna - BSPCB",16-01-2026 08:00:00,25.586562,85.043586,OZONE,10,44,22
India,Bihar,Patna,"Govt. High School Shikarpur, Patna - BSPCB",16-01-2026 08:00:00,25.592539,85.227158,SO2,12,16,14
India,Bihar,Patna,"Govt. High School Shikarpur, Patna - BSPCB",16-01-2026 08:00:00,25.592539,85.227158,CO,10,64,26
India,Bihar,Patna,"Govt. High School Shikarpur, Patna - BSPCB",16-01-2026 08:00:00,25.592539,85.227158,OZONE,9,12,10
India,Bihar,Patna,"IGSC Planetarium Complex, Patna - BSPCB",16-01-2026 08:00:00,25.610369,85.132568,PM2.5,62,194,121
India,Bihar,Patna,"IGSC Planetarium Complex, Patna - BSPCB",16-01-2026 08:00:00,25.610369,85.132568,OZONE,28,29,28
India,Bihar,Patna,"Muradpur, Patna - BSPCB",16-01-2026 08:00:00,25.619651,85.147382,PM10,99,152,130
India,Assam,Nalbari,"Bata Chowk, Nalbari - PCBA",16-01-2026 08:00:00,26.446912,91.439057,PM10,107,121,113
India,Assam,Nalbari,"Bata Chowk, Nalbari - PCBA",16-01-2026 08:00:00,26.446912,91.439057,SO2,8,8,8
India,Assam,Silchar,"Tarapur, Silchar - PCBA",16-01-2026 08:00:00,24.82827,92.79525,OZONE,2,2,2
India,Assam,Sivasagar,"Girls College, Sivasagar - PCBA",16-01-2026 08:00:00,26.987634,94.636574,PM2.5,36,96,71
India,Assam,Sivasagar,"Girls College, Sivasagar - PCBA",16-01-2026 08:00:00,26.987634,94.636574,NH3,4,18,9
India,Assam,Sivasagar,"Girls College, Sivasagar - PCBA",16-01-2026 08:00:00,26.987634,94.636574,CO,10,113,73
India,Bihar,Araria,"Kharahiya Basti, Araria - BSPCB",16-01-2026 08:00:00,26.146529,87.454184,NO2,1,14,4
India,Bihar,Araria,"Kharahiya Basti, Araria - BSPCB",16-01-2026 08:00:00,26.146529,87.454184,CO,2,34,28
India,Bihar,Araria,"Kharahiya Basti, Araria - BSPCB",16-01-2026 08:00:00,26.146529,87.454184,OZONE,9,10,10
India,Bihar,Bhagalpur,"Mayaganj, Bhagalpur - BSPCB",16-01-2026 08:00:00,25.265194,87.012947,PM10,86,139,112
India,Bihar,Bhagalpur,"Mayaganj, Bhagalpur - BSPCB",16-01-2026 08:00:00,25.265194,87.012947,SO2,45,55,49
India,Bihar,Buxar,"Charitra Van, Buxar - BSPCB",16-01-2026 08:00:00,25.567520,83.966379,OZONE,3,68,6
India,Bihar,Chhapra,"Darshan Nagar, Chhapra - BSPCB",16-01-2026 08:00:00,25.7808257,84.7446768,PM2.5,60,167,95
India,Bihar,Chhapra,"Darshan Nagar, Chhapra - BSPCB",16-01-2026 08:00:00,25.7808257,84.7446768,PM10,78,151,110
India,Bihar,Gaya,"Collectorate, Gaya - BSPCB",16-01-2026 08:00:00,24.7955,84.9994,NO2,9,9,9
India,Bihar,Gaya,"Collectorate, Gaya - BSPCB",16-01-2026 08:00:00,24.7955,84.9994,OZONE,19,78,30
India,Bihar,Gaya,"Kareemganj, Gaya - BSPCB",16-01-2026 08:00:00,24.792403,84.992416,PM10,93,360,185
India,Assam,Byrnihat,"Central Academy for SFS, Byrnihat - PCBA",16-01-2026 08:00:00,26.071318,91.87488,PM2.5,94,297,147
India,Assam,Byrnihat,"Central Academy for SFS, Byrnihat - PCBA",16-01-2026 08:00:00,26.071318,91.87488,NH3,3,4,4
India,Assam,Guwahati,"LGBI Airport, Guwahati - PCBA",16-01-2026 08:00:00,26.10887,91.589544,PM2.5,57,132,95
India,Assam,Guwahati,"Pan Bazaar, Guwahati - PCBA",16-01-2026 08:00:00,26.187500,91.744194,PM2.5,46,301,166
India,Assam,Guwahati,"Railway Colony, Guwahati - PCBA",16-01-2026 08:00:00,26.181742,91.78063,NO2,3,3,3
India,Bihar,Manguraha,"Forest Rest House, Manguraha - BSPCB",16-01-2026 08:00:00,27.308328,84.531742,CO,16,34,32
India,Bihar,Motihari,"Gandak Colony, Motihari - BSPCB",16-01-2026 08:00:00,26.63086,84.90051,PM2.5,53,273,121
India,Bihar,Motihari,"Gandak Colony, Motihari - BSPCB",16-01-2026 08:00:00,26.63086,84.90051,PM10,59,171,106
India,Bihar,Motihari,"Gandak Colony, Motihari - BSPCB",16-01-2026 08:00:00,26.63086,84.90051,SO2,3,3,3
India,Bihar,Motihari,"Gandak Colony, Motihari - BSPCB",16-01-2026 08:00:00,26.63086,84.90051,CO,15,38,18
India,Bihar,Motihari,"Gandak Colony, Motihari - BSPCB",16-01-2026 08:00:00,26.63086,84.90051,OZONE,3,10,4
India,Andhra_Pradesh,Tirupati,"Vaikuntapuram, Tirupati - APPCB",16-01-2026 08:00:00,13.615387,79.409230,SO2,15,16,16
India,Andhra_Pradesh,Tirupati,"Vaikuntapuram, Tirupati - APPCB",16-01-2026 08:00:00,13.615387,79.409230,CO,20,28,24
India,Andhra_Pradesh,Vijayawada,"HB Colony, Vijayawada - APPCB",16-01-2026 08:00:00,16.536107,80.594233,PM10,52,149,77
India,Andhra_Pradesh,Vijayawada,"HB Colony, Vijayawada - APPCB",16-01-2026 08:00:00,16.536107,80.594233,CO,46,46,46
India,Andhra_Pradesh,Vijayawada,"HB Colony, Vijayawada - APPCB",16-01-2026 08:00:00,16.536107,80.594233,OZONE,12,32,14
India,Andhra_Pradesh,Vijayawada,"Kanuru, Vijayawada - APPCB",16-01-2026 08:00:00,16.486692,80.699436,PM10,64,88,72
India,Bihar,Arrah,"New DM Office, Arrah - BSPCB",16-01-2026 08:00:00,25.5626095,84.663264,SO2,8,10,10
India,Bihar,Begusarai,"Lohiyanagar, Begusarai - BSPCB",16-01-2026 08:00:00,25.42742023,86.13886079,NH3,10,11,11
India,Bihar,Bhagalpur,"DM Office_Kachari Chowk, Bhagalpur - BSPCB",16-01-2026 08:00:00,25.251013,86.989001,CO,36,70,40
India,Andhra_Pradesh,Amaravati,"Secretariat, Amaravati - APPCB",16-01-2026 08:00:00,16.5150833,80.5181667,NH3,6,8,7
India,Andhra_Pradesh,Rajamahendravaram,"Anand Kala Kshetram, Rajamahendravaram - APPCB",16-01-2026 08:00:00,16.9872867,81.7363176,PM10,95,125,111
India,Chhattisgarh,Raipur,"Krishak Nagar, Raipur - CECB",16-01-2026 08:00:00,21.237755,81.705301,NH3,2,2,2
India,Chhattisgarh,Raipur,"Krishak Nagar, Raipur - CECB",16-01-2026 08:00:00,21.237755,81.705301,OZONE,10,23,13
India,Chhattisgarh,Raipur,"Siltara Phase-II, Raipur - CECB",16-01-2026 08:00:00,21.371751,81.664929,NH3,2,2,2
India,Chhattisgarh,Tumidih,"OP Jindal Industrial Park, Tumidih - CECB",16-01-2026 08:00:00,22.06631475,83.33820077,PM2.5,NA,NA,NA
India,Chhattisgarh,Tumidih,"OP Jindal Industrial Park, Tumidih - CECB",16-01-2026 08:00:00,22.06631475,83.33820077,PM10,NA,NA,NA
India,Delhi,Delhi,"Alipur, Delhi - DPCC",16-01-2026 08:00:00,28.815329,77.153010,NO2,40,75,53
India,Delhi,Delhi,"Alipur, Delhi - DPCC",16-01-2026 08:00:00,28.815329,77.153010,SO2,4,13,10
India,Delhi,Delhi,"Anand Vihar, Delhi - DPCC",16-01-2026 08:00:00,28.647622,77.3158090,PM10,193,500,334
India,Chhattisgarh,Bhilai,"Civic Center, Bhilai - Bhilai Steel Plant",16-01-2026 08:00:00,21.185571,81.343175,OZONE,10,14,10
India,Chhattisgarh,Bhilai,"Hathkhoj, Bhilai - CECB",16-01-2026 08:00:00,21.224231,81.408350,PM2.5,28,65,50
India,Chhattisgarh,Chhal,"Nawapara SECL Colony, Chhal - CECB",16-01-2026 08:00:00,22.118125,83.140608,SO2,6,98,23
India,Chhattisgarh,Chhal,"Nawapara SECL Colony, Chhal - CECB",16-01-2026 08:00:00,22.118125,83.140608,CO,22,49,35
India,Chhattisgarh,Korba,"Rampur, Korba - CECB",16-01-2026 08:00:00,22.368195,82.746431,NH3,NA,NA,NA
India,Chhattisgarh,Korba,"Rampur, Korba - CECB",16-01-2026 08:00:00,22.368195,82.746431,SO2,NA,NA,NA
India,Chhattisgarh,Korba,"Rampur, Korba - CECB",16-01-2026 08:00:00,22.368195,82.746431,OZONE,1,15,3
India,Chhattisgarh,Korba,"Urja Nagar, Korba - CECB",16-01-2026 08:00:00,22.348441,82.549611,PM2.5,3,392,77
India,Bihar,Samastipur,"DM Office_Kasipur, Samastipur - BSPCB",16-01-2026 08:00:00,25.859655,85.77944,PM2.5,80,170,118
India,Bihar,Samastipur,"DM Office_Kasipur, Samastipur - BSPCB",16-01-2026 08:00:00,25.859655,85.77944,OZONE,8,9,8
India,Bihar,Sasaram,"Dada Peer, Sasaram - BSPCB",16-01-2026 08:00:00,24.952822,84.002396,PM10,47,143,76
India,Bihar,Sasaram,"Dada Peer, Sasaram - BSPCB",16-01-2026 08:00:00,24.952822,84.002396,CO,47,80,51
India,Bihar,Siwan,"Chitragupta Nagar, Siwan - BSPCB",16-01-2026 08:00:00,26.2271665,84.3570427,PM2.5,48,280,167
India,Bihar,Siwan,"Chitragupta Nagar, Siwan - BSPCB",16-01-2026 08:00:00,26.2271665,84.3570427,NH3,1,1,1
India,Bihar,Siwan,"Chitragupta Nagar, Siwan - BSPCB",16-01-2026 08:00:00,26.2271665,84.3570427,CO,36,116,82
India,Delhi,Delhi,"Ashok Vihar, Delhi - DPCC",16-01-2026 08:00:00,28.695381,77.181665,NO2,46,130,71
India,Delhi,Delhi,"Aya Nagar, Delhi - IMD",16-01-2026 08:00:00,28.4706914,77.1099364,PM2.5,217,352,306
India,Delhi,Delhi,"Aya Nagar, Delhi - IMD",16-01-2026 08:00:00,28.4706914,77.1099364,CO,56,104,89
India,Delhi,Delhi,"Bawana, Delhi - DPCC",16-01-2026 08:00:00,28.776200,77.051074,PM10,116,418,218
India,Delhi,Delhi,"Bawana, Delhi - DPCC",16-01-2026 08:00:00,28.776200,77.051074,NH3,9,11,10
India,Delhi,Delhi,"Burari Crossing, Delhi - IMD",16-01-2026 08:00:00,28.7256504,77.2011573,OZONE,17,159,25
India,Chhattisgarh,Kunjemura,"OP Jindal School, Kunjemura - CECB",16-01-2026 08:00:00,22.126650,83.483212,PM2.5,45,104,70
India,Chhattisgarh,Milupara,"Govt. Higher Secondary School, Milupara - CECB",16-01-2026 08:00:00,22.1910172,83.5197009,CO,8,50,33
India,Chhattisgarh,Raipur,"AIIMS, Raipur - CECB",16-01-2026 08:00:00,21.258815,81.578979,OZONE,1,3,1
India,Chhattisgarh,Raipur,"Bhatagaon New ISBT, Raipur - CECB",16-01-2026 08:00:00,21.219665,81.630094,NH3,2,2,2
India,Chhattisgarh,Raipur,"Bhatagaon New ISBT, Raipur - CECB",16-01-2026 08:00:00,21.219665,81.630094,SO2,2,7,4
India,Delhi,Delhi,"CRRI Mathura Road, Delhi - IMD",16-01-2026 08:00:00,28.5512005,77.2735737,PM2.5,NA,NA,NA
India,Delhi,Delhi,"CRRI Mathura Road, Delhi - IMD",16-01-2026 08:00:00,28.5512005,77.2735737,PM10,157,410,228
India,Delhi,Delhi,"CRRI Mathura Road, Delhi - IMD",16-01-2026 08:00:00,28.5512005,77.2735737,OZONE,10,61,11
India,Delhi,Delhi,"Chandni Chowk, Delhi - IITM",16-01-2026 08:00:00,28.656756,77.227234,CO,80,126,111
India,Delhi,Delhi,"DTU, Delhi - CPCB",16-01-2026 08:00:00,28.7500499,77.1112615,PM2.5,257,442,334
India,Delhi,Delhi,"DTU, Delhi - CPCB",16-01-2026 08:00:00,28.7500499,77.1112615,CO,44,84,65
India,Bihar,Patna,"Muradpur, Patna - BSPCB",16-01-2026 08:00:00,25.619651,85.147382,NH3,4,5,5
India,Bihar,Patna,"Samanpura, Patna - BSPCB",16-01-2026 08:00:00,25.596727,85.085624,SO2,1,2,2
India,Bihar,Patna,"Samanpura, Patna - BSPCB",16-01-2026 08:00:00,25.596727,85.085624,OZONE,3,116,5
India,Bihar,Purnia,"Mariam Nagar, Purnia - BSPCB",16-01-2026 08:00:00,25.366336,87.117468,CO,30,59,58
India,Bihar,Rajgir,"Dangi Tola, Rajgir - BSPCB",16-01-2026 08:00:00,25.03280,85.41948,NO2,8,10,9
India,Chandigarh,Chandigarh,"Sector-25, Chandigarh - CPCC",16-01-2026 08:00:00,30.751462,76.762879,PM2.5,87,319,204
India,Chandigarh,Chandigarh,"Sector-53, Chandigarh - CPCC",16-01-2026 08:00:00,30.719859,76.738637,NO2,34,77,52
India,Chhattisgarh,Bhilai,"32Bungalows, Bhilai - CECB",16-01-2026 08:00:00,21.194815,81.314770,PM2.5,14,40,29
India,Chhattisgarh,Bhilai,"32Bungalows, Bhilai - CECB",16-01-2026 08:00:00,21.194815,81.314770,OZONE,2,58,2
India,Delhi,Delhi,"IIT Delhi, Delhi - IITM",16-01-2026 08:00:00,28.542460,77.191651,PM2.5,214,372,322
India,Delhi,Delhi,"IIT Delhi, Delhi - IITM",16-01-2026 08:00:00,28.542460,77.191651,PM10,158,260,200
India,Delhi,Delhi,"IIT Delhi, Delhi - IITM",16-01-2026 08:00:00,28.542460,77.191651,CO,53,104,98
India,Delhi,Delhi,"Mandir Marg, Delhi - DPCC",16-01-2026 08:00:00,28.636429,77.201067,PM10,175,314,233
India,Delhi,Delhi,"Mandir Marg, Delhi - DPCC",16-01-2026 08:00:00,28.636429,77.201067,NO2,21,180,120
India,Delhi,Delhi,"Mandir Marg, Delhi - DPCC",16-01-2026 08:00:00,28.636429,77.201067,NH3,10,20,14
India,Delhi,Delhi,"Mandir Marg, Delhi - DPCC",16-01-2026 08:00:00,28.636429,77.201067,SO2,7,46,22
India,Delhi,Delhi,"Mandir Marg, Delhi - DPCC",16-01-2026 08:00:00,28.636429,77.201067,OZONE,3,41,9
India,Delhi,Delhi,"Mundka, Delhi - DPCC",16-01-2026 08:00:00,28.684678,77.076574,NH3,10,16,14
India,Delhi,Delhi,"Mundka, Delhi - DPCC",16-01-2026 08:00:00,28.684678,77.076574,CO,60,107,80
India,Delhi,Delhi,"NSIT Dwarka, Delhi - CPCB",16-01-2026 08:00:00,28.60909,77.0325413,NH3,8,12,9
India,Delhi,Delhi,"NSIT Dwarka, Delhi - CPCB",16-01-2026 08:00:00,28.60909,77.0325413,SO2,16,24,19
India,Delhi,Delhi,"NSIT Dwarka, Delhi - CPCB",16-01-2026 08:00:00,28.60909,77.0325413,OZONE,21,44,22
India,Delhi,Delhi,"Najafgarh, Delhi - DPCC",16-01-2026 08:00:00,28.570173,76.933762,CO,52,116,73
India,Delhi,Delhi,"Punjabi Bagh, Delhi - DPCC",16-01-2026 08:00:00,28.674045,77.131023,CO,57,106,84
India,Delhi,Delhi,"Pusa, Delhi - IMD",16-01-2026 08:00:00,28.636110,77.173332,PM2.5,160,360,305
India,Delhi,Delhi,"Pusa, Delhi - IMD",16-01-2026 08:00:00,28.636110,77.173332,OZONE,46,197,48
India,Delhi,Delhi,"R K Puram, Delhi - DPCC",16-01-2026 08:00:00,28.563262,77.186937,NH3,10,12,11
India,Delhi,Delhi,"Rohini, Delhi - DPCC",16-01-2026 08:00:00,28.732528,77.119920,PM2.5,312,466,374
India,Delhi,Delhi,"Rohini, Delhi - DPCC",16-01-2026 08:00:00,28.732528,77.119920,NO2,29,96,48
India,Delhi,Delhi,"Rohini, Delhi - DPCC",16-01-2026 08:00:00,28.732528,77.119920,NH3,11,18,13
India,Delhi,Delhi,"Rohini, Delhi - DPCC",16-01-2026 08:00:00,28.732528,77.119920,CO,40,109,76
India,Delhi,Delhi,"Shadipur, Delhi - CPCB",16-01-2026 08:00:00,28.6514781,77.1473105,NO2,56,127,79
India,Delhi,Delhi,"Shadipur, Delhi - CPCB",16-01-2026 08:00:00,28.6514781,77.1473105,NH3,14,18,16
India,Delhi,Delhi,"Narela, Delhi - DPCC",16-01-2026 08:00:00,28.822836,77.101981,CO,30,68,50
India,Delhi,Delhi,"Nehru Nagar, Delhi - DPCC",16-01-2026 08:00:00,28.567890,77.250515,PM10,166,426,302
India,Delhi,Delhi,"Okhla Phase-2, Delhi - DPCC",16-01-2026 08:00:00,28.530785,77.271255,NO2,74,171,116
India,Delhi,Delhi,"Okhla Phase-2, Delhi - DPCC",16-01-2026 08:00:00,28.530785,77.271255,NH3,11,20,16
India,Delhi,Delhi,"Okhla Phase-2, Delhi - DPCC",16-01-2026 08:00:00,28.530785,77.271255,CO,97,125,114
India,Delhi,Delhi,"Okhla Phase-2, Delhi - DPCC",16-01-2026 08:00:00,28.530785,77.271255,OZONE,6,174,8
India,Delhi,Delhi,"Patparganj, Delhi - DPCC",16-01-2026 08:00:00,28.623763,77.287209,NH3,10,14,11
India,Delhi,Delhi,"Patparganj, Delhi - DPCC",16-01-2026 08:00:00,28.623763,77.287209,SO2,10,15,13
India,Delhi,Delhi,"Punjabi Bagh, Delhi - DPCC",16-01-2026 08:00:00,28.674045,77.131023,NO2,40,73,51
India,Gujarat,Ahmedabad,"SAC ISRO Satellite, Ahmedabad - IITM",16-01-2026 08:00:00,23.023389,72.515201,PM2.5,47,121,76
India,Gujarat,Ahmedabad,"SVPI Airport Hansol, Ahmedabad - IITM",16-01-2026 08:00:00,23.076793,72.627874,PM2.5,39,88,70
India,Gujarat,Ahmedabad,"SVPI Airport Hansol, Ahmedabad - IITM",16-01-2026 08:00:00,23.076793,72.627874,SO2,5,11,7
India,Gujarat,Gandhinagar,"GIFT City, Gandhinagar - IITM",16-01-2026 08:00:00,23.163798,72.677768,NH3,5,8,6
India,Gujarat,Gandhinagar,"IIPHG Lekawada, Gandhinagar - IITM",16-01-2026 08:00:00,23.243639,72.68994,PM2.5,6,14,9
India,Gujarat,Gandhinagar,"IIPHG Lekawada, Gandhinagar - IITM",16-01-2026 08:00:00,23.243639,72.68994,OZONE,2,47,2
India,Delhi,Delhi,"Sirifort, Delhi - CPCB",16-01-2026 08:00:00,28.5504249,77.2159377,CO,47,102,98
India,Delhi,Delhi,"Sonia Vihar, Delhi - DPCC",16-01-2026 08:00:00,28.710508,77.249485,PM2.5,302,494,371
India,Delhi,Delhi,"Sonia Vihar, Delhi - DPCC",16-01-2026 08:00:00,28.710508,77.249485,NH3,8,12,10
India,Delhi,Delhi,"Sonia Vihar, Delhi - DPCC",16-01-2026 08:00:00,28.710508,77.249485,CO,43,126,78
India,Gujarat,Ahmedabad,"Chandkheda, Ahmedabad - IITM",16-01-2026 08:00:00,23.107969,72.574648,SO2,8,21,13
India,Gujarat,Ahmedabad,"Gyaspur, Ahmedabad - IITM",16-01-2026 08:00:00,22.977134,72.553024,SO2,1,110,64
India,Gujarat,Ahmedabad,"Maninagar, Ahmedabad - GPCB",16-01-2026 08:00:00,23.002657,72.591912,OZONE,42,112,46
India,Gujarat,Ahmedabad,"Raikhad, Ahmedabad - IITM",16-01-2026 08:00:00,23.020509,72.579261,SO2,10,20,14
India,Gujarat,Ahmedabad,"Raikhad, Ahmedabad - IITM",16-01-2026 08:00:00,23.020509,72.579261,CO,1,74,9
India,Gujarat,Ahmedabad,"SAC ISRO Bopal, Ahmedabad - IITM",16-01-2026 08:00:00,23.041137,72.456691,NH3,7,12,10
India,Delhi,Delhi,"Lodhi Road, Delhi - IMD",16-01-2026 08:00:00,28.5918245,77.2273074,PM10,159,259,205
India,Haryana,Bhiwani,"H.B. Colony, Bhiwani - HSPCB",16-01-2026 08:00:00,28.806223,76.141105,PM10,25,425,88
India,Haryana,Bhiwani,"H.B. Colony, Bhiwani - HSPCB",16-01-2026 08:00:00,28.806223,76.141105,NH3,1,9,8
India,Haryana,Bhiwani,"H.B. Colony, Bhiwani - HSPCB",16-01-2026 08:00:00,28.806223,76.141105,CO,10,14,12
India,Haryana,Charkhi Dadri,"Mini Secretariat, Charkhi Dadri - HSPCB",16-01-2026 08:00:00,28.593883,76.270653,PM2.5,144,409,281
India,Haryana,Charkhi Dadri,"Mini Secretariat, Charkhi Dadri - HSPCB",16-01-2026 08:00:00,28.593883,76.270653,NH3,5,8,6
India,Haryana,Charkhi Dadri,"Mini Secretariat, Charkhi Dadri - HSPCB",16-01-2026 08:00:00,28.593883,76.270653,OZONE,13,18,15
India,Haryana,Dharuhera,"Municipal Corporation Office, Dharuhera -  HSPCB",16-01-2026 08:00:00,28.206800,76.799700,PM10,132,475,254
India,Haryana,Dharuhera,"Municipal Corporation Office, Dharuhera -  HSPCB",16-01-2026 08:00:00,28.206800,76.799700,CO,34,107,59
India,Haryana,Faridabad,"New Industrial Town, Faridabad - HSPCB",16-01-2026 08:00:00,28.39072,77.30059,OZONE,26,34,28
India,Haryana,Faridabad,"Sector 11, Faridabad - HSPCB",16-01-2026 08:00:00,28.376058,77.315741,PM10,108,404,188
India,Karnataka,Belgaum,"Ramteerth Nagar, Belgaum - KSPCB",16-01-2026 08:00:00,15.888653,74.541751,PM2.5,38,60,47
India,Karnataka,Belgaum,"Ramteerth Nagar, Belgaum - KSPCB",16-01-2026 08:00:00,15.888653,74.541751,PM10,50,79,62
India,Karnataka,Belgaum,"Ramteerth Nagar, Belgaum - KSPCB",16-01-2026 08:00:00,15.888653,74.541751,NH3,8,11,10
India,Karnataka,Belgaum,"Ramteerth Nagar, Belgaum - KSPCB",16-01-2026 08:00:00,15.888653,74.541751,SO2,28,31,28
India,Karnataka,Belgaum,"Ramteerth Nagar, Belgaum - KSPCB",16-01-2026 08:00:00,15.888653,74.541751,OZONE,19,20,19
India,Karnataka,Bengaluru,"BTM Layout, Bengaluru - CPCB",16-01-2026 08:00:00,12.9135218,77.5950804,PM10,124,125,125
India,Karnataka,Bengaluru,"BTM Layout, Bengaluru - CPCB",16-01-2026 08:00:00,12.9135218,77.5950804,OZONE,22,23,23
India,Karnataka,Bengaluru,"BWSSB Kadabesanahalli, Bengaluru - CPCB",16-01-2026 08:00:00,12.9352049,77.6814488,NO2,7,21,14
India,Karnataka,Bengaluru,"City Railway Station, Bengaluru - KSPCB",16-01-2026 08:00:00,12.9756843,77.5660749,PM10,NA,NA,NA
India,Karnataka,Bengaluru,"City Railway Station, Bengaluru - KSPCB",16-01-2026 08:00:00,12.9756843,77.5660749,NO2,NA,NA,NA
India,Haryana,Gurugram,"Teri Gram, Gurugram - HSPCB",16-01-2026 08:00:00,28.4275,77.1465,OZONE,4,19,5
India,Haryana,Gurugram,"Vikas Sadan, Gurugram - HSPCB",16-01-2026 08:00:00,28.4501238,77.0263051,CO,63,114,97
India,Haryana,Gurugram,"Vikas Sadan, Gurugram - HSPCB",16-01-2026 08:00:00,28.4501238,77.0263051,OZONE,4,31,11
India,Haryana,Hisar,"Urban Estate-II, Hisar - HSPCB",16-01-2026 08:00:00,29.140560,75.744941,PM10,71,170,120
India,Haryana,Jind,"Police Lines, Jind - HSPCB",16-01-2026 08:00:00,29.307814,76.337619,NH3,1,3,2
India,Haryana,Kaithal,"Rishi Nagar, Kaithal - HSPCB",16-01-2026 08:00:00,29.8006,76.4155,OZONE,NA,NA,NA
India,Haryana,Karnal,"Sector-12, Karnal - HSPCB",16-01-2026 08:00:00,29.695300,77.002700,PM2.5,80,331,224
India,Haryana,Karnal,"Sector-12, Karnal - HSPCB",16-01-2026 08:00:00,29.695300,77.002700,NH3,6,7,6
India,Haryana,Faridabad,"Sector 11, Faridabad - HSPCB",16-01-2026 08:00:00,28.376058,77.315741,SO2,4,5,4
India,Haryana,Faridabad,"Sector 30, Faridabad - HSPCB",16-01-2026 08:00:00,28.4417,77.3217,NH3,10,12,11
India,Haryana,Fatehabad,"Huda Sector, Fatehabad - HSPCB",16-01-2026 08:00:00,29.503664,75.467934,PM2.5,40,264,114
India,Haryana,Fatehabad,"Huda Sector, Fatehabad - HSPCB",16-01-2026 08:00:00,29.503664,75.467934,NO2,18,20,19
India,Haryana,Fatehabad,"Huda Sector, Fatehabad - HSPCB",16-01-2026 08:00:00,29.503664,75.467934,SO2,10,11,10
India,Haryana,Gurugram,"Sector-51, Gurugram - HSPCB",16-01-2026 08:00:00,28.4227,77.0667,NH3,8,12,9
India,Haryana,Gurugram,"Sector-51, Gurugram - HSPCB",16-01-2026 08:00:00,28.4227,77.0667,SO2,2,22,6
India,Haryana,Gurugram,"Sector-51, Gurugram - HSPCB",16-01-2026 08:00:00,28.4227,77.0667,OZONE,3,16,3
India,Haryana,Gurugram,"Teri Gram, Gurugram - HSPCB",16-01-2026 08:00:00,28.4275,77.1465,SO2,5,41,20
India,Gujarat,Surat,"Science Center, Surat - SMC",16-01-2026 08:00:00,21.170046,72.795405,SO2,25,31,27
India,Gujarat,Vapi,"Phase-1 GIDC, Vapi - GPCB",16-01-2026 08:00:00,20.362421,72.918013,NH3,2,9,7
India,Gujarat,Vatva,"Phase-4 GIDC, Vatva - GPCB",16-01-2026 08:00:00,22.969611,72.643500,CO,12,12,12
India,Haryana,Ambala,"Patti Mehar, Ambala - HSPCB",16-01-2026 08:00:00,30.379589,76.778328,SO2,15,31,22
India,Haryana,Bahadurgarh,"Arya Nagar, Bahadurgarh - HSPCB",16-01-2026 08:00:00,28.6701,76.9254,SO2,7,7,7
India,Haryana,Bahadurgarh,"Arya Nagar, Bahadurgarh - HSPCB",16-01-2026 08:00:00,28.6701,76.9254,CO,44,50,47
India,Haryana,Ballabgarh,"Nathu Colony, Ballabgarh - HSPCB",16-01-2026 08:00:00,28.3419248,77.319699,PM2.5,17,308,233
India,Himachal Pradesh,Baddi,"HIMUDA Complex Phase-1, Baddi - HPPCB",16-01-2026 08:00:00,30.943887,76.801991,NO2,5,23,12
India,Jammu_and_Kashmir,Srinagar,"Khunmoh, Srinagar - JKPCC",16-01-2026 08:00:00,34.06313,74.96017,PM10,75,262,115
India,Jammu_and_Kashmir,Srinagar,"Khunmoh, Srinagar - JKPCC",16-01-2026 08:00:00,34.06313,74.96017,SO2,2,4,3
India,Jharkhand,Dhanbad,"Sardar Patel Nagar, Dhanbad - JSPCB",16-01-2026 08:00:00,23.80569,86.44268,NO2,50,51,50
India,Karnataka,Bagalkot,"Vidayagiri, Bagalkot - KSPCB",16-01-2026 08:00:00,16.172806,75.659694,PM10,45,46,46
India,Haryana,Kurukshetra,"Sector-7, Kurukshetra - HSPCB",16-01-2026 08:00:00,29.966942,76.875879,PM10,122,238,194
India,Haryana,Kurukshetra,"Sector-7, Kurukshetra - HSPCB",16-01-2026 08:00:00,29.966942,76.875879,NH3,5,5,5
India,Haryana,Kurukshetra,"Sector-7, Kurukshetra - HSPCB",16-01-2026 08:00:00,29.966942,76.875879,OZONE,4,43,6
India,Haryana,Mandikhera,"General Hospital, Mandikhera(Nuh) - HSPCB",16-01-2026 08:00:00,27.9002,76.9938,PM10,82,183,121
India,Haryana,Narnaul,"Shastri Nagar, Narnaul - HSPCB",16-01-2026 08:00:00,28.060249,76.113115,NO2,56,97,70
India,Haryana,Narnaul,"Shastri Nagar, Narnaul - HSPCB",16-01-2026 08:00:00,28.060249,76.113115,CO,12,57,33
India,Haryana,Narnaul,"Shastri Nagar, Narnaul - HSPCB",16-01-2026 08:00:00,28.060249,76.113115,OZONE,6,31,6
India,Haryana,Panchkula,"Sector-6, Panchkula - HSPCB ",16-01-2026 08:00:00,30.7057778,76.8531805555555,NO2,24,27,25
India,Haryana,Rohtak,"MD University, Rohtak - HSPCB",16-01-2026 08:00:00,28.52123,76.37138,SO2,10,14,12
India,Haryana,Sirsa,"F-Block, Sirsa - HSPCB",16-01-2026 08:00:00,29.536400,75.015800,NH3,11,14,13
India,Haryana,Sonipat,"Murthal, Sonipat - HSPCB",16-01-2026 08:00:00,29.027200,77.062100,NH3,17,27,23
India,Haryana,Sonipat,"Murthal, Sonipat - HSPCB",16-01-2026 08:00:00,29.027200,77.062100,SO2,6,10,8
India,Haryana,Sonipat,"Murthal, Sonipat - HSPCB",16-01-2026 08:00:00,29.027200,77.062100,CO,38,56,50
India,Karnataka,Bengaluru,"Hombegowda Nagar, Bengaluru - KSPCB",16-01-2026 08:00:00,12.938539,77.590100,PM2.5,26,90,50
India,Karnataka,Bengaluru,"Hombegowda Nagar, Bengaluru - KSPCB",16-01-2026 08:00:00,12.938539,77.590100,NO2,15,61,30
India,Karnataka,Bengaluru,"Jayanagar 5th Block, Bengaluru - KSPCB",16-01-2026 08:00:00,12.920984,77.584908,PM10,47,125,85
India,Karnataka,Bengaluru,"Jigani, Bengaluru - KSPCB",16-01-2026 08:00:00,12.7816279,77.6299145,NO2,24,25,24
India,Karnataka,Hubballi,"Lingaraj Nagar, Hubballi - KSPCB",16-01-2026 08:00:00,15.3714823,75.1160168,OZONE,25,26,25
India,Karnataka,Kalaburagi,"Mahatma Basaveswar Colony, Kalaburgi - KSPCB",16-01-2026 08:00:00,17.336318,76.847397,PM2.5,20,55,40
India,Karnataka,Kalaburagi,"Mahatma Basaveswar Colony, Kalaburgi - KSPCB",16-01-2026 08:00:00,17.336318,76.847397,PM10,25,69,50
India,Karnataka,Koppal,"Diwator Nagar, Koppal - KSPCB",16-01-2026 08:00:00,15.347630,76.181767,PM10,32,80,51
India,Karnataka,Koppal,"Diwator Nagar, Koppal - KSPCB",16-01-2026 08:00:00,15.347630,76.181767,NO2,29,36,30
India,Karnataka,Koppal,"Diwator Nagar, Koppal - KSPCB",16-01-2026 08:00:00,15.347630,76.181767,OZONE,16,53,28
India,Karnataka,Madikeri,"Stuart Hill, Madikeri - KSPCB",16-01-2026 08:00:00,12.415911,75.735050,PM2.5,38,72,59
India,Karnataka,Madikeri,"Stuart Hill, Madikeri - KSPCB",16-01-2026 08:00:00,12.415911,75.735050,SO2,7,7,7
India,Karnataka,Madikeri,"Stuart Hill, Madikeri - KSPCB",16-01-2026 08:00:00,12.415911,75.735050,OZONE,1,5,3
India,Karnataka,Mysuru,"Hebbal 1st Stage, Mysuru - KSPCB",16-01-2026 08:00:00,12.21041,76.37376,PM10,41,89,64
India,Karnataka,Mysuru,"Hebbal 1st Stage, Mysuru - KSPCB",16-01-2026 08:00:00,12.21041,76.37376,OZONE,4,80,9
India,Karnataka,Shivamogga,"Vinoba Nagara, Shivamogga - KSPCB",16-01-2026 08:00:00,13.940000,75.555917,PM10,50,51,51
India,Karnataka,Chamarajanagar,"Urban, Chamarajanagar - KSPCB",16-01-2026 08:00:00,11.55358,76.55521,SO2,2,3,3
India,Karnataka,Chikkaballapur,"Chikkaballapur Rural, Chikkaballapur - KSPCB",16-01-2026 08:00:00,13.428828,77.731418,PM2.5,29,170,81
India,Karnataka,Chikkamagaluru,"Kalyana Nagara, Chikkamagaluru - KSPCB",16-01-2026 08:00:00,13.328028,75.797056,CO,11,12,11
India,Karnataka,Davanagere,"Devaraj Urs Badavane, Davanagere - KSPCB",16-01-2026 08:00:00,14.475800,75.905200,SO2,1,7,3
India,Karnataka,Davanagere,"Devaraj Urs Badavane, Davanagere - KSPCB",16-01-2026 08:00:00,14.475800,75.905200,OZONE,19,20,20
India,Karnataka,Dharwad,"Kalabhavan, Dharwad - KSPCB",16-01-2026 08:00:00,15.459706,75.008381,NO2,22,22,22
India,Karnataka,Hubballi,"Lingaraj Nagar, Hubballi - KSPCB",16-01-2026 08:00:00,15.3714823,75.1160168,NO2,7,7,7
India,Karnataka,Hubballi,"Lingaraj Nagar, Hubballi - KSPCB",16-01-2026 08:00:00,15.3714823,75.1160168,SO2,1,1,1
India,Madhya Pradesh,Indore,"Regional Park, Indore - IMC",16-01-2026 08:00:00,22.6780,75.8559,CO,30,46,35
India,Madhya Pradesh,Indore,"Residency Area, Indore - IMC",16-01-2026 08:00:00,22.7084,75.8815,PM10,17,106,55
India,Madhya Pradesh,Indore,"Residency Area, Indore - IMC",16-01-2026 08:00:00,22.7084,75.8815,SO2,2,108,14
India,Madhya Pradesh,Indore,"Residency Area, Indore - IMC",16-01-2026 08:00:00,22.7084,75.8815,OZONE,7,318,7
India,Madhya Pradesh,Jabalpur,"Govindh Bhavan Colony, Jabalpur - JMC",16-01-2026 08:00:00,23.163174,79.973061,PM2.5,44,106,66
India,Madhya Pradesh,Jabalpur,"Govindh Bhavan Colony, Jabalpur - JMC",16-01-2026 08:00:00,23.163174,79.973061,PM10,57,111,70
India,Madhya Pradesh,Jabalpur,"Govindh Bhavan Colony, Jabalpur - JMC",16-01-2026 08:00:00,23.163174,79.973061,NH3,1,1,1
India,Madhya Pradesh,Jabalpur,"Gupteshwar, Jabalpur - JMC",16-01-2026 08:00:00,23.142888,79.916147,NH3,2,2,2
India,Madhya Pradesh,Jabalpur,"Marhatal, Jabalpur - MPPCB",16-01-2026 08:00:00,23.168606,79.932247,SO2,8,16,11
India,Karnataka,Bengaluru,"Kasturi Nagar, Bengaluru - KSPCB",16-01-2026 08:00:00,13.003872,77.664217,OZONE,NA,NA,NA
India,Karnataka,Bengaluru,"Peenya, Bengaluru - CPCB",16-01-2026 08:00:00,13.0270199,77.494094,SO2,6,15,10
India,Karnataka,Bengaluru,"RVCE-Mailasandra, Bengaluru - KSPCB",16-01-2026 08:00:00,12.921418,77.502466,SO2,6,6,6
India,Karnataka,Bengaluru,"RVCE-Mailasandra, Bengaluru - KSPCB",16-01-2026 08:00:00,12.921418,77.502466,CO,28,58,38
India,Karnataka,Bengaluru,"Sanegurava Halli, Bengaluru - KSPCB",16-01-2026 08:00:00,12.990328,77.5431385,CO,22,36,29
India,Karnataka,Bengaluru,"Shivapura_Peenya, Bengaluru - KSPCB",16-01-2026 08:00:00,13.0246342,77.5080115,PM10,NA,NA,NA
India,Karnataka,Bengaluru,"Shivapura_Peenya, Bengaluru - KSPCB",16-01-2026 08:00:00,13.0246342,77.5080115,NO2,NA,NA,NA
India,Karnataka,Bengaluru,"Silk Board, Bengaluru - KSPCB",16-01-2026 08:00:00,12.917348,77.622813,NH3,4,7,6
India,Karnataka,Bengaluru,"Silk Board, Bengaluru - KSPCB",16-01-2026 08:00:00,12.917348,77.622813,CO,16,59,35
India,Madhya Pradesh,Bhopal,"Idgah Hills, Bhopal - MPPCB",16-01-2026 08:00:00,23.264759,77.381568,SO2,10,13,12
India,Madhya Pradesh,Bhopal,"Idgah Hills, Bhopal - MPPCB",16-01-2026 08:00:00,23.264759,77.381568,CO,21,74,37
India,Madhya Pradesh,Bhopal,"Paryavaran Parisar, Bhopal - MPPCB",16-01-2026 08:00:00,23.210494,77.425409,PM10,92,289,158
India,Madhya Pradesh,Bhopal,"Paryavaran Parisar, Bhopal - MPPCB",16-01-2026 08:00:00,23.210494,77.425409,NO2,31,110,60
India,Madhya Pradesh,Bhopal,"T T Nagar, Bhopal - MPPCB",16-01-2026 08:00:00,23.233584,77.400574,NO2,63,105,90
India,Madhya Pradesh,Bhopal,"T T Nagar, Bhopal - MPPCB",16-01-2026 08:00:00,23.233584,77.400574,CO,36,86,54
India,Madhya Pradesh,Damoh,"Shrivastav Colony, Damoh - MPPCB",16-01-2026 08:00:00,23.81748678,79.446246,SO2,NA,NA,NA
India,Madhya Pradesh,Dewas,"Bhopal Chauraha, Dewas - MPPCB",16-01-2026 08:00:00,22.9682591,76.064118,PM2.5,52,309,132
India,Madhya Pradesh,Gwalior,"Deen Dayal Nagar, Gwalior - MPPCB",16-01-2026 08:00:00,26.259242,78.216432,NH3,8,16,11
India,Madhya Pradesh,Gwalior,"Deen Dayal Nagar, Gwalior - MPPCB",16-01-2026 08:00:00,26.259242,78.216432,CO,7,160,20
India,Madhya Pradesh,Gwalior,"Maharaj Bada, Gwalior - MPPCB",16-01-2026 08:00:00,26.200388,78.147714,NH3,6,6,6
India,Madhya Pradesh,Indore,"Airport Area, Indore - IMC",16-01-2026 08:00:00,22.7289,75.8076,SO2,19,19,19
India,Madhya Pradesh,Indore,"Airport Area, Indore - IMC",16-01-2026 08:00:00,22.7289,75.8076,CO,8,12,10
India,Madhya Pradesh,Indore,"Chhoti Gwaltoli, Indore - MPPCB",16-01-2026 08:00:00,22.4310,75.5213,PM10,62,164,93
India,Madhya Pradesh,Indore,"Chhoti Gwaltoli, Indore - MPPCB",16-01-2026 08:00:00,22.4310,75.5213,NO2,37,143,88
India,Kerala,Kannur,"Thavakkara, Kannur - Kerala PCB",16-01-2026 08:00:00,11.875000,75.373200,SO2,7,12,9
India,Kerala,Thiruvananthapuram,"Kariavattom, Thiruvananthapuram - Kerala PCB",16-01-2026 08:00:00,8.563700,76.886500,CO,NA,NA,NA
India,Kerala,Thiruvananthapuram,"Plammoodu, Thiruvananthapuram - Kerala PCB",16-01-2026 08:00:00,8.5149093,76.9435879,OZONE,11,29,21
India,Kerala,Thrissur,"Corporation Ground, Thrissur - Kerala PCB",16-01-2026 08:00:00,10.532400,76.215900,SO2,1,1,1
India,Madhya Pradesh,Bhopal,"Idgah Hills, Bhopal - MPPCB",16-01-2026 08:00:00,23.264759,77.381568,NO2,17,77,34
India,Karnataka,Tumakuru,"Thimmalapura, Tumakuru - KSPCB",16-01-2026 08:00:00,13.377516,77.099072,NO2,31,32,32
India,Karnataka,Tumakuru,"Thimmalapura, Tumakuru - KSPCB",16-01-2026 08:00:00,13.377516,77.099072,SO2,26,27,26
India,Karnataka,Vijayapura,"Ibrahimpur, Vijayapura - KSPCB",16-01-2026 08:00:00,16.802639,75.722694,PM2.5,30,31,30
India,Karnataka,Vijayapura,"Ibrahimpur, Vijayapura - KSPCB",16-01-2026 08:00:00,16.802639,75.722694,PM10,61,62,62
India,Karnataka,Yadgir,"Collector Office, Yadgir - KSPCB",16-01-2026 08:00:00,16.7602,77.1428,PM10,61,102,83
India,Kerala,Eloor,"Udyogamandal, Eloor - Kerala PCB",16-01-2026 08:00:00,10.073232,76.302765,SO2,NA,NA,NA
India,Kerala,Eloor,"Udyogamandal, Eloor - Kerala PCB",16-01-2026 08:00:00,10.073232,76.302765,CO,NA,NA,NA
India,Madhya Pradesh,Jabalpur,"Suhagi, Jabalpur - JMC",16-01-2026 08:00:00,23.218135,79.957770,NH3,4,8,6
India,Madhya Pradesh,Jabalpur,"Suhagi, Jabalpur - JMC",16-01-2026 08:00:00,23.218135,79.957770,OZONE,61,110,65
India,Madhya Pradesh,Mandideep,"Sector-D Industrial Area, Mandideep - MPPCB",16-01-2026 08:00:00,23.108440,77.511428,OZONE,3,20,4
India,Madhya Pradesh,Pithampur,"Sector-2 Industrial Area, Pithampur - MPPCB",16-01-2026 08:00:00,22.624758,75.675238,NO2,15,28,21
India,Madhya Pradesh,Pithampur,"Sector-2 Industrial Area, Pithampur - MPPCB",16-01-2026 08:00:00,22.624758,75.675238,SO2,3,36,14
India,Madhya Pradesh,Pithampur,"Sector-2 Industrial Area, Pithampur - MPPCB",16-01-2026 08:00:00,22.624758,75.675238,OZONE,35,178,86
India,Madhya Pradesh,Ujjain,"Mahashweta Nagar, Ujjain - MPPCB",16-01-2026 08:00:00,23.1633321,75.800225,SO2,1,9,4
India,Madhya Pradesh,Ujjain,"Mahashweta Nagar, Ujjain - MPPCB",16-01-2026 08:00:00,23.1633321,75.800225,OZONE,15,126,48
India,Maharashtra,Ahmednagar,"Tarakpur, Ahmednagar - MPCB",16-01-2026 08:00:00,19.10122,74.73339,NH3,3,5,4
India,Maharashtra,Akola,"Ramdaspeth, Akola - MPCB",16-01-2026 08:00:00,20.719516,77.000253,PM2.5,35,157,76
India,Maharashtra,Akola,"Ramdaspeth, Akola - MPCB",16-01-2026 08:00:00,20.719516,77.000253,PM10,45,191,95
India,Maharashtra,Amravati,"Shivneri Colony, Amravati - MPCB",16-01-2026 08:00:00,20.9402359,77.7895248,PM10,58,110,84
India,Maharashtra,Amravati,"Shivneri Colony, Amravati - MPCB",16-01-2026 08:00:00,20.9402359,77.7895248,NO2,8,40,17
India,Maharashtra,Amravati,"Shivneri Colony, Amravati - MPCB",16-01-2026 08:00:00,20.9402359,77.7895248,OZONE,2,82,36
India,Maharashtra,Amravati,"Shri Shivaji Science College, Amravati - MPCB",16-01-2026 08:00:00,20.939198,77.765701,PM2.5,40,98,64
India,Maharashtra,Amravati,"Shri Shivaji Science College, Amravati - MPCB",16-01-2026 08:00:00,20.939198,77.765701,CO,36,110,40
India,Madhya Pradesh,Ratlam,"Shasthri Nagar, Ratlam - IPCA Lab",16-01-2026 08:00:00,23.331731,75.045981,NO2,15,45,25
India,Madhya Pradesh,Sagar,"Civil Lines, Sagar - MPPCB",16-01-2026 08:00:00,23.838586,78.759431,NH3,1,4,2
India,Madhya Pradesh,Sagar,"Civil Lines, Sagar - MPPCB",16-01-2026 08:00:00,23.838586,78.759431,OZONE,36,63,51
India,Madhya Pradesh,Satna,"Bandhavgar Colony, Satna - Birla Cement",16-01-2026 08:00:00,24.58434363,80.8549414,PM10,69,71,70
India,Madhya Pradesh,Satna,"Bandhavgar Colony, Satna - Birla Cement",16-01-2026 08:00:00,24.58434363,80.8549414,SO2,19,21,20
India,Madhya Pradesh,Singrauli,"Suryakiran Bhawan NCL, Singrauli - MPPCB",16-01-2026 08:00:00,24.108970,82.645580,PM10,95,470,193
India,Madhya Pradesh,Ujjain,"Mahashweta Nagar, Ujjain - MPPCB",16-01-2026 08:00:00,23.1633321,75.800225,PM2.5,65,309,159
India,Maharashtra,Amravati,"Shri Shivaji Science College, Amravati - MPCB",16-01-2026 08:00:00,20.939198,77.765701,OZONE,1,83,46
India,Maharashtra,Aurangabad,"More Chowk Waluj, Aurangabad - MPCB",16-01-2026 08:00:00,19.8389439,75.244448,CO,6,110,43
India,Maharashtra,Aurangabad,"Rachnakar Colony, Aurangabad - MPCB",16-01-2026 08:00:00,19.863756,75.321188,SO2,8,17,13
India,Maharashtra,Badlapur,"Katrap, Badlapur - MPCB",16-01-2026 08:00:00,19.16485,73.23409,SO2,6,12,9
India,Maharashtra,Badlapur,"Katrap, Badlapur - MPCB",16-01-2026 08:00:00,19.16485,73.23409,OZONE,13,85,16
India,Maharashtra,Belapur,"CBD Belapur, Belapur - MPCB",16-01-2026 08:00:00,19.0243902,73.0406721,NH3,1,2,2
India,Maharashtra,Mumbai,"Bandra Kurla Complex, Mumbai - IITM",16-01-2026 08:00:00,19.053536,72.84643,PM10,87,153,120
India,Maharashtra,Mumbai,"Bandra Kurla Complex, Mumbai - MPCB",16-01-2026 08:00:00,19.065931,72.862131,PM2.5,47,50,48
India,Maharashtra,Mumbai,"Bandra Kurla Complex, Mumbai - MPCB",16-01-2026 08:00:00,19.065931,72.862131,NH3,2,9,5
India,Maharashtra,Mumbai,"Borivali East, Mumbai - IITM",16-01-2026 08:00:00,19.23241,72.86895,PM10,61,142,107
India,Maharashtra,Dhule,"Deopur, Dhule - MPCB",16-01-2026 08:00:00,20.918946,74.776388,PM2.5,59,194,114
India,Maharashtra,Jalgaon,"Prabhat Colony, Jalgaon - MPCB",16-01-2026 08:00:00,21.001264,75.565602,CO,20,46,23
India,Maharashtra,Kalyan,"Pimpleshwar Mandir, Kalyan - MPCB",16-01-2026 08:00:00,19.192056,72.9585188,NO2,4,9,6
India,Maharashtra,Mumbai,"Borivali East, Mumbai - MPCB",16-01-2026 08:00:00,19.2243333,72.8658113,OZONE,17,21,18
India,Maharashtra,Mumbai,"Byculla, Mumbai - BMC",16-01-2026 08:00:00,18.9767,72.8380,PM2.5,52,106,81
India,Maharashtra,Mumbai,"Byculla, Mumbai - BMC",16-01-2026 08:00:00,18.9767,72.8380,NO2,37,112,73
India,Maharashtra,Mumbai,"Byculla, Mumbai - BMC",16-01-2026 08:00:00,18.9767,72.8380,NH3,7,27,15
India,Maharashtra,Kolhapur,"Shivaji University, Kolhapur - MPCB",16-01-2026 08:00:00,16.6870449,74.2505872,PM10,58,134,91
India,Maharashtra,Kolhapur,"Sinchan Bhavan, Kolhapur - MPCB",16-01-2026 08:00:00,16.7143745,74.2426398,PM2.5,NA,NA,NA
India,Maharashtra,Mahad,"Kamble Tarf Birwadi, Mahad - MPCB",16-01-2026 08:00:00,18.1023399,73.4783687,NO2,12,76,26
India,Maharashtra,Boisar,"Khaira, Boisar - MPCB",16-01-2026 08:00:00,19.786089,72.757971,SO2,7,23,12
India,Maharashtra,Chandrapur,"MIDC Khutala, Chandrapur - MPCB",16-01-2026 08:00:00,19.9775302,79.2337086,NH3,1,11,5
India,Maharashtra,Chandrapur,"MIDC Khutala, Chandrapur - MPCB",16-01-2026 08:00:00,19.9775302,79.2337086,SO2,8,9,9
India,Maharashtra,Malegaon,"Mahesh Nagar, Malegaon - MPCB",16-01-2026 08:00:00,20.555712,74.529236,OZONE,10,62,10
India,Maharashtra,Nagpur,"Ram Nagar, Nagpur - MPCB",16-01-2026 08:00:00,21.143383,79.048912,CO,32,66,47
India,Maharashtra,Nanded,"Sneh Nagar, Nanded - MPCB",16-01-2026 08:00:00,19.173852,77.296291,PM10,80,159,114
India,Maharashtra,Nashik,"Hirawadi, Nashik - MPCB",16-01-2026 08:00:00,20.021503,73.813844,PM10,NA,NA,NA
India,Maharashtra,Nashik,"Hirawadi, Nashik - MPCB",16-01-2026 08:00:00,20.021503,73.813844,NO2,NA,NA,NA
India,Maharashtra,Nashik,"Hirawadi, Nashik - MPCB",16-01-2026 08:00:00,20.021503,73.813844,NH3,NA,NA,NA
India,Maharashtra,Nashik,"Hirawadi, Nashik - MPCB",16-01-2026 08:00:00,20.021503,73.813844,OZONE,3,65,37
India,Maharashtra,Nashik,"MIDC Ambad, Nashik - MPCB",16-01-2026 08:00:00,19.950220,73.731480,PM2.5,63,116,83
India,Maharashtra,Nashik,"MIDC Ambad, Nashik - MPCB",16-01-2026 08:00:00,19.950220,73.731480,CO,17,34,32
India,Maharashtra,Mumbai,"Mazgaon, Mumbai - IITM",16-01-2026 08:00:00,18.96702,72.84214,PM10,NA,NA,NA
India,Maharashtra,Mumbai,"Mazgaon, Mumbai - IITM",16-01-2026 08:00:00,18.96702,72.84214,CO,50,84,80
India,Maharashtra,Mumbai,"Mindspace-Malad West, Mumbai - MPCB",16-01-2026 08:00:00,19.1878657,72.8304069,NH3,2,11,4
India,Maharashtra,Mumbai,"Mindspace-Malad West, Mumbai - MPCB",16-01-2026 08:00:00,19.1878657,72.8304069,SO2,14,37,23
India,Maharashtra,Mumbai,"Mulund West, Mumbai - MPCB",16-01-2026 08:00:00,19.1750,72.9419,PM2.5,44,233,107
India,Maharashtra,Mumbai,"Mulund West, Mumbai - MPCB",16-01-2026 08:00:00,19.1750,72.9419,PM10,66,162,104
India,Maharashtra,Mumbai,"Navy Nagar-Colaba, Mumbai - IITM",16-01-2026 08:00:00,18.897756,72.813320,PM2.5,39,89,66
India,Maharashtra,Mumbai,"Kandivali West, Mumbai - BMC",16-01-2026 08:00:00,19.215859,72.831718,NO2,NA,NA,NA
India,Maharashtra,Mumbai,"Kandivali West, Mumbai - BMC",16-01-2026 08:00:00,19.215859,72.831718,SO2,NA,NA,NA
India,Maharashtra,Mumbai,"Kherwadi_Bandra East, Mumbai - MPCB",16-01-2026 08:00:00,19.0632143,72.8456324,PM2.5,57,172,101
India,Maharashtra,Mumbai,"Khindipada-Bhandup West, Mumbai - IITM",16-01-2026 08:00:00,19.1653323,72.922099,NO2,15,60,31
India,Maharashtra,Mumbai,"Kurla, Mumbai - MPCB",16-01-2026 08:00:00,19.0863,72.8888,PM2.5,84,196,117
India,Maharashtra,Mumbai,"Malad West, Mumbai - IITM",16-01-2026 08:00:00,19.19709,72.82204,NH3,10,29,14
India,Maharashtra,Navi Mumbai,"Kopripada-Vashi, Navi Mumbai - MPCB",16-01-2026 08:00:00,19.090337,73.014232,SO2,4,15,7
India,Maharashtra,Navi Mumbai,"Mahape, Navi Mumbai - MPCB",16-01-2026 08:00:00,19.1135051,73.008978,PM2.5,49,105,73
India,Maharashtra,Navi Mumbai,"Nerul, Navi Mumbai - MPCB",16-01-2026 08:00:00,19.008751,73.016620,SO2,NA,NA,NA
India,Maharashtra,Navi Mumbai,"Sanpada, Navi Mumbai - MPCB",16-01-2026 08:00:00,19.0575752,73.0151367,PM10,49,127,96
India,Maharashtra,Navi Mumbai,"Sanpada, Navi Mumbai - MPCB",16-01-2026 08:00:00,19.0575752,73.0151367,CO,35,113,90
India,Maharashtra,Nagpur,"Ambazari, Nagpur - MPCB",16-01-2026 08:00:00,21.121801,79.04952,NH3,1,15,5
India,Maharashtra,Nagpur,"Ram Nagar, Nagpur - MPCB",16-01-2026 08:00:00,21.143383,79.048912,PM10,91,139,117
India,Maharashtra,Nagpur,"Ram Nagar, Nagpur - MPCB",16-01-2026 08:00:00,21.143383,79.048912,NO2,8,44,21
India,Maharashtra,Nagpur,"Ram Nagar, Nagpur - MPCB",16-01-2026 08:00:00,21.143383,79.048912,NH3,4,4,4
India,Maharashtra,Mumbai,"Shivaji Nagar, Mumbai - BMC",16-01-2026 08:00:00,19.060498,72.923356,NO2,32,113,62
India,Maharashtra,Mumbai,"Shivaji Nagar, Mumbai - BMC",16-01-2026 08:00:00,19.060498,72.923356,SO2,3,26,15
India,Maharashtra,Mumbai,"Shivaji Nagar, Mumbai - BMC",16-01-2026 08:00:00,19.060498,72.923356,CO,7,112,58
India,Maharashtra,Mumbai,"Sion, Mumbai - MPCB",16-01-2026 08:00:00,19.047000,72.874600,SO2,23,71,51
India,Maharashtra,Mumbai,"Navy Nagar-Colaba, Mumbai - IITM",16-01-2026 08:00:00,18.897756,72.813320,NH3,5,8,6
India,Maharashtra,Mumbai,"Sewri, Mumbai - BMC",16-01-2026 08:00:00,19.000084,72.856730,CO,16,64,48
India,Maharashtra,Mumbai,"Ghatkopar, Mumbai - BMC",16-01-2026 08:00:00,19.083694,72.920967,PM2.5,10,97,40
India,Maharashtra,Mumbai,"Kandivali West, Mumbai - BMC",16-01-2026 08:00:00,19.215859,72.831718,PM10,54,88,76
India,Maharashtra,Mumbai,"Chakala-Andheri East, Mumbai - IITM",16-01-2026 08:00:00,19.11074,72.86084,PM10,96,140,123
India,Maharashtra,Pimpri-Chinchwad,"Park Street Wakad, Pimpri Chinchwad - MPCB",16-01-2026 08:00:00,18.59051,73.77946,NO2,39,77,56
India,Maharashtra,Pimpri-Chinchwad,"Park Street Wakad, Pimpri Chinchwad - MPCB",16-01-2026 08:00:00,18.59051,73.77946,SO2,2,8,4
India,Maharashtra,Pimpri-Chinchwad,"Savta Mali Nagar, Pimpri-Chinchwad - IITM",16-01-2026 08:00:00,18.614767,73.799516,PM10,80,169,125
India,Maharashtra,Pimpri-Chinchwad,"Savta Mali Nagar, Pimpri-Chinchwad - IITM",16-01-2026 08:00:00,18.614767,73.799516,NO2,15,128,68
India,Maharashtra,Pimpri-Chinchwad,"Savta Mali Nagar, Pimpri-Chinchwad - IITM",16-01-2026 08:00:00,18.614767,73.799516,OZONE,2,57,4
India,Maharashtra,Pimpri-Chinchwad,"Thergaon, Pimpri Chinchwad - MPCB",16-01-2026 08:00:00,18.616318,73.765797,PM10,62,156,113
India,Maharashtra,Pimpri-Chinchwad,"Thergaon, Pimpri Chinchwad - MPCB",16-01-2026 08:00:00,18.616318,73.765797,NO2,29,100,63
India,Maharashtra,Pimpri-Chinchwad,"Thergaon, Pimpri Chinchwad - MPCB",16-01-2026 08:00:00,18.616318,73.765797,NH3,5,7,6
India,Maharashtra,Pune,"Katraj Dairy, Pune - MPCB",16-01-2026 08:00:00,18.454450,73.854155,PM2.5,44,62,51
India,Maharashtra,Navi Mumbai,"Sector-2E Kalamboli, Navi Mumbai - MPCB",16-01-2026 08:00:00,19.02579,73.10297,PM10,30,134,88
India,Maharashtra,Navi Mumbai,"Sector-2E Kalamboli, Navi Mumbai - MPCB",16-01-2026 08:00:00,19.02579,73.10297,NH3,3,19,11
India,Maharashtra,Navi Mumbai,"Sector-2E Kalamboli, Navi Mumbai - MPCB",16-01-2026 08:00:00,19.02579,73.10297,SO2,4,17,8
India,Maharashtra,Navi Mumbai,"Tondare-Taloja, Navi Mumbai - MPCB",16-01-2026 08:00:00,19.0630,73.1209,PM10,47,118,83
India,Maharashtra,Navi Mumbai,"Tondare-Taloja, Navi Mumbai - MPCB",16-01-2026 08:00:00,19.0630,73.1209,SO2,3,4,4
India,Maharashtra,Parbhani,"Masoom Colony, Parbhani - MPCB",16-01-2026 08:00:00,19.265594,76.761463,PM10,70,235,102
India,Maharashtra,Pimpri-Chinchwad,"Gavalinagar, Pimpri Chinchwad - MPCB",16-01-2026 08:00:00,18.63673,73.82487,NH3,8,27,13
India,Maharashtra,Pimpri-Chinchwad,"Gavalinagar, Pimpri Chinchwad - MPCB",16-01-2026 08:00:00,18.63673,73.82487,SO2,1,2,1
India,Maharashtra,Sangli,"Vijay Nagar, Sangli - MPCB",16-01-2026 08:00:00, 16.5038,74.3623,OZONE,8,65,13
India,Maharashtra,Solapur,"Dnyaneshwar Nagar, Solapur - MPCB",16-01-2026 08:00:00,17.6336264,75.9132495,NO2,8,105,33
India,Maharashtra,Solapur,"Ratandeep Housing Society, Solapur - MPCB",16-01-2026 08:00:00,17.65439,75.90649,NO2,11,137,54
India,Maharashtra,Solapur,"Ratandeep Housing Society, Solapur - MPCB",16-01-2026 08:00:00,17.65439,75.90649,OZONE,2,44,34
India,Maharashtra,Thane,"Kasarvadavali, Thane - MPCB",16-01-2026 08:00:00,19.26777,72.97182,PM10,62,102,78
India,Maharashtra,Thane,"Kasarvadavali, Thane - MPCB",16-01-2026 08:00:00,19.26777,72.97182,NO2,19,103,55
India,Maharashtra,Thane,"Kasarvadavali, Thane - MPCB",16-01-2026 08:00:00,19.26777,72.97182,SO2,2,22,8
India,Maharashtra,Thane,"Kasarvadavali, Thane - MPCB",16-01-2026 08:00:00,19.26777,72.97182,OZONE,1,73,4
India,Odisha,Angul,"Hakimapada, Angul - OSPCB",16-01-2026 08:00:00,20.832874,85.104082,PM2.5,90,394,206
India,Odisha,Angul,"Hakimapada, Angul - OSPCB",16-01-2026 08:00:00,20.832874,85.104082,NO2,21,70,37
India,Odisha,Balasore,"Kalidaspur, Balasore - OSPCB",16-01-2026 08:00:00,21.51161,86.89088,SO2,11,32,19
India,Odisha,Barbil,"Forest Office, Barbil - OSPCB",16-01-2026 08:00:00,22.1166054,85.3945546,CO,20,73,37
India,Odisha,Barbil,"Forest Office, Barbil - OSPCB",16-01-2026 08:00:00,22.1166054,85.3945546,OZONE,3,74,6
India,Odisha,Baripada,"Meher Colony, Baripada - OSPCB",16-01-2026 08:00:00,21.941841,86.728318,PM2.5,78,157,111
India,Odisha,Baripada,"Meher Colony, Baripada - OSPCB",16-01-2026 08:00:00,21.941841,86.728318,SO2,4,26,12
India,Odisha,Byasanagar,"Ferro Chrome Colony, Byasanagar - OSPCB",16-01-2026 08:00:00,20.94185,86.11510,OZONE,51,224,60
India,Odisha,Cuttack,"CDA Area, Cuttack - OSPCB",16-01-2026 08:00:00,20.48891     ,85.84768     ,NO2,11,132,43
India,Odisha,Nayagarh,"Dabuna, Nayagarh - OSPCB",16-01-2026 08:00:00,21.847279,85.416905,PM10,34,145,98
India,Odisha,Nayagarh,"Dabuna, Nayagarh - OSPCB",16-01-2026 08:00:00,21.847279,85.416905,CO,12,34,26
India,Odisha,Rairangpur,"Divisional Forest Office, Rairangpur - OSPCB",16-01-2026 08:00:00,22.265816,86.174829,NO2,11,12,11
India,Odisha,Rairangpur,"Divisional Forest Office, Rairangpur - OSPCB",16-01-2026 08:00:00,22.265816,86.174829,CO,14,48,26
India,Odisha,Bhubaneswar,"Lingraj Mandir, Bhubaneswar - OSPCB",16-01-2026 08:00:00,20.240790,85.836784,PM10,127,445,179
India,Odisha,Bhubaneswar,"Lingraj Mandir, Bhubaneswar - OSPCB",16-01-2026 08:00:00,20.240790,85.836784,OZONE,16,304,58
India,Odisha,Bileipada,"Tata Township, Bileipada - OSPCB",16-01-2026 08:00:00,22.06156703,85.47409613,CO,NA,NA,NA
India,Odisha,Brajrajnagar,"GM Office, Brajrajnagar - OSPCB",16-01-2026 08:00:00,21.8004996,83.8396977,PM2.5,14,201,80
India,Odisha,Brajrajnagar,"GM Office, Brajrajnagar - OSPCB",16-01-2026 08:00:00,21.8004996,83.8396977,SO2,20,22,21
India,Odisha,Rourkela,"Fertilizer Township, Rourkela - OSPCB",16-01-2026 08:00:00,22.18972222,84.86277778,SO2,9,10,9
India,Odisha,Rourkela,"Raghunathpali, Rourkela - OSPCB",16-01-2026 08:00:00,22.220833,84.809444,NH3,1,2,1
India,Odisha,Talcher,"Talcher Coalfields,Talcher - OSPCB",16-01-2026 08:00:00,20.9360711,85.1707021,CO,2,109,47
India,Odisha,Tensa,"Barsua Iron Ore Mines, Tensa - OSPCB",16-01-2026 08:00:00,21.869985,85.167016,OZONE,NA,NA,NA
India,Maharashtra,Thane,"Upvan Fort, Thane - MPCB",16-01-2026 08:00:00,19.222279,72.957979,NH3,3,3,3
India,Maharashtra,Ulhasnagar,"Sidhi Vinayak Nagar, Ulhasnagar - MPCB",16-01-2026 08:00:00,19.235581,73.159121,PM2.5,43,234,134
India,Maharashtra,Ulhasnagar,"Sidhi Vinayak Nagar, Ulhasnagar - MPCB",16-01-2026 08:00:00,19.235581,73.159121,NO2,14,37,24
India,Mizoram,Aizawl,"Sikulpuikawn, Aizawl - Mizoram PCB",16-01-2026 08:00:00,23.7176342,92.7192841,SO2,15,16,15
India,Maharashtra,Pune,"Katraj Dairy, Pune - MPCB",16-01-2026 08:00:00,18.454450,73.854155,SO2,3,4,3
India,Maharashtra,Pune,"Panchawati_Pashan, Pune - IITM",16-01-2026 08:00:00,18.536457,73.805454,NO2,6,29,11
India,Maharashtra,Pune,"Savitribai Phule Pune University, Pune - MPCB",16-01-2026 08:00:00,18.547056,73.826908,CO,20,102,55
India,Rajasthan,Dungarpur,"Bhoiwada, Dungarpur - RSPCB",16-01-2026 08:00:00,23.837789,73.714926,PM10,79,173,122
India,Rajasthan,Dungarpur,"Bhoiwada, Dungarpur - RSPCB",16-01-2026 08:00:00,23.837789,73.714926,NO2,13,80,27
India,Rajasthan,Dungarpur,"Bhoiwada, Dungarpur - RSPCB",16-01-2026 08:00:00,23.837789,73.714926,NH3,3,6,4
India,Rajasthan,Hanumangarh,"Housing Board, Hanumangarh - RSPCB",16-01-2026 08:00:00,29.610750,74.283608,SO2,2,6,3
India,Rajasthan,Jaipur,"Adarsh Nagar, Jaipur - RSPCB",16-01-2026 08:00:00,26.902909,75.836858,PM10,51,141,91
India,Rajasthan,Jaipur,"Adarsh Nagar, Jaipur - RSPCB",16-01-2026 08:00:00,26.902909,75.836858,OZONE,4,77,5
India,Rajasthan,Jaipur,"Mansarovar Sector-12, Jaipur - RSPCB",16-01-2026 08:00:00,26.843698,75.766894,NO2,17,134,74
India,Rajasthan,Jaipur,"Police Commissionerate, Jaipur - RSPCB",16-01-2026 08:00:00,26.9164092,75.7994901,PM2.5,103,332,223
India,Rajasthan,Bharatpur,"Krishna Nagar, Bharatpur - RSPCB",16-01-2026 08:00:00,27.215415,77.50873,NH3,9,21,16
India,Rajasthan,Bhilwara,"Pratap Nagar, Bhilwara - RSPCB",16-01-2026 08:00:00,25.339605,74.618883,PM10,83,216,134
India,Rajasthan,Bhiwadi,"RIICO Ind. Area III, Bhiwadi - RSPCB",16-01-2026 08:00:00,28.194909,76.862296,PM2.5,175,367,304
India,Rajasthan,Bhiwadi,"RIICO Ind. Area III, Bhiwadi - RSPCB",16-01-2026 08:00:00,28.194909,76.862296,NH3,6,23,12
India,Rajasthan,Bhiwadi,"RIICO Ind. Area III, Bhiwadi - RSPCB",16-01-2026 08:00:00,28.194909,76.862296,OZONE,4,38,7
India,Rajasthan,Bhiwadi,"Vasundhara Nagar_UIT, Bhiwadi - RSPCB",16-01-2026 08:00:00,28.207266,76.829265,NO2,28,130,68
India,Rajasthan,Bhiwadi,"Vasundhara Nagar_UIT, Bhiwadi - RSPCB",16-01-2026 08:00:00,28.207266,76.829265,OZONE,2,67,3
India,Rajasthan,Bundi,"New Colony, Bundi - RSPCB",16-01-2026 08:00:00,25.435774,75.644272,PM10,74,179,108
India,Rajasthan,Bundi,"New Colony, Bundi - RSPCB",16-01-2026 08:00:00,25.435774,75.644272,NH3,2,5,4
India,Rajasthan,Chittorgarh,"Shastri Nagar, Chittorgarh - RSPCB",16-01-2026 08:00:00,24.892047,74.623527,SO2,3,44,12
India,Rajasthan,Churu,"Subash Chowk, Churu - RSPCB",16-01-2026 08:00:00,28.296139,74.961696,PM10,100,309,156
India,Rajasthan,Churu,"Subash Chowk, Churu - RSPCB",16-01-2026 08:00:00,28.296139,74.961696,NO2,21,71,37
India,Rajasthan,Dausa,"Khatikan Mohalla, Dausa - RSPCB",16-01-2026 08:00:00,26.895552,76.334753,PM2.5,33,320,130
India,Rajasthan,Dausa,"Khatikan Mohalla, Dausa - RSPCB",16-01-2026 08:00:00,26.895552,76.334753,CO,19,131,38
India,Rajasthan,Dholpur,"Raja Ganj, Dholpur - RSPCB",16-01-2026 08:00:00,26.699557,77.898881,NO2,23,109,62
India,Rajasthan,Jodhpur,"Digari Kalan, Jodhpur - RSPCB",16-01-2026 08:00:00,26.295810,73.082283,OZONE,1,91,8
India,Rajasthan,Jodhpur,"Jhalamand, Jodhpur - RSPCB",16-01-2026 08:00:00,26.215415,73.070156,CO,8,103,60
India,Rajasthan,Jodhpur,"Mandor, Jodhpur - RSPCB",16-01-2026 08:00:00,26.358805,73.047444,PM2.5,42,243,98
India,Rajasthan,Jodhpur,"Mandor, Jodhpur - RSPCB",16-01-2026 08:00:00,26.358805,73.047444,PM10,37,162,89
India,Rajasthan,Jodhpur,"Mandor, Jodhpur - RSPCB",16-01-2026 08:00:00,26.358805,73.047444,NO2,18,110,39
India,Rajasthan,Karauli,"Satyawati Vihar, Karauli - RSPCB",16-01-2026 08:00:00,26.506177,77.025989,PM2.5,35,242,84
India,Rajasthan,Karauli,"Satyawati Vihar, Karauli - RSPCB",16-01-2026 08:00:00,26.506177,77.025989,CO,4,102,24
India,Rajasthan,Jaipur,"Police Commissionerate, Jaipur - RSPCB",16-01-2026 08:00:00,26.9164092,75.7994901,NO2,102,151,126
India,Rajasthan,Jaipur,"RIICO Sitapura, Jaipur - RSPCB",16-01-2026 08:00:00,26.786682,75.827928,PM2.5,90,369,245
India,Rajasthan,Jaipur,"Sector-2 Murlipura, Jaipur - RSPCB",16-01-2026 08:00:00,26.960669,75.771817,OZONE,1,92,14
India,Rajasthan,Jaisalmer,"Sadar Bazar, Jaisalmer - RSPCB",16-01-2026 08:00:00,26.912329,70.909168,NO2,18,127,56
India,Rajasthan,Jaisalmer,"Sadar Bazar, Jaisalmer - RSPCB",16-01-2026 08:00:00,26.912329,70.909168,CO,14,136,35
India,Rajasthan,Jaisalmer,"Sadar Bazar, Jaisalmer - RSPCB",16-01-2026 08:00:00,26.912329,70.909168,OZONE,2,77,21
India,Rajasthan,Jhalawar,"Rajlaxmi Nagar, Jhalawar - RSPCB",16-01-2026 08:00:00,24.588397,76.172782,PM10,46,175,95
India,Rajasthan,Jhalawar,"Rajlaxmi Nagar, Jhalawar - RSPCB",16-01-2026 08:00:00,24.588397,76.172782,OZONE,3,79,24
India,Rajasthan,Jodhpur,"Collectorate, Jodhpur - RSPCB",16-01-2026 08:00:00,26.268249,73.0193853,OZONE,7,73,16
India,Rajasthan,Jodhpur,"Digari Kalan, Jodhpur - RSPCB",16-01-2026 08:00:00,26.295810,73.082283,SO2,1,10,5
India,Punjab,Patiala,"Model Town, Patiala - PPCB",16-01-2026 08:00:00,30.349388,76.366642,SO2,8,27,16
India,Punjab,Rupnagar,"Ratanpura, Rupnagar - Ambuja Cements",16-01-2026 08:00:00,31.0325454,76.5623046,NO2,5,5,5
India,Rajasthan,Ajmer,"Civil Lines,  Ajmer - RSPCB",16-01-2026 08:00:00,26.470859,74.646594,PM2.5,74,184,104
India,Rajasthan,Banswara,"Rati Talai, Banswara - RSPCB",16-01-2026 08:00:00,23.555190,74.440010,PM2.5,35,158,70
India,Rajasthan,Baran,"Bamboliya, Baran - RSPCB",16-01-2026 08:00:00,25.106006,76.469948,PM2.5,22,107,44
India,Rajasthan,Barmer,"Railway Colony, Barmer - RSPCB",16-01-2026 08:00:00,25.747299,71.393989,PM10,55,404,140
India,Punjab,Jalandhar,"Civil Line, Jalandhar - PPCB",16-01-2026 08:00:00,31.321907,75.578914,NO2,32,37,35
India,Punjab,Jalandhar,"Civil Line, Jalandhar - PPCB",16-01-2026 08:00:00,31.321907,75.578914,SO2,16,19,18
India,Punjab,Jalandhar,"Civil Line, Jalandhar - PPCB",16-01-2026 08:00:00,31.321907,75.578914,OZONE,18,50,32
India,Punjab,Khanna,"Kalal Majra, Khanna - PPCB",16-01-2026 08:00:00,30.736056 ,76.209694,NO2,25,30,28
India,Sikkim,Gangtok,"Zero Point GICI, Gangtok - SSPCB",16-01-2026 08:00:00,27.338530,88.614099,PM2.5,NA,NA,NA
India,Sikkim,Gangtok,"Zero Point GICI, Gangtok - SSPCB",16-01-2026 08:00:00,27.338530,88.614099,NO2,6,7,6
India,Sikkim,Gangtok,"Zero Point GICI, Gangtok - SSPCB",16-01-2026 08:00:00,27.338530,88.614099,SO2,1,1,1
India,Sikkim,Gangtok,"Zero Point GICI, Gangtok - SSPCB",16-01-2026 08:00:00,27.338530,88.614099,CO,4,30,6
India,TamilNadu,Chennai,"Arumbakkam, Chennai - TNPCB",16-01-2026 08:00:00,13.0664,80.2112 ,PM10,88,154,110
India,TamilNadu,Chennai,"Gandhi Nagar_Ennore, Chennai - TNPCB",16-01-2026 08:00:00,13.218341,80.32027,PM2.5,69,164,89
India,TamilNadu,Chennai,"Gandhi Nagar_Ennore, Chennai - TNPCB",16-01-2026 08:00:00,13.218341,80.32027,PM10,61,101,81
India,TamilNadu,Chennai,"Gandhi Nagar_Ennore, Chennai - TNPCB",16-01-2026 08:00:00,13.218341,80.32027,NO2,4,4,4
India,TamilNadu,Chennai,"Kodungaiyur, Chennai - TNPCB",16-01-2026 08:00:00,13.1278,80.2642,CO,46,66,55
India,TamilNadu,Chennai,"Kodungaiyur, Chennai - TNPCB",16-01-2026 08:00:00,13.1278,80.2642,OZONE,24,35,30
India,TamilNadu,Chennai,"Manali Village, Chennai - TNPCB",16-01-2026 08:00:00,13.1662,80.2584,PM2.5,72,163,98
India,Rajasthan,Kota,"Dhanmandi, Kota - RSPCB",16-01-2026 08:00:00,25.164090,75.858137,NO2,30,138,70
India,Rajasthan,Kota,"Dhanmandi, Kota - RSPCB",16-01-2026 08:00:00,25.164090,75.858137,NH3,1,17,5
India,Rajasthan,Kota,"Nayapura, Kota - RSPCB",16-01-2026 08:00:00,25.196024,75.855668,PM2.5,62,350,193
India,Rajasthan,Kota,"Shrinath Puram, Kota - RSPCB",16-01-2026 08:00:00,25.14389,75.821256,NO2,13,17,16
India,Rajasthan,Kota,"Shrinath Puram, Kota - RSPCB",16-01-2026 08:00:00,25.14389,75.821256,SO2,6,77,17
India,Rajasthan,Nagaur,"Karni Colony, Nagaur - RSPCB",16-01-2026 08:00:00,27.213494,73.734444,NH3,6,19,13
India,Rajasthan,Nagaur,"Karni Colony, Nagaur - RSPCB",16-01-2026 08:00:00,27.213494,73.734444,SO2,2,21,7
India,Rajasthan,Nagaur,"Karni Colony, Nagaur - RSPCB",16-01-2026 08:00:00,27.213494,73.734444,CO,21,134,33
India,TamilNadu,Thanjavur,"Parisutham Nagar, Thanjavur - TNPCB",16-01-2026 08:00:00,10.7654824,79.1389968,NH3,NA,NA,NA
India,Telangana,Hyderabad,"Bollaram Industrial Area, Hyderabad - TSPCB",16-01-2026 08:00:00,17.540891,78.358528,PM10,68,148,99
India,Telangana,Hyderabad,"Bollaram Industrial Area, Hyderabad - TSPCB",16-01-2026 08:00:00,17.540891,78.358528,SO2,3,9,6
India,Telangana,Hyderabad,"Bollaram Industrial Area, Hyderabad - TSPCB",16-01-2026 08:00:00,17.540891,78.358528,CO,12,38,32
India,Telangana,Hyderabad,"ECIL Kapra, Hyderabad - TSPCB",16-01-2026 08:00:00,17.470431,78.566959,PM10,70,84,75
India,Telangana,Hyderabad,"ICRISAT Patancheru, Hyderabad - TSPCB",16-01-2026 08:00:00,17.518400,78.278777,PM2.5,58,162,94
India,TamilNadu,Chennai,"Perungudi, Chennai - TNPCB",16-01-2026 08:00:00,12.9533,80.2357,OZONE,5,20,8
India,TamilNadu,Chennai,"Royapuram, Chennai - TNPCB",16-01-2026 08:00:00,13.1036,80.2909,SO2,5,8,6
India,TamilNadu,Chennai,"Royapuram, Chennai - TNPCB",16-01-2026 08:00:00,13.1036,80.2909,CO,44,60,53
India,TamilNadu,Chennai,"Velachery Res. Area, Chennai - CPCB",16-01-2026 08:00:00,13.0052189,80.2398125,NH3,3,4,3
India,TamilNadu,Coimbatore,"PSG College of Arts and Science, Coimbatore - TNPCB",16-01-2026 08:00:00,11.0328,77.0349,PM10,38,88,62
India,Rajasthan,Pali,"Indira Colony Vistar, Pali - RSPCB",16-01-2026 08:00:00,25.771061, 73.340227,NH3,3,19,8
India,Rajasthan,Pratapgarh,"Pragati Nagar, Pratapgarh - RSPCB",16-01-2026 08:00:00,24.041198,74.780702,PM2.5,82,227,147
India,Rajasthan,Pratapgarh,"Pragati Nagar, Pratapgarh - RSPCB",16-01-2026 08:00:00,24.041198,74.780702,NH3,1,10,4
India,Rajasthan,Rajsamand,"Dhoinda, Rajsamand - RSPCB",16-01-2026 08:00:00,25.036360,73.883502,PM2.5,38,328,98
India,Rajasthan,Sawai Madhopur,"Sahu Nagar, Sawai Madhopur - RSPCB",16-01-2026 08:00:00,26.031443,76.359327,CO,16,136,49
India,TamilNadu,Karur,"Kamadenu Nagar, Karur - TNPCB",16-01-2026 08:00:00,10.967820,78.080882,SO2,14,15,14
India,TamilNadu,Ooty,"Bombay Castel, Ooty - TNPCB",16-01-2026 08:00:00,11.4068288,76.7138973,PM10,25,129,57
India,TamilNadu,Perundurai,"SIPCOT Industrial Park, Perundurai - TNPCB",16-01-2026 08:00:00,11.258242,77.552761,OZONE,23,23,23
India,TamilNadu,Ramanathapuram,"Chalai Bazaar, Ramanathapuram - TNPCB",16-01-2026 08:00:00,9.36399,78.831977,SO2,2,15,4
India,TamilNadu,Coimbatore,"SIDCO Kurichi, Coimbatore - TNPCB",16-01-2026 08:00:00,10.942451,76.978996,PM10,25,50,38
India,TamilNadu,Coimbatore,"SIDCO Kurichi, Coimbatore - TNPCB",16-01-2026 08:00:00,10.942451,76.978996,SO2,20,22,21
India,TamilNadu,Cuddalore,"Kudikadu, Cuddalore - TNPCB",16-01-2026 08:00:00,11.6829898,79.7532099,NO2,19,20,19
India,TamilNadu,Gummidipoondi,"Anthoni Pillai Nagar, Gummidipoondi - TNPCB",16-01-2026 08:00:00,13.4127,80.1081,PM2.5,75,430,208
India,Rajasthan,Sikar,"Radhakishan Pura, Sikar - RSPCB",16-01-2026 08:00:00,27.608912,75.153302,OZONE,8,130,42
India,Rajasthan,Sirohi,"Vedhaynath Colony, Sirohi - RSPCB",16-01-2026 08:00:00,24.885261,72.857549,PM2.5,28,240,69
India,Rajasthan,Sirohi,"Vedhaynath Colony, Sirohi - RSPCB",16-01-2026 08:00:00,24.885261,72.857549,NH3,1,2,2
India,Rajasthan,Udaipur,"Ashok Nagar, Udaipur - RSPCB",16-01-2026 08:00:00,24.5886166,73.6321397,CO,8,108,29
India,TamilNadu,Chennai,"Manali Village, Chennai - TNPCB",16-01-2026 08:00:00,13.1662,80.2584,CO,44,57,46
India,Uttar_Pradesh,Agra,"Shastripuram, Agra - UPPCB",16-01-2026 08:00:00,27.19862,77.92066,CO,18,38,28
India,Uttar_Pradesh,Baghpat,"Sardar Patel Inter College, Baghpat - UPPCB",16-01-2026 08:00:00,28.964949,77.278761,NO2,8,22,14
India,Uttar_Pradesh,Bareilly,"Civil Lines, Bareilly - UPPCB",16-01-2026 08:00:00,28.359581,79.414455,NH3,2,7,3
India,Uttar_Pradesh,Bareilly,"Rajendra Nagar, Bareilly - UPPCB",16-01-2026 08:00:00,28.38910936,79.42963708,NH3,1,1,1
India,Uttar_Pradesh,Bulandshahr,"Yamunapuram, Bulandshahr - UPPCB",16-01-2026 08:00:00,28.406963,77.849831,PM2.5,74,421,267
India,Uttar_Pradesh,Bulandshahr,"Yamunapuram, Bulandshahr - UPPCB",16-01-2026 08:00:00,28.406963,77.849831,PM10,108,431,241
India,Uttar_Pradesh,Bulandshahr,"Yamunapuram, Bulandshahr - UPPCB",16-01-2026 08:00:00,28.406963,77.849831,NO2,47,172,90
India,Uttar_Pradesh,Jhansi,"Shivaji Nagar, Jhansi - UPPCB",16-01-2026 08:00:00,25.4547,78.6039,PM10,40,126,77
India,Uttar_Pradesh,Jhansi,"Shivaji Nagar, Jhansi - UPPCB",16-01-2026 08:00:00,25.4547,78.6039,SO2,16,20,18
India,Uttar_Pradesh,Kanpur,"FTI Kidwai Nagar, Kanpur - UPPCB",16-01-2026 08:00:00,26.428282,80.327067,PM10,63,250,145
India,Uttar_Pradesh,Kanpur,"FTI Kidwai Nagar, Kanpur - UPPCB",16-01-2026 08:00:00,26.428282,80.327067,NO2,22,23,22
India,Uttar_Pradesh,Kanpur,"NSI Kalyanpur, Kanpur - UPPCB",16-01-2026 08:00:00,26.509954,80.249612,NH3,5,5,5
India,Uttar_Pradesh,Kanpur,"Nehru Nagar, Kanpur - UPPCB",16-01-2026 08:00:00,26.4703136,80.3229863,NO2,51,59,56
India,Uttar_Pradesh,Khurja,"Kalindi Kunj, Khurja - UPPCB",16-01-2026 08:00:00,28.2348927,77.8683002,NO2,8,10,9
India,Uttar_Pradesh,Khurja,"Kalindi Kunj, Khurja - UPPCB",16-01-2026 08:00:00,28.2348927,77.8683002,NH3,1,1,1
India,Uttar_Pradesh,Ghaziabad,"Loni, Ghaziabad - UPPCB",16-01-2026 08:00:00,28.757294,77.278792,PM10,129,500,319
India,Uttar_Pradesh,Ghaziabad,"Loni, Ghaziabad - UPPCB",16-01-2026 08:00:00,28.757294,77.278792,SO2,8,42,24
India,Uttar_Pradesh,Ghaziabad,"Sanjay Nagar, Ghaziabad - UPPCB",16-01-2026 08:00:00,28.685382,77.453839,SO2,9,19,14
India,Uttar_Pradesh,Ghaziabad,"Vasundhara, Ghaziabad - UPPCB",16-01-2026 08:00:00,28.6603346,77.3572563,PM2.5,325,497,407
India,Uttar_Pradesh,Ghaziabad,"Vasundhara, Ghaziabad - UPPCB",16-01-2026 08:00:00,28.6603346,77.3572563,NO2,58,141,90
India,Uttar_Pradesh,Ghaziabad,"Vasundhara, Ghaziabad - UPPCB",16-01-2026 08:00:00,28.6603346,77.3572563,NH3,8,21,14
India,Uttar_Pradesh,Gorakhpur,"Madan Mohan Malaviya University of Technology, Gorakhpur - UPPCB",16-01-2026 08:00:00,26.730136,83.433859,NO2,10,12,11
India,Telangana,Hyderabad,"Nacharam_TSIIC IALA, Hyderabad - TSPCB",16-01-2026 08:00:00,17.429398,78.569354,NO2,16,17,16
India,Telangana,Hyderabad,"New Malakpet, Hyderabad - TSPCB",16-01-2026 08:00:00,17.37206,78.50864,PM2.5,44,78,59
India,Telangana,Hyderabad,"New Malakpet, Hyderabad - TSPCB",16-01-2026 08:00:00,17.37206,78.50864,SO2,12,19,14
India,Telangana,Hyderabad,"Ramachandrapuram, Hyderabad - TSPCB",16-01-2026 08:00:00,17.528544,78.286195,PM2.5,43,54,49
India,Telangana,Hyderabad,"Sanathnagar, Hyderabad - TSPCB",16-01-2026 08:00:00,17.4559458,78.4332152,NO2,25,32,28
India,Telangana,Hyderabad,"Somajiguda, Hyderabad - TSPCB",16-01-2026 08:00:00,17.417094,78.457437,PM10,78,80,79
India,Telangana,Hyderabad,"Somajiguda, Hyderabad - TSPCB",16-01-2026 08:00:00,17.417094,78.457437,NO2,14,15,15
India,Uttar_Pradesh,Firozabad,"Nagla Bhau, Firozabad - UPPCB",16-01-2026 08:00:00,27.168897,78.376960,PM10,54,127,90
India,Uttar_Pradesh,Firozabad,"Nagla Bhau, Firozabad - UPPCB",16-01-2026 08:00:00,27.168897,78.376960,OZONE,13,15,14
India,Uttar_Pradesh,Firozabad,"Vibhab Nagar, Firozabad - UPPCB",16-01-2026 08:00:00,27.1594,78.3953,PM2.5,56,182,92
India,Uttar_Pradesh,Firozabad,"Vibhab Nagar, Firozabad - UPPCB",16-01-2026 08:00:00,27.1594,78.3953,NH3,2,2,2
India,Uttar_Pradesh,Firozabad,"Vibhab Nagar, Firozabad - UPPCB",16-01-2026 08:00:00,27.1594,78.3953,CO,20,22,20
India,Uttar_Pradesh,Ghaziabad,"Indirapuram, Ghaziabad - UPPCB",16-01-2026 08:00:00,28.646233,77.358075,NH3,19,23,21
India,Uttar_Pradesh,Ghaziabad,"Indirapuram, Ghaziabad - UPPCB",16-01-2026 08:00:00,28.646233,77.358075,SO2,20,37,26
India,Telangana,Hyderabad,"ICRISAT Patancheru, Hyderabad - TSPCB",16-01-2026 08:00:00,17.518400,78.278777,NO2,1,114,46
India,Telangana,Hyderabad,"IDA Pashamylaram, Hyderabad - TSPCB",16-01-2026 08:00:00,17.5316895,78.218939,PM10,43,114,77
India,Telangana,Hyderabad,"IITH Kandi, Hyderabad - TSPCB",16-01-2026 08:00:00,17.585705,78.126199,NH3,3,5,4
India,Telangana,Hyderabad,"IITH Kandi, Hyderabad - TSPCB",16-01-2026 08:00:00,17.585705,78.126199,SO2,15,17,16
India,Telangana,Hyderabad,"IITH Kandi, Hyderabad - TSPCB",16-01-2026 08:00:00,17.585705,78.126199,OZONE,25,33,32
India,Telangana,Hyderabad,"Kokapet, Hyderabad - TSPCB",16-01-2026 08:00:00,17.393559,78.339194,CO,18,28,19
India,Uttar_Pradesh,Agra,"Rohta, Agra - UPPCB",16-01-2026 08:00:00,27.106972,78.000111,CO,14,44,39
India,Uttar_Pradesh,Agra,"Sanjay Palace, Agra - UPPCB",16-01-2026 08:00:00,27.19865833,78.00598056,SO2,18,106,22
India,Uttar_Pradesh,Agra,"Sector-3B Avas Vikas Colony, Agra - UPPCB",16-01-2026 08:00:00,27.19412,77.96237,NH3,4,6,5
India,Uttar_Pradesh,Agra,"Shastripuram, Agra - UPPCB",16-01-2026 08:00:00,27.19862,77.92066,PM2.5,NA,NA,NA
India,Uttar_Pradesh,Agra,"Shastripuram, Agra - UPPCB",16-01-2026 08:00:00,27.19862,77.92066,NH3,3,3,3
India,Uttar_Pradesh,Greater Noida,"Knowledge Park - III, Greater Noida - UPPCB",16-01-2026 08:00:00,28.47272,77.482000,CO,20,81,34
India,Uttar_Pradesh,Hapur,"Anand Vihar, Hapur - UPPCB",16-01-2026 08:00:00,28.725645,77.749675,PM2.5,98,346,242
India,Uttar_Pradesh,Hapur,"Anand Vihar, Hapur - UPPCB",16-01-2026 08:00:00,28.725645,77.749675,OZONE,6,73,8
India,Telangana,Hyderabad,"Somajiguda, Hyderabad - TSPCB",16-01-2026 08:00:00,17.417094,78.457437,CO,12,27,22
India,Telangana,Hyderabad,"Zoo Park, Hyderabad - TSPCB",16-01-2026 08:00:00,17.349694,78.451437,NO2,7,22,14
India,Telangana,Hyderabad,"Zoo Park, Hyderabad - TSPCB",16-01-2026 08:00:00,17.349694,78.451437,CO,1,69,2
India,Uttar_Pradesh,Varanasi,"Maldahiya, Varanasi - UPPCB",16-01-2026 08:00:00,25.32393,82.99687,SO2,27,28,28
India,Uttar_Pradesh,Vrindavan,"Omex Eternity, Vrindavan - UPPCB",16-01-2026 08:00:00,27.5714090,77.6557570,PM2.5,26,205,75
India,Uttar_Pradesh,Vrindavan,"Omex Eternity, Vrindavan - UPPCB",16-01-2026 08:00:00,27.5714090,77.6557570,PM10,39,158,80
India,Uttar_Pradesh,Vrindavan,"Omex Eternity, Vrindavan - UPPCB",16-01-2026 08:00:00,27.5714090,77.6557570,NH3,7,9,8
India,Uttarakhand,Dehradun,"Doon University, Dehradun - UKPCB",16-01-2026 08:00:00,30.269444,78.044167,PM2.5,92,346,240
India,Uttarakhand,Kashipur,"Govt. Girls Inter College, Kashipur - UKPCB",16-01-2026 08:00:00,29.2124114,78.9611753,PM2.5,NA,NA,NA
India,Uttarakhand,Kashipur,"Govt. Girls Inter College, Kashipur - UKPCB",16-01-2026 08:00:00,29.2124114,78.9611753,NH3,NA,NA,NA
India,Uttarakhand,Kashipur,"Govt. Girls Inter College, Kashipur - UKPCB",16-01-2026 08:00:00,29.2124114,78.9611753,CO,40,50,46
India,Uttarakhand,Kashipur,"Govt. Girls Inter College, Kashipur - UKPCB",16-01-2026 08:00:00,29.2124114,78.9611753,OZONE,3,3,3
India,Uttarakhand,Rishikesh,"Shivaji Nagar, Rishikesh - UKPCB",16-01-2026 08:00:00,30.075911,78.2859547,PM10,79,128,108
India,Uttarakhand,Rishikesh,"Shivaji Nagar, Rishikesh - UKPCB",16-01-2026 08:00:00,30.075911,78.2859547,NH3,6,11,8
India,Uttarakhand,Rishikesh,"Shivaji Nagar, Rishikesh - UKPCB",16-01-2026 08:00:00,30.075911,78.2859547,CO,48,76,66
India,Uttar_Pradesh,Noida,"Sector - 62, Noida - IMD",16-01-2026 08:00:00,28.6245479,77.3577104,NO2,19,120,52
India,Uttar_Pradesh,Noida,"Sector - 62, Noida - IMD",16-01-2026 08:00:00,28.6245479,77.3577104,OZONE,16,102,20
India,Uttar_Pradesh,Noida,"Sector-1, Noida - UPPCB",16-01-2026 08:00:00,28.5898,77.3101,PM2.5,305,409,361
India,Uttar_Pradesh,Noida,"Sector-1, Noida - UPPCB",16-01-2026 08:00:00,28.5898,77.3101,CO,56,117,94
India,Uttar_Pradesh,Noida,"Sector-116, Noida - UPPCB",16-01-2026 08:00:00,28.569230,77.393848,PM2.5,305,416,359
India,Uttar_Pradesh,Noida,"Sector-116, Noida - UPPCB",16-01-2026 08:00:00,28.569230,77.393848,NH3,15,23,19
India,Uttar_Pradesh,Prayagraj,"Jhunsi, Prayagraj - UPPCB",16-01-2026 08:00:00,25.425602,81.917152,PM10,67,195,120
India,Uttar_Pradesh,Prayagraj,"Motilal Nehru NIT, Prayagraj - UPPCB",16-01-2026 08:00:00,25.494,81.863,SO2,NA,NA,NA
India,Uttar_Pradesh,Prayagraj,"Motilal Nehru NIT, Prayagraj - UPPCB",16-01-2026 08:00:00,25.494,81.863,OZONE,NA,NA,NA
India,Uttar_Pradesh,Varanasi,"Ardhali Bazar, Varanasi - UPPCB",16-01-2026 08:00:00,25.3505986,82.9083074,PM10,47,115,77
India,Uttar_Pradesh,Varanasi,"Ardhali Bazar, Varanasi - UPPCB",16-01-2026 08:00:00,25.3505986,82.9083074,SO2,9,12,10
India,Uttar_Pradesh,Varanasi,"Ardhali Bazar, Varanasi - UPPCB",16-01-2026 08:00:00,25.3505986,82.9083074,CO,6,20,13
India,Uttar_Pradesh,Varanasi,"IESD Banaras Hindu University, Varanasi - UPPCB",16-01-2026 08:00:00,25.262326,82.995408,CO,8,35,22
India,Uttar_Pradesh,Moradabad,"Jigar Colony, Moradabad - UPPCB",16-01-2026 08:00:00,28.856664,78.772638,PM2.5,79,299,170
India,Uttar_Pradesh,Moradabad,"Jigar Colony, Moradabad - UPPCB",16-01-2026 08:00:00,28.856664,78.772638,CO,40,40,40
India,Uttar_Pradesh,Moradabad,"Kashiram Nagar, Moradabad - UPPCB",16-01-2026 08:00:00,28.849399,78.742362,CO,40,106,78
India,Uttar_Pradesh,Moradabad,"Transport Nagar, Moradabad - UPPCB",16-01-2026 08:00:00,28.802625,78.753728,PM2.5,47,346,136
India,Uttar_Pradesh,Moradabad,"Transport Nagar, Moradabad - UPPCB",16-01-2026 08:00:00,28.802625,78.753728,PM10,52,253,106
India,Uttar_Pradesh,Moradabad,"Transport Nagar, Moradabad - UPPCB",16-01-2026 08:00:00,28.802625,78.753728,NO2,29,30,30
India,Uttar_Pradesh,Lucknow,"B R Ambedkar University, Lucknow - UPPCB",16-01-2026 08:00:00,26.766433,80.927299,CO,16,38,25
India,Uttar_Pradesh,Lucknow,"Gomti Nagar, Lucknow - UPPCB",16-01-2026 08:00:00,26.868120,81.005119,PM2.5,89,407,212
India,Uttar_Pradesh,Lucknow,"Gomti Nagar, Lucknow - UPPCB",16-01-2026 08:00:00,26.868120,81.005119,SO2,9,11,10
India,Uttar_Pradesh,Lucknow,"Kendriya Vidyalaya, Lucknow - CPCB",16-01-2026 08:00:00,26.906111,80.948222,NH3,12,17,15
India,Uttar_Pradesh,Moradabad,"Eco Herbal Park, Moradabad - UPPCB",16-01-2026 08:00:00,28.840739,78.697531,OZONE,3,36,4
India,Uttar_Pradesh,Moradabad,"Employment Office, Moradabad - UPPCB",16-01-2026 08:00:00,28.88528,78.73880,PM2.5,61,330,168
India,Uttar_Pradesh,Moradabad,"Employment Office, Moradabad - UPPCB",16-01-2026 08:00:00,28.88528,78.73880,PM10,76,200,134
India,Uttar_Pradesh,Moradabad,"Employment Office, Moradabad - UPPCB",16-01-2026 08:00:00,28.88528,78.73880,NH3,4,4,4
India,Uttar_Pradesh,Meerut,"Pallavpuram Phase 2, Meerut - UPPCB",16-01-2026 08:00:00,29.063510,77.709723,CO,10,76,17
India,Uttar_Pradesh,Moradabad,"Buddhi Vihar, Moradabad - UPPCB",16-01-2026 08:00:00,28.83526,78.74460,CO,52,105,78
India,Uttar_Pradesh,Meerut,"Ganga Nagar, Meerut - UPPCB",16-01-2026 08:00:00,28.999264,77.7590354,CO,57,121,75
India,Uttar_Pradesh,Meerut,"Jai Bhim Nagar, Meerut - UPPCB",16-01-2026 08:00:00,28.9535882,77.7622941,SO2,5,8,7
India,Uttar_Pradesh,Lucknow,"Kukrail Picnic Spot-1, Lucknow - UPPCB",16-01-2026 08:00:00,26.90723,80.98579,NH3,6,6,6
India,West_Bengal,Asansol,"Asansol Court Area, Asansol - WBPCB",16-01-2026 08:00:00,23.685297,86.945968,CO,14,103,54
India,West_Bengal,Asansol,"Evelyn Lodge, Asansol - WBPCB",16-01-2026 08:00:00,23.6979360,86.9443950,PM10,53,144,113
India,West_Bengal,Asansol,"Evelyn Lodge, Asansol - WBPCB",16-01-2026 08:00:00,23.6979360,86.9443950,CO,9,100,41
India,West_Bengal,Asansol,"Mahabir Colliery, Asansol - WBPCB",16-01-2026 08:00:00,23.6181830,87.1057180,NO2,8,32,16
India,West_Bengal,Asansol,"Mahabir Colliery, Asansol - WBPCB",16-01-2026 08:00:00,23.6181830,87.1057180,OZONE,6,45,7
India,West_Bengal,Durgapur,"Mahishkapur Road_B-Zone, Durgapur - WBPCB",16-01-2026 08:00:00,23.567923,87.306843,OZONE,19,87,30
India,West_Bengal,Durgapur,"PCBL Residential Complex, Durgapur - WBPCB",16-01-2026 08:00:00,23.5087640,87.3544400,CO,30,70,57
India,West_Bengal,Durgapur,"Womens College_City Center, Durgapur - WBPCB",16-01-2026 08:00:00,23.549395,87.300496,NH3,3,5,4
India,West_Bengal,Howrah,"Belur Math, Howrah - WBPCB",16-01-2026 08:00:00,22.629801,88.352017,PM10,120,227,163
India,West_Bengal,Howrah,"Botanical Garden, Howrah - WBPCB",16-01-2026 08:00:00,22.554954,88.292568,NO2,7,29,18
India,West_Bengal,Howrah,"Dasnagar, Howrah - WBPCB",16-01-2026 08:00:00,22.6025571,88.3105664,PM2.5,41,215,115
India,West_Bengal,Howrah,"Dasnagar, Howrah - WBPCB",16-01-2026 08:00:00,22.6025571,88.3105664,PM10,58,145,99
India,West_Bengal,Howrah,"Dasnagar, Howrah - WBPCB",16-01-2026 08:00:00,22.6025571,88.3105664,SO2,3,36,15
India,West_Bengal,Kolkata,"Ballygunge, Kolkata - WBPCB",16-01-2026 08:00:00,22.5367507,88.3638022,PM2.5,108,304,194
India,West_Bengal,Kolkata,"Ballygunge, Kolkata - WBPCB",16-01-2026 08:00:00,22.5367507,88.3638022,PM10,109,189,143
India,West_Bengal,Kolkata,"Ballygunge, Kolkata - WBPCB",16-01-2026 08:00:00,22.5367507,88.3638022,NO2,27,67,48
India,West_Bengal,Kolkata,"Ballygunge, Kolkata - WBPCB",16-01-2026 08:00:00,22.5367507,88.3638022,SO2,11,38,18
India,West_Bengal,Kolkata,"Ballygunge, Kolkata - WBPCB",16-01-2026 08:00:00,22.5367507,88.3638022,CO,26,98,57
India,West_Bengal,Kolkata,"Jadavpur, Kolkata - WBPCB",16-01-2026 08:00:00,22.49929,88.36917,PM10,14,298,124
India,Andhra_Pradesh,Tirupati,"Vaikuntapuram, Tirupati - APPCB",16-01-2026 08:00:00,13.615387,79.409230,OZONE,17,18,18
India,Andhra_Pradesh,Vijayawada,"HB Colony, Vijayawada - APPCB",16-01-2026 08:00:00,16.536107,80.594233,NO2,22,23,22
India,Andhra_Pradesh,Vijayawada,"Kanuru, Vijayawada - APPCB",16-01-2026 08:00:00,16.486692,80.699436,PM2.5,66,90,74
India,Andhra_Pradesh,Vijayawada,"Kanuru, Vijayawada - APPCB",16-01-2026 08:00:00,16.486692,80.699436,NH3,4,5,5
India,Andhra_Pradesh,Vijayawada,"Kanuru, Vijayawada - APPCB",16-01-2026 08:00:00,16.486692,80.699436,CO,37,48,47
India,Andhra_Pradesh,Vijayawada,"Rajiv Gandhi Park, Vijayawada - APPCB",16-01-2026 08:00:00,16.509717,80.612222,PM10,54,64,59
India,Andhra_Pradesh,Vijayawada,"Rajiv Gandhi Park, Vijayawada - APPCB",16-01-2026 08:00:00,16.509717,80.612222,OZONE,NA,NA,NA
India,Andhra_Pradesh,Vijayawada,"Rajiv Nagar, Vijayawada - APPCB",16-01-2026 08:00:00,16.554731,80.649110,NH3,4,4,4
India,Andhra_Pradesh,Visakhapatnam,"GVM Corporation, Visakhapatnam - APPCB",16-01-2026 08:00:00,17.72,83.3,PM2.5,132,332,191
India,Bihar,Munger,"Town Hall, Munger - BSPCB",16-01-2026 08:00:00,25.376776,86.471523,CO,3,41,23
India,Bihar,Muzaffarpur,"Buddha Colony, Muzaffarpur - BSPCB",16-01-2026 08:00:00,26.11442,85.39813,PM2.5,99,234,179
India,Bihar,Muzaffarpur,"Buddha Colony, Muzaffarpur - BSPCB",16-01-2026 08:00:00,26.11442,85.39813,SO2,3,6,5
India,Bihar,Muzaffarpur,"Buddha Colony, Muzaffarpur - BSPCB",16-01-2026 08:00:00,26.11442,85.39813,CO,36,81,42
India,Bihar,Muzaffarpur,"Buddha Colony, Muzaffarpur - BSPCB",16-01-2026 08:00:00,26.11442,85.39813,OZONE,31,92,42
India,Bihar,Muzaffarpur,"MIT-Daudpur Kothi, Muzaffarpur - BSPCB",16-01-2026 08:00:00,26.1403345,85.3650192,PM2.5,83,92,86
India,Bihar,Muzaffarpur,"Muzaffarpur Collectorate, Muzaffarpur - BSPCB",16-01-2026 08:00:00,26.1209,85.3647,CO,13,36,20
India,Bihar,Patna,"Govt. High School Shikarpur, Patna - BSPCB",16-01-2026 08:00:00,25.592539,85.227158,PM2.5,70,125,87
India,Assam,Sivasagar,"Girls College, Sivasagar - PCBA",16-01-2026 08:00:00,26.987634,94.636574,SO2,9,13,10
India,Bihar,Arrah,"New DM Office, Arrah - BSPCB",16-01-2026 08:00:00,25.5626095,84.663264,NH3,1,1,1
India,Bihar,Arrah,"New DM Office, Arrah - BSPCB",16-01-2026 08:00:00,25.5626095,84.663264,CO,35,68,60
India,Bihar,Aurangabad,"Gurdeo Nagar, Aurangabad - BSPCB",16-01-2026 08:00:00,24.75746,84.366208,PM2.5,NA,NA,NA
India,Bihar,Aurangabad,"Gurdeo Nagar, Aurangabad - BSPCB",16-01-2026 08:00:00,24.75746,84.366208,OZONE,1,79,21
India,Bihar,Begusarai,"Lohiyanagar, Begusarai - BSPCB",16-01-2026 08:00:00,25.42742023,86.13886079,NO2,11,16,13
India,Bihar,Bettiah,"Kamalnath Nagar, Bettiah - BSPCB",16-01-2026 08:00:00,26.80365,84.51954,PM2.5,50,213,121
India,Andhra_Pradesh,Chittoor,"Gangineni Cheruvu, Chittoor - APPCB",16-01-2026 08:00:00,13.204880,79.097889,CO,8,18,10
India,Andhra_Pradesh,Kadapa,"Yerramukkapalli, Kadapa - APPCB",16-01-2026 08:00:00,14.465052,78.824187,CO,5,15,12
India,Andhra_Pradesh,Tirumala,"Toll Gate, Tirumala - APPCB",16-01-2026 08:00:00,13.67,79.35,PM2.5,57,208,132
India,Andhra_Pradesh,Tirumala,"Toll Gate, Tirumala - APPCB",16-01-2026 08:00:00,13.67,79.35,NO2,17,46,31
India,Andhra_Pradesh,Tirupati,"Vaikuntapuram, Tirupati - APPCB",16-01-2026 08:00:00,13.615387,79.409230,NH3,5,5,5
India,Bihar,Katihar,"Mirchaibari, Katihar - BSPCB",16-01-2026 08:00:00,25.560083,87.553265,NH3,1,1,1
India,Bihar,Kishanganj,"SDM Office_Khagra, Kishanganj - BSPCB",16-01-2026 08:00:00,26.0881305,87.93840336,PM10,38,72,59
India,Bihar,Manguraha,"Forest Rest House, Manguraha - BSPCB",16-01-2026 08:00:00,27.308328,84.531742,PM10,44,189,115
India,Bihar,Manguraha,"Forest Rest House, Manguraha - BSPCB",16-01-2026 08:00:00,27.308328,84.531742,OZONE,9,10,10
India,Bihar,Munger,"Town Hall, Munger - BSPCB",16-01-2026 08:00:00,25.376776,86.471523,PM10,48,121,80
India,Bihar,Chhapra,"Darshan Nagar, Chhapra - BSPCB",16-01-2026 08:00:00,25.7808257,84.7446768,NO2,1,2,1
India,Bihar,Gaya,"Collectorate, Gaya - BSPCB",16-01-2026 08:00:00,24.7955,84.9994,CO,37,71,43
India,Bihar,Gaya,"Kareemganj, Gaya - BSPCB",16-01-2026 08:00:00,24.792403,84.992416,NH3,4,6,5
India,Bihar,Gaya,"SFTI Kusdihra, Gaya - BSPCB",16-01-2026 08:00:00,24.762518,84.982348,SO2,8,10,9
India,Bihar,Hajipur,"Industrial Area, Hajipur - BSPCB",16-01-2026 08:00:00,25.697189,85.245900,SO2,4,9,7
India,Andhra_Pradesh,Visakhapatnam,"GVM Corporation, Visakhapatnam - APPCB",16-01-2026 08:00:00,17.72,83.3,NO2,14,177,40
India,Arunachal_Pradesh,Naharlagun,"Naharlagun, Naharlagun - APSPCB",16-01-2026 08:00:00,27.103358,93.679645,PM10,45,251,125
India,Assam,Guwahati,"LGBI Airport, Guwahati - PCBA",16-01-2026 08:00:00,26.10887,91.589544,NO2,13,48,16
India,Assam,Guwahati,"LGBI Airport, Guwahati - PCBA",16-01-2026 08:00:00,26.10887,91.589544,SO2,6,18,14
India,Assam,Guwahati,"LGBI Airport, Guwahati - PCBA",16-01-2026 08:00:00,26.10887,91.589544,CO,24,78,38
India,Assam,Nagaon,"Christianpatty, Nagaon - PCBA",16-01-2026 08:00:00,26.349082,92.68449,PM2.5,68,161,110
India,Assam,Nagaon,"Christianpatty, Nagaon - PCBA",16-01-2026 08:00:00,26.349082,92.68449,OZONE,6,9,9
India,Assam,Nalbari,"Bata Chowk, Nalbari - PCBA",16-01-2026 08:00:00,26.446912,91.439057,OZONE,15,16,16
India,Assam,Sivasagar,"Girls College, Sivasagar - PCBA",16-01-2026 08:00:00,26.987634,94.636574,NO2,28,46,35
India,Andhra_Pradesh,Amaravati,"Secretariat, Amaravati - APPCB",16-01-2026 08:00:00,16.5150833,80.5181667,NO2,17,37,21
India,Andhra_Pradesh,Anantapur,"Gulzarpet, Anantapur - APPCB",16-01-2026 08:00:00,14.675886,77.593027,OZONE,7,21,11
India,Andhra_Pradesh,Chittoor,"Gangineni Cheruvu, Chittoor - APPCB",16-01-2026 08:00:00,13.204880,79.097889,PM10,45,131,82
India,Bihar,Bhagalpur,"DM Office_Kachari Chowk, Bhagalpur - BSPCB",16-01-2026 08:00:00,25.251013,86.989001,PM10,43,121,90
India,Bihar,Bihar Sharif,"D M Colony, Bihar Sharif - BSPCB",16-01-2026 08:00:00,25.204762,85.514960,NO2,9,10,9
India,Bihar,Buxar,"Charitra Van, Buxar - BSPCB",16-01-2026 08:00:00,25.567520,83.966379,CO,22,26,25
India,Chhattisgarh,Tumidih,"OP Jindal Industrial Park, Tumidih - CECB",16-01-2026 08:00:00,22.06631475,83.33820077,CO,NA,NA,NA
India,Chhattisgarh,Tumidih,"OP Jindal Industrial Park, Tumidih - CECB",16-01-2026 08:00:00,22.06631475,83.33820077,OZONE,NA,NA,NA
India,Delhi,Delhi,"Alipur, Delhi - DPCC",16-01-2026 08:00:00,28.815329,77.153010,PM10,135,352,223
India,Delhi,Delhi,"Alipur, Delhi - DPCC",16-01-2026 08:00:00,28.815329,77.153010,CO,49,95,82
India,Delhi,Delhi,"Anand Vihar, Delhi - DPCC",16-01-2026 08:00:00,28.647622,77.3158090,PM2.5,220,471,363
India,Delhi,Delhi,"Anand Vihar, Delhi - DPCC",16-01-2026 08:00:00,28.647622,77.3158090,SO2,12,36,24
India,Delhi,Delhi,"Ashok Vihar, Delhi - DPCC",16-01-2026 08:00:00,28.695381,77.181665,NH3,5,9,8
India,Delhi,Delhi,"Ashok Vihar, Delhi - DPCC",16-01-2026 08:00:00,28.695381,77.181665,OZONE,4,86,7
India,Delhi,Delhi,"Bawana, Delhi - DPCC",16-01-2026 08:00:00,28.776200,77.051074,NO2,15,61,29
India,Delhi,Delhi,"Chandni Chowk, Delhi - IITM",16-01-2026 08:00:00,28.656756,77.227234,OZONE,1,82,1
India,Delhi,Delhi,"DTU, Delhi - CPCB",16-01-2026 08:00:00,28.7500499,77.1112615,SO2,32,41,35
India,Delhi,Delhi,"Dr. Karni Singh Shooting Range, Delhi - DPCC",16-01-2026 08:00:00,28.498571,77.264840,NO2,32,90,59
India,Delhi,Delhi,"Dr. Karni Singh Shooting Range, Delhi - DPCC",16-01-2026 08:00:00,28.498571,77.264840,SO2,9,20,12
India,Delhi,Delhi,"Dwarka-Sector 8, Delhi - DPCC ",16-01-2026 08:00:00,28.5710274,77.0719006,OZONE,6,81,7
India,Delhi,Delhi,"IGI Airport (T3), Delhi - IMD",16-01-2026 08:00:00,28.5627763,77.1180053,PM2.5,122,341,280
India,Delhi,Delhi,"IGI Airport (T3), Delhi - IMD",16-01-2026 08:00:00,28.5627763,77.1180053,NO2,62,123,85
India,Delhi,Delhi,"IGI Airport (T3), Delhi - IMD",16-01-2026 08:00:00,28.5627763,77.1180053,CO,42,111,91
India,Bihar,Sasaram,"Dada Peer, Sasaram - BSPCB",16-01-2026 08:00:00,24.952822,84.002396,SO2,3,5,4
India,Bihar,Sasaram,"Dada Peer, Sasaram - BSPCB",16-01-2026 08:00:00,24.952822,84.002396,OZONE,16,25,17
India,Bihar,Siwan,"Chitragupta Nagar, Siwan - BSPCB",16-01-2026 08:00:00,26.2271665,84.3570427,SO2,8,8,8
India,Chandigarh,Chandigarh,"Sector 22, Chandigarh - CPCC",16-01-2026 08:00:00,30.735567,76.775714,NO2,37,88,56
India,Chandigarh,Chandigarh,"Sector 22, Chandigarh - CPCC",16-01-2026 08:00:00,30.735567,76.775714,SO2,2,13,6
India,Chandigarh,Chandigarh,"Sector-25, Chandigarh - CPCC",16-01-2026 08:00:00,30.751462,76.762879,CO,40,100,57
India,Chandigarh,Chandigarh,"Sector-53, Chandigarh - CPCC",16-01-2026 08:00:00,30.719859,76.738637,SO2,3,33,11
India,Chhattisgarh,Raipur,"AIIMS, Raipur - CECB",16-01-2026 08:00:00,21.258815,81.578979,SO2,3,6,4
India,Chhattisgarh,Raipur,"AIIMS, Raipur - CECB",16-01-2026 08:00:00,21.258815,81.578979,CO,36,85,53
India,Chhattisgarh,Raipur,"Bhatagaon New ISBT, Raipur - CECB",16-01-2026 08:00:00,21.219665,81.630094,PM2.5,7,34,25
India,Chhattisgarh,Raipur,"Bhatagaon New ISBT, Raipur - CECB",16-01-2026 08:00:00,21.219665,81.630094,PM10,25,49,38
India,Chhattisgarh,Raipur,"Bhatagaon New ISBT, Raipur - CECB",16-01-2026 08:00:00,21.219665,81.630094,CO,32,72,44
India,Chhattisgarh,Raipur,"Bhatagaon New ISBT, Raipur - CECB",16-01-2026 08:00:00,21.219665,81.630094,OZONE,2,6,2
India,Chhattisgarh,Raipur,"Krishak Nagar, Raipur - CECB",16-01-2026 08:00:00,21.237755,81.705301,NO2,22,32,27
India,Chhattisgarh,Raipur,"Krishak Nagar, Raipur - CECB",16-01-2026 08:00:00,21.237755,81.705301,CO,20,36,31
India,Chhattisgarh,Bhilai,"32Bungalows, Bhilai - CECB",16-01-2026 08:00:00,21.194815,81.314770,PM10,31,82,58
India,Chhattisgarh,Bhilai,"Civic Center, Bhilai - Bhilai Steel Plant",16-01-2026 08:00:00,21.185571,81.343175,PM10,27,123,57
India,Chhattisgarh,Bhilai,"Civic Center, Bhilai - Bhilai Steel Plant",16-01-2026 08:00:00,21.185571,81.343175,NH3,1,2,2
India,Chhattisgarh,Bhilai,"Hathkhoj, Bhilai - CECB",16-01-2026 08:00:00,21.224231,81.408350,PM10,30,84,57
India,Chhattisgarh,Bilaspur,"Mangala, Bilaspur - NTPC",16-01-2026 08:00:00,22.08815,82.13737,PM10,38,75,59
India,Delhi,Delhi,"Burari Crossing, Delhi - IMD",16-01-2026 08:00:00,28.7256504,77.2011573,NO2,96,193,125
India,Delhi,Delhi,"CRRI Mathura Road, Delhi - IMD",16-01-2026 08:00:00,28.5512005,77.2735737,NO2,19,65,46
India,Delhi,Delhi,"CRRI Mathura Road, Delhi - IMD",16-01-2026 08:00:00,28.5512005,77.2735737,CO,45,108,97
India,Delhi,Delhi,"Chandni Chowk, Delhi - IITM",16-01-2026 08:00:00,28.656756,77.227234,PM2.5,330,461,374
India,Delhi,Delhi,"Chandni Chowk, Delhi - IITM",16-01-2026 08:00:00,28.656756,77.227234,NH3,9,15,12
India,Bihar,Purnia,"Mariam Nagar, Purnia - BSPCB",16-01-2026 08:00:00,25.366336,87.117468,OZONE,21,39,24
India,Bihar,Rajgir,"Dangi Tola, Rajgir - BSPCB",16-01-2026 08:00:00,25.03280,85.41948,OZONE,28,34,32
India,Bihar,Saharsa,"Police Line, Saharsa - BSPCB",16-01-2026 08:00:00,25.892357,86.590325,NO2,6,9,7
India,Bihar,Sasaram,"Dada Peer, Sasaram - BSPCB",16-01-2026 08:00:00,24.952822,84.002396,NO2,2,5,2
India,Chhattisgarh,Korba,"Rampur, Korba - CECB",16-01-2026 08:00:00,22.368195,82.746431,PM2.5,NA,NA,NA
India,Chhattisgarh,Kunjemura,"OP Jindal School, Kunjemura - CECB",16-01-2026 08:00:00,22.126650,83.483212,PM10,26,252,136
India,Chhattisgarh,Milupara,"Govt. Higher Secondary School, Milupara - CECB",16-01-2026 08:00:00,22.1910172,83.5197009,NH3,1,2,2
India,Chhattisgarh,Milupara,"Govt. Higher Secondary School, Milupara - CECB",16-01-2026 08:00:00,22.1910172,83.5197009,SO2,13,17,14
India,Bihar,Patna,"Muradpur, Patna - BSPCB",16-01-2026 08:00:00,25.619651,85.147382,NO2,5,8,6
India,Bihar,Patna,"Muradpur, Patna - BSPCB",16-01-2026 08:00:00,25.619651,85.147382,SO2,7,10,9
India,Bihar,Patna,"Rajbansi Nagar, Patna - BSPCB",16-01-2026 08:00:00,25.599486,85.113666,PM2.5,71,117,90
India,Bihar,Patna,"Rajbansi Nagar, Patna - BSPCB",16-01-2026 08:00:00,25.599486,85.113666,NO2,29,130,71
India,Bihar,Patna,"Samanpura, Patna - BSPCB",16-01-2026 08:00:00,25.596727,85.085624,PM10,108,165,132
India,Delhi,Delhi,"Najafgarh, Delhi - DPCC",16-01-2026 08:00:00,28.570173,76.933762,SO2,17,47,24
India,Delhi,Delhi,"Narela, Delhi - DPCC",16-01-2026 08:00:00,28.822836,77.101981,NH3,8,11,10
India,Delhi,Delhi,"Nehru Nagar, Delhi - DPCC",16-01-2026 08:00:00,28.567890,77.250515,NH3,6,9,8
India,Delhi,Delhi,"Nehru Nagar, Delhi - DPCC",16-01-2026 08:00:00,28.567890,77.250515,OZONE,3,199,3
India,Delhi,Delhi,"North Campus, DU, Delhi - IMD",16-01-2026 08:00:00,28.6573814,77.1585447,PM2.5,223,446,345
India,Delhi,Delhi,"North Campus, DU, Delhi - IMD",16-01-2026 08:00:00,28.6573814,77.1585447,NO2,43,164,103
India,Delhi,Delhi,"North Campus, DU, Delhi - IMD",16-01-2026 08:00:00,28.6573814,77.1585447,CO,56,141,105
India,Delhi,Delhi,"North Campus, DU, Delhi - IMD",16-01-2026 08:00:00,28.6573814,77.1585447,OZONE,8,162,15
India,Delhi,Delhi,"Sri Aurobindo Marg, Delhi - DPCC",16-01-2026 08:00:00,28.531346,77.190156,NH3,4,7,6
India,Delhi,Delhi,"Sri Aurobindo Marg, Delhi - DPCC",16-01-2026 08:00:00,28.531346,77.190156,SO2,3,14,8
India,Delhi,Delhi,"Sri Aurobindo Marg, Delhi - DPCC",16-01-2026 08:00:00,28.531346,77.190156,CO,35,76,69
India,Delhi,Delhi,"Vivek Vihar, Delhi - DPCC",16-01-2026 08:00:00,28.672342,77.315260,PM2.5,315,477,388
India,Delhi,Delhi,"Vivek Vihar, Delhi - DPCC",16-01-2026 08:00:00,28.672342,77.315260,NH3,12,16,14
India,Delhi,Delhi,"Vivek Vihar, Delhi - DPCC",16-01-2026 08:00:00,28.672342,77.315260,OZONE,2,99,3
India,Delhi,Delhi,"Wazirpur, Delhi - DPCC",16-01-2026 08:00:00,28.699793,77.165453,PM2.5,318,463,375
India,Delhi,Delhi,"Wazirpur, Delhi - DPCC",16-01-2026 08:00:00,28.699793,77.165453,NO2,90,160,131
India,Delhi,Delhi,"Wazirpur, Delhi - DPCC",16-01-2026 08:00:00,28.699793,77.165453,NH3,8,11,10
India,Delhi,Delhi,"Patparganj, Delhi - DPCC",16-01-2026 08:00:00,28.623763,77.287209,PM2.5,309,446,372
India,Delhi,Delhi,"Patparganj, Delhi - DPCC",16-01-2026 08:00:00,28.623763,77.287209,NO2,59,140,90
India,Delhi,Delhi,"Patparganj, Delhi - DPCC",16-01-2026 08:00:00,28.623763,77.287209,OZONE,1,194,3
India,Delhi,Delhi,"Punjabi Bagh, Delhi - DPCC",16-01-2026 08:00:00,28.674045,77.131023,PM2.5,302,456,371
India,Delhi,Delhi,"Punjabi Bagh, Delhi - DPCC",16-01-2026 08:00:00,28.674045,77.131023,OZONE,3,64,4
India,Delhi,Delhi,"Pusa, Delhi - DPCC",16-01-2026 08:00:00,28.639652,77.146275,NO2,40,159,94
India,Delhi,Delhi,"Pusa, Delhi - IMD",16-01-2026 08:00:00,28.636110,77.173332,PM10,134,382,249
India,Delhi,Delhi,"Pusa, Delhi - IMD",16-01-2026 08:00:00,28.636110,77.173332,NO2,52,164,94
India,Delhi,Delhi,"IHBAS, Dilshad Garden, Delhi - CPCB",16-01-2026 08:00:00,28.6811736,77.3025234,NH3,8,21,16
India,Delhi,Delhi,"IIT Delhi, Delhi - IITM",16-01-2026 08:00:00,28.542460,77.191651,OZONE,12,58,16
India,Delhi,Delhi,"ITO, Delhi - CPCB",16-01-2026 08:00:00,28.628624,77.241060,NO2,18,76,37
India,Delhi,Delhi,"Jahangirpuri, Delhi - DPCC",16-01-2026 08:00:00,28.732820,77.170633,SO2,2,21,9
India,Delhi,Delhi,"Jawaharlal Nehru Stadium, Delhi - DPCC",16-01-2026 08:00:00,28.580280,77.233829,PM10,174,321,252
India,Delhi,Delhi,"Jawaharlal Nehru Stadium, Delhi - DPCC",16-01-2026 08:00:00,28.580280,77.233829,NO2,51,142,80
India,Delhi,Delhi,"Lodhi Road, Delhi - IMD",16-01-2026 08:00:00,28.5918245,77.2273074,CO,47,89,80
India,Delhi,Delhi,"Lodhi Road, Delhi - IMD",16-01-2026 08:00:00,28.5918245,77.2273074,OZONE,10,73,13
India,Delhi,Delhi,"Major Dhyan Chand National Stadium, Delhi - DPCC",16-01-2026 08:00:00,28.611281,77.237738,PM2.5,297,413,353
India,Delhi,Delhi,"Mundka, Delhi - DPCC",16-01-2026 08:00:00,28.684678,77.076574,PM2.5,302,471,383
India,Delhi,Delhi,"Mundka, Delhi - DPCC",16-01-2026 08:00:00,28.684678,77.076574,PM10,149,500,318
India,Delhi,Delhi,"NSIT Dwarka, Delhi - CPCB",16-01-2026 08:00:00,28.60909,77.0325413,PM10,224,428,328
India,Delhi,Delhi,"R K Puram, Delhi - DPCC",16-01-2026 08:00:00,28.563262,77.186937,OZONE,9,113,11
India,Delhi,Delhi,"Rohini, Delhi - DPCC",16-01-2026 08:00:00,28.732528,77.119920,SO2,6,12,8
India,Delhi,Delhi,"Shadipur, Delhi - CPCB",16-01-2026 08:00:00,28.6514781,77.1473105,CO,45,116,92
India,Delhi,Delhi,"Sirifort, Delhi - CPCB",16-01-2026 08:00:00,28.5504249,77.2159377,PM2.5,312,408,381
India,Delhi,Delhi,"Sirifort, Delhi - CPCB",16-01-2026 08:00:00,28.5504249,77.2159377,NO2,3,66,37
India,Delhi,Delhi,"Sirifort, Delhi - CPCB",16-01-2026 08:00:00,28.5504249,77.2159377,SO2,29,32,31
India,Gujarat,Ahmedabad,"SAC ISRO Satellite, Ahmedabad - IITM",16-01-2026 08:00:00,23.023389,72.515201,OZONE,4,48,12
India,Gujarat,Ahmedabad,"SVPI Airport Hansol, Ahmedabad - IITM",16-01-2026 08:00:00,23.076793,72.627874,PM10,72,125,103
India,Gujarat,Gandhinagar,"GIFT City, Gandhinagar - IITM",16-01-2026 08:00:00,23.163798,72.677768,PM10,99,140,121
India,Gujarat,Gandhinagar,"Sector-10, Gandhinagar - GPCB",16-01-2026 08:00:00,23.221714,72.654328,PM10,67,146,104
India,Gujarat,Ahmedabad,"Rakhial, Ahmedabad - IITM",16-01-2026 08:00:00,23.016834,72.625775,CO,10,111,26
India,Gujarat,Ahmedabad,"SAC ISRO Bopal, Ahmedabad - IITM",16-01-2026 08:00:00,23.041137,72.456691,NO2,15,35,26
India,Gujarat,Ahmedabad,"Gyaspur, Ahmedabad - IITM",16-01-2026 08:00:00,22.977134,72.553024,NH3,3,23,12
India,Haryana,Gurugram,"Vikas Sadan, Gurugram - HSPCB",16-01-2026 08:00:00,28.4501238,77.0263051,PM2.5,182,500,355
India,Haryana,Gurugram,"Vikas Sadan, Gurugram - HSPCB",16-01-2026 08:00:00,28.4501238,77.0263051,PM10,133,500,305
India,Haryana,Gurugram,"Vikas Sadan, Gurugram - HSPCB",16-01-2026 08:00:00,28.4501238,77.0263051,NO2,9,45,26
India,Haryana,Hisar,"Urban Estate-II, Hisar - HSPCB",16-01-2026 08:00:00,29.140560,75.744941,OZONE,11,97,12
India,Haryana,Jind,"Police Lines, Jind - HSPCB",16-01-2026 08:00:00,29.307814,76.337619,PM10,73,137,111
India,Haryana,Kaithal,"Rishi Nagar, Kaithal - HSPCB",16-01-2026 08:00:00,29.8006,76.4155,NO2,NA,NA,NA
India,Haryana,Kaithal,"Rishi Nagar, Kaithal - HSPCB",16-01-2026 08:00:00,29.8006,76.4155,NH3,NA,NA,NA
India,Haryana,Kaithal,"Rishi Nagar, Kaithal - HSPCB",16-01-2026 08:00:00,29.8006,76.4155,SO2,NA,NA,NA
India,Haryana,Karnal,"Sector-12, Karnal - HSPCB",16-01-2026 08:00:00,29.695300,77.002700,SO2,6,6,6
India,Haryana,Kurukshetra,"Sector-7, Kurukshetra - HSPCB",16-01-2026 08:00:00,29.966942,76.875879,PM2.5,85,310,244
India,Haryana,Mandikhera,"General Hospital, Mandikhera(Nuh) - HSPCB",16-01-2026 08:00:00,27.9002,76.9938,PM2.5,73,300,146
India,Haryana,Mandikhera,"General Hospital, Mandikhera(Nuh) - HSPCB",16-01-2026 08:00:00,27.9002,76.9938,NO2,19,23,21
India,Haryana,Mandikhera,"General Hospital, Mandikhera(Nuh) - HSPCB",16-01-2026 08:00:00,27.9002,76.9938,NH3,13,14,14
India,Haryana,Manesar,"Sector-2 IMT, Manesar - HSPCB",16-01-2026 08:00:00,28.360699,76.936090,PM2.5,97,395,259
India,Haryana,Manesar,"Sector-2 IMT, Manesar - HSPCB",16-01-2026 08:00:00,28.360699,76.936090,CO,20,100,54
India,Haryana,Narnaul,"Shastri Nagar, Narnaul - HSPCB",16-01-2026 08:00:00,28.060249,76.113115,PM10,77,373,168
India,Haryana,Narnaul,"Shastri Nagar, Narnaul - HSPCB",16-01-2026 08:00:00,28.060249,76.113115,SO2,6,8,7
India,Haryana,Palwal,"Shyam Nagar, Palwal - HSPCB",16-01-2026 08:00:00,28.1485564,77.3320667,PM2.5,75,99,90
India,Haryana,Palwal,"Shyam Nagar, Palwal - HSPCB",16-01-2026 08:00:00,28.1485564,77.3320667,PM10,93,116,108
India,Haryana,Palwal,"Shyam Nagar, Palwal - HSPCB",16-01-2026 08:00:00,28.1485564,77.3320667,OZONE,14,33,15
India,Karnataka,Bengaluru,"Jayanagar 5th Block, Bengaluru - KSPCB",16-01-2026 08:00:00,12.920984,77.584908,PM2.5,31,84,56
India,Karnataka,Bengaluru,"Jayanagar 5th Block, Bengaluru - KSPCB",16-01-2026 08:00:00,12.920984,77.584908,SO2,2,13,5
India,Karnataka,Bengaluru,"Jayanagar 5th Block, Bengaluru - KSPCB",16-01-2026 08:00:00,12.920984,77.584908,CO,3,44,14
India,Karnataka,Bengaluru,"Jigani, Bengaluru - KSPCB",16-01-2026 08:00:00,12.7816279,77.6299145,PM2.5,35,67,50
India,Karnataka,Bengaluru,"Jigani, Bengaluru - KSPCB",16-01-2026 08:00:00,12.7816279,77.6299145,OZONE,20,21,20
India,Karnataka,Bengaluru,"Kasturi Nagar, Bengaluru - KSPCB",16-01-2026 08:00:00,13.003872,77.664217,PM2.5,NA,NA,NA
India,Karnataka,Bengaluru,"Kasturi Nagar, Bengaluru - KSPCB",16-01-2026 08:00:00,13.003872,77.664217,PM10,NA,NA,NA
India,Karnataka,Bengaluru,"Kasturi Nagar, Bengaluru - KSPCB",16-01-2026 08:00:00,13.003872,77.664217,NO2,NA,NA,NA
India,Karnataka,Bengaluru,"Kasturi Nagar, Bengaluru - KSPCB",16-01-2026 08:00:00,13.003872,77.664217,NH3,NA,NA,NA
India,Karnataka,Bengaluru,"Kasturi Nagar, Bengaluru - KSPCB",16-01-2026 08:00:00,13.003872,77.664217,SO2,NA,NA,NA
India,Karnataka,Bengaluru,"Peenya, Bengaluru - CPCB",16-01-2026 08:00:00,13.0270199,77.494094,PM2.5,18,52,31
India,Haryana,Bhiwani,"H.B. Colony, Bhiwani - HSPCB",16-01-2026 08:00:00,28.806223,76.141105,PM2.5,29,490,116
India,Haryana,Charkhi Dadri,"Mini Secretariat, Charkhi Dadri - HSPCB",16-01-2026 08:00:00,28.593883,76.270653,PM10,106,359,172
India,Haryana,Dharuhera,"Municipal Corporation Office, Dharuhera -  HSPCB",16-01-2026 08:00:00,28.206800,76.799700,SO2,1,3,1
India,Haryana,Dharuhera,"Municipal Corporation Office, Dharuhera -  HSPCB",16-01-2026 08:00:00,28.206800,76.799700,OZONE,4,27,5
India,Haryana,Faridabad,"New Industrial Town, Faridabad - HSPCB",16-01-2026 08:00:00,28.39072,77.30059,SO2,8,8,8
India,Haryana,Faridabad,"Sector 11, Faridabad - HSPCB",16-01-2026 08:00:00,28.376058,77.315741,PM2.5,124,409,276
India,Haryana,Faridabad,"Sector 11, Faridabad - HSPCB",16-01-2026 08:00:00,28.376058,77.315741,NO2,30,33,32
India,Haryana,Yamuna Nagar,"Gobind Pura, Yamuna Nagar - HSPCB",16-01-2026 08:00:00,30.1480566,77.2893471,OZONE,8,33,11
India,Himachal Pradesh,Baddi,"HIMUDA Complex Phase-1, Baddi - HPPCB",16-01-2026 08:00:00,30.943887,76.801991,PM10,109,388,212
India,Himachal Pradesh,Baddi,"HIMUDA Complex Phase-1, Baddi - HPPCB",16-01-2026 08:00:00,30.943887,76.801991,NH3,2,3,2
India,Himachal Pradesh,Baddi,"HIMUDA Complex Phase-1, Baddi - HPPCB",16-01-2026 08:00:00,30.943887,76.801991,SO2,19,119,57
India,Jammu_and_Kashmir,Srinagar,"Rajbagh, Srinagar - JKPCC",16-01-2026 08:00:00,34.066206,74.819820,SO2,3,4,3
India,Haryana,Fatehabad,"Huda Sector, Fatehabad - HSPCB",16-01-2026 08:00:00,29.503664,75.467934,CO,25,36,26
India,Haryana,Fatehabad,"Huda Sector, Fatehabad - HSPCB",16-01-2026 08:00:00,29.503664,75.467934,OZONE,49,64,64
India,Haryana,Gurugram,"NISE Gwal Pahari, Gurugram - IMD",16-01-2026 08:00:00,28.422681,77.148944,PM2.5,272,358,325
India,Haryana,Gurugram,"NISE Gwal Pahari, Gurugram - IMD",16-01-2026 08:00:00,28.422681,77.148944,CO,50,106,100
India,Haryana,Gurugram,"NISE Gwal Pahari, Gurugram - IMD",16-01-2026 08:00:00,28.422681,77.148944,OZONE,6,47,8
India,Haryana,Gurugram,"Sector-51, Gurugram - HSPCB",16-01-2026 08:00:00,28.4227,77.0667,NO2,1,9,2
India,Karnataka,Belgaum,"Ramteerth Nagar, Belgaum - KSPCB",16-01-2026 08:00:00,15.888653,74.541751,NO2,15,72,38
India,Karnataka,Bengaluru,"BWSSB Kadabesanahalli, Bengaluru - CPCB",16-01-2026 08:00:00,12.9352049,77.6814488,SO2,3,5,4
India,Karnataka,Bengaluru,"BWSSB Kadabesanahalli, Bengaluru - CPCB",16-01-2026 08:00:00,12.9352049,77.6814488,OZONE,19,63,49
India,Karnataka,Bengaluru,"City Railway Station, Bengaluru - KSPCB",16-01-2026 08:00:00,12.9756843,77.5660749,SO2,NA,NA,NA
India,Karnataka,Bengaluru,"City Railway Station, Bengaluru - KSPCB",16-01-2026 08:00:00,12.9756843,77.5660749,CO,NA,NA,NA
India,Haryana,Panchkula,"Sector-6, Panchkula - HSPCB ",16-01-2026 08:00:00,30.7057778,76.8531805555555,CO,6,37,11
India,Haryana,Panipat,"Sector-18, Panipat - HSPCB",16-01-2026 08:00:00,29.432304,76.972765,PM2.5,75,342,251
India,Haryana,Panipat,"Sector-18, Panipat - HSPCB",16-01-2026 08:00:00,29.432304,76.972765,NO2,31,32,31
India,Haryana,Panipat,"Sector-18, Panipat - HSPCB",16-01-2026 08:00:00,29.432304,76.972765,NH3,2,3,2
India,Haryana,Sonipat,"Murthal, Sonipat - HSPCB",16-01-2026 08:00:00,29.027200,77.062100,PM10,53,113,84
India,Haryana,Ambala,"Patti Mehar, Ambala - HSPCB",16-01-2026 08:00:00,30.379589,76.778328,PM2.5,41,172,101
India,Haryana,Ambala,"Patti Mehar, Ambala - HSPCB",16-01-2026 08:00:00,30.379589,76.778328,NH3,9,11,10
India,Haryana,Bahadurgarh,"Arya Nagar, Bahadurgarh - HSPCB",16-01-2026 08:00:00,28.6701,76.9254,NH3,12,13,13
India,Karnataka,Kalaburagi,"Mahatma Basaveswar Colony, Kalaburgi - KSPCB",16-01-2026 08:00:00,17.336318,76.847397,NH3,3,4,3
India,Karnataka,Mysuru,"Hebbal 1st Stage, Mysuru - KSPCB",16-01-2026 08:00:00,12.21041,76.37376,PM2.5,24,71,51
India,Karnataka,Mysuru,"Hebbal 1st Stage, Mysuru - KSPCB",16-01-2026 08:00:00,12.21041,76.37376,SO2,2,5,4
India,Karnataka,Ramanagara,"Vijay Nagar, Ramanagara - KSPCB",16-01-2026 08:00:00,12.733409,77.298051,PM2.5,18,128,52
India,Karnataka,Ramanagara,"Vijay Nagar, Ramanagara - KSPCB",16-01-2026 08:00:00,12.733409,77.298051,NH3,1,1,1
India,Karnataka,Ramanagara,"Vijay Nagar, Ramanagara - KSPCB",16-01-2026 08:00:00,12.733409,77.298051,SO2,16,31,21
India,Karnataka,Shivamogga,"Vinoba Nagara, Shivamogga - KSPCB",16-01-2026 08:00:00,13.940000,75.555917,CO,30,42,39
India,Karnataka,Shivamogga,"Vinoba Nagara, Shivamogga - KSPCB",16-01-2026 08:00:00,13.940000,75.555917,OZONE,7,46,14
India,Karnataka,Chikkaballapur,"Chikkaballapur Rural, Chikkaballapur - KSPCB",16-01-2026 08:00:00,13.428828,77.731418,NH3,4,8,6
India,Karnataka,Chikkaballapur,"Chikkaballapur Rural, Chikkaballapur - KSPCB",16-01-2026 08:00:00,13.428828,77.731418,SO2,32,51,42
India,Karnataka,Chikkaballapur,"Chikkaballapur Rural, Chikkaballapur - KSPCB",16-01-2026 08:00:00,13.428828,77.731418,CO,6,30,6
India,Karnataka,Chikkamagaluru,"Kalyana Nagara, Chikkamagaluru - KSPCB",16-01-2026 08:00:00,13.328028,75.797056,PM2.5,34,36,35
India,Karnataka,Chikkamagaluru,"Kalyana Nagara, Chikkamagaluru - KSPCB",16-01-2026 08:00:00,13.328028,75.797056,SO2,3,10,6
India,Karnataka,Dharwad,"Kalabhavan, Dharwad - KSPCB",16-01-2026 08:00:00,15.459706,75.008381,SO2,6,7,6
India,Karnataka,Dharwad,"Kalabhavan, Dharwad - KSPCB",16-01-2026 08:00:00,15.459706,75.008381,CO,36,84,67
India,Karnataka,Hubballi,"Lingaraj Nagar, Hubballi - KSPCB",16-01-2026 08:00:00,15.3714823,75.1160168,PM2.5,43,48,45
India,Madhya Pradesh,Gwalior,"City Center, Gwalior - MPPCB",16-01-2026 08:00:00,26.203442,78.193251,OZONE,11,66,28
India,Madhya Pradesh,Gwalior,"Deen Dayal Nagar, Gwalior - MPPCB",16-01-2026 08:00:00,26.259242,78.216432,PM2.5,75,409,241
India,Madhya Pradesh,Gwalior,"Deen Dayal Nagar, Gwalior - MPPCB",16-01-2026 08:00:00,26.259242,78.216432,OZONE,15,90,17
India,Madhya Pradesh,Gwalior,"Maharaj Bada, Gwalior - MPPCB",16-01-2026 08:00:00,26.200388,78.147714,PM2.5,68,405,199
India,Madhya Pradesh,Indore,"Airport Area, Indore - IMC",16-01-2026 08:00:00,22.7289,75.8076,PM10,62,147,95
India,Madhya Pradesh,Indore,"Regional Park, Indore - IMC",16-01-2026 08:00:00,22.6780,75.8559,NO2,9,14,11
India,Madhya Pradesh,Indore,"Regional Park, Indore - IMC",16-01-2026 08:00:00,22.6780,75.8559,NH3,NA,NA,NA
India,Kerala,Kollam,"Polayathode, Kollam - Kerala PCB",16-01-2026 08:00:00,8.8787,76.6073,NO2,8,10,9
India,Kerala,Thiruvananthapuram,"Plammoodu, Thiruvananthapuram - Kerala PCB",16-01-2026 08:00:00,8.5149093,76.9435879,NO2,NA,NA,NA
India,Kerala,Thrissur,"Corporation Ground, Thrissur - Kerala PCB",16-01-2026 08:00:00,10.532400,76.215900,CO,34,75,37
