country,state,city,station,last_update,latitude,longitude,pollutant_id,min_value,max_value,avg_value
India,Andhra_Pradesh,Anantapur,"Gulzarpet, Anantapur - APPCB",03-03-2026 04:00:00,14.675886,77.593027,PM10,62,77,69
India,Andhra_Pradesh,Chittoor,"Gangineni Cheruvu, Chittoor - APPCB",03-03-2026 04:00:00,13.204880,79.097889,PM2.5,55,70,60
India,Andhra_Pradesh,Chittoor,"Gangineni Cheruvu, Chittoor - APPCB",03-03-2026 04:00:00,13.204880,79.097889,NH3,6,7,6
India,Andhra_Pradesh,Kadapa,"Yerramukkapalli, Kadapa - APPCB",03-03-2026 04:00:00,14.465052,78.824187,PM2.5,57,88,66
India,Andhra_Pradesh,Kadapa,"Yerramukkapalli, Kadapa - APPCB",03-03-2026 04:00:00,14.465052,78.824187,PM10,75,102,84
India,Andhra_Pradesh,Kadapa,"Yerramukkapalli, Kadapa - APPCB",03-03-2026 04:00:00,14.465052,78.824187,NH3,4,4,4
India,Andhra_Pradesh,Rajamahendravaram,"Anand Kala Kshetram, Rajamahendravaram - APPCB",03-03-2026 04:00:00,16.9872867,81.7363176,PM2.5,59,93,75
India,Andhra_Pradesh,Rajamahendravaram,"Anand Kala Kshetram, Rajamahendravaram - APPCB",03-03-2026 04:00:00,16.9872867,81.7363176,SO2,5,34,10
India,Andhra_Pradesh,Tirumala,"Toll Gate, Tirumala - APPCB",03-03-2026 04:00:00,13.67,79.35,NO2,18,68,34
India,Bihar,Patna,"Govt. High School Shikarpur, Patna - BSPCB",03-03-2026 04:00:00,25.592539,85.227158,PM2.5,33,202,77
India,Bihar,Patna,"Govt. High School Shikarpur, Patna - BSPCB",03-03-2026 04:00:00,25.592539,85.227158,PM10,50,206,125
India,Bihar,Patna,"IGSC Planetarium Complex, Patna - BSPCB",03-03-2026 04:00:00,25.610369,85.132568,SO2,1,26,18
India,Bihar,Patna,"Muradpur, Patna - BSPCB",03-03-2026 04:00:00,25.619651,85.147382,NO2,10,12,11
India,Bihar,Patna,"Rajbansi Nagar, Patna - BSPCB",03-03-2026 04:00:00,25.599486,85.113666,PM2.5,49,132,71
India,Bihar,Patna,"Rajbansi Nagar, Patna - BSPCB",03-03-2026 04:00:00,25.599486,85.113666,PM10,63,112,89
India,Bihar,Patna,"Rajbansi Nagar, Patna - BSPCB",03-03-2026 04:00:00,25.599486,85.113666,CO,17,92,46
India,Bihar,Patna,"Samanpura, Patna - BSPCB",03-03-2026 04:00:00,25.596727,85.085624,PM10,86,220,128
India,Assam,Nagaon,"Christianpatty, Nagaon - PCBA",03-03-2026 04:00:00,26.349082,92.68449,NO2,1,1,1
India,Assam,Nagaon,"Christianpatty, Nagaon - PCBA",03-03-2026 04:00:00,26.349082,92.68449,NH3,4,4,4
India,Assam,Nagaon,"Christianpatty, Nagaon - PCBA",03-03-2026 04:00:00,26.349082,92.68449,CO,14,30,25
India,Assam,Nagaon,"Christianpatty, Nagaon - PCBA",03-03-2026 04:00:00,26.349082,92.68449,OZONE,8,9,9
India,Assam,Nalbari,"Bata Chowk, Nalbari - PCBA",03-03-2026 04:00:00,26.446912,91.439057,NO2,14,16,14
India,Assam,Nalbari,"Bata Chowk, Nalbari - PCBA",03-03-2026 04:00:00,26.446912,91.439057,SO2,7,22,10
India,Assam,Silchar,"Tarapur, Silchar - PCBA",03-03-2026 04:00:00,24.82827,92.79525,CO,17,36,26
India,Bihar,Araria,"Kharahiya Basti, Araria - BSPCB",03-03-2026 04:00:00,26.146529,87.454184,PM2.5,28,338,101
India,Bihar,Munger,"Town Hall, Munger - BSPCB",03-03-2026 04:00:00,25.376776,86.471523,NH3,2,3,3
India,Bihar,Muzaffarpur,"Buddha Colony, Muzaffarpur - BSPCB",03-03-2026 04:00:00,26.11442,85.39813,PM10,93,273,132
India,Bihar,Muzaffarpur,"Buddha Colony, Muzaffarpur - BSPCB",03-03-2026 04:00:00,26.11442,85.39813,OZONE,12,99,21
India,Bihar,Muzaffarpur,"MIT-Daudpur Kothi, Muzaffarpur - BSPCB",03-03-2026 04:00:00,26.1403345,85.3650192,SO2,11,21,14
India,Bihar,Muzaffarpur,"MIT-Daudpur Kothi, Muzaffarpur - BSPCB",03-03-2026 04:00:00,26.1403345,85.3650192,OZONE,5,68,14
India,Bihar,Muzaffarpur,"Muzaffarpur Collectorate, Muzaffarpur - BSPCB",03-03-2026 04:00:00,26.1209,85.3647,PM2.5,73,98,85
India,Bihar,Muzaffarpur,"Muzaffarpur Collectorate, Muzaffarpur - BSPCB",03-03-2026 04:00:00,26.1209,85.3647,SO2,4,10,6
India,Bihar,Gaya,"Kareemganj, Gaya - BSPCB",03-03-2026 04:00:00,24.792403,84.992416,NO2,11,12,12
India,Bihar,Gaya,"Kareemganj, Gaya - BSPCB",03-03-2026 04:00:00,24.792403,84.992416,NH3,1,4,1
India,Bihar,Gaya,"Kareemganj, Gaya - BSPCB",03-03-2026 04:00:00,24.792403,84.992416,SO2,29,45,39
India,Bihar,Hajipur,"Industrial Area, Hajipur - BSPCB",03-03-2026 04:00:00,25.697189,85.245900,SO2,6,9,8
India,Bihar,Hajipur,"Industrial Area, Hajipur - BSPCB",03-03-2026 04:00:00,25.697189,85.245900,OZONE,22,142,38
India,Bihar,Kishanganj,"SDM Office_Khagra, Kishanganj - BSPCB",03-03-2026 04:00:00,26.0881305,87.93840336,NO2,9,13,11
India,Bihar,Kishanganj,"SDM Office_Khagra, Kishanganj - BSPCB",03-03-2026 04:00:00,26.0881305,87.93840336,SO2,5,9,6
India,Bihar,Kishanganj,"SDM Office_Khagra, Kishanganj - BSPCB",03-03-2026 04:00:00,26.0881305,87.93840336,OZONE,31,33,32
India,Bihar,Bhagalpur,"Mayaganj, Bhagalpur - BSPCB",03-03-2026 04:00:00,25.265194,87.012947,CO,66,82,74
India,Bihar,Bhagalpur,"Mayaganj, Bhagalpur - BSPCB",03-03-2026 04:00:00,25.265194,87.012947,OZONE,12,35,14
India,Bihar,Bihar Sharif,"D M Colony, Bihar Sharif - BSPCB",03-03-2026 04:00:00,25.204762,85.514960,SO2,10,10,10
India,Bihar,Chhapra,"Darshan Nagar, Chhapra - BSPCB",03-03-2026 04:00:00,25.7808257,84.7446768,NO2,2,2,2
India,Bihar,Gaya,"Collectorate, Gaya - BSPCB",03-03-2026 04:00:00,24.7955,84.9994,NO2,1,10,8
India,Bihar,Gaya,"Kareemganj, Gaya - BSPCB",03-03-2026 04:00:00,24.792403,84.992416,PM2.5,43,157,88
India,Bihar,Arrah,"New DM Office, Arrah - BSPCB",03-03-2026 04:00:00,25.5626095,84.663264,CO,42,64,50
India,Bihar,Begusarai,"Lohiyanagar, Begusarai - BSPCB",03-03-2026 04:00:00,25.42742023,86.13886079,SO2,22,27,25
India,Bihar,Bettiah,"Kamalnath Nagar, Bettiah - BSPCB",03-03-2026 04:00:00,26.80365,84.51954,PM10,23,105,64
India,Bihar,Bettiah,"Kamalnath Nagar, Bettiah - BSPCB",03-03-2026 04:00:00,26.80365,84.51954,NH3,1,1,1
India,Bihar,Bhagalpur,"DM Office_Kachari Chowk, Bhagalpur - BSPCB",03-03-2026 04:00:00,25.251013,86.989001,NH3,1,1,1
India,Andhra_Pradesh,Visakhapatnam,"GVM Corporation, Visakhapatnam - APPCB",03-03-2026 04:00:00,17.72,83.3,CO,6,104,15
India,Assam,Guwahati,"LGBI Airport, Guwahati - PCBA",03-03-2026 04:00:00,26.10887,91.589544,PM10,126,136,130
India,Assam,Guwahati,"Pan Bazaar, Guwahati - PCBA",03-03-2026 04:00:00,26.187500,91.744194,PM2.5,43,156,70
India,Assam,Guwahati,"Pan Bazaar, Guwahati - PCBA",03-03-2026 04:00:00,26.187500,91.744194,SO2,28,58,43
India,Assam,Guwahati,"Pan Bazaar, Guwahati - PCBA",03-03-2026 04:00:00,26.187500,91.744194,OZONE,16,29,20
India,Andhra_Pradesh,Tirupati,"Vaikuntapuram, Tirupati - APPCB",03-03-2026 04:00:00,13.615387,79.409230,PM2.5,NA,NA,NA
India,Andhra_Pradesh,Tirupati,"Vaikuntapuram, Tirupati - APPCB",03-03-2026 04:00:00,13.615387,79.409230,NH3,6,6,6
India,Andhra_Pradesh,Tirupati,"Vaikuntapuram, Tirupati - APPCB",03-03-2026 04:00:00,13.615387,79.409230,SO2,12,13,13
India,Andhra_Pradesh,Vijayawada,"HB Colony, Vijayawada - APPCB",03-03-2026 04:00:00,16.536107,80.594233,NO2,23,25,24
India,Andhra_Pradesh,Vijayawada,"HB Colony, Vijayawada - APPCB",03-03-2026 04:00:00,16.536107,80.594233,CO,26,28,27
India,Andhra_Pradesh,Vijayawada,"Rajiv Nagar, Vijayawada - APPCB",03-03-2026 04:00:00,16.554731,80.649110,PM2.5,53,76,69
India,Andaman and Nicobar,Sri Vijaya Puram,"Police Line, Sri Vijaya Puram - ANPCC",03-03-2026 04:00:00,11.654054,92.734055,PM2.5,NA,NA,NA
India,Chhattisgarh,Korba,"Urja Nagar, Korba - CECB",03-03-2026 04:00:00,22.348441,82.549611,NO2,18,26,21
India,Chhattisgarh,Korba,"Urja Nagar, Korba - CECB",03-03-2026 04:00:00,22.348441,82.549611,OZONE,2,4,2
India,Chhattisgarh,Kunjemura,"OP Jindal School, Kunjemura - CECB",03-03-2026 04:00:00,22.126650,83.483212,PM2.5,31,156,77
India,Chhattisgarh,Kunjemura,"OP Jindal School, Kunjemura - CECB",03-03-2026 04:00:00,22.126650,83.483212,CO,10,56,47
India,Chhattisgarh,Milupara,"Govt. Higher Secondary School, Milupara - CECB",03-03-2026 04:00:00,22.1910172,83.5197009,NO2,NA,NA,NA
India,Chhattisgarh,Raipur,"AIIMS, Raipur - CECB",03-03-2026 04:00:00,21.258815,81.578979,PM10,22,117,58
India,Chhattisgarh,Raipur,"AIIMS, Raipur - CECB",03-03-2026 04:00:00,21.258815,81.578979,OZONE,NA,NA,NA
India,Chhattisgarh,Raipur,"Bhatagaon New ISBT, Raipur - CECB",03-03-2026 04:00:00,21.219665,81.630094,PM10,19,137,75
India,Chhattisgarh,Raipur,"Bhatagaon New ISBT, Raipur - CECB",03-03-2026 04:00:00,21.219665,81.630094,NO2,10,69,36
India,Chhattisgarh,Raipur,"Bhatagaon New ISBT, Raipur - CECB",03-03-2026 04:00:00,21.219665,81.630094,NH3,2,2,2
India,Chhattisgarh,Raipur,"Bhatagaon New ISBT, Raipur - CECB",03-03-2026 04:00:00,21.219665,81.630094,SO2,5,55,18
India,Delhi,Delhi,"Ashok Vihar, Delhi - DPCC",03-03-2026 04:00:00,28.695381,77.181665,PM2.5,104,315,224
India,Delhi,Delhi,"Ashok Vihar, Delhi - DPCC",03-03-2026 04:00:00,28.695381,77.181665,OZONE,5,98,49
India,Delhi,Delhi,"Aya Nagar, Delhi - IMD",03-03-2026 04:00:00,28.4706914,77.1099364,NO2,3,28,17
India,Delhi,Delhi,"Bawana, Delhi - DPCC",03-03-2026 04:00:00,28.776200,77.051074,PM2.5,75,309,234
India,Delhi,Delhi,"Burari Crossing, Delhi - IMD",03-03-2026 04:00:00,28.7256504,77.2011573,NO2,69,124,88
India,Delhi,Delhi,"Burari Crossing, Delhi - IMD",03-03-2026 04:00:00,28.7256504,77.2011573,CO,9,32,20
India,Delhi,Delhi,"CRRI Mathura Road, Delhi - IMD",03-03-2026 04:00:00,28.5512005,77.2735737,PM2.5,94,316,179
India,Delhi,Delhi,"Cantonment Area, Delhi - DPCC ",03-03-2026 04:00:00,28.594169 ,77.125100 ,SO2,NA,NA,NA
India,Delhi,Delhi,"Cantonment Area, Delhi - DPCC ",03-03-2026 04:00:00,28.594169 ,77.125100 ,OZONE,2,37,17
India,Delhi,Delhi,"Chandni Chowk, Delhi - IITM",03-03-2026 04:00:00,28.656756,77.227234,PM10,147,329,197
India,Delhi,Delhi,"Commonwealth Sports Complex, Delhi - DPCC",03-03-2026 04:00:00,28.615828 ,77.271992 ,NO2,13,89,37
India,Delhi,Delhi,"DTU, Delhi - CPCB",03-03-2026 04:00:00,28.7500499,77.1112615,PM2.5,81,268,176
India,Delhi,Delhi,"DTU, Delhi - CPCB",03-03-2026 04:00:00,28.7500499,77.1112615,NO2,17,71,40
India,Delhi,Delhi,"Dr. Karni Singh Shooting Range, Delhi - DPCC",03-03-2026 04:00:00,28.498571,77.264840,PM2.5,87,368,211
India,Delhi,Delhi,"Dr. Karni Singh Shooting Range, Delhi - DPCC",03-03-2026 04:00:00,28.498571,77.264840,NH3,7,11,9
India,Delhi,Delhi,"Dwarka-Sector 8, Delhi - DPCC ",03-03-2026 04:00:00,28.5710274,77.0719006,NH3,13,22,18
India,Delhi,Delhi,"Dwarka-Sector 8, Delhi - DPCC ",03-03-2026 04:00:00,28.5710274,77.0719006,CO,18,100,73
India,Delhi,Delhi,"Dwarka-Sector 8, Delhi - DPCC ",03-03-2026 04:00:00,28.5710274,77.0719006,OZONE,17,149,30
India,Chhattisgarh,Raipur,"Siltara Phase-II, Raipur - CECB",03-03-2026 04:00:00,21.371751,81.664929,NO2,10,44,20
India,Chhattisgarh,Tumidih,"OP Jindal Industrial Park, Tumidih - CECB",03-03-2026 04:00:00,22.06631475,83.33820077,PM10,37,172,87
India,Chhattisgarh,Tumidih,"OP Jindal Industrial Park, Tumidih - CECB",03-03-2026 04:00:00,22.06631475,83.33820077,OZONE,8,85,16
India,Delhi,Delhi,"Alipur, Delhi - DPCC",03-03-2026 04:00:00,28.815329,77.153010,PM2.5,92,323,192
India,Delhi,Delhi,"Alipur, Delhi - DPCC",03-03-2026 04:00:00,28.815329,77.153010,PM10,133,233,175
India,Delhi,Delhi,"Alipur, Delhi - DPCC",03-03-2026 04:00:00,28.815329,77.153010,NO2,6,45,22
India,Delhi,Delhi,"Alipur, Delhi - DPCC",03-03-2026 04:00:00,28.815329,77.153010,SO2,7,21,13
India,Delhi,Delhi,"Alipur, Delhi - DPCC",03-03-2026 04:00:00,28.815329,77.153010,CO,14,92,32
India,Delhi,Delhi,"Anand Vihar, Delhi - DPCC",03-03-2026 04:00:00,28.647622,77.3158090,NO2,33,114,69
India,Bihar,Rajgir,"Dangi Tola, Rajgir - BSPCB",03-03-2026 04:00:00,25.03280,85.41948,SO2,2,3,3
India,Bihar,Saharsa,"Police Line, Saharsa - BSPCB",03-03-2026 04:00:00,25.892357,86.590325,PM2.5,28,262,115
India,Bihar,Saharsa,"Police Line, Saharsa - BSPCB",03-03-2026 04:00:00,25.892357,86.590325,NO2,4,8,7
India,Bihar,Saharsa,"Police Line, Saharsa - BSPCB",03-03-2026 04:00:00,25.892357,86.590325,SO2,16,20,17
India,Bihar,Samastipur,"DM Office_Kasipur, Samastipur - BSPCB",03-03-2026 04:00:00,25.859655,85.77944,PM2.5,NA,NA,NA
India,Bihar,Samastipur,"DM Office_Kasipur, Samastipur - BSPCB",03-03-2026 04:00:00,25.859655,85.77944,PM10,NA,NA,NA
India,Bihar,Samastipur,"DM Office_Kasipur, Samastipur - BSPCB",03-03-2026 04:00:00,25.859655,85.77944,NH3,NA,NA,NA
India,Bihar,Samastipur,"DM Office_Kasipur, Samastipur - BSPCB",03-03-2026 04:00:00,25.859655,85.77944,CO,NA,NA,NA
India,Bihar,Samastipur,"DM Office_Kasipur, Samastipur - BSPCB",03-03-2026 04:00:00,25.859655,85.77944,OZONE,7,9,8
India,Bihar,Sasaram,"Dada Peer, Sasaram - BSPCB",03-03-2026 04:00:00,24.952822,84.002396,PM2.5,14,56,29
India,Delhi,Delhi,"IGNOU_Maidan Garhi, Delhi - DPCC",03-03-2026 04:00:00,28.493624 ,77.201159 ,PM10,135,358,197
India,Delhi,Delhi,"IGNOU_Maidan Garhi, Delhi - DPCC",03-03-2026 04:00:00,28.493624 ,77.201159 ,OZONE,14,121,19
India,Delhi,Delhi,"IHBAS, Dilshad Garden, Delhi - CPCB",03-03-2026 04:00:00,28.6811736,77.3025234,PM2.5,82,277,147
India,Delhi,Delhi,"IIT Delhi, Delhi - IITM",03-03-2026 04:00:00,28.542460,77.191651,OZONE,1,44,4
India,Delhi,Delhi,"ITO, Delhi - CPCB",03-03-2026 04:00:00,28.628624,77.241060,SO2,15,30,23
India,Delhi,Delhi,"ITO, Delhi - CPCB",03-03-2026 04:00:00,28.628624,77.241060,CO,12,63,41
India,Delhi,Delhi,"JNU, Delhi - DPCC",03-03-2026 04:00:00,28.540721 ,77.168544 ,NH3,4,6,5
India,Delhi,Delhi,"JNU, Delhi - DPCC",03-03-2026 04:00:00,28.540721 ,77.168544 ,CO,43,96,83
India,Delhi,Delhi,"JNU, Delhi - DPCC",03-03-2026 04:00:00,28.540721 ,77.168544 ,OZONE,2,31,4
India,Chhattisgarh,Bhilai,"32Bungalows, Bhilai - CECB",03-03-2026 04:00:00,21.194815,81.314770,CO,18,52,44
India,Chhattisgarh,Bhilai,"Civic Center, Bhilai - Bhilai Steel Plant",03-03-2026 04:00:00,21.185571,81.343175,PM10,14,88,34
India,Chhattisgarh,Bhilai,"Civic Center, Bhilai - Bhilai Steel Plant",03-03-2026 04:00:00,21.185571,81.343175,NO2,11,11,11
India,Chhattisgarh,Bhilai,"Hathkhoj, Bhilai - CECB",03-03-2026 04:00:00,21.224231,81.408350,NH3,4,8,5
India,Chhattisgarh,Bhilai,"Hathkhoj, Bhilai - CECB",03-03-2026 04:00:00,21.224231,81.408350,SO2,10,82,35
India,Chhattisgarh,Bilaspur,"Mangala, Bilaspur - NTPC",03-03-2026 04:00:00,22.08815,82.13737,CO,10,84,62
India,Chhattisgarh,Korba,"Rampur, Korba - CECB",03-03-2026 04:00:00,22.368195,82.746431,NO2,10,35,25
India,Chhattisgarh,Korba,"Rampur, Korba - CECB",03-03-2026 04:00:00,22.368195,82.746431,SO2,10,81,42
India,Bihar,Sasaram,"Dada Peer, Sasaram - BSPCB",03-03-2026 04:00:00,24.952822,84.002396,NH3,1,5,3
India,Bihar,Siwan,"Chitragupta Nagar, Siwan - BSPCB",03-03-2026 04:00:00,26.2271665,84.3570427,OZONE,9,16,16
India,Chandigarh,Chandigarh,"Sector 22, Chandigarh - CPCC",03-03-2026 04:00:00,30.735567,76.775714,OZONE,47,144,86
India,Chandigarh,Chandigarh,"Sector-25, Chandigarh - CPCC",03-03-2026 04:00:00,30.751462,76.762879,PM2.5,55,90,72
India,Chandigarh,Chandigarh,"Sector-25, Chandigarh - CPCC",03-03-2026 04:00:00,30.751462,76.762879,NO2,NA,NA,NA
India,Chandigarh,Chandigarh,"Sector-25, Chandigarh - CPCC",03-03-2026 04:00:00,30.751462,76.762879,NH3,NA,NA,NA
India,Chandigarh,Chandigarh,"Sector-25, Chandigarh - CPCC",03-03-2026 04:00:00,30.751462,76.762879,SO2,4,31,9
India,Chandigarh,Chandigarh,"Sector-25, Chandigarh - CPCC",03-03-2026 04:00:00,30.751462,76.762879,OZONE,17,67,33
India,Delhi,Delhi,"Jahangirpuri, Delhi - DPCC",03-03-2026 04:00:00,28.732820,77.170633,OZONE,3,27,16
India,Delhi,Delhi,"Major Dhyan Chand National Stadium, Delhi - DPCC",03-03-2026 04:00:00,28.611281,77.237738,CO,52,100,82
India,Delhi,Delhi,"Mundka, Delhi - DPCC",03-03-2026 04:00:00,28.684678,77.076574,SO2,3,41,26
India,Delhi,Delhi,"Sri Aurobindo Marg, Delhi - DPCC",03-03-2026 04:00:00,28.531346,77.190156,PM2.5,93,328,187
India,Delhi,Delhi,"Sri Aurobindo Marg, Delhi - DPCC",03-03-2026 04:00:00,28.531346,77.190156,CO,15,72,55
India,Delhi,Delhi,"Talkatora Garden, Delhi - DPCC",03-03-2026 04:00:00,28.621810,77.1944633,NO2,9,25,17
India,Delhi,Delhi,"Talkatora Garden, Delhi - DPCC",03-03-2026 04:00:00,28.621810,77.1944633,CO,63,85,81
India,Delhi,Delhi,"Vivek Vihar, Delhi - DPCC",03-03-2026 04:00:00,28.672342,77.315260,PM10,136,265,186
India,Delhi,Delhi,"Vivek Vihar, Delhi - DPCC",03-03-2026 04:00:00,28.672342,77.315260,SO2,15,43,27
India,Delhi,Delhi,"Vivek Vihar, Delhi - DPCC",03-03-2026 04:00:00,28.672342,77.315260,CO,53,101,78
India,Delhi,Delhi,"Wazirpur, Delhi - DPCC",03-03-2026 04:00:00,28.699793,77.165453,NO2,47,93,64
India,Delhi,Delhi,"Wazirpur, Delhi - DPCC",03-03-2026 04:00:00,28.699793,77.165453,NH3,10,16,13
India,Delhi,Delhi,"Wazirpur, Delhi - DPCC",03-03-2026 04:00:00,28.699793,77.165453,CO,57,102,81
India,Gujarat,Ahmedabad,"Chandkheda, Ahmedabad - IITM",03-03-2026 04:00:00,23.107969,72.574648,PM2.5,55,163,89
India,Gujarat,Ahmedabad,"Chandkheda, Ahmedabad - IITM",03-03-2026 04:00:00,23.107969,72.574648,SO2,16,75,32
India,Gujarat,Ahmedabad,"Gyaspur, Ahmedabad - IITM",03-03-2026 04:00:00,22.977134,72.553024,NH3,2,18,9
India,Haryana,Charkhi Dadri,"Mini Secretariat, Charkhi Dadri - HSPCB",03-03-2026 04:00:00,28.593883,76.270653,PM2.5,257,311,289
India,Haryana,Charkhi Dadri,"Mini Secretariat, Charkhi Dadri - HSPCB",03-03-2026 04:00:00,28.593883,76.270653,NO2,9,20,15
India,Haryana,Faridabad,"New Industrial Town, Faridabad - HSPCB",03-03-2026 04:00:00,28.39072,77.30059,PM2.5,186,201,194
India,Haryana,Faridabad,"New Industrial Town, Faridabad - HSPCB",03-03-2026 04:00:00,28.39072,77.30059,PM10,131,136,134
India,Haryana,Faridabad,"New Industrial Town, Faridabad - HSPCB",03-03-2026 04:00:00,28.39072,77.30059,NO2,24,26,25
India,Haryana,Faridabad,"New Industrial Town, Faridabad - HSPCB",03-03-2026 04:00:00,28.39072,77.30059,NH3,11,12,11
India,Haryana,Faridabad,"New Industrial Town, Faridabad - HSPCB",03-03-2026 04:00:00,28.39072,77.30059,OZONE,27,33,31
India,Haryana,Faridabad,"Sector 11, Faridabad - HSPCB",03-03-2026 04:00:00,28.376058,77.315741,CO,32,62,54
India,Haryana,Faridabad,"Sector 30, Faridabad - HSPCB",03-03-2026 04:00:00,28.4417,77.3217,PM2.5,93,110,98
India,Haryana,Faridabad,"Sector 30, Faridabad - HSPCB",03-03-2026 04:00:00,28.4417,77.3217,NO2,36,39,38
India,Gujarat,Ankleshwar,"GIDC, Ankleshwar - GPCB",03-03-2026 04:00:00,21.613267,73.010555,PM10,59,222,132
India,Gujarat,Ankleshwar,"GIDC, Ankleshwar - GPCB",03-03-2026 04:00:00,21.613267,73.010555,SO2,20,29,28
India,Gujarat,Bhavnagar,"Vidhyanagar, Bhavnagar - Nexteng Enviro",03-03-2026 04:00:00,21.755417,72.139056,PM10,67,189,117
India,Gujarat,Gandhinagar,"GIFT City, Gandhinagar - IITM",03-03-2026 04:00:00,23.163798,72.677768,PM10,106,295,181
India,Gujarat,Gandhinagar,"GIFT City, Gandhinagar - IITM",03-03-2026 04:00:00,23.163798,72.677768,CO,38,121,107
India,Gujarat,Gandhinagar,"IIPHG Lekawada, Gandhinagar - IITM",03-03-2026 04:00:00,23.243639,72.68994,PM10,63,185,121
India,Gujarat,Gandhinagar,"IIPHG Lekawada, Gandhinagar - IITM",03-03-2026 04:00:00,23.243639,72.68994,SO2,2,123,14
India,Gujarat,Gandhinagar,"IIPHG Lekawada, Gandhinagar - IITM",03-03-2026 04:00:00,23.243639,72.68994,CO,3,113,88
India,Gujarat,Gandhinagar,"Sector-10, Gandhinagar - GPCB",03-03-2026 04:00:00,23.221714,72.654328,NO2,25,54,36
India,Gujarat,Gandhinagar,"Sector-10, Gandhinagar - GPCB",03-03-2026 04:00:00,23.221714,72.654328,OZONE,3,41,5
India,Gujarat,Mehsana,"Sadanand Nagar, Mehsana - Nexteng Enviro",03-03-2026 04:00:00,23.593150,72.372792,SO2,3,14,8
India,Gujarat,Mehsana,"Sadanand Nagar, Mehsana - Nexteng Enviro",03-03-2026 04:00:00,23.593150,72.372792,CO,113,120,119
India,Gujarat,Surat,"Katargam, Surat - Nexteng Enviro",03-03-2026 04:00:00,21.217779 ,72.834787 ,NO2,10,73,33
India,Gujarat,Surat,"Science Center, Surat - SMC",03-03-2026 04:00:00,21.170046,72.795405,PM2.5,64,447,213
India,Gujarat,Surat,"Science Center, Surat - SMC",03-03-2026 04:00:00,21.170046,72.795405,PM10,91,440,173
India,Gujarat,Surat,"Science Center, Surat - SMC",03-03-2026 04:00:00,21.170046,72.795405,NO2,14,24,17
India,Gujarat,Vadodara,"Bapunagar, Vadodara - Nexteng Enviro",03-03-2026 04:00:00,22.320153,73.216285,NH3,2,5,4
India,Delhi,Delhi,"R K Puram, Delhi - DPCC",03-03-2026 04:00:00,28.563262,77.186937,PM2.5,97,354,235
India,Delhi,Delhi,"R K Puram, Delhi - DPCC",03-03-2026 04:00:00,28.563262,77.186937,NH3,7,11,9
India,Delhi,Delhi,"Rohini, Delhi - DPCC",03-03-2026 04:00:00,28.732528,77.119920,PM2.5,93,346,249
India,Delhi,Delhi,"Rohini, Delhi - DPCC",03-03-2026 04:00:00,28.732528,77.119920,SO2,11,51,22
India,Delhi,Delhi,"Rohini, Delhi - DPCC",03-03-2026 04:00:00,28.732528,77.119920,OZONE,15,156,41
India,Delhi,Delhi,"Shadipur, Delhi - CPCB",03-03-2026 04:00:00,28.6514781,77.1473105,OZONE,12,43,24
India,Delhi,Delhi,"Sirifort, Delhi - CPCB",03-03-2026 04:00:00,28.5504249,77.2159377,PM2.5,103,345,234
India,Delhi,Delhi,"Sirifort, Delhi - CPCB",03-03-2026 04:00:00,28.5504249,77.2159377,SO2,28,36,33
India,Delhi,Delhi,"Sonia Vihar, Delhi - DPCC",03-03-2026 04:00:00,28.710508,77.249485,OZONE,10,118,38
India,Gujarat,Vapi,"Phase-1 GIDC, Vapi - GPCB",03-03-2026 04:00:00,20.362421,72.918013,PM10,66,119,90
India,Gujarat,Vatva,"Phase-4 GIDC, Vatva - GPCB",03-03-2026 04:00:00,22.969611,72.643500,OZONE,29,44,30
India,Haryana,Bahadurgarh,"Arya Nagar, Bahadurgarh - HSPCB",03-03-2026 04:00:00,28.6701,76.9254,NH3,12,13,13
India,Haryana,Bahadurgarh,"Arya Nagar, Bahadurgarh - HSPCB",03-03-2026 04:00:00,28.6701,76.9254,OZONE,14,19,17
India,Haryana,Ballabgarh,"Nathu Colony, Ballabgarh - HSPCB",03-03-2026 04:00:00,28.3419248,77.319699,NO2,19,21,20
India,Haryana,Ballabgarh,"Nathu Colony, Ballabgarh - HSPCB",03-03-2026 04:00:00,28.3419248,77.319699,NH3,3,3,3
India,Haryana,Ballabgarh,"Nathu Colony, Ballabgarh - HSPCB",03-03-2026 04:00:00,28.3419248,77.319699,SO2,1,7,4
India,Delhi,Delhi,"Okhla Phase-2, Delhi - DPCC",03-03-2026 04:00:00,28.530785,77.271255,SO2,20,31,24
India,Delhi,Delhi,"Patparganj, Delhi - DPCC",03-03-2026 04:00:00,28.623763,77.287209,PM10,146,262,181
India,Delhi,Delhi,"Punjabi Bagh, Delhi - DPCC",03-03-2026 04:00:00,28.674045,77.131023,CO,43,82,66
India,Delhi,Delhi,"Pusa, Delhi - IMD",03-03-2026 04:00:00,28.636110,77.173332,OZONE,39,124,54
India,Delhi,Delhi,"Mundka, Delhi - DPCC",03-03-2026 04:00:00,28.684678,77.076574,OZONE,1,80,24
India,Delhi,Delhi,"NSUT Jaffarpur, Delhi - DPCC",03-03-2026 04:00:00,28.594004 ,76.909423 ,SO2,79,92,83
India,Delhi,Delhi,"NSUT Jaffarpur, Delhi - DPCC",03-03-2026 04:00:00,28.594004 ,76.909423 ,OZONE,13,113,25
India,Delhi,Delhi,"Najafgarh, Delhi - DPCC",03-03-2026 04:00:00,28.570173,76.933762,PM10,103,354,143
India,Gujarat,Ahmedabad,"Maninagar, Ahmedabad - GPCB",03-03-2026 04:00:00,23.002657,72.591912,PM2.5,48,403,153
India,Gujarat,Ahmedabad,"Rakhial, Ahmedabad - IITM",03-03-2026 04:00:00,23.016834,72.625775,PM10,106,200,147
India,Haryana,Panipat,"Sector-18, Panipat - HSPCB",03-03-2026 04:00:00,29.432304,76.972765,NH3,2,3,3
India,Haryana,Panipat,"Sector-18, Panipat - HSPCB",03-03-2026 04:00:00,29.432304,76.972765,CO,47,50,49
India,Haryana,Rohtak,"MD University, Rohtak - HSPCB",03-03-2026 04:00:00,28.52123,76.37138,CO,NA,NA,NA
India,Haryana,Sirsa,"F-Block, Sirsa - HSPCB",03-03-2026 04:00:00,29.536400,75.015800,PM10,NA,NA,NA
India,Haryana,Sirsa,"F-Block, Sirsa - HSPCB",03-03-2026 04:00:00,29.536400,75.015800,CO,39,100,64
India,Haryana,Yamuna Nagar,"Gobind Pura, Yamuna Nagar - HSPCB",03-03-2026 04:00:00,30.1480566,77.2893471,CO,27,52,40
India,Himachal Pradesh,Baddi,"HIMUDA Complex Phase-1, Baddi - HPPCB",03-03-2026 04:00:00,30.943887,76.801991,PM2.5,73,314,137
India,Himachal Pradesh,Baddi,"HIMUDA Complex Phase-1, Baddi - HPPCB",03-03-2026 04:00:00,30.943887,76.801991,NO2,9,61,30
India,Himachal Pradesh,Baddi,"HIMUDA Complex Phase-1, Baddi - HPPCB",03-03-2026 04:00:00,30.943887,76.801991,SO2,19,129,70
India,Karnataka,Hubballi,"Lingaraj Nagar, Hubballi - KSPCB",03-03-2026 04:00:00,15.3714823,75.1160168,CO,6,26,18
India,Karnataka,Kalaburagi,"Mahatma Basaveswar Colony, Kalaburgi - KSPCB",03-03-2026 04:00:00,17.336318,76.847397,PM10,28,147,70
India,Karnataka,Kalaburagi,"Mahatma Basaveswar Colony, Kalaburgi - KSPCB",03-03-2026 04:00:00,17.336318,76.847397,NO2,11,18,16
India,Karnataka,Kalaburagi,"Mahatma Basaveswar Colony, Kalaburgi - KSPCB",03-03-2026 04:00:00,17.336318,76.847397,CO,34,66,50
India,Karnataka,Madikeri,"Stuart Hill, Madikeri - KSPCB",03-03-2026 04:00:00,12.415911,75.735050,PM10,19,44,27
India,Karnataka,Madikeri,"Stuart Hill, Madikeri - KSPCB",03-03-2026 04:00:00,12.415911,75.735050,SO2,7,7,7
India,Karnataka,Madikeri,"Stuart Hill, Madikeri - KSPCB",03-03-2026 04:00:00,12.415911,75.735050,CO,10,26,15
India,Karnataka,Mysuru,"Hebbal 1st Stage, Mysuru - KSPCB",03-03-2026 04:00:00,12.21041,76.37376,CO,3,116,33
India,Karnataka,Bengaluru,"Hombegowda Nagar, Bengaluru - KSPCB",03-03-2026 04:00:00,12.938539,77.590100,PM2.5,73,240,144
India,Karnataka,Bengaluru,"Hombegowda Nagar, Bengaluru - KSPCB",03-03-2026 04:00:00,12.938539,77.590100,SO2,9,41,21
India,Karnataka,Bengaluru,"Jayanagar 5th Block, Bengaluru - KSPCB",03-03-2026 04:00:00,12.920984,77.584908,SO2,2,25,13
India,Karnataka,Bengaluru,"Peenya, Bengaluru - CPCB",03-03-2026 04:00:00,13.0270199,77.494094,CO,6,42,17
India,Karnataka,Bengaluru,"RVCE-Mailasandra, Bengaluru - KSPCB",03-03-2026 04:00:00,12.921418,77.502466,PM10,97,353,140
India,Karnataka,Bengaluru,"RVCE-Mailasandra, Bengaluru - KSPCB",03-03-2026 04:00:00,12.921418,77.502466,NO2,24,31,31
India,Karnataka,Bengaluru,"RVCE-Mailasandra, Bengaluru - KSPCB",03-03-2026 04:00:00,12.921418,77.502466,SO2,5,6,6
India,Karnataka,Bengaluru,"RVCE-Mailasandra, Bengaluru - KSPCB",03-03-2026 04:00:00,12.921418,77.502466,CO,2,36,23
India,Haryana,Fatehabad,"Huda Sector, Fatehabad - HSPCB",03-03-2026 04:00:00,29.503664,75.467934,SO2,10,11,10
India,Haryana,Gurugram,"NISE Gwal Pahari, Gurugram - IMD",03-03-2026 04:00:00,28.422681,77.148944,NO2,13,53,28
India,Haryana,Gurugram,"Vikas Sadan, Gurugram - HSPCB",03-03-2026 04:00:00,28.4501238,77.0263051,SO2,2,8,5
India,Haryana,Hisar,"Urban Estate-II, Hisar - HSPCB",03-03-2026 04:00:00,29.140560,75.744941,PM10,25,137,115
India,Haryana,Hisar,"Urban Estate-II, Hisar - HSPCB",03-03-2026 04:00:00,29.140560,75.744941,OZONE,62,140,72
India,Karnataka,Vijayapura,"Ibrahimpur, Vijayapura - KSPCB",03-03-2026 04:00:00,16.802639,75.722694,OZONE,16,17,16
India,Karnataka,Yadgir,"Collector Office, Yadgir - KSPCB",03-03-2026 04:00:00,16.7602,77.1428,PM2.5,71,162,95
India,Kerala,Kannur,"Thavakkara, Kannur - Kerala PCB",03-03-2026 04:00:00,11.875000,75.373200,PM2.5,79,99,87
India,Kerala,Kannur,"Thavakkara, Kannur - Kerala PCB",03-03-2026 04:00:00,11.875000,75.373200,OZONE,27,32,27
India,Kerala,Kollam,"Polayathode, Kollam - Kerala PCB",03-03-2026 04:00:00,8.8787,76.6073,OZONE,28,35,32
India,Haryana,Narnaul,"Shastri Nagar, Narnaul - HSPCB",03-03-2026 04:00:00,28.060249,76.113115,NO2,34,55,43
India,Haryana,Palwal,"Shyam Nagar, Palwal - HSPCB",03-03-2026 04:00:00,28.1485564,77.3320667,PM10,49,82,67
India,Haryana,Palwal,"Shyam Nagar, Palwal - HSPCB",03-03-2026 04:00:00,28.1485564,77.3320667,CO,16,52,41
India,Haryana,Panchgaon,"Amity University, Panchgaon - IITM",03-03-2026 04:00:00,28.3153,76.9143,SO2,5,18,12
India,Haryana,Panchgaon,"Amity University, Panchgaon - IITM",03-03-2026 04:00:00,28.3153,76.9143,CO,4,34,28
India,Haryana,Kaithal,"Rishi Nagar, Kaithal - HSPCB",03-03-2026 04:00:00,29.8006,76.4155,NO2,30,33,31
India,Haryana,Mandikhera,"General Hospital, Mandikhera(Nuh) - HSPCB",03-03-2026 04:00:00,27.9002,76.9938,PM10,28,90,60
India,Haryana,Mandikhera,"General Hospital, Mandikhera(Nuh) - HSPCB",03-03-2026 04:00:00,27.9002,76.9938,NO2,20,23,22
India,Haryana,Manesar,"Sector-2 IMT, Manesar - HSPCB",03-03-2026 04:00:00,28.360699,76.936090,PM10,98,143,122
India,Jammu_and_Kashmir,Pampore,"Khrew, Pampore - JKPCC",03-03-2026 04:00:00,34.031606,75.009712,PM10,22,117,63
India,Jammu_and_Kashmir,Pampore,"Khrew, Pampore - JKPCC",03-03-2026 04:00:00,34.031606,75.009712,SO2,2,4,3
India,Jharkhand,Dhanbad,"Sardar Patel Nagar, Dhanbad - JSPCB",03-03-2026 04:00:00,23.80569,86.44268,SO2,NA,NA,NA
India,Jharkhand,Dhanbad,"Sardar Patel Nagar, Dhanbad - JSPCB",03-03-2026 04:00:00,23.80569,86.44268,OZONE,NA,NA,NA
India,Karnataka,Chamarajanagar,"Urban, Chamarajanagar - KSPCB",03-03-2026 04:00:00,11.55358,76.55521,SO2,2,7,4
India,Karnataka,Chikkaballapur,"Chikkaballapur Rural, Chikkaballapur - KSPCB",03-03-2026 04:00:00,13.428828,77.731418,PM10,70,116,84
India,Karnataka,Chikkaballapur,"Chikkaballapur Rural, Chikkaballapur - KSPCB",03-03-2026 04:00:00,13.428828,77.731418,SO2,15,30,22
India,Madhya Pradesh,Ujjain,"Mahashweta Nagar, Ujjain - MPPCB",03-03-2026 04:00:00,23.1633321,75.800225,SO2,1,10,4
India,Maharashtra,Ahmednagar,"Tarakpur, Ahmednagar - MPCB",03-03-2026 04:00:00,19.10122,74.73339,OZONE,23,157,47
India,Maharashtra,Akola,"Ramdaspeth, Akola - MPCB",03-03-2026 04:00:00,20.719516,77.000253,NO2,9,103,46
India,Maharashtra,Akola,"Ramdaspeth, Akola - MPCB",03-03-2026 04:00:00,20.719516,77.000253,OZONE,4,68,6
India,Maharashtra,Amravati,"Shivneri Colony, Amravati - MPCB",03-03-2026 04:00:00,20.9402359,77.7895248,PM2.5,4,95,58
India,Maharashtra,Amravati,"Shivneri Colony, Amravati - MPCB",03-03-2026 04:00:00,20.9402359,77.7895248,NH3,1,5,3
India,Maharashtra,Amravati,"Shivneri Colony, Amravati - MPCB",03-03-2026 04:00:00,20.9402359,77.7895248,SO2,5,22,9
India,Maharashtra,Amravati,"Shri Shivaji Science College, Amravati - MPCB",03-03-2026 04:00:00,20.939198,77.765701,PM10,10,238,87
India,Maharashtra,Amravati,"Shri Shivaji Science College, Amravati - MPCB",03-03-2026 04:00:00,20.939198,77.765701,SO2,14,68,27
India,Maharashtra,Aurangabad,"MIDC Chilkalthana, Aurangabad - MPCB",03-03-2026 04:00:00,19.875620,75.387310,PM10,53,109,75
India,Maharashtra,Aurangabad,"MIDC Chilkalthana, Aurangabad - MPCB",03-03-2026 04:00:00,19.875620,75.387310,NH3,1,3,2
India,Madhya Pradesh,Indore,"Airport Area, Indore - IMC",03-03-2026 04:00:00,22.7289,75.8076,OZONE,6,23,12
India,Madhya Pradesh,Indore,"Chhoti Gwaltoli, Indore - MPPCB",03-03-2026 04:00:00,22.4310,75.5213,SO2,15,57,28
India,Madhya Pradesh,Indore,"Chhoti Gwaltoli, Indore - MPPCB",03-03-2026 04:00:00,22.4310,75.5213,OZONE,1,36,2
India,Madhya Pradesh,Indore,"Maguda Nagar, Indore - IMC",03-03-2026 04:00:00,22.7524,75.8872,SO2,12,15,14
India,Madhya Pradesh,Indore,"Maguda Nagar, Indore - IMC",03-03-2026 04:00:00,22.7524,75.8872,CO,33,111,74
India,Madhya Pradesh,Indore,"Regional Park, Indore - IMC",03-03-2026 04:00:00,22.6780,75.8559,PM2.5,37,276,101
India,Madhya Pradesh,Indore,"Regional Park, Indore - IMC",03-03-2026 04:00:00,22.6780,75.8559,NH3,1,3,1
India,Madhya Pradesh,Indore,"Regional Park, Indore - IMC",03-03-2026 04:00:00,22.6780,75.8559,SO2,12,15,14
India,Madhya Pradesh,Indore,"Regional Park, Indore - IMC",03-03-2026 04:00:00,22.6780,75.8559,OZONE,5,11,6
India,Madhya Pradesh,Jabalpur,"Govindh Bhavan Colony, Jabalpur - JMC",03-03-2026 04:00:00,23.163174,79.973061,SO2,4,7,5
India,Madhya Pradesh,Jabalpur,"Gupteshwar, Jabalpur - JMC",03-03-2026 04:00:00,23.142888,79.916147,PM2.5,23,337,127
India,Kerala,Thiruvananthapuram,"Kariavattom, Thiruvananthapuram - Kerala PCB",03-03-2026 04:00:00,8.563700,76.886500,OZONE,30,31,30
India,Kerala,Thiruvananthapuram,"Plammoodu, Thiruvananthapuram - Kerala PCB",03-03-2026 04:00:00,8.5149093,76.9435879,PM2.5,30,58,42
India,Kerala,Thiruvananthapuram,"Plammoodu, Thiruvananthapuram - Kerala PCB",03-03-2026 04:00:00,8.5149093,76.9435879,PM10,45,86,62
India,Kerala,Thiruvananthapuram,"Plammoodu, Thiruvananthapuram - Kerala PCB",03-03-2026 04:00:00,8.5149093,76.9435879,NO2,NA,NA,NA
India,Kerala,Thiruvananthapuram,"Plammoodu, Thiruvananthapuram - Kerala PCB",03-03-2026 04:00:00,8.5149093,76.9435879,CO,12,40,17
India,Kerala,Thrissur,"Corporation Ground, Thrissur - Kerala PCB",03-03-2026 04:00:00,10.532400,76.215900,PM10,64,86,75
India,Kerala,Thrissur,"Corporation Ground, Thrissur - Kerala PCB",03-03-2026 04:00:00,10.532400,76.215900,NO2,6,9,7
India,Madhya Pradesh,Bhopal,"Paryavaran Parisar, Bhopal - MPPCB",03-03-2026 04:00:00,23.210494,77.425409,PM10,70,433,175
India,Madhya Pradesh,Bhopal,"T T Nagar, Bhopal - MPPCB",03-03-2026 04:00:00,23.233584,77.400574,PM10,76,309,151
India,Madhya Pradesh,Bhopal,"T T Nagar, Bhopal - MPPCB",03-03-2026 04:00:00,23.233584,77.400574,NH3,5,6,6
India,Madhya Pradesh,Pithampur,"Sector-2 Industrial Area, Pithampur - MPPCB",03-03-2026 04:00:00,22.624758,75.675238,OZONE,35,152,82
India,Madhya Pradesh,Sagar,"Civil Lines, Sagar - MPPCB",03-03-2026 04:00:00,23.838586,78.759431,PM10,52,313,126
India,Madhya Pradesh,Sagar,"Civil Lines, Sagar - MPPCB",03-03-2026 04:00:00,23.838586,78.759431,NO2,4,122,35
India,Madhya Pradesh,Sagar,"Civil Lines, Sagar - MPPCB",03-03-2026 04:00:00,23.838586,78.759431,NH3,4,9,5
India,Madhya Pradesh,Sagar,"Civil Lines, Sagar - MPPCB",03-03-2026 04:00:00,23.838586,78.759431,SO2,4,35,11
India,Madhya Pradesh,Satna,"Bandhavgar Colony, Satna - Birla Cement",03-03-2026 04:00:00,24.58434363,80.8549414,PM10,69,71,70
India,Madhya Pradesh,Satna,"Bandhavgar Colony, Satna - Birla Cement",03-03-2026 04:00:00,24.58434363,80.8549414,SO2,19,21,20
India,Madhya Pradesh,Singrauli,"Suryakiran Bhawan NCL, Singrauli - MPPCB",03-03-2026 04:00:00,24.108970,82.645580,PM2.5,46,326,174
India,Madhya Pradesh,Singrauli,"Suryakiran Bhawan NCL, Singrauli - MPPCB",03-03-2026 04:00:00,24.108970,82.645580,NO2,75,125,86
India,Maharashtra,Jalna,"Old MIDC, Jalna - MPCB",03-03-2026 04:00:00,19.854616,75.905894,NH3,2,5,4
India,Maharashtra,Jalna,"Old MIDC, Jalna - MPCB",03-03-2026 04:00:00,19.854616,75.905894,CO,18,78,40
India,Maharashtra,Jalna,"Old MIDC, Jalna - MPCB",03-03-2026 04:00:00,19.854616,75.905894,OZONE,21,89,39
India,Maharashtra,Kalyan,"Khadakpada, Kalyan - MPCB",03-03-2026 04:00:00,19.25292,73.142019,PM2.5,36,310,104
India,Maharashtra,Kalyan,"Khadakpada, Kalyan - MPCB",03-03-2026 04:00:00,19.25292,73.142019,OZONE,8,8,8
India,Maharashtra,Kalyan,"Pimpleshwar Mandir, Kalyan - MPCB",03-03-2026 04:00:00,19.192056,72.9585188,NO2,NA,NA,NA
India,Maharashtra,Kalyan,"Pimpleshwar Mandir, Kalyan - MPCB",03-03-2026 04:00:00,19.192056,72.9585188,NH3,NA,NA,NA
India,Maharashtra,Kalyan,"Pimpleshwar Mandir, Kalyan - MPCB",03-03-2026 04:00:00,19.192056,72.9585188,CO,14,60,55
India,Maharashtra,Kolhapur,"Shivaji University, Kolhapur - MPCB",03-03-2026 04:00:00,16.6870449,74.2505872,NO2,NA,NA,NA
India,Maharashtra,Kolhapur,"Sinchan Bhavan, Kolhapur - MPCB",03-03-2026 04:00:00,16.7143745,74.2426398,PM10,NA,NA,NA
India,Maharashtra,Boisar,"Khaira, Boisar - MPCB",03-03-2026 04:00:00,19.786089,72.757971,OZONE,1,55,12
India,Maharashtra,Chandrapur,"Chauhan Colony, Chandrapur - MPCB",03-03-2026 04:00:00,19.962900,79.298714,PM2.5,28,293,105
India,Maharashtra,Chandrapur,"Chauhan Colony, Chandrapur - MPCB",03-03-2026 04:00:00,19.962900,79.298714,NO2,30,33,31
India,Maharashtra,Chandrapur,"Chauhan Colony, Chandrapur - MPCB",03-03-2026 04:00:00,19.962900,79.298714,NH3,1,1,1
India,Maharashtra,Chandrapur,"Chauhan Colony, Chandrapur - MPCB",03-03-2026 04:00:00,19.962900,79.298714,SO2,NA,NA,NA
India,Maharashtra,Dhule,"Deopur, Dhule - MPCB",03-03-2026 04:00:00,20.918946,74.776388,CO,10,104,63
India,Maharashtra,Jalgaon,"Prabhat Colony, Jalgaon - MPCB",03-03-2026 04:00:00,21.001264,75.565602,PM10,46,195,114
India,Maharashtra,Jalgaon,"Prabhat Colony, Jalgaon - MPCB",03-03-2026 04:00:00,21.001264,75.565602,NH3,2,3,2
India,Maharashtra,Aurangabad,"MIDC Chilkalthana, Aurangabad - MPCB",03-03-2026 04:00:00,19.875620,75.387310,OZONE,12,80,28
India,Maharashtra,Aurangabad,"More Chowk Waluj, Aurangabad - MPCB",03-03-2026 04:00:00,19.8389439,75.244448,NH3,9,11,10
India,Maharashtra,Aurangabad,"More Chowk Waluj, Aurangabad - MPCB",03-03-2026 04:00:00,19.8389439,75.244448,CO,9,132,90
India,Maharashtra,Aurangabad,"Rachnakar Colony, Aurangabad - MPCB",03-03-2026 04:00:00,19.863756,75.321188,CO,32,84,58
India,Maharashtra,Badlapur,"Katrap, Badlapur - MPCB",03-03-2026 04:00:00,19.16485,73.23409,CO,24,66,48
India,Maharashtra,Bhiwandi,"Gokul Nagar, Bhiwandi - MPCB",03-03-2026 04:00:00,19.309073,73.057223,SO2,3,17,12
India,Madhya Pradesh,Jabalpur,"Marhatal, Jabalpur - MPPCB",03-03-2026 04:00:00,23.168606,79.932247,PM10,71,390,164
India,Madhya Pradesh,Jabalpur,"Suhagi, Jabalpur - JMC",03-03-2026 04:00:00,23.218135,79.957770,NH3,5,7,6
India,Madhya Pradesh,Katni,"Gole Bazar, Katni - MPPCB",03-03-2026 04:00:00,23.50016,80.23284,CO,14,110,80
India,Madhya Pradesh,Katni,"Gole Bazar, Katni - MPPCB",03-03-2026 04:00:00,23.50016,80.23284,OZONE,9,98,12
India,Madhya Pradesh,Mandideep,"Sector-D Industrial Area, Mandideep - MPPCB",03-03-2026 04:00:00,23.108440,77.511428,PM2.5,72,448,181
India,Madhya Pradesh,Mandideep,"Sector-D Industrial Area, Mandideep - MPPCB",03-03-2026 04:00:00,23.108440,77.511428,OZONE,8,40,18
India,Madhya Pradesh,Damoh,"Shrivastav Colony, Damoh - MPPCB",03-03-2026 04:00:00,23.81748678,79.446246,SO2,39,49,45
India,Madhya Pradesh,Dewas,"Bhopal Chauraha, Dewas - MPPCB",03-03-2026 04:00:00,22.9682591,76.064118,NH3,NA,NA,NA
India,Madhya Pradesh,Gwalior,"City Center, Gwalior - MPPCB",03-03-2026 04:00:00,26.203442,78.193251,CO,12,131,97
India,Madhya Pradesh,Gwalior,"Deen Dayal Nagar, Gwalior - MPPCB",03-03-2026 04:00:00,26.259242,78.216432,NO2,12,20,15
India,Madhya Pradesh,Indore,"Airport Area, Indore - IMC",03-03-2026 04:00:00,22.7289,75.8076,PM10,40,164,87
India,Maharashtra,Nashik,"Hirawadi, Nashik - MPCB",03-03-2026 04:00:00,20.021503,73.813844,OZONE,7,88,52
India,Maharashtra,Nashik,"MIDC Ambad, Nashik - MPCB",03-03-2026 04:00:00,19.950220,73.731480,PM10,105,167,125
India,Maharashtra,Nashik,"MIDC Ambad, Nashik - MPCB",03-03-2026 04:00:00,19.950220,73.731480,NH3,2,3,3
India,Maharashtra,Nashik,"Pandav Nagari, Nashik - MPCB",03-03-2026 04:00:00,19.9591346,73.7788008,NO2,5,50,14
India,Maharashtra,Nashik,"Pandav Nagari, Nashik - MPCB",03-03-2026 04:00:00,19.9591346,73.7788008,SO2,2,20,9
India,Maharashtra,Nashik,"Pandav Nagari, Nashik - MPCB",03-03-2026 04:00:00,19.9591346,73.7788008,OZONE,7,74,52
India,Maharashtra,Navi Mumbai,"Kopripada-Vashi, Navi Mumbai - MPCB",03-03-2026 04:00:00,19.090337,73.014232,NO2,12,86,31
India,Maharashtra,Navi Mumbai,"Kopripada-Vashi, Navi Mumbai - MPCB",03-03-2026 04:00:00,19.090337,73.014232,SO2,6,13,8
India,Maharashtra,Navi Mumbai,"Kopripada-Vashi, Navi Mumbai - MPCB",03-03-2026 04:00:00,19.090337,73.014232,OZONE,1,61,3
India,Maharashtra,Navi Mumbai,"Mahape, Navi Mumbai - MPCB",03-03-2026 04:00:00,19.1135051,73.008978,PM10,79,179,116
India,Maharashtra,Navi Mumbai,"Nerul, Navi Mumbai - MPCB",03-03-2026 04:00:00,19.008751,73.016620,PM2.5,41,122,70
India,Maharashtra,Navi Mumbai,"Sanpada, Navi Mumbai - MPCB",03-03-2026 04:00:00,19.0575752,73.0151367,PM2.5,60,293,138
India,Maharashtra,Latur,"Sawe Wadi, Latur - MPCB",03-03-2026 04:00:00,18.39963,76.57452,NH3,4,20,7
India,Maharashtra,Mahad,"Kamble Tarf Birwadi, Mahad - MPCB",03-03-2026 04:00:00,18.1023399,73.4783687,PM10,53,198,101
India,Maharashtra,Mahad,"Kamble Tarf Birwadi, Mahad - MPCB",03-03-2026 04:00:00,18.1023399,73.4783687,NO2,21,125,65
India,Maharashtra,Malegaon,"Mahesh Nagar, Malegaon - MPCB",03-03-2026 04:00:00,20.555712,74.529236,PM10,97,296,137
India,Maharashtra,Malegaon,"Mahesh Nagar, Malegaon - MPCB",03-03-2026 04:00:00,20.555712,74.529236,NO2,16,19,17
India,Maharashtra,Malegaon,"Mahesh Nagar, Malegaon - MPCB",03-03-2026 04:00:00,20.555712,74.529236,CO,12,110,59
India,Maharashtra,Malegaon,"Mahesh Nagar, Malegaon - MPCB",03-03-2026 04:00:00,20.555712,74.529236,OZONE,20,98,49
India,Maharashtra,Mira-Bhayandar,"Bhayandar West, Mira-Bhayandar - MPCB",03-03-2026 04:00:00,19.296481,72.840923,NH3,NA,NA,NA
India,Maharashtra,Mira-Bhayandar,"Bhayandar West, Mira-Bhayandar - MPCB",03-03-2026 04:00:00,19.296481,72.840923,SO2,NA,NA,NA
India,Maharashtra,Mumbai,"Bandra Kurla Complex, Mumbai - IITM",03-03-2026 04:00:00,19.053536,72.84643,PM2.5,43,164,57
India,Maharashtra,Mumbai,"Bandra Kurla Complex, Mumbai - MPCB",03-03-2026 04:00:00,19.065931,72.862131,PM10,49,292,93
India,Maharashtra,Nagpur,"Mahal, Nagpur - MPCB",03-03-2026 04:00:00,21.14472,79.107595,CO,14,121,94
India,Maharashtra,Nagpur,"Mahal, Nagpur - MPCB",03-03-2026 04:00:00,21.14472,79.107595,OZONE,5,52,25
India,Maharashtra,Nagpur,"Opp GPO Civil Lines, Nagpur - MPCB",03-03-2026 04:00:00,21.152875,79.0517531,PM2.5,27,268,102
India,Maharashtra,Nagpur,"Opp GPO Civil Lines, Nagpur - MPCB",03-03-2026 04:00:00,21.152875,79.0517531,NO2,10,54,25
India,Maharashtra,Nagpur,"Opp GPO Civil Lines, Nagpur - MPCB",03-03-2026 04:00:00,21.152875,79.0517531,SO2,3,49,20
India,Maharashtra,Nagpur,"Ram Nagar, Nagpur - MPCB",03-03-2026 04:00:00,21.143383,79.048912,NH3,4,4,4
India,Maharashtra,Nanded,"Sneh Nagar, Nanded - MPCB",03-03-2026 04:00:00,19.173852,77.296291,PM10,55,247,95
India,Maharashtra,Nanded,"Sneh Nagar, Nanded - MPCB",03-03-2026 04:00:00,19.173852,77.296291,CO,18,91,23
India,Maharashtra,Nashik,"Gangapur Road, Nashik - MPCB",03-03-2026 04:00:00,20.0073285,73.7762427,NO2,5,5,5
India,Maharashtra,Nashik,"Gangapur Road, Nashik - MPCB",03-03-2026 04:00:00,20.0073285,73.7762427,SO2,1,11,5
India,Maharashtra,Nashik,"Gangapur Road, Nashik - MPCB",03-03-2026 04:00:00,20.0073285,73.7762427,OZONE,9,29,20
India,Maharashtra,Nashik,"Hirawadi, Nashik - MPCB",03-03-2026 04:00:00,20.021503,73.813844,NO2,4,32,15
India,Maharashtra,Mumbai,"Mindspace-Malad West, Mumbai - MPCB",03-03-2026 04:00:00,19.1878657,72.8304069,PM10,30,367,85
India,Maharashtra,Mumbai,"Mindspace-Malad West, Mumbai - MPCB",03-03-2026 04:00:00,19.1878657,72.8304069,NO2,7,97,33
India,Maharashtra,Mumbai,"Mindspace-Malad West, Mumbai - MPCB",03-03-2026 04:00:00,19.1878657,72.8304069,SO2,11,22,16
India,Maharashtra,Mumbai,"Navy Nagar-Colaba, Mumbai - IITM",03-03-2026 04:00:00,18.897756,72.813320,OZONE,22,68,51
India,Maharashtra,Mumbai,"Powai, Mumbai - MPCB",03-03-2026 04:00:00,19.137500,72.915056,PM2.5,34,224,69
India,Maharashtra,Mumbai,"Powai, Mumbai - MPCB",03-03-2026 04:00:00,19.137500,72.915056,NH3,2,2,2
India,Maharashtra,Mumbai,"Sewri, Mumbai - BMC",03-03-2026 04:00:00,19.000084,72.856730,NH3,1,37,11
India,Maharashtra,Mumbai,"Sewri, Mumbai - BMC",03-03-2026 04:00:00,19.000084,72.856730,SO2,2,22,6
India,Maharashtra,Mumbai,"Shivaji Nagar, Mumbai - BMC",03-03-2026 04:00:00,19.060498,72.923356,PM2.5,36,238,63
India,Maharashtra,Mumbai,"Shivaji Nagar, Mumbai - BMC",03-03-2026 04:00:00,19.060498,72.923356,PM10,75,114,94
India,Maharashtra,Mumbai,"Shivaji Nagar, Mumbai - BMC",03-03-2026 04:00:00,19.060498,72.923356,NO2,6,35,17
India,Maharashtra,Mumbai,"Shivaji Nagar, Mumbai - BMC",03-03-2026 04:00:00,19.060498,72.923356,NH3,2,29,9
India,Maharashtra,Mumbai,"Borivali East, Mumbai - IITM",03-03-2026 04:00:00,19.23241,72.86895,PM2.5,31,87,55
India,Maharashtra,Mumbai,"Chakala-Andheri East, Mumbai - IITM",03-03-2026 04:00:00,19.11074,72.86084,PM10,67,188,103
India,Maharashtra,Mumbai,"Chakala-Andheri East, Mumbai - IITM",03-03-2026 04:00:00,19.11074,72.86084,SO2,1,7,2
India,Maharashtra,Mumbai,"Chembur, Mumbai - MPCB",03-03-2026 04:00:00,19.0364585,72.8954371,PM2.5,27,311,68
India,Maharashtra,Mumbai,"Chembur, Mumbai - MPCB",03-03-2026 04:00:00,19.0364585,72.8954371,NO2,22,85,45
India,Maharashtra,Mumbai,"Chembur, Mumbai - MPCB",03-03-2026 04:00:00,19.0364585,72.8954371,SO2,1,10,4
India,Maharashtra,Mumbai,"Chembur, Mumbai - MPCB",03-03-2026 04:00:00,19.0364585,72.8954371,CO,18,139,91
India,Maharashtra,Mumbai,"Kherwadi_Bandra East, Mumbai - MPCB",03-03-2026 04:00:00,19.0632143,72.8456324,OZONE,1,43,7
India,Maharashtra,Mumbai,"Khindipada-Bhandup West, Mumbai - IITM",03-03-2026 04:00:00,19.1653323,72.922099,CO,2,95,48
India,Maharashtra,Mumbai,"Kurla, Mumbai - MPCB",03-03-2026 04:00:00,19.0863,72.8888,PM2.5,NA,NA,NA
India,Maharashtra,Mumbai,"Kurla, Mumbai - MPCB",03-03-2026 04:00:00,19.0863,72.8888,CO,NA,NA,NA
India,Maharashtra,Mumbai,"Kurla, Mumbai - MPCB",03-03-2026 04:00:00,19.0863,72.8888,OZONE,NA,NA,NA
India,Maharashtra,Mumbai,"Mazgaon, Mumbai - IITM",03-03-2026 04:00:00,18.96702,72.84214,SO2,17,24,20
India,Maharashtra,Mumbai,"Deonar, Mumbai - IITM",03-03-2026 04:00:00,19.04946,72.9230,PM2.5,22,185,72
India,Maharashtra,Mumbai,"Deonar, Mumbai - IITM",03-03-2026 04:00:00,19.04946,72.9230,NO2,13,69,30
India,Maharashtra,Mumbai,"Deonar, Mumbai - IITM",03-03-2026 04:00:00,19.04946,72.9230,SO2,1,3,2
India,Maharashtra,Mumbai,"Ghatkopar, Mumbai - BMC",03-03-2026 04:00:00,19.083694,72.920967,SO2,1,7,3
India,Maharashtra,Mumbai,"Kandivali West, Mumbai - BMC",03-03-2026 04:00:00,19.215859,72.831718,NO2,1,8,3
India,Maharashtra,Mumbai,"Siddharth Nagar-Worli, Mumbai - IITM",03-03-2026 04:00:00,19.000083,72.813993,NH3,3,4,3
India,Maharashtra,Mumbai,"Sion, Mumbai - MPCB",03-03-2026 04:00:00,19.047000,72.874600,PM10,NA,NA,NA
India,Maharashtra,Mumbai,"Sion, Mumbai - MPCB",03-03-2026 04:00:00,19.047000,72.874600,NO2,33,54,38
India,Maharashtra,Mumbai,"Vile Parle West, Mumbai - MPCB",03-03-2026 04:00:00,19.10861,72.83622,NH3,6,6,6
India,Maharashtra,Navi Mumbai,"Sector-2E Kalamboli, Navi Mumbai - MPCB",03-03-2026 04:00:00,19.02579,73.10297,NO2,12,36,22
India,Maharashtra,Navi Mumbai,"Sector-2E Kalamboli, Navi Mumbai - MPCB",03-03-2026 04:00:00,19.02579,73.10297,SO2,1,10,4
India,Maharashtra,Navi Mumbai,"Tondare-Taloja, Navi Mumbai - MPCB",03-03-2026 04:00:00,19.0630,73.1209,PM2.5,35,165,69
India,Maharashtra,Pimpri-Chinchwad,"Park Street Wakad, Pimpri Chinchwad - MPCB",03-03-2026 04:00:00,18.59051,73.77946,NH3,3,5,4
India,Maharashtra,Pimpri-Chinchwad,"Park Street Wakad, Pimpri Chinchwad - MPCB",03-03-2026 04:00:00,18.59051,73.77946,SO2,3,25,9
India,Maharashtra,Pimpri-Chinchwad,"Park Street Wakad, Pimpri Chinchwad - MPCB",03-03-2026 04:00:00,18.59051,73.77946,OZONE,8,117,58
India,Maharashtra,Pimpri-Chinchwad,"Savta Mali Nagar, Pimpri-Chinchwad - IITM",03-03-2026 04:00:00,18.614767,73.799516,NO2,17,95,47
India,Maharashtra,Pimpri-Chinchwad,"Savta Mali Nagar, Pimpri-Chinchwad - IITM",03-03-2026 04:00:00,18.614767,73.799516,CO,26,106,63
India,Maharashtra,Pimpri-Chinchwad,"Thergaon, Pimpri Chinchwad - MPCB",03-03-2026 04:00:00,18.616318,73.765797,PM2.5,49,108,70
India,Maharashtra,Pimpri-Chinchwad,"Thergaon, Pimpri Chinchwad - MPCB",03-03-2026 04:00:00,18.616318,73.765797,NH3,6,11,8
India,Maharashtra,Pune,"Bhosari, Pune - IITM",03-03-2026 04:00:00,18.640051,73.848956,OZONE,1,57,17
India,Maharashtra,Pune,"Bhumkar Nagar, Pune - IITM",03-03-2026 04:00:00,18.605770,73.749976,PM2.5,56,318,159
India,Maharashtra,Pune,"Bhumkar Nagar, Pune - IITM",03-03-2026 04:00:00,18.605770,73.749976,NO2,29,106,56
India,Maharashtra,Pune,"Dhankawadi, Pune - IITM",03-03-2026 04:00:00,18.459883,73.852193,PM10,76,210,125
India,Maharashtra,Pune,"Dhankawadi, Pune - IITM",03-03-2026 04:00:00,18.459883,73.852193,CO,82,105,100
India,Maharashtra,Pune,"Dhankawadi, Pune - IITM",03-03-2026 04:00:00,18.459883,73.852193,OZONE,19,122,46
India,Maharashtra,Pune,"Hadapsar, Pune - IITM",03-03-2026 04:00:00,18.501793,73.927532,PM10,86,223,136
India,Maharashtra,Pune,"Hadapsar, Pune - IITM",03-03-2026 04:00:00,18.501793,73.927532,NO2,74,209,125
India,Odisha,Angul,"Hakimapada, Angul - OSPCB",03-03-2026 04:00:00,20.832874,85.104082,PM10,107,418,199
India,Odisha,Balasore,"Kalidaspur, Balasore - OSPCB",03-03-2026 04:00:00,21.51161,86.89088,NH3,1,2,1
India,Odisha,Balasore,"Kalidaspur, Balasore - OSPCB",03-03-2026 04:00:00,21.51161,86.89088,SO2,8,31,16
India,Odisha,Balasore,"Kalidaspur, Balasore - OSPCB",03-03-2026 04:00:00,21.51161,86.89088,OZONE,30,158,78
India,Odisha,Barbil,"Forest Office, Barbil - OSPCB",03-03-2026 04:00:00,22.1166054,85.3945546,CO,36,89,60
India,Odisha,Barbil,"Forest Office, Barbil - OSPCB",03-03-2026 04:00:00,22.1166054,85.3945546,OZONE,11,120,26
India,Odisha,Baripada,"Meher Colony, Baripada - OSPCB",03-03-2026 04:00:00,21.941841,86.728318,CO,42,114,85
India,Odisha,Baripada,"Meher Colony, Baripada - OSPCB",03-03-2026 04:00:00,21.941841,86.728318,OZONE,3,91,33
India,Odisha,Bhubaneswar,"Lingraj Mandir, Bhubaneswar - OSPCB",03-03-2026 04:00:00,20.240790,85.836784,PM2.5,85,333,173
India,Odisha,Bhubaneswar,"Lingraj Mandir, Bhubaneswar - OSPCB",03-03-2026 04:00:00,20.240790,85.836784,CO,40,102,58
India,Odisha,Bhubaneswar,"Lingraj Mandir, Bhubaneswar - OSPCB",03-03-2026 04:00:00,20.240790,85.836784,OZONE,18,195,43
India,Maharashtra,Ulhasnagar,"Sidhi Vinayak Nagar, Ulhasnagar - MPCB",03-03-2026 04:00:00,19.235581,73.159121,NO2,8,43,25
India,Maharashtra,Ulhasnagar,"Sidhi Vinayak Nagar, Ulhasnagar - MPCB",03-03-2026 04:00:00,19.235581,73.159121,SO2,4,71,13
India,Maharashtra,Virar,"Bolinj, Virar - MPCB",03-03-2026 04:00:00,19.4458210,72.7988231,PM2.5,2,156,75
India,Maharashtra,Virar,"Bolinj, Virar - MPCB",03-03-2026 04:00:00,19.4458210,72.7988231,SO2,1,10,3
India,Maharashtra,Virar,"Bolinj, Virar - MPCB",03-03-2026 04:00:00,19.4458210,72.7988231,OZONE,1,44,25
India,Meghalaya,Shillong,"JN Stadium, Shillong - Meghalaya PCB",03-03-2026 04:00:00,25.5803419,91.8942571,NH3,23,35,27
India,Meghalaya,Shillong,"Lumpyngngad, Shillong - Meghalaya PCB",03-03-2026 04:00:00,25.5586,91.8985,CO,8,38,15
India,Mizoram,Aizawl,"Sikulpuikawn, Aizawl - Mizoram PCB",03-03-2026 04:00:00,23.7176342,92.7192841,PM10,57,59,58
India,Nagaland,Kohima,"PWD Junction, Kohima - NPCB",03-03-2026 04:00:00,25.6635413,94.0989878,OZONE,NA,NA,NA
India,Maharashtra,Pune,"Katraj Dairy, Pune - MPCB",03-03-2026 04:00:00,18.454450,73.854155,PM2.5,22,86,36
India,Maharashtra,Pune,"Katraj Dairy, Pune - MPCB",03-03-2026 04:00:00,18.454450,73.854155,PM10,57,148,95
India,Maharashtra,Pune,"Katraj Dairy, Pune - MPCB",03-03-2026 04:00:00,18.454450,73.854155,SO2,2,4,3
India,Maharashtra,Pune,"Katraj Dairy, Pune - MPCB",03-03-2026 04:00:00,18.454450,73.854155,CO,24,92,84
India,Maharashtra,Pune,"Mhada Colony, Pune - IITM",03-03-2026 04:00:00,18.573040,73.927715,CO,2,92,45
India,Maharashtra,Pune,"Panchawati_Pashan, Pune - IITM",03-03-2026 04:00:00,18.536457,73.805454,NO2,7,24,15
India,Maharashtra,Pune,"Savitribai Phule Pune University, Pune - MPCB",03-03-2026 04:00:00,18.547056,73.826908,PM2.5,37,99,65
India,Maharashtra,Pune,"Savitribai Phule Pune University, Pune - MPCB",03-03-2026 04:00:00,18.547056,73.826908,OZONE,2,87,12
India,Maharashtra,Pune,"Transport Nagar-Nigdi, Pune - IITM",03-03-2026 04:00:00,18.664282,73.763966,NO2,NA,NA,NA
India,Maharashtra,Pune,"Transport Nagar-Nigdi, Pune - IITM",03-03-2026 04:00:00,18.664282,73.763966,OZONE,5,34,15
India,Odisha,Bhubaneswar,"Patia, Bhubaneswar - OSPCB",03-03-2026 04:00:00,20.34652,85.81630,NO2,8,37,19
India,Odisha,Bileipada,"Tata Township, Bileipada - OSPCB",03-03-2026 04:00:00,22.06156703,85.47409613,PM10,26,402,184
India,Odisha,Bileipada,"Tata Township, Bileipada - OSPCB",03-03-2026 04:00:00,22.06156703,85.47409613,NO2,6,7,7
India,Odisha,Bileipada,"Tata Township, Bileipada - OSPCB",03-03-2026 04:00:00,22.06156703,85.47409613,CO,15,50,33
India,Odisha,Bileipada,"Tata Township, Bileipada - OSPCB",03-03-2026 04:00:00,22.06156703,85.47409613,OZONE,8,18,12
India,Odisha,Byasanagar,"Ferro Chrome Colony, Byasanagar - OSPCB",03-03-2026 04:00:00,20.94185,86.11510,PM2.5,57,337,156
India,Odisha,Cuttack,"CDA Area, Cuttack - OSPCB",03-03-2026 04:00:00,20.48891     ,85.84768     ,NO2,18,47,28
India,Maharashtra,Sangli,"Vijay Nagar, Sangli - MPCB",03-03-2026 04:00:00, 16.5038,74.3623,PM2.5,45,223,88
India,Maharashtra,Solapur,"Dnyaneshwar Nagar, Solapur - MPCB",03-03-2026 04:00:00,17.6336264,75.9132495,PM2.5,55,287,125
India,Maharashtra,Solapur,"Dnyaneshwar Nagar, Solapur - MPCB",03-03-2026 04:00:00,17.6336264,75.9132495,SO2,4,11,6
India,Maharashtra,Solapur,"Ratandeep Housing Society, Solapur - MPCB",03-03-2026 04:00:00,17.65439,75.90649,SO2,3,21,7
India,Maharashtra,Thane,"Kasarvadavali, Thane - MPCB",03-03-2026 04:00:00,19.26777,72.97182,CO,11,115,85
India,Maharashtra,Thane,"Upvan Fort, Thane - MPCB",03-03-2026 04:00:00,19.222279,72.957979,SO2,2,27,11
India,Odisha,Keonjhar,"Jagamohanpur, Keonjhar - OSPCB",03-03-2026 04:00:00,21.643900,85.599355,CO,14,19,18
India,Odisha,Nayagarh,"Dabuna, Nayagarh - OSPCB",03-03-2026 04:00:00,21.847279,85.416905,PM2.5,66,108,83
India,Odisha,Rairangpur,"Divisional Forest Office, Rairangpur - OSPCB",03-03-2026 04:00:00,22.265816,86.174829,PM10,65,137,104
India,Odisha,Rairangpur,"Divisional Forest Office, Rairangpur - OSPCB",03-03-2026 04:00:00,22.265816,86.174829,NO2,11,12,11
India,Odisha,Rourkela,"Fertilizer Township, Rourkela - OSPCB",03-03-2026 04:00:00,22.18972222,84.86277778,SO2,7,17,10
India,Odisha,Rourkela,"Fertilizer Township, Rourkela - OSPCB",03-03-2026 04:00:00,22.18972222,84.86277778,CO,12,23,15
India,Punjab,Khanna,"Kalal Majra, Khanna - PPCB",03-03-2026 04:00:00,30.736056 ,76.209694,CO,31,58,49
India,Punjab,Mandi Gobindgarh,"RIMT University, Mandi Gobindgarh - PPCB",03-03-2026 04:00:00,30.649961,76.331442,PM10,102,391,197
India,Punjab,Mandi Gobindgarh,"RIMT University, Mandi Gobindgarh - PPCB",03-03-2026 04:00:00,30.649961,76.331442,CO,8,128,38
India,Punjab,Patiala,"Model Town, Patiala - PPCB",03-03-2026 04:00:00,30.349388,76.366642,NH3,6,7,6
India,Punjab,Patiala,"Model Town, Patiala - PPCB",03-03-2026 04:00:00,30.349388,76.366642,SO2,12,29,19
India,Punjab,Patiala,"Model Town, Patiala - PPCB",03-03-2026 04:00:00,30.349388,76.366642,CO,10,32,18
India,Odisha,Talcher,"Talcher Coalfields,Talcher - OSPCB",03-03-2026 04:00:00,20.9360711,85.1707021,NO2,24,85,54
India,Puducherry,Puducherry,"Jawahar Nagar, Puducherry - PPCC",03-03-2026 04:00:00,11.9309,79.8027,CO,9,54,17
India,Punjab,Amritsar,"Golden Temple, Amritsar - PPCB",03-03-2026 04:00:00,31.620000,74.876512,CO,22,80,41
India,Punjab,Bathinda,"Hardev Nagar, Bathinda - PPCB",03-03-2026 04:00:00,30.233011,74.907758,PM2.5,39,95,70
India,Rajasthan,Dholpur,"Raja Ganj, Dholpur - RSPCB",03-03-2026 04:00:00,26.699557,77.898881,CO,24,102,57
India,Rajasthan,Dungarpur,"Bhoiwada, Dungarpur - RSPCB",03-03-2026 04:00:00,23.837789,73.714926,NH3,13,19,16
India,Rajasthan,Hanumangarh,"Housing Board, Hanumangarh - RSPCB",03-03-2026 04:00:00,29.610750,74.283608,PM10,96,232,148
India,Rajasthan,Hanumangarh,"Housing Board, Hanumangarh - RSPCB",03-03-2026 04:00:00,29.610750,74.283608,NH3,4,12,6
India,Rajasthan,Jaipur,"Adarsh Nagar, Jaipur - RSPCB",03-03-2026 04:00:00,26.902909,75.836858,NO2,19,88,50
India,Rajasthan,Jaipur,"Mansarovar Sector-12, Jaipur - RSPCB",03-03-2026 04:00:00,26.843698,75.766894,PM2.5,33,415,152
India,Rajasthan,Jaipur,"Mansarovar Sector-12, Jaipur - RSPCB",03-03-2026 04:00:00,26.843698,75.766894,CO,10,111,82
India,Rajasthan,Jaipur,"Police Commissionerate, Jaipur - RSPCB",03-03-2026 04:00:00,26.9164092,75.7994901,NH3,1,3,1
India,Rajasthan,Jaipur,"Police Commissionerate, Jaipur - RSPCB",03-03-2026 04:00:00,26.9164092,75.7994901,SO2,18,31,25
India,Rajasthan,Bharatpur,"Krishna Nagar, Bharatpur - RSPCB",03-03-2026 04:00:00,27.215415,77.50873,NO2,9,77,29
India,Rajasthan,Bhilwara,"Pratap Nagar, Bhilwara - RSPCB",03-03-2026 04:00:00,25.339605,74.618883,OZONE,2,62,6
India,Rajasthan,Bhiwadi,"RIICO Ind. Area III, Bhiwadi - RSPCB",03-03-2026 04:00:00,28.194909,76.862296,PM10,168,288,210
India,Rajasthan,Bhiwadi,"RIICO Ind. Area III, Bhiwadi - RSPCB",03-03-2026 04:00:00,28.194909,76.862296,OZONE,4,83,5
India,Rajasthan,Bhiwadi,"Vasundhara Nagar_UIT, Bhiwadi - RSPCB",03-03-2026 04:00:00,28.207266,76.829265,PM2.5,88,495,244
India,Rajasthan,Bhiwadi,"Vasundhara Nagar_UIT, Bhiwadi - RSPCB",03-03-2026 04:00:00,28.207266,76.829265,NH3,3,6,5
India,Rajasthan,Bikaner,"MM Ground, Bikaner - RSPCB",03-03-2026 04:00:00,28.018792,73.292658,NO2,10,80,37
India,Rajasthan,Kota,"Shrinath Puram, Kota - RSPCB",03-03-2026 04:00:00,25.14389,75.821256,PM10,86,138,104
India,Rajasthan,Nagaur,"Karni Colony, Nagaur - RSPCB",03-03-2026 04:00:00,27.213494,73.734444,CO,10,68,34
India,Rajasthan,Pali,"Indira Colony Vistar, Pali - RSPCB",03-03-2026 04:00:00,25.771061, 73.340227,NH3,2,21,10
India,Rajasthan,Pratapgarh,"Pragati Nagar, Pratapgarh - RSPCB",03-03-2026 04:00:00,24.041198,74.780702,PM2.5,25,167,69
India,Rajasthan,Pratapgarh,"Pragati Nagar, Pratapgarh - RSPCB",03-03-2026 04:00:00,24.041198,74.780702,NH3,4,7,5
India,Rajasthan,Pratapgarh,"Pragati Nagar, Pratapgarh - RSPCB",03-03-2026 04:00:00,24.041198,74.780702,CO,13,39,25
India,Rajasthan,Rajsamand,"Dhoinda, Rajsamand - RSPCB",03-03-2026 04:00:00,25.036360,73.883502,CO,4,106,71
India,Rajasthan,Jhunjhunu,"Indra Nagar, Jhunjhunu - RSPCB",03-03-2026 04:00:00,28.108988,75.386577,OZONE,7,138,43
India,Rajasthan,Jodhpur,"Collectorate, Jodhpur - RSPCB",03-03-2026 04:00:00,26.268249,73.0193853,PM2.5,33,215,71
India,Rajasthan,Jodhpur,"Collectorate, Jodhpur - RSPCB",03-03-2026 04:00:00,26.268249,73.0193853,NO2,12,32,21
India,Rajasthan,Jodhpur,"Collectorate, Jodhpur - RSPCB",03-03-2026 04:00:00,26.268249,73.0193853,OZONE,7,111,40
India,Rajasthan,Jodhpur,"Digari Kalan, Jodhpur - RSPCB",03-03-2026 04:00:00,26.295810,73.082283,NO2,6,75,34
India,Rajasthan,Jodhpur,"Digari Kalan, Jodhpur - RSPCB",03-03-2026 04:00:00,26.295810,73.082283,SO2,3,11,5
India,Rajasthan,Jodhpur,"Jhalamand, Jodhpur - RSPCB",03-03-2026 04:00:00,26.215415,73.070156,NO2,4,81,34
India,Rajasthan,Jodhpur,"Mandor, Jodhpur - RSPCB",03-03-2026 04:00:00,26.358805,73.047444,PM2.5,28,153,64
India,Rajasthan,Bikaner,"MM Ground, Bikaner - RSPCB",03-03-2026 04:00:00,28.018792,73.292658,SO2,7,20,11
India,Rajasthan,Chittorgarh,"Shastri Nagar, Chittorgarh - RSPCB",03-03-2026 04:00:00,24.892047,74.623527,PM10,44,221,117
India,Rajasthan,Chittorgarh,"Shastri Nagar, Chittorgarh - RSPCB",03-03-2026 04:00:00,24.892047,74.623527,SO2,1,29,8
India,Rajasthan,Churu,"Subash Chowk, Churu - RSPCB",03-03-2026 04:00:00,28.296139,74.961696,PM2.5,30,140,80
India,Rajasthan,Churu,"Subash Chowk, Churu - RSPCB",03-03-2026 04:00:00,28.296139,74.961696,OZONE,22,101,46
India,Rajasthan,Dausa,"Khatikan Mohalla, Dausa - RSPCB",03-03-2026 04:00:00,26.895552,76.334753,PM10,44,263,99
India,Rajasthan,Dholpur,"Raja Ganj, Dholpur - RSPCB",03-03-2026 04:00:00,26.699557,77.898881,NO2,20,70,37
India,Rajasthan,Jodhpur,"Samrat Ashok Udhyan, Jodhpur - RSPCB",03-03-2026 04:00:00,26.253384,72.976571,PM2.5,33,407,121
India,Rajasthan,Jodhpur,"Samrat Ashok Udhyan, Jodhpur - RSPCB",03-03-2026 04:00:00,26.253384,72.976571,PM10,61,355,147
India,Rajasthan,Jodhpur,"Samrat Ashok Udhyan, Jodhpur - RSPCB",03-03-2026 04:00:00,26.253384,72.976571,CO,16,104,64
India,Rajasthan,Kota,"Dhanmandi, Kota - RSPCB",03-03-2026 04:00:00,25.164090,75.858137,OZONE,4,123,29
India,Rajasthan,Kota,"Nayapura, Kota - RSPCB",03-03-2026 04:00:00,25.196024,75.855668,PM10,80,193,119
India,Rajasthan,Kota,"Nayapura, Kota - RSPCB",03-03-2026 04:00:00,25.196024,75.855668,NO2,3,112,43
India,Rajasthan,Kota,"Nayapura, Kota - RSPCB",03-03-2026 04:00:00,25.196024,75.855668,NH3,6,12,8
India,Rajasthan,Kota,"Nayapura, Kota - RSPCB",03-03-2026 04:00:00,25.196024,75.855668,SO2,3,13,8
India,Rajasthan,Jaipur,"RIICO Sitapura, Jaipur - RSPCB",03-03-2026 04:00:00,26.786682,75.827928,PM2.5,52,401,161
India,Rajasthan,Jaipur,"Sector-2 Murlipura, Jaipur - RSPCB",03-03-2026 04:00:00,26.960669,75.771817,PM2.5,37,305,100
India,Rajasthan,Jaipur,"Sector-2 Murlipura, Jaipur - RSPCB",03-03-2026 04:00:00,26.960669,75.771817,PM10,57,284,123
India,Rajasthan,Jaipur,"Sector-2 Murlipura, Jaipur - RSPCB",03-03-2026 04:00:00,26.960669,75.771817,SO2,6,19,10
India,Rajasthan,Jaipur,"Shastri Nagar, Jaipur - RSPCB",03-03-2026 04:00:00,26.9502929,75.730943,NH3,6,25,14
India,Rajasthan,Jaipur,"Shastri Nagar, Jaipur - RSPCB",03-03-2026 04:00:00,26.9502929,75.730943,SO2,20,35,27
India,Rajasthan,Jalore,"Mudtra Sili, Jalore - RSPCB",03-03-2026 04:00:00,25.344694,72.626208,PM10,NA,NA,NA
India,Rajasthan,Ajmer,"Civil Lines,  Ajmer - RSPCB",03-03-2026 04:00:00,26.470859,74.646594,NO2,26,34,30
India,Rajasthan,Ajmer,"Civil Lines,  Ajmer - RSPCB",03-03-2026 04:00:00,26.470859,74.646594,SO2,3,6,4
India,Rajasthan,Alwar,"Moti Doongri, Alwar - RSPCB",03-03-2026 04:00:00,27.554793,76.611536,CO,17,103,51
India,Rajasthan,Baran,"Bamboliya, Baran - RSPCB",03-03-2026 04:00:00,25.106006,76.469948,OZONE,7,126,42
India,Rajasthan,Tonk,"Shastri Nagar, Tonk - RSPCB",03-03-2026 04:00:00,26.159933,75.780517,PM2.5,47,163,89
India,Rajasthan,Tonk,"Shastri Nagar, Tonk - RSPCB",03-03-2026 04:00:00,26.159933,75.780517,SO2,1,5,3
India,TamilNadu,Gummidipoondi,"Anthoni Pillai Nagar, Gummidipoondi - TNPCB",03-03-2026 04:00:00,13.4127,80.1081,PM10,89,362,132
India,TamilNadu,Gummidipoondi,"Anthoni Pillai Nagar, Gummidipoondi - TNPCB",03-03-2026 04:00:00,13.4127,80.1081,NH3,1,1,1
India,TamilNadu,Perundurai,"SIPCOT Industrial Park, Perundurai - TNPCB",03-03-2026 04:00:00,11.258242,77.552761,PM10,68,102,87
India,TamilNadu,Perundurai,"SIPCOT Industrial Park, Perundurai - TNPCB",03-03-2026 04:00:00,11.258242,77.552761,NO2,12,15,13
India,TamilNadu,Thoothukudi,"Meelavittan, Thoothukudi - TNPCB",03-03-2026 04:00:00,8.816428 ,78.099039,OZONE,26,33,31
India,Telangana,Hyderabad,"Bollaram Industrial Area, Hyderabad - TSPCB",03-03-2026 04:00:00,17.540891,78.358528,SO2,NA,NA,NA
India,Telangana,Hyderabad,"Bollaram Industrial Area, Hyderabad - TSPCB",03-03-2026 04:00:00,17.540891,78.358528,OZONE,NA,NA,NA
India,Telangana,Hyderabad,"Central University, Hyderabad - TSPCB",03-03-2026 04:00:00,17.460103,78.334361,PM2.5,36,67,49
India,Telangana,Hyderabad,"Central University, Hyderabad - TSPCB",03-03-2026 04:00:00,17.460103,78.334361,OZONE,14,15,15
India,Telangana,Hyderabad,"ECIL Kapra, Hyderabad - TSPCB",03-03-2026 04:00:00,17.470431,78.566959,NO2,17,69,34
India,Telangana,Hyderabad,"Zoo Park, Hyderabad - TSPCB",03-03-2026 04:00:00,17.349694,78.451437,NH3,3,3,3
India,Telangana,Hyderabad,"Zoo Park, Hyderabad - TSPCB",03-03-2026 04:00:00,17.349694,78.451437,OZONE,22,26,24
India,Tripura,Agartala,"Bardowali, Agartala - Tripura SPCB",03-03-2026 04:00:00,23.8175497,91.2726974,PM10,NA,NA,NA
India,Tripura,Agartala,"Bardowali, Agartala - Tripura SPCB",03-03-2026 04:00:00,23.8175497,91.2726974,NH3,11,13,12
India,Uttar_Pradesh,Agra,"Manoharpur, Agra - UPPCB",03-03-2026 04:00:00,27.23711,78.01936,PM2.5,29,213,67
India,Uttar_Pradesh,Agra,"Manoharpur, Agra - UPPCB",03-03-2026 04:00:00,27.23711,78.01936,SO2,6,10,8
India,Uttar_Pradesh,Agra,"Manoharpur, Agra - UPPCB",03-03-2026 04:00:00,27.23711,78.01936,CO,18,24,20
India,Uttar_Pradesh,Agra,"Rohta, Agra - UPPCB",03-03-2026 04:00:00,27.106972,78.000111,NO2,14,14,14
India,Uttar_Pradesh,Agra,"Rohta, Agra - UPPCB",03-03-2026 04:00:00,27.106972,78.000111,CO,10,46,33
India,Uttar_Pradesh,Agra,"Rohta, Agra - UPPCB",03-03-2026 04:00:00,27.106972,78.000111,OZONE,10,14,14
India,Uttar_Pradesh,Agra,"Sanjay Palace, Agra - UPPCB",03-03-2026 04:00:00,27.19865833,78.00598056,SO2,17,19,18
India,Uttar_Pradesh,Agra,"Sector-3B Avas Vikas Colony, Agra - UPPCB",03-03-2026 04:00:00,27.19412,77.96237,OZONE,1,18,5
India,Uttar_Pradesh,Agra,"Shahjahan Garden, Agra - UPPCB",03-03-2026 04:00:00,27.169338,78.03582,NH3,3,3,3
India,Uttar_Pradesh,Agra,"Shastripuram, Agra - UPPCB",03-03-2026 04:00:00,27.19862,77.92066,NH3,3,3,3
India,Uttar_Pradesh,Agra,"Shastripuram, Agra - UPPCB",03-03-2026 04:00:00,27.19862,77.92066,SO2,8,10,8
India,Uttar_Pradesh,Baghpat,"Sardar Patel Inter College, Baghpat - UPPCB",03-03-2026 04:00:00,28.964949,77.278761,PM2.5,80,198,132
India,Uttar_Pradesh,Baghpat,"Sardar Patel Inter College, Baghpat - UPPCB",03-03-2026 04:00:00,28.964949,77.278761,NH3,1,2,2
India,Uttar_Pradesh,Baghpat,"Sardar Patel Inter College, Baghpat - UPPCB",03-03-2026 04:00:00,28.964949,77.278761,OZONE,18,70,37
India,Uttar_Pradesh,Bareilly,"Civil Lines, Bareilly - UPPCB",03-03-2026 04:00:00,28.359581,79.414455,NO2,2,3,2
India,Uttar_Pradesh,Bareilly,"Civil Lines, Bareilly - UPPCB",03-03-2026 04:00:00,28.359581,79.414455,NH3,1,8,3
India,Uttar_Pradesh,Bareilly,"Civil Lines, Bareilly - UPPCB",03-03-2026 04:00:00,28.359581,79.414455,SO2,44,78,59
India,Uttar_Pradesh,Bareilly,"Civil Lines, Bareilly - UPPCB",03-03-2026 04:00:00,28.359581,79.414455,CO,44,55,50
India,Uttar_Pradesh,Bulandshahr,"Yamunapuram, Bulandshahr - UPPCB",03-03-2026 04:00:00,28.406963,77.849831,PM10,138,324,200
India,Uttar_Pradesh,Bulandshahr,"Yamunapuram, Bulandshahr - UPPCB",03-03-2026 04:00:00,28.406963,77.849831,SO2,12,61,25
India,Uttar_Pradesh,Firozabad,"Nagla Bhau, Firozabad - UPPCB",03-03-2026 04:00:00,27.168897,78.376960,PM2.5,25,166,62
India,Uttar_Pradesh,Firozabad,"Nagla Bhau, Firozabad - UPPCB",03-03-2026 04:00:00,27.168897,78.376960,PM10,34,149,78
India,Uttar_Pradesh,Firozabad,"Vibhab Nagar, Firozabad - UPPCB",03-03-2026 04:00:00,27.1594,78.3953,NO2,15,15,15
India,Uttar_Pradesh,Ghaziabad,"Indirapuram, Ghaziabad - UPPCB",03-03-2026 04:00:00,28.646233,77.358075,PM2.5,75,360,203
India,Uttar_Pradesh,Ghaziabad,"Indirapuram, Ghaziabad - UPPCB",03-03-2026 04:00:00,28.646233,77.358075,NO2,24,89,49
India,Uttar_Pradesh,Ghaziabad,"Indirapuram, Ghaziabad - UPPCB",03-03-2026 04:00:00,28.646233,77.358075,SO2,14,24,18
India,Uttar_Pradesh,Ghaziabad,"Loni, Ghaziabad - UPPCB",03-03-2026 04:00:00,28.757294,77.278792,PM2.5,90,326,240
India,Uttar_Pradesh,Ghaziabad,"Loni, Ghaziabad - UPPCB",03-03-2026 04:00:00,28.757294,77.278792,PM10,149,500,250
India,Uttar_Pradesh,Ghaziabad,"Sanjay Nagar, Ghaziabad - UPPCB",03-03-2026 04:00:00,28.685382,77.453839,NO2,32,101,64
India,Uttar_Pradesh,Ghaziabad,"Vasundhara, Ghaziabad - UPPCB",03-03-2026 04:00:00,28.6603346,77.3572563,PM2.5,77,358,211
India,Uttar_Pradesh,Ghaziabad,"Vasundhara, Ghaziabad - UPPCB",03-03-2026 04:00:00,28.6603346,77.3572563,PM10,152,277,202
India,Uttar_Pradesh,Gorakhpur,"Madan Mohan Malaviya University of Technology, Gorakhpur - UPPCB",03-03-2026 04:00:00,26.730136,83.433859,PM2.5,57,103,74
India,Uttar_Pradesh,Gorakhpur,"Madan Mohan Malaviya University of Technology, Gorakhpur - UPPCB",03-03-2026 04:00:00,26.730136,83.433859,NO2,11,12,11
India,Uttar_Pradesh,Gorakhpur,"Madan Mohan Malaviya University of Technology, Gorakhpur - UPPCB",03-03-2026 04:00:00,26.730136,83.433859,CO,3,4,3
India,Uttar_Pradesh,Greater Noida,"Knowledge Park - III, Greater Noida - UPPCB",03-03-2026 04:00:00,28.47272,77.482000,PM10,139,228,171
India,Uttar_Pradesh,Greater Noida,"Knowledge Park - III, Greater Noida - UPPCB",03-03-2026 04:00:00,28.47272,77.482000,NO2,14,103,54
India,Uttar_Pradesh,Greater Noida,"Knowledge Park - III, Greater Noida - UPPCB",03-03-2026 04:00:00,28.47272,77.482000,CO,11,79,64
India,Rajasthan,Udaipur,"Ashok Nagar, Udaipur - RSPCB",03-03-2026 04:00:00,24.5886166,73.6321397,PM2.5,40,303,120
India,Rajasthan,Udaipur,"Ashok Nagar, Udaipur - RSPCB",03-03-2026 04:00:00,24.5886166,73.6321397,PM10,76,231,127
India,Rajasthan,Udaipur,"Ashok Nagar, Udaipur - RSPCB",03-03-2026 04:00:00,24.5886166,73.6321397,NH3,5,6,5
India,Sikkim,Gangtok,"Zero Point GICI, Gangtok - SSPCB",03-03-2026 04:00:00,27.338530,88.614099,PM10,37,89,67
India,Sikkim,Gangtok,"Zero Point GICI, Gangtok - SSPCB",03-03-2026 04:00:00,27.338530,88.614099,CO,12,25,17
India,TamilNadu,Chennai,"Arumbakkam, Chennai - TNPCB",03-03-2026 04:00:00,13.0664,80.2112 ,PM2.5,52,121,80
India,TamilNadu,Chennai,"Arumbakkam, Chennai - TNPCB",03-03-2026 04:00:00,13.0664,80.2112 ,PM10,73,133,102
India,TamilNadu,Chennai,"Kodungaiyur, Chennai - TNPCB",03-03-2026 04:00:00,13.1278,80.2642,OZONE,24,34,30
India,Telangana,Hyderabad,"ECIL Kapra, Hyderabad - TSPCB",03-03-2026 04:00:00,17.470431,78.566959,NH3,1,5,4
India,Telangana,Hyderabad,"ICRISAT Patancheru, Hyderabad - TSPCB",03-03-2026 04:00:00,17.518400,78.278777,PM10,NA,NA,NA
India,Telangana,Hyderabad,"ICRISAT Patancheru, Hyderabad - TSPCB",03-03-2026 04:00:00,17.518400,78.278777,OZONE,NA,NA,NA
India,Telangana,Hyderabad,"IDA Pashamylaram, Hyderabad - TSPCB",03-03-2026 04:00:00,17.5316895,78.218939,PM2.5,70,132,103
India,Telangana,Hyderabad,"IDA Pashamylaram, Hyderabad - TSPCB",03-03-2026 04:00:00,17.5316895,78.218939,CO,27,58,38
India,Telangana,Hyderabad,"IITH Kandi, Hyderabad - TSPCB",03-03-2026 04:00:00,17.585705,78.126199,SO2,10,18,15
India,Telangana,Hyderabad,"Kokapet, Hyderabad - TSPCB",03-03-2026 04:00:00,17.393559,78.339194,NO2,13,15,14
India,TamilNadu,Chennai,"Manali, Chennai - CPCB",03-03-2026 04:00:00,13.164544,80.26285,SO2,14,22,17
India,TamilNadu,Chennai,"Perungudi, Chennai - TNPCB",03-03-2026 04:00:00,12.9533,80.2357,NH3,1,3,1
India,TamilNadu,Chennai,"Perungudi, Chennai - TNPCB",03-03-2026 04:00:00,12.9533,80.2357,SO2,1,9,4
India,TamilNadu,Chennai,"Royapuram, Chennai - TNPCB",03-03-2026 04:00:00,13.1036,80.2909,SO2,4,7,6
India,TamilNadu,Chennai,"Velachery Res. Area, Chennai - CPCB",03-03-2026 04:00:00,13.0052189,80.2398125,NO2,12,16,14
India,TamilNadu,Chennai,"Velachery Res. Area, Chennai - CPCB",03-03-2026 04:00:00,13.0052189,80.2398125,NH3,3,4,3
India,Telangana,Hyderabad,"New Malakpet, Hyderabad - TSPCB",03-03-2026 04:00:00,17.37206,78.50864,PM2.5,25,139,60
India,Telangana,Hyderabad,"Ramachandrapuram, Hyderabad - TSPCB",03-03-2026 04:00:00,17.528544,78.286195,NH3,3,5,4
India,Telangana,Hyderabad,"Ramachandrapuram, Hyderabad - TSPCB",03-03-2026 04:00:00,17.528544,78.286195,OZONE,24,35,27
India,Telangana,Hyderabad,"Sanathnagar, Hyderabad - TSPCB",03-03-2026 04:00:00,17.4559458,78.4332152,CO,45,62,50
India,Telangana,Hyderabad,"Somajiguda, Hyderabad - TSPCB",03-03-2026 04:00:00,17.417094,78.457437,NH3,3,4,4
India,Uttar_Pradesh,Khurja,"Kalindi Kunj, Khurja - UPPCB",03-03-2026 04:00:00,28.2348927,77.8683002,SO2,14,15,14
India,Uttar_Pradesh,Lucknow,"B R Ambedkar University, Lucknow - UPPCB",03-03-2026 04:00:00,26.766433,80.927299,PM2.5,NA,NA,NA
India,Uttar_Pradesh,Lucknow,"B R Ambedkar University, Lucknow - UPPCB",03-03-2026 04:00:00,26.766433,80.927299,PM10,NA,NA,NA
India,Uttar_Pradesh,Lucknow,"B R Ambedkar University, Lucknow - UPPCB",03-03-2026 04:00:00,26.766433,80.927299,CO,7,27,10
India,Uttar_Pradesh,Lucknow,"B R Ambedkar University, Lucknow - UPPCB",03-03-2026 04:00:00,26.766433,80.927299,OZONE,30,120,34
India,Uttar_Pradesh,Lucknow,"Gomti Nagar, Lucknow - UPPCB",03-03-2026 04:00:00,26.868120,81.005119,PM2.5,69,318,146
India,Uttar_Pradesh,Lucknow,"Gomti Nagar, Lucknow - UPPCB",03-03-2026 04:00:00,26.868120,81.005119,CO,32,40,36
India,Uttar_Pradesh,Lucknow,"Kendriya Vidyalaya, Lucknow - CPCB",03-03-2026 04:00:00,26.906111,80.948222,PM2.5,42,164,103
India,Uttar_Pradesh,Lucknow,"Kendriya Vidyalaya, Lucknow - CPCB",03-03-2026 04:00:00,26.906111,80.948222,PM10,130,166,146
India,Uttar_Pradesh,Lucknow,"Kendriya Vidyalaya, Lucknow - CPCB",03-03-2026 04:00:00,26.906111,80.948222,NO2,26,30,28
India,Uttar_Pradesh,Lucknow,"Kukrail Picnic Spot-1, Lucknow - UPPCB",03-03-2026 04:00:00,26.90723,80.98579,NO2,31,33,32
India,West_Bengal,Barrackpore,"SVSPA Campus, Barrackpore - WBPCB",03-03-2026 04:00:00,22.7605581,88.3617589,NH3,4,7,5
India,West_Bengal,Durgapur,"Mahishkapur Road_B-Zone, Durgapur - WBPCB",03-03-2026 04:00:00,23.567923,87.306843,NH3,3,5,4
India,West_Bengal,Durgapur,"Mahishkapur Road_B-Zone, Durgapur - WBPCB",03-03-2026 04:00:00,23.567923,87.306843,SO2,4,20,9
India,West_Bengal,Durgapur,"Mahishkapur Road_B-Zone, Durgapur - WBPCB",03-03-2026 04:00:00,23.567923,87.306843,OZONE,4,62,9
India,West_Bengal,Durgapur,"PCBL Residential Complex, Durgapur - WBPCB",03-03-2026 04:00:00,23.5087640,87.3544400,SO2,4,6,5
India,West_Bengal,Durgapur,"PCBL Residential Complex, Durgapur - WBPCB",03-03-2026 04:00:00,23.5087640,87.3544400,OZONE,3,59,10
India,West_Bengal,Durgapur,"Womens College_City Center, Durgapur - WBPCB",03-03-2026 04:00:00,23.549395,87.300496,NH3,2,4,3
India,West_Bengal,Durgapur,"Womens College_City Center, Durgapur - WBPCB",03-03-2026 04:00:00,23.549395,87.300496,OZONE,2,75,3
India,West_Bengal,Haldia,"Priyambada Housing Estate, Haldia - WBPCB",03-03-2026 04:00:00,22.06047,88.109737,PM2.5,60,272,132
India,West_Bengal,Haldia,"Priyambada Housing Estate, Haldia - WBPCB",03-03-2026 04:00:00,22.06047,88.109737,PM10,53,200,112
India,Uttar_Pradesh,Lucknow,"Lalbagh, Lucknow - CPCB",03-03-2026 04:00:00,26.8458805,80.9365541,PM2.5,121,268,183
India,Uttar_Pradesh,Lucknow,"Lalbagh, Lucknow - CPCB",03-03-2026 04:00:00,26.8458805,80.9365541,NO2,32,42,36
India,Uttar_Pradesh,Lucknow,"Lalbagh, Lucknow - CPCB",03-03-2026 04:00:00,26.8458805,80.9365541,NH3,14,21,17
India,Uttar_Pradesh,Lucknow,"Talkatora District Industries Center, Lucknow - CPCB",03-03-2026 04:00:00,26.83399722,80.8917361,PM2.5,10,193,117
India,Uttar_Pradesh,Lucknow,"Talkatora District Industries Center, Lucknow - CPCB",03-03-2026 04:00:00,26.83399722,80.8917361,SO2,2,16,6
India,Uttar_Pradesh,Meerut,"Jai Bhim Nagar, Meerut - UPPCB",03-03-2026 04:00:00,28.9535882,77.7622941,CO,40,102,77
India,Uttar_Pradesh,Meerut,"Pallavpuram Phase 2, Meerut - UPPCB",03-03-2026 04:00:00,29.063510,77.709723,PM10,62,130,104
India,Uttar_Pradesh,Meerut,"Pallavpuram Phase 2, Meerut - UPPCB",03-03-2026 04:00:00,29.063510,77.709723,NO2,26,56,41
India,Uttarakhand,Kashipur,"Govt. Girls Inter College, Kashipur - UKPCB",03-03-2026 04:00:00,29.2124114,78.9611753,PM2.5,NA,NA,NA
India,Uttarakhand,Kashipur,"Govt. Girls Inter College, Kashipur - UKPCB",03-03-2026 04:00:00,29.2124114,78.9611753,NH3,NA,NA,NA
India,Uttarakhand,Rishikesh,"Shivaji Nagar, Rishikesh - UKPCB",03-03-2026 04:00:00,30.075911,78.2859547,CO,37,37,37
India,West_Bengal,Asansol,"Evelyn Lodge, Asansol - WBPCB",03-03-2026 04:00:00,23.6979360,86.9443950,NO2,9,58,26
India,West_Bengal,Asansol,"Mahabir Colliery, Asansol - WBPCB",03-03-2026 04:00:00,23.6181830,87.1057180,PM2.5,16,268,107
India,West_Bengal,Asansol,"Mahabir Colliery, Asansol - WBPCB",03-03-2026 04:00:00,23.6181830,87.1057180,PM10,51,162,104
India,West_Bengal,Asansol,"Mahabir Colliery, Asansol - WBPCB",03-03-2026 04:00:00,23.6181830,87.1057180,NO2,12,26,18
India,West_Bengal,Asansol,"Mahabir Colliery, Asansol - WBPCB",03-03-2026 04:00:00,23.6181830,87.1057180,OZONE,5,40,9
India,Uttar_Pradesh,Greater Noida,"Knowledge Park - V, Greater Noida - UPPCB",03-03-2026 04:00:00,28.557054,77.453663,SO2,10,25,17
India,Uttar_Pradesh,Greater Noida,"Knowledge Park - V, Greater Noida - UPPCB",03-03-2026 04:00:00,28.557054,77.453663,OZONE,25,132,44
India,Uttar_Pradesh,Jhansi,"Shivaji Nagar, Jhansi - UPPCB",03-03-2026 04:00:00,25.4547,78.6039,OZONE,2,7,2
India,Uttar_Pradesh,Kanpur,"FTI Kidwai Nagar, Kanpur - UPPCB",03-03-2026 04:00:00,26.428282,80.327067,NH3,5,5,5
India,Uttar_Pradesh,Kanpur,"FTI Kidwai Nagar, Kanpur - UPPCB",03-03-2026 04:00:00,26.428282,80.327067,OZONE,10,13,11
India,Uttar_Pradesh,Kanpur,"NSI Kalyanpur, Kanpur - UPPCB",03-03-2026 04:00:00,26.509954,80.249612,NO2,25,25,25
India,Uttar_Pradesh,Kanpur,"NSI Kalyanpur, Kanpur - UPPCB",03-03-2026 04:00:00,26.509954,80.249612,CO,29,49,46
India,Uttar_Pradesh,Muzaffarnagar,"New Mandi, Muzaffarnagar - UPPCB",03-03-2026 04:00:00,29.4723508,77.7194031,OZONE,37,143,50
India,Uttar_Pradesh,Noida,"Sector - 125, Noida - UPPCB",03-03-2026 04:00:00,28.5447608,77.3231257,NH3,9,14,12
India,Uttar_Pradesh,Noida,"Sector - 125, Noida - UPPCB",03-03-2026 04:00:00,28.5447608,77.3231257,SO2,9,16,12
India,Uttar_Pradesh,Noida,"Sector-1, Noida - UPPCB",03-03-2026 04:00:00,28.5898,77.3101,PM2.5,80,330,220
India,Uttar_Pradesh,Noida,"Sector-1, Noida - UPPCB",03-03-2026 04:00:00,28.5898,77.3101,PM10,165,245,196
India,Uttar_Pradesh,Noida,"Sector-1, Noida - UPPCB",03-03-2026 04:00:00,28.5898,77.3101,SO2,NA,NA,NA
India,Uttar_Pradesh,Noida,"Sector-116, Noida - UPPCB",03-03-2026 04:00:00,28.569230,77.393848,NO2,42,151,83
India,Uttar_Pradesh,Noida,"Sector-116, Noida - UPPCB",03-03-2026 04:00:00,28.569230,77.393848,CO,28,106,83
India,Uttar_Pradesh,Prayagraj,"Jhunsi, Prayagraj - UPPCB",03-03-2026 04:00:00,25.425602,81.917152,SO2,19,19,19
India,Uttar_Pradesh,Prayagraj,"Jhunsi, Prayagraj - UPPCB",03-03-2026 04:00:00,25.425602,81.917152,OZONE,44,74,74
India,Uttar_Pradesh,Prayagraj,"Motilal Nehru NIT, Prayagraj - UPPCB",03-03-2026 04:00:00,25.494,81.863,PM2.5,25,94,47
India,Uttar_Pradesh,Prayagraj,"Motilal Nehru NIT, Prayagraj - UPPCB",03-03-2026 04:00:00,25.494,81.863,CO,8,36,29
India,Uttar_Pradesh,Varanasi,"Ardhali Bazar, Varanasi - UPPCB",03-03-2026 04:00:00,25.3505986,82.9083074,CO,8,25,14
India,Uttar_Pradesh,Varanasi,"IESD Banaras Hindu University, Varanasi - UPPCB",03-03-2026 04:00:00,25.262326,82.995408,SO2,26,33,29
India,Uttar_Pradesh,Varanasi,"IESD Banaras Hindu University, Varanasi - UPPCB",03-03-2026 04:00:00,25.262326,82.995408,OZONE,1,20,13
India,Uttar_Pradesh,Varanasi,"Maldahiya, Varanasi - UPPCB",03-03-2026 04:00:00,25.32393,82.99687,SO2,37,40,39
India,Uttar_Pradesh,Varanasi,"Maldahiya, Varanasi - UPPCB",03-03-2026 04:00:00,25.32393,82.99687,OZONE,3,10,3
India,Uttar_Pradesh,Meerut,"Pallavpuram Phase 2, Meerut - UPPCB",03-03-2026 04:00:00,29.063510,77.709723,NH3,6,9,8
India,Uttar_Pradesh,Moradabad,"Eco Herbal Park, Moradabad - UPPCB",03-03-2026 04:00:00,28.840739,78.697531,PM2.5,27,158,86
India,Uttar_Pradesh,Moradabad,"Kashiram Nagar, Moradabad - UPPCB",03-03-2026 04:00:00,28.849399,78.742362,NO2,25,25,25
India,Uttar_Pradesh,Moradabad,"Kashiram Nagar, Moradabad - UPPCB",03-03-2026 04:00:00,28.849399,78.742362,NH3,4,4,4
India,West_Bengal,Howrah,"Botanical Garden, Howrah - WBPCB",03-03-2026 04:00:00,22.554954,88.292568,CO,3,102,76
India,West_Bengal,Howrah,"Dasnagar, Howrah - WBPCB",03-03-2026 04:00:00,22.6025571,88.3105664,PM10,49,187,98
India,West_Bengal,Howrah,"Dasnagar, Howrah - WBPCB",03-03-2026 04:00:00,22.6025571,88.3105664,NO2,7,109,45
India,West_Bengal,Howrah,"Dasnagar, Howrah - WBPCB",03-03-2026 04:00:00,22.6025571,88.3105664,NH3,7,9,8
India,West_Bengal,Howrah,"Ghusuri, Howrah - WBPCB",03-03-2026 04:00:00,22.611968,88.347422,PM10,71,403,152
India,West_Bengal,Howrah,"Padmapukur, Howrah - WBPCB",03-03-2026 04:00:00,22.5687319,88.2797276,SO2,1,6,3
India,West_Bengal,Howrah,"Padmapukur, Howrah - WBPCB",03-03-2026 04:00:00,22.5687319,88.2797276,CO,4,105,79
India,West_Bengal,Howrah,"Padmapukur, Howrah - WBPCB",03-03-2026 04:00:00,22.5687319,88.2797276,OZONE,11,70,13
India,West_Bengal,Kolkata,"Ballygunge, Kolkata - WBPCB",03-03-2026 04:00:00,22.5367507,88.3638022,PM2.5,59,302,135
India,West_Bengal,Kolkata,"Ballygunge, Kolkata - WBPCB",03-03-2026 04:00:00,22.5367507,88.3638022,PM10,56,278,144
India,West_Bengal,Kolkata,"Ballygunge, Kolkata - WBPCB",03-03-2026 04:00:00,22.5367507,88.3638022,SO2,6,16,9
India,West_Bengal,Kolkata,"Bidhannagar, Kolkata - WBPCB",03-03-2026 04:00:00,22.58157048,88.41002457,NH3,6,10,7
India,West_Bengal,Kolkata,"Rabindra Bharati University, Kolkata - WBPCB",03-03-2026 04:00:00,22.627847,88.380669,NH3,12,13,12
India,West_Bengal,Kolkata,"Rabindra Sarobar, Kolkata - WBPCB",03-03-2026 04:00:00,22.51106,88.35142,PM2.5,46,213,101
India,West_Bengal,Kolkata,"Rabindra Sarobar, Kolkata - WBPCB",03-03-2026 04:00:00,22.51106,88.35142,NO2,18,167,76
India,West_Bengal,Kolkata,"Rabindra Sarobar, Kolkata - WBPCB",03-03-2026 04:00:00,22.51106,88.35142,CO,30,111,99
India,West_Bengal,Siliguri,"Ward-32 Bapupara, Siliguri - WBPCB",03-03-2026 04:00:00,26.6879226,88.4152495,PM10,61,168,104
India,West_Bengal,Siliguri,"Ward-32 Bapupara, Siliguri - WBPCB",03-03-2026 04:00:00,26.6879226,88.4152495,SO2,13,20,17
India,Bihar,Motihari,"Gandak Colony, Motihari - BSPCB",03-03-2026 04:00:00,26.63086,84.90051,NH3,3,3,3
India,Bihar,Motihari,"Gandak Colony, Motihari - BSPCB",03-03-2026 04:00:00,26.63086,84.90051,OZONE,3,5,4
India,Bihar,Munger,"Town Hall, Munger - BSPCB",03-03-2026 04:00:00,25.376776,86.471523,PM2.5,38,257,84
India,Bihar,Munger,"Town Hall, Munger - BSPCB",03-03-2026 04:00:00,25.376776,86.471523,PM10,37,148,76
India,Bihar,Munger,"Town Hall, Munger - BSPCB",03-03-2026 04:00:00,25.376776,86.471523,CO,2,45,36
India,Bihar,Muzaffarpur,"Buddha Colony, Muzaffarpur - BSPCB",03-03-2026 04:00:00,26.11442,85.39813,PM2.5,76,212,135
India,Bihar,Muzaffarpur,"Buddha Colony, Muzaffarpur - BSPCB",03-03-2026 04:00:00,26.11442,85.39813,NO2,32,106,51
India,Bihar,Muzaffarpur,"Buddha Colony, Muzaffarpur - BSPCB",03-03-2026 04:00:00,26.11442,85.39813,NH3,10,22,17
India,Bihar,Muzaffarpur,"Muzaffarpur Collectorate, Muzaffarpur - BSPCB",03-03-2026 04:00:00,26.1209,85.3647,OZONE,8,21,10
India,Bihar,Patna,"DRM Office Danapur, Patna - BSPCB",03-03-2026 04:00:00,25.586562,85.043586,NH3,10,12,11
India,Bihar,Patna,"DRM Office Danapur, Patna - BSPCB",03-03-2026 04:00:00,25.586562,85.043586,SO2,5,7,6
India,Bihar,Patna,"DRM Office Danapur, Patna - BSPCB",03-03-2026 04:00:00,25.586562,85.043586,CO,37,78,50
India,Andhra_Pradesh,Visakhapatnam,"GVM Corporation, Visakhapatnam - APPCB",03-03-2026 04:00:00,17.72,83.3,NH3,3,4,3
India,Arunachal_Pradesh,Naharlagun,"Naharlagun, Naharlagun - APSPCB",03-03-2026 04:00:00,27.103358,93.679645,NO2,6,7,7
India,Arunachal_Pradesh,Naharlagun,"Naharlagun, Naharlagun - APSPCB",03-03-2026 04:00:00,27.103358,93.679645,NH3,NA,NA,NA
India,Arunachal_Pradesh,Naharlagun,"Naharlagun, Naharlagun - APSPCB",03-03-2026 04:00:00,27.103358,93.679645,OZONE,5,6,6
India,Assam,Guwahati,"Pan Bazaar, Guwahati - PCBA",03-03-2026 04:00:00,26.187500,91.744194,PM10,35,108,56
India,Assam,Guwahati,"Pan Bazaar, Guwahati - PCBA",03-03-2026 04:00:00,26.187500,91.744194,NH3,1,1,1
India,Assam,Guwahati,"Railway Colony, Guwahati - PCBA",03-03-2026 04:00:00,26.181742,91.78063,NO2,NA,NA,NA
India,Assam,Nagaon,"Christianpatty, Nagaon - PCBA",03-03-2026 04:00:00,26.349082,92.68449,PM2.5,50,152,81
India,Assam,Nagaon,"Christianpatty, Nagaon - PCBA",03-03-2026 04:00:00,26.349082,92.68449,PM10,56,119,81
India,Assam,Nagaon,"Christianpatty, Nagaon - PCBA",03-03-2026 04:00:00,26.349082,92.68449,SO2,11,17,14
India,Assam,Nalbari,"Bata Chowk, Nalbari - PCBA",03-03-2026 04:00:00,26.446912,91.439057,OZONE,14,43,25
India,Assam,Sivasagar,"Girls College, Sivasagar - PCBA",03-03-2026 04:00:00,26.987634,94.636574,PM10,39,79,52
India,Assam,Sivasagar,"Girls College, Sivasagar - PCBA",03-03-2026 04:00:00,26.987634,94.636574,NO2,27,48,36
India,Assam,Sivasagar,"Girls College, Sivasagar - PCBA",03-03-2026 04:00:00,26.987634,94.636574,NH3,6,12,8
India,Bihar,Araria,"Kharahiya Basti, Araria - BSPCB",03-03-2026 04:00:00,26.146529,87.454184,PM10,25,198,74
India,Bihar,Araria,"Kharahiya Basti, Araria - BSPCB",03-03-2026 04:00:00,26.146529,87.454184,SO2,19,58,38
India,Bihar,Araria,"Kharahiya Basti, Araria - BSPCB",03-03-2026 04:00:00,26.146529,87.454184,OZONE,9,10,10
India,Bihar,Arrah,"New DM Office, Arrah - BSPCB",03-03-2026 04:00:00,25.5626095,84.663264,PM10,27,115,59
India,Bihar,Hajipur,"Industrial Area, Hajipur - BSPCB",03-03-2026 04:00:00,25.697189,85.245900,PM2.5,108,159,133
India,Bihar,Katihar,"Mirchaibari, Katihar - BSPCB",03-03-2026 04:00:00,25.560083,87.553265,PM10,30,111,72
India,Bihar,Katihar,"Mirchaibari, Katihar - BSPCB",03-03-2026 04:00:00,25.560083,87.553265,NO2,8,10,9
India,Bihar,Katihar,"Mirchaibari, Katihar - BSPCB",03-03-2026 04:00:00,25.560083,87.553265,SO2,20,24,22
India,Bihar,Katihar,"Mirchaibari, Katihar - BSPCB",03-03-2026 04:00:00,25.560083,87.553265,CO,80,98,88
India,Bihar,Kishanganj,"SDM Office_Khagra, Kishanganj - BSPCB",03-03-2026 04:00:00,26.0881305,87.93840336,NH3,3,3,3
India,Bihar,Manguraha,"Forest Rest House, Manguraha - BSPCB",03-03-2026 04:00:00,27.308328,84.531742,PM2.5,75,287,161
India,Andhra_Pradesh,Vijayawada,"HB Colony, Vijayawada - APPCB",03-03-2026 04:00:00,16.536107,80.594233,SO2,15,23,18
India,Andhra_Pradesh,Vijayawada,"Kanuru, Vijayawada - APPCB",03-03-2026 04:00:00,16.486692,80.699436,NH3,NA,NA,NA
India,Andhra_Pradesh,Vijayawada,"Kanuru, Vijayawada - APPCB",03-03-2026 04:00:00,16.486692,80.699436,SO2,NA,NA,NA
India,Andhra_Pradesh,Vijayawada,"Kanuru, Vijayawada - APPCB",03-03-2026 04:00:00,16.486692,80.699436,CO,NA,NA,NA
India,Andhra_Pradesh,Vijayawada,"Rajiv Gandhi Park, Vijayawada - APPCB",03-03-2026 04:00:00,16.509717,80.612222,NO2,27,41,32
India,Andhra_Pradesh,Vijayawada,"Rajiv Gandhi Park, Vijayawada - APPCB",03-03-2026 04:00:00,16.509717,80.612222,OZONE,8,43,13
India,Andhra_Pradesh,Visakhapatnam,"GVM Corporation, Visakhapatnam - APPCB",03-03-2026 04:00:00,17.72,83.3,NO2,47,157,103
India,Bihar,Patna,"Govt. High School Shikarpur, Patna - BSPCB",03-03-2026 04:00:00,25.592539,85.227158,NH3,4,5,5
India,Bihar,Patna,"IGSC Planetarium Complex, Patna - BSPCB",03-03-2026 04:00:00,25.610369,85.132568,PM2.5,33,260,117
India,Bihar,Patna,"Muradpur, Patna - BSPCB",03-03-2026 04:00:00,25.619651,85.147382,PM10,125,145,133
India,Bihar,Patna,"Muradpur, Patna - BSPCB",03-03-2026 04:00:00,25.619651,85.147382,OZONE,16,95,26
India,Bihar,Patna,"Rajbansi Nagar, Patna - BSPCB",03-03-2026 04:00:00,25.599486,85.113666,SO2,2,10,6
India,Bihar,Patna,"Samanpura, Patna - BSPCB",03-03-2026 04:00:00,25.596727,85.085624,OZONE,66,181,181
India,Bihar,Arrah,"New DM Office, Arrah - BSPCB",03-03-2026 04:00:00,25.5626095,84.663264,NH3,1,2,2
India,Bihar,Aurangabad,"Gurdeo Nagar, Aurangabad - BSPCB",03-03-2026 04:00:00,24.75746,84.366208,NH3,NA,NA,NA
India,Bihar,Aurangabad,"Gurdeo Nagar, Aurangabad - BSPCB",03-03-2026 04:00:00,24.75746,84.366208,OZONE,NA,NA,NA
India,Bihar,Bettiah,"Kamalnath Nagar, Bettiah - BSPCB",03-03-2026 04:00:00,26.80365,84.51954,SO2,4,44,27
India,Bihar,Bettiah,"Kamalnath Nagar, Bettiah - BSPCB",03-03-2026 04:00:00,26.80365,84.51954,OZONE,NA,NA,NA
India,Bihar,Bhagalpur,"Mayaganj, Bhagalpur - BSPCB",03-03-2026 04:00:00,25.265194,87.012947,PM2.5,8,38,20
India,Andhra_Pradesh,Amaravati,"Secretariat, Amaravati - APPCB",03-03-2026 04:00:00,16.5150833,80.5181667,PM2.5,55,96,70
India,Andhra_Pradesh,Amaravati,"Secretariat, Amaravati - APPCB",03-03-2026 04:00:00,16.5150833,80.5181667,PM10,86,137,109
India,Andhra_Pradesh,Amaravati,"Secretariat, Amaravati - APPCB",03-03-2026 04:00:00,16.5150833,80.5181667,NH3,3,5,4
India,Andhra_Pradesh,Anantapur,"Gulzarpet, Anantapur - APPCB",03-03-2026 04:00:00,14.675886,77.593027,PM2.5,57,75,65
India,Andhra_Pradesh,Anantapur,"Gulzarpet, Anantapur - APPCB",03-03-2026 04:00:00,14.675886,77.593027,NO2,19,25,23
India,Andhra_Pradesh,Kadapa,"Yerramukkapalli, Kadapa - APPCB",03-03-2026 04:00:00,14.465052,78.824187,SO2,13,17,16
India,Andhra_Pradesh,Kadapa,"Yerramukkapalli, Kadapa - APPCB",03-03-2026 04:00:00,14.465052,78.824187,OZONE,13,15,14
India,Andhra_Pradesh,Tirumala,"Toll Gate, Tirumala - APPCB",03-03-2026 04:00:00,13.67,79.35,PM10,76,133,98
India,Andhra_Pradesh,Tirupati,"Vaikuntapuram, Tirupati - APPCB",03-03-2026 04:00:00,13.615387,79.409230,PM10,NA,NA,NA
India,Bihar,Buxar,"Charitra Van, Buxar - BSPCB",03-03-2026 04:00:00,25.567520,83.966379,SO2,4,46,27
India,Bihar,Chhapra,"Darshan Nagar, Chhapra - BSPCB",03-03-2026 04:00:00,25.7808257,84.7446768,PM10,20,142,75
India,Bihar,Chhapra,"Darshan Nagar, Chhapra - BSPCB",03-03-2026 04:00:00,25.7808257,84.7446768,OZONE,3,19,11
India,Delhi,Delhi,"Lodhi Road, Delhi - IMD",03-03-2026 04:00:00,28.5918245,77.2273074,PM2.5,102,313,198
India,Delhi,Delhi,"Lodhi Road, Delhi - IMD",03-03-2026 04:00:00,28.5918245,77.2273074,PM10,124,239,165
India,Delhi,Delhi,"Lodhi Road, Delhi - IMD",03-03-2026 04:00:00,28.5918245,77.2273074,OZONE,12,129,18
India,Delhi,Delhi,"Major Dhyan Chand National Stadium, Delhi - DPCC",03-03-2026 04:00:00,28.611281,77.237738,OZONE,10,119,25
India,Delhi,Delhi,"Mandir Marg, Delhi - DPCC",03-03-2026 04:00:00,28.636429,77.201067,PM10,137,200,163
India,Delhi,Delhi,"Mandir Marg, Delhi - DPCC",03-03-2026 04:00:00,28.636429,77.201067,SO2,12,43,26
India,Delhi,Delhi,"NSIT Dwarka, Delhi - CPCB",03-03-2026 04:00:00,28.60909,77.0325413,PM10,119,249,165
India,Delhi,Delhi,"NSIT Dwarka, Delhi - CPCB",03-03-2026 04:00:00,28.60909,77.0325413,NO2,71,194,98
India,Delhi,Delhi,"NSIT Dwarka, Delhi - CPCB",03-03-2026 04:00:00,28.60909,77.0325413,CO,37,70,49
India,Delhi,Delhi,"NSUT Jaffarpur, Delhi - DPCC",03-03-2026 04:00:00,28.594004 ,76.909423 ,PM2.5,97,353,247
India,Chhattisgarh,Bhilai,"Civic Center, Bhilai - Bhilai Steel Plant",03-03-2026 04:00:00,21.185571,81.343175,CO,28,34,34
India,Chhattisgarh,Bhilai,"Hathkhoj, Bhilai - CECB",03-03-2026 04:00:00,21.224231,81.408350,PM2.5,12,81,35
India,Chhattisgarh,Bhilai,"Hathkhoj, Bhilai - CECB",03-03-2026 04:00:00,21.224231,81.408350,PM10,19,103,43
India,Chhattisgarh,Bhilai,"Hathkhoj, Bhilai - CECB",03-03-2026 04:00:00,21.224231,81.408350,CO,8,93,54
India,Chhattisgarh,Chhal,"Nawapara SECL Colony, Chhal - CECB",03-03-2026 04:00:00,22.118125,83.140608,NO2,7,32,14
India,Chhattisgarh,Chhal,"Nawapara SECL Colony, Chhal - CECB",03-03-2026 04:00:00,22.118125,83.140608,NH3,5,5,5
India,Chhattisgarh,Korba,"Urja Nagar, Korba - CECB",03-03-2026 04:00:00,22.348441,82.549611,PM10,NA,NA,NA
India,Chhattisgarh,Korba,"Urja Nagar, Korba - CECB",03-03-2026 04:00:00,22.348441,82.549611,SO2,4,18,9
India,Chhattisgarh,Kunjemura,"OP Jindal School, Kunjemura - CECB",03-03-2026 04:00:00,22.126650,83.483212,PM10,68,331,135
India,Delhi,Delhi,"Commonwealth Sports Complex, Delhi - DPCC",03-03-2026 04:00:00,28.615828 ,77.271992 ,SO2,NA,NA,NA
India,Delhi,Delhi,"Commonwealth Sports Complex, Delhi - DPCC",03-03-2026 04:00:00,28.615828 ,77.271992 ,CO,100,109,106
India,Delhi,Delhi,"Dr. Karni Singh Shooting Range, Delhi - DPCC",03-03-2026 04:00:00,28.498571,77.264840,NO2,4,77,29
India,Delhi,Delhi,"Dr. Karni Singh Shooting Range, Delhi - DPCC",03-03-2026 04:00:00,28.498571,77.264840,CO,40,94,74
India,Delhi,Delhi,"Dr. Karni Singh Shooting Range, Delhi - DPCC",03-03-2026 04:00:00,28.498571,77.264840,OZONE,10,157,31
India,Delhi,Delhi,"Dwarka-Sector 8, Delhi - DPCC ",03-03-2026 04:00:00,28.5710274,77.0719006,PM10,149,336,217
India,Delhi,Delhi,"IGNOU_Maidan Garhi, Delhi - DPCC",03-03-2026 04:00:00,28.493624 ,77.201159 ,PM2.5,79,390,234
India,Delhi,Delhi,"IGNOU_Maidan Garhi, Delhi - DPCC",03-03-2026 04:00:00,28.493624 ,77.201159 ,SO2,63,71,65
India,Delhi,Delhi,"IGNOU_Maidan Garhi, Delhi - DPCC",03-03-2026 04:00:00,28.493624 ,77.201159 ,CO,100,111,108
India,Chandigarh,Chandigarh,"Sector 22, Chandigarh - CPCC",03-03-2026 04:00:00,30.735567,76.775714,NO2,4,16,7
India,Chandigarh,Chandigarh,"Sector 22, Chandigarh - CPCC",03-03-2026 04:00:00,30.735567,76.775714,NH3,12,18,15
India,Chandigarh,Chandigarh,"Sector-53, Chandigarh - CPCC",03-03-2026 04:00:00,30.719859,76.738637,NH3,13,19,18
India,Chandigarh,Chandigarh,"Sector-53, Chandigarh - CPCC",03-03-2026 04:00:00,30.719859,76.738637,SO2,7,22,11
India,Chhattisgarh,Bhilai,"32Bungalows, Bhilai - CECB",03-03-2026 04:00:00,21.194815,81.314770,PM10,13,46,23
India,Chhattisgarh,Bhilai,"32Bungalows, Bhilai - CECB",03-03-2026 04:00:00,21.194815,81.314770,NO2,27,41,30
India,Chhattisgarh,Bhilai,"32Bungalows, Bhilai - CECB",03-03-2026 04:00:00,21.194815,81.314770,SO2,6,9,8
India,Chhattisgarh,Bhilai,"Civic Center, Bhilai - Bhilai Steel Plant",03-03-2026 04:00:00,21.185571,81.343175,NH3,3,3,3
India,Chhattisgarh,Bhilai,"Civic Center, Bhilai - Bhilai Steel Plant",03-03-2026 04:00:00,21.185571,81.343175,SO2,7,10,9
India,Delhi,Delhi,"IHBAS, Dilshad Garden, Delhi - CPCB",03-03-2026 04:00:00,28.6811736,77.3025234,SO2,12,28,18
India,Delhi,Delhi,"IIT Delhi, Delhi - IITM",03-03-2026 04:00:00,28.542460,77.191651,PM2.5,102,335,194
India,Delhi,Delhi,"IIT Delhi, Delhi - IITM",03-03-2026 04:00:00,28.542460,77.191651,NO2,12,96,43
India,Delhi,Delhi,"IIT Delhi, Delhi - IITM",03-03-2026 04:00:00,28.542460,77.191651,CO,34,104,82
India,Delhi,Delhi,"JNU, Delhi - DPCC",03-03-2026 04:00:00,28.540721 ,77.168544 ,PM2.5,82,328,205
India,Delhi,Delhi,"JNU, Delhi - DPCC",03-03-2026 04:00:00,28.540721 ,77.168544 ,PM10,121,210,161
India,Delhi,Delhi,"JNU, Delhi - DPCC",03-03-2026 04:00:00,28.540721 ,77.168544 ,SO2,19,22,20
India,Delhi,Delhi,"Jawaharlal Nehru Stadium, Delhi - DPCC",03-03-2026 04:00:00,28.580280,77.233829,PM10,141,277,180
India,Chhattisgarh,Kunjemura,"OP Jindal School, Kunjemura - CECB",03-03-2026 04:00:00,22.126650,83.483212,OZONE,1,54,5
India,Chhattisgarh,Milupara,"Govt. Higher Secondary School, Milupara - CECB",03-03-2026 04:00:00,22.1910172,83.5197009,PM2.5,NA,NA,NA
India,Chhattisgarh,Milupara,"Govt. Higher Secondary School, Milupara - CECB",03-03-2026 04:00:00,22.1910172,83.5197009,CO,13,50,43
India,Chhattisgarh,Raipur,"AIIMS, Raipur - CECB",03-03-2026 04:00:00,21.258815,81.578979,NO2,24,42,36
India,Chhattisgarh,Raipur,"Krishak Nagar, Raipur - CECB",03-03-2026 04:00:00,21.237755,81.705301,CO,15,70,42
India,Chhattisgarh,Raipur,"Siltara Phase-II, Raipur - CECB",03-03-2026 04:00:00,21.371751,81.664929,NH3,2,2,2
India,Delhi,Delhi,"Aya Nagar, Delhi - IMD",03-03-2026 04:00:00,28.4706914,77.1099364,OZONE,25,84,33
India,Delhi,Delhi,"Bawana, Delhi - DPCC",03-03-2026 04:00:00,28.776200,77.051074,NH3,6,11,8
India,Delhi,Delhi,"CRRI Mathura Road, Delhi - IMD",03-03-2026 04:00:00,28.5512005,77.2735737,OZONE,5,68,10
India,Delhi,Delhi,"Cantonment Area, Delhi - DPCC ",03-03-2026 04:00:00,28.594169 ,77.125100 ,CO,102,108,107
India,Delhi,Delhi,"Chandni Chowk, Delhi - IITM",03-03-2026 04:00:00,28.656756,77.227234,CO,19,107,97
India,Bihar,Purnia,"Mariam Nagar, Purnia - BSPCB",03-03-2026 04:00:00,25.366336,87.117468,OZONE,3,53,21
India,Bihar,Rajgir,"Dangi Tola, Rajgir - BSPCB",03-03-2026 04:00:00,25.03280,85.41948,PM2.5,35,63,46
India,Bihar,Saharsa,"Police Line, Saharsa - BSPCB",03-03-2026 04:00:00,25.892357,86.590325,NH3,4,4,4
India,Bihar,Siwan,"Chitragupta Nagar, Siwan - BSPCB",03-03-2026 04:00:00,26.2271665,84.3570427,NO2,2,2,2
India,Chhattisgarh,Raipur,"Siltara Phase-II, Raipur - CECB",03-03-2026 04:00:00,21.371751,81.664929,OZONE,2,24,3
India,Delhi,Delhi,"Alipur, Delhi - DPCC",03-03-2026 04:00:00,28.815329,77.153010,NH3,14,18,16
India,Delhi,Delhi,"Ashok Vihar, Delhi - DPCC",03-03-2026 04:00:00,28.695381,77.181665,PM10,129,259,178
India,Delhi,Delhi,"NSUT Jaffarpur, Delhi - DPCC",03-03-2026 04:00:00,28.594004 ,76.909423 ,NO2,4,67,34
India,Delhi,Delhi,"Najafgarh, Delhi - DPCC",03-03-2026 04:00:00,28.570173,76.933762,PM2.5,87,337,192
India,Delhi,Delhi,"Najafgarh, Delhi - DPCC",03-03-2026 04:00:00,28.570173,76.933762,NH3,11,12,11
India,Delhi,Delhi,"Najafgarh, Delhi - DPCC",03-03-2026 04:00:00,28.570173,76.933762,SO2,16,83,27
India,Delhi,Delhi,"Najafgarh, Delhi - DPCC",03-03-2026 04:00:00,28.570173,76.933762,CO,17,112,65
India,Delhi,Delhi,"Narela, Delhi - DPCC",03-03-2026 04:00:00,28.822836,77.101981,NH3,5,6,5
India,Delhi,Delhi,"Narela, Delhi - DPCC",03-03-2026 04:00:00,28.822836,77.101981,SO2,12,27,20
India,Delhi,Delhi,"Nehru Nagar, Delhi - DPCC",03-03-2026 04:00:00,28.567890,77.250515,NO2,24,78,48
India,Delhi,Delhi,"Nehru Nagar, Delhi - DPCC",03-03-2026 04:00:00,28.567890,77.250515,CO,78,151,111
India,Delhi,Delhi,"North Campus, DU, Delhi - IMD",03-03-2026 04:00:00,28.6573814,77.1585447,PM2.5,95,302,189
India,Delhi,Delhi,"North Campus, DU, Delhi - IMD",03-03-2026 04:00:00,28.6573814,77.1585447,CO,10,81,63
India,Delhi,Delhi,"North Campus, DU, Delhi - IMD",03-03-2026 04:00:00,28.6573814,77.1585447,OZONE,16,301,81
India,Delhi,Delhi,"Okhla Phase-2, Delhi - DPCC",03-03-2026 04:00:00,28.530785,77.271255,NO2,34,127,69
India,Delhi,Delhi,"Okhla Phase-2, Delhi - DPCC",03-03-2026 04:00:00,28.530785,77.271255,NH3,8,13,10
India,Gujarat,Vatva,"Phase-4 GIDC, Vatva - GPCB",03-03-2026 04:00:00,22.969611,72.643500,SO2,22,34,26
India,Haryana,Ambala,"Patti Mehar, Ambala - HSPCB",03-03-2026 04:00:00,30.379589,76.778328,PM10,59,86,73
India,Haryana,Ambala,"Patti Mehar, Ambala - HSPCB",03-03-2026 04:00:00,30.379589,76.778328,NO2,8,12,10
India,Haryana,Ambala,"Patti Mehar, Ambala - HSPCB",03-03-2026 04:00:00,30.379589,76.778328,NH3,7,8,8
India,Haryana,Ballabgarh,"Nathu Colony, Ballabgarh - HSPCB",03-03-2026 04:00:00,28.3419248,77.319699,PM10,250,420,342
India,Haryana,Bhiwani,"H.B. Colony, Bhiwani - HSPCB",03-03-2026 04:00:00,28.806223,76.141105,PM10,40,148,62
India,Haryana,Bhiwani,"H.B. Colony, Bhiwani - HSPCB",03-03-2026 04:00:00,28.806223,76.141105,NH3,2,4,3
India,Haryana,Bhiwani,"H.B. Colony, Bhiwani - HSPCB",03-03-2026 04:00:00,28.806223,76.141105,SO2,3,12,6
India,Haryana,Charkhi Dadri,"Mini Secretariat, Charkhi Dadri - HSPCB",03-03-2026 04:00:00,28.593883,76.270653,NH3,5,7,6
India,Gujarat,Ahmedabad,"Raikhad, Ahmedabad - IITM",03-03-2026 04:00:00,23.020509,72.579261,NO2,22,157,80
India,Gujarat,Ahmedabad,"Raikhad, Ahmedabad - IITM",03-03-2026 04:00:00,23.020509,72.579261,CO,3,93,93
India,Gujarat,Ahmedabad,"SAC ISRO Bopal, Ahmedabad - IITM",03-03-2026 04:00:00,23.041137,72.456691,PM2.5,66,325,157
India,Gujarat,Ahmedabad,"SAC ISRO Bopal, Ahmedabad - IITM",03-03-2026 04:00:00,23.041137,72.456691,NH3,7,17,11
India,Gujarat,Ahmedabad,"SAC ISRO Bopal, Ahmedabad - IITM",03-03-2026 04:00:00,23.041137,72.456691,CO,8,101,74
India,Gujarat,Ahmedabad,"SAC ISRO Satellite, Ahmedabad - IITM",03-03-2026 04:00:00,23.023389,72.515201,PM2.5,79,306,143
India,Gujarat,Ahmedabad,"SVPI Airport Hansol, Ahmedabad - IITM",03-03-2026 04:00:00,23.076793,72.627874,SO2,9,101,41
India,Gujarat,Ahmedabad,"SVPI Airport Hansol, Ahmedabad - IITM",03-03-2026 04:00:00,23.076793,72.627874,CO,23,131,117
India,Gujarat,Ankleshwar,"GIDC, Ankleshwar - GPCB",03-03-2026 04:00:00,21.613267,73.010555,NO2,13,18,17
India,Delhi,Delhi,"Shadipur, Delhi - CPCB",03-03-2026 04:00:00,28.6514781,77.1473105,PM2.5,183,315,263
India,Delhi,Delhi,"Shadipur, Delhi - CPCB",03-03-2026 04:00:00,28.6514781,77.1473105,NO2,53,72,63
India,Delhi,Delhi,"Sirifort, Delhi - CPCB",03-03-2026 04:00:00,28.5504249,77.2159377,PM10,148,312,200
India,Delhi,Delhi,"Sirifort, Delhi - CPCB",03-03-2026 04:00:00,28.5504249,77.2159377,CO,12,40,36
India,Delhi,Delhi,"Sonia Vihar, Delhi - DPCC",03-03-2026 04:00:00,28.710508,77.249485,PM10,133,221,170
India,Delhi,Delhi,"Sonia Vihar, Delhi - DPCC",03-03-2026 04:00:00,28.710508,77.249485,NH3,7,8,7
India,Delhi,Delhi,"Sri Aurobindo Marg, Delhi - DPCC",03-03-2026 04:00:00,28.531346,77.190156,NO2,12,70,38
India,Delhi,Delhi,"Patparganj, Delhi - DPCC",03-03-2026 04:00:00,28.623763,77.287209,OZONE,4,127,44
India,Delhi,Delhi,"Punjabi Bagh, Delhi - DPCC",03-03-2026 04:00:00,28.674045,77.131023,PM10,185,500,362
India,Delhi,Delhi,"Pusa, Delhi - DPCC",03-03-2026 04:00:00,28.639652,77.146275,NH3,8,22,17
India,Delhi,Delhi,"Pusa, Delhi - DPCC",03-03-2026 04:00:00,28.639652,77.146275,OZONE,6,138,37
India,Delhi,Delhi,"R K Puram, Delhi - DPCC",03-03-2026 04:00:00,28.563262,77.186937,PM10,133,266,186
India,Delhi,Delhi,"Rohini, Delhi - DPCC",03-03-2026 04:00:00,28.732528,77.119920,PM10,161,282,227
India,Delhi,Delhi,"Rohini, Delhi - DPCC",03-03-2026 04:00:00,28.732528,77.119920,NH3,8,14,11
India,Gujarat,Bhavnagar,"Vidhyanagar, Bhavnagar - Nexteng Enviro",03-03-2026 04:00:00,21.755417,72.139056,PM2.5,29,77,42
India,Gujarat,Gandhinagar,"IIPHG Lekawada, Gandhinagar - IITM",03-03-2026 04:00:00,23.243639,72.68994,PM2.5,10,300,112
India,Gujarat,Gandhinagar,"Sector-10, Gandhinagar - GPCB",03-03-2026 04:00:00,23.221714,72.654328,NH3,2,5,3
India,Gujarat,Gandhinagar,"Sector-10, Gandhinagar - GPCB",03-03-2026 04:00:00,23.221714,72.654328,SO2,6,27,15
India,Gujarat,Mehsana,"Sadanand Nagar, Mehsana - Nexteng Enviro",03-03-2026 04:00:00,23.593150,72.372792,NH3,1,4,2
India,Gujarat,Rajkot,"Mavdi, Rajkot - Nexteng Enviro ",03-03-2026 04:00:00,22.248853,70.776774,OZONE,7,27,12
India,Gujarat,Surat,"Katargam, Surat - Nexteng Enviro",03-03-2026 04:00:00,21.217779 ,72.834787 ,NH3,3,4,3
India,Gujarat,Vapi,"Phase-1 GIDC, Vapi - GPCB",03-03-2026 04:00:00,20.362421,72.918013,NO2,18,21,19
India,Gujarat,Vapi,"Phase-1 GIDC, Vapi - GPCB",03-03-2026 04:00:00,20.362421,72.918013,OZONE,4,24,11
India,Gujarat,Vatva,"Phase-4 GIDC, Vatva - GPCB",03-03-2026 04:00:00,22.969611,72.643500,NH3,7,18,12
India,Haryana,Charkhi Dadri,"Mini Secretariat, Charkhi Dadri - HSPCB",03-03-2026 04:00:00,28.593883,76.270653,OZONE,13,18,15
India,Haryana,Faridabad,"Sector 11, Faridabad - HSPCB",03-03-2026 04:00:00,28.376058,77.315741,PM10,105,451,286
India,Haryana,Faridabad,"Sector 11, Faridabad - HSPCB",03-03-2026 04:00:00,28.376058,77.315741,NO2,30,33,31
India,Haryana,Faridabad,"Sector 11, Faridabad - HSPCB",03-03-2026 04:00:00,28.376058,77.315741,SO2,1,3,3
India,Haryana,Fatehabad,"Huda Sector, Fatehabad - HSPCB",03-03-2026 04:00:00,29.503664,75.467934,NH3,13,15,14
India,Gujarat,Ahmedabad,"Chandkheda, Ahmedabad - IITM",03-03-2026 04:00:00,23.107969,72.574648,NH3,4,17,9
India,Gujarat,Ahmedabad,"Gyaspur, Ahmedabad - IITM",03-03-2026 04:00:00,22.977134,72.553024,OZONE,1,35,1
India,Gujarat,Ahmedabad,"Maninagar, Ahmedabad - GPCB",03-03-2026 04:00:00,23.002657,72.591912,PM10,85,305,135
India,Gujarat,Ahmedabad,"Raikhad, Ahmedabad - IITM",03-03-2026 04:00:00,23.020509,72.579261,PM10,123,224,162
India,Jharkhand,Dhanbad,"Sardar Patel Nagar, Dhanbad - JSPCB",03-03-2026 04:00:00,23.80569,86.44268,PM2.5,NA,NA,NA
India,Jharkhand,Dhanbad,"Sardar Patel Nagar, Dhanbad - JSPCB",03-03-2026 04:00:00,23.80569,86.44268,PM10,NA,NA,NA
India,Karnataka,Bengaluru,"BTM Layout, Bengaluru - CPCB",03-03-2026 04:00:00,12.9135218,77.5950804,OZONE,27,28,28
India,Karnataka,Bengaluru,"Bapuji Nagar, Bengaluru - KSPCB",03-03-2026 04:00:00,12.951913,77.539784,PM2.5,48,97,69
India,Karnataka,Bengaluru,"Bapuji Nagar, Bengaluru - KSPCB",03-03-2026 04:00:00,12.951913,77.539784,NH3,3,4,4
