country,state,city,station,last_update,latitude,longitude,pollutant_id,min_value,max_value,avg_value
India,Assam,Guwahati,"Railway Colony, Guwahati - PCBA",01-11-2025 07:00:00,26.181742,91.78063,CO,18,30,21
India,Assam,Nagaon,"Christianpatty, Nagaon - PCBA",01-11-2025 07:00:00,26.349082,92.68449,PM10,40,66,48
India,Assam,Nagaon,"Christianpatty, Nagaon - PCBA",01-11-2025 07:00:00,26.349082,92.68449,NO2,1,1,1
India,Assam,Nagaon,"Christianpatty, Nagaon - PCBA",01-11-2025 07:00:00,26.349082,92.68449,NH3,4,4,4
India,Assam,Nalbari,"Bata Chowk, Nalbari - PCBA",01-11-2025 07:00:00,26.446912,91.439057,NH3,5,12,8
India,Assam,Silchar,"Tarapur, Silchar - PCBA",01-11-2025 07:00:00,24.82827,92.79525,SO2,3,8,5
India,Assam,Silchar,"Tarapur, Silchar - PCBA",01-11-2025 07:00:00,24.82827,92.79525,CO,18,68,61
India,Assam,Silchar,"Tarapur, Silchar - PCBA",01-11-2025 07:00:00,24.82827,92.79525,OZONE,NA,NA,NA
India,Assam,Sivasagar,"Girls College, Sivasagar - PCBA",01-11-2025 07:00:00,26.987634,94.636574,PM10,19,42,29
India,Assam,Sivasagar,"Girls College, Sivasagar - PCBA",01-11-2025 07:00:00,26.987634,94.636574,NO2,21,29,25
India,Assam,Sivasagar,"Girls College, Sivasagar - PCBA",01-11-2025 07:00:00,26.987634,94.636574,OZONE,2,3,2
India,Bihar,Araria,"Kharahiya Basti, Araria - BSPCB",01-11-2025 07:00:00,26.146529,87.454184,PM10,5,66,27
India,Bihar,Bettiah,"Kamalnath Nagar, Bettiah - BSPCB",01-11-2025 07:00:00,26.80365,84.51954,SO2,10,22,14
India,Bihar,Bhagalpur,"DM Office_Kachari Chowk, Bhagalpur - BSPCB",01-11-2025 07:00:00,25.251013,86.989001,PM2.5,NA,NA,NA
India,Bihar,Bhagalpur,"DM Office_Kachari Chowk, Bhagalpur - BSPCB",01-11-2025 07:00:00,25.251013,86.989001,CO,NA,NA,NA
India,Bihar,Bhagalpur,"DM Office_Kachari Chowk, Bhagalpur - BSPCB",01-11-2025 07:00:00,25.251013,86.989001,OZONE,NA,NA,NA
India,Bihar,Bhagalpur,"Mayaganj, Bhagalpur - BSPCB",01-11-2025 07:00:00,25.265194,87.012947,PM2.5,NA,NA,NA
India,Bihar,Bihar Sharif,"D M Colony, Bihar Sharif - BSPCB",01-11-2025 07:00:00,25.204762,85.514960,PM2.5,10,40,23
India,Bihar,Buxar,"Charitra Van, Buxar - BSPCB",01-11-2025 07:00:00,25.567520,83.966379,PM10,NA,NA,NA
India,Bihar,Buxar,"Charitra Van, Buxar - BSPCB",01-11-2025 07:00:00,25.567520,83.966379,NO2,5,10,9
India,Bihar,Buxar,"Charitra Van, Buxar - BSPCB",01-11-2025 07:00:00,25.567520,83.966379,NH3,3,3,3
India,Bihar,Hajipur,"Industrial Area, Hajipur - BSPCB",01-11-2025 07:00:00,25.697189,85.245900,PM10,12,23,16
India,Bihar,Katihar,"Mirchaibari, Katihar - BSPCB",01-11-2025 07:00:00,25.560083,87.553265,PM10,NA,NA,NA
India,Bihar,Katihar,"Mirchaibari, Katihar - BSPCB",01-11-2025 07:00:00,25.560083,87.553265,NO2,7,21,14
India,Bihar,Katihar,"Mirchaibari, Katihar - BSPCB",01-11-2025 07:00:00,25.560083,87.553265,NH3,1,1,1
India,Bihar,Kishanganj,"SDM Office_Khagra, Kishanganj - BSPCB",01-11-2025 07:00:00,26.0881305,87.93840336,PM10,NA,NA,NA
India,Bihar,Kishanganj,"SDM Office_Khagra, Kishanganj - BSPCB",01-11-2025 07:00:00,26.0881305,87.93840336,SO2,NA,NA,NA
India,Bihar,Manguraha,"Forest Rest House, Manguraha - BSPCB",01-11-2025 07:00:00,27.308328,84.531742,NO2,4,6,5
India,Bihar,Manguraha,"Forest Rest House, Manguraha - BSPCB",01-11-2025 07:00:00,27.308328,84.531742,OZONE,4,15,10
India,Bihar,Motihari,"Gandak Colony, Motihari - BSPCB",01-11-2025 07:00:00,26.63086,84.90051,NH3,3,3,3
India,Bihar,Motihari,"Gandak Colony, Motihari - BSPCB",01-11-2025 07:00:00,26.63086,84.90051,CO,14,20,15
India,Bihar,Motihari,"Gandak Colony, Motihari - BSPCB",01-11-2025 07:00:00,26.63086,84.90051,OZONE,3,3,3
India,Bihar,Munger,"Town Hall, Munger - BSPCB",01-11-2025 07:00:00,25.376776,86.471523,CO,26,38,28
India,Bihar,Muzaffarpur,"Buddha Colony, Muzaffarpur - BSPCB",01-11-2025 07:00:00,26.11442,85.39813,NO2,9,20,13
India,Bihar,Muzaffarpur,"Buddha Colony, Muzaffarpur - BSPCB",01-11-2025 07:00:00,26.11442,85.39813,CO,16,30,18
India,Bihar,Muzaffarpur,"MIT-Daudpur Kothi, Muzaffarpur - BSPCB",01-11-2025 07:00:00,26.1403345,85.3650192,PM2.5,30,55,41
India,Andhra_Pradesh,Vijayawada,"HB Colony, Vijayawada - APPCB",01-11-2025 07:00:00,16.536107,80.594233,PM2.5,52,80,66
India,Andhra_Pradesh,Vijayawada,"HB Colony, Vijayawada - APPCB",01-11-2025 07:00:00,16.536107,80.594233,CO,16,38,36
India,Andhra_Pradesh,Vijayawada,"HB Colony, Vijayawada - APPCB",01-11-2025 07:00:00,16.536107,80.594233,OZONE,4,30,5
India,Andhra_Pradesh,Vijayawada,"Rajiv Gandhi Park, Vijayawada - APPCB",01-11-2025 07:00:00,16.509717,80.612222,CO,29,38,31
India,Andhra_Pradesh,Vijayawada,"Rajiv Nagar, Vijayawada - APPCB",01-11-2025 07:00:00,16.554731,80.649110,NO2,NA,NA,NA
India,Andhra_Pradesh,Visakhapatnam,"GVM Corporation, Visakhapatnam - APPCB",01-11-2025 07:00:00,17.72,83.3,PM10,90,181,123
India,Andhra_Pradesh,Chittoor,"Gangineni Cheruvu, Chittoor - APPCB",01-11-2025 07:00:00,13.204880,79.097889,NO2,15,23,20
India,Andhra_Pradesh,Chittoor,"Gangineni Cheruvu, Chittoor - APPCB",01-11-2025 07:00:00,13.204880,79.097889,CO,10,38,26
India,Andhra_Pradesh,Rajamahendravaram,"Anand Kala Kshetram, Rajamahendravaram - APPCB",01-11-2025 07:00:00,16.9872867,81.7363176,NO2,NA,NA,NA
India,Andhra_Pradesh,Rajamahendravaram,"Anand Kala Kshetram, Rajamahendravaram - APPCB",01-11-2025 07:00:00,16.9872867,81.7363176,OZONE,NA,NA,NA
India,Andhra_Pradesh,Tirumala,"Toll Gate, Tirumala - APPCB",01-11-2025 07:00:00,13.67,79.35,SO2,5,7,6
India,Bihar,Araria,"Kharahiya Basti, Araria - BSPCB",01-11-2025 07:00:00,26.146529,87.454184,CO,25,34,29
India,Bihar,Aurangabad,"Gurdeo Nagar, Aurangabad - BSPCB",01-11-2025 07:00:00,24.75746,84.366208,PM2.5,7,23,16
India,Bihar,Begusarai,"Lohiyanagar, Begusarai - BSPCB",01-11-2025 07:00:00,25.42742023,86.13886079,SO2,20,81,51
India,Assam,Guwahati,"IITG, Guwahati - PCBA",01-11-2025 07:00:00,26.2028636,91.70046436,PM2.5,4,500,41
India,Assam,Guwahati,"IITG, Guwahati - PCBA",01-11-2025 07:00:00,26.2028636,91.70046436,NO2,1,2,1
India,Assam,Guwahati,"IITG, Guwahati - PCBA",01-11-2025 07:00:00,26.2028636,91.70046436,NH3,5,5,5
India,Assam,Guwahati,"LGBI Airport, Guwahati - PCBA",01-11-2025 07:00:00,26.10887,91.589544,PM2.5,132,171,146
India,Bihar,Chhapra,"Darshan Nagar, Chhapra - BSPCB",01-11-2025 07:00:00,25.7808257,84.7446768,NO2,1,2,2
India,Bihar,Gaya,"SFTI Kusdihra, Gaya - BSPCB",01-11-2025 07:00:00,24.762518,84.982348,PM2.5,2,18,10
India,Andhra_Pradesh,Amaravati,"Secretariat, Amaravati - APPCB",01-11-2025 07:00:00,16.5150833,80.5181667,PM2.5,30,65,43
India,Andhra_Pradesh,Amaravati,"Secretariat, Amaravati - APPCB",01-11-2025 07:00:00,16.5150833,80.5181667,NO2,15,61,30
India,Andhra_Pradesh,Amaravati,"Secretariat, Amaravati - APPCB",01-11-2025 07:00:00,16.5150833,80.5181667,OZONE,1,20,1
India,Chhattisgarh,Bhilai,"32Bungalows, Bhilai - CECB",01-11-2025 07:00:00,21.194815,81.314770,CO,10,18,14
India,Chhattisgarh,Bhilai,"Civic Center, Bhilai - Bhilai Steel Plant",01-11-2025 07:00:00,21.185571,81.343175,PM2.5,3,41,14
India,Chhattisgarh,Bhilai,"Hathkhoj, Bhilai - CECB",01-11-2025 07:00:00,21.224231,81.408350,PM2.5,11,26,20
India,Chhattisgarh,Bhilai,"Hathkhoj, Bhilai - CECB",01-11-2025 07:00:00,21.224231,81.408350,NH3,2,4,3
India,Chhattisgarh,Bhilai,"Hathkhoj, Bhilai - CECB",01-11-2025 07:00:00,21.224231,81.408350,SO2,8,11,9
India,Chhattisgarh,Bilaspur,"Mangala, Bilaspur - NTPC",01-11-2025 07:00:00,22.08815,82.13737,PM2.5,NA,NA,NA
India,Chhattisgarh,Bilaspur,"Mangala, Bilaspur - NTPC",01-11-2025 07:00:00,22.08815,82.13737,NO2,16,20,17
India,Chhattisgarh,Bilaspur,"Mangala, Bilaspur - NTPC",01-11-2025 07:00:00,22.08815,82.13737,SO2,9,12,10
India,Chhattisgarh,Chhal,"Nawapara SECL Colony, Chhal - CECB",01-11-2025 07:00:00,22.118125,83.140608,NO2,3,13,6
India,Chhattisgarh,Raipur,"AIIMS, Raipur - CECB",01-11-2025 07:00:00,21.258815,81.578979,NO2,NA,NA,NA
India,Chhattisgarh,Raipur,"Bhatagaon New ISBT, Raipur - CECB",01-11-2025 07:00:00,21.219665,81.630094,PM10,NA,NA,NA
India,Chhattisgarh,Raipur,"Bhatagaon New ISBT, Raipur - CECB",01-11-2025 07:00:00,21.219665,81.630094,NO2,NA,NA,NA
India,Chhattisgarh,Raipur,"Bhatagaon New ISBT, Raipur - CECB",01-11-2025 07:00:00,21.219665,81.630094,SO2,NA,NA,NA
India,Chhattisgarh,Raipur,"Krishak Nagar, Raipur - CECB",01-11-2025 07:00:00,21.237755,81.705301,NH3,2,2,2
India,Chhattisgarh,Raipur,"Siltara Phase-II, Raipur - CECB",01-11-2025 07:00:00,21.371751,81.664929,SO2,3,15,8
India,Chhattisgarh,Tumidih,"OP Jindal Industrial Park, Tumidih - CECB",01-11-2025 07:00:00,22.06631475,83.33820077,PM2.5,6,76,42
India,Chhattisgarh,Tumidih,"OP Jindal Industrial Park, Tumidih - CECB",01-11-2025 07:00:00,22.06631475,83.33820077,PM10,10,115,56
India,Chhattisgarh,Tumidih,"OP Jindal Industrial Park, Tumidih - CECB",01-11-2025 07:00:00,22.06631475,83.33820077,NH3,1,2,2
India,Delhi,Delhi,"Bawana, Delhi - DPCC",01-11-2025 07:00:00,28.776200,77.051074,NH3,7,10,9
India,Delhi,Delhi,"Bawana, Delhi - DPCC",01-11-2025 07:00:00,28.776200,77.051074,OZONE,4,94,6
India,Delhi,Delhi,"Burari Crossing, Delhi - IMD",01-11-2025 07:00:00,28.7256504,77.2011573,PM2.5,109,346,255
India,Delhi,Delhi,"Burari Crossing, Delhi - IMD",01-11-2025 07:00:00,28.7256504,77.2011573,NO2,7,42,18
India,Delhi,Delhi,"Burari Crossing, Delhi - IMD",01-11-2025 07:00:00,28.7256504,77.2011573,OZONE,11,184,12
India,Delhi,Delhi,"CRRI Mathura Road, Delhi - IMD",01-11-2025 07:00:00,28.5512005,77.2735737,PM10,94,229,162
India,Delhi,Delhi,"CRRI Mathura Road, Delhi - IMD",01-11-2025 07:00:00,28.5512005,77.2735737,OZONE,6,134,10
India,Delhi,Delhi,"Chandni Chowk, Delhi - IITM",01-11-2025 07:00:00,28.656756,77.227234,NH3,8,10,9
India,Delhi,Delhi,"DTU, Delhi - CPCB",01-11-2025 07:00:00,28.7500499,77.1112615,OZONE,13,22,19
India,Bihar,Saharsa,"Police Line, Saharsa - BSPCB",01-11-2025 07:00:00,25.892357,86.590325,PM2.5,NA,NA,NA
India,Bihar,Samastipur,"DM Office_Kasipur, Samastipur - BSPCB",01-11-2025 07:00:00,25.859655,85.77944,PM2.5,NA,NA,NA
India,Bihar,Sasaram,"Dada Peer, Sasaram - BSPCB",01-11-2025 07:00:00,24.952822,84.002396,PM10,3,84,16
India,Bihar,Sasaram,"Dada Peer, Sasaram - BSPCB",01-11-2025 07:00:00,24.952822,84.002396,NO2,1,4,2
India,Bihar,Siwan,"Chitragupta Nagar, Siwan - BSPCB",01-11-2025 07:00:00,26.2271665,84.3570427,PM2.5,NA,NA,NA
India,Bihar,Siwan,"Chitragupta Nagar, Siwan - BSPCB",01-11-2025 07:00:00,26.2271665,84.3570427,SO2,NA,NA,NA
India,Chandigarh,Chandigarh,"Sector 22, Chandigarh - CPCC",01-11-2025 07:00:00,30.735567,76.775714,PM2.5,98,316,230
India,Bihar,Patna,"Rajbansi Nagar, Patna - BSPCB",01-11-2025 07:00:00,25.599486,85.113666,NO2,13,37,20
India,Bihar,Patna,"Rajbansi Nagar, Patna - BSPCB",01-11-2025 07:00:00,25.599486,85.113666,SO2,8,9,9
India,Bihar,Patna,"Samanpura, Patna - BSPCB",01-11-2025 07:00:00,25.596727,85.085624,PM2.5,29,44,35
India,Bihar,Patna,"Samanpura, Patna - BSPCB",01-11-2025 07:00:00,25.596727,85.085624,SO2,1,2,1
India,Bihar,Purnia,"Mariam Nagar, Purnia - BSPCB",01-11-2025 07:00:00,25.366336,87.117468,NH3,3,3,3
India,Bihar,Rajgir,"Dangi Tola, Rajgir - BSPCB",01-11-2025 07:00:00,25.03280,85.41948,NO2,8,10,9
India,Bihar,Rajgir,"Dangi Tola, Rajgir - BSPCB",01-11-2025 07:00:00,25.03280,85.41948,NH3,6,7,6
India,Bihar,Muzaffarpur,"Muzaffarpur Collectorate, Muzaffarpur - BSPCB",01-11-2025 07:00:00,26.1209,85.3647,CO,10,38,34
India,Bihar,Patna,"DRM Office Danapur, Patna - BSPCB",01-11-2025 07:00:00,25.586562,85.043586,PM2.5,NA,NA,NA
India,Bihar,Patna,"DRM Office Danapur, Patna - BSPCB",01-11-2025 07:00:00,25.586562,85.043586,PM10,NA,NA,NA
India,Bihar,Patna,"DRM Office Danapur, Patna - BSPCB",01-11-2025 07:00:00,25.586562,85.043586,OZONE,7,12,8
India,Bihar,Patna,"IGSC Planetarium Complex, Patna - BSPCB",01-11-2025 07:00:00,25.610369,85.132568,NO2,NA,NA,NA
India,Bihar,Patna,"Muradpur, Patna - BSPCB",01-11-2025 07:00:00,25.619651,85.147382,OZONE,5,40,6
India,Chhattisgarh,Tumidih,"OP Jindal Industrial Park, Tumidih - CECB",01-11-2025 07:00:00,22.06631475,83.33820077,CO,18,70,22
India,Chhattisgarh,Tumidih,"OP Jindal Industrial Park, Tumidih - CECB",01-11-2025 07:00:00,22.06631475,83.33820077,OZONE,7,26,10
India,Delhi,Delhi,"Alipur, Delhi - DPCC",01-11-2025 07:00:00,28.815329,77.153010,CO,46,119,98
India,Delhi,Delhi,"Ashok Vihar, Delhi - DPCC",01-11-2025 07:00:00,28.695381,77.181665,OZONE,1,106,2
India,Delhi,Delhi,"Aya Nagar, Delhi - IMD",01-11-2025 07:00:00,28.4706914,77.1099364,NO2,18,63,35
India,Chhattisgarh,Korba,"Rampur, Korba - CECB",01-11-2025 07:00:00,22.368195,82.746431,NO2,5,11,8
India,Chhattisgarh,Korba,"Urja Nagar, Korba - CECB",01-11-2025 07:00:00,22.348441,82.549611,NO2,24,40,30
India,Chhattisgarh,Kunjemura,"OP Jindal School, Kunjemura - CECB",01-11-2025 07:00:00,22.126650,83.483212,PM2.5,2,9,5
India,Chhattisgarh,Kunjemura,"OP Jindal School, Kunjemura - CECB",01-11-2025 07:00:00,22.126650,83.483212,SO2,3,10,6
India,Chhattisgarh,Kunjemura,"OP Jindal School, Kunjemura - CECB",01-11-2025 07:00:00,22.126650,83.483212,CO,4,17,12
India,Chandigarh,Chandigarh,"Sector-25, Chandigarh - CPCC",01-11-2025 07:00:00,30.751462,76.762879,OZONE,1,48,3
India,Chandigarh,Chandigarh,"Sector-53, Chandigarh - CPCC",01-11-2025 07:00:00,30.719859,76.738637,PM10,77,212,131
India,Delhi,Delhi,"Lodhi Road, Delhi - IMD",01-11-2025 07:00:00,28.5918245,77.2273074,NO2,13,53,23
India,Delhi,Delhi,"Major Dhyan Chand National Stadium, Delhi - DPCC",01-11-2025 07:00:00,28.611281,77.237738,SO2,9,34,20
India,Delhi,Delhi,"Mandir Marg, Delhi - DPCC",01-11-2025 07:00:00,28.636429,77.201067,NO2,7,17,12
India,Delhi,Delhi,"Mandir Marg, Delhi - DPCC",01-11-2025 07:00:00,28.636429,77.201067,CO,28,74,46
India,Delhi,Delhi,"Mundka, Delhi - DPCC",01-11-2025 07:00:00,28.684678,77.076574,CO,32,84,62
India,Delhi,Delhi,"NSIT Dwarka, Delhi - CPCB",01-11-2025 07:00:00,28.60909,77.0325413,PM2.5,90,406,213
India,Delhi,Delhi,"NSIT Dwarka, Delhi - CPCB",01-11-2025 07:00:00,28.60909,77.0325413,PM10,178,214,193
India,Delhi,Delhi,"NSIT Dwarka, Delhi - CPCB",01-11-2025 07:00:00,28.60909,77.0325413,NH3,8,15,12
India,Delhi,Delhi,"NSIT Dwarka, Delhi - CPCB",01-11-2025 07:00:00,28.60909,77.0325413,CO,23,66,34
India,Delhi,Delhi,"NSIT Dwarka, Delhi - CPCB",01-11-2025 07:00:00,28.60909,77.0325413,OZONE,8,80,21
India,Delhi,Delhi,"Najafgarh, Delhi - DPCC",01-11-2025 07:00:00,28.570173,76.933762,NO2,88,122,106
India,Delhi,Delhi,"Najafgarh, Delhi - DPCC",01-11-2025 07:00:00,28.570173,76.933762,NH3,4,4,4
India,Delhi,Delhi,"Najafgarh, Delhi - DPCC",01-11-2025 07:00:00,28.570173,76.933762,CO,38,66,58
India,Delhi,Delhi,"Nehru Nagar, Delhi - DPCC",01-11-2025 07:00:00,28.567890,77.250515,SO2,2,20,12
India,Delhi,Delhi,"North Campus, DU, Delhi - IMD",01-11-2025 07:00:00,28.6573814,77.1585447,PM10,93,206,153
India,Delhi,Delhi,"North Campus, DU, Delhi - IMD",01-11-2025 07:00:00,28.6573814,77.1585447,CO,10,157,104
India,Delhi,Delhi,"ITO, Delhi - CPCB",01-11-2025 07:00:00,28.628624,77.241060,NO2,6,97,41
India,Delhi,Delhi,"ITO, Delhi - CPCB",01-11-2025 07:00:00,28.628624,77.241060,NH3,1,4,2
India,Delhi,Delhi,"Jahangirpuri, Delhi - DPCC",01-11-2025 07:00:00,28.732820,77.170633,PM2.5,180,363,293
India,Delhi,Delhi,"Jahangirpuri, Delhi - DPCC",01-11-2025 07:00:00,28.732820,77.170633,SO2,5,52,17
India,Delhi,Delhi,"Jawaharlal Nehru Stadium, Delhi - DPCC",01-11-2025 07:00:00,28.580280,77.233829,PM2.5,92,349,246
India,Delhi,Delhi,"Jawaharlal Nehru Stadium, Delhi - DPCC",01-11-2025 07:00:00,28.580280,77.233829,CO,44,125,103
India,Delhi,Delhi,"Lodhi Road, Delhi - IMD",01-11-2025 07:00:00,28.5918245,77.2273074,PM2.5,70,313,180
India,Delhi,Delhi,"Pusa, Delhi - IMD",01-11-2025 07:00:00,28.636110,77.173332,NO2,15,102,53
India,Delhi,Delhi,"Rohini, Delhi - DPCC",01-11-2025 07:00:00,28.732528,77.119920,NH3,11,16,13
India,Delhi,Delhi,"Shadipur, Delhi - CPCB",01-11-2025 07:00:00,28.6514781,77.1473105,PM10,120,290,208
India,Delhi,Delhi,"Shadipur, Delhi - CPCB",01-11-2025 07:00:00,28.6514781,77.1473105,CO,34,112,69
India,Delhi,Delhi,"Sirifort, Delhi - CPCB",01-11-2025 07:00:00,28.5504249,77.2159377,PM10,116,336,192
India,Delhi,Delhi,"Sirifort, Delhi - CPCB",01-11-2025 07:00:00,28.5504249,77.2159377,CO,14,114,88
India,Delhi,Delhi,"Okhla Phase-2, Delhi - DPCC",01-11-2025 07:00:00,28.530785,77.271255,CO,76,114,101
India,Delhi,Delhi,"Patparganj, Delhi - DPCC",01-11-2025 07:00:00,28.623763,77.287209,SO2,8,11,9
India,Delhi,Delhi,"Punjabi Bagh, Delhi - DPCC",01-11-2025 07:00:00,28.674045,77.131023,NO2,38,57,45
India,Delhi,Delhi,"Punjabi Bagh, Delhi - DPCC",01-11-2025 07:00:00,28.674045,77.131023,NH3,3,4,3
India,Delhi,Delhi,"Pusa, Delhi - IMD",01-11-2025 07:00:00,28.636110,77.173332,PM2.5,73,286,189
India,Gujarat,Ahmedabad,"Rakhial, Ahmedabad - IITM",01-11-2025 07:00:00,23.016834,72.625775,NO2,14,46,24
India,Gujarat,Ahmedabad,"Rakhial, Ahmedabad - IITM",01-11-2025 07:00:00,23.016834,72.625775,NH3,7,10,8
India,Gujarat,Ahmedabad,"SAC ISRO Satellite, Ahmedabad - IITM",01-11-2025 07:00:00,23.023389,72.515201,NO2,10,32,18
India,Gujarat,Ahmedabad,"SAC ISRO Satellite, Ahmedabad - IITM",01-11-2025 07:00:00,23.023389,72.515201,NH3,3,4,3
India,Gujarat,Ahmedabad,"SVPI Airport Hansol, Ahmedabad - IITM",01-11-2025 07:00:00,23.076793,72.627874,PM2.5,13,23,16
India,Gujarat,Ahmedabad,"Chandkheda, Ahmedabad - IITM",01-11-2025 07:00:00,23.107969,72.574648,NO2,7,31,15
India,Gujarat,Ahmedabad,"Chandkheda, Ahmedabad - IITM",01-11-2025 07:00:00,23.107969,72.574648,OZONE,6,23,10
India,Gujarat,Ahmedabad,"Gyaspur, Ahmedabad - IITM",01-11-2025 07:00:00,22.977134,72.553024,NO2,32,71,46
India,Gujarat,Ahmedabad,"Raikhad, Ahmedabad - IITM",01-11-2025 07:00:00,23.020509,72.579261,OZONE,3,19,6
India,Delhi,Delhi,"Dr. Karni Singh Shooting Range, Delhi - DPCC",01-11-2025 07:00:00,28.498571,77.264840,NH3,11,14,12
India,Delhi,Delhi,"Dwarka-Sector 8, Delhi - DPCC ",01-11-2025 07:00:00,28.5710274,77.0719006,PM10,123,395,200
India,Delhi,Delhi,"Dwarka-Sector 8, Delhi - DPCC ",01-11-2025 07:00:00,28.5710274,77.0719006,NO2,46,141,87
India,Delhi,Delhi,"Sonia Vihar, Delhi - DPCC",01-11-2025 07:00:00,28.710508,77.249485,NO2,25,67,42
India,Delhi,Delhi,"Vivek Vihar, Delhi - DPCC",01-11-2025 07:00:00,28.672342,77.315260,NO2,28,125,66
India,Delhi,Delhi,"Wazirpur, Delhi - DPCC",01-11-2025 07:00:00,28.699793,77.165453,PM2.5,213,397,325
India,Himachal Pradesh,Baddi,"HIMUDA Complex Phase-1, Baddi - HPPCB",01-11-2025 07:00:00,30.943887,76.801991,NH3,4,6,5
India,Jammu_and_Kashmir,Srinagar,"Rajbagh, Srinagar - JKSPCB",01-11-2025 07:00:00,34.066206,74.819820,PM2.5,NA,NA,NA
India,Jharkhand,Dhanbad,"Sardar Patel Nagar, Dhanbad - JSPCB",01-11-2025 07:00:00,23.80569,86.44268,PM2.5,NA,NA,NA
India,Jharkhand,Dhanbad,"Sardar Patel Nagar, Dhanbad - JSPCB",01-11-2025 07:00:00,23.80569,86.44268,NO2,93,132,102
India,Jharkhand,Jorapokhar,"Tata Stadium, Jorapokhar - JSPCB",01-11-2025 07:00:00,23.707909,86.414670,OZONE,NA,NA,NA
India,Karnataka,Belgaum,"Ramteerth Nagar, Belgaum - KSPCB",01-11-2025 07:00:00,15.888653,74.541751,NH3,NA,NA,NA
India,Karnataka,Belgaum,"Ramteerth Nagar, Belgaum - KSPCB",01-11-2025 07:00:00,15.888653,74.541751,OZONE,NA,NA,NA
India,Gujarat,Surat,"Science Center, Surat - SMC",01-11-2025 07:00:00,21.170046,72.795405,CO,35,40,36
India,Gujarat,Vapi,"Phase-1 GIDC, Vapi - GPCB",01-11-2025 07:00:00,20.362421,72.918013,PM10,17,129,54
India,Gujarat,Vatva,"Phase-4 GIDC, Vatva - GPCB",01-11-2025 07:00:00,22.969611,72.643500,CO,10,15,12
India,Haryana,Ambala,"Patti Mehar, Ambala - HSPCB",01-11-2025 07:00:00,30.379589,76.778328,PM2.5,NA,NA,NA
India,Haryana,Ambala,"Patti Mehar, Ambala - HSPCB",01-11-2025 07:00:00,30.379589,76.778328,NH3,NA,NA,NA
India,Haryana,Ambala,"Patti Mehar, Ambala - HSPCB",01-11-2025 07:00:00,30.379589,76.778328,CO,101,106,103
India,Haryana,Bahadurgarh,"Arya Nagar, Bahadurgarh - HSPCB",01-11-2025 07:00:00,28.6701,76.9254,SO2,7,7,7
India,Haryana,Narnaul,"Shastri Nagar, Narnaul - HSPCB",01-11-2025 07:00:00,28.060249,76.113115,CO,34,49,45
India,Haryana,Palwal,"Shyam Nagar, Palwal - HSPCB",01-11-2025 07:00:00,28.1485564,77.3320667,PM10,95,98,96
India,Haryana,Panchgaon,"Amity University, Panchgaon - IITM",01-11-2025 07:00:00,28.3153,76.9143,SO2,6,10,8
India,Haryana,Panchgaon,"Amity University, Panchgaon - IITM",01-11-2025 07:00:00,28.3153,76.9143,CO,45,72,66
India,Haryana,Panipat,"Sector-18, Panipat - HSPCB",01-11-2025 07:00:00,29.432304,76.972765,PM2.5,141,500,294
India,Haryana,Panipat,"Sector-18, Panipat - HSPCB",01-11-2025 07:00:00,29.432304,76.972765,NH3,2,3,2
India,Haryana,Panipat,"Sector-18, Panipat - HSPCB",01-11-2025 07:00:00,29.432304,76.972765,SO2,7,9,8
India,Haryana,Faridabad,"Sector 11, Faridabad - HSPCB",01-11-2025 07:00:00,28.376058,77.315741,CO,18,94,34
India,Haryana,Fatehabad,"Huda Sector, Fatehabad - HSPCB",01-11-2025 07:00:00,29.503664,75.467934,NO2,17,20,19
India,Haryana,Gurugram,"NISE Gwal Pahari, Gurugram - IMD",01-11-2025 07:00:00,28.422681,77.148944,PM2.5,13,149,86
India,Haryana,Gurugram,"NISE Gwal Pahari, Gurugram - IMD",01-11-2025 07:00:00,28.422681,77.148944,OZONE,3,74,4
India,Haryana,Gurugram,"Sector-51, Gurugram - HSPCB",01-11-2025 07:00:00,28.4227,77.0667,PM10,123,500,276
India,Haryana,Gurugram,"Sector-51, Gurugram - HSPCB",01-11-2025 07:00:00,28.4227,77.0667,NO2,8,18,11
India,Haryana,Gurugram,"Sector-51, Gurugram - HSPCB",01-11-2025 07:00:00,28.4227,77.0667,OZONE,7,14,11
India,Gujarat,Ankleshwar,"GIDC, Ankleshwar - GPCB",01-11-2025 07:00:00,21.613267,73.010555,NO2,16,25,18
India,Gujarat,Gandhinagar,"GIFT City, Gandhinagar - IITM",01-11-2025 07:00:00,23.163798,72.677768,CO,16,56,26
India,Gujarat,Gandhinagar,"GIFT City, Gandhinagar - IITM",01-11-2025 07:00:00,23.163798,72.677768,OZONE,9,25,12
India,Gujarat,Gandhinagar,"IIPHG Lekawada, Gandhinagar - IITM",01-11-2025 07:00:00,23.243639,72.68994,PM10,11,36,23
India,Gujarat,Gandhinagar,"Sector-10, Gandhinagar - GPCB",01-11-2025 07:00:00,23.221714,72.654328,PM2.5,10,31,19
India,Gujarat,Surat,"Science Center, Surat - SMC",01-11-2025 07:00:00,21.170046,72.795405,PM10,15,136,63
India,Haryana,Ballabgarh,"Nathu Colony, Ballabgarh - HSPCB",01-11-2025 07:00:00,28.3419248,77.319699,NO2,19,21,20
India,Haryana,Ballabgarh,"Nathu Colony, Ballabgarh - HSPCB",01-11-2025 07:00:00,28.3419248,77.319699,OZONE,15,15,15
India,Haryana,Bhiwani,"H.B. Colony, Bhiwani - HSPCB",01-11-2025 07:00:00,28.806223,76.141105,PM2.5,16,500,135
India,Haryana,Bhiwani,"H.B. Colony, Bhiwani - HSPCB",01-11-2025 07:00:00,28.806223,76.141105,PM10,14,468,91
India,Haryana,Charkhi Dadri,"Mini Secretariat, Charkhi Dadri - HSPCB",01-11-2025 07:00:00,28.593883,76.270653,NH3,5,8,6
India,Haryana,Faridabad,"Sector 11, Faridabad - HSPCB",01-11-2025 07:00:00,28.376058,77.315741,PM2.5,107,224,156
India,Haryana,Gurugram,"Vikas Sadan, Gurugram - HSPCB",01-11-2025 07:00:00,28.4501238,77.0263051,PM10,NA,NA,NA
India,Haryana,Gurugram,"Vikas Sadan, Gurugram - HSPCB",01-11-2025 07:00:00,28.4501238,77.0263051,SO2,2,8,5
India,Haryana,Hisar,"Urban Estate-II, Hisar - HSPCB",01-11-2025 07:00:00,29.140560,75.744941,NO2,11,12,12
India,Haryana,Jind,"Police Lines, Jind - HSPCB",01-11-2025 07:00:00,29.307814,76.337619,PM10,109,402,180
India,Haryana,Jind,"Police Lines, Jind - HSPCB",01-11-2025 07:00:00,29.307814,76.337619,NO2,11,14,13
India,Haryana,Kaithal,"Rishi Nagar, Kaithal - HSPCB",01-11-2025 07:00:00,29.8006,76.4155,NO2,25,33,31
India,Haryana,Sonipat,"Murthal, Sonipat - HSPCB",01-11-2025 07:00:00,29.027200,77.062100,PM2.5,172,404,285
India,Haryana,Yamuna Nagar,"Gobind Pura, Yamuna Nagar - HSPCB",01-11-2025 07:00:00,30.1480566,77.2893471,SO2,10,15,12
India,Haryana,Mandikhera,"General Hospital, Mandikhera - HSPCB",01-11-2025 07:00:00,27.9002,76.9938,SO2,32,37,34
India,Haryana,Mandikhera,"General Hospital, Mandikhera - HSPCB",01-11-2025 07:00:00,27.9002,76.9938,CO,67,78,71
India,Karnataka,Koppal,"Diwator Nagar, Koppal - KSPCB",01-11-2025 07:00:00,15.347630,76.181767,OZONE,15,24,17
India,Karnataka,Madikeri,"Stuart Hill, Madikeri - KSPCB",01-11-2025 07:00:00,12.415911,75.735050,PM2.5,NA,NA,NA
India,Karnataka,Mangalore,"Kadri, Mangalore - KSPCB",01-11-2025 07:00:00,12.889250,74.853000,PM2.5,42,84,57
India,Karnataka,Mysuru,"Hebbal 1st Stage, Mysuru - KSPCB",01-11-2025 07:00:00,12.21041,76.37376,PM2.5,12,33,24
India,Karnataka,Mysuru,"Hebbal 1st Stage, Mysuru - KSPCB",01-11-2025 07:00:00,12.21041,76.37376,SO2,1,43,11
India,Karnataka,Ramanagara,"Vijay Nagar, Ramanagara - KSPCB",01-11-2025 07:00:00,12.733409,77.298051,PM10,22,79,46
India,Karnataka,Shivamogga,"Vinoba Nagara, Shivamogga - KSPCB",01-11-2025 07:00:00,13.940000,75.555917,PM10,30,41,39
India,Karnataka,Shivamogga,"Vinoba Nagara, Shivamogga - KSPCB",01-11-2025 07:00:00,13.940000,75.555917,NH3,3,4,3
India,Karnataka,Bengaluru,"Sanegurava Halli, Bengaluru - KSPCB",01-11-2025 07:00:00,12.990328,77.5431385,NO2,20,21,20
India,Karnataka,Bengaluru,"Sanegurava Halli, Bengaluru - KSPCB",01-11-2025 07:00:00,12.990328,77.5431385,SO2,7,7,7
India,Karnataka,Bengaluru,"Sanegurava Halli, Bengaluru - KSPCB",01-11-2025 07:00:00,12.990328,77.5431385,CO,19,46,23
India,Karnataka,Bengaluru,"Shivapura_Peenya, Bengaluru - KSPCB",01-11-2025 07:00:00,13.0246342,77.5080115,NO2,28,35,32
India,Karnataka,Bengaluru,"Shivapura_Peenya, Bengaluru - KSPCB",01-11-2025 07:00:00,13.0246342,77.5080115,SO2,3,10,6
India,Karnataka,Bengaluru,"Silk Board, Bengaluru - KSPCB",01-11-2025 07:00:00,12.917348,77.622813,PM10,79,155,105
India,Karnataka,Bengaluru,"Silk Board, Bengaluru - KSPCB",01-11-2025 07:00:00,12.917348,77.622813,CO,22,46,24
India,Karnataka,Chamarajanagar,"Urban, Chamarajanagar - KSPCB",01-11-2025 07:00:00,11.55358,76.55521,PM10,26,55,45
India,Karnataka,Chamarajanagar,"Urban, Chamarajanagar - KSPCB",01-11-2025 07:00:00,11.55358,76.55521,NO2,15,35,29
India,Karnataka,Chamarajanagar,"Urban, Chamarajanagar - KSPCB",01-11-2025 07:00:00,11.55358,76.55521,NH3,1,3,2
India,Karnataka,Chikkamagaluru,"Kalyana Nagara, Chikkamagaluru - KSPCB",01-11-2025 07:00:00,13.328028,75.797056,CO,3,14,11
India,Karnataka,Chikkamagaluru,"Kalyana Nagara, Chikkamagaluru - KSPCB",01-11-2025 07:00:00,13.328028,75.797056,OZONE,11,39,39
India,Karnataka,Davanagere,"Devaraj Urs Badavane, Davanagere - KSPCB",01-11-2025 07:00:00,14.475800,75.905200,NO2,NA,NA,NA
India,Karnataka,Davanagere,"Devaraj Urs Badavane, Davanagere - KSPCB",01-11-2025 07:00:00,14.475800,75.905200,NH3,NA,NA,NA
India,Karnataka,Davanagere,"Devaraj Urs Badavane, Davanagere - KSPCB",01-11-2025 07:00:00,14.475800,75.905200,CO,NA,NA,NA
India,Karnataka,Dharwad,"Kalabhavan, Dharwad - KSPCB",01-11-2025 07:00:00,15.459706,75.008381,CO,40,88,52
India,Karnataka,Dharwad,"Kalabhavan, Dharwad - KSPCB",01-11-2025 07:00:00,15.459706,75.008381,OZONE,19,19,19
India,Karnataka,Gadag,"Panchal Nagar, Gadag - KSPCB",01-11-2025 07:00:00,15.411456,75.638133,NH3,2,3,3
India,Karnataka,Hassan,"B.Katihalli, Hassan - KSPCB",01-11-2025 07:00:00,13.008556,76.125258,NO2,7,30,16
India,Karnataka,Shivamogga,"Vinoba Nagara, Shivamogga - KSPCB",01-11-2025 07:00:00,13.940000,75.555917,OZONE,9,37,15
India,Karnataka,Tumakuru,"Thimmalapura, Tumakuru - KSPCB",01-11-2025 07:00:00,13.377516,77.099072,NO2,NA,NA,NA
India,Karnataka,Udupi,"Brahmagiri, Udupi - KSPCB",01-11-2025 07:00:00,13.34194444,74.74694444,PM10,8,44,15
India,Karnataka,Vijayapura,"Ibrahimpur, Vijayapura - KSPCB",01-11-2025 07:00:00,16.802639,75.722694,PM10,42,43,43
India,Karnataka,Vijayapura,"Ibrahimpur, Vijayapura - KSPCB",01-11-2025 07:00:00,16.802639,75.722694,NH3,1,2,1
India,Karnataka,Vijayapura,"Ibrahimpur, Vijayapura - KSPCB",01-11-2025 07:00:00,16.802639,75.722694,CO,14,121,34
India,Karnataka,Yadgir,"Collector Office, Yadgir - KSPCB",01-11-2025 07:00:00,16.7602,77.1428,NO2,27,47,37
India,Karnataka,Yadgir,"Collector Office, Yadgir - KSPCB",01-11-2025 07:00:00,16.7602,77.1428,SO2,13,20,16
India,Karnataka,Bengaluru,"Jayanagar 5th Block, Bengaluru - KSPCB",01-11-2025 07:00:00,12.920984,77.584908,NO2,11,55,22
India,Karnataka,Bengaluru,"Jayanagar 5th Block, Bengaluru - KSPCB",01-11-2025 07:00:00,12.920984,77.584908,NH3,1,1,1
India,Karnataka,Bengaluru,"Jayanagar 5th Block, Bengaluru - KSPCB",01-11-2025 07:00:00,12.920984,77.584908,OZONE,21,63,34
India,Karnataka,Bengaluru,"Jigani, Bengaluru - KSPCB",01-11-2025 07:00:00,12.7816279,77.6299145,OZONE,21,23,22
India,Karnataka,Bengaluru,"Kasturi Nagar, Bengaluru - KSPCB",01-11-2025 07:00:00,13.003872,77.664217,NH3,4,5,4
India,Karnataka,Bengaluru,"Kasturi Nagar, Bengaluru - KSPCB",01-11-2025 07:00:00,13.003872,77.664217,CO,43,62,49
India,Karnataka,Bengaluru,"Peenya, Bengaluru - CPCB",01-11-2025 07:00:00,13.0270199,77.494094,PM10,60,105,81
India,Karnataka,Bengaluru,"Peenya, Bengaluru - CPCB",01-11-2025 07:00:00,13.0270199,77.494094,NO2,25,32,29
India,Karnataka,Bengaluru,"Peenya, Bengaluru - CPCB",01-11-2025 07:00:00,13.0270199,77.494094,NH3,2,4,3
India,Kerala,Eloor,"Udyogamandal, Eloor - Kerala PCB",01-11-2025 07:00:00,10.073232,76.302765,PM10,46,81,55
India,Kerala,Kannur,"Thavakkara, Kannur - Kerala PCB",01-11-2025 07:00:00,11.875000,75.373200,PM2.5,43,50,47
India,Kerala,Kannur,"Thavakkara, Kannur - Kerala PCB",01-11-2025 07:00:00,11.875000,75.373200,NO2,13,14,13
India,Kerala,Kannur,"Thavakkara, Kannur - Kerala PCB",01-11-2025 07:00:00,11.875000,75.373200,NH3,2,2,2
India,Kerala,Kannur,"Thavakkara, Kannur - Kerala PCB",01-11-2025 07:00:00,11.875000,75.373200,SO2,5,6,6
India,Kerala,Thiruvananthapuram,"Kariavattom, Thiruvananthapuram - Kerala PCB",01-11-2025 07:00:00,8.563700,76.886500,PM2.5,28,36,33
India,Kerala,Thiruvananthapuram,"Kariavattom, Thiruvananthapuram - Kerala PCB",01-11-2025 07:00:00,8.563700,76.886500,PM10,34,42,38
India,Kerala,Thiruvananthapuram,"Kariavattom, Thiruvananthapuram - Kerala PCB",01-11-2025 07:00:00,8.563700,76.886500,NO2,6,7,7
India,Kerala,Thiruvananthapuram,"Kariavattom, Thiruvananthapuram - Kerala PCB",01-11-2025 07:00:00,8.563700,76.886500,OZONE,36,37,36
India,Kerala,Thiruvananthapuram,"Plammoodu, Thiruvananthapuram - Kerala PCB",01-11-2025 07:00:00,8.5149093,76.9435879,NO2,33,76,52
India,Kerala,Thrissur,"Corporation Ground, Thrissur - Kerala PCB",01-11-2025 07:00:00,10.532400,76.215900,OZONE,29,31,30
India,Madhya Pradesh,Bhopal,"Idgah Hills, Bhopal - MPPCB",01-11-2025 07:00:00,23.264759,77.381568,PM10,25,106,52
India,Madhya Pradesh,Bhopal,"Paryavaran Parisar, Bhopal - MPPCB",01-11-2025 07:00:00,23.210494,77.425409,NO2,12,35,22
India,Karnataka,Bengaluru,"BTM Layout, Bengaluru - CPCB",01-11-2025 07:00:00,12.9135218,77.5950804,OZONE,22,25,22
India,Karnataka,Bengaluru,"Bapuji Nagar, Bengaluru - KSPCB",01-11-2025 07:00:00,12.951913,77.539784,NO2,4,14,7
India,Karnataka,Bengaluru,"City Railway Station, Bengaluru - KSPCB",01-11-2025 07:00:00,12.9756843,77.5660749,PM10,NA,NA,NA
India,Karnataka,Bengaluru,"Hebbal, Bengaluru - KSPCB",01-11-2025 07:00:00,13.029152,77.585901,PM2.5,7,48,24
India,Karnataka,Bengaluru,"Hebbal, Bengaluru - KSPCB",01-11-2025 07:00:00,13.029152,77.585901,NH3,NA,NA,NA
India,Karnataka,Hassan,"B.Katihalli, Hassan - KSPCB",01-11-2025 07:00:00,13.008556,76.125258,OZONE,1,9,1
India,Karnataka,Haveri,"Ashwini Nagar, Haveri - KSPCB",01-11-2025 07:00:00,14.791800,75.389600,PM2.5,NA,NA,NA
India,Karnataka,Haveri,"Ashwini Nagar, Haveri - KSPCB",01-11-2025 07:00:00,14.791800,75.389600,OZONE,16,16,16
India,Madhya Pradesh,Pithampur,"Sector-2 Industrial Area, Pithampur - MPPCB",01-11-2025 07:00:00,22.624758,75.675238,OZONE,11,24,20
India,Madhya Pradesh,Sagar,"Civil Lines, Sagar - MPPCB",01-11-2025 07:00:00,23.838586,78.759431,PM10,5,34,17
India,Madhya Pradesh,Sagar,"Civil Lines, Sagar - MPPCB",01-11-2025 07:00:00,23.838586,78.759431,NO2,4,22,12
India,Madhya Pradesh,Sagar,"Civil Lines, Sagar - MPPCB",01-11-2025 07:00:00,23.838586,78.759431,SO2,1,17,3
India,Madhya Pradesh,Satna,"Bandhavgar Colony, Satna - Birla Cement",01-11-2025 07:00:00,24.58434363,80.8549414,NO2,31,37,34
India,Madhya Pradesh,Singrauli,"Suryakiran Bhawan NCL, Singrauli - MPPCB",01-11-2025 07:00:00,24.108970,82.645580,CO,12,14,13
India,Maharashtra,Ahmednagar,"Tarakpur, Ahmednagar - MPCB",01-11-2025 07:00:00,19.10122,74.73339,PM2.5,8,23,17
India,Madhya Pradesh,Indore,"Regional Park, Indore - IMC",01-11-2025 07:00:00,22.6780,75.8559,OZONE,8,18,10
India,Madhya Pradesh,Jabalpur,"Govindh Bhavan Colony, Jabalpur - JMC",01-11-2025 07:00:00,23.163174,79.973061,NH3,1,1,1
India,Madhya Pradesh,Jabalpur,"Gupteshwar, Jabalpur - JMC",01-11-2025 07:00:00,23.142888,79.916147,PM2.5,8,116,32
India,Madhya Pradesh,Jabalpur,"Gupteshwar, Jabalpur - JMC",01-11-2025 07:00:00,23.142888,79.916147,NH3,8,10,8
India,Madhya Pradesh,Jabalpur,"Gupteshwar, Jabalpur - JMC",01-11-2025 07:00:00,23.142888,79.916147,SO2,3,8,5
India,Madhya Pradesh,Jabalpur,"Marhatal, Jabalpur - MPPCB",01-11-2025 07:00:00,23.168606,79.932247,PM2.5,40,127,61
India,Madhya Pradesh,Bhopal,"T T Nagar, Bhopal - MPPCB",01-11-2025 07:00:00,23.233584,77.400574,SO2,6,10,8
India,Madhya Pradesh,Damoh,"Shrivastav Colony, Damoh - MPPCB",01-11-2025 07:00:00,23.81748678,79.446246,PM10,2,16,7
India,Madhya Pradesh,Dewas,"Bhopal Chauraha, Dewas - MPPCB",01-11-2025 07:00:00,22.9682591,76.064118,NO2,22,69,57
India,Madhya Pradesh,Dewas,"Bhopal Chauraha, Dewas - MPPCB",01-11-2025 07:00:00,22.9682591,76.064118,OZONE,29,33,31
India,Madhya Pradesh,Gwalior,"City Center, Gwalior - MPPCB",01-11-2025 07:00:00,26.203442,78.193251,NH3,2,3,2
India,Maharashtra,Belapur,"CBD Belapur, Belapur - MPCB",01-11-2025 07:00:00,19.0243902,73.0406721,SO2,1,1,1
India,Maharashtra,Bhiwandi,"Gokul Nagar, Bhiwandi - MPCB",01-11-2025 07:00:00,19.309073,73.057223,PM2.5,32,64,46
India,Maharashtra,Bhiwandi,"Gokul Nagar, Bhiwandi - MPCB",01-11-2025 07:00:00,19.309073,73.057223,CO,21,48,31
India,Maharashtra,Chandrapur,"Chauhan Colony, Chandrapur - MPCB",01-11-2025 07:00:00,19.962900,79.298714,PM10,30,124,55
India,Maharashtra,Chandrapur,"Chauhan Colony, Chandrapur - MPCB",01-11-2025 07:00:00,19.962900,79.298714,SO2,29,29,29
India,Maharashtra,Chandrapur,"Chauhan Colony, Chandrapur - MPCB",01-11-2025 07:00:00,19.962900,79.298714,CO,18,36,33
India,Maharashtra,Chandrapur,"MIDC Khutala, Chandrapur - MPCB",01-11-2025 07:00:00,19.9775302,79.2337086,OZONE,17,19,18
India,Maharashtra,Dhule,"Deopur, Dhule - MPCB",01-11-2025 07:00:00,20.918946,74.776388,OZONE,16,44,18
India,Maharashtra,Jalgaon,"Prabhat Colony, Jalgaon - MPCB",01-11-2025 07:00:00,21.001264,75.565602,PM10,43,126,75
India,Maharashtra,Jalna,"Old MIDC, Jalna - MPCB",01-11-2025 07:00:00,19.854616,75.905894,PM10,48,111,82
India,Maharashtra,Jalna,"Old MIDC, Jalna - MPCB",01-11-2025 07:00:00,19.854616,75.905894,OZONE,1,31,5
India,Maharashtra,Ahmednagar,"Tarakpur, Ahmednagar - MPCB",01-11-2025 07:00:00,19.10122,74.73339,NH3,4,6,5
India,Maharashtra,Ahmednagar,"Tarakpur, Ahmednagar - MPCB",01-11-2025 07:00:00,19.10122,74.73339,OZONE,9,36,14
India,Maharashtra,Akola,"Ramdaspeth, Akola - MPCB",01-11-2025 07:00:00,20.719516,77.000253,SO2,10,16,12
India,Maharashtra,Aurangabad,"MIDC Chilkalthana, Aurangabad - MPCB",01-11-2025 07:00:00,19.875620,75.387310,NO2,6,45,21
India,Madhya Pradesh,Katni,"Gole Bazar, Katni - MPPCB",01-11-2025 07:00:00,23.50016,80.23284,NO2,15,39,24
India,Madhya Pradesh,Katni,"Gole Bazar, Katni - MPPCB",01-11-2025 07:00:00,23.50016,80.23284,CO,12,53,31
India,Madhya Pradesh,Katni,"Gole Bazar, Katni - MPPCB",01-11-2025 07:00:00,23.50016,80.23284,OZONE,17,31,24
India,Madhya Pradesh,Mandideep,"Sector-D Industrial Area, Mandideep - MPPCB",01-11-2025 07:00:00,23.108440,77.511428,SO2,13,131,62
India,Madhya Pradesh,Gwalior,"Deen Dayal Nagar, Gwalior - MPPCB",01-11-2025 07:00:00,26.259242,78.216432,OZONE,2,68,5
India,Madhya Pradesh,Gwalior,"Maharaj Bada, Gwalior - MPPCB",01-11-2025 07:00:00,26.200388,78.147714,CO,2,104,31
India,Madhya Pradesh,Indore,"Chhoti Gwaltoli, Indore - MPPCB",01-11-2025 07:00:00,22.4310,75.5213,SO2,7,16,9
India,Maharashtra,Aurangabad,"Rachnakar Colony, Aurangabad - MPCB",01-11-2025 07:00:00,19.863756,75.321188,PM2.5,10,352,95
India,Maharashtra,Badlapur,"Katrap, Badlapur - MPCB",01-11-2025 07:00:00,19.16485,73.23409,PM10,33,143,79
India,Maharashtra,Kalyan,"Pimpleshwar Mandir, Kalyan - MPCB",01-11-2025 07:00:00,19.192056,72.9585188,OZONE,19,19,19
India,Maharashtra,Kolhapur,"Shivaji University, Kolhapur - MPCB",01-11-2025 07:00:00,16.6870449,74.2505872,OZONE,4,25,12
India,Maharashtra,Kolhapur,"Sinchan Bhavan, Kolhapur - MPCB",01-11-2025 07:00:00,16.7143745,74.2426398,NO2,6,19,11
India,Maharashtra,Kolhapur,"Sinchan Bhavan, Kolhapur - MPCB",01-11-2025 07:00:00,16.7143745,74.2426398,SO2,1,2,1
India,Maharashtra,Latur,"Sawe Wadi, Latur - MPCB",01-11-2025 07:00:00,18.39963,76.57452,NO2,6,73,24
India,Maharashtra,Latur,"Sawe Wadi, Latur - MPCB",01-11-2025 07:00:00,18.39963,76.57452,NH3,2,22,7
India,Maharashtra,Mahad,"Kamble Tarf Birwadi, Mahad - MPCB",01-11-2025 07:00:00,18.1023399,73.4783687,PM2.5,NA,NA,NA
India,Maharashtra,Mahad,"Kamble Tarf Birwadi, Mahad - MPCB",01-11-2025 07:00:00,18.1023399,73.4783687,PM10,NA,NA,NA
India,Maharashtra,Mahad,"Kamble Tarf Birwadi, Mahad - MPCB",01-11-2025 07:00:00,18.1023399,73.4783687,NO2,NA,NA,NA
India,Maharashtra,Mumbai,"Colaba, Mumbai - MPCB",01-11-2025 07:00:00,18.910000,72.820000,NH3,3,3,3
India,Maharashtra,Mumbai,"Deonar, Mumbai - IITM",01-11-2025 07:00:00,19.04946,72.9230,NO2,8,26,18
India,Maharashtra,Mumbai,"Deonar, Mumbai - IITM",01-11-2025 07:00:00,19.04946,72.9230,SO2,3,5,4
India,Maharashtra,Mumbai,"Ghatkopar, Mumbai - BMC",01-11-2025 07:00:00,19.083694,72.920967,NH3,2,5,3
India,Maharashtra,Mumbai,"Kandivali West, Mumbai - BMC",01-11-2025 07:00:00,19.215859,72.831718,PM10,25,59,35
India,Maharashtra,Mumbai,"Kandivali West, Mumbai - BMC",01-11-2025 07:00:00,19.215859,72.831718,NH3,1,2,1
India,Maharashtra,Mumbai,"Kandivali West, Mumbai - BMC",01-11-2025 07:00:00,19.215859,72.831718,CO,9,36,16
India,Maharashtra,Mumbai,"Kandivali West, Mumbai - BMC",01-11-2025 07:00:00,19.215859,72.831718,OZONE,1,10,1
India,Maharashtra,Mumbai,"Shivaji Nagar, Mumbai - BMC",01-11-2025 07:00:00,19.060498,72.923356,PM2.5,29,82,45
India,Maharashtra,Mumbai,"Shivaji Nagar, Mumbai - BMC",01-11-2025 07:00:00,19.060498,72.923356,SO2,11,13,12
India,Maharashtra,Mumbai,"Shivaji Nagar, Mumbai - BMC",01-11-2025 07:00:00,19.060498,72.923356,OZONE,1,14,4
India,Maharashtra,Mumbai,"Siddharth Nagar-Worli, Mumbai - IITM",01-11-2025 07:00:00,19.000083,72.813993,PM10,24,78,41
India,Maharashtra,Mumbai,"Siddharth Nagar-Worli, Mumbai - IITM",01-11-2025 07:00:00,19.000083,72.813993,OZONE,3,34,11
India,Maharashtra,Mumbai,"Sion, Mumbai - MPCB",01-11-2025 07:00:00,19.047000,72.874600,OZONE,14,16,15
India,Maharashtra,Mumbai,"Vile Parle West, Mumbai - MPCB",01-11-2025 07:00:00,19.10861,72.83622,NO2,6,30,23
India,Maharashtra,Mira-Bhayandar,"Bhayandar West, Mira-Bhayandar - MPCB",01-11-2025 07:00:00,19.296481,72.840923,NO2,15,42,25
India,Maharashtra,Mumbai,"Bandra Kurla Complex, Mumbai - IITM",01-11-2025 07:00:00,19.053536,72.84643,NH3,11,34,19
India,Maharashtra,Mumbai,"Bandra Kurla Complex, Mumbai - IITM",01-11-2025 07:00:00,19.053536,72.84643,OZONE,NA,NA,NA
India,Maharashtra,Mumbai,"Bandra Kurla Complex, Mumbai - MPCB",01-11-2025 07:00:00,19.065931,72.862131,OZONE,1,18,2
India,Maharashtra,Mumbai,"Borivali East, Mumbai - IITM",01-11-2025 07:00:00,19.23241,72.86895,PM2.5,26,61,38
India,Maharashtra,Mumbai,"Borivali East, Mumbai - IITM",01-11-2025 07:00:00,19.23241,72.86895,OZONE,19,48,30
India,Maharashtra,Mumbai,"Kherwadi_Bandra East, Mumbai - MPCB",01-11-2025 07:00:00,19.0632143,72.8456324,CO,19,32,31
India,Maharashtra,Mumbai,"Khindipada-Bhandup West, Mumbai - IITM",01-11-2025 07:00:00,19.1653323,72.922099,PM10,NA,NA,NA
India,Maharashtra,Mumbai,"Malad West, Mumbai - IITM",01-11-2025 07:00:00,19.19709,72.82204,PM2.5,9,42,23
India,Maharashtra,Mumbai,"Malad West, Mumbai - IITM",01-11-2025 07:00:00,19.19709,72.82204,NO2,42,76,56
India,Maharashtra,Mumbai,"Mazgaon, Mumbai - IITM",01-11-2025 07:00:00,18.96702,72.84214,PM10,16,64,32
India,Maharashtra,Mumbai,"Mazgaon, Mumbai - IITM",01-11-2025 07:00:00,18.96702,72.84214,CO,26,90,40
India,Maharashtra,Mumbai,"Mulund West, Mumbai - MPCB",01-11-2025 07:00:00,19.1750,72.9419,PM10,36,88,52
India,Maharashtra,Mumbai,"Mulund West, Mumbai - MPCB",01-11-2025 07:00:00,19.1750,72.9419,NO2,14,15,14
India,Maharashtra,Mumbai,"Navy Nagar-Colaba, Mumbai - IITM",01-11-2025 07:00:00,18.897756,72.813320,PM2.5,20,59,36
India,Maharashtra,Mumbai,"Navy Nagar-Colaba, Mumbai - IITM",01-11-2025 07:00:00,18.897756,72.813320,SO2,1,7,3
India,Maharashtra,Nanded,"Sneh Nagar, Nanded - MPCB",01-11-2025 07:00:00,19.173852,77.296291,PM10,41,150,70
India,Maharashtra,Nashik,"Gangapur Road, Nashik - MPCB",01-11-2025 07:00:00,20.0073285,73.7762427,SO2,3,9,5
India,Maharashtra,Nashik,"Hirawadi, Nashik - MPCB",01-11-2025 07:00:00,20.021503,73.813844,NH3,1,2,1
India,Maharashtra,Mumbai,"Worli, Mumbai - MPCB",01-11-2025 07:00:00,18.9936162,72.8128113,OZONE,20,21,20
India,Maharashtra,Nagpur,"Ram Nagar, Nagpur - MPCB",01-11-2025 07:00:00,21.143383,79.048912,NO2,2,27,9
India,Maharashtra,Mumbai,"Byculla, Mumbai - BMC",01-11-2025 07:00:00,18.9767,72.8380,SO2,8,9,8
India,Maharashtra,Mumbai,"Chhatrapati Shivaji Intl. Airport (T2), Mumbai - MPCB",01-11-2025 07:00:00,19.10078,72.87462,OZONE,7,8,7
India,Maharashtra,Solapur,"Ratandeep Housing Society, Solapur - MPCB",01-11-2025 07:00:00,17.65439,75.90649,OZONE,8,48,22
India,Maharashtra,Thane,"Kasarvadavali, Thane - MPCB",01-11-2025 07:00:00,19.26777,72.97182,NH3,2,8,5
India,Maharashtra,Thane,"Upvan Fort, Thane - MPCB",01-11-2025 07:00:00,19.222279,72.957979,PM10,18,51,35
India,Maharashtra,Thane,"Upvan Fort, Thane - MPCB",01-11-2025 07:00:00,19.222279,72.957979,NO2,9,36,24
India,Maharashtra,Thane,"Upvan Fort, Thane - MPCB",01-11-2025 07:00:00,19.222279,72.957979,SO2,1,7,4
India,Maharashtra,Thane,"Upvan Fort, Thane - MPCB",01-11-2025 07:00:00,19.222279,72.957979,CO,19,76,33
India,Maharashtra,Ulhasnagar,"Sidhi Vinayak Nagar, Ulhasnagar - MPCB",01-11-2025 07:00:00,19.235581,73.159121,PM2.5,36,76,56
India,Maharashtra,Ulhasnagar,"Sidhi Vinayak Nagar, Ulhasnagar - MPCB",01-11-2025 07:00:00,19.235581,73.159121,NO2,10,31,20
India,Maharashtra,Virar,"Bolinj, Virar - MPCB",01-11-2025 07:00:00,19.4458210,72.7988231,CO,20,51,26
India,Maharashtra,Pune,"Hadapsar, Pune - IITM",01-11-2025 07:00:00,18.501793,73.927532,PM2.5,52,160,87
India,Maharashtra,Pune,"Hadapsar, Pune - IITM",01-11-2025 07:00:00,18.501793,73.927532,PM10,53,146,97
India,Maharashtra,Pune,"Hadapsar, Pune - IITM",01-11-2025 07:00:00,18.501793,73.927532,NO2,12,38,21
India,Maharashtra,Pune,"Katraj Dairy, Pune - MPCB",01-11-2025 07:00:00,18.454450,73.854155,PM10,46,76,60
India,Maharashtra,Pune,"Katraj Dairy, Pune - MPCB",01-11-2025 07:00:00,18.454450,73.854155,NO2,4,29,13
India,Maharashtra,Pune,"Mhada Colony, Pune - IITM",01-11-2025 07:00:00,18.573040,73.927715,CO,24,123,70
India,Maharashtra,Pune,"Panchawati_Pashan, Pune - IITM",01-11-2025 07:00:00,18.536457,73.805454,NO2,10,35,15
India,Maharashtra,Pune,"Revenue Colony-Shivajinagar, Pune - IITM",01-11-2025 07:00:00,18.530085,73.849598,PM10,17,120,63
India,Maharashtra,Pune,"Revenue Colony-Shivajinagar, Pune - IITM",01-11-2025 07:00:00,18.530085,73.849598,SO2,1,11,4
India,Odisha,Barbil,"Forest Office, Barbil - OSPCB",01-11-2025 07:00:00,22.1166054,85.3945546,SO2,6,24,14
India,Odisha,Bhubaneswar,"Lingraj Mandir, Bhubaneswar - OSPCB",01-11-2025 07:00:00,20.240790,85.836784,PM10,73,101,83
India,Odisha,Bhubaneswar,"Lingraj Mandir, Bhubaneswar - OSPCB",01-11-2025 07:00:00,20.240790,85.836784,NO2,11,42,22
India,Odisha,Bhubaneswar,"Lingraj Mandir, Bhubaneswar - OSPCB",01-11-2025 07:00:00,20.240790,85.836784,NH3,3,4,3
India,Odisha,Bhubaneswar,"Patia, Bhubaneswar - OSPCB",01-11-2025 07:00:00,20.34652,85.81630,PM10,28,99,47
India,Odisha,Bhubaneswar,"Patia, Bhubaneswar - OSPCB",01-11-2025 07:00:00,20.34652,85.81630,NO2,6,18,11
India,Odisha,Bhubaneswar,"Patia, Bhubaneswar - OSPCB",01-11-2025 07:00:00,20.34652,85.81630,OZONE,5,28,6
India,Odisha,Bileipada,"Tata Township, Bileipada - OSPCB",01-11-2025 07:00:00,22.06156703,85.47409613,NO2,6,7,7
India,Odisha,Bileipada,"Tata Township, Bileipada - OSPCB",01-11-2025 07:00:00,22.06156703,85.47409613,NH3,4,4,4
India,Maharashtra,Navi Mumbai,"Sanpada, Navi Mumbai - MPCB",01-11-2025 07:00:00,19.0575752,73.0151367,CO,4,54,15
India,Maharashtra,Navi Mumbai,"Tondare-Taloja, Navi Mumbai - MPCB",01-11-2025 07:00:00,19.0630,73.1209,CO,26,41,32
India,Maharashtra,Parbhani,"Masoom Colony, Parbhani - MPCB",01-11-2025 07:00:00,19.265594,76.761463,PM10,24,264,66
India,Maharashtra,Parbhani,"Masoom Colony, Parbhani - MPCB",01-11-2025 07:00:00,19.265594,76.761463,NO2,6,75,24
India,Maharashtra,Parbhani,"Masoom Colony, Parbhani - MPCB",01-11-2025 07:00:00,19.265594,76.761463,SO2,1,15,7
India,Maharashtra,Parbhani,"Masoom Colony, Parbhani - MPCB",01-11-2025 07:00:00,19.265594,76.761463,OZONE,NA,NA,NA
India,Maharashtra,Pimpri-Chinchwad,"Gavalinagar, Pimpri Chinchwad - MPCB",01-11-2025 07:00:00,18.63673,73.82487,PM2.5,48,89,64
India,Maharashtra,Pune,"Savitribai Phule Pune University, Pune - MPCB",01-11-2025 07:00:00,18.547056,73.826908,NO2,8,24,17
India,Maharashtra,Sangli,"Vijay Nagar, Sangli - MPCB",01-11-2025 07:00:00, 16.5038,74.3623,NO2,1,12,5
India,Maharashtra,Sangli,"Vijay Nagar, Sangli - MPCB",01-11-2025 07:00:00, 16.5038,74.3623,NH3,3,4,4
India,Maharashtra,Sangli,"Vijay Nagar, Sangli - MPCB",01-11-2025 07:00:00, 16.5038,74.3623,SO2,3,8,5
India,Maharashtra,Solapur,"Dnyaneshwar Nagar, Solapur - MPCB",01-11-2025 07:00:00,17.6336264,75.9132495,PM2.5,7,44,25
India,Maharashtra,Solapur,"Ratandeep Housing Society, Solapur - MPCB",01-11-2025 07:00:00,17.65439,75.90649,PM2.5,3,24,15
India,Maharashtra,Solapur,"Ratandeep Housing Society, Solapur - MPCB",01-11-2025 07:00:00,17.65439,75.90649,NO2,5,51,21
India,Odisha,Byasanagar,"Ferro Chrome Colony, Byasanagar - OSPCB",01-11-2025 07:00:00,20.94185,86.11510,NO2,2,16,6
India,Odisha,Byasanagar,"Ferro Chrome Colony, Byasanagar - OSPCB",01-11-2025 07:00:00,20.94185,86.11510,SO2,1,4,3
India,Odisha,Cuttack,"CDA Area, Cuttack - OSPCB",01-11-2025 07:00:00,20.48891     ,85.84768     ,NH3,2,2,2
India,Odisha,Keonjhar,"Jagamohanpur, Keonjhar - OSPCB",01-11-2025 07:00:00,21.643900,85.599355,NH3,1,9,4
India,Odisha,Keonjhar,"Jagamohanpur, Keonjhar - OSPCB",01-11-2025 07:00:00,21.643900,85.599355,CO,3,110,49
India,Odisha,Nayagarh,"Dabuna, Nayagarh - OSPCB",01-11-2025 07:00:00,21.847279,85.416905,SO2,7,10,8
India,Maharashtra,Navi Mumbai,"Kopripada-Vashi, Navi Mumbai - MPCB",01-11-2025 07:00:00,19.090337,73.014232,PM2.5,10,26,17
India,Maharashtra,Navi Mumbai,"Kopripada-Vashi, Navi Mumbai - MPCB",01-11-2025 07:00:00,19.090337,73.014232,NO2,7,17,12
India,Maharashtra,Navi Mumbai,"Mahape, Navi Mumbai - MPCB",01-11-2025 07:00:00,19.1135051,73.008978,NO2,34,37,35
India,Maharashtra,Navi Mumbai,"Nerul, Navi Mumbai - MPCB",01-11-2025 07:00:00,19.008751,73.016620,PM10,NA,NA,NA
India,Maharashtra,Navi Mumbai,"Nerul, Navi Mumbai - MPCB",01-11-2025 07:00:00,19.008751,73.016620,NO2,32,32,32
India,Meghalaya,Shillong,"Lumpyngngad, Shillong - Meghalaya PCB",01-11-2025 07:00:00,25.5586,91.8985,NO2,NA,NA,NA
India,Odisha,Angul,"Hakimapada, Angul - OSPCB",01-11-2025 07:00:00,20.832874,85.104082,PM10,24,117,55
India,Odisha,Angul,"Hakimapada, Angul - OSPCB",01-11-2025 07:00:00,20.832874,85.104082,CO,36,72,53
India,Odisha,Balasore,"Kalidaspur, Balasore - OSPCB",01-11-2025 07:00:00,21.51161,86.89088,PM10,44,134,74
India,Maharashtra,Pimpri-Chinchwad,"Park Street Wakad, Pimpri Chinchwad - MPCB",01-11-2025 07:00:00,18.59051,73.77946,NH3,3,6,5
India,Maharashtra,Pimpri-Chinchwad,"Savta Mali Nagar, Pimpri-Chinchwad - IITM",01-11-2025 07:00:00,18.614767,73.799516,PM10,30,100,54
India,Odisha,Nayagarh,"Dabuna, Nayagarh - OSPCB",01-11-2025 07:00:00,21.847279,85.416905,CO,14,21,19
India,Odisha,Nayagarh,"Dabuna, Nayagarh - OSPCB",01-11-2025 07:00:00,21.847279,85.416905,OZONE,15,19,15
India,Odisha,Rairangpur,"Divisional Forest Office, Rairangpur - OSPCB",01-11-2025 07:00:00,22.265816,86.174829,NO2,15,19,18
India,Odisha,Rairangpur,"Divisional Forest Office, Rairangpur - OSPCB",01-11-2025 07:00:00,22.265816,86.174829,NH3,2,3,3
India,Odisha,Rourkela,"Fertilizer Township, Rourkela - OSPCB",01-11-2025 07:00:00,22.18972222,84.86277778,PM2.5,72,99,80
India,Odisha,Rourkela,"Fertilizer Township, Rourkela - OSPCB",01-11-2025 07:00:00,22.18972222,84.86277778,SO2,8,9,9
India,Odisha,Rourkela,"Raghunathpali, Rourkela - OSPCB",01-11-2025 07:00:00,22.220833,84.809444,PM10,25,72,52
India,Odisha,Talcher,"Talcher Coalfields,Talcher - OSPCB",01-11-2025 07:00:00,20.9360711,85.1707021,NO2,48,176,114
India,Odisha,Tensa,"Barsua Iron Ore Mines, Tensa - OSPCB",01-11-2025 07:00:00,21.869985,85.167016,NH3,NA,NA,NA
India,Punjab,Rupnagar,"Ratanpura, Rupnagar - Ambuja Cements",01-11-2025 07:00:00,31.0325454,76.5623046,CO,10,31,23
India,Rajasthan,Ajmer,"Civil Lines,  Ajmer - RSPCB",01-11-2025 07:00:00,26.470859,74.646594,CO,12,40,29
India,Rajasthan,Ajmer,"Civil Lines,  Ajmer - RSPCB",01-11-2025 07:00:00,26.470859,74.646594,OZONE,19,99,29
India,Rajasthan,Alwar,"Moti Doongri, Alwar - RSPCB",01-11-2025 07:00:00,27.554793,76.611536,PM2.5,48,88,62
India,Rajasthan,Alwar,"Moti Doongri, Alwar - RSPCB",01-11-2025 07:00:00,27.554793,76.611536,PM10,50,101,70
India,Rajasthan,Alwar,"Moti Doongri, Alwar - RSPCB",01-11-2025 07:00:00,27.554793,76.611536,NO2,37,66,54
India,Rajasthan,Alwar,"Moti Doongri, Alwar - RSPCB",01-11-2025 07:00:00,27.554793,76.611536,CO,40,96,50
India,Rajasthan,Banswara,"Rati Talai, Banswara - RSPCB",01-11-2025 07:00:00,23.555190,74.440010,PM2.5,7,47,29
India,Rajasthan,Baran,"Bamboliya, Baran - RSPCB",01-11-2025 07:00:00,25.106006,76.469948,NH3,5,8,6
India,Rajasthan,Jaipur,"Shastri Nagar, Jaipur - RSPCB",01-11-2025 07:00:00,26.9502929,75.730943,CO,86,122,101
India,Rajasthan,Jaisalmer,"Sadar Bazar, Jaisalmer - RSPCB",01-11-2025 07:00:00,26.912329,70.909168,PM10,90,260,142
India,Rajasthan,Jaisalmer,"Sadar Bazar, Jaisalmer - RSPCB",01-11-2025 07:00:00,26.912329,70.909168,NH3,NA,NA,NA
India,Rajasthan,Jalore,"Mudtra Sili, Jalore - RSPCB",01-11-2025 07:00:00,25.344694,72.626208,NO2,11,90,30
India,Rajasthan,Jhalawar,"Rajlaxmi Nagar, Jhalawar - RSPCB",01-11-2025 07:00:00,24.588397,76.172782,NO2,25,49,38
India,Rajasthan,Jhalawar,"Rajlaxmi Nagar, Jhalawar - RSPCB",01-11-2025 07:00:00,24.588397,76.172782,CO,23,46,31
India,Rajasthan,Jhalawar,"Rajlaxmi Nagar, Jhalawar - RSPCB",01-11-2025 07:00:00,24.588397,76.172782,OZONE,4,41,8
India,Rajasthan,Jaipur,"Mansarovar Sector-12, Jaipur - RSPCB",01-11-2025 07:00:00,26.843698,75.766894,SO2,1,3,2
India,Rajasthan,Jaipur,"Police Commissionerate, Jaipur - RSPCB",01-11-2025 07:00:00,26.9164092,75.7994901,SO2,6,7,7
India,Rajasthan,Jaipur,"RIICO Sitapura, Jaipur - RSPCB",01-11-2025 07:00:00,26.786682,75.827928,PM2.5,43,302,100
India,Rajasthan,Jaipur,"Sector-2 Murlipura, Jaipur - RSPCB",01-11-2025 07:00:00,26.960669,75.771817,PM10,55,170,116
India,Rajasthan,Jaipur,"Sector-2 Murlipura, Jaipur - RSPCB",01-11-2025 07:00:00,26.960669,75.771817,NO2,25,107,58
India,Rajasthan,Jaipur,"Shastri Nagar, Jaipur - RSPCB",01-11-2025 07:00:00,26.9502929,75.730943,NH3,6,16,9
India,Rajasthan,Bundi,"New Colony, Bundi - RSPCB",01-11-2025 07:00:00,25.435774,75.644272,PM2.5,5,62,25
India,Rajasthan,Bundi,"New Colony, Bundi - RSPCB",01-11-2025 07:00:00,25.435774,75.644272,CO,24,80,40
India,Rajasthan,Chittorgarh,"Shastri Nagar, Chittorgarh - RSPCB",01-11-2025 07:00:00,24.892047,74.623527,PM2.5,7,127,37
India,Rajasthan,Churu,"Subash Chowk, Churu - RSPCB",01-11-2025 07:00:00,28.296139,74.961696,NH3,7,18,10
India,Rajasthan,Churu,"Subash Chowk, Churu - RSPCB",01-11-2025 07:00:00,28.296139,74.961696,OZONE,21,127,43
India,Rajasthan,Dausa,"Khatikan Mohalla, Dausa - RSPCB",01-11-2025 07:00:00,26.895552,76.334753,PM2.5,13,92,38
India,Rajasthan,Dausa,"Khatikan Mohalla, Dausa - RSPCB",01-11-2025 07:00:00,26.895552,76.334753,NO2,10,86,36
India,Rajasthan,Barmer,"Railway Colony, Barmer - RSPCB",01-11-2025 07:00:00,25.747299,71.393989,SO2,1,5,2
India,Rajasthan,Barmer,"Railway Colony, Barmer - RSPCB",01-11-2025 07:00:00,25.747299,71.393989,OZONE,29,118,64
India,Rajasthan,Bhilwara,"Pratap Nagar, Bhilwara - RSPCB",01-11-2025 07:00:00,25.339605,74.618883,NO2,8,35,17
India,Rajasthan,Bhiwadi,"RIICO Ind. Area III, Bhiwadi - RSPCB",01-11-2025 07:00:00,28.194909,76.862296,PM10,71,175,119
India,Rajasthan,Bhiwadi,"RIICO Ind. Area III, Bhiwadi - RSPCB",01-11-2025 07:00:00,28.194909,76.862296,NH3,6,15,12
India,Rajasthan,Bhiwadi,"RIICO Ind. Area III, Bhiwadi - RSPCB",01-11-2025 07:00:00,28.194909,76.862296,SO2,3,13,10
India,Punjab,Ludhiana,"Punjab Agricultural University, Ludhiana - PPCB",01-11-2025 07:00:00,30.9028,75.8086,PM2.5,113,198,152
India,Punjab,Ludhiana,"Punjab Agricultural University, Ludhiana - PPCB",01-11-2025 07:00:00,30.9028,75.8086,SO2,4,18,10
India,Punjab,Mandi Gobindgarh,"RIMT University, Mandi Gobindgarh - PPCB",01-11-2025 07:00:00,30.649961,76.331442,CO,18,94,41
India,Punjab,Mandi Gobindgarh,"RIMT University, Mandi Gobindgarh - PPCB",01-11-2025 07:00:00,30.649961,76.331442,OZONE,32,36,34
India,Punjab,Rupnagar,"Ratanpura, Rupnagar - Ambuja Cements",01-11-2025 07:00:00,31.0325454,76.5623046,NO2,NA,NA,NA
India,Rajasthan,Dholpur,"Raja Ganj, Dholpur - RSPCB",01-11-2025 07:00:00,26.699557,77.898881,PM2.5,25,68,41
India,Rajasthan,Dholpur,"Raja Ganj, Dholpur - RSPCB",01-11-2025 07:00:00,26.699557,77.898881,CO,2,70,10
India,Rajasthan,Hanumangarh,"Housing Board, Hanumangarh - RSPCB",01-11-2025 07:00:00,29.610750,74.283608,PM2.5,103,388,225
India,Rajasthan,Jaipur,"Adarsh Nagar, Jaipur - RSPCB",01-11-2025 07:00:00,26.902909,75.836858,NO2,18,49,33
India,Rajasthan,Jaipur,"Adarsh Nagar, Jaipur - RSPCB",01-11-2025 07:00:00,26.902909,75.836858,CO,30,70,37
India,Punjab,Amritsar,"Golden Temple, Amritsar - PPCB",01-11-2025 07:00:00,31.620000,74.876512,PM10,61,103,86
India,Punjab,Jalandhar,"Civil Line, Jalandhar - PPCB",01-11-2025 07:00:00,31.321907,75.578914,PM2.5,86,306,183
India,Rajasthan,Udaipur,"Ashok Nagar, Udaipur - RSPCB",01-11-2025 07:00:00,24.5886166,73.6321397,PM10,40,129,81
India,Rajasthan,Udaipur,"Ashok Nagar, Udaipur - RSPCB",01-11-2025 07:00:00,24.5886166,73.6321397,NO2,2,133,44
India,Rajasthan,Udaipur,"Ashok Nagar, Udaipur - RSPCB",01-11-2025 07:00:00,24.5886166,73.6321397,SO2,6,14,9
India,Sikkim,Gangtok,"Zero Point GICI, Gangtok - SSPCB",01-11-2025 07:00:00,27.338530,88.614099,PM2.5,1,10,3
India,Sikkim,Gangtok,"Zero Point GICI, Gangtok - SSPCB",01-11-2025 07:00:00,27.338530,88.614099,NO2,4,6,5
India,Sikkim,Gangtok,"Zero Point GICI, Gangtok - SSPCB",01-11-2025 07:00:00,27.338530,88.614099,SO2,1,1,1
India,Sikkim,Gangtok,"Zero Point GICI, Gangtok - SSPCB",01-11-2025 07:00:00,27.338530,88.614099,CO,1,26,5
India,Sikkim,Gangtok,"Zero Point GICI, Gangtok - SSPCB",01-11-2025 07:00:00,27.338530,88.614099,OZONE,12,52,29
India,TamilNadu,Ariyalur,"Keelapalur, Ariyalur - TNPCB",01-11-2025 07:00:00,11.06825,79.07033,NH3,1,1,1
India,TamilNadu,Chengalpattu,"Crescent University, Chengalpattu - TNPCB",01-11-2025 07:00:00,12.8777316,80.0834807,PM2.5,32,55,41
India,TamilNadu,Chengalpattu,"Crescent University, Chengalpattu - TNPCB",01-11-2025 07:00:00,12.8777316,80.0834807,PM10,39,62,49
India,TamilNadu,Chengalpattu,"Crescent University, Chengalpattu - TNPCB",01-11-2025 07:00:00,12.8777316,80.0834807,NO2,3,4,4
India,TamilNadu,Chengalpattu,"Crescent University, Chengalpattu - TNPCB",01-11-2025 07:00:00,12.8777316,80.0834807,SO2,16,16,16
India,TamilNadu,Chennai,"Perungudi, Chennai - TNPCB",01-11-2025 07:00:00,12.9533,80.2357,NO2,3,13,6
India,TamilNadu,Chennai,"Perungudi, Chennai - TNPCB",01-11-2025 07:00:00,12.9533,80.2357,NH3,3,4,3
India,TamilNadu,Chennai,"Royapuram, Chennai - TNPCB",01-11-2025 07:00:00,13.1036,80.2909,PM2.5,NA,NA,NA
India,TamilNadu,Chennai,"Royapuram, Chennai - TNPCB",01-11-2025 07:00:00,13.1036,80.2909,PM10,NA,NA,NA
India,TamilNadu,Chennai,"Royapuram, Chennai - TNPCB",01-11-2025 07:00:00,13.1036,80.2909,SO2,NA,NA,NA
India,TamilNadu,Chennai,"Velachery Res. Area, Chennai - CPCB",01-11-2025 07:00:00,13.0052189,80.2398125,OZONE,6,13,7
India,TamilNadu,Coimbatore,"PSG College of Arts and Science, Coimbatore - TNPCB",01-11-2025 07:00:00,11.0328,77.0349,PM2.5,82,207,103
India,TamilNadu,Coimbatore,"PSG College of Arts and Science, Coimbatore - TNPCB",01-11-2025 07:00:00,11.0328,77.0349,PM10,76,150,94
India,TamilNadu,Coimbatore,"SIDCO Kurichi, Coimbatore - TNPCB",01-11-2025 07:00:00,10.942451,76.978996,NH3,1,2,1
India,Rajasthan,Jodhpur,"Collectorate, Jodhpur - RSPCB",01-11-2025 07:00:00,26.268249,73.0193853,NH3,6,15,10
India,Rajasthan,Jodhpur,"Collectorate, Jodhpur - RSPCB",01-11-2025 07:00:00,26.268249,73.0193853,OZONE,10,34,15
India,Rajasthan,Jodhpur,"Digari Kalan, Jodhpur - RSPCB",01-11-2025 07:00:00,26.295810,73.082283,NO2,8,51,25
India,Rajasthan,Jodhpur,"Digari Kalan, Jodhpur - RSPCB",01-11-2025 07:00:00,26.295810,73.082283,NH3,6,12,9
India,Rajasthan,Jodhpur,"Jhalamand, Jodhpur - RSPCB",01-11-2025 07:00:00,26.215415,73.070156,PM10,61,218,116
India,Rajasthan,Jodhpur,"Jhalamand, Jodhpur - RSPCB",01-11-2025 07:00:00,26.215415,73.070156,NO2,6,55,25
India,Rajasthan,Jodhpur,"Jhalamand, Jodhpur - RSPCB",01-11-2025 07:00:00,26.215415,73.070156,NH3,8,26,14
India,Rajasthan,Jodhpur,"Mandor, Jodhpur - RSPCB",01-11-2025 07:00:00,26.358805,73.047444,NH3,4,7,5
India,TamilNadu,Coimbatore,"SIDCO Kurichi, Coimbatore - TNPCB",01-11-2025 07:00:00,10.942451,76.978996,OZONE,1,48,1
India,TamilNadu,Cuddalore,"Kudikadu, Cuddalore - TNPCB",01-11-2025 07:00:00,11.6829898,79.7532099,PM10,29,112,66
India,TamilNadu,Dindigul,"Mendonsa Colony, Dindigul - TNPCB",01-11-2025 07:00:00,10.358535,77.984321,NO2,5,9,7
India,TamilNadu,Hosur,"SIPCOT Phase-1, Hosur - TNPCB",01-11-2025 07:00:00,12.746998,77.813811,OZONE,9,129,9
India,TamilNadu,Kanchipuram,"Kilambi, Kanchipuram - TNPCB",01-11-2025 07:00:00,12.864618,79.659968,NO2,1,11,3
India,Rajasthan,Kota,"Shrinath Puram, Kota - RSPCB",01-11-2025 07:00:00,25.14389,75.821256,CO,12,54,32
India,Rajasthan,Nagaur,"Karni Colony, Nagaur - RSPCB",01-11-2025 07:00:00,27.213494,73.734444,CO,22,58,41
India,Rajasthan,Pali,"Indira Colony Vistar, Pali - RSPCB",01-11-2025 07:00:00,25.771061, 73.340227,PM10,45,108,70
India,Rajasthan,Pratapgarh,"Pragati Nagar, Pratapgarh - RSPCB",01-11-2025 07:00:00,24.041198,74.780702,CO,4,20,13
India,Rajasthan,Sawai Madhopur,"Sahu Nagar, Sawai Madhopur - RSPCB",01-11-2025 07:00:00,26.031443,76.359327,PM10,14,73,32
India,TamilNadu,Chennai,"Arumbakkam, Chennai - TNPCB",01-11-2025 07:00:00,13.0664,80.2112 ,NH3,3,4,4
India,TamilNadu,Chennai,"Kodungaiyur, Chennai - TNPCB",01-11-2025 07:00:00,13.1278,80.2642,SO2,2,12,8
India,TamilNadu,Chennai,"Manali Village, Chennai - TNPCB",01-11-2025 07:00:00,13.1662,80.2584,PM2.5,NA,NA,NA
India,TamilNadu,Chennai,"Manali Village, Chennai - TNPCB",01-11-2025 07:00:00,13.1662,80.2584,CO,NA,NA,NA
India,TamilNadu,Chennai,"Manali, Chennai - CPCB",01-11-2025 07:00:00,13.164544,80.26285,SO2,NA,NA,NA
India,Rajasthan,Sawai Madhopur,"Sahu Nagar, Sawai Madhopur - RSPCB",01-11-2025 07:00:00,26.031443,76.359327,CO,42,59,47
India,Rajasthan,Sikar,"Radhakishan Pura, Sikar - RSPCB",01-11-2025 07:00:00,27.608912,75.153302,NO2,12,107,32
India,Rajasthan,Sirohi,"Vedhaynath Colony, Sirohi - RSPCB",01-11-2025 07:00:00,24.885261,72.857549,OZONE,6,60,26
India,Rajasthan,Karauli,"Satyawati Vihar, Karauli - RSPCB",01-11-2025 07:00:00,26.506177,77.025989,CO,10,31,13
India,Rajasthan,Kota,"Shrinath Puram, Kota - RSPCB",01-11-2025 07:00:00,25.14389,75.821256,NH3,2,4,3
India,Rajasthan,Jodhpur,"Samrat Ashok Udhyan, Jodhpur - RSPCB",01-11-2025 07:00:00,26.253384,72.976571,SO2,4,8,5
India,TamilNadu,Tirunelveli,"Municipal Corporation Office, Tirunelveli - TNPCB",01-11-2025 07:00:00,8.728442,77.6962,PM2.5,NA,NA,NA
India,TamilNadu,Tirunelveli,"Municipal Corporation Office, Tirunelveli - TNPCB",01-11-2025 07:00:00,8.728442,77.6962,NO2,NA,NA,NA
India,TamilNadu,Tirupur,"Kumaran College, Tirupur - TNPCB",01-11-2025 07:00:00,11.0973603,77.3228673,PM10,33,110,62
India,TamilNadu,Tirupur,"Kumaran College, Tirupur - TNPCB",01-11-2025 07:00:00,11.0973603,77.3228673,CO,17,24,18
India,TamilNadu,Vellore,"Vasanthapuram, Vellore - TNPCB",01-11-2025 07:00:00,12.909494,79.131861,PM2.5,16,56,29
India,TamilNadu,Virudhunagar,"Collectorate Office, Virudhunagar - TNPCB",01-11-2025 07:00:00,9.559382,77.948828,PM10,NA,NA,NA
India,TamilNadu,Virudhunagar,"Collectorate Office, Virudhunagar - TNPCB",01-11-2025 07:00:00,9.559382,77.948828,NO2,NA,NA,NA
India,TamilNadu,Virudhunagar,"Collectorate Office, Virudhunagar - TNPCB",01-11-2025 07:00:00,9.559382,77.948828,CO,NA,NA,NA
India,TamilNadu,Virudhunagar,"Collectorate Office, Virudhunagar - TNPCB",01-11-2025 07:00:00,9.559382,77.948828,OZONE,NA,NA,NA
India,Telangana,Hyderabad,"Bollaram Industrial Area, Hyderabad - TSPCB",01-11-2025 07:00:00,17.540891,78.358528,PM2.5,21,147,63
India,Telangana,Hyderabad,"Bollaram Industrial Area, Hyderabad - TSPCB",01-11-2025 07:00:00,17.540891,78.358528,PM10,17,157,61
India,TamilNadu,Kanchipuram,"Kilambi, Kanchipuram - TNPCB",01-11-2025 07:00:00,12.864618,79.659968,SO2,1,9,4
India,TamilNadu,Kanchipuram,"Kilambi, Kanchipuram - TNPCB",01-11-2025 07:00:00,12.864618,79.659968,CO,20,28,25
India,TamilNadu,Madurai,"Uchapatti, Madurai - TNPCB",01-11-2025 07:00:00,9.865935,78.022669,SO2,9,11,11
India,TamilNadu,Madurai,"Uchapatti, Madurai - TNPCB",01-11-2025 07:00:00,9.865935,78.022669,CO,22,24,23
India,TamilNadu,Nagapattinam,"Velippalayam, Nagapattinam - TNPCB",01-11-2025 07:00:00,10.798548,79.838212,PM2.5,3,43,25
India,TamilNadu,Nagapattinam,"Velippalayam, Nagapattinam - TNPCB",01-11-2025 07:00:00,10.798548,79.838212,SO2,4,7,5
India,TamilNadu,Nagapattinam,"Velippalayam, Nagapattinam - TNPCB",01-11-2025 07:00:00,10.798548,79.838212,CO,12,18,14
India,TamilNadu,Namakkal,"Ponnusamy Nagar, Namakkal - TNPCB",01-11-2025 07:00:00,11.273992,78.163545,NH3,3,3,3
India,TamilNadu,Ooty,"Bombay Castel, Ooty - TNPCB",01-11-2025 07:00:00,11.4068288,76.7138973,PM10,20,198,72
India,Telangana,Hyderabad,"Somajiguda, Hyderabad - TSPCB",01-11-2025 07:00:00,17.417094,78.457437,CO,NA,NA,NA
India,Telangana,Hyderabad,"Somajiguda, Hyderabad - TSPCB",01-11-2025 07:00:00,17.417094,78.457437,OZONE,NA,NA,NA
India,Telangana,Hyderabad,"Zoo Park, Hyderabad - TSPCB",01-11-2025 07:00:00,17.349694,78.451437,NH3,3,4,3
India,Tripura,Agartala,"Bardowali, Agartala - Tripura SPCB",01-11-2025 07:00:00,23.8175497,91.2726974,PM2.5,1,49,27
India,Uttar_Pradesh,Agra,"Manoharpur, Agra - UPPCB",01-11-2025 07:00:00,27.23711,78.01936,CO,24,29,26
India,Uttar_Pradesh,Agra,"Rohta, Agra - UPPCB",01-11-2025 07:00:00,27.106972,78.000111,PM2.5,14,55,29
India,Uttar_Pradesh,Agra,"Rohta, Agra - UPPCB",01-11-2025 07:00:00,27.106972,78.000111,CO,22,34,25
India,Uttar_Pradesh,Agra,"Sanjay Palace, Agra - UPPCB",01-11-2025 07:00:00,27.19865833,78.00598056,SO2,15,18,16
India,Uttar_Pradesh,Agra,"Sector-3B Avas Vikas Colony, Agra - UPPCB",01-11-2025 07:00:00,27.19412,77.96237,OZONE,1,4,2
India,Uttar_Pradesh,Agra,"Shahjahan Garden, Agra - UPPCB",01-11-2025 07:00:00,27.169338,78.03582,NO2,20,28,21
India,Uttar_Pradesh,Agra,"Shahjahan Garden, Agra - UPPCB",01-11-2025 07:00:00,27.169338,78.03582,NH3,NA,NA,NA
India,Uttar_Pradesh,Agra,"Shahjahan Garden, Agra - UPPCB",01-11-2025 07:00:00,27.169338,78.03582,SO2,20,26,24
India,Uttar_Pradesh,Agra,"Shahjahan Garden, Agra - UPPCB",01-11-2025 07:00:00,27.169338,78.03582,CO,8,37,13
India,Telangana,Hyderabad,"Central University, Hyderabad - TSPCB",01-11-2025 07:00:00,17.460103,78.334361,NO2,41,71,51
India,Telangana,Hyderabad,"ECIL Kapra, Hyderabad - TSPCB",01-11-2025 07:00:00,17.470431,78.566959,NO2,24,40,31
India,Telangana,Hyderabad,"ECIL Kapra, Hyderabad - TSPCB",01-11-2025 07:00:00,17.470431,78.566959,OZONE,18,30,18
India,Telangana,Hyderabad,"ICRISAT Patancheru, Hyderabad - TSPCB",01-11-2025 07:00:00,17.518400,78.278777,PM2.5,8,53,23
India,Telangana,Hyderabad,"ICRISAT Patancheru, Hyderabad - TSPCB",01-11-2025 07:00:00,17.518400,78.278777,OZONE,4,33,9
India,Telangana,Hyderabad,"IITH Kandi, Hyderabad - TSPCB",01-11-2025 07:00:00,17.585705,78.126199,SO2,7,9,8
India,Telangana,Hyderabad,"IITH Kandi, Hyderabad - TSPCB",01-11-2025 07:00:00,17.585705,78.126199,OZONE,22,28,23
India,TamilNadu,Salem,"Sona College of Technology, Salem - TNPCB",01-11-2025 07:00:00,11.679111,78.125052,NH3,NA,NA,NA
India,TamilNadu,Thanjavur,"Parisutham Nagar, Thanjavur - TNPCB",01-11-2025 07:00:00,10.7654824,79.1389968,PM10,28,135,47
India,TamilNadu,Thanjavur,"Parisutham Nagar, Thanjavur - TNPCB",01-11-2025 07:00:00,10.7654824,79.1389968,SO2,16,17,16
India,TamilNadu,Tiruchirappalli,"St Joseph College, Tiruchirappalli - TNPCB",01-11-2025 07:00:00,10.830158,78.691849,NH3,1,1,1
India,TamilNadu,Tiruchirappalli,"St Joseph College, Tiruchirappalli - TNPCB",01-11-2025 07:00:00,10.830158,78.691849,OZONE,4,22,9
India,TamilNadu,Perundurai,"SIPCOT Industrial Park, Perundurai - TNPCB",01-11-2025 07:00:00,11.258242,77.552761,PM10,NA,NA,NA
India,TamilNadu,Perundurai,"SIPCOT Industrial Park, Perundurai - TNPCB",01-11-2025 07:00:00,11.258242,77.552761,NO2,NA,NA,NA
India,TamilNadu,Perundurai,"SIPCOT Industrial Park, Perundurai - TNPCB",01-11-2025 07:00:00,11.258242,77.552761,OZONE,NA,NA,NA
India,TamilNadu,Pudukottai,"SIPCOT Nathampannai, Pudukottai - TNPCB",01-11-2025 07:00:00,10.423417,78.784889,PM2.5,24,137,43
India,TamilNadu,Ramanathapuram,"Chalai Bazaar, Ramanathapuram - TNPCB",01-11-2025 07:00:00,9.36399,78.831977,NH3,2,2,2
India,Uttar_Pradesh,Baghpat,"Sardar Patel Inter College, Baghpat - UPPCB",01-11-2025 07:00:00,28.964949,77.278761,CO,34,66,42
India,Uttar_Pradesh,Baghpat,"Sardar Patel Inter College, Baghpat - UPPCB",01-11-2025 07:00:00,28.964949,77.278761,OZONE,1,108,1
India,Uttar_Pradesh,Bulandshahr,"Yamunapuram, Bulandshahr - UPPCB",01-11-2025 07:00:00,28.406963,77.849831,PM10,38,162,114
India,Telangana,Hyderabad,"Kompally Municipal Office, Hyderabad - TSPCB",01-11-2025 07:00:00,17.544899,78.486949,CO,10,16,13
India,Telangana,Hyderabad,"New Malakpet, Hyderabad - TSPCB",01-11-2025 07:00:00,17.37206,78.50864,NH3,2,3,2
India,Uttar_Pradesh,Firozabad,"Nagla Bhau, Firozabad - UPPCB",01-11-2025 07:00:00,27.168897,78.376960,SO2,1,21,9
India,Uttar_Pradesh,Firozabad,"Vibhab Nagar, Firozabad - UPPCB",01-11-2025 07:00:00,27.1594,78.3953,NO2,15,15,15
India,Uttar_Pradesh,Firozabad,"Vibhab Nagar, Firozabad - UPPCB",01-11-2025 07:00:00,27.1594,78.3953,CO,5,15,11
India,Uttar_Pradesh,Ghaziabad,"Indirapuram, Ghaziabad - UPPCB",01-11-2025 07:00:00,28.646233,77.358075,NO2,32,118,63
India,Uttar_Pradesh,Ghaziabad,"Loni, Ghaziabad - UPPCB",01-11-2025 07:00:00,28.757294,77.278792,NO2,28,184,102
India,Uttar_Pradesh,Ghaziabad,"Loni, Ghaziabad - UPPCB",01-11-2025 07:00:00,28.757294,77.278792,CO,38,149,97
India,Uttar_Pradesh,Ghaziabad,"Loni, Ghaziabad - UPPCB",01-11-2025 07:00:00,28.757294,77.278792,OZONE,7,87,8
India,Uttar_Pradesh,Ghaziabad,"Sanjay Nagar, Ghaziabad - UPPCB",01-11-2025 07:00:00,28.685382,77.453839,PM10,86,222,141
India,Uttar_Pradesh,Ghaziabad,"Sanjay Nagar, Ghaziabad - UPPCB",01-11-2025 07:00:00,28.685382,77.453839,SO2,12,21,17
India,Uttar_Pradesh,Ghaziabad,"Vasundhara, Ghaziabad - UPPCB",01-11-2025 07:00:00,28.6603346,77.3572563,NO2,55,175,116
India,Uttar_Pradesh,Gorakhpur,"Madan Mohan Malaviya University of Technology, Gorakhpur - UPPCB",01-11-2025 07:00:00,26.730136,83.433859,NO2,10,12,11
India,Uttar_Pradesh,Gorakhpur,"Madan Mohan Malaviya University of Technology, Gorakhpur - UPPCB",01-11-2025 07:00:00,26.730136,83.433859,NH3,1,1,1
India,Uttar_Pradesh,Greater Noida,"Knowledge Park - III, Greater Noida - UPPCB",01-11-2025 07:00:00,28.47272,77.482000,CO,27,108,79
India,Uttar_Pradesh,Greater Noida,"Knowledge Park - III, Greater Noida - UPPCB",01-11-2025 07:00:00,28.47272,77.482000,OZONE,1,84,5
India,Uttar_Pradesh,Greater Noida,"Knowledge Park - V, Greater Noida - UPPCB",01-11-2025 07:00:00,28.557054,77.453663,NO2,41,110,73
India,Uttar_Pradesh,Greater Noida,"Knowledge Park - V, Greater Noida - UPPCB",01-11-2025 07:00:00,28.557054,77.453663,NH3,3,11,6
India,Uttar_Pradesh,Greater Noida,"Knowledge Park - V, Greater Noida - UPPCB",01-11-2025 07:00:00,28.557054,77.453663,CO,38,76,62
India,Uttar_Pradesh,Prayagraj,"Motilal Nehru NIT, Prayagraj - UPPCB",01-11-2025 07:00:00,25.494,81.863,PM2.5,8,27,14
India,Uttar_Pradesh,Prayagraj,"Motilal Nehru NIT, Prayagraj - UPPCB",01-11-2025 07:00:00,25.494,81.863,PM10,21,365,120
India,Uttar_Pradesh,Prayagraj,"Motilal Nehru NIT, Prayagraj - UPPCB",01-11-2025 07:00:00,25.494,81.863,SO2,13,48,33
India,Uttar_Pradesh,Prayagraj,"Motilal Nehru NIT, Prayagraj - UPPCB",01-11-2025 07:00:00,25.494,81.863,OZONE,7,11,8
India,Uttar_Pradesh,Prayagraj,"Nagar Nigam, Prayagraj - UPPCB",01-11-2025 07:00:00,25.44919916 ,81.82735986 ,NO2,5,5,5
India,Uttar_Pradesh,Prayagraj,"Nagar Nigam, Prayagraj - UPPCB",01-11-2025 07:00:00,25.44919916 ,81.82735986 ,CO,17,24,22
India,Uttar_Pradesh,Varanasi,"Ardhali Bazar, Varanasi - UPPCB",01-11-2025 07:00:00,25.3505986,82.9083074,PM2.5,6,16,12
India,Uttar_Pradesh,Varanasi,"Ardhali Bazar, Varanasi - UPPCB",01-11-2025 07:00:00,25.3505986,82.9083074,CO,5,22,10
India,Uttar_Pradesh,Varanasi,"Bhelupur, Varanasi - UPPCB",01-11-2025 07:00:00,25.301778,82.996789,NH3,1,1,1
India,Uttar_Pradesh,Hapur,"Anand Vihar, Hapur - UPPCB",01-11-2025 07:00:00,28.725645,77.749675,OZONE,25,28,27
India,Uttar_Pradesh,Jhansi,"Shivaji Nagar, Jhansi - UPPCB",01-11-2025 07:00:00,25.4547,78.6039,OZONE,2,7,3
India,Uttar_Pradesh,Kanpur,"FTI Kidwai Nagar, Kanpur - UPPCB",01-11-2025 07:00:00,26.428282,80.327067,OZONE,21,23,22
India,Uttar_Pradesh,Kanpur,"NSI Kalyanpur, Kanpur - UPPCB",01-11-2025 07:00:00,26.509954,80.249612,PM2.5,1,62,28
India,Uttar_Pradesh,Kanpur,"NSI Kalyanpur, Kanpur - UPPCB",01-11-2025 07:00:00,26.509954,80.249612,OZONE,22,24,23
India,Uttar_Pradesh,Kanpur,"Nehru Nagar, Kanpur - UPPCB",01-11-2025 07:00:00,26.4703136,80.3229863,PM10,2,47,19
India,Uttar_Pradesh,Kanpur,"Nehru Nagar, Kanpur - UPPCB",01-11-2025 07:00:00,26.4703136,80.3229863,NO2,32,42,38
India,Uttar_Pradesh,Kanpur,"Nehru Nagar, Kanpur - UPPCB",01-11-2025 07:00:00,26.4703136,80.3229863,OZONE,6,29,6
India,Uttar_Pradesh,Noida,"Sector - 125, Noida - UPPCB",01-11-2025 07:00:00,28.5447608,77.3231257,PM2.5,128,388,271
India,Uttar_Pradesh,Noida,"Sector - 125, Noida - UPPCB",01-11-2025 07:00:00,28.5447608,77.3231257,SO2,1,22,9
India,Uttar_Pradesh,Noida,"Sector - 62, Noida - IMD",01-11-2025 07:00:00,28.6245479,77.3577104,PM10,65,181,132
India,Uttar_Pradesh,Noida,"Sector - 62, Noida - IMD",01-11-2025 07:00:00,28.6245479,77.3577104,CO,14,51,37
India,Uttar_Pradesh,Noida,"Sector-1, Noida - UPPCB",01-11-2025 07:00:00,28.5898,77.3101,OZONE,9,90,10
India,Uttar_Pradesh,Prayagraj,"Jhunsi, Prayagraj - UPPCB",01-11-2025 07:00:00,25.425602,81.917152,PM2.5,6,30,12
India,Uttar_Pradesh,Prayagraj,"Jhunsi, Prayagraj - UPPCB",01-11-2025 07:00:00,25.425602,81.917152,NO2,6,6,6
India,Uttar_Pradesh,Khurja,"Kalindi Kunj, Khurja - UPPCB",01-11-2025 07:00:00,28.2348927,77.8683002,PM10,72,126,107
India,Uttar_Pradesh,Khurja,"Kalindi Kunj, Khurja - UPPCB",01-11-2025 07:00:00,28.2348927,77.8683002,CO,9,61,42
India,Uttar_Pradesh,Lucknow,"B R Ambedkar University, Lucknow - UPPCB",01-11-2025 07:00:00,26.766433,80.927299,NO2,21,22,22
India,Uttar_Pradesh,Lucknow,"Gomti Nagar, Lucknow - UPPCB",01-11-2025 07:00:00,26.868120,81.005119,PM2.5,7,269,72
India,Uttar_Pradesh,Lucknow,"Kukrail Picnic Spot-1, Lucknow - UPPCB",01-11-2025 07:00:00,26.90723,80.98579,PM10,14,48,30
India,Uttar_Pradesh,Lucknow,"Kukrail Picnic Spot-1, Lucknow - UPPCB",01-11-2025 07:00:00,26.90723,80.98579,NO2,31,32,32
India,Uttar_Pradesh,Lucknow,"Kukrail Picnic Spot-1, Lucknow - UPPCB",01-11-2025 07:00:00,26.90723,80.98579,NH3,5,5,5
India,Uttar_Pradesh,Lucknow,"Lalbagh, Lucknow - CPCB",01-11-2025 07:00:00,26.8458805,80.9365541,PM2.5,1,57,34
India,Uttar_Pradesh,Lucknow,"Talkatora District Industries Center, Lucknow - CPCB",01-11-2025 07:00:00,26.83399722,80.8917361,PM2.5,13,75,41
India,Uttar_Pradesh,Lucknow,"Talkatora District Industries Center, Lucknow - CPCB",01-11-2025 07:00:00,26.83399722,80.8917361,CO,19,33,24
India,Uttar_Pradesh,Meerut,"Ganga Nagar, Meerut - UPPCB",01-11-2025 07:00:00,28.999264,77.7590354,PM2.5,78,282,175
India,Uttar_Pradesh,Meerut,"Ganga Nagar, Meerut - UPPCB",01-11-2025 07:00:00,28.999264,77.7590354,NH3,4,6,5
India,Uttar_Pradesh,Meerut,"Pallavpuram Phase 2, Meerut - UPPCB",01-11-2025 07:00:00,29.063510,77.709723,CO,12,71,28
India,Uttar_Pradesh,Moradabad,"Buddhi Vihar, Moradabad - UPPCB",01-11-2025 07:00:00,28.83526,78.74460,NH3,5,5,5
India,Uttar_Pradesh,Moradabad,"Buddhi Vihar, Moradabad - UPPCB",01-11-2025 07:00:00,28.83526,78.74460,SO2,28,28,28
India,Uttar_Pradesh,Moradabad,"Eco Herbal Park, Moradabad - UPPCB",01-11-2025 07:00:00,28.840739,78.697531,PM2.5,27,118,76
India,Uttar_Pradesh,Moradabad,"Eco Herbal Park, Moradabad - UPPCB",01-11-2025 07:00:00,28.840739,78.697531,NO2,9,29,16
India,Uttar_Pradesh,Moradabad,"Employment Office, Moradabad - UPPCB",01-11-2025 07:00:00,28.88528,78.73880,PM10,55,138,96
India,Uttar_Pradesh,Moradabad,"Jigar Colony, Moradabad - UPPCB",01-11-2025 07:00:00,28.856664,78.772638,NO2,25,25,25
India,Uttar_Pradesh,Moradabad,"Kashiram Nagar, Moradabad - UPPCB",01-11-2025 07:00:00,28.849399,78.742362,OZONE,22,49,29
India,Uttar_Pradesh,Moradabad,"Transport Nagar, Moradabad - UPPCB",01-11-2025 07:00:00,28.802625,78.753728,PM10,35,138,87
India,Uttar_Pradesh,Moradabad,"Transport Nagar, Moradabad - UPPCB",01-11-2025 07:00:00,28.802625,78.753728,NH3,5,6,5
India,Uttar_Pradesh,Varanasi,"Maldahiya, Varanasi - UPPCB",01-11-2025 07:00:00,25.32393,82.99687,SO2,29,33,30
India,Uttar_Pradesh,Vrindavan,"Omex Eternity, Vrindavan - UPPCB",01-11-2025 07:00:00,27.5714090,77.6557570,SO2,10,25,14
India,Uttarakhand,Dehradun,"Doon University, Dehradun - UKPCB",01-11-2025 07:00:00,30.269444,78.044167,CO,4,22,12
India,Uttarakhand,Kashipur,"Govt. Girls Inter College, Kashipur - UKPCB",01-11-2025 07:00:00,29.2124114,78.9611753,NO2,9,60,18
India,Uttarakhand,Kashipur,"Govt. Girls Inter College, Kashipur - UKPCB",01-11-2025 07:00:00,29.2124114,78.9611753,CO,26,34,30
India,Uttarakhand,Rishikesh,"Shivaji Nagar, Rishikesh - UKPCB",01-11-2025 07:00:00,30.075911,78.2859547,SO2,5,5,5
India,Uttarakhand,Rishikesh,"Shivaji Nagar, Rishikesh - UKPCB",01-11-2025 07:00:00,30.075911,78.2859547,CO,18,40,27
India,West_Bengal,Asansol,"Asansol Court Area, Asansol - WBPCB",01-11-2025 07:00:00,23.685297,86.945968,PM2.5,25,59,40
India,West_Bengal,Asansol,"Asansol Court Area, Asansol - WBPCB",01-11-2025 07:00:00,23.685297,86.945968,SO2,8,23,14
India,West_Bengal,Asansol,"Asansol Court Area, Asansol - WBPCB",01-11-2025 07:00:00,23.685297,86.945968,OZONE,11,20,12
India,West_Bengal,Asansol,"Evelyn Lodge, Asansol - WBPCB",01-11-2025 07:00:00,23.6979360,86.9443950,CO,3,68,25
India,West_Bengal,Asansol,"Mahabir Colliery, Asansol - WBPCB",01-11-2025 07:00:00,23.6181830,87.1057180,PM10,14,42,22
India,West_Bengal,Asansol,"Trivenidevi Bhalotia College, Asansol - WBPCB",01-11-2025 07:00:00,23.616515,87.119133,SO2,2,9,5
India,West_Bengal,Barrackpore,"SVSPA Campus, Barrackpore - WBPCB",01-11-2025 07:00:00,22.7605581,88.3617589,PM2.5,18,32,25
India,West_Bengal,Barrackpore,"SVSPA Campus, Barrackpore - WBPCB",01-11-2025 07:00:00,22.7605581,88.3617589,SO2,8,18,9
India,West_Bengal,Barrackpore,"SVSPA Campus, Barrackpore - WBPCB",01-11-2025 07:00:00,22.7605581,88.3617589,OZONE,4,15,6
India,West_Bengal,Durgapur,"Mahishkapur Road_B-Zone, Durgapur - WBPCB",01-11-2025 07:00:00,23.567923,87.306843,CO,27,50,41
India,West_Bengal,Durgapur,"PCBL Residential Complex, Durgapur - WBPCB",01-11-2025 07:00:00,23.5087640,87.3544400,NO2,5,13,9
India,West_Bengal,Durgapur,"Womens College_City Center, Durgapur - WBPCB (Formerly known as Sidhu Kanhu Indoor Stadium)",01-11-2025 07:00:00,23.549395,87.300496,PM2.5,14,74,48
India,West_Bengal,Durgapur,"Womens College_City Center, Durgapur - WBPCB (Formerly known as Sidhu Kanhu Indoor Stadium)",01-11-2025 07:00:00,23.549395,87.300496,OZONE,9,31,12
India,West_Bengal,Haldia,"Priyambada Housing Estate, Haldia - WBPCB",01-11-2025 07:00:00,22.06047,88.109737,NO2,6,28,11
India,West_Bengal,Howrah,"Belur Math, Howrah - WBPCB",01-11-2025 07:00:00,22.629801,88.352017,PM2.5,29,49,41
India,West_Bengal,Howrah,"Botanical Garden, Howrah - WBPCB",01-11-2025 07:00:00,22.554954,88.292568,SO2,8,13,9
India,West_Bengal,Howrah,"Dasnagar, Howrah - WBPCB",01-11-2025 07:00:00,22.6025571,88.3105664,PM10,13,49,37
India,West_Bengal,Howrah,"Dasnagar, Howrah - WBPCB",01-11-2025 07:00:00,22.6025571,88.3105664,NO2,8,16,13
India,West_Bengal,Howrah,"Padmapukur, Howrah - WBPCB",01-11-2025 07:00:00,22.5687319,88.2797276,PM10,15,80,61
India,West_Bengal,Howrah,"Padmapukur, Howrah - WBPCB",01-11-2025 07:00:00,22.5687319,88.2797276,NO2,15,53,30
India,West_Bengal,Howrah,"Padmapukur, Howrah - WBPCB",01-11-2025 07:00:00,22.5687319,88.2797276,NH3,3,11,7
India,West_Bengal,Kolkata,"Ballygunge, Kolkata - WBPCB",01-11-2025 07:00:00,22.5367507,88.3638022,SO2,6,10,8
India,West_Bengal,Kolkata,"Ballygunge, Kolkata - WBPCB",01-11-2025 07:00:00,22.5367507,88.3638022,CO,NA,NA,NA
India,West_Bengal,Kolkata,"Bidhannagar, Kolkata - WBPCB",01-11-2025 07:00:00,22.58157048,88.41002457,PM10,24,42,31
India,West_Bengal,Kolkata,"Bidhannagar, Kolkata - WBPCB",01-11-2025 07:00:00,22.58157048,88.41002457,SO2,7,12,9
India,West_Bengal,Kolkata,"Fort William, Kolkata - WBPCB",01-11-2025 07:00:00,22.556640,88.342674,OZONE,20,34,24
India,West_Bengal,Kolkata,"Jadavpur, Kolkata - WBPCB",01-11-2025 07:00:00,22.49929,88.36917,PM10,43,64,54
India,West_Bengal,Kolkata,"Jadavpur, Kolkata - WBPCB",01-11-2025 07:00:00,22.49929,88.36917,SO2,4,9,6
India,West_Bengal,Kolkata,"Rabindra Sarobar, Kolkata - WBPCB",01-11-2025 07:00:00,22.51106,88.35142,SO2,1,25,5
India,West_Bengal,Kolkata,"Victoria, Kolkata - WBPCB",01-11-2025 07:00:00,22.5448082,88.3403691,CO,18,36,26
India,Assam,Guwahati,"IITG, Guwahati - PCBA",01-11-2025 07:00:00,26.2028636,91.70046436,OZONE,6,29,10
India,Assam,Guwahati,"LGBI Airport, Guwahati - PCBA",01-11-2025 07:00:00,26.10887,91.589544,CO,28,104,34
India,Assam,Guwahati,"LGBI Airport, Guwahati - PCBA",01-11-2025 07:00:00,26.10887,91.589544,OZONE,14,18,16
India,Assam,Guwahati,"Pan Bazaar, Guwahati - PCBA",01-11-2025 07:00:00,26.187500,91.744194,PM2.5,8,36,20
India,Assam,Guwahati,"Railway Colony, Guwahati - PCBA",01-11-2025 07:00:00,26.181742,91.78063,PM10,4,53,27
India,Assam,Guwahati,"Railway Colony, Guwahati - PCBA",01-11-2025 07:00:00,26.181742,91.78063,NO2,3,4,3
India,Assam,Guwahati,"Railway Colony, Guwahati - PCBA",01-11-2025 07:00:00,26.181742,91.78063,SO2,30,30,30
India,Assam,Nagaon,"Christianpatty, Nagaon - PCBA",01-11-2025 07:00:00,26.349082,92.68449,PM2.5,19,36,25
India,Assam,Nagaon,"Christianpatty, Nagaon - PCBA",01-11-2025 07:00:00,26.349082,92.68449,SO2,2,14,12
India,Assam,Nalbari,"Bata Chowk, Nalbari - PCBA",01-11-2025 07:00:00,26.446912,91.439057,SO2,4,8,8
India,Assam,Nalbari,"Bata Chowk, Nalbari - PCBA",01-11-2025 07:00:00,26.446912,91.439057,CO,40,123,96
India,Andhra_Pradesh,Vijayawada,"Rajiv Gandhi Park, Vijayawada - APPCB",01-11-2025 07:00:00,16.509717,80.612222,PM2.5,68,123,92
India,Andhra_Pradesh,Vijayawada,"Rajiv Gandhi Park, Vijayawada - APPCB",01-11-2025 07:00:00,16.509717,80.612222,PM10,65,107,88
India,Andhra_Pradesh,Vijayawada,"Rajiv Nagar, Vijayawada - APPCB",01-11-2025 07:00:00,16.554731,80.649110,SO2,5,20,14
India,Andhra_Pradesh,Vijayawada,"Rajiv Nagar, Vijayawada - APPCB",01-11-2025 07:00:00,16.554731,80.649110,OZONE,35,353,147
India,Andhra_Pradesh,Visakhapatnam,"GVM Corporation, Visakhapatnam - APPCB",01-11-2025 07:00:00,17.72,83.3,NH3,3,3,3
India,Arunachal_Pradesh,Naharlagun,"Naharlagun, Naharlagun - APSPCB",01-11-2025 07:00:00,27.103358,93.679645,PM2.5,2,56,19
India,Arunachal_Pradesh,Naharlagun,"Naharlagun, Naharlagun - APSPCB",01-11-2025 07:00:00,27.103358,93.679645,NO2,5,6,6
India,Bihar,Bihar Sharif,"D M Colony, Bihar Sharif - BSPCB",01-11-2025 07:00:00,25.204762,85.514960,PM10,12,35,22
India,Bihar,Bihar Sharif,"D M Colony, Bihar Sharif - BSPCB",01-11-2025 07:00:00,25.204762,85.514960,CO,8,8,8
India,Bihar,Bihar Sharif,"D M Colony, Bihar Sharif - BSPCB",01-11-2025 07:00:00,25.204762,85.514960,OZONE,22,36,28
India,Bihar,Buxar,"Charitra Van, Buxar - BSPCB",01-11-2025 07:00:00,25.567520,83.966379,SO2,2,8,5
India,Bihar,Buxar,"Charitra Van, Buxar - BSPCB",01-11-2025 07:00:00,25.567520,83.966379,OZONE,1,47,1
India,Bihar,Chhapra,"Darshan Nagar, Chhapra - BSPCB",01-11-2025 07:00:00,25.7808257,84.7446768,CO,2,6,4
India,Bihar,Gaya,"Collectorate, Gaya - BSPCB",01-11-2025 07:00:00,24.7955,84.9994,PM2.5,3,96,36
India,Bihar,Gaya,"Collectorate, Gaya - BSPCB",01-11-2025 07:00:00,24.7955,84.9994,NO2,9,9,9
India,Bihar,Kishanganj,"SDM Office_Khagra, Kishanganj - BSPCB",01-11-2025 07:00:00,26.0881305,87.93840336,CO,NA,NA,NA
India,Bihar,Kishanganj,"SDM Office_Khagra, Kishanganj - BSPCB",01-11-2025 07:00:00,26.0881305,87.93840336,OZONE,NA,NA,NA
India,Bihar,Motihari,"Gandak Colony, Motihari - BSPCB",01-11-2025 07:00:00,26.63086,84.90051,PM2.5,17,24,20
India,Bihar,Motihari,"Gandak Colony, Motihari - BSPCB",01-11-2025 07:00:00,26.63086,84.90051,PM10,57,82,68
India,Bihar,Motihari,"Gandak Colony, Motihari - BSPCB",01-11-2025 07:00:00,26.63086,84.90051,NO2,3,4,4
India,Bihar,Munger,"Town Hall, Munger - BSPCB",01-11-2025 07:00:00,25.376776,86.471523,PM10,NA,NA,NA
India,Bihar,Munger,"Town Hall, Munger - BSPCB",01-11-2025 07:00:00,25.376776,86.471523,OZONE,2,34,11
India,Bihar,Muzaffarpur,"Buddha Colony, Muzaffarpur - BSPCB",01-11-2025 07:00:00,26.11442,85.39813,PM10,9,10,9
India,Bihar,Muzaffarpur,"Buddha Colony, Muzaffarpur - BSPCB",01-11-2025 07:00:00,26.11442,85.39813,NH3,4,5,5
India,Bihar,Muzaffarpur,"Buddha Colony, Muzaffarpur - BSPCB",01-11-2025 07:00:00,26.11442,85.39813,OZONE,22,43,29
India,Bihar,Muzaffarpur,"Muzaffarpur Collectorate, Muzaffarpur - BSPCB",01-11-2025 07:00:00,26.1209,85.3647,NO2,7,10,9
India,Bihar,Patna,"DRM Office Danapur, Patna - BSPCB",01-11-2025 07:00:00,25.586562,85.043586,NO2,NA,NA,NA
India,Bihar,Patna,"Govt. High School Shikarpur, Patna - BSPCB",01-11-2025 07:00:00,25.592539,85.227158,NO2,6,12,8
India,Bihar,Patna,"Govt. High School Shikarpur, Patna - BSPCB",01-11-2025 07:00:00,25.592539,85.227158,SO2,8,10,9
India,Andaman and Nicobar,Sri Vijaya Puram,"Police Line, Sri Vijaya Puram - ANPCC",01-11-2025 07:00:00,11.654054,92.734055,PM2.5,3,90,17
India,Andaman and Nicobar,Sri Vijaya Puram,"Police Line, Sri Vijaya Puram - ANPCC",01-11-2025 07:00:00,11.654054,92.734055,NO2,8,16,9
India,Andhra_Pradesh,Amaravati,"Secretariat, Amaravati - APPCB",01-11-2025 07:00:00,16.5150833,80.5181667,PM10,46,113,75
India,Andhra_Pradesh,Anantapur,"Gulzarpet, Anantapur - APPCB",01-11-2025 07:00:00,14.675886,77.593027,NH3,4,4,4
India,Andhra_Pradesh,Anantapur,"Gulzarpet, Anantapur - APPCB",01-11-2025 07:00:00,14.675886,77.593027,SO2,11,11,11
India,Bihar,Gaya,"Collectorate, Gaya - BSPCB",01-11-2025 07:00:00,24.7955,84.9994,OZONE,19,21,20
India,Bihar,Gaya,"Kareemganj, Gaya - BSPCB",01-11-2025 07:00:00,24.792403,84.992416,PM2.5,12,87,45
India,Bihar,Gaya,"Kareemganj, Gaya - BSPCB",01-11-2025 07:00:00,24.792403,84.992416,OZONE,4,36,13
India,Bihar,Gaya,"SFTI Kusdihra, Gaya - BSPCB",01-11-2025 07:00:00,24.762518,84.982348,PM10,11,27,16
India,Bihar,Gaya,"SFTI Kusdihra, Gaya - BSPCB",01-11-2025 07:00:00,24.762518,84.982348,CO,19,38,21
India,Bihar,Hajipur,"Industrial Area, Hajipur - BSPCB",01-11-2025 07:00:00,25.697189,85.245900,CO,6,14,9
India,Assam,Silchar,"Tarapur, Silchar - PCBA",01-11-2025 07:00:00,24.82827,92.79525,NO2,16,22,19
India,Assam,Silchar,"Tarapur, Silchar - PCBA",01-11-2025 07:00:00,24.82827,92.79525,NH3,1,1,1
India,Assam,Sivasagar,"Girls College, Sivasagar - PCBA",01-11-2025 07:00:00,26.987634,94.636574,SO2,8,13,10
India,Bihar,Arrah,"New DM Office, Arrah - BSPCB",01-11-2025 07:00:00,25.5626095,84.663264,NO2,NA,NA,NA
India,Bihar,Arrah,"New DM Office, Arrah - BSPCB",01-11-2025 07:00:00,25.5626095,84.663264,NH3,NA,NA,NA
India,Bihar,Begusarai,"Lohiyanagar, Begusarai - BSPCB",01-11-2025 07:00:00,25.42742023,86.13886079,PM2.5,79,169,112
India,Bihar,Bettiah,"Kamalnath Nagar, Bettiah - BSPCB",01-11-2025 07:00:00,26.80365,84.51954,NH3,1,2,1
India,Bihar,Bettiah,"Kamalnath Nagar, Bettiah - BSPCB",01-11-2025 07:00:00,26.80365,84.51954,CO,38,87,40
India,Bihar,Bhagalpur,"DM Office_Kachari Chowk, Bhagalpur - BSPCB",01-11-2025 07:00:00,25.251013,86.989001,NH3,NA,NA,NA
India,Andhra_Pradesh,Rajamahendravaram,"Anand Kala Kshetram, Rajamahendravaram - APPCB",01-11-2025 07:00:00,16.9872867,81.7363176,PM2.5,NA,NA,NA
India,Andhra_Pradesh,Rajamahendravaram,"Anand Kala Kshetram, Rajamahendravaram - APPCB",01-11-2025 07:00:00,16.9872867,81.7363176,SO2,NA,NA,NA
India,Andhra_Pradesh,Tirupati,"Vaikuntapuram, Tirupati - APPCB",01-11-2025 07:00:00,13.615387,79.409230,OZONE,29,30,29
India,Chhattisgarh,Raipur,"Krishak Nagar, Raipur - CECB",01-11-2025 07:00:00,21.237755,81.705301,SO2,6,9,7
India,Chhattisgarh,Raipur,"Siltara Phase-II, Raipur - CECB",01-11-2025 07:00:00,21.371751,81.664929,PM10,22,88,58
India,Chhattisgarh,Raipur,"Siltara Phase-II, Raipur - CECB",01-11-2025 07:00:00,21.371751,81.664929,NO2,6,25,15
India,Chhattisgarh,Tumidih,"OP Jindal Industrial Park, Tumidih - CECB",01-11-2025 07:00:00,22.06631475,83.33820077,SO2,5,13,7
India,Delhi,Delhi,"Alipur, Delhi - DPCC",01-11-2025 07:00:00,28.815329,77.153010,NO2,16,139,64
India,Delhi,Delhi,"Alipur, Delhi - DPCC",01-11-2025 07:00:00,28.815329,77.153010,OZONE,2,51,4
India,Delhi,Delhi,"Anand Vihar, Delhi - DPCC",01-11-2025 07:00:00,28.647622,77.3158090,NO2,42,181,98
India,Delhi,Delhi,"Anand Vihar, Delhi - DPCC",01-11-2025 07:00:00,28.647622,77.3158090,NH3,1,44,12
India,Chhattisgarh,Bhilai,"Hathkhoj, Bhilai - CECB",01-11-2025 07:00:00,21.224231,81.408350,OZONE,8,20,11
India,Chhattisgarh,Chhal,"Nawapara SECL Colony, Chhal - CECB",01-11-2025 07:00:00,22.118125,83.140608,NH3,6,6,6
India,Chhattisgarh,Korba,"Rampur, Korba - CECB",01-11-2025 07:00:00,22.368195,82.746431,PM2.5,53,75,66
India,Chhattisgarh,Korba,"Rampur, Korba - CECB",01-11-2025 07:00:00,22.368195,82.746431,PM10,45,68,53
India,Chhattisgarh,Korba,"Rampur, Korba - CECB",01-11-2025 07:00:00,22.368195,82.746431,NH3,2,2,2
India,Chhattisgarh,Korba,"Rampur, Korba - CECB",01-11-2025 07:00:00,22.368195,82.746431,SO2,5,11,8
India,Chhattisgarh,Korba,"Urja Nagar, Korba - CECB",01-11-2025 07:00:00,22.348441,82.549611,PM10,68,73,69
India,Chhattisgarh,Korba,"Urja Nagar, Korba - CECB",01-11-2025 07:00:00,22.348441,82.549611,SO2,3,11,8
India,Bihar,Sasaram,"Dada Peer, Sasaram - BSPCB",01-11-2025 07:00:00,24.952822,84.002396,NH3,2,6,3
India,Bihar,Sasaram,"Dada Peer, Sasaram - BSPCB",01-11-2025 07:00:00,24.952822,84.002396,OZONE,1,35,17
India,Bihar,Siwan,"Chitragupta Nagar, Siwan - BSPCB",01-11-2025 07:00:00,26.2271665,84.3570427,PM10,NA,NA,NA
India,Chandigarh,Chandigarh,"Sector 22, Chandigarh - CPCC",01-11-2025 07:00:00,30.735567,76.775714,NH3,7,11,9
India,Chandigarh,Chandigarh,"Sector-25, Chandigarh - CPCC",01-11-2025 07:00:00,30.751462,76.762879,PM10,63,122,104
India,Chandigarh,Chandigarh,"Sector-53, Chandigarh - CPCC",01-11-2025 07:00:00,30.719859,76.738637,PM2.5,97,333,199
India,Chandigarh,Chandigarh,"Sector-53, Chandigarh - CPCC",01-11-2025 07:00:00,30.719859,76.738637,NH3,4,6,5
India,Chhattisgarh,Bhilai,"32Bungalows, Bhilai - CECB",01-11-2025 07:00:00,21.194815,81.314770,PM2.5,3,11,7
India,Chhattisgarh,Bhilai,"32Bungalows, Bhilai - CECB",01-11-2025 07:00:00,21.194815,81.314770,SO2,5,10,7
India,Chhattisgarh,Bhilai,"Civic Center, Bhilai - Bhilai Steel Plant",01-11-2025 07:00:00,21.185571,81.343175,PM10,8,28,18
India,Chhattisgarh,Bhilai,"Civic Center, Bhilai - Bhilai Steel Plant",01-11-2025 07:00:00,21.185571,81.343175,SO2,6,10,8
India,Chhattisgarh,Bhilai,"Hathkhoj, Bhilai - CECB",01-11-2025 07:00:00,21.224231,81.408350,PM10,15,41,28
India,Bihar,Purnia,"Mariam Nagar, Purnia - BSPCB",01-11-2025 07:00:00,25.366336,87.117468,NO2,5,7,6
India,Bihar,Purnia,"Mariam Nagar, Purnia - BSPCB",01-11-2025 07:00:00,25.366336,87.117468,SO2,16,18,17
India,Bihar,Rajgir,"Dangi Tola, Rajgir - BSPCB",01-11-2025 07:00:00,25.03280,85.41948,SO2,19,24,21
India,Bihar,Saharsa,"Police Line, Saharsa - BSPCB",01-11-2025 07:00:00,25.892357,86.590325,SO2,16,18,17
India,Bihar,Saharsa,"Police Line, Saharsa - BSPCB",01-11-2025 07:00:00,25.892357,86.590325,CO,37,40,38
India,Delhi,Delhi,"Ashok Vihar, Delhi - DPCC",01-11-2025 07:00:00,28.695381,77.181665,NO2,25,111,61
India,Delhi,Delhi,"Ashok Vihar, Delhi - DPCC",01-11-2025 07:00:00,28.695381,77.181665,SO2,14,23,19
India,Delhi,Delhi,"Aya Nagar, Delhi - IMD",01-11-2025 07:00:00,28.4706914,77.1099364,PM2.5,86,288,177
India,Delhi,Delhi,"Aya Nagar, Delhi - IMD",01-11-2025 07:00:00,28.4706914,77.1099364,OZONE,2,120,6
India,Delhi,Delhi,"Bawana, Delhi - DPCC",01-11-2025 07:00:00,28.776200,77.051074,NO2,10,81,37
India,Delhi,Delhi,"Chandni Chowk, Delhi - IITM",01-11-2025 07:00:00,28.656756,77.227234,OZONE,2,87,2
India,Delhi,Delhi,"Dr. Karni Singh Shooting Range, Delhi - DPCC",01-11-2025 07:00:00,28.498571,77.264840,CO,25,42,36
India,Delhi,Delhi,"Dwarka-Sector 8, Delhi - DPCC ",01-11-2025 07:00:00,28.5710274,77.0719006,PM2.5,157,341,257
India,Delhi,Delhi,"Dwarka-Sector 8, Delhi - DPCC ",01-11-2025 07:00:00,28.5710274,77.0719006,CO,45,149,84
India,Chhattisgarh,Kunjemura,"OP Jindal School, Kunjemura - CECB",01-11-2025 07:00:00,22.126650,83.483212,NH3,2,2,2
India,Chhattisgarh,Milupara,"Govt. Higher Secondary School, Milupara - CECB",01-11-2025 07:00:00,22.1910172,83.5197009,PM2.5,NA,NA,NA
India,Chhattisgarh,Raipur,"AIIMS, Raipur - CECB",01-11-2025 07:00:00,21.258815,81.578979,NH3,NA,NA,NA
India,Chhattisgarh,Raipur,"AIIMS, Raipur - CECB",01-11-2025 07:00:00,21.258815,81.578979,CO,NA,NA,NA
India,Bihar,Patna,"IGSC Planetarium Complex, Patna - BSPCB",01-11-2025 07:00:00,25.610369,85.132568,PM2.5,NA,NA,NA
India,Bihar,Patna,"Muradpur, Patna - BSPCB",01-11-2025 07:00:00,25.619651,85.147382,PM2.5,26,66,41
India,Bihar,Patna,"Samanpura, Patna - BSPCB",01-11-2025 07:00:00,25.596727,85.085624,PM10,36,56,42
India,Gujarat,Ahmedabad,"SAC ISRO Satellite, Ahmedabad - IITM",01-11-2025 07:00:00,23.023389,72.515201,PM2.5,5,26,14
India,Gujarat,Ahmedabad,"SAC ISRO Satellite, Ahmedabad - IITM",01-11-2025 07:00:00,23.023389,72.515201,PM10,13,41,25
India,Gujarat,Ahmedabad,"SAC ISRO Satellite, Ahmedabad - IITM",01-11-2025 07:00:00,23.023389,72.515201,OZONE,6,22,9
India,Gujarat,Ahmedabad,"SVPI Airport Hansol, Ahmedabad - IITM",01-11-2025 07:00:00,23.076793,72.627874,CO,22,40,26
India,Gujarat,Ahmedabad,"SVPI Airport Hansol, Ahmedabad - IITM",01-11-2025 07:00:00,23.076793,72.627874,OZONE,2,17,6
India,Gujarat,Ankleshwar,"GIDC, Ankleshwar - GPCB",01-11-2025 07:00:00,21.613267,73.010555,PM2.5,42,103,68
India,Gujarat,Ankleshwar,"GIDC, Ankleshwar - GPCB",01-11-2025 07:00:00,21.613267,73.010555,OZONE,37,53,42
India,Gujarat,Gandhinagar,"GIFT City, Gandhinagar - IITM",01-11-2025 07:00:00,23.163798,72.677768,PM2.5,9,24,15
India,Delhi,Delhi,"Sri Aurobindo Marg, Delhi - DPCC",01-11-2025 07:00:00,28.531346,77.190156,NH3,2,12,5
India,Delhi,Delhi,"Sri Aurobindo Marg, Delhi - DPCC",01-11-2025 07:00:00,28.531346,77.190156,CO,31,72,63
India,Delhi,Delhi,"Sri Aurobindo Marg, Delhi - DPCC",01-11-2025 07:00:00,28.531346,77.190156,OZONE,1,72,2
India,Delhi,Delhi,"Vivek Vihar, Delhi - DPCC",01-11-2025 07:00:00,28.672342,77.315260,PM2.5,161,322,277
India,Delhi,Delhi,"Vivek Vihar, Delhi - DPCC",01-11-2025 07:00:00,28.672342,77.315260,CO,62,127,91
India,Delhi,Delhi,"Wazirpur, Delhi - DPCC",01-11-2025 07:00:00,28.699793,77.165453,NH3,11,14,13
India,Delhi,Delhi,"Jawaharlal Nehru Stadium, Delhi - DPCC",01-11-2025 07:00:00,28.580280,77.233829,PM10,107,416,200
India,Delhi,Delhi,"Lodhi Road, Delhi - IITM",01-11-2025 07:00:00,28.588333,77.221667,NO2,124,204,149
India,Delhi,Delhi,"Lodhi Road, Delhi - IITM",01-11-2025 07:00:00,28.588333,77.221667,SO2,2,37,19
India,Delhi,Delhi,"Lodhi Road, Delhi - IMD",01-11-2025 07:00:00,28.5918245,77.2273074,CO,14,65,53
India,Delhi,Delhi,"Rohini, Delhi - DPCC",01-11-2025 07:00:00,28.732528,77.119920,CO,13,101,46
India,Delhi,Delhi,"Sirifort, Delhi - CPCB",01-11-2025 07:00:00,28.5504249,77.2159377,SO2,26,33,29
India,Delhi,Delhi,"Sonia Vihar, Delhi - DPCC",01-11-2025 07:00:00,28.710508,77.249485,PM2.5,177,311,274
India,Delhi,Delhi,"Sonia Vihar, Delhi - DPCC",01-11-2025 07:00:00,28.710508,77.249485,SO2,35,41,39
India,Delhi,Delhi,"Punjabi Bagh, Delhi - DPCC",01-11-2025 07:00:00,28.674045,77.131023,SO2,1,8,4
India,Delhi,Delhi,"Punjabi Bagh, Delhi - DPCC",01-11-2025 07:00:00,28.674045,77.131023,OZONE,2,91,5
India,Delhi,Delhi,"R K Puram, Delhi - DPCC",01-11-2025 07:00:00,28.563262,77.186937,PM2.5,113,396,291
India,Delhi,Delhi,"R K Puram, Delhi - DPCC",01-11-2025 07:00:00,28.563262,77.186937,NH3,2,14,5
India,Delhi,Delhi,"R K Puram, Delhi - DPCC",01-11-2025 07:00:00,28.563262,77.186937,OZONE,1,151,5
India,Delhi,Delhi,"Nehru Nagar, Delhi - DPCC",01-11-2025 07:00:00,28.567890,77.250515,PM2.5,150,335,274
India,Delhi,Delhi,"Okhla Phase-2, Delhi - DPCC",01-11-2025 07:00:00,28.530785,77.271255,OZONE,5,137,9
India,Delhi,Delhi,"Patparganj, Delhi - DPCC",01-11-2025 07:00:00,28.623763,77.287209,CO,45,140,81
India,Delhi,Delhi,"NSIT Dwarka, Delhi - CPCB",01-11-2025 07:00:00,28.60909,77.0325413,SO2,2,33,7
India,Delhi,Delhi,"Narela, Delhi - DPCC",01-11-2025 07:00:00,28.822836,77.101981,PM2.5,138,383,279
India,Delhi,Delhi,"Narela, Delhi - DPCC",01-11-2025 07:00:00,28.822836,77.101981,SO2,1,14,8
India,Delhi,Delhi,"ITO, Delhi - CPCB",01-11-2025 07:00:00,28.628624,77.241060,PM10,96,164,134
India,Delhi,Delhi,"ITO, Delhi - CPCB",01-11-2025 07:00:00,28.628624,77.241060,OZONE,7,129,10
India,Gujarat,Ahmedabad,"Maninagar, Ahmedabad - GPCB",01-11-2025 07:00:00,23.002657,72.591912,PM10,22,136,65
India,Haryana,Jind,"Police Lines, Jind - HSPCB",01-11-2025 07:00:00,29.307814,76.337619,NH3,4,5,5
India,Haryana,Jind,"Police Lines, Jind - HSPCB",01-11-2025 07:00:00,29.307814,76.337619,CO,2,116,41
India,Haryana,Kaithal,"Rishi Nagar, Kaithal - HSPCB",01-11-2025 07:00:00,29.8006,76.4155,SO2,28,35,31
India,Haryana,Karnal,"Sector-12, Karnal - HSPCB",01-11-2025 07:00:00,29.695300,77.002700,PM2.5,116,409,262
India,Haryana,Karnal,"Sector-12, Karnal - HSPCB",01-11-2025 07:00:00,29.695300,77.002700,PM10,123,448,222
India,Haryana,Karnal,"Sector-12, Karnal - HSPCB",01-11-2025 07:00:00,29.695300,77.002700,NH3,6,7,6
India,Haryana,Karnal,"Sector-12, Karnal - HSPCB",01-11-2025 07:00:00,29.695300,77.002700,SO2,12,17,15
India,Haryana,Kurukshetra,"Sector-7, Kurukshetra - HSPCB",01-11-2025 07:00:00,29.966942,76.875879,PM10,117,266,176
India,Haryana,Kurukshetra,"Sector-7, Kurukshetra - HSPCB",01-11-2025 07:00:00,29.966942,76.875879,NO2,15,21,18
India,Haryana,Kurukshetra,"Sector-7, Kurukshetra - HSPCB",01-11-2025 07:00:00,29.966942,76.875879,NH3,5,5,5
India,Haryana,Mandikhera,"General Hospital, Mandikhera - HSPCB",01-11-2025 07:00:00,27.9002,76.9938,PM2.5,39,80,57
India,Haryana,Mandikhera,"General Hospital, Mandikhera - HSPCB",01-11-2025 07:00:00,27.9002,76.9938,PM10,29,58,41
India,Haryana,Mandikhera,"General Hospital, Mandikhera - HSPCB",01-11-2025 07:00:00,27.9002,76.9938,NH3,13,14,13
India,Haryana,Mandikhera,"General Hospital, Mandikhera - HSPCB",01-11-2025 07:00:00,27.9002,76.9938,OZONE,25,31,27
India,Haryana,Manesar,"Sector-2 IMT, Manesar - HSPCB",01-11-2025 07:00:00,28.360699,76.936090,SO2,5,13,9
India,Haryana,Manesar,"Sector-2 IMT, Manesar - HSPCB",01-11-2025 07:00:00,28.360699,76.936090,OZONE,10,50,12
India,Haryana,Narnaul,"Shastri Nagar, Narnaul - HSPCB",01-11-2025 07:00:00,28.060249,76.113115,PM2.5,141,307,207
India,Haryana,Palwal,"Shyam Nagar, Palwal - HSPCB",01-11-2025 07:00:00,28.1485564,77.3320667,PM2.5,118,123,121
India,Haryana,Palwal,"Shyam Nagar, Palwal - HSPCB",01-11-2025 07:00:00,28.1485564,77.3320667,SO2,12,13,13
India,Haryana,Bhiwani,"H.B. Colony, Bhiwani - HSPCB",01-11-2025 07:00:00,28.806223,76.141105,OZONE,5,19,15
India,Haryana,Faridabad,"New Industrial Town, Faridabad - HSPCB",01-11-2025 07:00:00,28.39072,77.30059,SO2,8,8,8
India,Haryana,Faridabad,"New Industrial Town, Faridabad - HSPCB",01-11-2025 07:00:00,28.39072,77.30059,OZONE,26,35,29
India,Haryana,Faridabad,"Sector 11, Faridabad - HSPCB",01-11-2025 07:00:00,28.376058,77.315741,SO2,NA,NA,NA
India,Haryana,Faridabad,"Sector 30, Faridabad - HSPCB",01-11-2025 07:00:00,28.4417,77.3217,PM10,165,169,167
India,Haryana,Faridabad,"Sector 30, Faridabad - HSPCB",01-11-2025 07:00:00,28.4417,77.3217,CO,59,66,62
India,Haryana,Faridabad,"Sector 30, Faridabad - HSPCB",01-11-2025 07:00:00,28.4417,77.3217,OZONE,17,19,18
India,Haryana,Fatehabad,"Huda Sector, Fatehabad - HSPCB",01-11-2025 07:00:00,29.503664,75.467934,PM10,163,332,249
India,Haryana,Panchgaon,"Amity University, Panchgaon - IITM",01-11-2025 07:00:00,28.3153,76.9143,PM10,26,63,48
India,Haryana,Panipat,"Sector-18, Panipat - HSPCB",01-11-2025 07:00:00,29.432304,76.972765,NO2,31,32,31
India,Haryana,Panipat,"Sector-18, Panipat - HSPCB",01-11-2025 07:00:00,29.432304,76.972765,CO,16,26,25
India,Haryana,Rohtak,"MD University, Rohtak - HSPCB",01-11-2025 07:00:00,28.52123,76.37138,CO,60,68,63
India,Haryana,Rohtak,"MD University, Rohtak - HSPCB",01-11-2025 07:00:00,28.52123,76.37138,OZONE,12,13,13
India,Haryana,Sirsa,"F-Block, Sirsa - HSPCB",01-11-2025 07:00:00,29.536400,75.015800,PM10,52,188,106
India,Haryana,Sirsa,"F-Block, Sirsa - HSPCB",01-11-2025 07:00:00,29.536400,75.015800,NO2,6,28,18
India,Haryana,Sirsa,"F-Block, Sirsa - HSPCB",01-11-2025 07:00:00,29.536400,75.015800,NH3,11,15,13
India,Karnataka,Belgaum,"Ramteerth Nagar, Belgaum - KSPCB",01-11-2025 07:00:00,15.888653,74.541751,PM10,NA,NA,NA
India,Karnataka,Belgaum,"Ramteerth Nagar, Belgaum - KSPCB",01-11-2025 07:00:00,15.888653,74.541751,CO,NA,NA,NA
India,Karnataka,Bengaluru,"BTM Layout, Bengaluru - CPCB",01-11-2025 07:00:00,12.9135218,77.5950804,PM2.5,30,47,37
India,Karnataka,Bengaluru,"BWSSB Kadabesanahalli, Bengaluru - CPCB",01-11-2025 07:00:00,12.9352049,77.6814488,PM10,39,154,82
India,Karnataka,Bengaluru,"BWSSB Kadabesanahalli, Bengaluru - CPCB",01-11-2025 07:00:00,12.9352049,77.6814488,NO2,23,25,25
India,Karnataka,Bengaluru,"BWSSB Kadabesanahalli, Bengaluru - CPCB",01-11-2025 07:00:00,12.9352049,77.6814488,CO,105,121,109
India,Karnataka,Bengaluru,"Bapuji Nagar, Bengaluru - KSPCB",01-11-2025 07:00:00,12.951913,77.539784,PM2.5,32,139,53
India,Karnataka,Bengaluru,"Bapuji Nagar, Bengaluru - KSPCB",01-11-2025 07:00:00,12.951913,77.539784,NH3,1,2,1
India,Haryana,Fatehabad,"Huda Sector, Fatehabad - HSPCB",01-11-2025 07:00:00,29.503664,75.467934,NH3,13,15,14
India,Haryana,Gurugram,"NISE Gwal Pahari, Gurugram - IMD",01-11-2025 07:00:00,28.422681,77.148944,PM10,10,182,97
India,Haryana,Gurugram,"NISE Gwal Pahari, Gurugram - IMD",01-11-2025 07:00:00,28.422681,77.148944,CO,6,30,22
India,Haryana,Gurugram,"Vikas Sadan, Gurugram - HSPCB",01-11-2025 07:00:00,28.4501238,77.0263051,PM2.5,200,349,302
India,Haryana,Gurugram,"Vikas Sadan, Gurugram - HSPCB",01-11-2025 07:00:00,28.4501238,77.0263051,OZONE,8,55,17
India,Haryana,Hisar,"Urban Estate-II, Hisar - HSPCB",01-11-2025 07:00:00,29.140560,75.744941,NH3,4,5,5
India,Haryana,Hisar,"Urban Estate-II, Hisar - HSPCB",01-11-2025 07:00:00,29.140560,75.744941,SO2,9,13,11
India,Haryana,Yamuna Nagar,"Gobind Pura, Yamuna Nagar - HSPCB",01-11-2025 07:00:00,30.1480566,77.2893471,PM10,119,170,148
India,Haryana,Yamuna Nagar,"Gobind Pura, Yamuna Nagar - HSPCB",01-11-2025 07:00:00,30.1480566,77.2893471,NO2,11,11,11
India,Haryana,Yamuna Nagar,"Gobind Pura, Yamuna Nagar - HSPCB",01-11-2025 07:00:00,30.1480566,77.2893471,NH3,10,10,10
India,Haryana,Yamuna Nagar,"Gobind Pura, Yamuna Nagar - HSPCB",01-11-2025 07:00:00,30.1480566,77.2893471,CO,63,111,108
India,Himachal Pradesh,Baddi,"HIMUDA Complex Phase-1, Baddi - HPPCB",01-11-2025 07:00:00,30.943887,76.801991,PM10,94,273,157
India,Jammu_and_Kashmir,Srinagar,"Rajbagh, Srinagar - JKSPCB",01-11-2025 07:00:00,34.066206,74.819820,PM10,NA,NA,NA
India,Jammu_and_Kashmir,Srinagar,"Rajbagh, Srinagar - JKSPCB",01-11-2025 07:00:00,34.066206,74.819820,CO,NA,NA,NA
India,Haryana,Bahadurgarh,"Arya Nagar, Bahadurgarh - HSPCB",01-11-2025 07:00:00,28.6701,76.9254,NH3,12,13,13
India,Haryana,Bahadurgarh,"Arya Nagar, Bahadurgarh - HSPCB",01-11-2025 07:00:00,28.6701,76.9254,OZONE,16,19,17
India,Haryana,Ballabgarh,"Nathu Colony, Ballabgarh - HSPCB",01-11-2025 07:00:00,28.3419248,77.319699,PM2.5,316,322,319
India,Haryana,Ballabgarh,"Nathu Colony, Ballabgarh - HSPCB",01-11-2025 07:00:00,28.3419248,77.319699,PM10,268,292,280
