country,state,city,station,last_update,latitude,longitude,pollutant_id,min_value,max_value,avg_value
India,Bihar,Gaya,"Kareemganj, Gaya - BSPCB",30-01-2026 08:00:00,24.792403,84.992416,NH3,1,1,1
India,Bihar,Gaya,"Kareemganj, Gaya - BSPCB",30-01-2026 08:00:00,24.792403,84.992416,SO2,4,45,36
India,Bihar,Gaya,"Kareemganj, Gaya - BSPCB",30-01-2026 08:00:00,24.792403,84.992416,OZONE,17,33,19
India,Bihar,Gaya,"SFTI Kusdihra, Gaya - BSPCB",30-01-2026 08:00:00,24.762518,84.982348,PM2.5,42,62,49
India,Bihar,Gaya,"SFTI Kusdihra, Gaya - BSPCB",30-01-2026 08:00:00,24.762518,84.982348,NO2,20,24,21
India,Bihar,Hajipur,"Industrial Area, Hajipur - BSPCB",30-01-2026 08:00:00,25.697189,85.245900,NH3,NA,NA,NA
India,Bihar,Hajipur,"Industrial Area, Hajipur - BSPCB",30-01-2026 08:00:00,25.697189,85.245900,SO2,NA,NA,NA
India,Bihar,Hajipur,"Industrial Area, Hajipur - BSPCB",30-01-2026 08:00:00,25.697189,85.245900,CO,NA,NA,NA
India,Bihar,Hajipur,"Industrial Area, Hajipur - BSPCB",30-01-2026 08:00:00,25.697189,85.245900,OZONE,NA,NA,NA
India,Bihar,Katihar,"Mirchaibari, Katihar - BSPCB",30-01-2026 08:00:00,25.560083,87.553265,CO,62,102,94
India,Bihar,Kishanganj,"SDM Office_Khagra, Kishanganj - BSPCB",30-01-2026 08:00:00,26.0881305,87.93840336,NO2,8,13,10
India,Bihar,Kishanganj,"SDM Office_Khagra, Kishanganj - BSPCB",30-01-2026 08:00:00,26.0881305,87.93840336,SO2,6,12,9
India,Bihar,Manguraha,"Forest Rest House, Manguraha - BSPCB",30-01-2026 08:00:00,27.308328,84.531742,PM2.5,7,328,85
India,Bihar,Manguraha,"Forest Rest House, Manguraha - BSPCB",30-01-2026 08:00:00,27.308328,84.531742,NH3,1,1,1
India,Bihar,Bhagalpur,"Mayaganj, Bhagalpur - BSPCB",30-01-2026 08:00:00,25.265194,87.012947,PM10,57,118,80
India,Bihar,Bhagalpur,"Mayaganj, Bhagalpur - BSPCB",30-01-2026 08:00:00,25.265194,87.012947,NO2,6,10,7
India,Bihar,Bihar Sharif,"D M Colony, Bihar Sharif - BSPCB",30-01-2026 08:00:00,25.204762,85.514960,PM10,29,78,49
India,Bihar,Buxar,"Charitra Van, Buxar - BSPCB",30-01-2026 08:00:00,25.567520,83.966379,PM10,63,87,72
India,Bihar,Buxar,"Charitra Van, Buxar - BSPCB",30-01-2026 08:00:00,25.567520,83.966379,NO2,9,10,9
India,Bihar,Buxar,"Charitra Van, Buxar - BSPCB",30-01-2026 08:00:00,25.567520,83.966379,NH3,3,3,3
India,Bihar,Buxar,"Charitra Van, Buxar - BSPCB",30-01-2026 08:00:00,25.567520,83.966379,SO2,2,18,12
India,Bihar,Buxar,"Charitra Van, Buxar - BSPCB",30-01-2026 08:00:00,25.567520,83.966379,CO,22,26,25
India,Bihar,Chhapra,"Darshan Nagar, Chhapra - BSPCB",30-01-2026 08:00:00,25.7808257,84.7446768,NH3,7,11,9
India,Bihar,Gaya,"Collectorate, Gaya - BSPCB",30-01-2026 08:00:00,24.7955,84.9994,NO2,9,9,9
India,Bihar,Gaya,"Collectorate, Gaya - BSPCB",30-01-2026 08:00:00,24.7955,84.9994,SO2,6,8,7
India,Bihar,Gaya,"Collectorate, Gaya - BSPCB",30-01-2026 08:00:00,24.7955,84.9994,OZONE,19,21,20
India,Andhra_Pradesh,Amaravati,"Secretariat, Amaravati - APPCB",30-01-2026 08:00:00,16.5150833,80.5181667,CO,1,40,4
India,Andhra_Pradesh,Anantapur,"Gulzarpet, Anantapur - APPCB",30-01-2026 08:00:00,14.675886,77.593027,PM2.5,60,94,81
India,Andhra_Pradesh,Anantapur,"Gulzarpet, Anantapur - APPCB",30-01-2026 08:00:00,14.675886,77.593027,NO2,13,24,18
India,Andhra_Pradesh,Anantapur,"Gulzarpet, Anantapur - APPCB",30-01-2026 08:00:00,14.675886,77.593027,OZONE,11,26,16
India,Andhra_Pradesh,Chittoor,"Gangineni Cheruvu, Chittoor - APPCB",30-01-2026 08:00:00,13.204880,79.097889,NO2,39,55,51
India,Andhra_Pradesh,Kadapa,"Yerramukkapalli, Kadapa - APPCB",30-01-2026 08:00:00,14.465052,78.824187,NH3,3,5,4
India,Andhra_Pradesh,Kadapa,"Yerramukkapalli, Kadapa - APPCB",30-01-2026 08:00:00,14.465052,78.824187,OZONE,16,18,17
India,Andhra_Pradesh,Tirumala,"Toll Gate, Tirumala - APPCB",30-01-2026 08:00:00,13.67,79.35,PM10,99,147,122
India,Andhra_Pradesh,Tirumala,"Toll Gate, Tirumala - APPCB",30-01-2026 08:00:00,13.67,79.35,NO2,14,30,21
India,Andhra_Pradesh,Tirumala,"Toll Gate, Tirumala - APPCB",30-01-2026 08:00:00,13.67,79.35,OZONE,34,65,52
India,Bihar,Manguraha,"Forest Rest House, Manguraha - BSPCB",30-01-2026 08:00:00,27.308328,84.531742,OZONE,9,11,10
India,Bihar,Motihari,"Gandak Colony, Motihari - BSPCB",30-01-2026 08:00:00,26.63086,84.90051,NO2,3,5,4
India,Bihar,Motihari,"Gandak Colony, Motihari - BSPCB",30-01-2026 08:00:00,26.63086,84.90051,SO2,2,3,3
India,Bihar,Munger,"Town Hall, Munger - BSPCB",30-01-2026 08:00:00,25.376776,86.471523,CO,10,44,28
India,Bihar,Muzaffarpur,"Buddha Colony, Muzaffarpur - BSPCB",30-01-2026 08:00:00,26.11442,85.39813,NH3,4,10,7
India,Bihar,Muzaffarpur,"MIT-Daudpur Kothi, Muzaffarpur - BSPCB",30-01-2026 08:00:00,26.1403345,85.3650192,PM2.5,87,110,94
India,Bihar,Muzaffarpur,"MIT-Daudpur Kothi, Muzaffarpur - BSPCB",30-01-2026 08:00:00,26.1403345,85.3650192,SO2,11,18,14
India,Bihar,Patna,"DRM Office Danapur, Patna - BSPCB",30-01-2026 08:00:00,25.586562,85.043586,PM10,70,116,94
India,Assam,Nalbari,"Bata Chowk, Nalbari - PCBA",30-01-2026 08:00:00,26.446912,91.439057,PM2.5,93,162,116
India,Assam,Nalbari,"Bata Chowk, Nalbari - PCBA",30-01-2026 08:00:00,26.446912,91.439057,NH3,6,6,6
India,Assam,Nalbari,"Bata Chowk, Nalbari - PCBA",30-01-2026 08:00:00,26.446912,91.439057,CO,20,22,22
India,Assam,Silchar,"Tarapur, Silchar - PCBA",30-01-2026 08:00:00,24.82827,92.79525,PM2.5,15,91,47
India,Assam,Silchar,"Tarapur, Silchar - PCBA",30-01-2026 08:00:00,24.82827,92.79525,NH3,1,2,1
India,Assam,Silchar,"Tarapur, Silchar - PCBA",30-01-2026 08:00:00,24.82827,92.79525,SO2,4,7,5
India,Assam,Silchar,"Tarapur, Silchar - PCBA",30-01-2026 08:00:00,24.82827,92.79525,CO,7,43,34
India,Assam,Sivasagar,"Girls College, Sivasagar - PCBA",30-01-2026 08:00:00,26.987634,94.636574,NH3,5,20,9
India,Assam,Sivasagar,"Girls College, Sivasagar - PCBA",30-01-2026 08:00:00,26.987634,94.636574,OZONE,5,87,18
India,Andhra_Pradesh,Vijayawada,"HB Colony, Vijayawada - APPCB",30-01-2026 08:00:00,16.536107,80.594233,PM10,41,86,65
India,Andhra_Pradesh,Vijayawada,"HB Colony, Vijayawada - APPCB",30-01-2026 08:00:00,16.536107,80.594233,NH3,4,6,5
India,Andhra_Pradesh,Vijayawada,"Kanuru, Vijayawada - APPCB",30-01-2026 08:00:00,16.486692,80.699436,SO2,19,27,25
India,Andhra_Pradesh,Vijayawada,"Rajiv Gandhi Park, Vijayawada - APPCB",30-01-2026 08:00:00,16.509717,80.612222,PM2.5,90,160,129
India,Andhra_Pradesh,Vijayawada,"Rajiv Gandhi Park, Vijayawada - APPCB",30-01-2026 08:00:00,16.509717,80.612222,NO2,40,74,57
India,Andhra_Pradesh,Vijayawada,"Rajiv Gandhi Park, Vijayawada - APPCB",30-01-2026 08:00:00,16.509717,80.612222,CO,29,38,29
India,Andhra_Pradesh,Vijayawada,"Rajiv Nagar, Vijayawada - APPCB",30-01-2026 08:00:00,16.554731,80.649110,PM2.5,NA,NA,NA
India,Andhra_Pradesh,Vijayawada,"Rajiv Nagar, Vijayawada - APPCB",30-01-2026 08:00:00,16.554731,80.649110,CO,NA,NA,NA
India,Bihar,Patna,"DRM Office Danapur, Patna - BSPCB",30-01-2026 08:00:00,25.586562,85.043586,OZONE,20,40,28
India,Bihar,Patna,"Govt. High School Shikarpur, Patna - BSPCB",30-01-2026 08:00:00,25.592539,85.227158,PM2.5,73,84,76
India,Bihar,Patna,"Govt. High School Shikarpur, Patna - BSPCB",30-01-2026 08:00:00,25.592539,85.227158,OZONE,8,13,10
India,Bihar,Patna,"IGSC Planetarium Complex, Patna - BSPCB",30-01-2026 08:00:00,25.610369,85.132568,NO2,1,22,3
India,Bihar,Patna,"Muradpur, Patna - BSPCB",30-01-2026 08:00:00,25.619651,85.147382,PM10,63,99,80
India,Bihar,Patna,"Muradpur, Patna - BSPCB",30-01-2026 08:00:00,25.619651,85.147382,SO2,7,9,9
India,Bihar,Patna,"Muradpur, Patna - BSPCB",30-01-2026 08:00:00,25.619651,85.147382,CO,39,57,54
India,Bihar,Arrah,"New DM Office, Arrah - BSPCB",30-01-2026 08:00:00,25.5626095,84.663264,NO2,6,8,7
India,Bihar,Arrah,"New DM Office, Arrah - BSPCB",30-01-2026 08:00:00,25.5626095,84.663264,OZONE,6,9,8
India,Bihar,Aurangabad,"Gurdeo Nagar, Aurangabad - BSPCB",30-01-2026 08:00:00,24.75746,84.366208,PM10,NA,NA,NA
India,Bihar,Aurangabad,"Gurdeo Nagar, Aurangabad - BSPCB",30-01-2026 08:00:00,24.75746,84.366208,NH3,1,2,1
India,Bihar,Aurangabad,"Gurdeo Nagar, Aurangabad - BSPCB",30-01-2026 08:00:00,24.75746,84.366208,SO2,1,16,10
India,Bihar,Bhagalpur,"DM Office_Kachari Chowk, Bhagalpur - BSPCB",30-01-2026 08:00:00,25.251013,86.989001,PM2.5,20,90,43
India,Arunachal_Pradesh,Naharlagun,"Naharlagun, Naharlagun - APSPCB",30-01-2026 08:00:00,27.103358,93.679645,PM2.5,79,408,208
India,Arunachal_Pradesh,Naharlagun,"Naharlagun, Naharlagun - APSPCB",30-01-2026 08:00:00,27.103358,93.679645,PM10,90,428,173
India,Arunachal_Pradesh,Naharlagun,"Naharlagun, Naharlagun - APSPCB",30-01-2026 08:00:00,27.103358,93.679645,SO2,9,10,10
India,Assam,Byrnihat,"Central Academy for SFS, Byrnihat - PCBA",30-01-2026 08:00:00,26.071318,91.87488,NH3,4,4,4
India,Assam,Byrnihat,"Central Academy for SFS, Byrnihat - PCBA",30-01-2026 08:00:00,26.071318,91.87488,CO,28,85,51
India,Bihar,Purnia,"Mariam Nagar, Purnia - BSPCB",30-01-2026 08:00:00,25.366336,87.117468,NH3,3,3,3
India,Bihar,Rajgir,"Dangi Tola, Rajgir - BSPCB",30-01-2026 08:00:00,25.03280,85.41948,CO,74,98,86
India,Bihar,Samastipur,"DM Office_Kasipur, Samastipur - BSPCB",30-01-2026 08:00:00,25.859655,85.77944,PM2.5,NA,NA,NA
India,Delhi,Delhi,"Dwarka-Sector 8, Delhi - DPCC ",30-01-2026 08:00:00,28.5710274,77.0719006,CO,23,106,46
India,Delhi,Delhi,"IGI Airport (T3), Delhi - IMD",30-01-2026 08:00:00,28.5627763,77.1180053,CO,2,106,69
India,Delhi,Delhi,"IHBAS, Dilshad Garden, Delhi - CPCB",30-01-2026 08:00:00,28.6811736,77.3025234,PM10,71,135,108
India,Delhi,Delhi,"IHBAS, Dilshad Garden, Delhi - CPCB",30-01-2026 08:00:00,28.6811736,77.3025234,NO2,39,103,61
India,Delhi,Delhi,"IHBAS, Dilshad Garden, Delhi - CPCB",30-01-2026 08:00:00,28.6811736,77.3025234,SO2,2,24,13
India,Delhi,Delhi,"IIT Delhi, Delhi - IITM",30-01-2026 08:00:00,28.542460,77.191651,PM2.5,101,307,206
India,Delhi,Delhi,"ITO, Delhi - CPCB",30-01-2026 08:00:00,28.628624,77.241060,SO2,4,21,12
India,Delhi,Delhi,"Jahangirpuri, Delhi - DPCC",30-01-2026 08:00:00,28.732820,77.170633,PM2.5,207,431,310
India,Delhi,Delhi,"Alipur, Delhi - DPCC",30-01-2026 08:00:00,28.815329,77.153010,PM2.5,85,366,215
India,Delhi,Delhi,"Alipur, Delhi - DPCC",30-01-2026 08:00:00,28.815329,77.153010,CO,24,83,47
India,Delhi,Delhi,"Anand Vihar, Delhi - DPCC",30-01-2026 08:00:00,28.647622,77.3158090,SO2,14,25,20
India,Delhi,Delhi,"Ashok Vihar, Delhi - DPCC",30-01-2026 08:00:00,28.695381,77.181665,PM10,114,293,178
India,Delhi,Delhi,"Ashok Vihar, Delhi - DPCC",30-01-2026 08:00:00,28.695381,77.181665,SO2,8,22,14
India,Delhi,Delhi,"Ashok Vihar, Delhi - DPCC",30-01-2026 08:00:00,28.695381,77.181665,CO,16,111,44
India,Delhi,Delhi,"Ashok Vihar, Delhi - DPCC",30-01-2026 08:00:00,28.695381,77.181665,OZONE,1,81,23
India,Delhi,Delhi,"Aya Nagar, Delhi - IMD",30-01-2026 08:00:00,28.4706914,77.1099364,PM10,101,302,169
India,Chhattisgarh,Milupara,"Govt. Higher Secondary School, Milupara - CECB",30-01-2026 08:00:00,22.1910172,83.5197009,NH3,1,2,2
India,Chhattisgarh,Raipur,"AIIMS, Raipur - CECB",30-01-2026 08:00:00,21.258815,81.578979,PM10,58,118,94
India,Chhattisgarh,Raipur,"AIIMS, Raipur - CECB",30-01-2026 08:00:00,21.258815,81.578979,CO,36,65,54
India,Chhattisgarh,Raipur,"Bhatagaon New ISBT, Raipur - CECB",30-01-2026 08:00:00,21.219665,81.630094,NO2,NA,NA,NA
India,Chhattisgarh,Raipur,"Bhatagaon New ISBT, Raipur - CECB",30-01-2026 08:00:00,21.219665,81.630094,NH3,NA,NA,NA
India,Chhattisgarh,Raipur,"Krishak Nagar, Raipur - CECB",30-01-2026 08:00:00,21.237755,81.705301,NO2,23,31,27
India,Chhattisgarh,Raipur,"Krishak Nagar, Raipur - CECB",30-01-2026 08:00:00,21.237755,81.705301,OZONE,11,15,11
India,Chandigarh,Chandigarh,"Sector 22, Chandigarh - CPCC",30-01-2026 08:00:00,30.735567,76.775714,NO2,27,106,52
India,Chandigarh,Chandigarh,"Sector 22, Chandigarh - CPCC",30-01-2026 08:00:00,30.735567,76.775714,SO2,5,59,11
India,Chandigarh,Chandigarh,"Sector 22, Chandigarh - CPCC",30-01-2026 08:00:00,30.735567,76.775714,CO,42,107,56
India,Chandigarh,Chandigarh,"Sector-25, Chandigarh - CPCC",30-01-2026 08:00:00,30.751462,76.762879,PM2.5,38,108,71
India,Chandigarh,Chandigarh,"Sector-53, Chandigarh - CPCC",30-01-2026 08:00:00,30.719859,76.738637,PM2.5,22,160,59
India,Chhattisgarh,Bhilai,"32Bungalows, Bhilai - CECB",30-01-2026 08:00:00,21.194815,81.314770,NH3,1,3,2
India,Chhattisgarh,Bhilai,"Hathkhoj, Bhilai - CECB",30-01-2026 08:00:00,21.224231,81.408350,PM2.5,47,94,70
India,Chhattisgarh,Bilaspur,"Mangala, Bilaspur - NTPC",30-01-2026 08:00:00,22.08815,82.13737,SO2,8,27,14
India,Chhattisgarh,Chhal,"Nawapara SECL Colony, Chhal - CECB",30-01-2026 08:00:00,22.118125,83.140608,NH3,5,5,5
India,Chhattisgarh,Kunjemura,"OP Jindal School, Kunjemura - CECB",30-01-2026 08:00:00,22.126650,83.483212,PM2.5,61,213,138
India,Delhi,Delhi,"Burari Crossing, Delhi - IMD",30-01-2026 08:00:00,28.7256504,77.2011573,CO,28,112,66
India,Delhi,Delhi,"Chandni Chowk, Delhi - IITM",30-01-2026 08:00:00,28.656756,77.227234,PM10,117,387,197
India,Delhi,Delhi,"Chandni Chowk, Delhi - IITM",30-01-2026 08:00:00,28.656756,77.227234,OZONE,3,51,7
India,Delhi,Delhi,"DTU, Delhi - CPCB",30-01-2026 08:00:00,28.7500499,77.1112615,NH3,6,11,7
India,Bihar,Sasaram,"Dada Peer, Sasaram - BSPCB",30-01-2026 08:00:00,24.952822,84.002396,PM2.5,15,32,21
India,Bihar,Sasaram,"Dada Peer, Sasaram - BSPCB",30-01-2026 08:00:00,24.952822,84.002396,PM10,35,69,47
India,Bihar,Sasaram,"Dada Peer, Sasaram - BSPCB",30-01-2026 08:00:00,24.952822,84.002396,NO2,2,6,2
India,Bihar,Sasaram,"Dada Peer, Sasaram - BSPCB",30-01-2026 08:00:00,24.952822,84.002396,SO2,2,5,3
India,Bihar,Siwan,"Chitragupta Nagar, Siwan - BSPCB",30-01-2026 08:00:00,26.2271665,84.3570427,NO2,2,2,2
India,Bihar,Siwan,"Chitragupta Nagar, Siwan - BSPCB",30-01-2026 08:00:00,26.2271665,84.3570427,CO,63,84,68
India,Delhi,Delhi,"Bawana, Delhi - DPCC",30-01-2026 08:00:00,28.776200,77.051074,NH3,6,9,8
India,Delhi,Delhi,"NSIT Dwarka, Delhi - CPCB",30-01-2026 08:00:00,28.60909,77.0325413,NO2,47,73,60
India,Delhi,Delhi,"NSIT Dwarka, Delhi - CPCB",30-01-2026 08:00:00,28.60909,77.0325413,SO2,10,23,15
India,Delhi,Delhi,"NSIT Dwarka, Delhi - CPCB",30-01-2026 08:00:00,28.60909,77.0325413,CO,43,88,56
India,Delhi,Delhi,"Najafgarh, Delhi - DPCC",30-01-2026 08:00:00,28.570173,76.933762,PM10,63,102,91
India,Delhi,Delhi,"Narela, Delhi - DPCC",30-01-2026 08:00:00,28.822836,77.101981,NO2,6,34,20
India,Delhi,Delhi,"Narela, Delhi - DPCC",30-01-2026 08:00:00,28.822836,77.101981,NH3,5,8,6
India,Delhi,Delhi,"Nehru Nagar, Delhi - DPCC",30-01-2026 08:00:00,28.567890,77.250515,NH3,5,10,7
India,Delhi,Delhi,"Nehru Nagar, Delhi - DPCC",30-01-2026 08:00:00,28.567890,77.250515,SO2,8,109,20
India,Delhi,Delhi,"North Campus, DU, Delhi - IMD",30-01-2026 08:00:00,28.6573814,77.1585447,PM10,98,239,151
India,Delhi,Delhi,"Okhla Phase-2, Delhi - DPCC",30-01-2026 08:00:00,28.530785,77.271255,SO2,8,62,13
India,Gujarat,Ahmedabad,"Rakhial, Ahmedabad - IITM",30-01-2026 08:00:00,23.016834,72.625775,PM2.5,70,102,86
India,Gujarat,Ahmedabad,"Rakhial, Ahmedabad - IITM",30-01-2026 08:00:00,23.016834,72.625775,NH3,4,8,6
India,Gujarat,Ahmedabad,"Rakhial, Ahmedabad - IITM",30-01-2026 08:00:00,23.016834,72.625775,SO2,14,21,17
India,Gujarat,Ahmedabad,"SAC ISRO Bopal, Ahmedabad - IITM",30-01-2026 08:00:00,23.041137,72.456691,NO2,17,30,23
India,Gujarat,Ahmedabad,"SAC ISRO Satellite, Ahmedabad - IITM",30-01-2026 08:00:00,23.023389,72.515201,PM2.5,53,134,72
India,Gujarat,Ahmedabad,"SAC ISRO Satellite, Ahmedabad - IITM",30-01-2026 08:00:00,23.023389,72.515201,PM10,70,123,88
India,Gujarat,Ahmedabad,"SAC ISRO Satellite, Ahmedabad - IITM",30-01-2026 08:00:00,23.023389,72.515201,NO2,5,14,9
India,Gujarat,Ahmedabad,"SAC ISRO Satellite, Ahmedabad - IITM",30-01-2026 08:00:00,23.023389,72.515201,NH3,4,8,6
India,Gujarat,Ahmedabad,"SVPI Airport Hansol, Ahmedabad - IITM",30-01-2026 08:00:00,23.076793,72.627874,NH3,3,6,4
India,Gujarat,Ahmedabad,"SVPI Airport Hansol, Ahmedabad - IITM",30-01-2026 08:00:00,23.076793,72.627874,SO2,2,11,7
India,Gujarat,Ahmedabad,"SVPI Airport Hansol, Ahmedabad - IITM",30-01-2026 08:00:00,23.076793,72.627874,CO,20,36,22
India,Delhi,Delhi,"Wazirpur, Delhi - DPCC",30-01-2026 08:00:00,28.699793,77.165453,SO2,5,15,11
India,Delhi,Delhi,"Wazirpur, Delhi - DPCC",30-01-2026 08:00:00,28.699793,77.165453,CO,32,103,79
India,Delhi,Delhi,"Wazirpur, Delhi - DPCC",30-01-2026 08:00:00,28.699793,77.165453,OZONE,13,54,28
India,Gujarat,Ahmedabad,"Chandkheda, Ahmedabad - IITM",30-01-2026 08:00:00,23.107969,72.574648,NH3,3,5,3
India,Gujarat,Ahmedabad,"Gyaspur, Ahmedabad - IITM",30-01-2026 08:00:00,22.977134,72.553024,PM2.5,91,152,125
India,Gujarat,Ahmedabad,"Gyaspur, Ahmedabad - IITM",30-01-2026 08:00:00,22.977134,72.553024,SO2,55,103,83
India,Gujarat,Ahmedabad,"Maninagar, Ahmedabad - GPCB",30-01-2026 08:00:00,23.002657,72.591912,PM10,70,142,111
India,Gujarat,Ahmedabad,"Maninagar, Ahmedabad - GPCB",30-01-2026 08:00:00,23.002657,72.591912,NO2,101,141,118
India,Gujarat,Ahmedabad,"Raikhad, Ahmedabad - IITM",30-01-2026 08:00:00,23.020509,72.579261,NH3,11,16,13
India,Gujarat,Ankleshwar,"GIDC, Ankleshwar - GPCB",30-01-2026 08:00:00,21.613267,73.010555,PM2.5,81,214,132
India,Gujarat,Bhavnagar,"Vidhyanagar, Bhavnagar - Nexteng Enviro",30-01-2026 08:00:00,21.755417,72.139056,OZONE,7,43,11
India,Gujarat,Gandhinagar,"GIFT City, Gandhinagar - IITM",30-01-2026 08:00:00,23.163798,72.677768,NO2,17,31,22
India,Gujarat,Gandhinagar,"GIFT City, Gandhinagar - IITM",30-01-2026 08:00:00,23.163798,72.677768,CO,24,58,42
India,Gujarat,Gandhinagar,"IIPHG Lekawada, Gandhinagar - IITM",30-01-2026 08:00:00,23.243639,72.68994,SO2,10,15,12
India,Gujarat,Gandhinagar,"Sector-10, Gandhinagar - GPCB",30-01-2026 08:00:00,23.221714,72.654328,SO2,3,10,8
India,Gujarat,Gandhinagar,"Sector-10, Gandhinagar - GPCB",30-01-2026 08:00:00,23.221714,72.654328,OZONE,24,78,48
India,Gujarat,Vapi,"Phase-1 GIDC, Vapi - GPCB",30-01-2026 08:00:00,20.362421,72.918013,OZONE,3,22,3
India,Gujarat,Vatva,"Phase-4 GIDC, Vatva - GPCB",30-01-2026 08:00:00,22.969611,72.643500,PM2.5,65,262,169
India,Haryana,Ambala,"Patti Mehar, Ambala - HSPCB",30-01-2026 08:00:00,30.379589,76.778328,PM2.5,27,84,51
India,Haryana,Ambala,"Patti Mehar, Ambala - HSPCB",30-01-2026 08:00:00,30.379589,76.778328,PM10,28,88,54
India,Haryana,Ambala,"Patti Mehar, Ambala - HSPCB",30-01-2026 08:00:00,30.379589,76.778328,NO2,21,24,22
India,Haryana,Ambala,"Patti Mehar, Ambala - HSPCB",30-01-2026 08:00:00,30.379589,76.778328,OZONE,12,15,13
India,Haryana,Bahadurgarh,"Arya Nagar, Bahadurgarh - HSPCB",30-01-2026 08:00:00,28.6701,76.9254,NH3,12,13,13
India,Delhi,Delhi,"Patparganj, Delhi - DPCC",30-01-2026 08:00:00,28.623763,77.287209,NO2,33,106,64
India,Delhi,Delhi,"Pusa, Delhi - DPCC",30-01-2026 08:00:00,28.639652,77.146275,NO2,29,113,62
India,Delhi,Delhi,"Pusa, Delhi - DPCC",30-01-2026 08:00:00,28.639652,77.146275,CO,66,117,83
India,Delhi,Delhi,"R K Puram, Delhi - DPCC",30-01-2026 08:00:00,28.563262,77.186937,PM2.5,267,410,316
India,Delhi,Delhi,"R K Puram, Delhi - DPCC",30-01-2026 08:00:00,28.563262,77.186937,NH3,7,11,9
India,Delhi,Delhi,"R K Puram, Delhi - DPCC",30-01-2026 08:00:00,28.563262,77.186937,OZONE,2,64,3
India,Delhi,Delhi,"Major Dhyan Chand National Stadium, Delhi - DPCC",30-01-2026 08:00:00,28.611281,77.237738,PM2.5,110,309,217
India,Delhi,Delhi,"Major Dhyan Chand National Stadium, Delhi - DPCC",30-01-2026 08:00:00,28.611281,77.237738,PM10,113,169,143
India,Delhi,Delhi,"Mandir Marg, Delhi - DPCC",30-01-2026 08:00:00,28.636429,77.201067,PM2.5,22,250,128
India,Delhi,Delhi,"Mandir Marg, Delhi - DPCC",30-01-2026 08:00:00,28.636429,77.201067,OZONE,7,163,11
India,Delhi,Delhi,"Mundka, Delhi - DPCC",30-01-2026 08:00:00,28.684678,77.076574,CO,48,90,75
India,Delhi,Delhi,"Shadipur, Delhi - CPCB",30-01-2026 08:00:00,28.6514781,77.1473105,PM2.5,94,311,200
India,Delhi,Delhi,"Shadipur, Delhi - CPCB",30-01-2026 08:00:00,28.6514781,77.1473105,SO2,13,24,19
India,Delhi,Delhi,"Sirifort, Delhi - CPCB",30-01-2026 08:00:00,28.5504249,77.2159377,OZONE,9,19,12
India,Delhi,Delhi,"Sonia Vihar, Delhi - DPCC",30-01-2026 08:00:00,28.710508,77.249485,PM2.5,123,393,269
India,Delhi,Delhi,"Sonia Vihar, Delhi - DPCC",30-01-2026 08:00:00,28.710508,77.249485,NO2,27,64,40
India,Delhi,Delhi,"Jawaharlal Nehru Stadium, Delhi - DPCC",30-01-2026 08:00:00,28.580280,77.233829,PM10,123,276,167
India,Delhi,Delhi,"Jawaharlal Nehru Stadium, Delhi - DPCC",30-01-2026 08:00:00,28.580280,77.233829,NO2,31,99,59
India,Delhi,Delhi,"Jawaharlal Nehru Stadium, Delhi - DPCC",30-01-2026 08:00:00,28.580280,77.233829,NH3,16,20,18
India,Delhi,Delhi,"Jawaharlal Nehru Stadium, Delhi - DPCC",30-01-2026 08:00:00,28.580280,77.233829,CO,104,133,116
India,Jammu_and_Kashmir,Srinagar,"Khunmoh, Srinagar - JKPCC",30-01-2026 08:00:00,34.06313,74.96017,PM2.5,15,34,22
India,Jammu_and_Kashmir,Srinagar,"Rajbagh, Srinagar - JKPCC",30-01-2026 08:00:00,34.066206,74.819820,PM2.5,16,27,22
India,Jharkhand,Dhanbad,"Sardar Patel Nagar, Dhanbad - JSPCB",30-01-2026 08:00:00,23.80569,86.44268,PM2.5,44,129,68
India,Jharkhand,Dhanbad,"Sardar Patel Nagar, Dhanbad - JSPCB",30-01-2026 08:00:00,23.80569,86.44268,NO2,50,51,50
India,Jharkhand,Dhanbad,"Sardar Patel Nagar, Dhanbad - JSPCB",30-01-2026 08:00:00,23.80569,86.44268,SO2,26,31,27
India,Karnataka,Bagalkot,"Vidayagiri, Bagalkot - KSPCB",30-01-2026 08:00:00,16.172806,75.659694,NO2,11,12,12
India,Karnataka,Bagalkot,"Vidayagiri, Bagalkot - KSPCB",30-01-2026 08:00:00,16.172806,75.659694,NH3,1,2,1
India,Karnataka,Bagalkot,"Vidayagiri, Bagalkot - KSPCB",30-01-2026 08:00:00,16.172806,75.659694,CO,6,52,25
India,Karnataka,Belgaum,"Ramteerth Nagar, Belgaum - KSPCB",30-01-2026 08:00:00,15.888653,74.541751,NO2,32,130,59
India,Karnataka,Belgaum,"Ramteerth Nagar, Belgaum - KSPCB",30-01-2026 08:00:00,15.888653,74.541751,NH3,6,11,9
India,Haryana,Karnal,"Sector-12, Karnal - HSPCB",30-01-2026 08:00:00,29.695300,77.002700,PM2.5,7,9,8
India,Haryana,Karnal,"Sector-12, Karnal - HSPCB",30-01-2026 08:00:00,29.695300,77.002700,NH3,6,6,6
India,Haryana,Kurukshetra,"Sector-7, Kurukshetra - HSPCB",30-01-2026 08:00:00,29.966942,76.875879,NO2,17,21,19
India,Haryana,Kurukshetra,"Sector-7, Kurukshetra - HSPCB",30-01-2026 08:00:00,29.966942,76.875879,OZONE,6,47,18
India,Haryana,Mandikhera,"General Hospital, Mandikhera(Nuh) - HSPCB",30-01-2026 08:00:00,27.9002,76.9938,PM10,65,126,95
India,Haryana,Mandikhera,"General Hospital, Mandikhera(Nuh) - HSPCB",30-01-2026 08:00:00,27.9002,76.9938,NO2,20,23,22
India,Haryana,Manesar,"Sector-2 IMT, Manesar - HSPCB",30-01-2026 08:00:00,28.360699,76.936090,PM2.5,76,327,137
India,Haryana,Manesar,"Sector-2 IMT, Manesar - HSPCB",30-01-2026 08:00:00,28.360699,76.936090,OZONE,5,23,7
India,Haryana,Gurugram,"Sector-51, Gurugram - HSPCB",30-01-2026 08:00:00,28.4227,77.0667,NO2,6,15,9
India,Haryana,Gurugram,"Sector-51, Gurugram - HSPCB",30-01-2026 08:00:00,28.4227,77.0667,SO2,2,6,4
India,Haryana,Gurugram,"Sector-51, Gurugram - HSPCB",30-01-2026 08:00:00,28.4227,77.0667,CO,18,101,52
India,Haryana,Gurugram,"Teri Gram, Gurugram - HSPCB",30-01-2026 08:00:00,28.4275,77.1465,PM2.5,165,352,257
India,Haryana,Gurugram,"Teri Gram, Gurugram - HSPCB",30-01-2026 08:00:00,28.4275,77.1465,NO2,48,101,71
India,Haryana,Hisar,"Urban Estate-II, Hisar - HSPCB",30-01-2026 08:00:00,29.140560,75.744941,OZONE,13,106,19
India,Haryana,Jind,"Police Lines, Jind - HSPCB",30-01-2026 08:00:00,29.307814,76.337619,PM2.5,54,234,122
India,Haryana,Rohtak,"MD University, Rohtak - HSPCB",30-01-2026 08:00:00,28.52123,76.37138,PM10,61,103,82
India,Haryana,Sirsa,"F-Block, Sirsa - HSPCB",30-01-2026 08:00:00,29.536400,75.015800,PM2.5,48,122,84
India,Himachal Pradesh,Baddi,"HIMUDA Complex Phase-1, Baddi - HPPCB",30-01-2026 08:00:00,30.943887,76.801991,NH3,2,6,3
India,Himachal Pradesh,Baddi,"HIMUDA Complex Phase-1, Baddi - HPPCB",30-01-2026 08:00:00,30.943887,76.801991,CO,46,106,73
India,Haryana,Palwal,"Shyam Nagar, Palwal - HSPCB",30-01-2026 08:00:00,28.1485564,77.3320667,PM10,29,46,36
India,Haryana,Panchgaon,"Amity University, Panchgaon - IITM",30-01-2026 08:00:00,28.3153,76.9143,NO2,3,37,15
India,Haryana,Panchgaon,"Amity University, Panchgaon - IITM",30-01-2026 08:00:00,28.3153,76.9143,SO2,15,23,18
India,Haryana,Panchkula,"Sector-6, Panchkula - HSPCB ",30-01-2026 08:00:00,30.7057778,76.8531805555555,NO2,24,26,25
India,Karnataka,Bengaluru,"City Railway Station, Bengaluru - KSPCB",30-01-2026 08:00:00,12.9756843,77.5660749,PM10,87,89,88
India,Karnataka,Bengaluru,"Hebbal, Bengaluru - KSPCB",30-01-2026 08:00:00,13.029152,77.585901,PM10,76,136,116
India,Karnataka,Bengaluru,"Hebbal, Bengaluru - KSPCB",30-01-2026 08:00:00,13.029152,77.585901,OZONE,6,14,10
India,Karnataka,Bengaluru,"Hombegowda Nagar, Bengaluru - KSPCB",30-01-2026 08:00:00,12.938539,77.590100,PM2.5,59,132,96
India,Haryana,Faridabad,"New Industrial Town, Faridabad - HSPCB",30-01-2026 08:00:00,28.39072,77.30059,NH3,11,12,11
India,Haryana,Faridabad,"Sector 30, Faridabad - HSPCB",30-01-2026 08:00:00,28.4417,77.3217,NH3,11,12,11
India,Haryana,Gurugram,"NISE Gwal Pahari, Gurugram - IMD",30-01-2026 08:00:00,28.422681,77.148944,NO2,25,54,38
India,Karnataka,Belgaum,"Ramteerth Nagar, Belgaum - KSPCB",30-01-2026 08:00:00,15.888653,74.541751,CO,1,3,2
India,Karnataka,Bengaluru,"Bapuji Nagar, Bengaluru - KSPCB",30-01-2026 08:00:00,12.951913,77.539784,NH3,2,2,2
India,Haryana,Faridabad,"New Industrial Town, Faridabad - HSPCB",30-01-2026 08:00:00,28.39072,77.30059,NO2,23,27,25
India,Karnataka,Chikkaballapur,"Chikkaballapur Rural, Chikkaballapur - KSPCB",30-01-2026 08:00:00,13.428828,77.731418,SO2,38,50,45
India,Karnataka,Chikkamagaluru,"Kalyana Nagara, Chikkamagaluru - KSPCB",30-01-2026 08:00:00,13.328028,75.797056,OZONE,18,51,30
India,Karnataka,Davanagere,"Devaraj Urs Badavane, Davanagere - KSPCB",30-01-2026 08:00:00,14.475800,75.905200,SO2,1,16,6
India,Karnataka,Davanagere,"Devaraj Urs Badavane, Davanagere - KSPCB",30-01-2026 08:00:00,14.475800,75.905200,CO,13,74,18
India,Karnataka,Davanagere,"Devaraj Urs Badavane, Davanagere - KSPCB",30-01-2026 08:00:00,14.475800,75.905200,OZONE,19,21,20
India,Karnataka,Dharwad,"Kalabhavan, Dharwad - KSPCB",30-01-2026 08:00:00,15.459706,75.008381,PM10,91,115,104
India,Karnataka,Dharwad,"Kalabhavan, Dharwad - KSPCB",30-01-2026 08:00:00,15.459706,75.008381,SO2,2,9,6
India,Karnataka,Hubballi,"Lingaraj Nagar, Hubballi - KSPCB",30-01-2026 08:00:00,15.3714823,75.1160168,NH3,1,2,2
India,Karnataka,Kalaburagi,"Mahatma Basaveswar Colony, Kalaburgi - KSPCB",30-01-2026 08:00:00,17.336318,76.847397,NH3,2,3,3
India,Karnataka,Bengaluru,"Hombegowda Nagar, Bengaluru - KSPCB",30-01-2026 08:00:00,12.938539,77.590100,NH3,3,7,5
India,Karnataka,Bengaluru,"Jayanagar 5th Block, Bengaluru - KSPCB",30-01-2026 08:00:00,12.920984,77.584908,CO,14,56,19
India,Karnataka,Bengaluru,"Jayanagar 5th Block, Bengaluru - KSPCB",30-01-2026 08:00:00,12.920984,77.584908,OZONE,42,122,95
India,Karnataka,Bengaluru,"Jigani, Bengaluru - KSPCB",30-01-2026 08:00:00,12.7816279,77.6299145,PM10,32,130,91
India,Karnataka,Bengaluru,"Jigani, Bengaluru - KSPCB",30-01-2026 08:00:00,12.7816279,77.6299145,CO,46,48,47
India,Karnataka,Bengaluru,"Peenya, Bengaluru - CPCB",30-01-2026 08:00:00,13.0270199,77.494094,NO2,17,29,24
India,Karnataka,Bengaluru,"RVCE-Mailasandra, Bengaluru - KSPCB",30-01-2026 08:00:00,12.921418,77.502466,CO,2,28,11
India,Karnataka,Bengaluru,"RVCE-Mailasandra, Bengaluru - KSPCB",30-01-2026 08:00:00,12.921418,77.502466,OZONE,23,24,23
India,Karnataka,Bengaluru,"Sanegurava Halli, Bengaluru - KSPCB",30-01-2026 08:00:00,12.990328,77.5431385,SO2,6,6,6
India,Karnataka,Bengaluru,"Sanegurava Halli, Bengaluru - KSPCB",30-01-2026 08:00:00,12.990328,77.5431385,CO,21,38,27
India,Madhya Pradesh,Bhopal,"Paryavaran Parisar, Bhopal - MPPCB",30-01-2026 08:00:00,23.210494,77.425409,NH3,16,27,21
India,Madhya Pradesh,Bhopal,"T T Nagar, Bhopal - MPPCB",30-01-2026 08:00:00,23.233584,77.400574,CO,34,66,40
India,Madhya Pradesh,Bhopal,"T T Nagar, Bhopal - MPPCB",30-01-2026 08:00:00,23.233584,77.400574,OZONE,40,101,54
India,Madhya Pradesh,Dewas,"Bhopal Chauraha, Dewas - MPPCB",30-01-2026 08:00:00,22.9682591,76.064118,PM10,90,137,104
India,Madhya Pradesh,Gwalior,"City Center, Gwalior - MPPCB",30-01-2026 08:00:00,26.203442,78.193251,NH3,3,6,4
India,Madhya Pradesh,Gwalior,"Deen Dayal Nagar, Gwalior - MPPCB",30-01-2026 08:00:00,26.259242,78.216432,SO2,2,14,9
India,Madhya Pradesh,Gwalior,"Deen Dayal Nagar, Gwalior - MPPCB",30-01-2026 08:00:00,26.259242,78.216432,OZONE,36,116,48
India,Madhya Pradesh,Gwalior,"Maharaj Bada, Gwalior - MPPCB",30-01-2026 08:00:00,26.200388,78.147714,NH3,2,3,2
India,Madhya Pradesh,Gwalior,"Maharaj Bada, Gwalior - MPPCB",30-01-2026 08:00:00,26.200388,78.147714,OZONE,10,58,10
India,Madhya Pradesh,Indore,"Chhoti Gwaltoli, Indore - MPPCB",30-01-2026 08:00:00,22.4310,75.5213,CO,32,56,35
India,Madhya Pradesh,Indore,"Maguda Nagar, Indore - IMC",30-01-2026 08:00:00,22.7524,75.8872,NO2,18,26,21
India,Madhya Pradesh,Indore,"Residency Area, Indore - IMC",30-01-2026 08:00:00,22.7084,75.8815,PM10,38,65,49
India,Madhya Pradesh,Indore,"Residency Area, Indore - IMC",30-01-2026 08:00:00,22.7084,75.8815,SO2,3,6,4
India,Madhya Pradesh,Jabalpur,"Govindh Bhavan Colony, Jabalpur - JMC",30-01-2026 08:00:00,23.163174,79.973061,PM2.5,53,193,86
India,Madhya Pradesh,Jabalpur,"Govindh Bhavan Colony, Jabalpur - JMC",30-01-2026 08:00:00,23.163174,79.973061,PM10,53,105,65
India,Madhya Pradesh,Jabalpur,"Govindh Bhavan Colony, Jabalpur - JMC",30-01-2026 08:00:00,23.163174,79.973061,NO2,11,20,16
India,Kerala,Thiruvananthapuram,"Kariavattom, Thiruvananthapuram - Kerala PCB",30-01-2026 08:00:00,8.563700,76.886500,CO,37,70,52
India,Kerala,Thiruvananthapuram,"Plammoodu, Thiruvananthapuram - Kerala PCB",30-01-2026 08:00:00,8.5149093,76.9435879,PM10,78,126,98
India,Madhya Pradesh,Bhopal,"Idgah Hills, Bhopal - MPPCB",30-01-2026 08:00:00,23.264759,77.381568,PM2.5,52,217,116
India,Madhya Pradesh,Bhopal,"Idgah Hills, Bhopal - MPPCB",30-01-2026 08:00:00,23.264759,77.381568,NO2,15,49,26
India,Madhya Pradesh,Bhopal,"Idgah Hills, Bhopal - MPPCB",30-01-2026 08:00:00,23.264759,77.381568,NH3,4,5,4
India,Madhya Pradesh,Bhopal,"Paryavaran Parisar, Bhopal - MPPCB",30-01-2026 08:00:00,23.210494,77.425409,NO2,26,84,44
India,Karnataka,Yadgir,"Collector Office, Yadgir - KSPCB",30-01-2026 08:00:00,16.7602,77.1428,NO2,7,32,13
India,Karnataka,Yadgir,"Collector Office, Yadgir - KSPCB",30-01-2026 08:00:00,16.7602,77.1428,OZONE,18,20,19
India,Kerala,Eloor,"Udyogamandal, Eloor - Kerala PCB",30-01-2026 08:00:00,10.073232,76.302765,PM10,76,113,96
India,Kerala,Eloor,"Udyogamandal, Eloor - Kerala PCB",30-01-2026 08:00:00,10.073232,76.302765,NO2,7,8,8
India,Kerala,Eloor,"Udyogamandal, Eloor - Kerala PCB",30-01-2026 08:00:00,10.073232,76.302765,OZONE,12,23,14
India,Kerala,Kannur,"Thavakkara, Kannur - Kerala PCB",30-01-2026 08:00:00,11.875000,75.373200,NH3,2,2,2
India,Kerala,Kannur,"Thavakkara, Kannur - Kerala PCB",30-01-2026 08:00:00,11.875000,75.373200,OZONE,28,32,28
India,Karnataka,Bengaluru,"Shivapura_Peenya, Bengaluru - KSPCB",30-01-2026 08:00:00,13.0246342,77.5080115,NO2,79,79,79
India,Karnataka,Bengaluru,"Shivapura_Peenya, Bengaluru - KSPCB",30-01-2026 08:00:00,13.0246342,77.5080115,NH3,7,8,7
India,Karnataka,Bengaluru,"Silk Board, Bengaluru - KSPCB",30-01-2026 08:00:00,12.917348,77.622813,NH3,4,5,5
India,Karnataka,Chamarajanagar,"Urban, Chamarajanagar - KSPCB",30-01-2026 08:00:00,11.55358,76.55521,NO2,14,35,22
India,Karnataka,Chamarajanagar,"Urban, Chamarajanagar - KSPCB",30-01-2026 08:00:00,11.55358,76.55521,SO2,2,8,4
India,Karnataka,Mangalore,"Kadri, Mangalore - KSPCB",30-01-2026 08:00:00,12.889250,74.853000,PM10,NA,NA,NA
India,Karnataka,Ramanagara,"Vijay Nagar, Ramanagara - KSPCB",30-01-2026 08:00:00,12.733409,77.298051,NO2,31,43,38
India,Karnataka,Tumakuru,"Thimmalapura, Tumakuru - KSPCB",30-01-2026 08:00:00,13.377516,77.099072,PM10,72,141,121
India,Karnataka,Tumakuru,"Thimmalapura, Tumakuru - KSPCB",30-01-2026 08:00:00,13.377516,77.099072,NH3,6,6,6
India,Karnataka,Chamarajanagar,"Urban, Chamarajanagar - KSPCB",30-01-2026 08:00:00,11.55358,76.55521,OZONE,19,49,25
India,Karnataka,Chikkaballapur,"Chikkaballapur Rural, Chikkaballapur - KSPCB",30-01-2026 08:00:00,13.428828,77.731418,PM10,113,179,153
India,Maharashtra,Amravati,"Shri Shivaji Science College, Amravati - MPCB",30-01-2026 08:00:00,20.939198,77.765701,CO,34,103,41
India,Maharashtra,Aurangabad,"MIDC Chilkalthana, Aurangabad - MPCB",30-01-2026 08:00:00,19.875620,75.387310,NH3,1,2,2
India,Maharashtra,Aurangabad,"MIDC Chilkalthana, Aurangabad - MPCB",30-01-2026 08:00:00,19.875620,75.387310,SO2,1,3,2
India,Maharashtra,Aurangabad,"More Chowk Waluj, Aurangabad - MPCB",30-01-2026 08:00:00,19.8389439,75.244448,PM10,57,110,80
India,Maharashtra,Belapur,"CBD Belapur, Belapur - MPCB",30-01-2026 08:00:00,19.0243902,73.0406721,PM10,121,156,136
India,Maharashtra,Belapur,"CBD Belapur, Belapur - MPCB",30-01-2026 08:00:00,19.0243902,73.0406721,NO2,25,63,42
India,Maharashtra,Belapur,"CBD Belapur, Belapur - MPCB",30-01-2026 08:00:00,19.0243902,73.0406721,SO2,10,29,18
India,Maharashtra,Bhiwandi,"Gokul Nagar, Bhiwandi - MPCB",30-01-2026 08:00:00,19.309073,73.057223,PM2.5,46,190,106
India,Maharashtra,Chandrapur,"MIDC Khutala, Chandrapur - MPCB",30-01-2026 08:00:00,19.9775302,79.2337086,CO,38,42,40
India,Maharashtra,Dhule,"Deopur, Dhule - MPCB",30-01-2026 08:00:00,20.918946,74.776388,NH3,1,1,1
India,Maharashtra,Dhule,"Deopur, Dhule - MPCB",30-01-2026 08:00:00,20.918946,74.776388,SO2,5,12,8
India,Maharashtra,Jalgaon,"Prabhat Colony, Jalgaon - MPCB",30-01-2026 08:00:00,21.001264,75.565602,PM10,37,131,100
India,Maharashtra,Jalgaon,"Prabhat Colony, Jalgaon - MPCB",30-01-2026 08:00:00,21.001264,75.565602,NO2,4,24,8
India,Maharashtra,Jalgaon,"Prabhat Colony, Jalgaon - MPCB",30-01-2026 08:00:00,21.001264,75.565602,CO,21,31,22
India,Maharashtra,Jalgaon,"Prabhat Colony, Jalgaon - MPCB",30-01-2026 08:00:00,21.001264,75.565602,OZONE,17,47,35
India,Maharashtra,Jalna,"Old MIDC, Jalna - MPCB",30-01-2026 08:00:00,19.854616,75.905894,CO,22,49,26
India,Maharashtra,Kalyan,"Khadakpada, Kalyan - MPCB",30-01-2026 08:00:00,19.25292,73.142019,NH3,1,1,1
India,Maharashtra,Malegaon,"Mahesh Nagar, Malegaon - MPCB",30-01-2026 08:00:00,20.555712,74.529236,PM10,116,149,131
India,Maharashtra,Malegaon,"Mahesh Nagar, Malegaon - MPCB",30-01-2026 08:00:00,20.555712,74.529236,NH3,1,2,2
India,Maharashtra,Malegaon,"Mahesh Nagar, Malegaon - MPCB",30-01-2026 08:00:00,20.555712,74.529236,CO,29,63,38
India,Maharashtra,Mira-Bhayandar,"Bhayandar West, Mira-Bhayandar - MPCB",30-01-2026 08:00:00,19.296481,72.840923,NO2,20,68,42
India,Maharashtra,Mira-Bhayandar,"Bhayandar West, Mira-Bhayandar - MPCB",30-01-2026 08:00:00,19.296481,72.840923,CO,30,70,52
India,Maharashtra,Mumbai,"Bandra Kurla Complex, Mumbai - MPCB",30-01-2026 08:00:00,19.065931,72.862131,NO2,22,102,74
India,Maharashtra,Mumbai,"Borivali East, Mumbai - MPCB",30-01-2026 08:00:00,19.2243333,72.8658113,OZONE,17,19,18
India,Maharashtra,Mumbai,"Byculla, Mumbai - BMC",30-01-2026 08:00:00,18.9767,72.8380,PM2.5,74,174,113
India,Madhya Pradesh,Ujjain,"Mahashweta Nagar, Ujjain - MPPCB",30-01-2026 08:00:00,23.1633321,75.800225,PM2.5,98,216,139
India,Madhya Pradesh,Ujjain,"Mahashweta Nagar, Ujjain - MPPCB",30-01-2026 08:00:00,23.1633321,75.800225,NO2,20,59,36
India,Madhya Pradesh,Ujjain,"Mahashweta Nagar, Ujjain - MPPCB",30-01-2026 08:00:00,23.1633321,75.800225,SO2,1,5,2
India,Maharashtra,Akola,"Ramdaspeth, Akola - MPCB",30-01-2026 08:00:00,20.719516,77.000253,PM10,49,158,85
India,Maharashtra,Amravati,"Shivneri Colony, Amravati - MPCB",30-01-2026 08:00:00,20.9402359,77.7895248,NO2,9,37,16
India,Maharashtra,Amravati,"Shivneri Colony, Amravati - MPCB",30-01-2026 08:00:00,20.9402359,77.7895248,CO,16,41,22
India,Madhya Pradesh,Jabalpur,"Gupteshwar, Jabalpur - JMC",30-01-2026 08:00:00,23.142888,79.916147,CO,44,104,50
India,Madhya Pradesh,Jabalpur,"Marhatal, Jabalpur - MPPCB",30-01-2026 08:00:00,23.168606,79.932247,NH3,2,3,3
India,Madhya Pradesh,Jabalpur,"Suhagi, Jabalpur - JMC",30-01-2026 08:00:00,23.218135,79.957770,PM2.5,58,169,94
India,Madhya Pradesh,Mandideep,"Sector-D Industrial Area, Mandideep - MPPCB",30-01-2026 08:00:00,23.108440,77.511428,OZONE,17,22,17
India,Madhya Pradesh,Pithampur,"Sector-2 Industrial Area, Pithampur - MPPCB",30-01-2026 08:00:00,22.624758,75.675238,NH3,2,2,2
India,Maharashtra,Kalyan,"Pimpleshwar Mandir, Kalyan - MPCB",30-01-2026 08:00:00,19.192056,72.9585188,CO,26,26,26
India,Maharashtra,Kolhapur,"Sinchan Bhavan, Kolhapur - MPCB",30-01-2026 08:00:00,16.7143745,74.2426398,PM10,50,123,89
India,Maharashtra,Latur,"Sawe Wadi, Latur - MPCB",30-01-2026 08:00:00,18.39963,76.57452,NO2,13,45,27
India,Maharashtra,Mahad,"Kamble Tarf Birwadi, Mahad - MPCB",30-01-2026 08:00:00,18.1023399,73.4783687,PM10,62,144,116
India,Maharashtra,Mahad,"Kamble Tarf Birwadi, Mahad - MPCB",30-01-2026 08:00:00,18.1023399,73.4783687,OZONE,2,74,26
India,Maharashtra,Bhiwandi,"Gokul Nagar, Bhiwandi - MPCB",30-01-2026 08:00:00,19.309073,73.057223,CO,24,70,64
India,Maharashtra,Boisar,"Khaira, Boisar - MPCB",30-01-2026 08:00:00,19.786089,72.757971,PM10,89,123,104
India,Maharashtra,Chandrapur,"Chauhan Colony, Chandrapur - MPCB",30-01-2026 08:00:00,19.962900,79.298714,NH3,2,2,2
India,Maharashtra,Chandrapur,"MIDC Khutala, Chandrapur - MPCB",30-01-2026 08:00:00,19.9775302,79.2337086,PM2.5,63,295,138
India,Maharashtra,Chandrapur,"MIDC Khutala, Chandrapur - MPCB",30-01-2026 08:00:00,19.9775302,79.2337086,NH3,NA,NA,NA
India,Maharashtra,Mumbai,"Byculla, Mumbai - BMC",30-01-2026 08:00:00,18.9767,72.8380,OZONE,NA,NA,NA
India,Maharashtra,Mumbai,"Chakala-Andheri East, Mumbai - IITM",30-01-2026 08:00:00,19.11074,72.86084,CO,4,80,46
India,Maharashtra,Mumbai,"Chembur, Mumbai - MPCB",30-01-2026 08:00:00,19.0364585,72.8954371,PM10,90,131,114
India,Maharashtra,Mumbai,"Deonar, Mumbai - IITM",30-01-2026 08:00:00,19.04946,72.9230,CO,28,80,77
India,Maharashtra,Mumbai,"Deonar, Mumbai - IITM",30-01-2026 08:00:00,19.04946,72.9230,OZONE,1,30,1
India,Madhya Pradesh,Ratlam,"Shasthri Nagar, Ratlam - IPCA Lab",30-01-2026 08:00:00,23.331731,75.045981,SO2,33,38,34
India,Madhya Pradesh,Sagar,"Civil Lines, Sagar - MPPCB",30-01-2026 08:00:00,23.838586,78.759431,PM2.5,36,99,70
India,Madhya Pradesh,Sagar,"Civil Lines, Sagar - MPPCB",30-01-2026 08:00:00,23.838586,78.759431,CO,30,57,41
India,Madhya Pradesh,Singrauli,"Suryakiran Bhawan NCL, Singrauli - MPPCB",30-01-2026 08:00:00,24.108970,82.645580,SO2,42,101,57
India,Maharashtra,Pimpri-Chinchwad,"Park Street Wakad, Pimpri Chinchwad - MPCB",30-01-2026 08:00:00,18.59051,73.77946,NH3,3,6,5
India,Maharashtra,Pimpri-Chinchwad,"Savta Mali Nagar, Pimpri-Chinchwad - IITM",30-01-2026 08:00:00,18.614767,73.799516,PM2.5,69,214,123
India,Maharashtra,Pune,"Bhosari, Pune - IITM",30-01-2026 08:00:00,18.640051,73.848956,NO2,9,15,12
India,Maharashtra,Pune,"Bhumkar Nagar, Pune - IITM",30-01-2026 08:00:00,18.605770,73.749976,NO2,42,113,69
India,Maharashtra,Pune,"Bhumkar Nagar, Pune - IITM",30-01-2026 08:00:00,18.605770,73.749976,CO,46,131,85
India,Maharashtra,Pune,"Bhumkar Nagar, Pune - IITM",30-01-2026 08:00:00,18.605770,73.749976,OZONE,1,108,18
India,Maharashtra,Pune,"Hadapsar, Pune - IITM",30-01-2026 08:00:00,18.501793,73.927532,PM2.5,129,322,256
India,Maharashtra,Pune,"Hadapsar, Pune - IITM",30-01-2026 08:00:00,18.501793,73.927532,NO2,25,46,34
India,Maharashtra,Nagpur,"Mahal, Nagpur - MPCB",30-01-2026 08:00:00,21.14472,79.107595,CO,14,112,25
India,Maharashtra,Nagpur,"Opp GPO Civil Lines, Nagpur - MPCB",30-01-2026 08:00:00,21.152875,79.0517531,NO2,14,68,24
India,Maharashtra,Nagpur,"Ram Nagar, Nagpur - MPCB",30-01-2026 08:00:00,21.143383,79.048912,PM10,80,179,124
India,Maharashtra,Nagpur,"Ram Nagar, Nagpur - MPCB",30-01-2026 08:00:00,21.143383,79.048912,SO2,11,45,23
India,Maharashtra,Nanded,"Sneh Nagar, Nanded - MPCB",30-01-2026 08:00:00,19.173852,77.296291,NO2,4,26,12
India,Maharashtra,Nashik,"Gangapur Road, Nashik - MPCB",30-01-2026 08:00:00,20.0073285,73.7762427,NH3,3,3,3
India,Maharashtra,Nashik,"Gangapur Road, Nashik - MPCB",30-01-2026 08:00:00,20.0073285,73.7762427,CO,21,22,22
India,Maharashtra,Navi Mumbai,"Nerul, Navi Mumbai - MPCB",30-01-2026 08:00:00,19.008751,73.016620,NH3,5,5,5
India,Maharashtra,Navi Mumbai,"Sanpada, Navi Mumbai - MPCB",30-01-2026 08:00:00,19.0575752,73.0151367,PM2.5,77,175,103
India,Maharashtra,Navi Mumbai,"Sanpada, Navi Mumbai - MPCB",30-01-2026 08:00:00,19.0575752,73.0151367,PM10,93,160,123
India,Maharashtra,Navi Mumbai,"Tondare-Taloja, Navi Mumbai - MPCB",30-01-2026 08:00:00,19.0630,73.1209,SO2,2,6,4
India,Maharashtra,Pimpri-Chinchwad,"Gavalinagar, Pimpri Chinchwad - MPCB",30-01-2026 08:00:00,18.63673,73.82487,NO2,NA,NA,NA
India,Maharashtra,Pimpri-Chinchwad,"Gavalinagar, Pimpri Chinchwad - MPCB",30-01-2026 08:00:00,18.63673,73.82487,NH3,7,18,10
India,Maharashtra,Pimpri-Chinchwad,"Gavalinagar, Pimpri Chinchwad - MPCB",30-01-2026 08:00:00,18.63673,73.82487,SO2,1,4,1
India,Maharashtra,Mumbai,"Kandivali East, Mumbai - MPCB",30-01-2026 08:00:00,19.205800,72.868200,PM2.5,14,38,31
India,Maharashtra,Mumbai,"Kandivali West, Mumbai - BMC",30-01-2026 08:00:00,19.215859,72.831718,PM2.5,54,106,76
India,Maharashtra,Mumbai,"Kandivali West, Mumbai - BMC",30-01-2026 08:00:00,19.215859,72.831718,PM10,75,105,89
India,Maharashtra,Mumbai,"Kandivali West, Mumbai - BMC",30-01-2026 08:00:00,19.215859,72.831718,OZONE,1,55,2
India,Maharashtra,Mumbai,"Kherwadi_Bandra East, Mumbai - MPCB",30-01-2026 08:00:00,19.0632143,72.8456324,NO2,21,73,48
India,Maharashtra,Mumbai,"Kherwadi_Bandra East, Mumbai - MPCB",30-01-2026 08:00:00,19.0632143,72.8456324,NH3,11,21,17
India,Maharashtra,Mumbai,"Kherwadi_Bandra East, Mumbai - MPCB",30-01-2026 08:00:00,19.0632143,72.8456324,SO2,3,5,4
India,Maharashtra,Mumbai,"Khindipada-Bhandup West, Mumbai - IITM",30-01-2026 08:00:00,19.1653323,72.922099,NO2,17,65,33
India,Maharashtra,Mumbai,"Khindipada-Bhandup West, Mumbai - IITM",30-01-2026 08:00:00,19.1653323,72.922099,NH3,4,9,7
India,Maharashtra,Mumbai,"Kurla, Mumbai - MPCB",30-01-2026 08:00:00,19.0863,72.8888,NO2,6,10,8
India,Maharashtra,Mumbai,"Kurla, Mumbai - MPCB",30-01-2026 08:00:00,19.0863,72.8888,CO,14,30,27
India,Maharashtra,Mumbai,"Malad West, Mumbai - IITM",30-01-2026 08:00:00,19.19709,72.82204,PM10,100,186,138
India,Maharashtra,Mumbai,"Mazgaon, Mumbai - IITM",30-01-2026 08:00:00,18.96702,72.84214,PM10,88,134,111
India,Maharashtra,Mumbai,"Shivaji Nagar, Mumbai - BMC",30-01-2026 08:00:00,19.060498,72.923356,PM2.5,NA,NA,NA
India,Maharashtra,Mumbai,"Shivaji Nagar, Mumbai - BMC",30-01-2026 08:00:00,19.060498,72.923356,NO2,NA,NA,NA
India,Maharashtra,Mumbai,"Shivaji Nagar, Mumbai - BMC",30-01-2026 08:00:00,19.060498,72.923356,NH3,NA,NA,NA
India,Maharashtra,Mumbai,"Siddharth Nagar-Worli, Mumbai - IITM",30-01-2026 08:00:00,19.000083,72.813993,CO,2,74,46
India,Maharashtra,Nagpur,"Ambazari, Nagpur - MPCB",30-01-2026 08:00:00,21.121801,79.04952,SO2,6,60,27
India,Maharashtra,Nagpur,"Ambazari, Nagpur - MPCB",30-01-2026 08:00:00,21.121801,79.04952,CO,16,96,24
India,Maharashtra,Nashik,"Hirawadi, Nashik - MPCB",30-01-2026 08:00:00,20.021503,73.813844,PM10,71,115,94
India,Maharashtra,Nashik,"Hirawadi, Nashik - MPCB",30-01-2026 08:00:00,20.021503,73.813844,OZONE,16,108,38
India,Maharashtra,Navi Mumbai,"Kopripada-Vashi, Navi Mumbai - MPCB",30-01-2026 08:00:00,19.090337,73.014232,PM2.5,90,352,169
India,Maharashtra,Navi Mumbai,"Kopripada-Vashi, Navi Mumbai - MPCB",30-01-2026 08:00:00,19.090337,73.014232,NH3,4,5,4
India,Maharashtra,Navi Mumbai,"Nerul, Navi Mumbai - MPCB",30-01-2026 08:00:00,19.008751,73.016620,PM2.5,61,174,84
India,Maharashtra,Mumbai,"Mulund West, Mumbai - MPCB",30-01-2026 08:00:00,19.1750,72.9419,PM10,NA,NA,NA
India,Maharashtra,Mumbai,"Mulund West, Mumbai - MPCB",30-01-2026 08:00:00,19.1750,72.9419,NH3,3,4,3
India,Maharashtra,Mumbai,"Mulund West, Mumbai - MPCB",30-01-2026 08:00:00,19.1750,72.9419,SO2,NA,NA,NA
India,Maharashtra,Mumbai,"Navy Nagar-Colaba, Mumbai - IITM",30-01-2026 08:00:00,18.897756,72.813320,PM10,98,179,134
India,Maharashtra,Mumbai,"Navy Nagar-Colaba, Mumbai - IITM",30-01-2026 08:00:00,18.897756,72.813320,OZONE,11,76,24
India,Maharashtra,Pune,"Katraj Dairy, Pune - MPCB",30-01-2026 08:00:00,18.454450,73.854155,PM2.5,NA,NA,NA
India,Maharashtra,Pune,"Katraj Dairy, Pune - MPCB",30-01-2026 08:00:00,18.454450,73.854155,PM10,NA,NA,NA
India,Maharashtra,Pune,"Panchawati_Pashan, Pune - IITM",30-01-2026 08:00:00,18.536457,73.805454,PM10,95,130,114
India,Odisha,Rourkela,"Fertilizer Township, Rourkela - OSPCB",30-01-2026 08:00:00,22.18972222,84.86277778,CO,16,28,23
India,Odisha,Rourkela,"Raghunathpali, Rourkela - OSPCB",30-01-2026 08:00:00,22.220833,84.809444,SO2,5,8,6
India,Odisha,Rourkela,"Sector-2, Rourkela - OSPCB",30-01-2026 08:00:00,22.24500000,84.88111111,PM2.5,36,71,52
India,Odisha,Suakati,"OMC Colony, Suakati - OSPCB",30-01-2026 08:00:00,21.606865,85.510538,PM10,137,407,187
India,Odisha,Suakati,"OMC Colony, Suakati - OSPCB",30-01-2026 08:00:00,21.606865,85.510538,NO2,8,8,8
India,Odisha,Tensa,"Barsua Iron Ore Mines, Tensa - OSPCB",30-01-2026 08:00:00,21.869985,85.167016,SO2,NA,NA,NA
India,Puducherry,Puducherry,"Jawahar Nagar, Puducherry - PPCC",30-01-2026 08:00:00,11.9309,79.8027,SO2,4,9,7
India,Puducherry,Puducherry,"Jawahar Nagar, Puducherry - PPCC",30-01-2026 08:00:00,11.9309,79.8027,CO,20,40,26
India,Rajasthan,Baran,"Bamboliya, Baran - RSPCB",30-01-2026 08:00:00,25.106006,76.469948,NO2,14,36,20
India,Rajasthan,Baran,"Bamboliya, Baran - RSPCB",30-01-2026 08:00:00,25.106006,76.469948,CO,22,42,28
India,Rajasthan,Barmer,"Railway Colony, Barmer - RSPCB",30-01-2026 08:00:00,25.747299,71.393989,PM2.5,23,84,46
India,Rajasthan,Barmer,"Railway Colony, Barmer - RSPCB",30-01-2026 08:00:00,25.747299,71.393989,PM10,36,137,72
India,Rajasthan,Bharatpur,"Krishna Nagar, Bharatpur - RSPCB",30-01-2026 08:00:00,27.215415,77.50873,PM2.5,52,172,88
India,Rajasthan,Bhilwara,"Pratap Nagar, Bhilwara - RSPCB",30-01-2026 08:00:00,25.339605,74.618883,PM2.5,150,315,221
India,Rajasthan,Bhilwara,"Pratap Nagar, Bhilwara - RSPCB",30-01-2026 08:00:00,25.339605,74.618883,OZONE,4,49,10
India,Rajasthan,Bhiwadi,"RIICO Ind. Area III, Bhiwadi - RSPCB",30-01-2026 08:00:00,28.194909,76.862296,NH3,5,20,11
India,Punjab,Amritsar,"Golden Temple, Amritsar - PPCB",30-01-2026 08:00:00,31.620000,74.876512,CO,28,109,59
India,Punjab,Bathinda,"Hardev Nagar, Bathinda - PPCB",30-01-2026 08:00:00,30.233011,74.907758,PM2.5,NA,NA,NA
India,Punjab,Bathinda,"Hardev Nagar, Bathinda - PPCB",30-01-2026 08:00:00,30.233011,74.907758,SO2,3,9,6
India,Punjab,Jalandhar,"Civil Line, Jalandhar - PPCB",30-01-2026 08:00:00,31.321907,75.578914,NO2,40,46,43
India,Punjab,Jalandhar,"Civil Line, Jalandhar - PPCB",30-01-2026 08:00:00,31.321907,75.578914,SO2,18,21,20
India,Punjab,Khanna,"Kalal Majra, Khanna - PPCB",30-01-2026 08:00:00,30.736056 ,76.209694,OZONE,19,40,20
India,Punjab,Mandi Gobindgarh,"RIMT University, Mandi Gobindgarh - PPCB",30-01-2026 08:00:00,30.649961,76.331442,NH3,6,6,6
India,Odisha,Baripada,"Meher Colony, Baripada - OSPCB",30-01-2026 08:00:00,21.941841,86.728318,CO,24,66,28
India,Odisha,Bhubaneswar,"Lingraj Mandir, Bhubaneswar - OSPCB",30-01-2026 08:00:00,20.240790,85.836784,CO,74,102,94
India,Odisha,Bhubaneswar,"Patia, Bhubaneswar - OSPCB",30-01-2026 08:00:00,20.34652,85.81630,PM10,72,135,113
India,Odisha,Bhubaneswar,"Patia, Bhubaneswar - OSPCB",30-01-2026 08:00:00,20.34652,85.81630,NO2,13,31,21
India,Odisha,Bhubaneswar,"Patia, Bhubaneswar - OSPCB",30-01-2026 08:00:00,20.34652,85.81630,OZONE,5,140,19
India,Odisha,Bileipada,"Tata Township, Bileipada - OSPCB",30-01-2026 08:00:00,22.06156703,85.47409613,SO2,11,11,11
India,Odisha,Bileipada,"Tata Township, Bileipada - OSPCB",30-01-2026 08:00:00,22.06156703,85.47409613,CO,33,77,51
India,Maharashtra,Solapur,"Ratandeep Housing Society, Solapur - MPCB",30-01-2026 08:00:00,17.65439,75.90649,PM10,91,147,116
India,Maharashtra,Solapur,"Ratandeep Housing Society, Solapur - MPCB",30-01-2026 08:00:00,17.65439,75.90649,NH3,2,9,4
India,Maharashtra,Solapur,"Ratandeep Housing Society, Solapur - MPCB",30-01-2026 08:00:00,17.65439,75.90649,SO2,1,21,4
India,Maharashtra,Thane,"Kasarvadavali, Thane - MPCB",30-01-2026 08:00:00,19.26777,72.97182,NH3,2,4,3
India,Maharashtra,Thane,"Upvan Fort, Thane - MPCB",30-01-2026 08:00:00,19.222279,72.957979,CO,32,54,42
India,Maharashtra,Virar,"Bolinj, Virar - MPCB",30-01-2026 08:00:00,19.4458210,72.7988231,PM2.5,49,246,95
India,Maharashtra,Virar,"Bolinj, Virar - MPCB",30-01-2026 08:00:00,19.4458210,72.7988231,SO2,6,22,12
India,Mizoram,Aizawl,"Sikulpuikawn, Aizawl - Mizoram PCB",30-01-2026 08:00:00,23.7176342,92.7192841,CO,3,4,3
India,Nagaland,Kohima,"PWD Junction, Kohima - NPCB",30-01-2026 08:00:00,25.6635413,94.0989878,NH3,1,1,1
India,Odisha,Balasore,"Kalidaspur, Balasore - OSPCB",30-01-2026 08:00:00,21.51161,86.89088,CO,28,103,48
India,Odisha,Barbil,"Forest Office, Barbil - OSPCB",30-01-2026 08:00:00,22.1166054,85.3945546,NO2,18,75,35
India,Odisha,Barbil,"Forest Office, Barbil - OSPCB",30-01-2026 08:00:00,22.1166054,85.3945546,NH3,1,2,2
India,Maharashtra,Pune,"Savitribai Phule Pune University, Pune - MPCB",30-01-2026 08:00:00,18.547056,73.826908,CO,11,90,52
India,Maharashtra,Pune,"Transport Nagar-Nigdi, Pune - IITM",30-01-2026 08:00:00,18.664282,73.763966,PM10,103,180,150
India,Maharashtra,Sangli,"Vijay Nagar, Sangli - MPCB",30-01-2026 08:00:00, 16.5038,74.3623,PM2.5,66,197,96
India,Maharashtra,Solapur,"Dnyaneshwar Nagar, Solapur - MPCB",30-01-2026 08:00:00,17.6336264,75.9132495,CO,11,32,19
India,Odisha,Byasanagar,"Ferro Chrome Colony, Byasanagar - OSPCB",30-01-2026 08:00:00,20.94185,86.11510,NH3,2,3,3
India,Odisha,Keonjhar,"Jagamohanpur, Keonjhar - OSPCB",30-01-2026 08:00:00,21.643900,85.599355,NH3,5,5,5
India,Odisha,Keonjhar,"Jagamohanpur, Keonjhar - OSPCB",30-01-2026 08:00:00,21.643900,85.599355,SO2,5,66,26
India,Odisha,Rairangpur,"Divisional Forest Office, Rairangpur - OSPCB",30-01-2026 08:00:00,22.265816,86.174829,NO2,11,12,11
India,Rajasthan,Ajmer,"Civil Lines,  Ajmer - RSPCB",30-01-2026 08:00:00,26.470859,74.646594,NO2,28,35,31
India,Rajasthan,Ajmer,"Civil Lines,  Ajmer - RSPCB",30-01-2026 08:00:00,26.470859,74.646594,OZONE,10,32,13
India,Rajasthan,Alwar,"Moti Doongri, Alwar - RSPCB",30-01-2026 08:00:00,27.554793,76.611536,NH3,9,13,11
India,Rajasthan,Banswara,"Rati Talai, Banswara - RSPCB",30-01-2026 08:00:00,23.555190,74.440010,NO2,17,66,27
India,Rajasthan,Bhiwadi,"RIICO Ind. Area III, Bhiwadi - RSPCB",30-01-2026 08:00:00,28.194909,76.862296,OZONE,3,23,4
India,Rajasthan,Bhiwadi,"Vasundhara Nagar_UIT, Bhiwadi - RSPCB",30-01-2026 08:00:00,28.207266,76.829265,PM10,83,500,197
India,Rajasthan,Bikaner,"MM Ground, Bikaner - RSPCB",30-01-2026 08:00:00,28.018792,73.292658,CO,8,125,20
India,Rajasthan,Bundi,"New Colony, Bundi - RSPCB",30-01-2026 08:00:00,25.435774,75.644272,NO2,12,62,24
India,Rajasthan,Bundi,"New Colony, Bundi - RSPCB",30-01-2026 08:00:00,25.435774,75.644272,NH3,3,5,4
India,Rajasthan,Bundi,"New Colony, Bundi - RSPCB",30-01-2026 08:00:00,25.435774,75.644272,CO,22,70,25
India,Rajasthan,Chittorgarh,"Shastri Nagar, Chittorgarh - RSPCB",30-01-2026 08:00:00,24.892047,74.623527,NO2,14,60,41
India,Rajasthan,Chittorgarh,"Shastri Nagar, Chittorgarh - RSPCB",30-01-2026 08:00:00,24.892047,74.623527,CO,13,48,27
India,Rajasthan,Churu,"Subash Chowk, Churu - RSPCB",30-01-2026 08:00:00,28.296139,74.961696,PM10,76,202,136
India,Rajasthan,Churu,"Subash Chowk, Churu - RSPCB",30-01-2026 08:00:00,28.296139,74.961696,SO2,2,10,5
India,Rajasthan,Kota,"Nayapura, Kota - RSPCB",30-01-2026 08:00:00,25.196024,75.855668,CO,18,103,43
India,Rajasthan,Kota,"Nayapura, Kota - RSPCB",30-01-2026 08:00:00,25.196024,75.855668,OZONE,5,96,11
India,Rajasthan,Kota,"Shrinath Puram, Kota - RSPCB",30-01-2026 08:00:00,25.14389,75.821256,NH3,4,9,5
India,Rajasthan,Nagaur,"Karni Colony, Nagaur - RSPCB",30-01-2026 08:00:00,27.213494,73.734444,OZONE,40,83,64
India,Rajasthan,Pali,"Indira Colony Vistar, Pali - RSPCB",30-01-2026 08:00:00,25.771061, 73.340227,NO2,2,55,30
India,Rajasthan,Pali,"Indira Colony Vistar, Pali - RSPCB",30-01-2026 08:00:00,25.771061, 73.340227,NH3,3,11,7
India,Rajasthan,Pali,"Indira Colony Vistar, Pali - RSPCB",30-01-2026 08:00:00,25.771061, 73.340227,SO2,7,11,9
India,Rajasthan,Pratapgarh,"Pragati Nagar, Pratapgarh - RSPCB",30-01-2026 08:00:00,24.041198,74.780702,PM2.5,73,305,191
India,Rajasthan,Pratapgarh,"Pragati Nagar, Pratapgarh - RSPCB",30-01-2026 08:00:00,24.041198,74.780702,NO2,18,30,22
India,Rajasthan,Jaisalmer,"Sadar Bazar, Jaisalmer - RSPCB",30-01-2026 08:00:00,26.912329,70.909168,PM2.5,33,95,57
India,Rajasthan,Jaisalmer,"Sadar Bazar, Jaisalmer - RSPCB",30-01-2026 08:00:00,26.912329,70.909168,NH3,5,8,6
India,Rajasthan,Jalore,"Mudtra Sili, Jalore - RSPCB",30-01-2026 08:00:00,25.344694,72.626208,NH3,4,6,5
India,Rajasthan,Jalore,"Mudtra Sili, Jalore - RSPCB",30-01-2026 08:00:00,25.344694,72.626208,SO2,3,8,5
India,Rajasthan,Jhalawar,"Rajlaxmi Nagar, Jhalawar - RSPCB",30-01-2026 08:00:00,24.588397,76.172782,PM10,50,92,71
India,Rajasthan,Jhunjhunu,"Indra Nagar, Jhunjhunu - RSPCB",30-01-2026 08:00:00,28.108988,75.386577,PM2.5,47,198,113
India,Rajasthan,Jhunjhunu,"Indra Nagar, Jhunjhunu - RSPCB",30-01-2026 08:00:00,28.108988,75.386577,SO2,4,18,8
India,Rajasthan,Jhunjhunu,"Indra Nagar, Jhunjhunu - RSPCB",30-01-2026 08:00:00,28.108988,75.386577,OZONE,4,110,22
India,Rajasthan,Jodhpur,"Collectorate, Jodhpur - RSPCB",30-01-2026 08:00:00,26.268249,73.0193853,NH3,6,14,9
India,Rajasthan,Sikar,"Radhakishan Pura, Sikar - RSPCB",30-01-2026 08:00:00,27.608912,75.153302,PM2.5,77,325,220
India,Rajasthan,Sikar,"Radhakishan Pura, Sikar - RSPCB",30-01-2026 08:00:00,27.608912,75.153302,NO2,17,64,29
India,Rajasthan,Sikar,"Radhakishan Pura, Sikar - RSPCB",30-01-2026 08:00:00,27.608912,75.153302,OZONE,30,101,47
India,Rajasthan,Sirohi,"Vedhaynath Colony, Sirohi - RSPCB",30-01-2026 08:00:00,24.885261,72.857549,SO2,4,15,7
India,Rajasthan,Sri Ganganagar,"Old City, Sri Ganganagar - RSPCB",30-01-2026 08:00:00,29.931624,73.864511,PM10,45,284,118
India,Rajasthan,Tonk,"Shastri Nagar, Tonk - RSPCB",30-01-2026 08:00:00,26.159933,75.780517,PM10,94,292,153
India,Rajasthan,Udaipur,"Ashok Nagar, Udaipur - RSPCB",30-01-2026 08:00:00,24.5886166,73.6321397,PM10,104,175,141
India,Rajasthan,Udaipur,"Ashok Nagar, Udaipur - RSPCB",30-01-2026 08:00:00,24.5886166,73.6321397,CO,5,101,26
India,Rajasthan,Jodhpur,"Digari Kalan, Jodhpur - RSPCB",30-01-2026 08:00:00,26.295810,73.082283,PM10,31,85,51
India,Rajasthan,Jodhpur,"Digari Kalan, Jodhpur - RSPCB",30-01-2026 08:00:00,26.295810,73.082283,OZONE,17,96,37
India,Rajasthan,Jodhpur,"Jhalamand, Jodhpur - RSPCB",30-01-2026 08:00:00,26.215415,73.070156,PM2.5,22,177,63
India,Rajasthan,Jodhpur,"Jhalamand, Jodhpur - RSPCB",30-01-2026 08:00:00,26.215415,73.070156,PM10,41,126,75
India,Rajasthan,Jodhpur,"Mandor, Jodhpur - RSPCB",30-01-2026 08:00:00,26.358805,73.047444,OZONE,48,81,52
India,Rajasthan,Jodhpur,"Samrat Ashok Udhyan, Jodhpur - RSPCB",30-01-2026 08:00:00,26.253384,72.976571,PM10,38,101,67
India,Rajasthan,Kota,"Dhanmandi, Kota - RSPCB",30-01-2026 08:00:00,25.164090,75.858137,NO2,25,105,46
India,Rajasthan,Kota,"Dhanmandi, Kota - RSPCB",30-01-2026 08:00:00,25.164090,75.858137,NH3,9,19,13
India,Rajasthan,Kota,"Dhanmandi, Kota - RSPCB",30-01-2026 08:00:00,25.164090,75.858137,SO2,1,11,5
India,Rajasthan,Dholpur,"Raja Ganj, Dholpur - RSPCB",30-01-2026 08:00:00,26.699557,77.898881,CO,4,82,48
India,Rajasthan,Dholpur,"Raja Ganj, Dholpur - RSPCB",30-01-2026 08:00:00,26.699557,77.898881,OZONE,2,30,9
India,Rajasthan,Dungarpur,"Bhoiwada, Dungarpur - RSPCB",30-01-2026 08:00:00,23.837789,73.714926,SO2,2,7,4
India,Rajasthan,Dungarpur,"Bhoiwada, Dungarpur - RSPCB",30-01-2026 08:00:00,23.837789,73.714926,OZONE,46,92,51
India,Rajasthan,Hanumangarh,"Housing Board, Hanumangarh - RSPCB",30-01-2026 08:00:00,29.610750,74.283608,CO,20,105,67
India,Rajasthan,Jaipur,"Adarsh Nagar, Jaipur - RSPCB",30-01-2026 08:00:00,26.902909,75.836858,CO,36,98,54
India,Rajasthan,Jaipur,"RIICO Sitapura, Jaipur - RSPCB",30-01-2026 08:00:00,26.786682,75.827928,SO2,5,6,5
India,Rajasthan,Jaipur,"RIICO Sitapura, Jaipur - RSPCB",30-01-2026 08:00:00,26.786682,75.827928,CO,28,102,52
India,Rajasthan,Jaipur,"Sector-2 Murlipura, Jaipur - RSPCB",30-01-2026 08:00:00,26.960669,75.771817,NO2,18,104,53
India,Rajasthan,Jaipur,"Sector-2 Murlipura, Jaipur - RSPCB",30-01-2026 08:00:00,26.960669,75.771817,CO,36,105,60
India,Rajasthan,Jaipur,"Shastri Nagar, Jaipur - RSPCB",30-01-2026 08:00:00,26.9502929,75.730943,NO2,46,100,66
India,Rajasthan,Jaipur,"Mansarovar Sector-12, Jaipur - RSPCB",30-01-2026 08:00:00,26.843698,75.766894,NO2,27,53,37
India,Rajasthan,Jaipur,"Police Commissionerate, Jaipur - RSPCB",30-01-2026 08:00:00,26.9164092,75.7994901,NO2,84,154,135
India,Rajasthan,Rajsamand,"Dhoinda, Rajsamand - RSPCB",30-01-2026 08:00:00,25.036360,73.883502,PM2.5,67,345,153
India,Rajasthan,Rajsamand,"Dhoinda, Rajsamand - RSPCB",30-01-2026 08:00:00,25.036360,73.883502,OZONE,1,96,11
India,TamilNadu,Chennai,"Royapuram, Chennai - TNPCB",30-01-2026 08:00:00,13.1036,80.2909,SO2,NA,NA,NA
India,TamilNadu,Chennai,"Royapuram, Chennai - TNPCB",30-01-2026 08:00:00,13.1036,80.2909,OZONE,NA,NA,NA
India,TamilNadu,Chennai,"Velachery Res. Area, Chennai - CPCB",30-01-2026 08:00:00,13.0052189,80.2398125,PM2.5,69,183,118
India,TamilNadu,Chennai,"Velachery Res. Area, Chennai - CPCB",30-01-2026 08:00:00,13.0052189,80.2398125,OZONE,2,8,2
India,TamilNadu,Coimbatore,"PSG College of Arts and Science, Coimbatore - TNPCB",30-01-2026 08:00:00,11.0328,77.0349,NO2,10,11,11
India,TamilNadu,Coimbatore,"PSG College of Arts and Science, Coimbatore - TNPCB",30-01-2026 08:00:00,11.0328,77.0349,NH3,1,1,1
India,TamilNadu,Coimbatore,"SIDCO Kurichi, Coimbatore - TNPCB",30-01-2026 08:00:00,10.942451,76.978996,SO2,21,24,23
India,TamilNadu,Coimbatore,"SIDCO Kurichi, Coimbatore - TNPCB",30-01-2026 08:00:00,10.942451,76.978996,OZONE,10,14,10
India,TamilNadu,Madurai,"Uchapatti, Madurai - TNPCB",30-01-2026 08:00:00,9.865935,78.022669,OZONE,1,4,1
India,Telangana,Hyderabad,"IDA Pashamylaram, Hyderabad - TSPCB",30-01-2026 08:00:00,17.5316895,78.218939,SO2,5,22,15
India,Telangana,Hyderabad,"IITH Kandi, Hyderabad - TSPCB",30-01-2026 08:00:00,17.585705,78.126199,SO2,NA,NA,NA
India,Telangana,Hyderabad,"Kokapet, Hyderabad - TSPCB",30-01-2026 08:00:00,17.393559,78.339194,PM10,77,95,91
India,Telangana,Hyderabad,"Kokapet, Hyderabad - TSPCB",30-01-2026 08:00:00,17.393559,78.339194,OZONE,17,31,18
India,Telangana,Hyderabad,"Kompally Municipal Office, Hyderabad - TSPCB",30-01-2026 08:00:00,17.544899,78.486949,PM10,72,113,83
India,Telangana,Hyderabad,"Kompally Municipal Office, Hyderabad - TSPCB",30-01-2026 08:00:00,17.544899,78.486949,NO2,12,15,12
India,Telangana,Hyderabad,"New Malakpet, Hyderabad - TSPCB",30-01-2026 08:00:00,17.37206,78.50864,PM2.5,41,79,59
India,Telangana,Hyderabad,"New Malakpet, Hyderabad - TSPCB",30-01-2026 08:00:00,17.37206,78.50864,OZONE,12,20,14
India,Telangana,Hyderabad,"Bollaram Industrial Area, Hyderabad - TSPCB",30-01-2026 08:00:00,17.540891,78.358528,PM2.5,72,190,135
India,Telangana,Hyderabad,"Bollaram Industrial Area, Hyderabad - TSPCB",30-01-2026 08:00:00,17.540891,78.358528,NH3,2,6,4
India,Telangana,Hyderabad,"Central University, Hyderabad - TSPCB",30-01-2026 08:00:00,17.460103,78.334361,PM2.5,48,116,75
India,Telangana,Hyderabad,"Central University, Hyderabad - TSPCB",30-01-2026 08:00:00,17.460103,78.334361,NH3,1,6,3
India,Telangana,Hyderabad,"Central University, Hyderabad - TSPCB",30-01-2026 08:00:00,17.460103,78.334361,OZONE,11,15,14
India,Telangana,Hyderabad,"ECIL Kapra, Hyderabad - TSPCB",30-01-2026 08:00:00,17.470431,78.566959,OZONE,11,38,12
India,Telangana,Hyderabad,"ICRISAT Patancheru, Hyderabad - TSPCB",30-01-2026 08:00:00,17.518400,78.278777,PM2.5,50,159,93
India,Telangana,Hyderabad,"ICRISAT Patancheru, Hyderabad - TSPCB",30-01-2026 08:00:00,17.518400,78.278777,OZONE,2,44,15
India,Telangana,Hyderabad,"Ramachandrapuram, Hyderabad - TSPCB",30-01-2026 08:00:00,17.528544,78.286195,SO2,7,13,9
India,Telangana,Hyderabad,"Ramachandrapuram, Hyderabad - TSPCB",30-01-2026 08:00:00,17.528544,78.286195,OZONE,22,36,24
India,Telangana,Hyderabad,"Sanathnagar, Hyderabad - TSPCB",30-01-2026 08:00:00,17.4559458,78.4332152,NO2,9,152,35
India,Telangana,Hyderabad,"Somajiguda, Hyderabad - TSPCB",30-01-2026 08:00:00,17.417094,78.457437,SO2,14,16,15
India,Telangana,Hyderabad,"Somajiguda, Hyderabad - TSPCB",30-01-2026 08:00:00,17.417094,78.457437,CO,13,34,16
India,Telangana,Hyderabad,"Zoo Park, Hyderabad - TSPCB",30-01-2026 08:00:00,17.349694,78.451437,PM2.5,52,147,97
India,Telangana,Hyderabad,"Zoo Park, Hyderabad - TSPCB",30-01-2026 08:00:00,17.349694,78.451437,PM10,72,149,118
India,Telangana,Hyderabad,"Zoo Park, Hyderabad - TSPCB",30-01-2026 08:00:00,17.349694,78.451437,NO2,9,14,12
India,TamilNadu,Chennai,"Arumbakkam, Chennai - TNPCB",30-01-2026 08:00:00,13.0664,80.2112 ,PM10,102,190,132
India,TamilNadu,Chennai,"Manali Village, Chennai - TNPCB",30-01-2026 08:00:00,13.1662,80.2584,PM2.5,25,215,125
India,TamilNadu,Chennai,"Manali, Chennai - CPCB",30-01-2026 08:00:00,13.164544,80.26285,PM2.5,185,324,266
India,TamilNadu,Chennai,"Perungudi, Chennai - TNPCB",30-01-2026 08:00:00,12.9533,80.2357,PM2.5,91,309,156
India,TamilNadu,Chennai,"Perungudi, Chennai - TNPCB",30-01-2026 08:00:00,12.9533,80.2357,SO2,1,8,5
India,TamilNadu,Chennai,"Royapuram, Chennai - TNPCB",30-01-2026 08:00:00,13.1036,80.2909,PM2.5,NA,NA,NA
India,TamilNadu,Nagapattinam,"Velippalayam, Nagapattinam - TNPCB",30-01-2026 08:00:00,10.798548,79.838212,NO2,5,6,6
India,TamilNadu,Nagapattinam,"Velippalayam, Nagapattinam - TNPCB",30-01-2026 08:00:00,10.798548,79.838212,NH3,2,2,2
India,TamilNadu,Perundurai,"SIPCOT Industrial Park, Perundurai - TNPCB",30-01-2026 08:00:00,11.258242,77.552761,PM2.5,NA,NA,NA
India,TamilNadu,Perundurai,"SIPCOT Industrial Park, Perundurai - TNPCB",30-01-2026 08:00:00,11.258242,77.552761,PM10,64,123,84
India,TamilNadu,Perundurai,"SIPCOT Industrial Park, Perundurai - TNPCB",30-01-2026 08:00:00,11.258242,77.552761,NO2,12,14,13
India,TamilNadu,Ramanathapuram,"Chalai Bazaar, Ramanathapuram - TNPCB",30-01-2026 08:00:00,9.36399,78.831977,OZONE,4,6,4
India,Telangana,Hyderabad,"Zoo Park, Hyderabad - TSPCB",30-01-2026 08:00:00,17.349694,78.451437,NH3,3,3,3
India,Telangana,Hyderabad,"Zoo Park, Hyderabad - TSPCB",30-01-2026 08:00:00,17.349694,78.451437,SO2,2,7,4
India,Uttar_Pradesh,Agra,"Manoharpur, Agra - UPPCB",30-01-2026 08:00:00,27.23711,78.01936,PM2.5,53,331,123
India,Uttar_Pradesh,Agra,"Rohta, Agra - UPPCB",30-01-2026 08:00:00,27.106972,78.000111,OZONE,14,16,16
India,Uttar_Pradesh,Agra,"Sector-3B Avas Vikas Colony, Agra - UPPCB",30-01-2026 08:00:00,27.19412,77.96237,OZONE,1,39,3
India,Uttar_Pradesh,Agra,"Shastripuram, Agra - UPPCB",30-01-2026 08:00:00,27.19862,77.92066,NH3,3,3,3
India,Uttar_Pradesh,Baghpat,"Sardar Patel Inter College, Baghpat - UPPCB",30-01-2026 08:00:00,28.964949,77.278761,SO2,7,14,10
India,Uttar_Pradesh,Bareilly,"Civil Lines, Bareilly - UPPCB",30-01-2026 08:00:00,28.359581,79.414455,NH3,1,1,1
India,Uttar_Pradesh,Firozabad,"Nagla Bhau, Firozabad - UPPCB",30-01-2026 08:00:00,27.168897,78.376960,PM2.5,23,70,39
India,Uttar_Pradesh,Firozabad,"Nagla Bhau, Firozabad - UPPCB",30-01-2026 08:00:00,27.168897,78.376960,OZONE,13,15,14
India,Uttar_Pradesh,Ghaziabad,"Loni, Ghaziabad - UPPCB",30-01-2026 08:00:00,28.757294,77.278792,PM2.5,164,474,316
India,Uttar_Pradesh,Ghaziabad,"Sanjay Nagar, Ghaziabad - UPPCB",30-01-2026 08:00:00,28.685382,77.453839,NO2,58,66,63
India,Uttar_Pradesh,Ghaziabad,"Vasundhara, Ghaziabad - UPPCB",30-01-2026 08:00:00,28.6603346,77.3572563,PM2.5,233,376,314
India,Uttarakhand,Rishikesh,"Shivaji Nagar, Rishikesh - UKPCB",30-01-2026 08:00:00,30.075911,78.2859547,OZONE,NA,NA,NA
India,West_Bengal,Asansol,"Asansol Court Area, Asansol - WBPCB",30-01-2026 08:00:00,23.685297,86.945968,PM10,73,122,96
India,West_Bengal,Asansol,"Asansol Court Area, Asansol - WBPCB",30-01-2026 08:00:00,23.685297,86.945968,NH3,3,9,5
India,West_Bengal,Asansol,"Evelyn Lodge, Asansol - WBPCB",30-01-2026 08:00:00,23.6979360,86.9443950,NO2,2,30,11
India,West_Bengal,Asansol,"Mahabir Colliery, Asansol - WBPCB",30-01-2026 08:00:00,23.6181830,87.1057180,PM10,69,164,101
India,West_Bengal,Asansol,"Mahabir Colliery, Asansol - WBPCB",30-01-2026 08:00:00,23.6181830,87.1057180,CO,46,78,63
India,West_Bengal,Asansol,"Trivenidevi Bhalotia College, Asansol - WBPCB",30-01-2026 08:00:00,23.616515,87.119133,PM10,54,133,84
India,West_Bengal,Asansol,"Trivenidevi Bhalotia College, Asansol - WBPCB",30-01-2026 08:00:00,23.616515,87.119133,NH3,6,7,6
India,West_Bengal,Asansol,"Trivenidevi Bhalotia College, Asansol - WBPCB",30-01-2026 08:00:00,23.616515,87.119133,OZONE,6,19,7
India,West_Bengal,Barrackpore,"SVSPA Campus, Barrackpore - WBPCB",30-01-2026 08:00:00,22.7605581,88.3617589,OZONE,2,57,3
India,Uttar_Pradesh,Moradabad,"Transport Nagar, Moradabad - UPPCB",30-01-2026 08:00:00,28.802625,78.753728,PM10,44,114,63
India,Uttar_Pradesh,Moradabad,"Transport Nagar, Moradabad - UPPCB",30-01-2026 08:00:00,28.802625,78.753728,SO2,41,44,42
India,Uttar_Pradesh,Muzaffarnagar,"New Mandi, Muzaffarnagar - UPPCB",30-01-2026 08:00:00,29.4723508,77.7194031,PM2.5,78,304,155
India,Uttar_Pradesh,Muzaffarnagar,"New Mandi, Muzaffarnagar - UPPCB",30-01-2026 08:00:00,29.4723508,77.7194031,OZONE,14,82,27
India,Uttar_Pradesh,Noida,"Sector - 125, Noida - UPPCB",30-01-2026 08:00:00,28.5447608,77.3231257,PM2.5,180,331,267
India,Uttar_Pradesh,Noida,"Sector - 125, Noida - UPPCB",30-01-2026 08:00:00,28.5447608,77.3231257,PM10,114,187,145
India,Uttar_Pradesh,Noida,"Sector - 125, Noida - UPPCB",30-01-2026 08:00:00,28.5447608,77.3231257,CO,26,108,48
India,Uttar_Pradesh,Noida,"Sector - 125, Noida - UPPCB",30-01-2026 08:00:00,28.5447608,77.3231257,OZONE,11,12,12
India,Uttar_Pradesh,Noida,"Sector-1, Noida - UPPCB",30-01-2026 08:00:00,28.5898,77.3101,PM10,109,183,141
India,Uttar_Pradesh,Noida,"Sector-1, Noida - UPPCB",30-01-2026 08:00:00,28.5898,77.3101,SO2,5,11,8
India,Uttar_Pradesh,Lucknow,"Kukrail Picnic Spot-1, Lucknow - UPPCB",30-01-2026 08:00:00,26.90723,80.98579,PM2.5,27,59,42
India,Uttar_Pradesh,Lucknow,"Kukrail Picnic Spot-1, Lucknow - UPPCB",30-01-2026 08:00:00,26.90723,80.98579,PM10,25,48,35
India,Uttar_Pradesh,Lucknow,"Kukrail Picnic Spot-1, Lucknow - UPPCB",30-01-2026 08:00:00,26.90723,80.98579,SO2,43,46,44
India,Uttar_Pradesh,Lucknow,"Lalbagh, Lucknow - CPCB",30-01-2026 08:00:00,26.8458805,80.9365541,PM2.5,42,326,172
India,Uttar_Pradesh,Meerut,"Ganga Nagar, Meerut - UPPCB",30-01-2026 08:00:00,28.999264,77.7590354,PM10,64,136,98
India,Uttar_Pradesh,Meerut,"Ganga Nagar, Meerut - UPPCB",30-01-2026 08:00:00,28.999264,77.7590354,NO2,20,60,40
India,Uttar_Pradesh,Meerut,"Ganga Nagar, Meerut - UPPCB",30-01-2026 08:00:00,28.999264,77.7590354,NH3,13,16,14
India,Uttar_Pradesh,Meerut,"Ganga Nagar, Meerut - UPPCB",30-01-2026 08:00:00,28.999264,77.7590354,CO,24,52,32
India,Uttar_Pradesh,Meerut,"Jai Bhim Nagar, Meerut - UPPCB",30-01-2026 08:00:00,28.9535882,77.7622941,PM10,89,162,120
India,Uttar_Pradesh,Meerut,"Jai Bhim Nagar, Meerut - UPPCB",30-01-2026 08:00:00,28.9535882,77.7622941,CO,26,68,36
India,Uttar_Pradesh,Noida,"Sector-1, Noida - UPPCB",30-01-2026 08:00:00,28.5898,77.3101,OZONE,2,6,2
India,Uttar_Pradesh,Prayagraj,"Jhunsi, Prayagraj - UPPCB",30-01-2026 08:00:00,25.425602,81.917152,OZONE,20,41,31
India,Uttar_Pradesh,Prayagraj,"Motilal Nehru NIT, Prayagraj - UPPCB",30-01-2026 08:00:00,25.494,81.863,PM2.5,50,88,62
India,Uttar_Pradesh,Prayagraj,"Motilal Nehru NIT, Prayagraj - UPPCB",30-01-2026 08:00:00,25.494,81.863,PM10,36,65,50
India,Uttar_Pradesh,Prayagraj,"Nagar Nigam, Prayagraj - UPPCB",30-01-2026 08:00:00,25.44919916 ,81.82735986 ,PM2.5,27,66,51
India,Uttar_Pradesh,Prayagraj,"Nagar Nigam, Prayagraj - UPPCB",30-01-2026 08:00:00,25.44919916 ,81.82735986 ,NH3,8,18,12
India,Uttar_Pradesh,Varanasi,"Ardhali Bazar, Varanasi - UPPCB",30-01-2026 08:00:00,25.3505986,82.9083074,PM2.5,19,70,30
India,Uttar_Pradesh,Varanasi,"Ardhali Bazar, Varanasi - UPPCB",30-01-2026 08:00:00,25.3505986,82.9083074,OZONE,6,31,15
India,Uttar_Pradesh,Varanasi,"Bhelupur, Varanasi - UPPCB",30-01-2026 08:00:00,25.301778,82.996789,SO2,28,29,28
India,Uttar_Pradesh,Varanasi,"IESD Banaras Hindu University, Varanasi - UPPCB",30-01-2026 08:00:00,25.262326,82.995408,NO2,2,2,2
India,Uttar_Pradesh,Varanasi,"IESD Banaras Hindu University, Varanasi - UPPCB",30-01-2026 08:00:00,25.262326,82.995408,SO2,22,35,25
India,Uttar_Pradesh,Vrindavan,"Omex Eternity, Vrindavan - UPPCB",30-01-2026 08:00:00,27.5714090,77.6557570,OZONE,15,15,15
India,Uttarakhand,Dehradun,"Doon University, Dehradun - UKPCB",30-01-2026 08:00:00,30.269444,78.044167,OZONE,4,54,8
India,Uttarakhand,Kashipur,"Govt. Girls Inter College, Kashipur - UKPCB",30-01-2026 08:00:00,29.2124114,78.9611753,NO2,NA,NA,NA
India,Uttarakhand,Kashipur,"Govt. Girls Inter College, Kashipur - UKPCB",30-01-2026 08:00:00,29.2124114,78.9611753,OZONE,NA,NA,NA
India,Uttar_Pradesh,Ghaziabad,"Vasundhara, Ghaziabad - UPPCB",30-01-2026 08:00:00,28.6603346,77.3572563,CO,10,106,46
India,Uttar_Pradesh,Gorakhpur,"Madan Mohan Malaviya University of Technology, Gorakhpur - UPPCB",30-01-2026 08:00:00,26.730136,83.433859,NO2,11,12,11
India,Uttar_Pradesh,Gorakhpur,"Madan Mohan Malaviya University of Technology, Gorakhpur - UPPCB",30-01-2026 08:00:00,26.730136,83.433859,CO,4,4,4
India,Uttar_Pradesh,Greater Noida,"Knowledge Park - III, Greater Noida - UPPCB",30-01-2026 08:00:00,28.47272,77.482000,PM10,126,414,190
India,Uttar_Pradesh,Greater Noida,"Knowledge Park - V, Greater Noida - UPPCB",30-01-2026 08:00:00,28.557054,77.453663,PM2.5,188,330,279
India,Uttar_Pradesh,Greater Noida,"Knowledge Park - V, Greater Noida - UPPCB",30-01-2026 08:00:00,28.557054,77.453663,PM10,151,247,185
India,Uttar_Pradesh,Greater Noida,"Knowledge Park - V, Greater Noida - UPPCB",30-01-2026 08:00:00,28.557054,77.453663,OZONE,3,66,6
India,Uttar_Pradesh,Moradabad,"Buddhi Vihar, Moradabad - UPPCB",30-01-2026 08:00:00,28.83526,78.74460,NO2,28,29,29
India,Uttar_Pradesh,Moradabad,"Buddhi Vihar, Moradabad - UPPCB",30-01-2026 08:00:00,28.83526,78.74460,SO2,21,26,24
India,Uttar_Pradesh,Moradabad,"Eco Herbal Park, Moradabad - UPPCB",30-01-2026 08:00:00,28.840739,78.697531,SO2,8,16,11
India,Uttar_Pradesh,Moradabad,"Eco Herbal Park, Moradabad - UPPCB",30-01-2026 08:00:00,28.840739,78.697531,OZONE,8,56,15
India,Uttar_Pradesh,Moradabad,"Employment Office, Moradabad - UPPCB",30-01-2026 08:00:00,28.88528,78.73880,OZONE,24,46,25
India,Uttar_Pradesh,Moradabad,"Jigar Colony, Moradabad - UPPCB",30-01-2026 08:00:00,28.856664,78.772638,PM2.5,45,90,69
India,Uttar_Pradesh,Moradabad,"Jigar Colony, Moradabad - UPPCB",30-01-2026 08:00:00,28.856664,78.772638,CO,40,41,40
India,Uttar_Pradesh,Moradabad,"Kashiram Nagar, Moradabad - UPPCB",30-01-2026 08:00:00,28.849399,78.742362,PM2.5,45,100,59
India,Uttar_Pradesh,Jhansi,"Shivaji Nagar, Jhansi - UPPCB",30-01-2026 08:00:00,25.4547,78.6039,PM10,25,81,45
India,Uttar_Pradesh,Jhansi,"Shivaji Nagar, Jhansi - UPPCB",30-01-2026 08:00:00,25.4547,78.6039,NH3,4,4,4
India,Uttar_Pradesh,Jhansi,"Shivaji Nagar, Jhansi - UPPCB",30-01-2026 08:00:00,25.4547,78.6039,SO2,16,30,19
India,Uttar_Pradesh,Jhansi,"Shivaji Nagar, Jhansi - UPPCB",30-01-2026 08:00:00,25.4547,78.6039,OZONE,1,37,1
India,Uttar_Pradesh,Kanpur,"FTI Kidwai Nagar, Kanpur - UPPCB",30-01-2026 08:00:00,26.428282,80.327067,OZONE,9,10,9
India,Uttar_Pradesh,Kanpur,"Nehru Nagar, Kanpur - UPPCB",30-01-2026 08:00:00,26.4703136,80.3229863,NO2,54,57,56
India,Uttar_Pradesh,Khurja,"Kalindi Kunj, Khurja - UPPCB",30-01-2026 08:00:00,28.2348927,77.8683002,NH3,1,1,1
India,Uttar_Pradesh,Lucknow,"B R Ambedkar University, Lucknow - UPPCB",30-01-2026 08:00:00,26.766433,80.927299,PM2.5,38,63,50
India,Uttar_Pradesh,Lucknow,"B R Ambedkar University, Lucknow - UPPCB",30-01-2026 08:00:00,26.766433,80.927299,OZONE,25,61,44
India,Uttar_Pradesh,Lucknow,"Gomti Nagar, Lucknow - UPPCB",30-01-2026 08:00:00,26.868120,81.005119,PM10,36,70,46
India,Uttar_Pradesh,Lucknow,"Kendriya Vidyalaya, Lucknow - CPCB",30-01-2026 08:00:00,26.906111,80.948222,PM2.5,72,206,112
India,Uttar_Pradesh,Lucknow,"Kendriya Vidyalaya, Lucknow - CPCB",30-01-2026 08:00:00,26.906111,80.948222,PM10,80,117,103
India,Uttar_Pradesh,Lucknow,"Kendriya Vidyalaya, Lucknow - CPCB",30-01-2026 08:00:00,26.906111,80.948222,NH3,12,18,15
India,West_Bengal,Durgapur,"PCBL Residential Complex, Durgapur - WBPCB",30-01-2026 08:00:00,23.5087640,87.3544400,NO2,29,46,36
India,West_Bengal,Howrah,"Belur Math, Howrah - WBPCB",30-01-2026 08:00:00,22.629801,88.352017,PM10,119,391,179
India,West_Bengal,Howrah,"Belur Math, Howrah - WBPCB",30-01-2026 08:00:00,22.629801,88.352017,NO2,66,159,112
India,West_Bengal,Howrah,"Botanical Garden, Howrah - WBPCB",30-01-2026 08:00:00,22.554954,88.292568,PM2.5,56,210,116
India,West_Bengal,Howrah,"Botanical Garden, Howrah - WBPCB",30-01-2026 08:00:00,22.554954,88.292568,SO2,5,17,10
India,West_Bengal,Howrah,"Dasnagar, Howrah - WBPCB",30-01-2026 08:00:00,22.6025571,88.3105664,CO,11,108,42
India,West_Bengal,Howrah,"Ghusuri, Howrah - WBPCB",30-01-2026 08:00:00,22.611968,88.347422,NO2,19,36,25
India,West_Bengal,Howrah,"Ghusuri, Howrah - WBPCB",30-01-2026 08:00:00,22.611968,88.347422,NH3,8,23,15
India,West_Bengal,Howrah,"Padmapukur, Howrah - WBPCB",30-01-2026 08:00:00,22.5687319,88.2797276,NO2,39,151,93
India,West_Bengal,Kolkata,"Bidhannagar, Kolkata - WBPCB",30-01-2026 08:00:00,22.58157048,88.41002457,NO2,13,30,17
India,West_Bengal,Kolkata,"Bidhannagar, Kolkata - WBPCB",30-01-2026 08:00:00,22.58157048,88.41002457,CO,24,102,51
India,West_Bengal,Kolkata,"Bidhannagar, Kolkata - WBPCB",30-01-2026 08:00:00,22.58157048,88.41002457,OZONE,13,82,24
India,West_Bengal,Kolkata,"Fort William, Kolkata - WBPCB",30-01-2026 08:00:00,22.556640,88.342674,NH3,9,10,9
India,West_Bengal,Kolkata,"Jadavpur, Kolkata - WBPCB",30-01-2026 08:00:00,22.49929,88.36917,CO,42,124,99
India,West_Bengal,Kolkata,"Jadavpur, Kolkata - WBPCB",30-01-2026 08:00:00,22.49929,88.36917,OZONE,9,23,10
India,West_Bengal,Kolkata,"Rabindra Bharati University, Kolkata - WBPCB",30-01-2026 08:00:00,22.627847,88.380669,PM10,104,416,176
India,West_Bengal,Kolkata,"Rabindra Sarobar, Kolkata - WBPCB",30-01-2026 08:00:00,22.51106,88.35142,PM2.5,64,214,123
India,West_Bengal,Kolkata,"Rabindra Sarobar, Kolkata - WBPCB",30-01-2026 08:00:00,22.51106,88.35142,PM10,91,161,125
India,West_Bengal,Kolkata,"Rabindra Sarobar, Kolkata - WBPCB",30-01-2026 08:00:00,22.51106,88.35142,NO2,25,126,72
India,West_Bengal,Kolkata,"Rabindra Sarobar, Kolkata - WBPCB",30-01-2026 08:00:00,22.51106,88.35142,SO2,11,45,23
India,West_Bengal,Kolkata,"Victoria, Kolkata - WBPCB",30-01-2026 08:00:00,22.5448082,88.3403691,NH3,8,8,8
India,West_Bengal,Siliguri,"Ward-32 Bapupara, Siliguri - WBPCB",30-01-2026 08:00:00,26.6879226,88.4152495,NO2,16,21,18
India,Andhra_Pradesh,Chittoor,"Gangineni Cheruvu, Chittoor - APPCB",30-01-2026 08:00:00,13.204880,79.097889,PM2.5,56,96,74
India,Andhra_Pradesh,Chittoor,"Gangineni Cheruvu, Chittoor - APPCB",30-01-2026 08:00:00,13.204880,79.097889,SO2,19,52,31
India,Andhra_Pradesh,Chittoor,"Gangineni Cheruvu, Chittoor - APPCB",30-01-2026 08:00:00,13.204880,79.097889,CO,64,100,75
India,Andhra_Pradesh,Chittoor,"Gangineni Cheruvu, Chittoor - APPCB",30-01-2026 08:00:00,13.204880,79.097889,OZONE,52,68,65
India,Andhra_Pradesh,Rajamahendravaram,"Anand Kala Kshetram, Rajamahendravaram - APPCB",30-01-2026 08:00:00,16.9872867,81.7363176,PM2.5,163,277,220
India,Andhra_Pradesh,Rajamahendravaram,"Anand Kala Kshetram, Rajamahendravaram - APPCB",30-01-2026 08:00:00,16.9872867,81.7363176,NO2,17,45,32
India,Andhra_Pradesh,Rajamahendravaram,"Anand Kala Kshetram, Rajamahendravaram - APPCB",30-01-2026 08:00:00,16.9872867,81.7363176,SO2,9,14,11
India,Andhra_Pradesh,Rajamahendravaram,"Anand Kala Kshetram, Rajamahendravaram - APPCB",30-01-2026 08:00:00,16.9872867,81.7363176,CO,NA,NA,NA
India,Andhra_Pradesh,Tirumala,"Toll Gate, Tirumala - APPCB",30-01-2026 08:00:00,13.67,79.35,NH3,1,2,2
India,Andhra_Pradesh,Tirupati,"Vaikuntapuram, Tirupati - APPCB",30-01-2026 08:00:00,13.615387,79.409230,PM10,57,130,89
India,Andhra_Pradesh,Tirupati,"Vaikuntapuram, Tirupati - APPCB",30-01-2026 08:00:00,13.615387,79.409230,SO2,16,26,23
India,Andhra_Pradesh,Tirupati,"Vaikuntapuram, Tirupati - APPCB",30-01-2026 08:00:00,13.615387,79.409230,CO,26,42,37
India,Andhra_Pradesh,Tirupati,"Vaikuntapuram, Tirupati - APPCB",30-01-2026 08:00:00,13.615387,79.409230,OZONE,15,30,29
India,Bihar,Aurangabad,"Gurdeo Nagar, Aurangabad - BSPCB",30-01-2026 08:00:00,24.75746,84.366208,CO,28,105,102
India,Bihar,Begusarai,"Lohiyanagar, Begusarai - BSPCB",30-01-2026 08:00:00,25.42742023,86.13886079,PM10,56,105,74
India,Bihar,Bettiah,"Kamalnath Nagar, Bettiah - BSPCB",30-01-2026 08:00:00,26.80365,84.51954,PM10,28,67,44
India,Bihar,Bettiah,"Kamalnath Nagar, Bettiah - BSPCB",30-01-2026 08:00:00,26.80365,84.51954,NH3,1,1,1
India,Bihar,Bhagalpur,"DM Office_Kachari Chowk, Bhagalpur - BSPCB",30-01-2026 08:00:00,25.251013,86.989001,PM10,37,105,56
India,Bihar,Bhagalpur,"DM Office_Kachari Chowk, Bhagalpur - BSPCB",30-01-2026 08:00:00,25.251013,86.989001,NO2,3,15,10
India,Bihar,Bihar Sharif,"D M Colony, Bihar Sharif - BSPCB",30-01-2026 08:00:00,25.204762,85.514960,PM2.5,37,95,61
India,Bihar,Bihar Sharif,"D M Colony, Bihar Sharif - BSPCB",30-01-2026 08:00:00,25.204762,85.514960,NO2,9,10,9
India,Bihar,Katihar,"Mirchaibari, Katihar - BSPCB",30-01-2026 08:00:00,25.560083,87.553265,PM2.5,23,103,45
India,Bihar,Katihar,"Mirchaibari, Katihar - BSPCB",30-01-2026 08:00:00,25.560083,87.553265,NO2,8,11,9
India,Bihar,Katihar,"Mirchaibari, Katihar - BSPCB",30-01-2026 08:00:00,25.560083,87.553265,NH3,1,1,1
India,Bihar,Katihar,"Mirchaibari, Katihar - BSPCB",30-01-2026 08:00:00,25.560083,87.553265,SO2,15,27,21
India,Bihar,Kishanganj,"SDM Office_Khagra, Kishanganj - BSPCB",30-01-2026 08:00:00,26.0881305,87.93840336,PM10,26,69,39
India,Bihar,Kishanganj,"SDM Office_Khagra, Kishanganj - BSPCB",30-01-2026 08:00:00,26.0881305,87.93840336,OZONE,15,35,33
India,Bihar,Manguraha,"Forest Rest House, Manguraha - BSPCB",30-01-2026 08:00:00,27.308328,84.531742,CO,32,33,32
India,Bihar,Munger,"Town Hall, Munger - BSPCB",30-01-2026 08:00:00,25.376776,86.471523,PM2.5,48,117,72
India,Assam,Nagaon,"Christianpatty, Nagaon - PCBA",30-01-2026 08:00:00,26.349082,92.68449,SO2,8,15,12
India,Assam,Nalbari,"Bata Chowk, Nalbari - PCBA",30-01-2026 08:00:00,26.446912,91.439057,NO2,14,15,14
India,Assam,Nalbari,"Bata Chowk, Nalbari - PCBA",30-01-2026 08:00:00,26.446912,91.439057,OZONE,4,16,16
India,Assam,Sivasagar,"Girls College, Sivasagar - PCBA",30-01-2026 08:00:00,26.987634,94.636574,PM2.5,34,96,61
India,Assam,Sivasagar,"Girls College, Sivasagar - PCBA",30-01-2026 08:00:00,26.987634,94.636574,SO2,10,13,12
India,Bihar,Araria,"Kharahiya Basti, Araria - BSPCB",30-01-2026 08:00:00,26.146529,87.454184,PM2.5,25,163,66
India,Bihar,Araria,"Kharahiya Basti, Araria - BSPCB",30-01-2026 08:00:00,26.146529,87.454184,NO2,1,8,3
India,Arunachal_Pradesh,Naharlagun,"Naharlagun, Naharlagun - APSPCB",30-01-2026 08:00:00,27.103358,93.679645,NH3,1,1,1
India,Assam,Byrnihat,"Central Academy for SFS, Byrnihat - PCBA",30-01-2026 08:00:00,26.071318,91.87488,PM10,68,150,96
India,Assam,Byrnihat,"Central Academy for SFS, Byrnihat - PCBA",30-01-2026 08:00:00,26.071318,91.87488,OZONE,13,34,16
India,Assam,Guwahati,"Pan Bazaar, Guwahati - PCBA",30-01-2026 08:00:00,26.187500,91.744194,CO,20,99,27
India,Assam,Guwahati,"Railway Colony, Guwahati - PCBA",30-01-2026 08:00:00,26.181742,91.78063,PM2.5,129,375,261
India,Assam,Guwahati,"Railway Colony, Guwahati - PCBA",30-01-2026 08:00:00,26.181742,91.78063,NH3,1,1,1
India,Bihar,Muzaffarpur,"Buddha Colony, Muzaffarpur - BSPCB",30-01-2026 08:00:00,26.11442,85.39813,SO2,3,8,5
India,Bihar,Muzaffarpur,"Buddha Colony, Muzaffarpur - BSPCB",30-01-2026 08:00:00,26.11442,85.39813,CO,24,54,32
India,Bihar,Muzaffarpur,"Buddha Colony, Muzaffarpur - BSPCB",30-01-2026 08:00:00,26.11442,85.39813,OZONE,22,60,26
India,Bihar,Muzaffarpur,"MIT-Daudpur Kothi, Muzaffarpur - BSPCB",30-01-2026 08:00:00,26.1403345,85.3650192,CO,45,58,46
India,Bihar,Muzaffarpur,"Muzaffarpur Collectorate, Muzaffarpur - BSPCB",30-01-2026 08:00:00,26.1209,85.3647,NO2,13,22,14
India,Bihar,Patna,"Govt. High School Shikarpur, Patna - BSPCB",30-01-2026 08:00:00,25.592539,85.227158,NH3,4,5,5
India,Andhra_Pradesh,Vijayawada,"Kanuru, Vijayawada - APPCB",30-01-2026 08:00:00,16.486692,80.699436,OZONE,26,37,37
India,Andhra_Pradesh,Vijayawada,"Rajiv Gandhi Park, Vijayawada - APPCB",30-01-2026 08:00:00,16.509717,80.612222,SO2,10,17,15
India,Andhra_Pradesh,Vijayawada,"Rajiv Nagar, Vijayawada - APPCB",30-01-2026 08:00:00,16.554731,80.649110,PM10,NA,NA,NA
India,Andhra_Pradesh,Visakhapatnam,"GVM Corporation, Visakhapatnam - APPCB",30-01-2026 08:00:00,17.72,83.3,PM10,124,448,228
India,Andhra_Pradesh,Visakhapatnam,"GVM Corporation, Visakhapatnam - APPCB",30-01-2026 08:00:00,17.72,83.3,NH3,3,4,3
India,Bihar,Bihar Sharif,"D M Colony, Bihar Sharif - BSPCB",30-01-2026 08:00:00,25.204762,85.514960,CO,48,65,57
India,Bihar,Buxar,"Charitra Van, Buxar - BSPCB",30-01-2026 08:00:00,25.567520,83.966379,OZONE,8,25,10
India,Bihar,Chhapra,"Darshan Nagar, Chhapra - BSPCB",30-01-2026 08:00:00,25.7808257,84.7446768,CO,38,56,52
India,Bihar,Gaya,"SFTI Kusdihra, Gaya - BSPCB",30-01-2026 08:00:00,24.762518,84.982348,PM10,43,56,49
India,Bihar,Gaya,"SFTI Kusdihra, Gaya - BSPCB",30-01-2026 08:00:00,24.762518,84.982348,OZONE,10,54,12
India,Andhra_Pradesh,Amaravati,"Secretariat, Amaravati - APPCB",30-01-2026 08:00:00,16.5150833,80.5181667,NO2,17,62,35
India,Andhra_Pradesh,Anantapur,"Gulzarpet, Anantapur - APPCB",30-01-2026 08:00:00,14.675886,77.593027,SO2,8,19,14
India,Bihar,Arrah,"New DM Office, Arrah - BSPCB",30-01-2026 08:00:00,25.5626095,84.663264,PM2.5,23,37,29
India,Bihar,Arrah,"New DM Office, Arrah - BSPCB",30-01-2026 08:00:00,25.5626095,84.663264,PM10,34,54,43
India,Chandigarh,Chandigarh,"Sector-53, Chandigarh - CPCC",30-01-2026 08:00:00,30.719859,76.738637,NO2,20,89,44
India,Chandigarh,Chandigarh,"Sector-53, Chandigarh - CPCC",30-01-2026 08:00:00,30.719859,76.738637,NH3,5,9,6
India,Chhattisgarh,Bhilai,"32Bungalows, Bhilai - CECB",30-01-2026 08:00:00,21.194815,81.314770,PM2.5,13,54,31
India,Chhattisgarh,Bhilai,"Civic Center, Bhilai - Bhilai Steel Plant",30-01-2026 08:00:00,21.185571,81.343175,NH3,NA,NA,NA
India,Chhattisgarh,Bhilai,"Hathkhoj, Bhilai - CECB",30-01-2026 08:00:00,21.224231,81.408350,PM10,38,99,66
India,Chhattisgarh,Bhilai,"Hathkhoj, Bhilai - CECB",30-01-2026 08:00:00,21.224231,81.408350,CO,20,57,32
India,Chhattisgarh,Bhilai,"Hathkhoj, Bhilai - CECB",30-01-2026 08:00:00,21.224231,81.408350,OZONE,5,21,8
India,Chhattisgarh,Bilaspur,"Mangala, Bilaspur - NTPC",30-01-2026 08:00:00,22.08815,82.13737,PM2.5,46,103,78
India,Bihar,Patna,"IGSC Planetarium Complex, Patna - BSPCB",30-01-2026 08:00:00,25.610369,85.132568,CO,6,76,29
India,Bihar,Patna,"Muradpur, Patna - BSPCB",30-01-2026 08:00:00,25.619651,85.147382,OZONE,4,15,5
India,Bihar,Patna,"Rajbansi Nagar, Patna - BSPCB",30-01-2026 08:00:00,25.599486,85.113666,NH3,6,7,6
India,Bihar,Patna,"Rajbansi Nagar, Patna - BSPCB",30-01-2026 08:00:00,25.599486,85.113666,CO,18,42,23
India,Bihar,Purnia,"Mariam Nagar, Purnia - BSPCB",30-01-2026 08:00:00,25.366336,87.117468,PM2.5,65,130,80
India,Bihar,Purnia,"Mariam Nagar, Purnia - BSPCB",30-01-2026 08:00:00,25.366336,87.117468,OZONE,15,30,21
India,Bihar,Rajgir,"Dangi Tola, Rajgir - BSPCB",30-01-2026 08:00:00,25.03280,85.41948,NO2,8,11,9
India,Bihar,Rajgir,"Dangi Tola, Rajgir - BSPCB",30-01-2026 08:00:00,25.03280,85.41948,SO2,17,23,20
India,Chhattisgarh,Chhal,"Nawapara SECL Colony, Chhal - CECB",30-01-2026 08:00:00,22.118125,83.140608,PM2.5,110,165,142
India,Chhattisgarh,Chhal,"Nawapara SECL Colony, Chhal - CECB",30-01-2026 08:00:00,22.118125,83.140608,PM10,106,244,125
India,Chhattisgarh,Chhal,"Nawapara SECL Colony, Chhal - CECB",30-01-2026 08:00:00,22.118125,83.140608,OZONE,4,114,10
India,Chhattisgarh,Korba,"Rampur, Korba - CECB",30-01-2026 08:00:00,22.368195,82.746431,PM10,71,114,93
India,Chhattisgarh,Korba,"Urja Nagar, Korba - CECB",30-01-2026 08:00:00,22.348441,82.549611,PM2.5,38,83,58
India,Chhattisgarh,Korba,"Urja Nagar, Korba - CECB",30-01-2026 08:00:00,22.348441,82.549611,PM10,30,71,52
India,Chhattisgarh,Korba,"Urja Nagar, Korba - CECB",30-01-2026 08:00:00,22.348441,82.549611,NH3,1,1,1
India,Chhattisgarh,Kunjemura,"OP Jindal School, Kunjemura - CECB",30-01-2026 08:00:00,22.126650,83.483212,NO2,25,96,50
India,Bihar,Samastipur,"DM Office_Kasipur, Samastipur - BSPCB",30-01-2026 08:00:00,25.859655,85.77944,SO2,NA,NA,NA
India,Bihar,Sasaram,"Dada Peer, Sasaram - BSPCB",30-01-2026 08:00:00,24.952822,84.002396,NH3,3,5,3
India,Bihar,Siwan,"Chitragupta Nagar, Siwan - BSPCB",30-01-2026 08:00:00,26.2271665,84.3570427,PM10,43,79,56
India,Bihar,Siwan,"Chitragupta Nagar, Siwan - BSPCB",30-01-2026 08:00:00,26.2271665,84.3570427,NH3,1,1,1
India,Bihar,Siwan,"Chitragupta Nagar, Siwan - BSPCB",30-01-2026 08:00:00,26.2271665,84.3570427,SO2,9,9,9
India,Chandigarh,Chandigarh,"Sector 22, Chandigarh - CPCC",30-01-2026 08:00:00,30.735567,76.775714,PM2.5,33,147,75
India,Chandigarh,Chandigarh,"Sector 22, Chandigarh - CPCC",30-01-2026 08:00:00,30.735567,76.775714,PM10,26,131,67
India,Bihar,Rajgir,"Dangi Tola, Rajgir - BSPCB",30-01-2026 08:00:00,25.03280,85.41948,OZONE,31,33,32
India,Bihar,Saharsa,"Police Line, Saharsa - BSPCB",30-01-2026 08:00:00,25.892357,86.590325,PM2.5,8,93,51
India,Bihar,Saharsa,"Police Line, Saharsa - BSPCB",30-01-2026 08:00:00,25.892357,86.590325,PM10,41,123,75
India,Bihar,Saharsa,"Police Line, Saharsa - BSPCB",30-01-2026 08:00:00,25.892357,86.590325,NH3,4,4,4
India,Bihar,Saharsa,"Police Line, Saharsa - BSPCB",30-01-2026 08:00:00,25.892357,86.590325,SO2,16,20,18
India,Delhi,Delhi,"Anand Vihar, Delhi - DPCC",30-01-2026 08:00:00,28.647622,77.3158090,PM10,135,422,241
India,Delhi,Delhi,"Ashok Vihar, Delhi - DPCC",30-01-2026 08:00:00,28.695381,77.181665,NH3,8,8,8
India,Delhi,Delhi,"Bawana, Delhi - DPCC",30-01-2026 08:00:00,28.776200,77.051074,PM2.5,103,432,241
India,Delhi,Delhi,"Burari Crossing, Delhi - IMD",30-01-2026 08:00:00,28.7256504,77.2011573,PM10,98,279,157
India,Delhi,Delhi,"CRRI Mathura Road, Delhi - IMD",30-01-2026 08:00:00,28.5512005,77.2735737,PM10,119,215,158
India,Delhi,Delhi,"CRRI Mathura Road, Delhi - IMD",30-01-2026 08:00:00,28.5512005,77.2735737,NO2,18,72,36
India,Chhattisgarh,Raipur,"Bhatagaon New ISBT, Raipur - CECB",30-01-2026 08:00:00,21.219665,81.630094,SO2,NA,NA,NA
India,Chandigarh,Chandigarh,"Sector 22, Chandigarh - CPCC",30-01-2026 08:00:00,30.735567,76.775714,NH3,6,20,15
India,Delhi,Delhi,"CRRI Mathura Road, Delhi - IMD",30-01-2026 08:00:00,28.5512005,77.2735737,CO,44,88,78
India,Delhi,Delhi,"Chandni Chowk, Delhi - IITM",30-01-2026 08:00:00,28.656756,77.227234,NO2,16,51,35
India,Delhi,Delhi,"Chandni Chowk, Delhi - IITM",30-01-2026 08:00:00,28.656756,77.227234,NH3,8,13,10
India,Delhi,Delhi,"Chandni Chowk, Delhi - IITM",30-01-2026 08:00:00,28.656756,77.227234,CO,98,121,105
India,Delhi,Delhi,"DTU, Delhi - CPCB",30-01-2026 08:00:00,28.7500499,77.1112615,NO2,42,59,48
India,Delhi,Delhi,"DTU, Delhi - CPCB",30-01-2026 08:00:00,28.7500499,77.1112615,CO,14,90,56
India,Delhi,Delhi,"Dr. Karni Singh Shooting Range, Delhi - DPCC",30-01-2026 08:00:00,28.498571,77.264840,PM10,125,239,164
India,Delhi,Delhi,"Dr. Karni Singh Shooting Range, Delhi - DPCC",30-01-2026 08:00:00,28.498571,77.264840,CO,36,101,44
India,Delhi,Delhi,"Dr. Karni Singh Shooting Range, Delhi - DPCC",30-01-2026 08:00:00,28.498571,77.264840,OZONE,3,69,4
India,Delhi,Delhi,"Dwarka-Sector 8, Delhi - DPCC ",30-01-2026 08:00:00,28.5710274,77.0719006,NH3,11,14,13
India,Delhi,Delhi,"IGI Airport (T3), Delhi - IMD",30-01-2026 08:00:00,28.5627763,77.1180053,NO2,42,84,61
India,Delhi,Delhi,"IGI Airport (T3), Delhi - IMD",30-01-2026 08:00:00,28.5627763,77.1180053,OZONE,2,27,2
India,Gujarat,Ahmedabad,"Maninagar, Ahmedabad - GPCB",30-01-2026 08:00:00,23.002657,72.591912,CO,23,40,30
India,Gujarat,Ahmedabad,"Raikhad, Ahmedabad - IITM",30-01-2026 08:00:00,23.020509,72.579261,NO2,17,42,27
India,Gujarat,Ahmedabad,"Raikhad, Ahmedabad - IITM",30-01-2026 08:00:00,23.020509,72.579261,CO,8,38,11
India,Gujarat,Ahmedabad,"Rakhial, Ahmedabad - IITM",30-01-2026 08:00:00,23.016834,72.625775,PM10,81,119,106
India,Gujarat,Ahmedabad,"Rakhial, Ahmedabad - IITM",30-01-2026 08:00:00,23.016834,72.625775,CO,46,86,64
India,Gujarat,Ahmedabad,"Rakhial, Ahmedabad - IITM",30-01-2026 08:00:00,23.016834,72.625775,OZONE,38,70,44
India,Gujarat,Ahmedabad,"SAC ISRO Bopal, Ahmedabad - IITM",30-01-2026 08:00:00,23.041137,72.456691,PM10,76,152,119
India,Gujarat,Ahmedabad,"SAC ISRO Satellite, Ahmedabad - IITM",30-01-2026 08:00:00,23.023389,72.515201,SO2,4,85,15
India,Gujarat,Ahmedabad,"SAC ISRO Satellite, Ahmedabad - IITM",30-01-2026 08:00:00,23.023389,72.515201,CO,32,90,68
India,Gujarat,Ahmedabad,"SAC ISRO Satellite, Ahmedabad - IITM",30-01-2026 08:00:00,23.023389,72.515201,OZONE,9,38,18
India,Delhi,Delhi,"Narela, Delhi - DPCC",30-01-2026 08:00:00,28.822836,77.101981,OZONE,8,73,14
India,Delhi,Delhi,"Nehru Nagar, Delhi - DPCC",30-01-2026 08:00:00,28.567890,77.250515,PM10,127,262,176
India,Delhi,Delhi,"Nehru Nagar, Delhi - DPCC",30-01-2026 08:00:00,28.567890,77.250515,CO,12,149,74
India,Delhi,Delhi,"Okhla Phase-2, Delhi - DPCC",30-01-2026 08:00:00,28.530785,77.271255,OZONE,4,98,10
India,Delhi,Delhi,"Patparganj, Delhi - DPCC",30-01-2026 08:00:00,28.623763,77.287209,NH3,8,10,8
India,Delhi,Delhi,"Patparganj, Delhi - DPCC",30-01-2026 08:00:00,28.623763,77.287209,CO,57,104,88
India,Delhi,Delhi,"Punjabi Bagh, Delhi - DPCC",30-01-2026 08:00:00,28.674045,77.131023,NO2,28,47,36
India,Delhi,Delhi,"Punjabi Bagh, Delhi - DPCC",30-01-2026 08:00:00,28.674045,77.131023,NH3,4,5,5
India,Delhi,Delhi,"Shadipur, Delhi - CPCB",30-01-2026 08:00:00,28.6514781,77.1473105,PM10,90,217,136
India,Delhi,Delhi,"Shadipur, Delhi - CPCB",30-01-2026 08:00:00,28.6514781,77.1473105,CO,30,120,66
India,Delhi,Delhi,"Sirifort, Delhi - CPCB",30-01-2026 08:00:00,28.5504249,77.2159377,SO2,21,32,28
India,Delhi,Delhi,"Sonia Vihar, Delhi - DPCC",30-01-2026 08:00:00,28.710508,77.249485,NH3,6,8,8
India,Delhi,Delhi,"Sri Aurobindo Marg, Delhi - DPCC",30-01-2026 08:00:00,28.531346,77.190156,PM10,117,178,144
India,Delhi,Delhi,"Sri Aurobindo Marg, Delhi - DPCC",30-01-2026 08:00:00,28.531346,77.190156,NO2,32,62,44
India,Delhi,Delhi,"Sri Aurobindo Marg, Delhi - DPCC",30-01-2026 08:00:00,28.531346,77.190156,NH3,4,9,6
India,Delhi,Delhi,"Vivek Vihar, Delhi - DPCC",30-01-2026 08:00:00,28.672342,77.315260,PM2.5,228,369,292
India,Delhi,Delhi,"Vivek Vihar, Delhi - DPCC",30-01-2026 08:00:00,28.672342,77.315260,SO2,5,13,9
India,Delhi,Delhi,"Wazirpur, Delhi - DPCC",30-01-2026 08:00:00,28.699793,77.165453,NO2,174,262,212
India,Gujarat,Ahmedabad,"Chandkheda, Ahmedabad - IITM",30-01-2026 08:00:00,23.107969,72.574648,PM2.5,54,84,68
India,Gujarat,Ahmedabad,"Chandkheda, Ahmedabad - IITM",30-01-2026 08:00:00,23.107969,72.574648,NO2,12,29,18
India,Gujarat,Ahmedabad,"Maninagar, Ahmedabad - GPCB",30-01-2026 08:00:00,23.002657,72.591912,SO2,30,61,48
India,Delhi,Delhi,"Pusa, Delhi - DPCC",30-01-2026 08:00:00,28.639652,77.146275,OZONE,1,24,2
India,Delhi,Delhi,"Pusa, Delhi - IMD",30-01-2026 08:00:00,28.636110,77.173332,PM10,91,178,132
India,Delhi,Delhi,"Pusa, Delhi - IMD",30-01-2026 08:00:00,28.636110,77.173332,NO2,50,122,73
India,Delhi,Delhi,"Pusa, Delhi - IMD",30-01-2026 08:00:00,28.636110,77.173332,CO,100,124,111
India,Delhi,Delhi,"R K Puram, Delhi - DPCC",30-01-2026 08:00:00,28.563262,77.186937,PM10,119,279,168
India,Delhi,Delhi,"Rohini, Delhi - DPCC",30-01-2026 08:00:00,28.732528,77.119920,PM2.5,147,391,276
India,Delhi,Delhi,"Lodhi Road, Delhi - IMD",30-01-2026 08:00:00,28.5918245,77.2273074,PM2.5,68,234,132
India,Delhi,Delhi,"Major Dhyan Chand National Stadium, Delhi - DPCC",30-01-2026 08:00:00,28.611281,77.237738,NO2,42,104,66
India,Delhi,Delhi,"Major Dhyan Chand National Stadium, Delhi - DPCC",30-01-2026 08:00:00,28.611281,77.237738,NH3,17,18,18
India,Delhi,Delhi,"Mandir Marg, Delhi - DPCC",30-01-2026 08:00:00,28.636429,77.201067,PM10,96,189,140
India,Delhi,Delhi,"Mandir Marg, Delhi - DPCC",30-01-2026 08:00:00,28.636429,77.201067,NH3,4,8,6
India,Delhi,Delhi,"Mandir Marg, Delhi - DPCC",30-01-2026 08:00:00,28.636429,77.201067,SO2,28,59,42
India,Delhi,Delhi,"Mandir Marg, Delhi - DPCC",30-01-2026 08:00:00,28.636429,77.201067,CO,64,106,91
India,Delhi,Delhi,"Mundka, Delhi - DPCC",30-01-2026 08:00:00,28.684678,77.076574,OZONE,9,53,10
India,Delhi,Delhi,"NSIT Dwarka, Delhi - CPCB",30-01-2026 08:00:00,28.60909,77.0325413,PM10,80,126,102
India,Delhi,Delhi,"Najafgarh, Delhi - DPCC",30-01-2026 08:00:00,28.570173,76.933762,OZONE,2,27,3
India,Delhi,Delhi,"IHBAS, Dilshad Garden, Delhi - CPCB",30-01-2026 08:00:00,28.6811736,77.3025234,OZONE,20,24,20
India,Delhi,Delhi,"ITO, Delhi - CPCB",30-01-2026 08:00:00,28.628624,77.241060,CO,40,93,55
India,Delhi,Delhi,"Jahangirpuri, Delhi - DPCC",30-01-2026 08:00:00,28.732820,77.170633,NH3,34,44,41
India,Gujarat,Gandhinagar,"IIPHG Lekawada, Gandhinagar - IITM",30-01-2026 08:00:00,23.243639,72.68994,OZONE,11,45,27
India,Gujarat,Gandhinagar,"Sector-10, Gandhinagar - GPCB",30-01-2026 08:00:00,23.221714,72.654328,PM10,68,117,94
India,Gujarat,Gandhinagar,"Sector-10, Gandhinagar - GPCB",30-01-2026 08:00:00,23.221714,72.654328,NO2,26,31,28
India,Gujarat,Surat,"Science Center, Surat - SMC",30-01-2026 08:00:00,21.170046,72.795405,NO2,2,28,14
India,Gujarat,Vapi,"Phase-1 GIDC, Vapi - GPCB",30-01-2026 08:00:00,20.362421,72.918013,PM2.5,NA,NA,NA
India,Gujarat,Vapi,"Phase-1 GIDC, Vapi - GPCB",30-01-2026 08:00:00,20.362421,72.918013,PM10,NA,NA,NA
India,Gujarat,Vatva,"Phase-4 GIDC, Vatva - GPCB",30-01-2026 08:00:00,22.969611,72.643500,NO2,43,96,79
India,Gujarat,Vatva,"Phase-4 GIDC, Vatva - GPCB",30-01-2026 08:00:00,22.969611,72.643500,NH3,2,8,6
India,Gujarat,Vatva,"Phase-4 GIDC, Vatva - GPCB",30-01-2026 08:00:00,22.969611,72.643500,SO2,26,57,46
India,Haryana,Bahadurgarh,"Arya Nagar, Bahadurgarh - HSPCB",30-01-2026 08:00:00,28.6701,76.9254,PM2.5,54,308,187
India,Haryana,Jind,"Police Lines, Jind - HSPCB",30-01-2026 08:00:00,29.307814,76.337619,NO2,41,57,47
India,Haryana,Jind,"Police Lines, Jind - HSPCB",30-01-2026 08:00:00,29.307814,76.337619,NH3,2,3,2
India,Haryana,Kaithal,"Rishi Nagar, Kaithal - HSPCB",30-01-2026 08:00:00,29.8006,76.4155,NO2,29,34,32
India,Haryana,Kaithal,"Rishi Nagar, Kaithal - HSPCB",30-01-2026 08:00:00,29.8006,76.4155,SO2,27,34,31
India,Haryana,Karnal,"Sector-12, Karnal - HSPCB",30-01-2026 08:00:00,29.695300,77.002700,PM10,8,10,8
India,Haryana,Karnal,"Sector-12, Karnal - HSPCB",30-01-2026 08:00:00,29.695300,77.002700,NO2,6,7,6
India,Haryana,Mandikhera,"General Hospital, Mandikhera(Nuh) - HSPCB",30-01-2026 08:00:00,27.9002,76.9938,NH3,12,14,13
India,Haryana,Manesar,"Sector-2 IMT, Manesar - HSPCB",30-01-2026 08:00:00,28.360699,76.936090,PM10,70,192,103
India,Haryana,Manesar,"Sector-2 IMT, Manesar - HSPCB",30-01-2026 08:00:00,28.360699,76.936090,CO,20,69,33
India,Haryana,Narnaul,"Shastri Nagar, Narnaul - HSPCB",30-01-2026 08:00:00,28.060249,76.113115,NH3,7,16,11
India,Haryana,Palwal,"Shyam Nagar, Palwal - HSPCB",30-01-2026 08:00:00,28.1485564,77.3320667,PM2.5,28,42,34
India,Haryana,Palwal,"Shyam Nagar, Palwal - HSPCB",30-01-2026 08:00:00,28.1485564,77.3320667,SO2,13,114,18
India,Haryana,Palwal,"Shyam Nagar, Palwal - HSPCB",30-01-2026 08:00:00,28.1485564,77.3320667,OZONE,16,17,16
India,Haryana,Panchgaon,"Amity University, Panchgaon - IITM",30-01-2026 08:00:00,28.3153,76.9143,PM2.5,8,391,88
India,Haryana,Panipat,"Sector-18, Panipat - HSPCB",30-01-2026 08:00:00,29.432304,76.972765,PM2.5,49,50,49
India,Haryana,Fatehabad,"Huda Sector, Fatehabad - HSPCB",30-01-2026 08:00:00,29.503664,75.467934,NH3,13,15,14
India,Haryana,Fatehabad,"Huda Sector, Fatehabad - HSPCB",30-01-2026 08:00:00,29.503664,75.467934,SO2,10,12,11
India,Haryana,Gurugram,"NISE Gwal Pahari, Gurugram - IMD",30-01-2026 08:00:00,28.422681,77.148944,PM2.5,88,334,220
India,Haryana,Gurugram,"NISE Gwal Pahari, Gurugram - IMD",30-01-2026 08:00:00,28.422681,77.148944,CO,30,102,68
India,Haryana,Gurugram,"Sector-51, Gurugram - HSPCB",30-01-2026 08:00:00,28.4227,77.0667,OZONE,3,15,3
India,Haryana,Gurugram,"Vikas Sadan, Gurugram - HSPCB",30-01-2026 08:00:00,28.4501238,77.0263051,OZONE,4,31,11
India,Haryana,Rohtak,"MD University, Rohtak - HSPCB",30-01-2026 08:00:00,28.52123,76.37138,OZONE,39,40,39
India,Haryana,Sirsa,"F-Block, Sirsa - HSPCB",30-01-2026 08:00:00,29.536400,75.015800,PM10,50,110,85
India,Haryana,Sonipat,"Murthal, Sonipat - HSPCB",30-01-2026 08:00:00,29.027200,77.062100,PM2.5,NA,NA,NA
India,Haryana,Yamuna Nagar,"Gobind Pura, Yamuna Nagar - HSPCB",30-01-2026 08:00:00,30.1480566,77.2893471,SO2,10,15,11
India,Haryana,Charkhi Dadri,"Mini Secretariat, Charkhi Dadri - HSPCB",30-01-2026 08:00:00,28.593883,76.270653,PM10,59,363,157
India,Haryana,Charkhi Dadri,"Mini Secretariat, Charkhi Dadri - HSPCB",30-01-2026 08:00:00,28.593883,76.270653,SO2,10,11,11
India,Haryana,Dharuhera,"Municipal Corporation Office, Dharuhera -  HSPCB",30-01-2026 08:00:00,28.206800,76.799700,NH3,6,18,13
India,Haryana,Dharuhera,"Municipal Corporation Office, Dharuhera -  HSPCB",30-01-2026 08:00:00,28.206800,76.799700,SO2,6,7,7
India,Haryana,Dharuhera,"Municipal Corporation Office, Dharuhera -  HSPCB",30-01-2026 08:00:00,28.206800,76.799700,OZONE,4,28,4
India,Haryana,Faridabad,"New Industrial Town, Faridabad - HSPCB",30-01-2026 08:00:00,28.39072,77.30059,PM2.5,123,150,135
India,Haryana,Faridabad,"New Industrial Town, Faridabad - HSPCB",30-01-2026 08:00:00,28.39072,77.30059,OZONE,25,34,29
India,Haryana,Faridabad,"Sector 11, Faridabad - HSPCB",30-01-2026 08:00:00,28.376058,77.315741,NO2,30,33,31
India,Haryana,Faridabad,"Sector 30, Faridabad - HSPCB",30-01-2026 08:00:00,28.4417,77.3217,OZONE,17,19,18
India,Gujarat,Ankleshwar,"GIDC, Ankleshwar - GPCB",30-01-2026 08:00:00,21.613267,73.010555,SO2,22,33,29
India,Gujarat,Gandhinagar,"IIPHG Lekawada, Gandhinagar - IITM",30-01-2026 08:00:00,23.243639,72.68994,PM2.5,61,116,86
India,Gujarat,Gandhinagar,"IIPHG Lekawada, Gandhinagar - IITM",30-01-2026 08:00:00,23.243639,72.68994,NH3,4,5,4
India,Haryana,Ballabgarh,"Nathu Colony, Ballabgarh - HSPCB",30-01-2026 08:00:00,28.3419248,77.319699,CO,15,95,27
India,Kerala,Eloor,"Udyogamandal, Eloor - Kerala PCB",30-01-2026 08:00:00,10.073232,76.302765,CO,6,90,30
India,Kerala,Kannur,"Thavakkara, Kannur - Kerala PCB",30-01-2026 08:00:00,11.875000,75.373200,CO,16,22,17
India,Kerala,Kollam,"Polayathode, Kollam - Kerala PCB",30-01-2026 08:00:00,8.8787,76.6073,CO,14,18,15
India,Kerala,Thiruvananthapuram,"Kariavattom, Thiruvananthapuram - Kerala PCB",30-01-2026 08:00:00,8.563700,76.886500,PM2.5,2,369,246
India,Kerala,Thiruvananthapuram,"Plammoodu, Thiruvananthapuram - Kerala PCB",30-01-2026 08:00:00,8.5149093,76.9435879,SO2,8,25,15
India,Kerala,Thiruvananthapuram,"Plammoodu, Thiruvananthapuram - Kerala PCB",30-01-2026 08:00:00,8.5149093,76.9435879,CO,12,36,18
India,Kerala,Thrissur,"Corporation Ground, Thrissur - Kerala PCB",30-01-2026 08:00:00,10.532400,76.215900,NO2,7,9,8
India,Kerala,Thrissur,"Corporation Ground, Thrissur - Kerala PCB",30-01-2026 08:00:00,10.532400,76.215900,SO2,1,1,1
India,Himachal Pradesh,Baddi,"HIMUDA Complex Phase-1, Baddi - HPPCB",30-01-2026 08:00:00,30.943887,76.801991,PM2.5,28,270,103
India,Himachal Pradesh,Baddi,"HIMUDA Complex Phase-1, Baddi - HPPCB",30-01-2026 08:00:00,30.943887,76.801991,SO2,27,108,55
India,Jammu_and_Kashmir,Pampore,"Khrew, Pampore - JKPCC",30-01-2026 08:00:00,34.031606,75.009712,PM10,29,94,56
India,Jammu_and_Kashmir,Srinagar,"Rajbagh, Srinagar - JKPCC",30-01-2026 08:00:00,34.066206,74.819820,PM10,25,43,34
India,Jammu_and_Kashmir,Srinagar,"Rajbagh, Srinagar - JKPCC",30-01-2026 08:00:00,34.066206,74.819820,CO,10,18,12
India,Jammu_and_Kashmir,Srinagar,"Rajbagh, Srinagar - JKPCC",30-01-2026 08:00:00,34.066206,74.819820,OZONE,NA,NA,NA
India,Karnataka,Bagalkot,"Vidayagiri, Bagalkot - KSPCB",30-01-2026 08:00:00,16.172806,75.659694,PM2.5,35,36,35
India,Karnataka,Bengaluru,"Hombegowda Nagar, Bengaluru - KSPCB",30-01-2026 08:00:00,12.938539,77.590100,CO,11,32,23
India,Karnataka,Bengaluru,"Hombegowda Nagar, Bengaluru - KSPCB",30-01-2026 08:00:00,12.938539,77.590100,OZONE,21,56,32
