country,state,city,station,last_update,latitude,longitude,pollutant_id,min_value,max_value,avg_value
India,Bihar,Bihar Sharif,"D M Colony, Bihar Sharif - BSPCB",13-10-2025 07:00:00,25.204762,85.514960,SO2,10,10,10
India,Bihar,Buxar,"Charitra Van, Buxar - BSPCB",13-10-2025 07:00:00,25.567520,83.966379,PM2.5,63,63,63
India,Bihar,Buxar,"Charitra Van, Buxar - BSPCB",13-10-2025 07:00:00,25.567520,83.966379,PM10,70,71,71
India,Bihar,Buxar,"Charitra Van, Buxar - BSPCB",13-10-2025 07:00:00,25.567520,83.966379,OZONE,1,114,3
India,Bihar,Gaya,"Kareemganj, Gaya - BSPCB",13-10-2025 07:00:00,24.792403,84.992416,NO2,3,8,5
India,Bihar,Gaya,"Kareemganj, Gaya - BSPCB",13-10-2025 07:00:00,24.792403,84.992416,SO2,15,16,16
India,Bihar,Gaya,"Kareemganj, Gaya - BSPCB",13-10-2025 07:00:00,24.792403,84.992416,CO,38,40,39
India,Bihar,Gaya,"SFTI Kusdihra, Gaya - BSPCB",13-10-2025 07:00:00,24.762518,84.982348,CO,20,26,24
India,Bihar,Gaya,"SFTI Kusdihra, Gaya - BSPCB",13-10-2025 07:00:00,24.762518,84.982348,OZONE,8,40,11
India,Bihar,Hajipur,"Industrial Area, Hajipur - BSPCB",13-10-2025 07:00:00,25.697189,85.245900,SO2,3,7,5
India,Assam,Silchar,"Tarapur, Silchar - PCBA",13-10-2025 07:00:00,24.82827,92.79525,OZONE,NA,NA,NA
India,Assam,Sivasagar,"Girls College, Sivasagar - PCBA",13-10-2025 07:00:00,26.987634,94.636574,PM2.5,14,33,20
India,Assam,Sivasagar,"Girls College, Sivasagar - PCBA",13-10-2025 07:00:00,26.987634,94.636574,NH3,3,5,4
India,Bihar,Araria,"Kharahiya Basti, Araria - BSPCB",13-10-2025 07:00:00,26.146529,87.454184,NH3,5,6,5
India,Bihar,Araria,"Kharahiya Basti, Araria - BSPCB",13-10-2025 07:00:00,26.146529,87.454184,OZONE,9,11,10
India,Bihar,Arrah,"New DM Office, Arrah - BSPCB",13-10-2025 07:00:00,25.5626095,84.663264,PM2.5,28,30,29
India,Bihar,Arrah,"New DM Office, Arrah - BSPCB",13-10-2025 07:00:00,25.5626095,84.663264,NH3,1,1,1
India,Bihar,Arrah,"New DM Office, Arrah - BSPCB",13-10-2025 07:00:00,25.5626095,84.663264,CO,44,67,52
India,Bihar,Aurangabad,"Gurdeo Nagar, Aurangabad - BSPCB",13-10-2025 07:00:00,24.75746,84.366208,CO,12,98,69
India,Arunachal_Pradesh,Naharlagun,"Naharlagun, Naharlagun - APSPCB",13-10-2025 07:00:00,27.103358,93.679645,OZONE,4,5,5
India,Assam,Byrnihat,"Central Academy for SFS, Byrnihat - PCBA",13-10-2025 07:00:00,26.071318,91.87488,PM2.5,NA,NA,NA
India,Assam,Byrnihat,"Central Academy for SFS, Byrnihat - PCBA",13-10-2025 07:00:00,26.071318,91.87488,OZONE,19,22,20
India,Assam,Guwahati,"IITG, Guwahati - PCBA",13-10-2025 07:00:00,26.2028636,91.70046436,PM2.5,14,81,43
India,Assam,Guwahati,"IITG, Guwahati - PCBA",13-10-2025 07:00:00,26.2028636,91.70046436,NH3,5,5,5
India,Assam,Guwahati,"LGBI Airport, Guwahati - PCBA",13-10-2025 07:00:00,26.10887,91.589544,PM10,30,42,33
India,Assam,Guwahati,"LGBI Airport, Guwahati - PCBA",13-10-2025 07:00:00,26.10887,91.589544,NO2,14,40,16
India,Assam,Guwahati,"LGBI Airport, Guwahati - PCBA",13-10-2025 07:00:00,26.10887,91.589544,NH3,6,6,6
India,Bihar,Katihar,"Mirchaibari, Katihar - BSPCB",13-10-2025 07:00:00,25.560083,87.553265,SO2,12,21,17
India,Bihar,Kishanganj,"SDM Office_Khagra, Kishanganj - BSPCB",13-10-2025 07:00:00,26.0881305,87.93840336,OZONE,16,17,17
India,Bihar,Motihari,"Gandak Colony, Motihari - BSPCB",13-10-2025 07:00:00,26.63086,84.90051,NH3,3,3,3
India,Bihar,Motihari,"Gandak Colony, Motihari - BSPCB",13-10-2025 07:00:00,26.63086,84.90051,SO2,2,3,2
India,Bihar,Munger,"Town Hall, Munger - BSPCB",13-10-2025 07:00:00,25.376776,86.471523,PM2.5,33,53,43
India,Bihar,Munger,"Town Hall, Munger - BSPCB",13-10-2025 07:00:00,25.376776,86.471523,OZONE,13,39,15
India,Bihar,Muzaffarpur,"Buddha Colony, Muzaffarpur - BSPCB",13-10-2025 07:00:00,26.11442,85.39813,NO2,3,11,6
India,Bihar,Begusarai,"Lohiyanagar, Begusarai - BSPCB",13-10-2025 07:00:00,25.42742023,86.13886079,PM2.5,12,18,15
India,Bihar,Begusarai,"Lohiyanagar, Begusarai - BSPCB",13-10-2025 07:00:00,25.42742023,86.13886079,NO2,8,24,15
India,Bihar,Begusarai,"Lohiyanagar, Begusarai - BSPCB",13-10-2025 07:00:00,25.42742023,86.13886079,CO,40,70,54
India,Bihar,Bhagalpur,"DM Office_Kachari Chowk, Bhagalpur - BSPCB",13-10-2025 07:00:00,25.251013,86.989001,PM2.5,35,72,53
India,Bihar,Bhagalpur,"DM Office_Kachari Chowk, Bhagalpur - BSPCB",13-10-2025 07:00:00,25.251013,86.989001,PM10,40,83,50
India,Bihar,Bhagalpur,"DM Office_Kachari Chowk, Bhagalpur - BSPCB",13-10-2025 07:00:00,25.251013,86.989001,SO2,38,60,48
India,Bihar,Bihar Sharif,"D M Colony, Bihar Sharif - BSPCB",13-10-2025 07:00:00,25.204762,85.514960,PM2.5,52,59,55
India,Andhra_Pradesh,Tirumala,"Toll Gate, Tirumala - APPCB",13-10-2025 07:00:00,13.67,79.35,PM2.5,48,133,91
India,Andhra_Pradesh,Tirumala,"Toll Gate, Tirumala - APPCB",13-10-2025 07:00:00,13.67,79.35,NO2,12,25,19
India,Andhra_Pradesh,Tirumala,"Toll Gate, Tirumala - APPCB",13-10-2025 07:00:00,13.67,79.35,OZONE,8,29,14
India,Andhra_Pradesh,Tirupati,"Vaikuntapuram, Tirupati - APPCB",13-10-2025 07:00:00,13.615387,79.409230,OZONE,32,36,35
India,Andhra_Pradesh,Vijayawada,"Rajiv Gandhi Park, Vijayawada - APPCB",13-10-2025 07:00:00,16.509717,80.612222,NH3,3,5,4
India,Andhra_Pradesh,Vijayawada,"Rajiv Nagar, Vijayawada - APPCB",13-10-2025 07:00:00,16.554731,80.649110,PM10,NA,NA,NA
India,Andhra_Pradesh,Vijayawada,"Rajiv Nagar, Vijayawada - APPCB",13-10-2025 07:00:00,16.554731,80.649110,SO2,NA,NA,NA
India,Andhra_Pradesh,Amaravati,"Secretariat, Amaravati - APPCB",13-10-2025 07:00:00,16.5150833,80.5181667,NH3,4,5,5
India,Assam,Nalbari,"Bata Chowk, Nalbari - PCBA",13-10-2025 07:00:00,26.446912,91.439057,NO2,2,10,6
India,Assam,Silchar,"Tarapur, Silchar - PCBA",13-10-2025 07:00:00,24.82827,92.79525,NO2,18,20,19
India,Chhattisgarh,Korba,"Urja Nagar, Korba - CECB",13-10-2025 07:00:00,22.348441,82.549611,NH3,1,2,2
India,Chhattisgarh,Korba,"Urja Nagar, Korba - CECB",13-10-2025 07:00:00,22.348441,82.549611,SO2,7,13,10
India,Chhattisgarh,Kunjemura,"OP Jindal School, Kunjemura - CECB",13-10-2025 07:00:00,22.126650,83.483212,NH3,2,2,2
India,Chhattisgarh,Milupara,"Govt. Higher Secondary School, Milupara - CECB",13-10-2025 07:00:00,22.1910172,83.5197009,NH3,NA,NA,NA
India,Chhattisgarh,Raipur,"AIIMS, Raipur - CECB",13-10-2025 07:00:00,21.258815,81.578979,PM10,56,105,77
India,Chhattisgarh,Raipur,"AIIMS, Raipur - CECB",13-10-2025 07:00:00,21.258815,81.578979,NH3,4,5,5
India,Chhattisgarh,Raipur,"Krishak Nagar, Raipur - CECB",13-10-2025 07:00:00,21.237755,81.705301,PM10,NA,NA,NA
India,Bihar,Sasaram,"Dada Peer, Sasaram - BSPCB",13-10-2025 07:00:00,24.952822,84.002396,CO,38,95,58
India,Bihar,Siwan,"Chitragupta Nagar, Siwan - BSPCB",13-10-2025 07:00:00,26.2271665,84.3570427,NO2,1,1,1
India,Chandigarh,Chandigarh,"Sector 22, Chandigarh - CPCC",13-10-2025 07:00:00,30.735567,76.775714,PM2.5,43,160,91
India,Chandigarh,Chandigarh,"Sector 22, Chandigarh - CPCC",13-10-2025 07:00:00,30.735567,76.775714,SO2,3,7,5
India,Chandigarh,Chandigarh,"Sector-25, Chandigarh - CPCC",13-10-2025 07:00:00,30.751462,76.762879,PM10,65,105,83
India,Chandigarh,Chandigarh,"Sector-25, Chandigarh - CPCC",13-10-2025 07:00:00,30.751462,76.762879,NO2,8,38,17
India,Chandigarh,Chandigarh,"Sector-25, Chandigarh - CPCC",13-10-2025 07:00:00,30.751462,76.762879,CO,17,35,26
India,Bihar,Muzaffarpur,"Muzaffarpur Collectorate, Muzaffarpur - BSPCB",13-10-2025 07:00:00,26.1209,85.3647,NO2,7,12,9
India,Bihar,Patna,"DRM Office Danapur, Patna - BSPCB",13-10-2025 07:00:00,25.586562,85.043586,NH3,4,6,5
India,Bihar,Patna,"Govt. High School Shikarpur, Patna - BSPCB",13-10-2025 07:00:00,25.592539,85.227158,PM10,40,52,47
India,Bihar,Patna,"Govt. High School Shikarpur, Patna - BSPCB",13-10-2025 07:00:00,25.592539,85.227158,CO,8,31,25
India,Bihar,Patna,"Govt. High School Shikarpur, Patna - BSPCB",13-10-2025 07:00:00,25.592539,85.227158,OZONE,8,12,10
India,Bihar,Patna,"IGSC Planetarium Complex, Patna - BSPCB",13-10-2025 07:00:00,25.610369,85.132568,NO2,1,14,12
India,Delhi,Delhi,"Chandni Chowk, Delhi - IITM",13-10-2025 07:00:00,28.656756,77.227234,NH3,7,10,8
India,Delhi,Delhi,"Chandni Chowk, Delhi - IITM",13-10-2025 07:00:00,28.656756,77.227234,OZONE,2,101,4
India,Delhi,Delhi,"DTU, Delhi - CPCB",13-10-2025 07:00:00,28.7500499,77.1112615,SO2,27,35,31
India,Delhi,Delhi,"Dr. Karni Singh Shooting Range, Delhi - DPCC",13-10-2025 07:00:00,28.498571,77.264840,PM10,113,219,163
India,Delhi,Delhi,"Dr. Karni Singh Shooting Range, Delhi - DPCC",13-10-2025 07:00:00,28.498571,77.264840,NH3,14,22,18
India,Delhi,Delhi,"Dr. Karni Singh Shooting Range, Delhi - DPCC",13-10-2025 07:00:00,28.498571,77.264840,SO2,6,17,12
India,Bihar,Patna,"Muradpur, Patna - BSPCB",13-10-2025 07:00:00,25.619651,85.147382,PM2.5,44,57,51
India,Bihar,Patna,"Samanpura, Patna - BSPCB",13-10-2025 07:00:00,25.596727,85.085624,PM2.5,224,304,272
India,Bihar,Patna,"Samanpura, Patna - BSPCB",13-10-2025 07:00:00,25.596727,85.085624,NO2,34,52,43
India,Bihar,Purnia,"Mariam Nagar, Purnia - BSPCB",13-10-2025 07:00:00,25.366336,87.117468,PM10,40,111,75
India,Bihar,Purnia,"Mariam Nagar, Purnia - BSPCB",13-10-2025 07:00:00,25.366336,87.117468,CO,48,149,80
India,Chandigarh,Chandigarh,"Sector-53, Chandigarh - CPCC",13-10-2025 07:00:00,30.719859,76.738637,PM10,34,143,79
India,Chandigarh,Chandigarh,"Sector-53, Chandigarh - CPCC",13-10-2025 07:00:00,30.719859,76.738637,OZONE,3,52,3
India,Chhattisgarh,Bhilai,"32Bungalows, Bhilai - CECB",13-10-2025 07:00:00,21.194815,81.314770,NH3,5,5,5
India,Delhi,Delhi,"Alipur, Delhi - DPCC",13-10-2025 07:00:00,28.815329,77.153010,PM10,107,271,158
India,Delhi,Delhi,"Alipur, Delhi - DPCC",13-10-2025 07:00:00,28.815329,77.153010,OZONE,2,71,7
India,Delhi,Delhi,"Anand Vihar, Delhi - DPCC",13-10-2025 07:00:00,28.647622,77.3158090,PM2.5,45,305,169
India,Delhi,Delhi,"Bawana, Delhi - DPCC",13-10-2025 07:00:00,28.776200,77.051074,PM10,123,198,153
India,Delhi,Delhi,"Bawana, Delhi - DPCC",13-10-2025 07:00:00,28.776200,77.051074,SO2,8,16,10
India,Chhattisgarh,Korba,"Rampur, Korba - CECB",13-10-2025 07:00:00,22.368195,82.746431,NO2,5,10,7
India,Chhattisgarh,Korba,"Rampur, Korba - CECB",13-10-2025 07:00:00,22.368195,82.746431,NH3,2,2,2
India,Delhi,Delhi,"Jawaharlal Nehru Stadium, Delhi - DPCC",13-10-2025 07:00:00,28.580280,77.233829,NO2,28,123,72
India,Delhi,Delhi,"Jawaharlal Nehru Stadium, Delhi - DPCC",13-10-2025 07:00:00,28.580280,77.233829,SO2,7,20,11
India,Delhi,Delhi,"Lodhi Road, Delhi - IMD",13-10-2025 07:00:00,28.5918245,77.2273074,PM10,102,192,141
India,Delhi,Delhi,"Major Dhyan Chand National Stadium, Delhi - DPCC",13-10-2025 07:00:00,28.611281,77.237738,PM2.5,25,240,132
India,Delhi,Delhi,"Major Dhyan Chand National Stadium, Delhi - DPCC",13-10-2025 07:00:00,28.611281,77.237738,CO,20,102,51
India,Delhi,Delhi,"Major Dhyan Chand National Stadium, Delhi - DPCC",13-10-2025 07:00:00,28.611281,77.237738,OZONE,4,165,6
India,Delhi,Delhi,"Mandir Marg, Delhi - DPCC",13-10-2025 07:00:00,28.636429,77.201067,PM2.5,47,193,106
India,Delhi,Delhi,"Mandir Marg, Delhi - DPCC",13-10-2025 07:00:00,28.636429,77.201067,PM10,104,170,128
India,Delhi,Delhi,"Mandir Marg, Delhi - DPCC",13-10-2025 07:00:00,28.636429,77.201067,CO,26,90,57
India,Delhi,Delhi,"Mundka, Delhi - DPCC",13-10-2025 07:00:00,28.684678,77.076574,PM2.5,50,309,167
India,Delhi,Delhi,"Mundka, Delhi - DPCC",13-10-2025 07:00:00,28.684678,77.076574,NO2,31,109,58
India,Gujarat,Ahmedabad,"Rakhial, Ahmedabad - IITM",13-10-2025 07:00:00,23.016834,72.625775,NO2,12,158,62
India,Gujarat,Ahmedabad,"Rakhial, Ahmedabad - IITM",13-10-2025 07:00:00,23.016834,72.625775,SO2,7,50,24
India,Gujarat,Ahmedabad,"SAC ISRO Bopal, Ahmedabad - IITM",13-10-2025 07:00:00,23.041137,72.456691,PM10,112,229,165
India,Gujarat,Ahmedabad,"SAC ISRO Bopal, Ahmedabad - IITM",13-10-2025 07:00:00,23.041137,72.456691,SO2,1,7,2
India,Gujarat,Ahmedabad,"SAC ISRO Satellite, Ahmedabad - IITM",13-10-2025 07:00:00,23.023389,72.515201,OZONE,1,44,3
India,Gujarat,Ahmedabad,"SVPI Airport Hansol, Ahmedabad - IITM",13-10-2025 07:00:00,23.076793,72.627874,OZONE,3,45,3
India,Gujarat,Ankleshwar,"GIDC, Ankleshwar - GPCB",13-10-2025 07:00:00,21.613267,73.010555,PM2.5,29,31,30
India,Gujarat,Gandhinagar,"GIFT City, Gandhinagar - IITM",13-10-2025 07:00:00,23.163798,72.677768,CO,22,72,52
India,Gujarat,Gandhinagar,"IIPHG Lekawada, Gandhinagar - IITM",13-10-2025 07:00:00,23.243639,72.68994,PM2.5,58,114,87
India,Gujarat,Gandhinagar,"IIPHG Lekawada, Gandhinagar - IITM",13-10-2025 07:00:00,23.243639,72.68994,CO,30,84,50
India,Gujarat,Gandhinagar,"Sector-10, Gandhinagar - GPCB",13-10-2025 07:00:00,23.221714,72.654328,PM2.5,36,77,56
India,Gujarat,Gandhinagar,"Sector-10, Gandhinagar - GPCB",13-10-2025 07:00:00,23.221714,72.654328,PM10,33,101,65
India,Gujarat,Gandhinagar,"Sector-10, Gandhinagar - GPCB",13-10-2025 07:00:00,23.221714,72.654328,NH3,2,2,2
India,Gujarat,Gandhinagar,"Sector-10, Gandhinagar - GPCB",13-10-2025 07:00:00,23.221714,72.654328,SO2,2,12,8
India,Delhi,Delhi,"North Campus, DU, Delhi - IMD",13-10-2025 07:00:00,28.6573814,77.1585447,CO,14,110,66
India,Delhi,Delhi,"Okhla Phase-2, Delhi - DPCC",13-10-2025 07:00:00,28.530785,77.271255,SO2,14,17,15
India,Delhi,Delhi,"Punjabi Bagh, Delhi - DPCC",13-10-2025 07:00:00,28.674045,77.131023,NO2,21,66,38
India,Delhi,Delhi,"Punjabi Bagh, Delhi - DPCC",13-10-2025 07:00:00,28.674045,77.131023,SO2,14,14,14
India,Delhi,Delhi,"Pusa, Delhi - DPCC",13-10-2025 07:00:00,28.639652,77.146275,NO2,39,155,81
India,Delhi,Delhi,"Pusa, Delhi - DPCC",13-10-2025 07:00:00,28.639652,77.146275,NH3,11,27,19
India,Delhi,Delhi,"Sonia Vihar, Delhi - DPCC",13-10-2025 07:00:00,28.710508,77.249485,OZONE,4,132,12
India,Delhi,Delhi,"Sri Aurobindo Marg, Delhi - DPCC",13-10-2025 07:00:00,28.531346,77.190156,NO2,17,41,24
India,Delhi,Delhi,"Vivek Vihar, Delhi - DPCC",13-10-2025 07:00:00,28.672342,77.315260,NH3,9,9,9
India,Delhi,Delhi,"Vivek Vihar, Delhi - DPCC",13-10-2025 07:00:00,28.672342,77.315260,OZONE,3,12,4
India,Delhi,Delhi,"Wazirpur, Delhi - DPCC",13-10-2025 07:00:00,28.699793,77.165453,NO2,46,114,78
India,Delhi,Delhi,"Wazirpur, Delhi - DPCC",13-10-2025 07:00:00,28.699793,77.165453,CO,33,60,41
India,Gujarat,Ahmedabad,"Maninagar, Ahmedabad - GPCB",13-10-2025 07:00:00,23.002657,72.591912,NO2,24,73,37
India,Gujarat,Ahmedabad,"Maninagar, Ahmedabad - GPCB",13-10-2025 07:00:00,23.002657,72.591912,CO,7,38,21
India,Gujarat,Ahmedabad,"Raikhad, Ahmedabad - IITM",13-10-2025 07:00:00,23.020509,72.579261,CO,11,110,48
India,Gujarat,Ahmedabad,"Rakhial, Ahmedabad - IITM",13-10-2025 07:00:00,23.016834,72.625775,PM2.5,56,296,133
India,Delhi,Delhi,"IHBAS, Dilshad Garden, Delhi - CPCB",13-10-2025 07:00:00,28.6811736,77.3025234,PM10,108,154,132
India,Delhi,Delhi,"IHBAS, Dilshad Garden, Delhi - CPCB",13-10-2025 07:00:00,28.6811736,77.3025234,NO2,65,81,71
India,Delhi,Delhi,"IHBAS, Dilshad Garden, Delhi - CPCB",13-10-2025 07:00:00,28.6811736,77.3025234,CO,15,50,18
India,Delhi,Delhi,"ITO, Delhi - CPCB",13-10-2025 07:00:00,28.628624,77.241060,PM10,62,135,103
India,Delhi,Delhi,"Najafgarh, Delhi - DPCC",13-10-2025 07:00:00,28.570173,76.933762,SO2,1,7,4
India,Delhi,Delhi,"Najafgarh, Delhi - DPCC",13-10-2025 07:00:00,28.570173,76.933762,OZONE,4,45,5
India,Delhi,Delhi,"Narela, Delhi - DPCC",13-10-2025 07:00:00,28.822836,77.101981,PM2.5,68,275,165
India,Delhi,Delhi,"Narela, Delhi - DPCC",13-10-2025 07:00:00,28.822836,77.101981,SO2,3,14,9
India,Delhi,Delhi,"Shadipur, Delhi - CPCB",13-10-2025 07:00:00,28.6514781,77.1473105,PM10,112,376,188
India,Delhi,Delhi,"Shadipur, Delhi - CPCB",13-10-2025 07:00:00,28.6514781,77.1473105,CO,32,104,55
India,Delhi,Delhi,"Sirifort, Delhi - CPCB",13-10-2025 07:00:00,28.5504249,77.2159377,NO2,43,94,60
India,Haryana,Panchkula,"Sector-6, Panchkula - HSPCB ",13-10-2025 07:00:00,30.7057778,76.8531805555555,SO2,7,7,7
India,Haryana,Panipat,"Sector-18, Panipat - HSPCB",13-10-2025 07:00:00,29.432304,76.972765,PM2.5,90,232,168
India,Haryana,Sirsa,"F-Block, Sirsa - HSPCB",13-10-2025 07:00:00,29.536400,75.015800,PM2.5,16,50,31
India,Himachal Pradesh,Baddi,"HIMUDA Complex Phase-1, Baddi - HPPCB",13-10-2025 07:00:00,30.943887,76.801991,PM2.5,17,345,102
India,Himachal Pradesh,Baddi,"HIMUDA Complex Phase-1, Baddi - HPPCB",13-10-2025 07:00:00,30.943887,76.801991,SO2,20,114,49
India,Jammu_and_Kashmir,Srinagar,"Rajbagh, Srinagar - JKSPCB",13-10-2025 07:00:00,34.066206,74.819820,PM2.5,NA,NA,NA
India,Jharkhand,Dhanbad,"Sardar Patel Nagar, Dhanbad - JSPCB",13-10-2025 07:00:00,23.80569,86.44268,CO,2,3,3
India,Karnataka,Bagalkot,"Vidayagiri, Bagalkot - KSPCB",13-10-2025 07:00:00,16.172806,75.659694,PM10,42,43,42
India,Karnataka,Bagalkot,"Vidayagiri, Bagalkot - KSPCB",13-10-2025 07:00:00,16.172806,75.659694,OZONE,10,16,15
India,Karnataka,Bengaluru,"BTM Layout, Bengaluru - CPCB",13-10-2025 07:00:00,12.9135218,77.5950804,PM10,NA,NA,NA
India,Karnataka,Bengaluru,"BTM Layout, Bengaluru - CPCB",13-10-2025 07:00:00,12.9135218,77.5950804,SO2,NA,NA,NA
India,Karnataka,Bengaluru,"BTM Layout, Bengaluru - CPCB",13-10-2025 07:00:00,12.9135218,77.5950804,OZONE,26,26,26
India,Karnataka,Bengaluru,"Bapuji Nagar, Bengaluru - KSPCB",13-10-2025 07:00:00,12.951913,77.539784,SO2,6,15,9
India,Karnataka,Bengaluru,"Bapuji Nagar, Bengaluru - KSPCB",13-10-2025 07:00:00,12.951913,77.539784,CO,42,102,64
India,Haryana,Kurukshetra,"Sector-7, Kurukshetra - HSPCB",13-10-2025 07:00:00,29.966942,76.875879,OZONE,2,6,3
India,Haryana,Manesar,"Sector-2 IMT, Manesar - HSPCB",13-10-2025 07:00:00,28.360699,76.936090,NH3,3,7,5
India,Haryana,Manesar,"Sector-2 IMT, Manesar - HSPCB",13-10-2025 07:00:00,28.360699,76.936090,SO2,7,14,10
India,Haryana,Manesar,"Sector-2 IMT, Manesar - HSPCB",13-10-2025 07:00:00,28.360699,76.936090,OZONE,30,32,31
India,Haryana,Panchgaon,"Amity University, Panchgaon - IITM",13-10-2025 07:00:00,28.3153,76.9143,PM2.5,29,327,94
India,Haryana,Panchgaon,"Amity University, Panchgaon - IITM",13-10-2025 07:00:00,28.3153,76.9143,PM10,27,182,80
India,Karnataka,Bengaluru,"Peenya, Bengaluru - CPCB",13-10-2025 07:00:00,13.0270199,77.494094,OZONE,23,24,24
India,Karnataka,Bengaluru,"RVCE-Mailasandra, Bengaluru - KSPCB",13-10-2025 07:00:00,12.921418,77.502466,SO2,6,7,6
India,Karnataka,Bengaluru,"Shivapura_Peenya, Bengaluru - KSPCB",13-10-2025 07:00:00,13.0246342,77.5080115,NO2,24,26,25
India,Karnataka,Bengaluru,"Shivapura_Peenya, Bengaluru - KSPCB",13-10-2025 07:00:00,13.0246342,77.5080115,NH3,4,4,4
India,Karnataka,Bengaluru,"Shivapura_Peenya, Bengaluru - KSPCB",13-10-2025 07:00:00,13.0246342,77.5080115,OZONE,23,25,24
India,Karnataka,Bengaluru,"Silk Board, Bengaluru - KSPCB",13-10-2025 07:00:00,12.917348,77.622813,CO,4,18,8
India,Karnataka,Bengaluru,"City Railway Station, Bengaluru - KSPCB",13-10-2025 07:00:00,12.9756843,77.5660749,CO,58,62,60
India,Karnataka,Bengaluru,"Hebbal, Bengaluru - KSPCB",13-10-2025 07:00:00,13.029152,77.585901,NH3,NA,NA,NA
India,Karnataka,Bengaluru,"Hebbal, Bengaluru - KSPCB",13-10-2025 07:00:00,13.029152,77.585901,OZONE,7,25,8
India,Karnataka,Bengaluru,"Hombegowda Nagar, Bengaluru - KSPCB",13-10-2025 07:00:00,12.938539,77.590100,PM10,54,116,86
India,Karnataka,Bengaluru,"Kasturi Nagar, Bengaluru - KSPCB",13-10-2025 07:00:00,13.003872,77.664217,NH3,5,6,6
India,Gujarat,Vatva,"Phase-4 GIDC, Vatva - GPCB",13-10-2025 07:00:00,22.969611,72.643500,PM10,78,188,125
India,Haryana,Bahadurgarh,"Arya Nagar, Bahadurgarh - HSPCB",13-10-2025 07:00:00,28.6701,76.9254,NO2,11,15,14
India,Haryana,Bahadurgarh,"Arya Nagar, Bahadurgarh - HSPCB",13-10-2025 07:00:00,28.6701,76.9254,CO,22,52,44
India,Haryana,Charkhi Dadri,"Mini Secretariat, Charkhi Dadri - HSPCB",13-10-2025 07:00:00,28.593883,76.270653,CO,10,25,16
India,Haryana,Gurugram,"NISE Gwal Pahari, Gurugram - IMD",13-10-2025 07:00:00,28.422681,77.148944,CO,76,102,101
India,Haryana,Gurugram,"NISE Gwal Pahari, Gurugram - IMD",13-10-2025 07:00:00,28.422681,77.148944,OZONE,10,78,12
India,Haryana,Gurugram,"Sector-51, Gurugram - HSPCB",13-10-2025 07:00:00,28.4227,77.0667,PM10,123,446,236
India,Haryana,Gurugram,"Sector-51, Gurugram - HSPCB",13-10-2025 07:00:00,28.4227,77.0667,CO,15,90,52
India,Haryana,Gurugram,"Sector-51, Gurugram - HSPCB",13-10-2025 07:00:00,28.4227,77.0667,OZONE,23,33,25
India,Haryana,Jind,"Police Lines, Jind - HSPCB",13-10-2025 07:00:00,29.307814,76.337619,PM10,28,125,69
India,Haryana,Jind,"Police Lines, Jind - HSPCB",13-10-2025 07:00:00,29.307814,76.337619,CO,2,118,29
India,Haryana,Faridabad,"New Industrial Town, Faridabad - HSPCB",13-10-2025 07:00:00,28.39072,77.30059,NO2,24,27,25
India,Haryana,Faridabad,"New Industrial Town, Faridabad - HSPCB",13-10-2025 07:00:00,28.39072,77.30059,SO2,8,8,8
India,Haryana,Faridabad,"Sector 11, Faridabad - HSPCB",13-10-2025 07:00:00,28.376058,77.315741,CO,16,52,50
India,Karnataka,Hubballi,"Lingaraj Nagar, Hubballi - KSPCB",13-10-2025 07:00:00,15.3714823,75.1160168,SO2,1,1,1
India,Karnataka,Kalaburagi,"Mahatma Basaveswar Colony, Kalaburgi - KSPCB",13-10-2025 07:00:00,17.336318,76.847397,PM2.5,20,50,30
India,Karnataka,Kalaburagi,"Mahatma Basaveswar Colony, Kalaburgi - KSPCB",13-10-2025 07:00:00,17.336318,76.847397,PM10,29,75,42
India,Karnataka,Kalaburagi,"Mahatma Basaveswar Colony, Kalaburgi - KSPCB",13-10-2025 07:00:00,17.336318,76.847397,NH3,2,3,3
India,Karnataka,Karwar,"KHB Colony, Karwar - KSPCB",13-10-2025 07:00:00,14.816666,74.141003,PM10,18,66,44
India,Karnataka,Karwar,"KHB Colony, Karwar - KSPCB",13-10-2025 07:00:00,14.816666,74.141003,NH3,1,2,1
India,Karnataka,Karwar,"KHB Colony, Karwar - KSPCB",13-10-2025 07:00:00,14.816666,74.141003,CO,10,12,10
India,Karnataka,Koppal,"Diwator Nagar, Koppal - KSPCB",13-10-2025 07:00:00,15.347630,76.181767,PM2.5,NA,NA,NA
India,Karnataka,Madikeri,"Stuart Hill, Madikeri - KSPCB",13-10-2025 07:00:00,12.415911,75.735050,OZONE,3,6,5
India,Karnataka,Mysuru,"Hebbal 1st Stage, Mysuru - KSPCB",13-10-2025 07:00:00,12.21041,76.37376,CO,NA,NA,NA
India,Madhya Pradesh,Bhopal,"Idgah Hills, Bhopal - MPPCB",13-10-2025 07:00:00,23.264759,77.381568,NO2,10,47,20
India,Madhya Pradesh,Bhopal,"Idgah Hills, Bhopal - MPPCB",13-10-2025 07:00:00,23.264759,77.381568,NH3,4,5,4
India,Madhya Pradesh,Bhopal,"Paryavaran Parisar, Bhopal - MPPCB",13-10-2025 07:00:00,23.210494,77.425409,CO,11,54,23
India,Madhya Pradesh,Bhopal,"T T Nagar, Bhopal - MPPCB",13-10-2025 07:00:00,23.233584,77.400574,SO2,8,13,10
India,Madhya Pradesh,Bhopal,"T T Nagar, Bhopal - MPPCB",13-10-2025 07:00:00,23.233584,77.400574,CO,7,100,51
India,Madhya Pradesh,Damoh,"Shrivastav Colony, Damoh - MPPCB",13-10-2025 07:00:00,23.81748678,79.446246,SO2,32,36,34
India,Madhya Pradesh,Damoh,"Shrivastav Colony, Damoh - MPPCB",13-10-2025 07:00:00,23.81748678,79.446246,CO,20,28,25
India,Karnataka,Vijayapura,"Ibrahimpur, Vijayapura - KSPCB",13-10-2025 07:00:00,16.802639,75.722694,PM2.5,30,38,37
India,Karnataka,Vijayapura,"Ibrahimpur, Vijayapura - KSPCB",13-10-2025 07:00:00,16.802639,75.722694,NH3,1,2,1
India,Karnataka,Yadgir,"Collector Office, Yadgir - KSPCB",13-10-2025 07:00:00,16.7602,77.1428,PM10,57,100,81
India,Kerala,Eloor,"Udyogamandal, Eloor - Kerala PCB",13-10-2025 07:00:00,10.073232,76.302765,PM10,NA,NA,NA
India,Kerala,Eloor,"Udyogamandal, Eloor - Kerala PCB",13-10-2025 07:00:00,10.073232,76.302765,NO2,NA,NA,NA
India,Kerala,Eloor,"Udyogamandal, Eloor - Kerala PCB",13-10-2025 07:00:00,10.073232,76.302765,OZONE,NA,NA,NA
India,Karnataka,Chikkamagaluru,"Kalyana Nagara, Chikkamagaluru - KSPCB",13-10-2025 07:00:00,13.328028,75.797056,OZONE,11,29,11
India,Karnataka,Davanagere,"Devaraj Urs Badavane, Davanagere - KSPCB",13-10-2025 07:00:00,14.475800,75.905200,NO2,11,46,23
India,Karnataka,Dharwad,"Kalabhavan, Dharwad - KSPCB",13-10-2025 07:00:00,15.459706,75.008381,SO2,2,3,2
India,Kerala,Thiruvananthapuram,"Kariavattom, Thiruvananthapuram - Kerala PCB",13-10-2025 07:00:00,8.563700,76.886500,CO,30,72,39
India,Kerala,Thiruvananthapuram,"Kariavattom, Thiruvananthapuram - Kerala PCB",13-10-2025 07:00:00,8.563700,76.886500,OZONE,36,37,36
India,Kerala,Thiruvananthapuram,"Plammoodu, Thiruvananthapuram - Kerala PCB",13-10-2025 07:00:00,8.5149093,76.9435879,NO2,34,63,47
India,Kerala,Kannur,"Thavakkara, Kannur - Kerala PCB",13-10-2025 07:00:00,11.875000,75.373200,CO,16,18,17
India,Kerala,Kollam,"Polayathode, Kollam - Kerala PCB",13-10-2025 07:00:00,8.8787,76.6073,CO,14,17,16
India,Kerala,Kollam,"Polayathode, Kollam - Kerala PCB",13-10-2025 07:00:00,8.8787,76.6073,OZONE,29,33,29
India,Karnataka,Ramanagara,"Vijay Nagar, Ramanagara - KSPCB",13-10-2025 07:00:00,12.733409,77.298051,PM2.5,42,89,62
India,Karnataka,Ramanagara,"Vijay Nagar, Ramanagara - KSPCB",13-10-2025 07:00:00,12.733409,77.298051,NO2,47,76,58
India,Karnataka,Ramanagara,"Vijay Nagar, Ramanagara - KSPCB",13-10-2025 07:00:00,12.733409,77.298051,NH3,1,1,1
India,Madhya Pradesh,Bhopal,"Idgah Hills, Bhopal - MPPCB",13-10-2025 07:00:00,23.264759,77.381568,PM2.5,37,67,52
India,Madhya Pradesh,Bhopal,"Idgah Hills, Bhopal - MPPCB",13-10-2025 07:00:00,23.264759,77.381568,PM10,92,135,108
India,Karnataka,Shivamogga,"Vinoba Nagara, Shivamogga - KSPCB",13-10-2025 07:00:00,13.940000,75.555917,PM2.5,23,31,24
India,Madhya Pradesh,Katni,"Gole Bazar, Katni - MPPCB",13-10-2025 07:00:00,23.50016,80.23284,OZONE,20,124,32
India,Madhya Pradesh,Mandideep,"Sector-D Industrial Area, Mandideep - MPPCB",13-10-2025 07:00:00,23.108440,77.511428,SO2,7,67,36
India,Madhya Pradesh,Mandideep,"Sector-D Industrial Area, Mandideep - MPPCB",13-10-2025 07:00:00,23.108440,77.511428,CO,20,100,66
India,Madhya Pradesh,Pithampur,"Sector-2 Industrial Area, Pithampur - MPPCB",13-10-2025 07:00:00,22.624758,75.675238,NH3,2,4,3
India,Madhya Pradesh,Ratlam,"Shasthri Nagar, Ratlam - IPCA Lab",13-10-2025 07:00:00,23.331731,75.045981,PM2.5,9,119,63
India,Madhya Pradesh,Sagar,"Civil Lines, Sagar - MPPCB",13-10-2025 07:00:00,23.838586,78.759431,PM10,82,146,109
India,Madhya Pradesh,Sagar,"Civil Lines, Sagar - MPPCB",13-10-2025 07:00:00,23.838586,78.759431,NH3,2,3,2
India,Madhya Pradesh,Sagar,"Civil Lines, Sagar - MPPCB",13-10-2025 07:00:00,23.838586,78.759431,CO,28,40,33
India,Madhya Pradesh,Indore,"Chhoti Gwaltoli, Indore - MPPCB",13-10-2025 07:00:00,22.4310,75.5213,NO2,79,153,111
India,Madhya Pradesh,Indore,"Chhoti Gwaltoli, Indore - MPPCB",13-10-2025 07:00:00,22.4310,75.5213,OZONE,8,99,12
India,Madhya Pradesh,Indore,"Maguda Nagar, Indore - IMC",13-10-2025 07:00:00,22.7524,75.8872,PM10,52,111,79
India,Madhya Pradesh,Indore,"Regional Park, Indore - IMC",13-10-2025 07:00:00,22.6780,75.8559,NO2,7,20,9
India,Madhya Pradesh,Indore,"Regional Park, Indore - IMC",13-10-2025 07:00:00,22.6780,75.8559,SO2,17,25,22
India,Madhya Pradesh,Indore,"Residency Area, Indore - IMC",13-10-2025 07:00:00,22.7084,75.8815,PM2.5,34,191,92
India,Madhya Pradesh,Indore,"Residency Area, Indore - IMC",13-10-2025 07:00:00,22.7084,75.8815,PM10,67,155,103
India,Madhya Pradesh,Jabalpur,"Govindh Bhavan Colony, Jabalpur - JMC",13-10-2025 07:00:00,23.163174,79.973061,PM2.5,43,70,54
India,Maharashtra,Badlapur,"Katrap, Badlapur - MPCB",13-10-2025 07:00:00,19.16485,73.23409,NH3,4,8,6
India,Maharashtra,Badlapur,"Katrap, Badlapur - MPCB",13-10-2025 07:00:00,19.16485,73.23409,SO2,3,84,18
India,Maharashtra,Belapur,"CBD Belapur, Belapur - MPCB",13-10-2025 07:00:00,19.0243902,73.0406721,PM10,86,122,104
India,Maharashtra,Bhiwandi,"Gokul Nagar, Bhiwandi - MPCB",13-10-2025 07:00:00,19.309073,73.057223,PM2.5,44,160,89
India,Maharashtra,Bhiwandi,"Gokul Nagar, Bhiwandi - MPCB",13-10-2025 07:00:00,19.309073,73.057223,NH3,3,8,6
India,Maharashtra,Boisar,"Khaira, Boisar - MPCB",13-10-2025 07:00:00,19.786089,72.757971,PM2.5,NA,NA,NA
India,Maharashtra,Chandrapur,"Chauhan Colony, Chandrapur - MPCB",13-10-2025 07:00:00,19.962900,79.298714,PM10,NA,NA,NA
India,Maharashtra,Chandrapur,"Chauhan Colony, Chandrapur - MPCB",13-10-2025 07:00:00,19.962900,79.298714,NO2,41,44,42
India,Madhya Pradesh,Satna,"Bandhavgar Colony, Satna - Birla Cement",13-10-2025 07:00:00,24.58434363,80.8549414,PM10,52,54,53
India,Madhya Pradesh,Singrauli,"Suryakiran Bhawan NCL, Singrauli - MPPCB",13-10-2025 07:00:00,24.108970,82.645580,SO2,28,54,39
India,Madhya Pradesh,Singrauli,"Suryakiran Bhawan NCL, Singrauli - MPPCB",13-10-2025 07:00:00,24.108970,82.645580,OZONE,11,98,17
India,Maharashtra,Akola,"Ramdaspeth, Akola - MPCB",13-10-2025 07:00:00,20.719516,77.000253,PM2.5,44,206,70
India,Maharashtra,Akola,"Ramdaspeth, Akola - MPCB",13-10-2025 07:00:00,20.719516,77.000253,PM10,59,185,86
India,Maharashtra,Akola,"Ramdaspeth, Akola - MPCB",13-10-2025 07:00:00,20.719516,77.000253,OZONE,4,45,9
India,Madhya Pradesh,Gwalior,"City Center, Gwalior - MPPCB",13-10-2025 07:00:00,26.203442,78.193251,CO,12,105,32
India,Madhya Pradesh,Gwalior,"Deen Dayal Nagar, Gwalior - MPPCB",13-10-2025 07:00:00,26.259242,78.216432,PM10,69,430,140
India,Madhya Pradesh,Gwalior,"Deen Dayal Nagar, Gwalior - MPPCB",13-10-2025 07:00:00,26.259242,78.216432,NO2,4,118,34
India,Madhya Pradesh,Gwalior,"Deen Dayal Nagar, Gwalior - MPPCB",13-10-2025 07:00:00,26.259242,78.216432,CO,5,106,44
India,Madhya Pradesh,Gwalior,"Deen Dayal Nagar, Gwalior - MPPCB",13-10-2025 07:00:00,26.259242,78.216432,OZONE,7,164,41
India,Madhya Pradesh,Gwalior,"Maharaj Bada, Gwalior - MPPCB",13-10-2025 07:00:00,26.200388,78.147714,PM10,79,289,129
India,Madhya Pradesh,Gwalior,"Maharaj Bada, Gwalior - MPPCB",13-10-2025 07:00:00,26.200388,78.147714,NH3,2,2,2
India,Maharashtra,Amravati,"Shivneri Colony, Amravati - MPCB",13-10-2025 07:00:00,20.9402359,77.7895248,SO2,NA,NA,NA
India,Maharashtra,Aurangabad,"MIDC Chilkalthana, Aurangabad - MPCB",13-10-2025 07:00:00,19.875620,75.387310,OZONE,2,56,4
India,Maharashtra,Aurangabad,"More Chowk Waluj, Aurangabad - MPCB",13-10-2025 07:00:00,19.8389439,75.244448,PM10,48,93,66
India,Maharashtra,Aurangabad,"Rachnakar Colony, Aurangabad - MPCB",13-10-2025 07:00:00,19.863756,75.321188,NO2,21,27,24
India,Madhya Pradesh,Jabalpur,"Marhatal, Jabalpur - MPPCB",13-10-2025 07:00:00,23.168606,79.932247,CO,5,103,25
India,Madhya Pradesh,Jabalpur,"Suhagi, Jabalpur - JMC",13-10-2025 07:00:00,23.218135,79.957770,PM10,57,114,81
India,Madhya Pradesh,Jabalpur,"Suhagi, Jabalpur - JMC",13-10-2025 07:00:00,23.218135,79.957770,NH3,2,2,2
India,Madhya Pradesh,Katni,"Gole Bazar, Katni - MPPCB",13-10-2025 07:00:00,23.50016,80.23284,PM10,87,165,111
India,Maharashtra,Dhule,"Deopur, Dhule - MPCB",13-10-2025 07:00:00,20.918946,74.776388,NH3,3,9,4
India,Maharashtra,Jalgaon,"Prabhat Colony, Jalgaon - MPCB",13-10-2025 07:00:00,21.001264,75.565602,PM2.5,48,122,77
India,Maharashtra,Jalgaon,"Prabhat Colony, Jalgaon - MPCB",13-10-2025 07:00:00,21.001264,75.565602,SO2,6,12,10
India,Maharashtra,Chandrapur,"MIDC Khutala, Chandrapur - MPCB",13-10-2025 07:00:00,19.9775302,79.2337086,PM10,112,131,129
India,Maharashtra,Chandrapur,"MIDC Khutala, Chandrapur - MPCB",13-10-2025 07:00:00,19.9775302,79.2337086,NH3,4,5,5
India,Maharashtra,Mumbai,"Chhatrapati Shivaji Intl. Airport (T2), Mumbai - MPCB",13-10-2025 07:00:00,19.10078,72.87462,OZONE,7,7,7
India,Maharashtra,Mumbai,"Colaba, Mumbai - MPCB",13-10-2025 07:00:00,18.910000,72.820000,CO,25,28,27
India,Maharashtra,Mumbai,"Deonar, Mumbai - IITM",13-10-2025 07:00:00,19.04946,72.9230,NO2,9,70,30
India,Maharashtra,Mumbai,"Deonar, Mumbai - IITM",13-10-2025 07:00:00,19.04946,72.9230,NH3,9,15,12
India,Maharashtra,Mumbai,"Deonar, Mumbai - IITM",13-10-2025 07:00:00,19.04946,72.9230,SO2,4,8,6
India,Maharashtra,Mumbai,"Kandivali East, Mumbai - MPCB",13-10-2025 07:00:00,19.205800,72.868200,PM10,NA,NA,NA
India,Maharashtra,Mumbai,"Kandivali East, Mumbai - MPCB",13-10-2025 07:00:00,19.205800,72.868200,SO2,NA,NA,NA
India,Maharashtra,Mira-Bhayandar,"Bhayandar West, Mira-Bhayandar - MPCB",13-10-2025 07:00:00,19.296481,72.840923,PM2.5,97,157,128
India,Maharashtra,Mira-Bhayandar,"Bhayandar West, Mira-Bhayandar - MPCB",13-10-2025 07:00:00,19.296481,72.840923,PM10,118,163,142
India,Maharashtra,Mira-Bhayandar,"Bhayandar West, Mira-Bhayandar - MPCB",13-10-2025 07:00:00,19.296481,72.840923,NO2,13,82,49
India,Maharashtra,Mira-Bhayandar,"Bhayandar West, Mira-Bhayandar - MPCB",13-10-2025 07:00:00,19.296481,72.840923,CO,10,56,39
India,Maharashtra,Mumbai,"Bandra Kurla Complex, Mumbai - IITM",13-10-2025 07:00:00,19.053536,72.84643,OZONE,1,75,2
India,Maharashtra,Mumbai,"Borivali East, Mumbai - IITM",13-10-2025 07:00:00,19.23241,72.86895,PM2.5,65,142,108
India,Maharashtra,Mumbai,"Borivali East, Mumbai - IITM",13-10-2025 07:00:00,19.23241,72.86895,OZONE,11,94,27
India,Maharashtra,Mumbai,"Borivali East, Mumbai - MPCB",13-10-2025 07:00:00,19.2243333,72.8658113,NH3,1,1,1
India,Maharashtra,Mumbai,"Byculla, Mumbai - BMC",13-10-2025 07:00:00,18.9767,72.8380,CO,5,53,27
India,Maharashtra,Mumbai,"Chakala-Andheri East, Mumbai - IITM",13-10-2025 07:00:00,19.11074,72.86084,CO,16,81,54
India,Maharashtra,Mumbai,"Chembur, Mumbai - MPCB",13-10-2025 07:00:00,19.0364585,72.8954371,PM2.5,NA,NA,NA
India,Maharashtra,Mumbai,"Mazgaon, Mumbai - IITM",13-10-2025 07:00:00,18.96702,72.84214,PM2.5,93,199,139
India,Maharashtra,Mumbai,"Mazgaon, Mumbai - IITM",13-10-2025 07:00:00,18.96702,72.84214,OZONE,8,89,23
India,Maharashtra,Mumbai,"Mindspace-Malad West, Mumbai - MPCB",13-10-2025 07:00:00,19.1878657,72.8304069,NH3,6,6,6
India,Maharashtra,Mumbai,"Mindspace-Malad West, Mumbai - MPCB",13-10-2025 07:00:00,19.1878657,72.8304069,CO,40,41,40
India,Maharashtra,Mumbai,"Mulund West, Mumbai - MPCB",13-10-2025 07:00:00,19.1750,72.9419,NH3,4,4,4
India,Maharashtra,Latur,"Sawe Wadi, Latur - MPCB",13-10-2025 07:00:00,18.39963,76.57452,NO2,9,28,15
India,Maharashtra,Latur,"Sawe Wadi, Latur - MPCB",13-10-2025 07:00:00,18.39963,76.57452,OZONE,31,72,44
India,Maharashtra,Mahad,"Kamble Tarf Birwadi, Mahad - MPCB",13-10-2025 07:00:00,18.1023399,73.4783687,PM10,38,108,67
India,Maharashtra,Mumbai,"Malad West, Mumbai - IITM",13-10-2025 07:00:00,19.19709,72.82204,PM2.5,44,168,104
India,Maharashtra,Mumbai,"Malad West, Mumbai - IITM",13-10-2025 07:00:00,19.19709,72.82204,PM10,145,191,166
India,Maharashtra,Mumbai,"Malad West, Mumbai - IITM",13-10-2025 07:00:00,19.19709,72.82204,OZONE,6,97,27
India,Maharashtra,Jalna,"Old MIDC, Jalna - MPCB",13-10-2025 07:00:00,19.854616,75.905894,PM2.5,20,54,34
India,Maharashtra,Jalna,"Old MIDC, Jalna - MPCB",13-10-2025 07:00:00,19.854616,75.905894,NO2,41,50,45
India,Maharashtra,Jalna,"Old MIDC, Jalna - MPCB",13-10-2025 07:00:00,19.854616,75.905894,NH3,2,5,4
India,Maharashtra,Kolhapur,"Shivaji University, Kolhapur - MPCB",13-10-2025 07:00:00,16.6870449,74.2505872,NO2,6,92,30
India,Maharashtra,Kolhapur,"Shivaji University, Kolhapur - MPCB",13-10-2025 07:00:00,16.6870449,74.2505872,CO,6,54,19
India,Maharashtra,Mumbai,"Vasai West, Mumbai - MPCB",13-10-2025 07:00:00,19.383200,72.820400,SO2,8,8,8
India,Maharashtra,Mumbai,"Vile Parle West, Mumbai - MPCB",13-10-2025 07:00:00,19.10861,72.83622,CO,6,26,24
India,Maharashtra,Mumbai,"Vile Parle West, Mumbai - MPCB",13-10-2025 07:00:00,19.10861,72.83622,OZONE,3,27,27
India,Maharashtra,Mumbai,"Worli, Mumbai - MPCB",13-10-2025 07:00:00,18.9936162,72.8128113,NH3,1,2,1
India,Maharashtra,Nagpur,"Ambazari, Nagpur - MPCB",13-10-2025 07:00:00,21.121801,79.04952,NH3,3,12,6
India,Maharashtra,Nagpur,"Ambazari, Nagpur - MPCB",13-10-2025 07:00:00,21.121801,79.04952,CO,9,59,21
India,Maharashtra,Nagpur,"Opp GPO Civil Lines, Nagpur - MPCB",13-10-2025 07:00:00,21.152875,79.0517531,NH3,1,4,2
India,Maharashtra,Nagpur,"Opp GPO Civil Lines, Nagpur - MPCB",13-10-2025 07:00:00,21.152875,79.0517531,OZONE,4,54,11
India,Maharashtra,Nagpur,"Ram Nagar, Nagpur - MPCB",13-10-2025 07:00:00,21.143383,79.048912,PM10,80,123,99
India,Maharashtra,Nagpur,"Ram Nagar, Nagpur - MPCB",13-10-2025 07:00:00,21.143383,79.048912,SO2,18,117,42
India,Maharashtra,Nashik,"Gangapur Road, Nashik - MPCB",13-10-2025 07:00:00,20.0073285,73.7762427,SO2,1,6,3
India,Maharashtra,Mumbai,"Navy Nagar-Colaba, Mumbai - IITM",13-10-2025 07:00:00,18.897756,72.813320,NO2,34,167,90
India,Maharashtra,Mumbai,"Shivaji Nagar, Mumbai - BMC",13-10-2025 07:00:00,19.060498,72.923356,NO2,16,63,38
India,Maharashtra,Mumbai,"Shivaji Nagar, Mumbai - BMC",13-10-2025 07:00:00,19.060498,72.923356,NH3,2,3,2
India,Maharashtra,Mumbai,"Siddharth Nagar-Worli, Mumbai - IITM",13-10-2025 07:00:00,19.000083,72.813993,NO2,32,92,60
India,Maharashtra,Mumbai,"Siddharth Nagar-Worli, Mumbai - IITM",13-10-2025 07:00:00,19.000083,72.813993,CO,20,74,61
India,Maharashtra,Navi Mumbai,"Kopripada-Vashi, Navi Mumbai - MPCB",13-10-2025 07:00:00,19.090337,73.014232,NO2,7,44,24
India,Maharashtra,Navi Mumbai,"Kopripada-Vashi, Navi Mumbai - MPCB",13-10-2025 07:00:00,19.090337,73.014232,CO,6,58,31
India,Maharashtra,Navi Mumbai,"Mahape, Navi Mumbai - MPCB",13-10-2025 07:00:00,19.1135051,73.008978,PM2.5,13,25,19
India,Maharashtra,Navi Mumbai,"Mahape, Navi Mumbai - MPCB",13-10-2025 07:00:00,19.1135051,73.008978,PM10,101,143,118
India,Maharashtra,Parbhani,"Masoom Colony, Parbhani - MPCB",13-10-2025 07:00:00,19.265594,76.761463,SO2,3,90,30
India,Maharashtra,Pimpri-Chinchwad,"Savta Mali Nagar, Pimpri-Chinchwad - IITM",13-10-2025 07:00:00,18.614767,73.799516,PM2.5,45,107,70
India,Maharashtra,Pimpri-Chinchwad,"Savta Mali Nagar, Pimpri-Chinchwad - IITM",13-10-2025 07:00:00,18.614767,73.799516,NO2,20,76,45
India,Maharashtra,Pune,"Hadapsar, Pune - IITM",13-10-2025 07:00:00,18.501793,73.927532,PM10,27,113,70
India,Maharashtra,Pune,"Hadapsar, Pune - IITM",13-10-2025 07:00:00,18.501793,73.927532,NO2,14,21,20
India,Maharashtra,Pune,"Katraj Dairy, Pune - MPCB",13-10-2025 07:00:00,18.454450,73.854155,PM2.5,36,98,62
India,Maharashtra,Pune,"Katraj Dairy, Pune - MPCB",13-10-2025 07:00:00,18.454450,73.854155,PM10,68,105,84
India,Maharashtra,Nashik,"Hirawadi, Nashik - MPCB",13-10-2025 07:00:00,20.021503,73.813844,PM10,134,197,163
India,Maharashtra,Nashik,"MIDC Ambad, Nashik - MPCB",13-10-2025 07:00:00,19.950220,73.731480,PM2.5,NA,NA,NA
India,Maharashtra,Nashik,"MIDC Ambad, Nashik - MPCB",13-10-2025 07:00:00,19.950220,73.731480,NH3,NA,NA,NA
India,Maharashtra,Navi Mumbai,"Sanpada, Navi Mumbai - MPCB",13-10-2025 07:00:00,19.0575752,73.0151367,CO,10,80,45
India,Maharashtra,Navi Mumbai,"Tondare-Taloja, Navi Mumbai - MPCB",13-10-2025 07:00:00,19.0630,73.1209,NH3,4,12,8
India,Maharashtra,Mumbai,"Vasai West, Mumbai - MPCB",13-10-2025 07:00:00,19.383200,72.820400,NO2,16,19,17
India,Maharashtra,Thane,"Kasarvadavali, Thane - MPCB",13-10-2025 07:00:00,19.26777,72.97182,OZONE,4,17,12
India,Maharashtra,Thane,"Upvan Fort, Thane - MPCB",13-10-2025 07:00:00,19.222279,72.957979,PM2.5,63,188,102
India,Maharashtra,Thane,"Upvan Fort, Thane - MPCB",13-10-2025 07:00:00,19.222279,72.957979,NH3,1,3,1
India,Maharashtra,Thane,"Upvan Fort, Thane - MPCB",13-10-2025 07:00:00,19.222279,72.957979,SO2,1,7,4
India,Maharashtra,Ulhasnagar,"Sidhi Vinayak Nagar, Ulhasnagar - MPCB",13-10-2025 07:00:00,19.235581,73.159121,NO2,14,34,24
India,Maharashtra,Ulhasnagar,"Sidhi Vinayak Nagar, Ulhasnagar - MPCB",13-10-2025 07:00:00,19.235581,73.159121,SO2,6,34,11
India,Maharashtra,Virar,"Bolinj, Virar - MPCB",13-10-2025 07:00:00,19.4458210,72.7988231,NO2,6,65,22
India,Maharashtra,Virar,"Bolinj, Virar - MPCB",13-10-2025 07:00:00,19.4458210,72.7988231,NH3,1,2,2
India,Nagaland,Kohima,"PWD Junction, Kohima - NPCB",13-10-2025 07:00:00,25.6635413,94.0989878,NO2,3,4,4
India,Odisha,Balasore,"Kalidaspur, Balasore - OSPCB",13-10-2025 07:00:00,21.51161,86.89088,OZONE,14,110,23
India,Odisha,Barbil,"Forest Office, Barbil - OSPCB",13-10-2025 07:00:00,22.1166054,85.3945546,NO2,18,59,28
India,Odisha,Baripada,"Meher Colony, Baripada - OSPCB",13-10-2025 07:00:00,21.941841,86.728318,PM2.5,62,118,82
India,Odisha,Baripada,"Meher Colony, Baripada - OSPCB",13-10-2025 07:00:00,21.941841,86.728318,PM10,68,122,99
India,Maharashtra,Pune,"Katraj Dairy, Pune - MPCB",13-10-2025 07:00:00,18.454450,73.854155,NO2,13,59,29
India,Maharashtra,Pune,"Katraj Dairy, Pune - MPCB",13-10-2025 07:00:00,18.454450,73.854155,OZONE,NA,NA,NA
India,Maharashtra,Pune,"Panchawati_Pashan, Pune - IITM",13-10-2025 07:00:00,18.536457,73.805454,PM2.5,55,114,76
India,Maharashtra,Pune,"Panchawati_Pashan, Pune - IITM",13-10-2025 07:00:00,18.536457,73.805454,PM10,73,123,104
India,Maharashtra,Pune,"Transport Nagar-Nigdi, Pune - IITM",13-10-2025 07:00:00,18.664282,73.763966,NO2,23,35,28
India,Odisha,Byasanagar,"Ferro Chrome Colony, Byasanagar - OSPCB",13-10-2025 07:00:00,20.94185,86.11510,NO2,5,16,9
India,Odisha,Cuttack,"CDA Area, Cuttack - OSPCB",13-10-2025 07:00:00,20.48891     ,85.84768     ,NH3,1,2,1
India,Odisha,Keonjhar,"Jagamohanpur, Keonjhar - OSPCB",13-10-2025 07:00:00,21.643900,85.599355,PM2.5,22,35,26
India,Maharashtra,Solapur,"Ratandeep Housing Society, Solapur - MPCB",13-10-2025 07:00:00,17.65439,75.90649,OZONE,1,310,19
India,Maharashtra,Thane,"Kasarvadavali, Thane - MPCB",13-10-2025 07:00:00,19.26777,72.97182,PM10,114,166,138
India,Maharashtra,Thane,"Kasarvadavali, Thane - MPCB",13-10-2025 07:00:00,19.26777,72.97182,NH3,1,8,3
India,Maharashtra,Thane,"Kasarvadavali, Thane - MPCB",13-10-2025 07:00:00,19.26777,72.97182,SO2,3,6,4
India,Odisha,Bhubaneswar,"Lingraj Mandir, Bhubaneswar - OSPCB",13-10-2025 07:00:00,20.240790,85.836784,CO,37,66,57
India,Odisha,Bhubaneswar,"Lingraj Mandir, Bhubaneswar - OSPCB",13-10-2025 07:00:00,20.240790,85.836784,OZONE,58,136,78
India,Odisha,Brajrajnagar,"GM Office, Brajrajnagar - OSPCB",13-10-2025 07:00:00,21.8004996,83.8396977,PM2.5,28,192,70
India,Maharashtra,Sangli,"Vijay Nagar, Sangli - MPCB",13-10-2025 07:00:00, 16.5038,74.3623,SO2,4,7,6
India,Maharashtra,Solapur,"Dnyaneshwar Nagar, Solapur - MPCB",13-10-2025 07:00:00,17.6336264,75.9132495,PM2.5,68,160,97
India,Maharashtra,Solapur,"Dnyaneshwar Nagar, Solapur - MPCB",13-10-2025 07:00:00,17.6336264,75.9132495,NH3,7,23,13
India,Odisha,Bhubaneswar,"Lingraj Mandir, Bhubaneswar - OSPCB",13-10-2025 07:00:00,20.240790,85.836784,PM2.5,55,193,93
India,Meghalaya,Shillong,"Lumpyngngad, Shillong - Meghalaya PCB",13-10-2025 07:00:00,25.5586,91.8985,CO,2,6,3
India,Rajasthan,Banswara,"Rati Talai, Banswara - RSPCB",13-10-2025 07:00:00,23.555190,74.440010,CO,39,104,49
India,Rajasthan,Banswara,"Rati Talai, Banswara - RSPCB",13-10-2025 07:00:00,23.555190,74.440010,OZONE,6,93,39
India,Rajasthan,Baran,"Bamboliya, Baran - RSPCB",13-10-2025 07:00:00,25.106006,76.469948,NO2,4,28,11
India,Rajasthan,Barmer,"Railway Colony, Barmer - RSPCB",13-10-2025 07:00:00,25.747299,71.393989,PM10,79,143,106
India,Rajasthan,Barmer,"Railway Colony, Barmer - RSPCB",13-10-2025 07:00:00,25.747299,71.393989,CO,16,77,26
India,Rajasthan,Barmer,"Railway Colony, Barmer - RSPCB",13-10-2025 07:00:00,25.747299,71.393989,OZONE,26,121,66
India,Rajasthan,Bharatpur,"Krishna Nagar, Bharatpur - RSPCB",13-10-2025 07:00:00,27.215415,77.50873,NO2,10,116,34
India,Rajasthan,Bharatpur,"Krishna Nagar, Bharatpur - RSPCB",13-10-2025 07:00:00,27.215415,77.50873,SO2,2,10,5
India,Rajasthan,Bhilwara,"Pratap Nagar, Bhilwara - RSPCB",13-10-2025 07:00:00,25.339605,74.618883,PM2.5,23,73,42
India,Rajasthan,Bhiwadi,"RIICO Ind. Area III, Bhiwadi - RSPCB",13-10-2025 07:00:00,28.194909,76.862296,PM2.5,60,307,152
India,Puducherry,Puducherry,"Jawahar Nagar, Puducherry - PPCC",13-10-2025 07:00:00,11.9309,79.8027,CO,13,30,21
India,Punjab,Amritsar,"Golden Temple, Amritsar - PPCB",13-10-2025 07:00:00,31.620000,74.876512,OZONE,24,35,32
India,Punjab,Bathinda,"Hardev Nagar, Bathinda - PPCB",13-10-2025 07:00:00,30.233011,74.907758,PM10,56,106,82
India,Punjab,Bathinda,"Hardev Nagar, Bathinda - PPCB",13-10-2025 07:00:00,30.233011,74.907758,NO2,17,37,20
India,Punjab,Bathinda,"Hardev Nagar, Bathinda - PPCB",13-10-2025 07:00:00,30.233011,74.907758,CO,8,21,16
India,Punjab,Jalandhar,"Civil Line, Jalandhar - PPCB",13-10-2025 07:00:00,31.321907,75.578914,NH3,2,4,3
India,Punjab,Jalandhar,"Civil Line, Jalandhar - PPCB",13-10-2025 07:00:00,31.321907,75.578914,SO2,14,17,16
India,Punjab,Jalandhar,"Civil Line, Jalandhar - PPCB",13-10-2025 07:00:00,31.321907,75.578914,CO,44,54,45
India,Punjab,Ludhiana,"Punjab Agricultural University, Ludhiana - PPCB",13-10-2025 07:00:00,30.9028,75.8086,CO,6,89,38
India,Rajasthan,Jaipur,"Adarsh Nagar, Jaipur - RSPCB",13-10-2025 07:00:00,26.902909,75.836858,OZONE,16,104,17
India,Rajasthan,Jaipur,"Mansarovar Sector-12, Jaipur - RSPCB",13-10-2025 07:00:00,26.843698,75.766894,OZONE,2,302,3
India,Rajasthan,Jaipur,"Police Commissionerate, Jaipur - RSPCB",13-10-2025 07:00:00,26.9164092,75.7994901,CO,24,113,69
India,Rajasthan,Jaipur,"RIICO Sitapura, Jaipur - RSPCB",13-10-2025 07:00:00,26.786682,75.827928,PM2.5,28,230,106
India,Rajasthan,Jaipur,"RIICO Sitapura, Jaipur - RSPCB",13-10-2025 07:00:00,26.786682,75.827928,OZONE,13,145,18
India,Rajasthan,Jaipur,"Sector-2 Murlipura, Jaipur - RSPCB",13-10-2025 07:00:00,26.960669,75.771817,PM10,39,251,95
India,Rajasthan,Jaipur,"Sector-2 Murlipura, Jaipur - RSPCB",13-10-2025 07:00:00,26.960669,75.771817,NO2,9,101,43
India,Rajasthan,Jaipur,"Sector-2 Murlipura, Jaipur - RSPCB",13-10-2025 07:00:00,26.960669,75.771817,NH3,4,13,6
India,Rajasthan,Jaipur,"Sector-2 Murlipura, Jaipur - RSPCB",13-10-2025 07:00:00,26.960669,75.771817,SO2,7,10,8
India,Rajasthan,Churu,"Subash Chowk, Churu - RSPCB",13-10-2025 07:00:00,28.296139,74.961696,PM10,102,195,133
India,Rajasthan,Dholpur,"Raja Ganj, Dholpur - RSPCB",13-10-2025 07:00:00,26.699557,77.898881,PM2.5,43,200,80
India,Rajasthan,Dholpur,"Raja Ganj, Dholpur - RSPCB",13-10-2025 07:00:00,26.699557,77.898881,NO2,11,67,25
India,Rajasthan,Dholpur,"Raja Ganj, Dholpur - RSPCB",13-10-2025 07:00:00,26.699557,77.898881,SO2,9,11,10
India,Rajasthan,Dungarpur,"Bhoiwada, Dungarpur - RSPCB",13-10-2025 07:00:00,23.837789,73.714926,NO2,5,26,13
India,Rajasthan,Dungarpur,"Bhoiwada, Dungarpur - RSPCB",13-10-2025 07:00:00,23.837789,73.714926,SO2,2,8,3
India,Rajasthan,Dungarpur,"Bhoiwada, Dungarpur - RSPCB",13-10-2025 07:00:00,23.837789,73.714926,CO,4,18,5
India,Rajasthan,Dungarpur,"Bhoiwada, Dungarpur - RSPCB",13-10-2025 07:00:00,23.837789,73.714926,OZONE,1,114,11
India,Rajasthan,Hanumangarh,"Housing Board, Hanumangarh - RSPCB",13-10-2025 07:00:00,29.610750,74.283608,SO2,3,11,4
India,Rajasthan,Hanumangarh,"Housing Board, Hanumangarh - RSPCB",13-10-2025 07:00:00,29.610750,74.283608,OZONE,9,81,17
India,Rajasthan,Jaisalmer,"Sadar Bazar, Jaisalmer - RSPCB",13-10-2025 07:00:00,26.912329,70.909168,SO2,3,4,4
India,Rajasthan,Jaisalmer,"Sadar Bazar, Jaisalmer - RSPCB",13-10-2025 07:00:00,26.912329,70.909168,OZONE,3,104,29
India,Rajasthan,Jalore,"Mudtra Sili, Jalore - RSPCB",13-10-2025 07:00:00,25.344694,72.626208,PM10,118,361,184
India,Rajasthan,Jalore,"Mudtra Sili, Jalore - RSPCB",13-10-2025 07:00:00,25.344694,72.626208,NH3,3,9,6
India,Rajasthan,Jalore,"Mudtra Sili, Jalore - RSPCB",13-10-2025 07:00:00,25.344694,72.626208,OZONE,3,92,15
India,Rajasthan,Jhalawar,"Rajlaxmi Nagar, Jhalawar - RSPCB",13-10-2025 07:00:00,24.588397,76.172782,PM10,38,109,63
India,Rajasthan,Jhalawar,"Rajlaxmi Nagar, Jhalawar - RSPCB",13-10-2025 07:00:00,24.588397,76.172782,NH3,3,4,4
India,Rajasthan,Jhalawar,"Rajlaxmi Nagar, Jhalawar - RSPCB",13-10-2025 07:00:00,24.588397,76.172782,OZONE,10,127,30
India,Rajasthan,Jhunjhunu,"Indra Nagar, Jhunjhunu - RSPCB",13-10-2025 07:00:00,28.108988,75.386577,NO2,6,126,43
India,Rajasthan,Jhunjhunu,"Indra Nagar, Jhunjhunu - RSPCB",13-10-2025 07:00:00,28.108988,75.386577,SO2,2,8,4
India,Rajasthan,Bhiwadi,"RIICO Ind. Area III, Bhiwadi - RSPCB",13-10-2025 07:00:00,28.194909,76.862296,NH3,10,22,16
India,Rajasthan,Bhiwadi,"Vasundhara Nagar_UIT, Bhiwadi - RSPCB",13-10-2025 07:00:00,28.207266,76.829265,PM10,98,244,151
India,Rajasthan,Bhiwadi,"Vasundhara Nagar_UIT, Bhiwadi - RSPCB",13-10-2025 07:00:00,28.207266,76.829265,OZONE,1,109,1
India,Rajasthan,Bikaner,"MM Ground, Bikaner - RSPCB",13-10-2025 07:00:00,28.018792,73.292658,CO,10,153,49
India,Rajasthan,Bundi,"New Colony, Bundi - RSPCB",13-10-2025 07:00:00,25.435774,75.644272,PM2.5,10,50,21
India,Rajasthan,Bundi,"New Colony, Bundi - RSPCB",13-10-2025 07:00:00,25.435774,75.644272,NO2,4,66,12
India,Rajasthan,Chittorgarh,"Shastri Nagar, Chittorgarh - RSPCB",13-10-2025 07:00:00,24.892047,74.623527,OZONE,1,96,2
India,Odisha,Nayagarh,"Dabuna, Nayagarh - OSPCB",13-10-2025 07:00:00,21.847279,85.416905,PM2.5,30,50,40
India,Odisha,Rourkela,"Raghunathpali, Rourkela - OSPCB",13-10-2025 07:00:00,22.220833,84.809444,SO2,6,7,6
India,Odisha,Talcher,"Talcher Coalfields,Talcher - OSPCB",13-10-2025 07:00:00,20.9360711,85.1707021,NO2,43,70,59
India,Puducherry,Puducherry,"Jawahar Nagar, Puducherry - PPCC",13-10-2025 07:00:00,11.9309,79.8027,PM2.5,40,123,74
India,Puducherry,Puducherry,"Jawahar Nagar, Puducherry - PPCC",13-10-2025 07:00:00,11.9309,79.8027,NO2,3,27,14
India,Puducherry,Puducherry,"Jawahar Nagar, Puducherry - PPCC",13-10-2025 07:00:00,11.9309,79.8027,NH3,3,5,3
India,Punjab,Patiala,"Model Town, Patiala - PPCB",13-10-2025 07:00:00,30.349388,76.366642,PM2.5,40,75,56
India,Punjab,Patiala,"Model Town, Patiala - PPCB",13-10-2025 07:00:00,30.349388,76.366642,PM10,71,110,95
India,Punjab,Patiala,"Model Town, Patiala - PPCB",13-10-2025 07:00:00,30.349388,76.366642,SO2,5,9,7
India,Punjab,Patiala,"Model Town, Patiala - PPCB",13-10-2025 07:00:00,30.349388,76.366642,CO,10,32,18
India,Rajasthan,Alwar,"Moti Doongri, Alwar - RSPCB",13-10-2025 07:00:00,27.554793,76.611536,PM2.5,46,79,60
India,Rajasthan,Jodhpur,"Digari Kalan, Jodhpur - RSPCB",13-10-2025 07:00:00,26.295810,73.082283,PM2.5,37,95,67
India,Rajasthan,Jodhpur,"Jhalamand, Jodhpur - RSPCB",13-10-2025 07:00:00,26.215415,73.070156,NH3,5,24,13
India,Rajasthan,Sri Ganganagar,"Old City, Sri Ganganagar - RSPCB",13-10-2025 07:00:00,29.931624,73.864511,CO,43,118,70
India,Rajasthan,Sri Ganganagar,"Old City, Sri Ganganagar - RSPCB",13-10-2025 07:00:00,29.931624,73.864511,OZONE,2,61,6
India,Rajasthan,Tonk,"Shastri Nagar, Tonk - RSPCB",13-10-2025 07:00:00,26.159933,75.780517,PM10,56,338,126
India,Rajasthan,Tonk,"Shastri Nagar, Tonk - RSPCB",13-10-2025 07:00:00,26.159933,75.780517,NO2,5,93,27
India,Rajasthan,Udaipur,"Ashok Nagar, Udaipur - RSPCB",13-10-2025 07:00:00,24.5886166,73.6321397,PM10,77,156,120
India,Rajasthan,Udaipur,"Ashok Nagar, Udaipur - RSPCB",13-10-2025 07:00:00,24.5886166,73.6321397,OZONE,2,75,5
India,Sikkim,Gangtok,"Zero Point GICI, Gangtok - SSPCB",13-10-2025 07:00:00,27.338530,88.614099,OZONE,14,43,17
India,TamilNadu,Chennai,"Perungudi, Chennai - TNPCB",13-10-2025 07:00:00,12.9533,80.2357,NH3,5,6,6
India,TamilNadu,Chennai,"Perungudi, Chennai - TNPCB",13-10-2025 07:00:00,12.9533,80.2357,CO,21,38,27
India,TamilNadu,Chennai,"Royapuram, Chennai - TNPCB",13-10-2025 07:00:00,13.1036,80.2909,SO2,NA,NA,NA
India,TamilNadu,Chennai,"Velachery Res. Area, Chennai - CPCB",13-10-2025 07:00:00,13.0052189,80.2398125,PM2.5,35,66,48
India,TamilNadu,Chennai,"Velachery Res. Area, Chennai - CPCB",13-10-2025 07:00:00,13.0052189,80.2398125,CO,48,75,53
India,TamilNadu,Coimbatore,"PSG College of Arts and Science, Coimbatore - TNPCB",13-10-2025 07:00:00,11.0328,77.0349,NH3,2,2,2
India,Rajasthan,Rajsamand,"Dhoinda, Rajsamand - RSPCB",13-10-2025 07:00:00,25.036360,73.883502,NO2,1,34,14
India,Rajasthan,Sawai Madhopur,"Sahu Nagar, Sawai Madhopur - RSPCB",13-10-2025 07:00:00,26.031443,76.359327,PM2.5,3,85,37
India,Rajasthan,Sikar,"Radhakishan Pura, Sikar - RSPCB",13-10-2025 07:00:00,27.608912,75.153302,NO2,6,101,37
India,Rajasthan,Sirohi,"Vedhaynath Colony, Sirohi - RSPCB",13-10-2025 07:00:00,24.885261,72.857549,CO,29,62,33
India,TamilNadu,Chengalpattu,"Crescent University, Chengalpattu - TNPCB",13-10-2025 07:00:00,12.8777316,80.0834807,PM2.5,45,90,61
India,TamilNadu,Chengalpattu,"Crescent University, Chengalpattu - TNPCB",13-10-2025 07:00:00,12.8777316,80.0834807,NH3,1,2,2
India,TamilNadu,Chennai,"Arumbakkam, Chennai - TNPCB",13-10-2025 07:00:00,13.0664,80.2112 ,PM10,62,149,99
India,TamilNadu,Chennai,"Manali Village, Chennai - TNPCB",13-10-2025 07:00:00,13.1662,80.2584,NH3,1,2,1
India,Rajasthan,Jodhpur,"Samrat Ashok Udhyan, Jodhpur - RSPCB",13-10-2025 07:00:00,26.253384,72.976571,CO,20,58,49
India,Rajasthan,Karauli,"Satyawati Vihar, Karauli - RSPCB",13-10-2025 07:00:00,26.506177,77.025989,NH3,3,4,4
India,Rajasthan,Kota,"Dhanmandi, Kota - RSPCB",13-10-2025 07:00:00,25.164090,75.858137,PM10,29,131,73
India,Rajasthan,Kota,"Nayapura, Kota - RSPCB",13-10-2025 07:00:00,25.196024,75.855668,OZONE,9,159,17
India,Rajasthan,Kota,"Shrinath Puram, Kota - RSPCB",13-10-2025 07:00:00,25.14389,75.821256,PM2.5,NA,NA,NA
India,Rajasthan,Kota,"Shrinath Puram, Kota - RSPCB",13-10-2025 07:00:00,25.14389,75.821256,CO,4,93,37
India,Rajasthan,Jodhpur,"Jhalamand, Jodhpur - RSPCB",13-10-2025 07:00:00,26.215415,73.070156,CO,14,28,23
India,Rajasthan,Jodhpur,"Jhalamand, Jodhpur - RSPCB",13-10-2025 07:00:00,26.215415,73.070156,OZONE,4,138,5
India,Rajasthan,Jodhpur,"Mandor, Jodhpur - RSPCB",13-10-2025 07:00:00,26.358805,73.047444,CO,7,23,19
India,Rajasthan,Pali,"Indira Colony Vistar, Pali - RSPCB",13-10-2025 07:00:00,25.771061, 73.340227,NH3,6,12,9
India,Rajasthan,Rajsamand,"Dhoinda, Rajsamand - RSPCB",13-10-2025 07:00:00,25.036360,73.883502,PM10,50,107,70
India,Rajasthan,Jodhpur,"Samrat Ashok Udhyan, Jodhpur - RSPCB",13-10-2025 07:00:00,26.253384,72.976571,NO2,4,91,46
India,Rajasthan,Jodhpur,"Samrat Ashok Udhyan, Jodhpur - RSPCB",13-10-2025 07:00:00,26.253384,72.976571,NH3,5,8,6
India,TamilNadu,Ranipet,"VOC Nagar_SIPCOT, Ranipet - TNPCB",13-10-2025 07:00:00,12.952707,79.30394,NH3,8,10,8
India,TamilNadu,Ranipet,"VOC Nagar_SIPCOT, Ranipet - TNPCB",13-10-2025 07:00:00,12.952707,79.30394,OZONE,1,1,1
India,TamilNadu,Thanjavur,"Parisutham Nagar, Thanjavur - TNPCB",13-10-2025 07:00:00,10.7654824,79.1389968,PM2.5,19,173,78
India,TamilNadu,Thanjavur,"Parisutham Nagar, Thanjavur - TNPCB",13-10-2025 07:00:00,10.7654824,79.1389968,NO2,3,3,3
India,TamilNadu,Thanjavur,"Parisutham Nagar, Thanjavur - TNPCB",13-10-2025 07:00:00,10.7654824,79.1389968,NH3,1,1,1
India,TamilNadu,Thanjavur,"Parisutham Nagar, Thanjavur - TNPCB",13-10-2025 07:00:00,10.7654824,79.1389968,CO,8,10,9
India,TamilNadu,Tiruchirappalli,"St Joseph College, Tiruchirappalli - TNPCB",13-10-2025 07:00:00,10.830158,78.691849,NO2,10,10,10
India,TamilNadu,Tiruchirappalli,"St Joseph College, Tiruchirappalli - TNPCB",13-10-2025 07:00:00,10.830158,78.691849,SO2,15,16,16
India,TamilNadu,Tiruchirappalli,"St Joseph College, Tiruchirappalli - TNPCB",13-10-2025 07:00:00,10.830158,78.691849,OZONE,3,27,9
India,TamilNadu,Tirunelveli,"Municipal Corporation Office, Tirunelveli - TNPCB",13-10-2025 07:00:00,8.728442,77.6962,PM10,23,47,35
India,TamilNadu,Tirunelveli,"Municipal Corporation Office, Tirunelveli - TNPCB",13-10-2025 07:00:00,8.728442,77.6962,NO2,4,22,11
India,TamilNadu,Karur,"Kamadenu Nagar, Karur - TNPCB",13-10-2025 07:00:00,10.967820,78.080882,CO,8,57,8
India,TamilNadu,Madurai,"Uchapatti, Madurai - TNPCB",13-10-2025 07:00:00,9.865935,78.022669,PM2.5,7,44,22
India,TamilNadu,Madurai,"Uchapatti, Madurai - TNPCB",13-10-2025 07:00:00,9.865935,78.022669,SO2,12,22,12
India,TamilNadu,Nagapattinam,"Velippalayam, Nagapattinam - TNPCB",13-10-2025 07:00:00,10.798548,79.838212,PM2.5,20,140,65
India,TamilNadu,Ooty,"Bombay Castel, Ooty - TNPCB",13-10-2025 07:00:00,11.4068288,76.7138973,PM2.5,36,75,49
India,TamilNadu,Ooty,"Bombay Castel, Ooty - TNPCB",13-10-2025 07:00:00,11.4068288,76.7138973,PM10,27,82,55
India,TamilNadu,Palkalaiperur,"Bharathidasan University, Palkalaiperur - TNPCB",13-10-2025 07:00:00,10.681158,78.741746,PM10,13,41,28
India,TamilNadu,Tirupur,"Kumaran College, Tirupur - TNPCB",13-10-2025 07:00:00,11.0973603,77.3228673,SO2,8,28,11
India,TamilNadu,Virudhunagar,"Collectorate Office, Virudhunagar - TNPCB",13-10-2025 07:00:00,9.559382,77.948828,PM10,32,62,42
India,Telangana,Hyderabad,"Bollaram Industrial Area, Hyderabad - TSPCB",13-10-2025 07:00:00,17.540891,78.358528,SO2,5,11,8
India,Telangana,Hyderabad,"Central University, Hyderabad - TSPCB",13-10-2025 07:00:00,17.460103,78.334361,PM10,36,77,52
India,TamilNadu,Palkalaiperur,"Bharathidasan University, Palkalaiperur - TNPCB",13-10-2025 07:00:00,10.681158,78.741746,SO2,5,6,6
India,TamilNadu,Perundurai,"SIPCOT Industrial Park, Perundurai - TNPCB",13-10-2025 07:00:00,11.258242,77.552761,PM2.5,NA,NA,NA
India,TamilNadu,Perundurai,"SIPCOT Industrial Park, Perundurai - TNPCB",13-10-2025 07:00:00,11.258242,77.552761,CO,30,30,30
India,TamilNadu,Pudukottai,"SIPCOT Nathampannai, Pudukottai - TNPCB",13-10-2025 07:00:00,10.423417,78.784889,NO2,12,18,15
India,TamilNadu,Cuddalore,"Kudikadu, Cuddalore - TNPCB",13-10-2025 07:00:00,11.6829898,79.7532099,PM10,28,133,79
India,TamilNadu,Cuddalore,"Semmandalam, Cuddalore - TNPCB",13-10-2025 07:00:00,11.7637683,79.7499835,PM10,21,85,54
India,TamilNadu,Dindigul,"Mendonsa Colony, Dindigul - TNPCB",13-10-2025 07:00:00,10.358535,77.984321,PM2.5,11,120,47
India,TamilNadu,Dindigul,"Mendonsa Colony, Dindigul - TNPCB",13-10-2025 07:00:00,10.358535,77.984321,NH3,2,3,2
India,Telangana,Hyderabad,"New Malakpet, Hyderabad - TSPCB",13-10-2025 07:00:00,17.37206,78.50864,PM2.5,39,95,57
India,Telangana,Hyderabad,"New Malakpet, Hyderabad - TSPCB",13-10-2025 07:00:00,17.37206,78.50864,NH3,3,4,3
India,Telangana,Hyderabad,"New Malakpet, Hyderabad - TSPCB",13-10-2025 07:00:00,17.37206,78.50864,OZONE,17,42,21
India,Telangana,Hyderabad,"Ramachandrapuram, Hyderabad - TSPCB",13-10-2025 07:00:00,17.528544,78.286195,NO2,13,15,15
India,Telangana,Hyderabad,"ICRISAT Patancheru, Hyderabad - TSPCB",13-10-2025 07:00:00,17.518400,78.278777,PM10,107,156,137
India,Telangana,Hyderabad,"IDA Pashamylaram, Hyderabad - TSPCB",13-10-2025 07:00:00,17.5316895,78.218939,PM10,101,158,130
India,Telangana,Hyderabad,"IDA Pashamylaram, Hyderabad - TSPCB",13-10-2025 07:00:00,17.5316895,78.218939,CO,31,45,36
India,TamilNadu,Karur,"Kamadenu Nagar, Karur - TNPCB",13-10-2025 07:00:00,10.967820,78.080882,PM10,23,62,38
India,TamilNadu,Karur,"Kamadenu Nagar, Karur - TNPCB",13-10-2025 07:00:00,10.967820,78.080882,NO2,5,6,6
India,TamilNadu,Gummidipoondi,"Anthoni Pillai Nagar, Gummidipoondi - TNPCB",13-10-2025 07:00:00,13.4127,80.1081,PM2.5,24,315,119
India,Telangana,Hyderabad,"Sanathnagar, Hyderabad - TSPCB",13-10-2025 07:00:00,17.4559458,78.4332152,OZONE,12,16,14
India,Telangana,Hyderabad,"Somajiguda, Hyderabad - TSPCB",13-10-2025 07:00:00,17.417094,78.457437,SO2,13,31,24
India,Telangana,Hyderabad,"Somajiguda, Hyderabad - TSPCB",13-10-2025 07:00:00,17.417094,78.457437,OZONE,15,56,24
India,Telangana,Hyderabad,"Zoo Park, Hyderabad - TSPCB",13-10-2025 07:00:00,17.349694,78.451437,NO2,16,32,21
India,Tripura,Agartala,"Bardowali, Agartala - Tripura SPCB",13-10-2025 07:00:00,23.8175497,91.2726974,PM10,21,45,32
India,Uttar_Pradesh,Agra,"Manoharpur, Agra - UPPCB",13-10-2025 07:00:00,27.23711,78.01936,PM2.5,54,225,124
India,Uttar_Pradesh,Agra,"Manoharpur, Agra - UPPCB",13-10-2025 07:00:00,27.23711,78.01936,NO2,17,17,17
India,Uttar_Pradesh,Agra,"Rohta, Agra - UPPCB",13-10-2025 07:00:00,27.106972,78.000111,PM2.5,6,314,210
India,Uttar_Pradesh,Agra,"Rohta, Agra - UPPCB",13-10-2025 07:00:00,27.106972,78.000111,CO,25,50,47
India,Uttar_Pradesh,Agra,"Sanjay Palace, Agra - UPPCB",13-10-2025 07:00:00,27.19865833,78.00598056,PM2.5,43,200,109
India,Uttar_Pradesh,Agra,"Sanjay Palace, Agra - UPPCB",13-10-2025 07:00:00,27.19865833,78.00598056,PM10,43,99,75
India,Uttar_Pradesh,Agra,"Sanjay Palace, Agra - UPPCB",13-10-2025 07:00:00,27.19865833,78.00598056,NO2,4,25,12
India,Uttar_Pradesh,Agra,"Sector-3B Avas Vikas Colony, Agra - UPPCB",13-10-2025 07:00:00,27.19412,77.96237,NH3,5,6,5
India,Uttar_Pradesh,Agra,"Shastripuram, Agra - UPPCB",13-10-2025 07:00:00,27.19862,77.92066,CO,16,32,25
India,Uttar_Pradesh,Agra,"Shastripuram, Agra - UPPCB",13-10-2025 07:00:00,27.19862,77.92066,OZONE,4,5,5
India,Uttar_Pradesh,Baghpat,"Sardar Patel Inter College, Baghpat - UPPCB",13-10-2025 07:00:00,28.964949,77.278761,OZONE,11,86,17
India,Uttar_Pradesh,Khurja,"Kalindi Kunj, Khurja - UPPCB",13-10-2025 07:00:00,28.2348927,77.8683002,NO2,3,4,3
India,Uttar_Pradesh,Lucknow,"B R Ambedkar University, Lucknow - UPPCB",13-10-2025 07:00:00,26.766433,80.927299,PM2.5,55,324,126
India,Uttar_Pradesh,Lucknow,"B R Ambedkar University, Lucknow - UPPCB",13-10-2025 07:00:00,26.766433,80.927299,PM10,99,163,131
India,Uttar_Pradesh,Lucknow,"B R Ambedkar University, Lucknow - UPPCB",13-10-2025 07:00:00,26.766433,80.927299,CO,44,52,51
India,Uttar_Pradesh,Lucknow,"Gomti Nagar, Lucknow - UPPCB",13-10-2025 07:00:00,26.868120,81.005119,OZONE,33,44,35
India,Uttar_Pradesh,Lucknow,"Kendriya Vidyalaya, Lucknow - CPCB",13-10-2025 07:00:00,26.906111,80.948222,PM10,51,193,115
India,Uttar_Pradesh,Lucknow,"Kukrail Picnic Spot-1, Lucknow - UPPCB",13-10-2025 07:00:00,26.90723,80.98579,NH3,4,4,4
India,Uttar_Pradesh,Firozabad,"Vibhab Nagar, Firozabad - UPPCB",13-10-2025 07:00:00,27.1594,78.3953,OZONE,3,20,5
India,Uttar_Pradesh,Ghaziabad,"Indirapuram, Ghaziabad - UPPCB",13-10-2025 07:00:00,28.646233,77.358075,CO,38,104,65
India,Uttar_Pradesh,Ghaziabad,"Indirapuram, Ghaziabad - UPPCB",13-10-2025 07:00:00,28.646233,77.358075,OZONE,18,110,28
India,Uttar_Pradesh,Ghaziabad,"Sanjay Nagar, Ghaziabad - UPPCB",13-10-2025 07:00:00,28.685382,77.453839,PM10,131,299,184
India,Uttar_Pradesh,Gorakhpur,"Madan Mohan Malaviya University of Technology, Gorakhpur - UPPCB",13-10-2025 07:00:00,26.730136,83.433859,NO2,11,12,11
India,Uttar_Pradesh,Bareilly,"Civil Lines, Bareilly - UPPCB",13-10-2025 07:00:00,28.359581,79.414455,PM2.5,5,32,14
India,Uttar_Pradesh,Bareilly,"Rajendra Nagar, Bareilly - UPPCB",13-10-2025 07:00:00,28.38910936,79.42963708,PM2.5,55,242,129
India,Uttar_Pradesh,Bareilly,"Rajendra Nagar, Bareilly - UPPCB",13-10-2025 07:00:00,28.38910936,79.42963708,OZONE,NA,NA,NA
India,Uttar_Pradesh,Firozabad,"Vibhab Nagar, Firozabad - UPPCB",13-10-2025 07:00:00,27.1594,78.3953,PM2.5,48,151,90
India,Uttar_Pradesh,Gorakhpur,"Madan Mohan Malaviya University of Technology, Gorakhpur - UPPCB",13-10-2025 07:00:00,26.730136,83.433859,SO2,26,27,26
India,Uttar_Pradesh,Greater Noida,"Knowledge Park - III, Greater Noida - UPPCB",13-10-2025 07:00:00,28.47272,77.482000,PM10,NA,NA,NA
India,Uttar_Pradesh,Greater Noida,"Knowledge Park - III, Greater Noida - UPPCB",13-10-2025 07:00:00,28.47272,77.482000,CO,28,97,52
India,Uttar_Pradesh,Kanpur,"Nehru Nagar, Kanpur - UPPCB",13-10-2025 07:00:00,26.4703136,80.3229863,SO2,9,14,11
India,Uttar_Pradesh,Jhansi,"Shivaji Nagar, Jhansi - UPPCB",13-10-2025 07:00:00,25.4547,78.6039,SO2,9,14,11
India,Uttar_Pradesh,Kanpur,"NSI Kalyanpur, Kanpur - UPPCB",13-10-2025 07:00:00,26.509954,80.249612,NO2,12,12,12
India,Uttar_Pradesh,Moradabad,"Eco Herbal Park, Moradabad - UPPCB",13-10-2025 07:00:00,28.840739,78.697531,CO,15,58,43
India,Uttar_Pradesh,Moradabad,"Employment Office, Moradabad - UPPCB",13-10-2025 07:00:00,28.88528,78.73880,PM2.5,68,338,179
India,Uttar_Pradesh,Moradabad,"Employment Office, Moradabad - UPPCB",13-10-2025 07:00:00,28.88528,78.73880,NH3,4,4,4
India,Uttar_Pradesh,Moradabad,"Employment Office, Moradabad - UPPCB",13-10-2025 07:00:00,28.88528,78.73880,SO2,18,21,19
India,Uttar_Pradesh,Moradabad,"Employment Office, Moradabad - UPPCB",13-10-2025 07:00:00,28.88528,78.73880,CO,9,87,28
India,Uttar_Pradesh,Moradabad,"Jigar Colony, Moradabad - UPPCB",13-10-2025 07:00:00,28.856664,78.772638,CO,40,41,40
India,Uttar_Pradesh,Moradabad,"Kashiram Nagar, Moradabad - UPPCB",13-10-2025 07:00:00,28.849399,78.742362,CO,21,53,30
India,Uttar_Pradesh,Moradabad,"Transport Nagar, Moradabad - UPPCB",13-10-2025 07:00:00,28.802625,78.753728,SO2,29,32,30
India,Uttar_Pradesh,Muzaffarnagar,"New Mandi, Muzaffarnagar - UPPCB",13-10-2025 07:00:00,29.4723508,77.7194031,SO2,NA,NA,NA
India,Uttar_Pradesh,Muzaffarnagar,"New Mandi, Muzaffarnagar - UPPCB",13-10-2025 07:00:00,29.4723508,77.7194031,OZONE,NA,NA,NA
India,Uttar_Pradesh,Noida,"Sector - 125, Noida - UPPCB",13-10-2025 07:00:00,28.5447608,77.3231257,PM2.5,57,245,150
India,Uttar_Pradesh,Vrindavan,"Omex Eternity, Vrindavan - UPPCB",13-10-2025 07:00:00,27.5714090,77.6557570,SO2,9,15,11
India,Uttarakhand,Dehradun,"Doon University, Dehradun - UKPCB",13-10-2025 07:00:00,30.269444,78.044167,NO2,1,4,2
India,Uttarakhand,Kashipur,"Govt. Girls Inter College, Kashipur - UKPCB",13-10-2025 07:00:00,29.2124114,78.9611753,NO2,9,43,17
India,Uttarakhand,Kashipur,"Govt. Girls Inter College, Kashipur - UKPCB",13-10-2025 07:00:00,29.2124114,78.9611753,CO,8,13,12
India,Uttarakhand,Rishikesh,"Shivaji Nagar, Rishikesh - UKPCB",13-10-2025 07:00:00,30.075911,78.2859547,NO2,NA,NA,NA
India,Uttarakhand,Rishikesh,"Shivaji Nagar, Rishikesh - UKPCB",13-10-2025 07:00:00,30.075911,78.2859547,OZONE,NA,NA,NA
India,West_Bengal,Asansol,"Asansol Court Area, Asansol - WBPCB",13-10-2025 07:00:00,23.685297,86.945968,PM10,68,180,103
India,West_Bengal,Durgapur,"Womens College_City Center, Durgapur - WBPCB (Formerly known as Sidhu Kanhu Indoor Stadium)",13-10-2025 07:00:00,23.549395,87.300496,NH3,2,3,3
India,West_Bengal,Haldia,"Priyambada Housing Estate, Haldia - WBPCB",13-10-2025 07:00:00,22.06047,88.109737,NO2,9,16,12
India,West_Bengal,Haldia,"Priyambada Housing Estate, Haldia - WBPCB",13-10-2025 07:00:00,22.06047,88.109737,OZONE,23,65,26
India,West_Bengal,Howrah,"Belur Math, Howrah - WBPCB",13-10-2025 07:00:00,22.629801,88.352017,NO2,21,27,23
India,West_Bengal,Howrah,"Botanical Garden, Howrah - WBPCB",13-10-2025 07:00:00,22.554954,88.292568,PM2.5,51,108,80
India,West_Bengal,Howrah,"Dasnagar, Howrah - WBPCB",13-10-2025 07:00:00,22.6025571,88.3105664,PM2.5,45,238,108
India,Uttar_Pradesh,Noida,"Sector - 62, Noida - IMD",13-10-2025 07:00:00,28.6245479,77.3577104,NO2,12,45,22
India,Uttar_Pradesh,Noida,"Sector-116, Noida - UPPCB",13-10-2025 07:00:00,28.569230,77.393848,NO2,63,129,98
India,Uttar_Pradesh,Prayagraj,"Jhunsi, Prayagraj - UPPCB",13-10-2025 07:00:00,25.425602,81.917152,SO2,8,19,11
India,Uttar_Pradesh,Prayagraj,"Jhunsi, Prayagraj - UPPCB",13-10-2025 07:00:00,25.425602,81.917152,CO,19,64,46
India,Uttar_Pradesh,Prayagraj,"Jhunsi, Prayagraj - UPPCB",13-10-2025 07:00:00,25.425602,81.917152,OZONE,15,39,16
India,Uttar_Pradesh,Prayagraj,"Motilal Nehru NIT, Prayagraj - UPPCB",13-10-2025 07:00:00,25.494,81.863,NO2,12,12,12
India,Uttar_Pradesh,Prayagraj,"Motilal Nehru NIT, Prayagraj - UPPCB",13-10-2025 07:00:00,25.494,81.863,CO,10,51,34
India,Uttar_Pradesh,Prayagraj,"Nagar Nigam, Prayagraj - UPPCB",13-10-2025 07:00:00,25.44919916 ,81.82735986 ,PM10,59,112,83
India,Uttar_Pradesh,Prayagraj,"Nagar Nigam, Prayagraj - UPPCB",13-10-2025 07:00:00,25.44919916 ,81.82735986 ,NH3,1,7,3
India,Uttar_Pradesh,Varanasi,"IESD Banaras Hindu University, Varanasi - UPPCB",13-10-2025 07:00:00,25.262326,82.995408,SO2,24,26,25
India,Uttar_Pradesh,Varanasi,"IESD Banaras Hindu University, Varanasi - UPPCB",13-10-2025 07:00:00,25.262326,82.995408,CO,5,24,16
India,Uttar_Pradesh,Meerut,"Ganga Nagar, Meerut - UPPCB",13-10-2025 07:00:00,28.999264,77.7590354,PM10,75,222,156
India,Uttar_Pradesh,Meerut,"Ganga Nagar, Meerut - UPPCB",13-10-2025 07:00:00,28.999264,77.7590354,NH3,2,2,2
India,Uttar_Pradesh,Meerut,"Ganga Nagar, Meerut - UPPCB",13-10-2025 07:00:00,28.999264,77.7590354,CO,28,66,56
India,Uttar_Pradesh,Meerut,"Jai Bhim Nagar, Meerut - UPPCB",13-10-2025 07:00:00,28.9535882,77.7622941,NO2,7,55,32
India,Uttar_Pradesh,Meerut,"Pallavpuram Phase 2, Meerut - UPPCB",13-10-2025 07:00:00,29.063510,77.709723,OZONE,28,116,34
India,West_Bengal,Asansol,"Asansol Court Area, Asansol - WBPCB",13-10-2025 07:00:00,23.685297,86.945968,SO2,11,17,13
India,West_Bengal,Asansol,"Evelyn Lodge, Asansol - WBPCB",13-10-2025 07:00:00,23.6979360,86.9443950,SO2,4,5,4
India,West_Bengal,Asansol,"Mahabir Colliery, Asansol - WBPCB",13-10-2025 07:00:00,23.6181830,87.1057180,PM2.5,31,214,102
India,West_Bengal,Asansol,"Mahabir Colliery, Asansol - WBPCB",13-10-2025 07:00:00,23.6181830,87.1057180,NO2,5,91,30
India,West_Bengal,Asansol,"Trivenidevi Bhalotia College, Asansol - WBPCB",13-10-2025 07:00:00,23.616515,87.119133,PM2.5,50,214,128
India,West_Bengal,Asansol,"Trivenidevi Bhalotia College, Asansol - WBPCB",13-10-2025 07:00:00,23.616515,87.119133,CO,52,103,89
India,West_Bengal,Barrackpore,"SVSPA Campus, Barrackpore - WBPCB",13-10-2025 07:00:00,22.7605581,88.3617589,PM10,87,126,104
India,Uttar_Pradesh,Lucknow,"Talkatora District Industries Center, Lucknow - CPCB",13-10-2025 07:00:00,26.83399722,80.8917361,PM10,92,155,121
India,Uttar_Pradesh,Lucknow,"Talkatora District Industries Center, Lucknow - CPCB",13-10-2025 07:00:00,26.83399722,80.8917361,NH3,8,16,12
India,West_Bengal,Howrah,"Dasnagar, Howrah - WBPCB",13-10-2025 07:00:00,22.6025571,88.3105664,OZONE,1,111,5
India,West_Bengal,Howrah,"Ghusuri, Howrah - WBPCB",13-10-2025 07:00:00,22.611968,88.347422,PM10,91,140,110
India,West_Bengal,Howrah,"Padmapukur, Howrah - WBPCB",13-10-2025 07:00:00,22.5687319,88.2797276,PM2.5,70,91,82
India,West_Bengal,Howrah,"Padmapukur, Howrah - WBPCB",13-10-2025 07:00:00,22.5687319,88.2797276,SO2,5,11,8
India,West_Bengal,Kolkata,"Bidhannagar, Kolkata - WBPCB",13-10-2025 07:00:00,22.58157048,88.41002457,PM10,64,102,82
India,West_Bengal,Kolkata,"Bidhannagar, Kolkata - WBPCB",13-10-2025 07:00:00,22.58157048,88.41002457,CO,24,55,47
India,West_Bengal,Kolkata,"Bidhannagar, Kolkata - WBPCB",13-10-2025 07:00:00,22.58157048,88.41002457,OZONE,17,43,18
India,West_Bengal,Kolkata,"Jadavpur, Kolkata - WBPCB",13-10-2025 07:00:00,22.49929,88.36917,NH3,7,18,11
India,West_Bengal,Kolkata,"Victoria, Kolkata - WBPCB",13-10-2025 07:00:00,22.5448082,88.3403691,OZONE,10,44,12
India,West_Bengal,Siliguri,"Ward-32 Bapupara, Siliguri - WBPCB",13-10-2025 07:00:00,26.6879226,88.4152495,PM2.5,44,126,65
India,Andhra_Pradesh,Amaravati,"Secretariat, Amaravati - APPCB",13-10-2025 07:00:00,16.5150833,80.5181667,PM2.5,NA,NA,NA
India,Andhra_Pradesh,Amaravati,"Secretariat, Amaravati - APPCB",13-10-2025 07:00:00,16.5150833,80.5181667,NO2,12,22,15
India,Andhra_Pradesh,Anantapur,"Gulzarpet, Anantapur - APPCB",13-10-2025 07:00:00,14.675886,77.593027,PM10,49,97,70
India,Andhra_Pradesh,Anantapur,"Gulzarpet, Anantapur - APPCB",13-10-2025 07:00:00,14.675886,77.593027,NO2,14,14,14
India,Andhra_Pradesh,Anantapur,"Gulzarpet, Anantapur - APPCB",13-10-2025 07:00:00,14.675886,77.593027,NH3,4,4,4
India,Andhra_Pradesh,Anantapur,"Gulzarpet, Anantapur - APPCB",13-10-2025 07:00:00,14.675886,77.593027,SO2,12,14,13
India,Andhra_Pradesh,Anantapur,"Gulzarpet, Anantapur - APPCB",13-10-2025 07:00:00,14.675886,77.593027,CO,13,43,22
India,Andhra_Pradesh,Chittoor,"Gangineni Cheruvu, Chittoor - APPCB",13-10-2025 07:00:00,13.204880,79.097889,PM10,46,270,101
India,Andhra_Pradesh,Chittoor,"Gangineni Cheruvu, Chittoor - APPCB",13-10-2025 07:00:00,13.204880,79.097889,CO,42,68,49
India,Andhra_Pradesh,Kadapa,"Yerramukkapalli, Kadapa - APPCB",13-10-2025 07:00:00,14.465052,78.824187,NO2,21,21,21
India,Andhra_Pradesh,Kadapa,"Yerramukkapalli, Kadapa - APPCB",13-10-2025 07:00:00,14.465052,78.824187,SO2,19,21,20
India,Andhra_Pradesh,Rajamahendravaram,"Anand Kala Kshetram, Rajamahendravaram - APPCB",13-10-2025 07:00:00,16.9872867,81.7363176,PM2.5,25,69,49
India,Andhra_Pradesh,Visakhapatnam,"GVM Corporation, Visakhapatnam - APPCB",13-10-2025 07:00:00,17.72,83.3,SO2,2,11,6
India,Andhra_Pradesh,Visakhapatnam,"GVM Corporation, Visakhapatnam - APPCB",13-10-2025 07:00:00,17.72,83.3,CO,8,54,14
India,Arunachal_Pradesh,Naharlagun,"Naharlagun, Naharlagun - APSPCB",13-10-2025 07:00:00,27.103358,93.679645,PM10,24,68,39
India,Arunachal_Pradesh,Naharlagun,"Naharlagun, Naharlagun - APSPCB",13-10-2025 07:00:00,27.103358,93.679645,NO2,5,6,6
India,Assam,Byrnihat,"Central Academy for SFS, Byrnihat - PCBA",13-10-2025 07:00:00,26.071318,91.87488,PM10,NA,NA,NA
India,Assam,Guwahati,"IITG, Guwahati - PCBA",13-10-2025 07:00:00,26.2028636,91.70046436,PM10,25,107,63
India,Assam,Guwahati,"IITG, Guwahati - PCBA",13-10-2025 07:00:00,26.2028636,91.70046436,SO2,22,25,23
India,Assam,Guwahati,"IITG, Guwahati - PCBA",13-10-2025 07:00:00,26.2028636,91.70046436,CO,5,16,10
India,Assam,Guwahati,"LGBI Airport, Guwahati - PCBA",13-10-2025 07:00:00,26.10887,91.589544,PM2.5,27,41,31
India,Assam,Guwahati,"LGBI Airport, Guwahati - PCBA",13-10-2025 07:00:00,26.10887,91.589544,CO,28,112,42
India,Bihar,Hajipur,"Industrial Area, Hajipur - BSPCB",13-10-2025 07:00:00,25.697189,85.245900,NO2,11,18,14
India,Bihar,Hajipur,"Industrial Area, Hajipur - BSPCB",13-10-2025 07:00:00,25.697189,85.245900,OZONE,39,122,47
India,Bihar,Katihar,"Mirchaibari, Katihar - BSPCB",13-10-2025 07:00:00,25.560083,87.553265,PM2.5,32,38,35
India,Bihar,Katihar,"Mirchaibari, Katihar - BSPCB",13-10-2025 07:00:00,25.560083,87.553265,PM10,30,31,31
India,Bihar,Katihar,"Mirchaibari, Katihar - BSPCB",13-10-2025 07:00:00,25.560083,87.553265,NO2,9,18,14
India,Bihar,Katihar,"Mirchaibari, Katihar - BSPCB",13-10-2025 07:00:00,25.560083,87.553265,OZONE,1,13,4
India,Bihar,Kishanganj,"SDM Office_Khagra, Kishanganj - BSPCB",13-10-2025 07:00:00,26.0881305,87.93840336,NH3,2,3,3
India,Bihar,Kishanganj,"SDM Office_Khagra, Kishanganj - BSPCB",13-10-2025 07:00:00,26.0881305,87.93840336,SO2,5,8,7
India,Bihar,Manguraha,"Forest Rest House, Manguraha - BSPCB",13-10-2025 07:00:00,27.308328,84.531742,NO2,4,10,6
India,Andhra_Pradesh,Rajamahendravaram,"Anand Kala Kshetram, Rajamahendravaram - APPCB",13-10-2025 07:00:00,16.9872867,81.7363176,OZONE,9,11,10
India,Andhra_Pradesh,Tirumala,"Toll Gate, Tirumala - APPCB",13-10-2025 07:00:00,13.67,79.35,PM10,42,122,84
India,Andhra_Pradesh,Tirumala,"Toll Gate, Tirumala - APPCB",13-10-2025 07:00:00,13.67,79.35,SO2,2,4,3
India,Andhra_Pradesh,Tirumala,"Toll Gate, Tirumala - APPCB",13-10-2025 07:00:00,13.67,79.35,CO,24,43,32
India,Andhra_Pradesh,Vijayawada,"HB Colony, Vijayawada - APPCB",13-10-2025 07:00:00,16.536107,80.594233,PM10,NA,NA,NA
India,Andhra_Pradesh,Vijayawada,"HB Colony, Vijayawada - APPCB",13-10-2025 07:00:00,16.536107,80.594233,NO2,NA,NA,NA
India,Andhra_Pradesh,Vijayawada,"Rajiv Gandhi Park, Vijayawada - APPCB",13-10-2025 07:00:00,16.509717,80.612222,CO,44,45,44
India,Andhra_Pradesh,Vijayawada,"Rajiv Gandhi Park, Vijayawada - APPCB",13-10-2025 07:00:00,16.509717,80.612222,OZONE,24,43,26
India,Bihar,Araria,"Kharahiya Basti, Araria - BSPCB",13-10-2025 07:00:00,26.146529,87.454184,SO2,18,24,23
India,Bihar,Arrah,"New DM Office, Arrah - BSPCB",13-10-2025 07:00:00,25.5626095,84.663264,NO2,6,9,7
India,Bihar,Aurangabad,"Gurdeo Nagar, Aurangabad - BSPCB",13-10-2025 07:00:00,24.75746,84.366208,PM2.5,8,15,11
India,Bihar,Aurangabad,"Gurdeo Nagar, Aurangabad - BSPCB",13-10-2025 07:00:00,24.75746,84.366208,PM10,10,20,14
India,Bihar,Aurangabad,"Gurdeo Nagar, Aurangabad - BSPCB",13-10-2025 07:00:00,24.75746,84.366208,NO2,7,8,8
India,Bihar,Begusarai,"Lohiyanagar, Begusarai - BSPCB",13-10-2025 07:00:00,25.42742023,86.13886079,NH3,3,4,4
India,Bihar,Bhagalpur,"DM Office_Kachari Chowk, Bhagalpur - BSPCB",13-10-2025 07:00:00,25.251013,86.989001,NO2,14,21,18
India,Bihar,Bhagalpur,"Mayaganj, Bhagalpur - BSPCB",13-10-2025 07:00:00,25.265194,87.012947,SO2,43,103,71
India,Bihar,Bhagalpur,"Mayaganj, Bhagalpur - BSPCB",13-10-2025 07:00:00,25.265194,87.012947,CO,38,102,60
India,Bihar,Buxar,"Charitra Van, Buxar - BSPCB",13-10-2025 07:00:00,25.567520,83.966379,NH3,3,3,3
India,Bihar,Gaya,"Collectorate, Gaya - BSPCB",13-10-2025 07:00:00,24.7955,84.9994,NO2,NA,NA,NA
India,Bihar,Gaya,"Collectorate, Gaya - BSPCB",13-10-2025 07:00:00,24.7955,84.9994,SO2,NA,NA,NA
India,Assam,Silchar,"Tarapur, Silchar - PCBA",13-10-2025 07:00:00,24.82827,92.79525,NH3,1,1,1
India,Assam,Silchar,"Tarapur, Silchar - PCBA",13-10-2025 07:00:00,24.82827,92.79525,SO2,4,5,4
India,Assam,Silchar,"Tarapur, Silchar - PCBA",13-10-2025 07:00:00,24.82827,92.79525,CO,22,54,29
India,Assam,Sivasagar,"Girls College, Sivasagar - PCBA",13-10-2025 07:00:00,26.987634,94.636574,SO2,8,11,9
India,Assam,Guwahati,"Pan Bazaar, Guwahati - PCBA",13-10-2025 07:00:00,26.187500,91.744194,OZONE,17,18,18
India,Assam,Guwahati,"Railway Colony, Guwahati - PCBA",13-10-2025 07:00:00,26.181742,91.78063,CO,29,66,49
India,Assam,Nagaon,"Christianpatty, Nagaon - PCBA",13-10-2025 07:00:00,26.349082,92.68449,PM2.5,44,58,56
India,Assam,Nagaon,"Christianpatty, Nagaon - PCBA",13-10-2025 07:00:00,26.349082,92.68449,OZONE,9,9,9
India,Assam,Nalbari,"Bata Chowk, Nalbari - PCBA",13-10-2025 07:00:00,26.446912,91.439057,NH3,1,4,2
India,Andhra_Pradesh,Visakhapatnam,"GVM Corporation, Visakhapatnam - APPCB",13-10-2025 07:00:00,17.72,83.3,PM2.5,45,203,93
India,Bihar,Patna,"Samanpura, Patna - BSPCB",13-10-2025 07:00:00,25.596727,85.085624,CO,19,54,45
India,Bihar,Rajgir,"Dangi Tola, Rajgir - BSPCB",13-10-2025 07:00:00,25.03280,85.41948,NH3,6,7,6
India,Bihar,Rajgir,"Dangi Tola, Rajgir - BSPCB",13-10-2025 07:00:00,25.03280,85.41948,SO2,18,22,21
India,Bihar,Rajgir,"Dangi Tola, Rajgir - BSPCB",13-10-2025 07:00:00,25.03280,85.41948,OZONE,28,34,32
India,Bihar,Samastipur,"DM Office_Kasipur, Samastipur - BSPCB",13-10-2025 07:00:00,25.859655,85.77944,PM2.5,NA,NA,NA
India,Bihar,Samastipur,"DM Office_Kasipur, Samastipur - BSPCB",13-10-2025 07:00:00,25.859655,85.77944,NH3,NA,NA,NA
India,Bihar,Samastipur,"DM Office_Kasipur, Samastipur - BSPCB",13-10-2025 07:00:00,25.859655,85.77944,SO2,NA,NA,NA
India,Bihar,Sasaram,"Dada Peer, Sasaram - BSPCB",13-10-2025 07:00:00,24.952822,84.002396,SO2,2,5,4
India,Bihar,Siwan,"Chitragupta Nagar, Siwan - BSPCB",13-10-2025 07:00:00,26.2271665,84.3570427,PM2.5,43,103,70
India,Bihar,Siwan,"Chitragupta Nagar, Siwan - BSPCB",13-10-2025 07:00:00,26.2271665,84.3570427,CO,83,104,96
India,Bihar,Patna,"Govt. High School Shikarpur, Patna - BSPCB",13-10-2025 07:00:00,25.592539,85.227158,NO2,14,19,16
India,Bihar,Patna,"Govt. High School Shikarpur, Patna - BSPCB",13-10-2025 07:00:00,25.592539,85.227158,SO2,7,11,8
India,Bihar,Patna,"IGSC Planetarium Complex, Patna - BSPCB",13-10-2025 07:00:00,25.610369,85.132568,CO,34,60,59
India,Bihar,Patna,"IGSC Planetarium Complex, Patna - BSPCB",13-10-2025 07:00:00,25.610369,85.132568,OZONE,46,47,46
India,Bihar,Patna,"Muradpur, Patna - BSPCB",13-10-2025 07:00:00,25.619651,85.147382,NO2,8,10,9
India,Bihar,Patna,"Muradpur, Patna - BSPCB",13-10-2025 07:00:00,25.619651,85.147382,NH3,4,5,4
India,Bihar,Patna,"Muradpur, Patna - BSPCB",13-10-2025 07:00:00,25.619651,85.147382,CO,24,64,47
India,Bihar,Patna,"Rajbansi Nagar, Patna - BSPCB",13-10-2025 07:00:00,25.599486,85.113666,CO,26,50,32
India,Bihar,Patna,"Rajbansi Nagar, Patna - BSPCB",13-10-2025 07:00:00,25.599486,85.113666,OZONE,7,12,8
India,Bihar,Patna,"Samanpura, Patna - BSPCB",13-10-2025 07:00:00,25.596727,85.085624,NH3,6,7,6
India,Chhattisgarh,Bhilai,"Civic Center, Bhilai - Bhilai Steel Plant",13-10-2025 07:00:00,21.185571,81.343175,PM2.5,52,126,80
India,Chhattisgarh,Bhilai,"Civic Center, Bhilai - Bhilai Steel Plant",13-10-2025 07:00:00,21.185571,81.343175,SO2,8,10,9
India,Chhattisgarh,Bhilai,"Civic Center, Bhilai - Bhilai Steel Plant",13-10-2025 07:00:00,21.185571,81.343175,CO,21,22,22
India,Chhattisgarh,Bilaspur,"Mangala, Bilaspur - NTPC",13-10-2025 07:00:00,22.08815,82.13737,PM10,54,121,83
India,Chhattisgarh,Bilaspur,"Mangala, Bilaspur - NTPC",13-10-2025 07:00:00,22.08815,82.13737,NO2,18,24,22
India,Chhattisgarh,Chhal,"Nawapara SECL Colony, Chhal - CECB",13-10-2025 07:00:00,22.118125,83.140608,NO2,NA,NA,NA
India,Chhattisgarh,Korba,"Rampur, Korba - CECB",13-10-2025 07:00:00,22.368195,82.746431,PM2.5,11,11,11
India,Chhattisgarh,Korba,"Urja Nagar, Korba - CECB",13-10-2025 07:00:00,22.348441,82.549611,CO,16,24,18
India,Chhattisgarh,Korba,"Urja Nagar, Korba - CECB",13-10-2025 07:00:00,22.348441,82.549611,OZONE,35,37,36
India,Chhattisgarh,Kunjemura,"OP Jindal School, Kunjemura - CECB",13-10-2025 07:00:00,22.126650,83.483212,PM10,27,129,58
India,Chhattisgarh,Kunjemura,"OP Jindal School, Kunjemura - CECB",13-10-2025 07:00:00,22.126650,83.483212,CO,26,33,28
India,Chhattisgarh,Milupara,"Govt. Higher Secondary School, Milupara - CECB",13-10-2025 07:00:00,22.1910172,83.5197009,OZONE,3,55,7
India,Chhattisgarh,Raipur,"AIIMS, Raipur - CECB",13-10-2025 07:00:00,21.258815,81.578979,CO,32,57,49
India,Bihar,Munger,"Town Hall, Munger - BSPCB",13-10-2025 07:00:00,25.376776,86.471523,NO2,4,5,5
India,Bihar,Muzaffarpur,"Buddha Colony, Muzaffarpur - BSPCB",13-10-2025 07:00:00,26.11442,85.39813,SO2,3,6,4
India,Bihar,Muzaffarpur,"Buddha Colony, Muzaffarpur - BSPCB",13-10-2025 07:00:00,26.11442,85.39813,CO,22,51,30
India,Bihar,Muzaffarpur,"Muzaffarpur Collectorate, Muzaffarpur - BSPCB",13-10-2025 07:00:00,26.1209,85.3647,CO,14,28,14
India,Bihar,Patna,"DRM Office Danapur, Patna - BSPCB",13-10-2025 07:00:00,25.586562,85.043586,PM10,94,154,119
India,Chandigarh,Chandigarh,"Sector-25, Chandigarh - CPCC",13-10-2025 07:00:00,30.751462,76.762879,NH3,4,7,5
India,Chandigarh,Chandigarh,"Sector-53, Chandigarh - CPCC",13-10-2025 07:00:00,30.719859,76.738637,PM2.5,50,253,116
India,Chhattisgarh,Bhilai,"32Bungalows, Bhilai - CECB",13-10-2025 07:00:00,21.194815,81.314770,PM10,41,76,62
India,Chhattisgarh,Bhilai,"32Bungalows, Bhilai - CECB",13-10-2025 07:00:00,21.194815,81.314770,NO2,12,56,26
India,Chhattisgarh,Bhilai,"32Bungalows, Bhilai - CECB",13-10-2025 07:00:00,21.194815,81.314770,SO2,7,26,12
India,Chhattisgarh,Tumidih,"OP Jindal Industrial Park, Tumidih - CECB",13-10-2025 07:00:00,22.06631475,83.33820077,PM2.5,29,85,46
India,Chhattisgarh,Tumidih,"OP Jindal Industrial Park, Tumidih - CECB",13-10-2025 07:00:00,22.06631475,83.33820077,NH3,1,2,2
India,Chhattisgarh,Tumidih,"OP Jindal Industrial Park, Tumidih - CECB",13-10-2025 07:00:00,22.06631475,83.33820077,SO2,5,7,5
India,Delhi,Delhi,"Alipur, Delhi - DPCC",13-10-2025 07:00:00,28.815329,77.153010,SO2,4,13,7
India,Delhi,Delhi,"Aya Nagar, Delhi - IMD",13-10-2025 07:00:00,28.4706914,77.1099364,CO,40,64,61
India,Delhi,Delhi,"Bawana, Delhi - DPCC",13-10-2025 07:00:00,28.776200,77.051074,CO,49,82,60
India,Delhi,Delhi,"Burari Crossing, Delhi - IMD",13-10-2025 07:00:00,28.7256504,77.2011573,NO2,17,30,23
India,Delhi,Delhi,"Ashok Vihar, Delhi - DPCC",13-10-2025 07:00:00,28.695381,77.181665,PM10,119,221,165
India,Delhi,Delhi,"Ashok Vihar, Delhi - DPCC",13-10-2025 07:00:00,28.695381,77.181665,NH3,1,1,1
India,Delhi,Delhi,"Aya Nagar, Delhi - IMD",13-10-2025 07:00:00,28.4706914,77.1099364,PM10,98,213,164
India,Delhi,Delhi,"Sri Aurobindo Marg, Delhi - DPCC",13-10-2025 07:00:00,28.531346,77.190156,OZONE,4,112,9
India,Delhi,Delhi,"Vivek Vihar, Delhi - DPCC",13-10-2025 07:00:00,28.672342,77.315260,PM10,108,190,159
India,Delhi,Delhi,"Vivek Vihar, Delhi - DPCC",13-10-2025 07:00:00,28.672342,77.315260,SO2,11,23,16
India,Delhi,Delhi,"Wazirpur, Delhi - DPCC",13-10-2025 07:00:00,28.699793,77.165453,PM10,155,274,202
India,Delhi,Delhi,"Wazirpur, Delhi - DPCC",13-10-2025 07:00:00,28.699793,77.165453,SO2,11,20,15
India,Gujarat,Ahmedabad,"Chandkheda, Ahmedabad - IITM",13-10-2025 07:00:00,23.107969,72.574648,PM2.5,49,193,104
India,Gujarat,Ahmedabad,"Chandkheda, Ahmedabad - IITM",13-10-2025 07:00:00,23.107969,72.574648,NO2,9,117,52
India,Gujarat,Ahmedabad,"Chandkheda, Ahmedabad - IITM",13-10-2025 07:00:00,23.107969,72.574648,SO2,9,29,16
India,Gujarat,Ahmedabad,"Chandkheda, Ahmedabad - IITM",13-10-2025 07:00:00,23.107969,72.574648,OZONE,2,59,4
India,Delhi,Delhi,"Patparganj, Delhi - DPCC",13-10-2025 07:00:00,28.623763,77.287209,OZONE,6,285,20
India,Delhi,Delhi,"Punjabi Bagh, Delhi - DPCC",13-10-2025 07:00:00,28.674045,77.131023,PM2.5,48,320,136
India,Delhi,Delhi,"Punjabi Bagh, Delhi - DPCC",13-10-2025 07:00:00,28.674045,77.131023,PM10,119,248,169
India,Delhi,Delhi,"Punjabi Bagh, Delhi - DPCC",13-10-2025 07:00:00,28.674045,77.131023,OZONE,8,86,14
India,Delhi,Delhi,"Pusa, Delhi - DPCC",13-10-2025 07:00:00,28.639652,77.146275,OZONE,4,118,4
India,Delhi,Delhi,"Pusa, Delhi - IMD",13-10-2025 07:00:00,28.636110,77.173332,PM10,87,188,137
India,Delhi,Delhi,"Pusa, Delhi - IMD",13-10-2025 07:00:00,28.636110,77.173332,CO,11,112,69
India,Delhi,Delhi,"Pusa, Delhi - IMD",13-10-2025 07:00:00,28.636110,77.173332,OZONE,2,125,5
India,Delhi,Delhi,"R K Puram, Delhi - DPCC",13-10-2025 07:00:00,28.563262,77.186937,PM2.5,63,297,175
India,Delhi,Delhi,"Dr. Karni Singh Shooting Range, Delhi - DPCC",13-10-2025 07:00:00,28.498571,77.264840,CO,21,70,44
India,Delhi,Delhi,"Dwarka-Sector 8, Delhi - DPCC ",13-10-2025 07:00:00,28.5710274,77.0719006,NH3,4,7,6
India,Delhi,Delhi,"IGI Airport (T3), Delhi - IMD",13-10-2025 07:00:00,28.5627763,77.1180053,NO2,34,150,93
India,Delhi,Delhi,"IHBAS, Dilshad Garden, Delhi - CPCB",13-10-2025 07:00:00,28.6811736,77.3025234,NH3,4,5,4
India,Delhi,Delhi,"IHBAS, Dilshad Garden, Delhi - CPCB",13-10-2025 07:00:00,28.6811736,77.3025234,SO2,12,24,18
India,Delhi,Delhi,"ITO, Delhi - CPCB",13-10-2025 07:00:00,28.628624,77.241060,PM2.5,58,232,140
India,Delhi,Delhi,"Najafgarh, Delhi - DPCC",13-10-2025 07:00:00,28.570173,76.933762,CO,24,43,38
India,Delhi,Delhi,"Narela, Delhi - DPCC",13-10-2025 07:00:00,28.822836,77.101981,CO,24,60,35
India,Delhi,Delhi,"Narela, Delhi - DPCC",13-10-2025 07:00:00,28.822836,77.101981,OZONE,3,124,23
India,Delhi,Delhi,"Nehru Nagar, Delhi - DPCC",13-10-2025 07:00:00,28.567890,77.250515,NH3,2,6,4
India,Delhi,Delhi,"Nehru Nagar, Delhi - DPCC",13-10-2025 07:00:00,28.567890,77.250515,OZONE,2,157,5
India,Delhi,Delhi,"North Campus, DU, Delhi - IMD",13-10-2025 07:00:00,28.6573814,77.1585447,NO2,9,38,22
India,Delhi,Delhi,"R K Puram, Delhi - DPCC",13-10-2025 07:00:00,28.563262,77.186937,SO2,11,47,28
India,Delhi,Delhi,"Shadipur, Delhi - CPCB",13-10-2025 07:00:00,28.6514781,77.1473105,PM2.5,36,51,41
India,Delhi,Delhi,"Shadipur, Delhi - CPCB",13-10-2025 07:00:00,28.6514781,77.1473105,NO2,29,121,60
India,Delhi,Delhi,"Sirifort, Delhi - CPCB",13-10-2025 07:00:00,28.5504249,77.2159377,NH3,8,15,11
India,Delhi,Delhi,"Sonia Vihar, Delhi - DPCC",13-10-2025 07:00:00,28.710508,77.249485,CO,33,101,76
India,Delhi,Delhi,"ITO, Delhi - CPCB",13-10-2025 07:00:00,28.628624,77.241060,CO,34,106,70
India,Delhi,Delhi,"ITO, Delhi - CPCB",13-10-2025 07:00:00,28.628624,77.241060,OZONE,1,32,2
India,Delhi,Delhi,"Jahangirpuri, Delhi - DPCC",13-10-2025 07:00:00,28.732820,77.170633,SO2,9,41,17
India,Delhi,Delhi,"Lodhi Road, Delhi - IITM",13-10-2025 07:00:00,28.588333,77.221667,NO2,17,161,72
India,Delhi,Delhi,"Chandni Chowk, Delhi - IITM",13-10-2025 07:00:00,28.656756,77.227234,PM10,98,140,120
India,Delhi,Delhi,"DTU, Delhi - CPCB",13-10-2025 07:00:00,28.7500499,77.1112615,PM10,101,180,132
India,Delhi,Delhi,"DTU, Delhi - CPCB",13-10-2025 07:00:00,28.7500499,77.1112615,NH3,2,18,9
India,Delhi,Delhi,"DTU, Delhi - CPCB",13-10-2025 07:00:00,28.7500499,77.1112615,OZONE,19,34,21
India,Delhi,Delhi,"Major Dhyan Chand National Stadium, Delhi - DPCC",13-10-2025 07:00:00,28.611281,77.237738,NO2,16,102,57
India,Delhi,Delhi,"Mundka, Delhi - DPCC",13-10-2025 07:00:00,28.684678,77.076574,SO2,8,23,13
India,Delhi,Delhi,"Najafgarh, Delhi - DPCC",13-10-2025 07:00:00,28.570173,76.933762,PM2.5,65,253,127
India,Gujarat,Ahmedabad,"Gyaspur, Ahmedabad - IITM",13-10-2025 07:00:00,22.977134,72.553024,OZONE,4,75,6
India,Gujarat,Ahmedabad,"Rakhial, Ahmedabad - IITM",13-10-2025 07:00:00,23.016834,72.625775,PM10,99,182,131
India,Gujarat,Ahmedabad,"Rakhial, Ahmedabad - IITM",13-10-2025 07:00:00,23.016834,72.625775,CO,14,39,27
India,Gujarat,Ahmedabad,"Rakhial, Ahmedabad - IITM",13-10-2025 07:00:00,23.016834,72.625775,OZONE,1,53,2
India,Jammu_and_Kashmir,Srinagar,"Rajbagh, Srinagar - JKSPCB",13-10-2025 07:00:00,34.066206,74.819820,SO2,NA,NA,NA
India,Jharkhand,Dhanbad,"Sardar Patel Nagar, Dhanbad - JSPCB",13-10-2025 07:00:00,23.80569,86.44268,PM2.5,9,70,34
India,Jharkhand,Dhanbad,"Sardar Patel Nagar, Dhanbad - JSPCB",13-10-2025 07:00:00,23.80569,86.44268,SO2,NA,NA,NA
India,Jharkhand,Jorapokhar,"Tata Stadium, Jorapokhar - JSPCB",13-10-2025 07:00:00,23.707909,86.414670,SO2,NA,NA,NA
India,Karnataka,Bagalkot,"Vidayagiri, Bagalkot - KSPCB",13-10-2025 07:00:00,16.172806,75.659694,NH3,1,2,1
India,Karnataka,Bengaluru,"BTM Layout, Bengaluru - CPCB",13-10-2025 07:00:00,12.9135218,77.5950804,CO,23,24,23
India,Karnataka,Bengaluru,"Bapuji Nagar, Bengaluru - KSPCB",13-10-2025 07:00:00,12.951913,77.539784,NO2,8,16,10
India,Karnataka,Bengaluru,"Bapuji Nagar, Bengaluru - KSPCB",13-10-2025 07:00:00,12.951913,77.539784,NH3,1,2,1
India,Haryana,Faridabad,"New Industrial Town, Faridabad - HSPCB",13-10-2025 07:00:00,28.39072,77.30059,PM10,107,116,113
India,Haryana,Faridabad,"Sector 11, Faridabad - HSPCB",13-10-2025 07:00:00,28.376058,77.315741,PM10,114,124,120
India,Haryana,Faridabad,"Sector 30, Faridabad - HSPCB",13-10-2025 07:00:00,28.4417,77.3217,PM10,96,104,100
India,Haryana,Faridabad,"Sector 30, Faridabad - HSPCB",13-10-2025 07:00:00,28.4417,77.3217,NO2,36,39,38
India,Haryana,Faridabad,"Sector 30, Faridabad - HSPCB",13-10-2025 07:00:00,28.4417,77.3217,NH3,11,12,11
India,Haryana,Faridabad,"Sector 30, Faridabad - HSPCB",13-10-2025 07:00:00,28.4417,77.3217,SO2,6,7,6
India,Haryana,Faridabad,"Sector 30, Faridabad - HSPCB",13-10-2025 07:00:00,28.4417,77.3217,CO,58,67,63
India,Haryana,Fatehabad,"Huda Sector, Fatehabad - HSPCB",13-10-2025 07:00:00,29.503664,75.467934,PM10,116,179,140
India,Haryana,Fatehabad,"Huda Sector, Fatehabad - HSPCB",13-10-2025 07:00:00,29.503664,75.467934,NO2,18,20,19
India,Gujarat,Vatva,"Phase-4 GIDC, Vatva - GPCB",13-10-2025 07:00:00,22.969611,72.643500,NH3,2,6,4
India,Gujarat,Vatva,"Phase-4 GIDC, Vatva - GPCB",13-10-2025 07:00:00,22.969611,72.643500,SO2,10,22,15
India,Gujarat,Vatva,"Phase-4 GIDC, Vatva - GPCB",13-10-2025 07:00:00,22.969611,72.643500,CO,12,34,18
India,Haryana,Bahadurgarh,"Arya Nagar, Bahadurgarh - HSPCB",13-10-2025 07:00:00,28.6701,76.9254,NH3,11,13,12
India,Haryana,Bahadurgarh,"Arya Nagar, Bahadurgarh - HSPCB",13-10-2025 07:00:00,28.6701,76.9254,SO2,5,7,6
India,Haryana,Bahadurgarh,"Arya Nagar, Bahadurgarh - HSPCB",13-10-2025 07:00:00,28.6701,76.9254,OZONE,14,20,17
India,Haryana,Charkhi Dadri,"Mini Secretariat, Charkhi Dadri - HSPCB",13-10-2025 07:00:00,28.593883,76.270653,SO2,10,11,10
India,Haryana,Dharuhera,"Municipal Corporation Office, Dharuhera -  HSPCB",13-10-2025 07:00:00,28.206800,76.799700,CO,7,34,13
India,Gujarat,Ahmedabad,"SAC ISRO Satellite, Ahmedabad - IITM",13-10-2025 07:00:00,23.023389,72.515201,PM10,85,143,116
India,Gujarat,Ahmedabad,"SVPI Airport Hansol, Ahmedabad - IITM",13-10-2025 07:00:00,23.076793,72.627874,NH3,1,3,2
India,Gujarat,Ahmedabad,"SVPI Airport Hansol, Ahmedabad - IITM",13-10-2025 07:00:00,23.076793,72.627874,SO2,2,18,10
India,Gujarat,Gandhinagar,"GIFT City, Gandhinagar - IITM",13-10-2025 07:00:00,23.163798,72.677768,PM10,110,143,124
India,Gujarat,Gandhinagar,"GIFT City, Gandhinagar - IITM",13-10-2025 07:00:00,23.163798,72.677768,SO2,1,13,5
India,Gujarat,Gandhinagar,"IIPHG Lekawada, Gandhinagar - IITM",13-10-2025 07:00:00,23.243639,72.68994,NH3,1,1,1
India,Haryana,Panchkula,"Sector-6, Panchkula - HSPCB ",13-10-2025 07:00:00,30.7057778,76.8531805555555,PM2.5,35,255,107
India,Haryana,Panchkula,"Sector-6, Panchkula - HSPCB ",13-10-2025 07:00:00,30.7057778,76.8531805555555,NO2,26,30,28
India,Haryana,Panchkula,"Sector-6, Panchkula - HSPCB ",13-10-2025 07:00:00,30.7057778,76.8531805555555,OZONE,24,108,54
India,Haryana,Sirsa,"F-Block, Sirsa - HSPCB",13-10-2025 07:00:00,29.536400,75.015800,PM10,20,150,58
India,Haryana,Sirsa,"F-Block, Sirsa - HSPCB",13-10-2025 07:00:00,29.536400,75.015800,NH3,2,15,5
India,Haryana,Sirsa,"F-Block, Sirsa - HSPCB",13-10-2025 07:00:00,29.536400,75.015800,SO2,4,10,6
India,Haryana,Sirsa,"F-Block, Sirsa - HSPCB",13-10-2025 07:00:00,29.536400,75.015800,CO,40,67,63
India,Haryana,Kurukshetra,"Sector-7, Kurukshetra - HSPCB",13-10-2025 07:00:00,29.966942,76.875879,SO2,4,14,9
India,Haryana,Manesar,"Sector-2 IMT, Manesar - HSPCB",13-10-2025 07:00:00,28.360699,76.936090,CO,36,95,62
India,Haryana,Palwal,"Shyam Nagar, Palwal - HSPCB",13-10-2025 07:00:00,28.1485564,77.3320667,PM10,55,57,56
India,Karnataka,Bengaluru,"Bapuji Nagar, Bengaluru - KSPCB",13-10-2025 07:00:00,12.951913,77.539784,OZONE,5,48,10
India,Karnataka,Bengaluru,"Jayanagar 5th Block, Bengaluru - KSPCB",13-10-2025 07:00:00,12.920984,77.584908,NO2,NA,NA,NA
India,Karnataka,Bengaluru,"Kasturi Nagar, Bengaluru - KSPCB",13-10-2025 07:00:00,13.003872,77.664217,PM2.5,58,60,59
India,Haryana,Gurugram,"NISE Gwal Pahari, Gurugram - IMD",13-10-2025 07:00:00,28.422681,77.148944,NO2,17,27,22
India,Haryana,Gurugram,"Sector-51, Gurugram - HSPCB",13-10-2025 07:00:00,28.4227,77.0667,SO2,8,21,14
India,Karnataka,Bengaluru,"Peenya, Bengaluru - CPCB",13-10-2025 07:00:00,13.0270199,77.494094,NH3,2,4,3
India,Karnataka,Chamarajanagar,"Urban, Chamarajanagar - KSPCB",13-10-2025 07:00:00,11.55358,76.55521,NH3,1,2,2
India,Karnataka,Chamarajanagar,"Urban, Chamarajanagar - KSPCB",13-10-2025 07:00:00,11.55358,76.55521,SO2,2,5,4
India,Karnataka,Chikkamagaluru,"Kalyana Nagara, Chikkamagaluru - KSPCB",13-10-2025 07:00:00,13.328028,75.797056,PM2.5,50,77,62
India,Karnataka,Chikkamagaluru,"Kalyana Nagara, Chikkamagaluru - KSPCB",13-10-2025 07:00:00,13.328028,75.797056,NH3,2,3,3
India,Karnataka,Chikkamagaluru,"Kalyana Nagara, Chikkamagaluru - KSPCB",13-10-2025 07:00:00,13.328028,75.797056,SO2,1,9,4
India,Karnataka,Davanagere,"Devaraj Urs Badavane, Davanagere - KSPCB",13-10-2025 07:00:00,14.475800,75.905200,NH3,1,3,3
India,Karnataka,Dharwad,"Kalabhavan, Dharwad - KSPCB",13-10-2025 07:00:00,15.459706,75.008381,NO2,16,16,16
India,Karnataka,Dharwad,"Kalabhavan, Dharwad - KSPCB",13-10-2025 07:00:00,15.459706,75.008381,OZONE,15,39,18
India,Karnataka,Haveri,"Ashwini Nagar, Haveri - KSPCB",13-10-2025 07:00:00,14.791800,75.389600,PM2.5,NA,NA,NA
India,Karnataka,Haveri,"Ashwini Nagar, Haveri - KSPCB",13-10-2025 07:00:00,14.791800,75.389600,NO2,NA,NA,NA
India,Karnataka,Haveri,"Ashwini Nagar, Haveri - KSPCB",13-10-2025 07:00:00,14.791800,75.389600,NH3,NA,NA,NA
India,Karnataka,Hubballi,"Lingaraj Nagar, Hubballi - KSPCB",13-10-2025 07:00:00,15.3714823,75.1160168,NO2,11,11,11
India,Karnataka,Hubballi,"Lingaraj Nagar, Hubballi - KSPCB",13-10-2025 07:00:00,15.3714823,75.1160168,OZONE,14,14,14
India,Karnataka,Kalaburagi,"Mahatma Basaveswar Colony, Kalaburgi - KSPCB",13-10-2025 07:00:00,17.336318,76.847397,SO2,3,9,4
India,Karnataka,Koppal,"Diwator Nagar, Koppal - KSPCB",13-10-2025 07:00:00,15.347630,76.181767,NH3,NA,NA,NA
India,Karnataka,Madikeri,"Stuart Hill, Madikeri - KSPCB",13-10-2025 07:00:00,12.415911,75.735050,PM2.5,23,222,107
India,Karnataka,Madikeri,"Stuart Hill, Madikeri - KSPCB",13-10-2025 07:00:00,12.415911,75.735050,SO2,6,7,7
India,Karnataka,Mysuru,"Hebbal 1st Stage, Mysuru - KSPCB",13-10-2025 07:00:00,12.21041,76.37376,SO2,NA,NA,NA
India,Karnataka,Mysuru,"Hebbal 1st Stage, Mysuru - KSPCB",13-10-2025 07:00:00,12.21041,76.37376,OZONE,NA,NA,NA
India,Kerala,Thiruvananthapuram,"Plammoodu, Thiruvananthapuram - Kerala PCB",13-10-2025 07:00:00,8.5149093,76.9435879,CO,6,18,8
India,Kerala,Thrissur,"Corporation Ground, Thrissur - Kerala PCB",13-10-2025 07:00:00,10.532400,76.215900,PM10,50,57,54
India,Madhya Pradesh,Bhopal,"Idgah Hills, Bhopal - MPPCB",13-10-2025 07:00:00,23.264759,77.381568,CO,18,49,29
India,Madhya Pradesh,Bhopal,"Paryavaran Parisar, Bhopal - MPPCB",13-10-2025 07:00:00,23.210494,77.425409,NO2,13,88,37
India,Madhya Pradesh,Bhopal,"Paryavaran Parisar, Bhopal - MPPCB",13-10-2025 07:00:00,23.210494,77.425409,NH3,2,3,2
India,Madhya Pradesh,Bhopal,"Paryavaran Parisar, Bhopal - MPPCB",13-10-2025 07:00:00,23.210494,77.425409,OZONE,24,63,36
India,Madhya Pradesh,Bhopal,"T T Nagar, Bhopal - MPPCB",13-10-2025 07:00:00,23.233584,77.400574,NO2,29,61,41
India,Karnataka,Vijayapura,"Ibrahimpur, Vijayapura - KSPCB",13-10-2025 07:00:00,16.802639,75.722694,NO2,9,10,9
India,Karnataka,Yadgir,"Collector Office, Yadgir - KSPCB",13-10-2025 07:00:00,16.7602,77.1428,PM2.5,50,80,62
India,Kerala,Kannur,"Thavakkara, Kannur - Kerala PCB",13-10-2025 07:00:00,11.875000,75.373200,PM2.5,NA,NA,NA
India,Kerala,Kannur,"Thavakkara, Kannur - Kerala PCB",13-10-2025 07:00:00,11.875000,75.373200,PM10,NA,NA,NA
India,Kerala,Kannur,"Thavakkara, Kannur - Kerala PCB",13-10-2025 07:00:00,11.875000,75.373200,NO2,NA,NA,NA
India,Kerala,Kannur,"Thavakkara, Kannur - Kerala PCB",13-10-2025 07:00:00,11.875000,75.373200,NH3,NA,NA,NA
India,Kerala,Kollam,"Polayathode, Kollam - Kerala PCB",13-10-2025 07:00:00,8.8787,76.6073,NH3,1,1,1
India,Kerala,Kollam,"Polayathode, Kollam - Kerala PCB",13-10-2025 07:00:00,8.8787,76.6073,SO2,2,3,2
India,Madhya Pradesh,Gwalior,"Maharaj Bada, Gwalior - MPPCB",13-10-2025 07:00:00,26.200388,78.147714,SO2,5,10,7
India,Madhya Pradesh,Indore,"Chhoti Gwaltoli, Indore - MPPCB",13-10-2025 07:00:00,22.4310,75.5213,PM2.5,32,112,64
India,Madhya Pradesh,Indore,"Chhoti Gwaltoli, Indore - MPPCB",13-10-2025 07:00:00,22.4310,75.5213,PM10,86,162,121
India,Madhya Pradesh,Indore,"Maguda Nagar, Indore - IMC",13-10-2025 07:00:00,22.7524,75.8872,NO2,1,2,2
India,Madhya Pradesh,Indore,"Regional Park, Indore - IMC",13-10-2025 07:00:00,22.6780,75.8559,NH3,NA,NA,NA
India,Madhya Pradesh,Indore,"Regional Park, Indore - IMC",13-10-2025 07:00:00,22.6780,75.8559,CO,18,28,25
India,Madhya Pradesh,Dewas,"Bhopal Chauraha, Dewas - MPPCB",13-10-2025 07:00:00,22.9682591,76.064118,CO,12,50,25
India,Madhya Pradesh,Gwalior,"City Center, Gwalior - MPPCB",13-10-2025 07:00:00,26.203442,78.193251,NO2,9,10,9
India,Madhya Pradesh,Gwalior,"City Center, Gwalior - MPPCB",13-10-2025 07:00:00,26.203442,78.193251,NH3,2,2,2
India,Madhya Pradesh,Gwalior,"City Center, Gwalior - MPPCB",13-10-2025 07:00:00,26.203442,78.193251,SO2,26,40,34
India,Madhya Pradesh,Gwalior,"Deen Dayal Nagar, Gwalior - MPPCB",13-10-2025 07:00:00,26.259242,78.216432,NH3,4,7,5
India,Madhya Pradesh,Gwalior,"Maharaj Bada, Gwalior - MPPCB",13-10-2025 07:00:00,26.200388,78.147714,PM2.5,57,300,100
India,Karnataka,Bengaluru,"Peenya, Bengaluru - CPCB",13-10-2025 07:00:00,13.0270199,77.494094,CO,22,32,28
India,Karnataka,Bengaluru,"RVCE-Mailasandra, Bengaluru - KSPCB",13-10-2025 07:00:00,12.921418,77.502466,NH3,5,5,5
India,Karnataka,Bengaluru,"RVCE-Mailasandra, Bengaluru - KSPCB",13-10-2025 07:00:00,12.921418,77.502466,OZONE,16,17,17
India,Karnataka,Bengaluru,"Silk Board, Bengaluru - KSPCB",13-10-2025 07:00:00,12.917348,77.622813,PM2.5,29,70,50
India,Karnataka,Bengaluru,"Silk Board, Bengaluru - KSPCB",13-10-2025 07:00:00,12.917348,77.622813,PM10,87,170,121
India,Karnataka,Bengaluru,"Silk Board, Bengaluru - KSPCB",13-10-2025 07:00:00,12.917348,77.622813,SO2,9,11,10
India,Kerala,Thiruvananthapuram,"Kariavattom, Thiruvananthapuram - Kerala PCB",13-10-2025 07:00:00,8.563700,76.886500,SO2,1,22,7
India,Karnataka,Shivamogga,"Vinoba Nagara, Shivamogga - KSPCB",13-10-2025 07:00:00,13.940000,75.555917,CO,23,39,34
India,Maharashtra,Amravati,"Shivneri Colony, Amravati - MPCB",13-10-2025 07:00:00,20.9402359,77.7895248,PM2.5,NA,NA,NA
India,Maharashtra,Amravati,"Shri Shivaji Science College, Amravati - MPCB",13-10-2025 07:00:00,20.939198,77.765701,SO2,9,23,12
India,Maharashtra,Aurangabad,"MIDC Chilkalthana, Aurangabad - MPCB",13-10-2025 07:00:00,19.875620,75.387310,NH3,1,3,2
India,Maharashtra,Aurangabad,"More Chowk Waluj, Aurangabad - MPCB",13-10-2025 07:00:00,19.8389439,75.244448,NO2,16,23,19
India,Maharashtra,Aurangabad,"More Chowk Waluj, Aurangabad - MPCB",13-10-2025 07:00:00,19.8389439,75.244448,CO,16,74,38
India,Maharashtra,Aurangabad,"Rachnakar Colony, Aurangabad - MPCB",13-10-2025 07:00:00,19.863756,75.321188,PM2.5,55,126,79
India,Madhya Pradesh,Sagar,"Civil Lines, Sagar - MPPCB",13-10-2025 07:00:00,23.838586,78.759431,PM2.5,45,262,111
India,Madhya Pradesh,Sagar,"Civil Lines, Sagar - MPPCB",13-10-2025 07:00:00,23.838586,78.759431,NO2,6,8,6
India,Madhya Pradesh,Satna,"Bandhavgar Colony, Satna - Birla Cement",13-10-2025 07:00:00,24.58434363,80.8549414,NO2,22,32,28
India,Madhya Pradesh,Singrauli,"Suryakiran Bhawan NCL, Singrauli - MPPCB",13-10-2025 07:00:00,24.108970,82.645580,NH3,6,6,6
India,Maharashtra,Ahmednagar,"Tarakpur, Ahmednagar - MPCB",13-10-2025 07:00:00,19.10122,74.73339,PM2.5,31,75,54
India,Maharashtra,Ahmednagar,"Tarakpur, Ahmednagar - MPCB",13-10-2025 07:00:00,19.10122,74.73339,OZONE,NA,NA,NA
India,Madhya Pradesh,Indore,"Residency Area, Indore - IMC",13-10-2025 07:00:00,22.7084,75.8815,CO,13,19,18
India,Madhya Pradesh,Jabalpur,"Govindh Bhavan Colony, Jabalpur - JMC",13-10-2025 07:00:00,23.163174,79.973061,NH3,1,1,1
India,Madhya Pradesh,Jabalpur,"Govindh Bhavan Colony, Jabalpur - JMC",13-10-2025 07:00:00,23.163174,79.973061,OZONE,5,107,9
India,Madhya Pradesh,Jabalpur,"Gupteshwar, Jabalpur - JMC",13-10-2025 07:00:00,23.142888,79.916147,PM2.5,NA,NA,NA
India,Madhya Pradesh,Jabalpur,"Gupteshwar, Jabalpur - JMC",13-10-2025 07:00:00,23.142888,79.916147,NH3,NA,NA,NA
India,Madhya Pradesh,Jabalpur,"Marhatal, Jabalpur - MPPCB",13-10-2025 07:00:00,23.168606,79.932247,SO2,4,34,23
India,Madhya Pradesh,Katni,"Gole Bazar, Katni - MPPCB",13-10-2025 07:00:00,23.50016,80.23284,NH3,3,3,3
