country,state,city,station,last_update,latitude,longitude,pollutant_id,min_value,max_value,avg_value
India,Andhra_Pradesh,Tirupati,"Vaikuntapuram, Tirupati - APPCB",01-01-2026 08:00:00,13.615387,79.409230,PM10,13,430,108
India,Andhra_Pradesh,Tirupati,"Vaikuntapuram, Tirupati - APPCB",01-01-2026 08:00:00,13.615387,79.409230,NH3,4,4,4
India,Andhra_Pradesh,Tirupati,"Vaikuntapuram, Tirupati - APPCB",01-01-2026 08:00:00,13.615387,79.409230,CO,29,38,33
India,Andhra_Pradesh,Rajamahendravaram,"Anand Kala Kshetram, Rajamahendravaram - APPCB",01-01-2026 08:00:00,16.9872867,81.7363176,OZONE,9,29,14
India,Andhra_Pradesh,Amaravati,"Secretariat, Amaravati - APPCB",01-01-2026 08:00:00,16.5150833,80.5181667,PM2.5,176,305,227
India,Andhra_Pradesh,Chittoor,"Gangineni Cheruvu, Chittoor - APPCB",01-01-2026 08:00:00,13.204880,79.097889,SO2,5,34,15
India,Andhra_Pradesh,Vijayawada,"HB Colony, Vijayawada - APPCB",01-01-2026 08:00:00,16.536107,80.594233,PM10,52,500,172
India,Andhra_Pradesh,Anantapur,"Gulzarpet, Anantapur - APPCB",01-01-2026 08:00:00,14.675886,77.593027,PM10,31,408,142
India,Andhra_Pradesh,Vijayawada,"HB Colony, Vijayawada - APPCB",01-01-2026 08:00:00,16.536107,80.594233,SO2,8,21,13
India,Andhra_Pradesh,Kadapa,"Yerramukkapalli, Kadapa - APPCB",01-01-2026 08:00:00,14.465052,78.824187,NO2,20,26,24
India,Andhra_Pradesh,Kadapa,"Yerramukkapalli, Kadapa - APPCB",01-01-2026 08:00:00,14.465052,78.824187,SO2,11,17,15
India,Andhra_Pradesh,Anantapur,"Gulzarpet, Anantapur - APPCB",01-01-2026 08:00:00,14.675886,77.593027,CO,16,39,29
India,Assam,Sivasagar,"Girls College, Sivasagar - PCBA",01-01-2026 08:00:00,26.987634,94.636574,CO,30,109,60
India,Bihar,Araria,"Kharahiya Basti, Araria - BSPCB",01-01-2026 08:00:00,26.146529,87.454184,PM2.5,83,331,198
India,Bihar,Araria,"Kharahiya Basti, Araria - BSPCB",01-01-2026 08:00:00,26.146529,87.454184,CO,30,62,49
India,Bihar,Arrah,"New DM Office, Arrah - BSPCB",01-01-2026 08:00:00,25.5626095,84.663264,PM10,77,110,92
India,Bihar,Arrah,"New DM Office, Arrah - BSPCB",01-01-2026 08:00:00,25.5626095,84.663264,SO2,9,10,10
India,Bihar,Arrah,"New DM Office, Arrah - BSPCB",01-01-2026 08:00:00,25.5626095,84.663264,CO,34,70,51
India,Bihar,Aurangabad,"Gurdeo Nagar, Aurangabad - BSPCB",01-01-2026 08:00:00,24.75746,84.366208,PM2.5,48,287,101
India,Bihar,Aurangabad,"Gurdeo Nagar, Aurangabad - BSPCB",01-01-2026 08:00:00,24.75746,84.366208,NH3,1,2,2
India,Bihar,Begusarai,"Lohiyanagar, Begusarai - BSPCB",01-01-2026 08:00:00,25.42742023,86.13886079,PM2.5,89,262,157
India,Bihar,Begusarai,"Lohiyanagar, Begusarai - BSPCB",01-01-2026 08:00:00,25.42742023,86.13886079,SO2,97,104,102
India,Bihar,Bettiah,"Kamalnath Nagar, Bettiah - BSPCB",01-01-2026 08:00:00,26.80365,84.51954,PM10,87,236,139
India,Bihar,Bettiah,"Kamalnath Nagar, Bettiah - BSPCB",01-01-2026 08:00:00,26.80365,84.51954,NO2,7,9,8
India,Assam,Guwahati,"Pan Bazaar, Guwahati - PCBA",01-01-2026 08:00:00,26.187500,91.744194,SO2,13,25,19
India,Assam,Nalbari,"Bata Chowk, Nalbari - PCBA",01-01-2026 08:00:00,26.446912,91.439057,PM10,100,125,112
India,Assam,Nalbari,"Bata Chowk, Nalbari - PCBA",01-01-2026 08:00:00,26.446912,91.439057,CO,20,22,20
India,Assam,Silchar,"Tarapur, Silchar - PCBA",01-01-2026 08:00:00,24.82827,92.79525,CO,27,50,38
India,Andhra_Pradesh,Vijayawada,"Rajiv Nagar, Vijayawada - APPCB",01-01-2026 08:00:00,16.554731,80.649110,CO,28,46,46
India,Andhra_Pradesh,Visakhapatnam,"GVM Corporation, Visakhapatnam - APPCB",01-01-2026 08:00:00,17.72,83.3,PM2.5,243,353,302
India,Andhra_Pradesh,Visakhapatnam,"GVM Corporation, Visakhapatnam - APPCB",01-01-2026 08:00:00,17.72,83.3,SO2,11,41,22
India,Arunachal_Pradesh,Naharlagun,"Naharlagun, Naharlagun - APSPCB",01-01-2026 08:00:00,27.103358,93.679645,NO2,6,8,7
India,Assam,Byrnihat,"Central Academy for SFS, Byrnihat - PCBA",01-01-2026 08:00:00,26.071318,91.87488,PM2.5,102,247,148
India,Andhra_Pradesh,Vijayawada,"Rajiv Gandhi Park, Vijayawada - APPCB",01-01-2026 08:00:00,16.509717,80.612222,NO2,40,74,48
India,Andhra_Pradesh,Vijayawada,"Rajiv Gandhi Park, Vijayawada - APPCB",01-01-2026 08:00:00,16.509717,80.612222,NH3,3,6,5
India,Andhra_Pradesh,Visakhapatnam,"GVM Corporation, Visakhapatnam - APPCB",01-01-2026 08:00:00,17.72,83.3,OZONE,33,91,67
India,Andhra_Pradesh,Vijayawada,"Kanuru, Vijayawada - APPCB",01-01-2026 08:00:00,16.486692,80.699436,CO,44,66,59
India,Assam,Guwahati,"LGBI Airport, Guwahati - PCBA",01-01-2026 08:00:00,26.10887,91.589544,CO,18,109,35
India,Bihar,Bettiah,"Kamalnath Nagar, Bettiah - BSPCB",01-01-2026 08:00:00,26.80365,84.51954,OZONE,22,24,23
India,Bihar,Bhagalpur,"Mayaganj, Bhagalpur - BSPCB",01-01-2026 08:00:00,25.265194,87.012947,PM10,39,180,94
India,Bihar,Bhagalpur,"Mayaganj, Bhagalpur - BSPCB",01-01-2026 08:00:00,25.265194,87.012947,SO2,52,60,56
India,Bihar,Bhagalpur,"Mayaganj, Bhagalpur - BSPCB",01-01-2026 08:00:00,25.265194,87.012947,OZONE,9,37,12
India,Bihar,Bihar Sharif,"D M Colony, Bihar Sharif - BSPCB",01-01-2026 08:00:00,25.204762,85.514960,NO2,9,10,9
India,Bihar,Buxar,"Charitra Van, Buxar - BSPCB",01-01-2026 08:00:00,25.567520,83.966379,NH3,3,3,3
India,Bihar,Chhapra,"Darshan Nagar, Chhapra - BSPCB",01-01-2026 08:00:00,25.7808257,84.7446768,PM2.5,NA,NA,NA
India,Bihar,Chhapra,"Darshan Nagar, Chhapra - BSPCB",01-01-2026 08:00:00,25.7808257,84.7446768,NH3,NA,NA,NA
India,Bihar,Gaya,"Collectorate, Gaya - BSPCB",01-01-2026 08:00:00,24.7955,84.9994,OZONE,19,21,20
India,Bihar,Gaya,"Kareemganj, Gaya - BSPCB",01-01-2026 08:00:00,24.792403,84.992416,PM10,106,261,147
India,Bihar,Gaya,"Kareemganj, Gaya - BSPCB",01-01-2026 08:00:00,24.792403,84.992416,SO2,15,18,16
India,Bihar,Gaya,"SFTI Kusdihra, Gaya - BSPCB",01-01-2026 08:00:00,24.762518,84.982348,PM10,67,127,94
India,Bihar,Gaya,"SFTI Kusdihra, Gaya - BSPCB",01-01-2026 08:00:00,24.762518,84.982348,NO2,18,23,21
India,Bihar,Gaya,"SFTI Kusdihra, Gaya - BSPCB",01-01-2026 08:00:00,24.762518,84.982348,SO2,7,9,7
India,Bihar,Katihar,"Mirchaibari, Katihar - BSPCB",01-01-2026 08:00:00,25.560083,87.553265,PM10,40,119,85
India,Bihar,Katihar,"Mirchaibari, Katihar - BSPCB",01-01-2026 08:00:00,25.560083,87.553265,SO2,16,22,20
India,Bihar,Kishanganj,"SDM Office_Khagra, Kishanganj - BSPCB",01-01-2026 08:00:00,26.0881305,87.93840336,PM10,95,210,151
India,Bihar,Manguraha,"Forest Rest House, Manguraha - BSPCB",01-01-2026 08:00:00,27.308328,84.531742,PM2.5,7,160,84
India,Bihar,Manguraha,"Forest Rest House, Manguraha - BSPCB",01-01-2026 08:00:00,27.308328,84.531742,NH3,1,1,1
India,Bihar,Manguraha,"Forest Rest House, Manguraha - BSPCB",01-01-2026 08:00:00,27.308328,84.531742,OZONE,9,10,10
India,Bihar,Motihari,"Gandak Colony, Motihari - BSPCB",01-01-2026 08:00:00,26.63086,84.90051,PM2.5,35,200,121
India,Bihar,Motihari,"Gandak Colony, Motihari - BSPCB",01-01-2026 08:00:00,26.63086,84.90051,OZONE,3,5,3
India,Bihar,Munger,"Town Hall, Munger - BSPCB",01-01-2026 08:00:00,25.376776,86.471523,PM2.5,18,147,76
India,Bihar,Muzaffarpur,"Buddha Colony, Muzaffarpur - BSPCB",01-01-2026 08:00:00,26.11442,85.39813,PM2.5,170,310,254
India,Bihar,Motihari,"Gandak Colony, Motihari - BSPCB",01-01-2026 08:00:00,26.63086,84.90051,PM10,33,130,100
India,Bihar,Motihari,"Gandak Colony, Motihari - BSPCB",01-01-2026 08:00:00,26.63086,84.90051,NO2,3,7,5
India,Bihar,Patna,"Govt. High School Shikarpur, Patna - BSPCB",01-01-2026 08:00:00,25.592539,85.227158,PM10,86,500,173
India,Bihar,Muzaffarpur,"MIT-Daudpur Kothi, Muzaffarpur - BSPCB",01-01-2026 08:00:00,26.1403345,85.3650192,PM10,67,75,72
India,Bihar,Patna,"Govt. High School Shikarpur, Patna - BSPCB",01-01-2026 08:00:00,25.592539,85.227158,NO2,13,21,17
India,Bihar,Muzaffarpur,"Muzaffarpur Collectorate, Muzaffarpur - BSPCB",01-01-2026 08:00:00,26.1209,85.3647,PM2.5,93,137,117
India,Bihar,Patna,"IGSC Planetarium Complex, Patna - BSPCB",01-01-2026 08:00:00,25.610369,85.132568,NO2,1,21,18
India,Bihar,Muzaffarpur,"Muzaffarpur Collectorate, Muzaffarpur - BSPCB",01-01-2026 08:00:00,26.1209,85.3647,SO2,4,6,5
India,Bihar,Muzaffarpur,"Buddha Colony, Muzaffarpur - BSPCB",01-01-2026 08:00:00,26.11442,85.39813,CO,40,104,67
India,Bihar,Patna,"DRM Office Danapur, Patna - BSPCB",01-01-2026 08:00:00,25.586562,85.043586,SO2,13,27,19
India,Bihar,Muzaffarpur,"Buddha Colony, Muzaffarpur - BSPCB",01-01-2026 08:00:00,26.11442,85.39813,SO2,4,10,6
India,Bihar,Siwan,"Chitragupta Nagar, Siwan - BSPCB",01-01-2026 08:00:00,26.2271665,84.3570427,NH3,1,1,1
India,Bihar,Siwan,"Chitragupta Nagar, Siwan - BSPCB",01-01-2026 08:00:00,26.2271665,84.3570427,CO,52,116,69
India,Bihar,Siwan,"Chitragupta Nagar, Siwan - BSPCB",01-01-2026 08:00:00,26.2271665,84.3570427,OZONE,17,18,18
India,Chandigarh,Chandigarh,"Sector 22, Chandigarh - CPCC",01-01-2026 08:00:00,30.735567,76.775714,PM2.5,233,324,290
India,Chandigarh,Chandigarh,"Sector 22, Chandigarh - CPCC",01-01-2026 08:00:00,30.735567,76.775714,CO,69,114,78
India,Chandigarh,Chandigarh,"Sector-25, Chandigarh - CPCC",01-01-2026 08:00:00,30.751462,76.762879,PM2.5,273,326,302
India,Chandigarh,Chandigarh,"Sector-25, Chandigarh - CPCC",01-01-2026 08:00:00,30.751462,76.762879,PM10,140,176,157
India,Chandigarh,Chandigarh,"Sector-53, Chandigarh - CPCC",01-01-2026 08:00:00,30.719859,76.738637,NO2,31,94,55
India,Chhattisgarh,Bhilai,"32Bungalows, Bhilai - CECB",01-01-2026 08:00:00,21.194815,81.314770,PM2.5,18,49,34
India,Chhattisgarh,Bhilai,"32Bungalows, Bhilai - CECB",01-01-2026 08:00:00,21.194815,81.314770,PM10,30,77,59
India,Chhattisgarh,Bhilai,"Hathkhoj, Bhilai - CECB",01-01-2026 08:00:00,21.224231,81.408350,NO2,10,53,32
India,Chhattisgarh,Bhilai,"Hathkhoj, Bhilai - CECB",01-01-2026 08:00:00,21.224231,81.408350,CO,15,104,75
India,Chhattisgarh,Bilaspur,"Mangala, Bilaspur - NTPC",01-01-2026 08:00:00,22.08815,82.13737,CO,28,112,59
India,Chhattisgarh,Korba,"Rampur, Korba - CECB",01-01-2026 08:00:00,22.368195,82.746431,NO2,17,55,31
India,Bihar,Purnia,"Mariam Nagar, Purnia - BSPCB",01-01-2026 08:00:00,25.366336,87.117468,NH3,3,3,3
India,Bihar,Purnia,"Mariam Nagar, Purnia - BSPCB",01-01-2026 08:00:00,25.366336,87.117468,SO2,16,19,17
India,Bihar,Purnia,"Mariam Nagar, Purnia - BSPCB",01-01-2026 08:00:00,25.366336,87.117468,CO,54,68,65
India,Bihar,Saharsa,"Police Line, Saharsa - BSPCB",01-01-2026 08:00:00,25.892357,86.590325,CO,36,48,39
India,Bihar,Saharsa,"Police Line, Saharsa - BSPCB",01-01-2026 08:00:00,25.892357,86.590325,OZONE,9,11,10
India,Bihar,Saharsa,"Police Line, Saharsa - BSPCB",01-01-2026 08:00:00,25.892357,86.590325,PM2.5,33,306,121
India,Bihar,Saharsa,"Police Line, Saharsa - BSPCB",01-01-2026 08:00:00,25.892357,86.590325,PM10,48,271,126
India,Bihar,Patna,"Rajbansi Nagar, Patna - BSPCB",01-01-2026 08:00:00,25.599486,85.113666,OZONE,21,29,24
India,Chhattisgarh,Korba,"Urja Nagar, Korba - CECB",01-01-2026 08:00:00,22.348441,82.549611,NO2,16,24,20
India,Chhattisgarh,Raipur,"Siltara Phase-II, Raipur - CECB",01-01-2026 08:00:00,21.371751,81.664929,PM2.5,27,225,97
India,Chhattisgarh,Raipur,"Siltara Phase-II, Raipur - CECB",01-01-2026 08:00:00,21.371751,81.664929,PM10,52,164,110
India,Chhattisgarh,Raipur,"AIIMS, Raipur - CECB",01-01-2026 08:00:00,21.258815,81.578979,SO2,NA,NA,NA
India,Chhattisgarh,Raipur,"AIIMS, Raipur - CECB",01-01-2026 08:00:00,21.258815,81.578979,CO,NA,NA,NA
India,Chhattisgarh,Milupara,"Govt. Higher Secondary School, Milupara - CECB",01-01-2026 08:00:00,22.1910172,83.5197009,PM10,56,282,91
India,Chhattisgarh,Tumidih,"OP Jindal Industrial Park, Tumidih - CECB",01-01-2026 08:00:00,22.06631475,83.33820077,PM10,49,434,150
India,Chhattisgarh,Milupara,"Govt. Higher Secondary School, Milupara - CECB",01-01-2026 08:00:00,22.1910172,83.5197009,NH3,1,2,2
India,Chhattisgarh,Raipur,"Bhatagaon New ISBT, Raipur - CECB",01-01-2026 08:00:00,21.219665,81.630094,CO,54,111,91
India,Chhattisgarh,Raipur,"AIIMS, Raipur - CECB",01-01-2026 08:00:00,21.258815,81.578979,PM10,NA,NA,NA
India,Chhattisgarh,Raipur,"AIIMS, Raipur - CECB",01-01-2026 08:00:00,21.258815,81.578979,NH3,NA,NA,NA
India,Delhi,Delhi,"Alipur, Delhi - DPCC",01-01-2026 08:00:00,28.815329,77.153010,NH3,7,25,20
India,Delhi,Delhi,"Ashok Vihar, Delhi - DPCC",01-01-2026 08:00:00,28.695381,77.181665,PM10,187,422,331
India,Delhi,Delhi,"Ashok Vihar, Delhi - DPCC",01-01-2026 08:00:00,28.695381,77.181665,NO2,28,101,62
India,Delhi,Delhi,"Chandni Chowk, Delhi - IITM",01-01-2026 08:00:00,28.656756,77.227234,PM2.5,327,413,377
India,Delhi,Delhi,"Aya Nagar, Delhi - IMD",01-01-2026 08:00:00,28.4706914,77.1099364,PM2.5,191,378,327
India,Delhi,Delhi,"Chandni Chowk, Delhi - IITM",01-01-2026 08:00:00,28.656756,77.227234,OZONE,3,24,18
India,Delhi,Delhi,"Anand Vihar, Delhi - DPCC",01-01-2026 08:00:00,28.647622,77.3158090,SO2,17,37,26
India,Delhi,Delhi,"Chandni Chowk, Delhi - IITM",01-01-2026 08:00:00,28.656756,77.227234,NH3,7,10,9
India,Delhi,Delhi,"Aya Nagar, Delhi - IMD",01-01-2026 08:00:00,28.4706914,77.1099364,NO2,16,50,29
India,Delhi,Delhi,"Bawana, Delhi - DPCC",01-01-2026 08:00:00,28.776200,77.051074,CO,64,107,71
India,Delhi,Delhi,"Bawana, Delhi - DPCC",01-01-2026 08:00:00,28.776200,77.051074,SO2,6,9,8
India,Delhi,Delhi,"Mandir Marg, Delhi - DPCC",01-01-2026 08:00:00,28.636429,77.201067,NH3,11,18,15
India,Delhi,Delhi,"Mandir Marg, Delhi - DPCC",01-01-2026 08:00:00,28.636429,77.201067,OZONE,12,31,25
India,Delhi,Delhi,"Mundka, Delhi - DPCC",01-01-2026 08:00:00,28.684678,77.076574,OZONE,10,25,17
India,Delhi,Delhi,"NSIT Dwarka, Delhi - CPCB",01-01-2026 08:00:00,28.60909,77.0325413,SO2,14,25,19
India,Delhi,Delhi,"Najafgarh, Delhi - DPCC",01-01-2026 08:00:00,28.570173,76.933762,PM10,156,272,212
India,Delhi,Delhi,"IHBAS, Dilshad Garden, Delhi - CPCB",01-01-2026 08:00:00,28.6811736,77.3025234,PM10,147,306,219
India,Delhi,Delhi,"IHBAS, Dilshad Garden, Delhi - CPCB",01-01-2026 08:00:00,28.6811736,77.3025234,NO2,46,107,74
India,Delhi,Delhi,"IIT Delhi, Delhi - IITM",01-01-2026 08:00:00,28.542460,77.191651,PM10,142,302,220
India,Delhi,Delhi,"ITO, Delhi - CPCB",01-01-2026 08:00:00,28.628624,77.241060,SO2,3,21,14
India,Delhi,Delhi,"ITO, Delhi - CPCB",01-01-2026 08:00:00,28.628624,77.241060,CO,42,101,55
India,Delhi,Delhi,"Jawaharlal Nehru Stadium, Delhi - DPCC",01-01-2026 08:00:00,28.580280,77.233829,NO2,35,81,61
India,Delhi,Delhi,"Major Dhyan Chand National Stadium, Delhi - DPCC",01-01-2026 08:00:00,28.611281,77.237738,PM10,164,388,263
India,Delhi,Delhi,"Mandir Marg, Delhi - DPCC",01-01-2026 08:00:00,28.636429,77.201067,PM2.5,143,413,347
India,Delhi,Delhi,"Mandir Marg, Delhi - DPCC",01-01-2026 08:00:00,28.636429,77.201067,PM10,152,401,269
India,Delhi,Delhi,"DTU, Delhi - CPCB",01-01-2026 08:00:00,28.7500499,77.1112615,NO2,56,72,68
India,Delhi,Delhi,"DTU, Delhi - CPCB",01-01-2026 08:00:00,28.7500499,77.1112615,CO,48,90,65
India,Delhi,Delhi,"Dwarka-Sector 8, Delhi - DPCC ",01-01-2026 08:00:00,28.5710274,77.0719006,PM2.5,342,442,394
India,Delhi,Delhi,"Dwarka-Sector 8, Delhi - DPCC ",01-01-2026 08:00:00,28.5710274,77.0719006,OZONE,6,26,22
India,Delhi,Delhi,"IGI Airport (T3), Delhi - IMD",01-01-2026 08:00:00,28.5627763,77.1180053,CO,54,100,62
India,Delhi,Delhi,"Jahangirpuri, Delhi - DPCC",01-01-2026 08:00:00,28.732820,77.170633,OZONE,4,17,13
India,Delhi,Delhi,"Najafgarh, Delhi - DPCC",01-01-2026 08:00:00,28.570173,76.933762,CO,58,116,71
India,Delhi,Delhi,"Narela, Delhi - DPCC",01-01-2026 08:00:00,28.822836,77.101981,PM10,164,456,326
India,Delhi,Delhi,"Narela, Delhi - DPCC",01-01-2026 08:00:00,28.822836,77.101981,NO2,21,49,36
India,Delhi,Delhi,"Narela, Delhi - DPCC",01-01-2026 08:00:00,28.822836,77.101981,SO2,4,19,9
India,Delhi,Delhi,"Narela, Delhi - DPCC",01-01-2026 08:00:00,28.822836,77.101981,OZONE,3,16,8
India,Delhi,Delhi,"Nehru Nagar, Delhi - DPCC",01-01-2026 08:00:00,28.567890,77.250515,PM10,162,399,272
India,Delhi,Delhi,"North Campus, DU, Delhi - IMD",01-01-2026 08:00:00,28.6573814,77.1585447,OZONE,NA,NA,NA
India,Delhi,Delhi,"Okhla Phase-2, Delhi - DPCC",01-01-2026 08:00:00,28.530785,77.271255,PM2.5,332,453,384
India,Delhi,Delhi,"Okhla Phase-2, Delhi - DPCC",01-01-2026 08:00:00,28.530785,77.271255,PM10,157,408,269
India,Delhi,Delhi,"Patparganj, Delhi - DPCC",01-01-2026 08:00:00,28.623763,77.287209,PM2.5,303,447,394
India,Delhi,Delhi,"Sri Aurobindo Marg, Delhi - DPCC",01-01-2026 08:00:00,28.531346,77.190156,PM2.5,302,404,354
India,Delhi,Delhi,"Sri Aurobindo Marg, Delhi - DPCC",01-01-2026 08:00:00,28.531346,77.190156,PM10,153,378,254
India,Delhi,Delhi,"Sri Aurobindo Marg, Delhi - DPCC",01-01-2026 08:00:00,28.531346,77.190156,SO2,1,13,7
India,Delhi,Delhi,"Pusa, Delhi - DPCC",01-01-2026 08:00:00,28.639652,77.146275,OZONE,4,9,7
India,Delhi,Delhi,"R K Puram, Delhi - DPCC",01-01-2026 08:00:00,28.563262,77.186937,PM2.5,325,431,381
India,Delhi,Delhi,"Punjabi Bagh, Delhi - DPCC",01-01-2026 08:00:00,28.674045,77.131023,CO,31,78,40
India,Delhi,Delhi,"Sirifort, Delhi - CPCB",01-01-2026 08:00:00,28.5504249,77.2159377,SO2,22,30,27
India,Delhi,Delhi,"R K Puram, Delhi - DPCC",01-01-2026 08:00:00,28.563262,77.186937,NH3,8,10,9
India,Delhi,Delhi,"Shadipur, Delhi - CPCB",01-01-2026 08:00:00,28.6514781,77.1473105,NH3,7,12,9
India,Delhi,Delhi,"Rohini, Delhi - DPCC",01-01-2026 08:00:00,28.732528,77.119920,OZONE,4,24,14
India,Delhi,Delhi,"Rohini, Delhi - DPCC",01-01-2026 08:00:00,28.732528,77.119920,SO2,10,15,12
India,Gujarat,Ahmedabad,"SAC ISRO Bopal, Ahmedabad - IITM",01-01-2026 08:00:00,23.041137,72.456691,OZONE,2,103,6
India,Gujarat,Ahmedabad,"SAC ISRO Satellite, Ahmedabad - IITM",01-01-2026 08:00:00,23.023389,72.515201,PM2.5,54,175,115
India,Gujarat,Ahmedabad,"SAC ISRO Satellite, Ahmedabad - IITM",01-01-2026 08:00:00,23.023389,72.515201,PM10,59,196,130
India,Delhi,Delhi,"Wazirpur, Delhi - DPCC",01-01-2026 08:00:00,28.699793,77.165453,SO2,4,7,6
India,Delhi,Delhi,"Wazirpur, Delhi - DPCC",01-01-2026 08:00:00,28.699793,77.165453,CO,63,102,69
India,Gujarat,Ahmedabad,"Raikhad, Ahmedabad - IITM",01-01-2026 08:00:00,23.020509,72.579261,PM10,NA,NA,NA
India,Gujarat,Ahmedabad,"Raikhad, Ahmedabad - IITM",01-01-2026 08:00:00,23.020509,72.579261,NO2,15,117,53
India,Gujarat,Ahmedabad,"SVPI Airport Hansol, Ahmedabad - IITM",01-01-2026 08:00:00,23.076793,72.627874,PM10,102,199,145
India,Gujarat,Ahmedabad,"Maninagar, Ahmedabad - GPCB",01-01-2026 08:00:00,23.002657,72.591912,PM10,65,258,120
India,Gujarat,Ahmedabad,"Chandkheda, Ahmedabad - IITM",01-01-2026 08:00:00,23.107969,72.574648,SO2,2,92,20
India,Gujarat,Ahmedabad,"Rakhial, Ahmedabad - IITM",01-01-2026 08:00:00,23.016834,72.625775,SO2,29,103,59
India,Gujarat,Ahmedabad,"Rakhial, Ahmedabad - IITM",01-01-2026 08:00:00,23.016834,72.625775,CO,2,114,16
India,Delhi,Delhi,"Vivek Vihar, Delhi - DPCC",01-01-2026 08:00:00,28.672342,77.315260,NO2,30,92,58
India,Haryana,Faridabad,"Sector 30, Faridabad - HSPCB",01-01-2026 08:00:00,28.4417,77.3217,CO,60,64,62
India,Haryana,Fatehabad,"Huda Sector, Fatehabad - HSPCB",01-01-2026 08:00:00,29.503664,75.467934,NO2,18,20,19
India,Haryana,Fatehabad,"Huda Sector, Fatehabad - HSPCB",01-01-2026 08:00:00,29.503664,75.467934,SO2,10,11,10
India,Haryana,Gurugram,"NISE Gwal Pahari, Gurugram - IMD",01-01-2026 08:00:00,28.422681,77.148944,OZONE,4,13,12
India,Haryana,Gurugram,"Sector-51, Gurugram - HSPCB",01-01-2026 08:00:00,28.4227,77.0667,NH3,6,10,8
India,Haryana,Gurugram,"Sector-51, Gurugram - HSPCB",01-01-2026 08:00:00,28.4227,77.0667,SO2,3,14,8
India,Haryana,Charkhi Dadri,"Mini Secretariat, Charkhi Dadri - HSPCB",01-01-2026 08:00:00,28.593883,76.270653,OZONE,13,17,15
India,Haryana,Faridabad,"New Industrial Town, Faridabad - HSPCB",01-01-2026 08:00:00,28.39072,77.30059,NO2,23,26,25
India,Haryana,Faridabad,"Sector 11, Faridabad - HSPCB",01-01-2026 08:00:00,28.376058,77.315741,CO,10,40,26
India,Haryana,Faridabad,"Sector 30, Faridabad - HSPCB",01-01-2026 08:00:00,28.4417,77.3217,PM2.5,224,227,225
India,Haryana,Faridabad,"Sector 30, Faridabad - HSPCB",01-01-2026 08:00:00,28.4417,77.3217,PM10,162,163,163
India,Haryana,Ambala,"Patti Mehar, Ambala - HSPCB",01-01-2026 08:00:00,30.379589,76.778328,CO,75,76,75
India,Haryana,Ballabgarh,"Nathu Colony, Ballabgarh - HSPCB",01-01-2026 08:00:00,28.3419248,77.319699,NO2,20,21,20
India,Haryana,Ballabgarh,"Nathu Colony, Ballabgarh - HSPCB",01-01-2026 08:00:00,28.3419248,77.319699,NH3,3,3,3
India,Haryana,Bhiwani,"H.B. Colony, Bhiwani - HSPCB",01-01-2026 08:00:00,28.806223,76.141105,NH3,1,9,8
India,Gujarat,Surat,"Science Center, Surat - SMC",01-01-2026 08:00:00,21.170046,72.795405,NO2,16,16,16
India,Gujarat,Vapi,"Phase-1 GIDC, Vapi - GPCB",01-01-2026 08:00:00,20.362421,72.918013,PM10,NA,NA,NA
India,Haryana,Ambala,"Patti Mehar, Ambala - HSPCB",01-01-2026 08:00:00,30.379589,76.778328,PM2.5,112,208,168
India,Gujarat,Ahmedabad,"SVPI Airport Hansol, Ahmedabad - IITM",01-01-2026 08:00:00,23.076793,72.627874,SO2,7,26,12
India,Gujarat,Ahmedabad,"SVPI Airport Hansol, Ahmedabad - IITM",01-01-2026 08:00:00,23.076793,72.627874,CO,34,115,68
India,Gujarat,Gandhinagar,"GIFT City, Gandhinagar - IITM",01-01-2026 08:00:00,23.163798,72.677768,NO2,24,111,62
India,Gujarat,Gandhinagar,"GIFT City, Gandhinagar - IITM",01-01-2026 08:00:00,23.163798,72.677768,CO,22,82,60
India,Gujarat,Gandhinagar,"Sector-10, Gandhinagar - GPCB",01-01-2026 08:00:00,23.221714,72.654328,SO2,8,15,12
India,Haryana,Hisar,"Urban Estate-II, Hisar - HSPCB",01-01-2026 08:00:00,29.140560,75.744941,NH3,NA,NA,NA
India,Haryana,Hisar,"Urban Estate-II, Hisar - HSPCB",01-01-2026 08:00:00,29.140560,75.744941,SO2,NA,NA,NA
India,Haryana,Charkhi Dadri,"Mini Secretariat, Charkhi Dadri - HSPCB",01-01-2026 08:00:00,28.593883,76.270653,SO2,9,11,10
India,Haryana,Hisar,"Urban Estate-II, Hisar - HSPCB",01-01-2026 08:00:00,29.140560,75.744941,PM2.5,NA,NA,NA
India,Haryana,Palwal,"Shyam Nagar, Palwal - HSPCB",01-01-2026 08:00:00,28.1485564,77.3320667,NO2,23,25,24
India,Haryana,Palwal,"Shyam Nagar, Palwal - HSPCB",01-01-2026 08:00:00,28.1485564,77.3320667,NH3,8,9,9
India,Haryana,Palwal,"Shyam Nagar, Palwal - HSPCB",01-01-2026 08:00:00,28.1485564,77.3320667,OZONE,15,24,16
India,Haryana,Panchgaon,"Amity University, Panchgaon - IITM",01-01-2026 08:00:00,28.3153,76.9143,PM2.5,1,200,54
India,Haryana,Mandikhera,"General Hospital, Mandikhera(Nuh) - HSPCB",01-01-2026 08:00:00,27.9002,76.9938,CO,66,86,75
India,Haryana,Mandikhera,"General Hospital, Mandikhera(Nuh) - HSPCB",01-01-2026 08:00:00,27.9002,76.9938,OZONE,25,30,27
India,Haryana,Manesar,"Sector-2 IMT, Manesar - HSPCB",01-01-2026 08:00:00,28.360699,76.936090,PM2.5,153,287,212
India,Haryana,Panchkula,"Sector-6, Panchkula - HSPCB ",01-01-2026 08:00:00,30.7057778,76.8531805555555,NO2,24,28,25
India,Haryana,Panchkula,"Sector-6, Panchkula - HSPCB ",01-01-2026 08:00:00,30.7057778,76.8531805555555,SO2,13,14,13
India,Haryana,Kaithal,"Rishi Nagar, Kaithal - HSPCB",01-01-2026 08:00:00,29.8006,76.4155,NH3,NA,NA,NA
India,Haryana,Kaithal,"Rishi Nagar, Kaithal - HSPCB",01-01-2026 08:00:00,29.8006,76.4155,OZONE,NA,NA,NA
India,Haryana,Mandikhera,"General Hospital, Mandikhera(Nuh) - HSPCB",01-01-2026 08:00:00,27.9002,76.9938,PM10,NA,NA,NA
India,Haryana,Panipat,"Sector-18, Panipat - HSPCB",01-01-2026 08:00:00,29.432304,76.972765,PM2.5,138,376,328
India,Haryana,Narnaul,"Shastri Nagar, Narnaul - HSPCB",01-01-2026 08:00:00,28.060249,76.113115,NH3,11,24,16
India,Haryana,Jind,"Police Lines, Jind - HSPCB",01-01-2026 08:00:00,29.307814,76.337619,NH3,1,3,2
India,Haryana,Kaithal,"Rishi Nagar, Kaithal - HSPCB",01-01-2026 08:00:00,29.8006,76.4155,PM10,NA,NA,NA
India,Karnataka,Bengaluru,"BWSSB Kadabesanahalli, Bengaluru - CPCB",01-01-2026 08:00:00,12.9352049,77.6814488,OZONE,13,95,31
India,Karnataka,Bengaluru,"City Railway Station, Bengaluru - KSPCB",01-01-2026 08:00:00,12.9756843,77.5660749,PM10,93,98,97
India,Karnataka,Bengaluru,"City Railway Station, Bengaluru - KSPCB",01-01-2026 08:00:00,12.9756843,77.5660749,NO2,31,35,33
India,Karnataka,Bengaluru,"Hebbal, Bengaluru - KSPCB",01-01-2026 08:00:00,13.029152,77.585901,NH3,1,1,1
India,Karnataka,Bengaluru,"Hombegowda Nagar, Bengaluru - KSPCB",01-01-2026 08:00:00,12.938539,77.590100,PM2.5,32,58,48
India,Haryana,Rohtak,"MD University, Rohtak - HSPCB",01-01-2026 08:00:00,28.52123,76.37138,CO,NA,NA,NA
India,Haryana,Sirsa,"F-Block, Sirsa - HSPCB",01-01-2026 08:00:00,29.536400,75.015800,OZONE,42,55,49
India,Haryana,Sonipat,"Murthal, Sonipat - HSPCB",01-01-2026 08:00:00,29.027200,77.062100,PM10,89,167,130
India,Haryana,Yamuna Nagar,"Gobind Pura, Yamuna Nagar - HSPCB",01-01-2026 08:00:00,30.1480566,77.2893471,NO2,36,38,37
India,Himachal Pradesh,Baddi,"HIMUDA Complex Phase-1, Baddi - HPPCB",01-01-2026 08:00:00,30.943887,76.801991,NH3,2,7,5
India,Jammu_and_Kashmir,Pampore,"Khrew, Pampore - JKPCC",01-01-2026 08:00:00,34.031606,75.009712,PM10,54,67,61
India,Jammu_and_Kashmir,Pampore,"Khrew, Pampore - JKPCC",01-01-2026 08:00:00,34.031606,75.009712,SO2,2,3,2
India,Karnataka,Belgaum,"Ramteerth Nagar, Belgaum - KSPCB",01-01-2026 08:00:00,15.888653,74.541751,NO2,25,110,60
India,Karnataka,Belgaum,"Ramteerth Nagar, Belgaum - KSPCB",01-01-2026 08:00:00,15.888653,74.541751,SO2,24,25,24
India,Himachal Pradesh,Baddi,"HIMUDA Complex Phase-1, Baddi - HPPCB",01-01-2026 08:00:00,30.943887,76.801991,CO,70,112,84
India,Karnataka,Bengaluru,"BTM Layout, Bengaluru - CPCB",01-01-2026 08:00:00,12.9135218,77.5950804,PM10,109,110,109
India,Jammu_and_Kashmir,Srinagar,"Rajbagh, Srinagar - JKPCC",01-01-2026 08:00:00,34.066206,74.819820,OZONE,NA,NA,NA
India,Karnataka,Bagalkot,"Vidayagiri, Bagalkot - KSPCB",01-01-2026 08:00:00,16.172806,75.659694,NO2,11,12,12
India,Karnataka,Madikeri,"Stuart Hill, Madikeri - KSPCB",01-01-2026 08:00:00,12.415911,75.735050,PM2.5,43,71,58
India,Karnataka,Mysuru,"Hebbal 1st Stage, Mysuru - KSPCB",01-01-2026 08:00:00,12.21041,76.37376,PM2.5,55,69,63
India,Karnataka,Mysuru,"Hebbal 1st Stage, Mysuru - KSPCB",01-01-2026 08:00:00,12.21041,76.37376,SO2,2,12,5
India,Karnataka,Bengaluru,"Peenya, Bengaluru - CPCB",01-01-2026 08:00:00,13.0270199,77.494094,NH3,4,4,4
India,Karnataka,Bengaluru,"Peenya, Bengaluru - CPCB",01-01-2026 08:00:00,13.0270199,77.494094,SO2,7,20,12
India,Karnataka,Bengaluru,"Peenya, Bengaluru - CPCB",01-01-2026 08:00:00,13.0270199,77.494094,CO,23,60,35
India,Karnataka,Bengaluru,"Peenya, Bengaluru - CPCB",01-01-2026 08:00:00,13.0270199,77.494094,OZONE,20,21,21
India,Karnataka,Kalaburagi,"Mahatma Basaveswar Colony, Kalaburgi - KSPCB",01-01-2026 08:00:00,17.336318,76.847397,PM2.5,33,70,49
India,Karnataka,Kalaburagi,"Mahatma Basaveswar Colony, Kalaburgi - KSPCB",01-01-2026 08:00:00,17.336318,76.847397,PM10,41,89,62
India,Karnataka,Kalaburagi,"Mahatma Basaveswar Colony, Kalaburgi - KSPCB",01-01-2026 08:00:00,17.336318,76.847397,CO,36,122,72
India,Karnataka,Bengaluru,"Kasturi Nagar, Bengaluru - KSPCB",01-01-2026 08:00:00,13.003872,77.664217,NO2,31,37,33
India,Karnataka,Bengaluru,"Kasturi Nagar, Bengaluru - KSPCB",01-01-2026 08:00:00,13.003872,77.664217,SO2,9,14,12
India,Karnataka,Bengaluru,"Jayanagar 5th Block, Bengaluru - KSPCB",01-01-2026 08:00:00,12.920984,77.584908,NO2,6,40,19
India,Karnataka,Bengaluru,"Shivapura_Peenya, Bengaluru - KSPCB",01-01-2026 08:00:00,13.0246342,77.5080115,CO,49,68,56
India,Karnataka,Hubballi,"Lingaraj Nagar, Hubballi - KSPCB",01-01-2026 08:00:00,15.3714823,75.1160168,OZONE,13,18,13
India,Karnataka,Mysuru,"Hebbal 1st Stage, Mysuru - KSPCB",01-01-2026 08:00:00,12.21041,76.37376,OZONE,5,41,12
India,Karnataka,Chamarajanagar,"Urban, Chamarajanagar - KSPCB",01-01-2026 08:00:00,11.55358,76.55521,CO,17,121,36
India,Kerala,Eloor,"Udyogamandal, Eloor - Kerala PCB",01-01-2026 08:00:00,10.073232,76.302765,PM10,75,114,96
India,Kerala,Eloor,"Udyogamandal, Eloor - Kerala PCB",01-01-2026 08:00:00,10.073232,76.302765,SO2,1,1,1
India,Kerala,Eloor,"Udyogamandal, Eloor - Kerala PCB",01-01-2026 08:00:00,10.073232,76.302765,OZONE,11,21,13
India,Kerala,Kannur,"Thavakkara, Kannur - Kerala PCB",01-01-2026 08:00:00,11.875000,75.373200,PM10,65,76,68
India,Karnataka,Ramanagara,"Vijay Nagar, Ramanagara - KSPCB",01-01-2026 08:00:00,12.733409,77.298051,OZONE,NA,NA,NA
India,Karnataka,Shivamogga,"Vinoba Nagara, Shivamogga - KSPCB",01-01-2026 08:00:00,13.940000,75.555917,PM2.5,27,49,36
India,Karnataka,Shivamogga,"Vinoba Nagara, Shivamogga - KSPCB",01-01-2026 08:00:00,13.940000,75.555917,PM10,40,71,52
India,Kerala,Kollam,"Polayathode, Kollam - Kerala PCB",01-01-2026 08:00:00,8.8787,76.6073,OZONE,29,34,29
India,Kerala,Thiruvananthapuram,"Kariavattom, Thiruvananthapuram - Kerala PCB",01-01-2026 08:00:00,8.563700,76.886500,PM2.5,133,304,210
India,Karnataka,Shivamogga,"Vinoba Nagara, Shivamogga - KSPCB",01-01-2026 08:00:00,13.940000,75.555917,SO2,1,8,4
India,Karnataka,Tumakuru,"Thimmalapura, Tumakuru - KSPCB",01-01-2026 08:00:00,13.377516,77.099072,PM2.5,95,260,138
India,Karnataka,Vijayapura,"Ibrahimpur, Vijayapura - KSPCB",01-01-2026 08:00:00,16.802639,75.722694,PM2.5,26,31,30
India,Karnataka,Vijayapura,"Ibrahimpur, Vijayapura - KSPCB",01-01-2026 08:00:00,16.802639,75.722694,CO,10,122,34
India,Karnataka,Ramanagara,"Vijay Nagar, Ramanagara - KSPCB",01-01-2026 08:00:00,12.733409,77.298051,PM2.5,NA,NA,NA
India,Karnataka,Ramanagara,"Vijay Nagar, Ramanagara - KSPCB",01-01-2026 08:00:00,12.733409,77.298051,PM10,NA,NA,NA
India,Karnataka,Ramanagara,"Vijay Nagar, Ramanagara - KSPCB",01-01-2026 08:00:00,12.733409,77.298051,SO2,NA,NA,NA
India,Karnataka,Tumakuru,"Thimmalapura, Tumakuru - KSPCB",01-01-2026 08:00:00,13.377516,77.099072,NO2,31,32,32
India,Kerala,Kollam,"Polayathode, Kollam - Kerala PCB",01-01-2026 08:00:00,8.8787,76.6073,NH3,1,1,1
India,Madhya Pradesh,Gwalior,"Deen Dayal Nagar, Gwalior - MPPCB",01-01-2026 08:00:00,26.259242,78.216432,PM2.5,80,324,211
India,Madhya Pradesh,Gwalior,"Maharaj Bada, Gwalior - MPPCB",01-01-2026 08:00:00,26.200388,78.147714,PM2.5,103,305,210
India,Madhya Pradesh,Indore,"Airport Area, Indore - IMC",01-01-2026 08:00:00,22.7289,75.8076,PM2.5,151,441,271
India,Madhya Pradesh,Indore,"Airport Area, Indore - IMC",01-01-2026 08:00:00,22.7289,75.8076,NO2,2,4,3
India,Madhya Pradesh,Dewas,"Bhopal Chauraha, Dewas - MPPCB",01-01-2026 08:00:00,22.9682591,76.064118,PM10,NA,NA,NA
India,Madhya Pradesh,Dewas,"Bhopal Chauraha, Dewas - MPPCB",01-01-2026 08:00:00,22.9682591,76.064118,SO2,NA,NA,NA
India,Madhya Pradesh,Dewas,"Bhopal Chauraha, Dewas - MPPCB",01-01-2026 08:00:00,22.9682591,76.064118,OZONE,NA,NA,NA
India,Madhya Pradesh,Gwalior,"City Center, Gwalior - MPPCB",01-01-2026 08:00:00,26.203442,78.193251,PM2.5,78,280,178
India,Madhya Pradesh,Jabalpur,"Gupteshwar, Jabalpur - JMC",01-01-2026 08:00:00,23.142888,79.916147,NH3,2,2,2
India,Madhya Pradesh,Jabalpur,"Marhatal, Jabalpur - MPPCB",01-01-2026 08:00:00,23.168606,79.932247,CO,46,127,59
India,Madhya Pradesh,Jabalpur,"Marhatal, Jabalpur - MPPCB",01-01-2026 08:00:00,23.168606,79.932247,OZONE,13,213,34
India,Madhya Pradesh,Bhopal,"T T Nagar, Bhopal - MPPCB",01-01-2026 08:00:00,23.233584,77.400574,PM2.5,70,317,172
India,Madhya Pradesh,Bhopal,"T T Nagar, Bhopal - MPPCB",01-01-2026 08:00:00,23.233584,77.400574,PM10,105,264,155
India,Madhya Pradesh,Bhopal,"T T Nagar, Bhopal - MPPCB",01-01-2026 08:00:00,23.233584,77.400574,NO2,64,133,103
India,Madhya Pradesh,Gwalior,"City Center, Gwalior - MPPCB",01-01-2026 08:00:00,26.203442,78.193251,SO2,11,32,23
India,Madhya Pradesh,Gwalior,"City Center, Gwalior - MPPCB",01-01-2026 08:00:00,26.203442,78.193251,OZONE,17,52,19
India,Kerala,Thiruvananthapuram,"Plammoodu, Thiruvananthapuram - Kerala PCB",01-01-2026 08:00:00,8.5149093,76.9435879,CO,12,45,14
India,Madhya Pradesh,Jabalpur,"Govindh Bhavan Colony, Jabalpur - JMC",01-01-2026 08:00:00,23.163174,79.973061,CO,36,53,45
India,Madhya Pradesh,Bhopal,"Paryavaran Parisar, Bhopal - MPPCB",01-01-2026 08:00:00,23.210494,77.425409,PM10,84,404,185
India,Madhya Pradesh,Indore,"Maguda Nagar, Indore - IMC",01-01-2026 08:00:00,22.7524,75.8872,PM2.5,NA,NA,NA
India,Madhya Pradesh,Ratlam,"Shasthri Nagar, Ratlam - IPCA Lab",01-01-2026 08:00:00,23.331731,75.045981,PM10,98,410,182
India,Madhya Pradesh,Ratlam,"Shasthri Nagar, Ratlam - IPCA Lab",01-01-2026 08:00:00,23.331731,75.045981,NO2,2,15,7
India,Madhya Pradesh,Singrauli,"Suryakiran Bhawan NCL, Singrauli - MPPCB",01-01-2026 08:00:00,24.108970,82.645580,NO2,24,125,86
India,Madhya Pradesh,Singrauli,"Suryakiran Bhawan NCL, Singrauli - MPPCB",01-01-2026 08:00:00,24.108970,82.645580,SO2,6,78,29
India,Madhya Pradesh,Sagar,"Civil Lines, Sagar - MPPCB",01-01-2026 08:00:00,23.838586,78.759431,NH3,1,3,1
India,Madhya Pradesh,Sagar,"Civil Lines, Sagar - MPPCB",01-01-2026 08:00:00,23.838586,78.759431,OZONE,38,66,58
India,Madhya Pradesh,Katni,"Gole Bazar, Katni - MPPCB",01-01-2026 08:00:00,23.50016,80.23284,CO,24,115,62
India,Madhya Pradesh,Katni,"Gole Bazar, Katni - MPPCB",01-01-2026 08:00:00,23.50016,80.23284,OZONE,11,68,20
India,Maharashtra,Amravati,"Shri Shivaji Science College, Amravati - MPCB",01-01-2026 08:00:00,20.939198,77.765701,PM10,22,233,107
India,Madhya Pradesh,Maihar,"Sahilara, Maihar - KJS Cements",01-01-2026 08:00:00,24.2613009,80.7231783,CO,46,60,51
India,Madhya Pradesh,Jabalpur,"Suhagi, Jabalpur - JMC",01-01-2026 08:00:00,23.218135,79.957770,PM2.5,23,200,73
India,Madhya Pradesh,Jabalpur,"Suhagi, Jabalpur - JMC",01-01-2026 08:00:00,23.218135,79.957770,PM10,29,133,71
India,Maharashtra,Akola,"Ramdaspeth, Akola - MPCB",01-01-2026 08:00:00,20.719516,77.000253,PM10,49,171,110
India,Maharashtra,Belapur,"CBD Belapur, Belapur - MPCB",01-01-2026 08:00:00,19.0243902,73.0406721,NO2,16,42,26
India,Maharashtra,Bhiwandi,"Gokul Nagar, Bhiwandi - MPCB",01-01-2026 08:00:00,19.309073,73.057223,NH3,3,7,5
India,Maharashtra,Bhiwandi,"Gokul Nagar, Bhiwandi - MPCB",01-01-2026 08:00:00,19.309073,73.057223,CO,20,65,37
India,Maharashtra,Chandrapur,"Chauhan Colony, Chandrapur - MPCB",01-01-2026 08:00:00,19.962900,79.298714,OZONE,24,24,24
India,Maharashtra,Chandrapur,"MIDC Khutala, Chandrapur - MPCB",01-01-2026 08:00:00,19.9775302,79.2337086,NO2,15,44,27
India,Maharashtra,Aurangabad,"More Chowk Waluj, Aurangabad - MPCB",01-01-2026 08:00:00,19.8389439,75.244448,SO2,13,20,15
India,Maharashtra,Aurangabad,"More Chowk Waluj, Aurangabad - MPCB",01-01-2026 08:00:00,19.8389439,75.244448,CO,2,102,41
India,Maharashtra,Chandrapur,"Chauhan Colony, Chandrapur - MPCB",01-01-2026 08:00:00,19.962900,79.298714,PM10,97,253,147
India,Maharashtra,Chandrapur,"Chauhan Colony, Chandrapur - MPCB",01-01-2026 08:00:00,19.962900,79.298714,NH3,2,2,2
India,Maharashtra,Amravati,"Shri Shivaji Science College, Amravati - MPCB",01-01-2026 08:00:00,20.939198,77.765701,CO,34,116,52
India,Maharashtra,Amravati,"Shri Shivaji Science College, Amravati - MPCB",01-01-2026 08:00:00,20.939198,77.765701,NO2,1,33,11
India,Maharashtra,Aurangabad,"More Chowk Waluj, Aurangabad - MPCB",01-01-2026 08:00:00,19.8389439,75.244448,PM2.5,51,105,80
India,Maharashtra,Belapur,"CBD Belapur, Belapur - MPCB",01-01-2026 08:00:00,19.0243902,73.0406721,PM2.5,45,107,70
India,Maharashtra,Badlapur,"Katrap, Badlapur - MPCB",01-01-2026 08:00:00,19.16485,73.23409,PM10,101,163,127
India,Maharashtra,Kalyan,"Pimpleshwar Mandir, Kalyan - MPCB",01-01-2026 08:00:00,19.192056,72.9585188,PM2.5,45,176,101
India,Maharashtra,Kalyan,"Pimpleshwar Mandir, Kalyan - MPCB",01-01-2026 08:00:00,19.192056,72.9585188,NH3,2,6,3
India,Maharashtra,Kolhapur,"Shivaji University, Kolhapur - MPCB",01-01-2026 08:00:00,16.6870449,74.2505872,PM10,58,93,77
India,Maharashtra,Kolhapur,"Sinchan Bhavan, Kolhapur - MPCB",01-01-2026 08:00:00,16.7143745,74.2426398,SO2,2,5,3
India,Maharashtra,Kolhapur,"Sinchan Bhavan, Kolhapur - MPCB",01-01-2026 08:00:00,16.7143745,74.2426398,CO,18,50,28
India,Maharashtra,Kolhapur,"Sinchan Bhavan, Kolhapur - MPCB",01-01-2026 08:00:00,16.7143745,74.2426398,OZONE,3,63,10
India,Maharashtra,Latur,"Sawe Wadi, Latur - MPCB",01-01-2026 08:00:00,18.39963,76.57452,PM2.5,68,240,143
India,Maharashtra,Dhule,"Deopur, Dhule - MPCB",01-01-2026 08:00:00,20.918946,74.776388,PM2.5,NA,NA,NA
India,Maharashtra,Dhule,"Deopur, Dhule - MPCB",01-01-2026 08:00:00,20.918946,74.776388,SO2,9,27,16
India,Maharashtra,Jalgaon,"Prabhat Colony, Jalgaon - MPCB",01-01-2026 08:00:00,21.001264,75.565602,PM2.5,69,212,108
India,Maharashtra,Jalgaon,"Prabhat Colony, Jalgaon - MPCB",01-01-2026 08:00:00,21.001264,75.565602,NO2,5,28,13
India,Maharashtra,Jalgaon,"Prabhat Colony, Jalgaon - MPCB",01-01-2026 08:00:00,21.001264,75.565602,SO2,4,30,14
India,Maharashtra,Jalgaon,"Prabhat Colony, Jalgaon - MPCB",01-01-2026 08:00:00,21.001264,75.565602,CO,10,43,25
India,Maharashtra,Mahad,"Kamble Tarf Birwadi, Mahad - MPCB",01-01-2026 08:00:00,18.1023399,73.4783687,PM10,45,404,107
India,Maharashtra,Mahad,"Kamble Tarf Birwadi, Mahad - MPCB",01-01-2026 08:00:00,18.1023399,73.4783687,SO2,21,131,38
India,Maharashtra,Malegaon,"Mahesh Nagar, Malegaon - MPCB",01-01-2026 08:00:00,20.555712,74.529236,PM2.5,47,209,112
India,Maharashtra,Malegaon,"Mahesh Nagar, Malegaon - MPCB",01-01-2026 08:00:00,20.555712,74.529236,PM10,104,153,131
India,Maharashtra,Malegaon,"Mahesh Nagar, Malegaon - MPCB",01-01-2026 08:00:00,20.555712,74.529236,CO,24,82,35
India,Maharashtra,Mira-Bhayandar,"Bhayandar West, Mira-Bhayandar - MPCB",01-01-2026 08:00:00,19.296481,72.840923,PM10,95,151,117
India,Maharashtra,Mumbai,"Bandra Kurla Complex, Mumbai - IITM",01-01-2026 08:00:00,19.053536,72.84643,OZONE,1,71,4
India,Maharashtra,Mumbai,"Bandra Kurla Complex, Mumbai - MPCB",01-01-2026 08:00:00,19.065931,72.862131,PM10,61,129,97
India,Maharashtra,Mumbai,"Bandra Kurla Complex, Mumbai - IITM",01-01-2026 08:00:00,19.053536,72.84643,NH3,1,25,7
India,Maharashtra,Mumbai,"Bandra Kurla Complex, Mumbai - IITM",01-01-2026 08:00:00,19.053536,72.84643,SO2,5,16,10
India,Maharashtra,Mira-Bhayandar,"Bhayandar West, Mira-Bhayandar - MPCB",01-01-2026 08:00:00,19.296481,72.840923,OZONE,4,71,14
India,Maharashtra,Mira-Bhayandar,"Bhayandar West, Mira-Bhayandar - MPCB",01-01-2026 08:00:00,19.296481,72.840923,SO2,4,4,4
India,Maharashtra,Latur,"Sawe Wadi, Latur - MPCB",01-01-2026 08:00:00,18.39963,76.57452,PM10,63,200,122
India,Maharashtra,Mumbai,"Byculla, Mumbai - BMC",01-01-2026 08:00:00,18.9767,72.8380,CO,NA,NA,NA
India,Maharashtra,Mumbai,"Chakala-Andheri East, Mumbai - IITM",01-01-2026 08:00:00,19.11074,72.86084,PM2.5,82,194,123
India,Maharashtra,Mumbai,"Ghatkopar, Mumbai - BMC",01-01-2026 08:00:00,19.083694,72.920967,OZONE,1,25,1
India,Maharashtra,Mumbai,"Kandivali East, Mumbai - MPCB",01-01-2026 08:00:00,19.205800,72.868200,PM2.5,8,24,16
India,Maharashtra,Mumbai,"Borivali East, Mumbai - MPCB",01-01-2026 08:00:00,19.2243333,72.8658113,SO2,17,22,19
India,Maharashtra,Mumbai,"Borivali East, Mumbai - MPCB",01-01-2026 08:00:00,19.2243333,72.8658113,CO,17,22,19
India,Maharashtra,Mumbai,"Kandivali West, Mumbai - BMC",01-01-2026 08:00:00,19.215859,72.831718,PM10,NA,NA,NA
India,Maharashtra,Mumbai,"Kandivali West, Mumbai - BMC",01-01-2026 08:00:00,19.215859,72.831718,NO2,NA,NA,NA
India,Maharashtra,Mumbai,"Bandra Kurla Complex, Mumbai - MPCB",01-01-2026 08:00:00,19.065931,72.862131,NO2,25,95,53
India,Maharashtra,Mumbai,"Chakala-Andheri East, Mumbai - IITM",01-01-2026 08:00:00,19.11074,72.86084,OZONE,7,58,17
India,Maharashtra,Mumbai,"Kandivali East, Mumbai - MPCB",01-01-2026 08:00:00,19.205800,72.868200,OZONE,17,18,18
India,Maharashtra,Mumbai,"Deonar, Mumbai - IITM",01-01-2026 08:00:00,19.04946,72.9230,OZONE,1,30,2
India,Maharashtra,Mumbai,"Byculla, Mumbai - BMC",01-01-2026 08:00:00,18.9767,72.8380,NH3,11,34,21
India,Maharashtra,Mumbai,"Navy Nagar-Colaba, Mumbai - IITM",01-01-2026 08:00:00,18.897756,72.813320,PM10,71,191,123
India,Maharashtra,Mumbai,"Navy Nagar-Colaba, Mumbai - IITM",01-01-2026 08:00:00,18.897756,72.813320,OZONE,19,78,35
India,Maharashtra,Mumbai,"Powai, Mumbai - MPCB",01-01-2026 08:00:00,19.137500,72.915056,NH3,1,2,2
India,Maharashtra,Mumbai,"Sewri, Mumbai - BMC",01-01-2026 08:00:00,19.000084,72.856730,PM10,70,125,96
India,Maharashtra,Mumbai,"Sewri, Mumbai - BMC",01-01-2026 08:00:00,19.000084,72.856730,NH3,5,26,11
India,Maharashtra,Mumbai,"Sewri, Mumbai - BMC",01-01-2026 08:00:00,19.000084,72.856730,OZONE,1,19,4
India,Maharashtra,Mumbai,"Siddharth Nagar-Worli, Mumbai - IITM",01-01-2026 08:00:00,19.000083,72.813993,NH3,4,9,5
India,Maharashtra,Mumbai,"Siddharth Nagar-Worli, Mumbai - IITM",01-01-2026 08:00:00,19.000083,72.813993,CO,17,71,40
India,Maharashtra,Mumbai,"Sion, Mumbai - MPCB",01-01-2026 08:00:00,19.047000,72.874600,PM10,105,500,217
India,Maharashtra,Mumbai,"Sion, Mumbai - MPCB",01-01-2026 08:00:00,19.047000,72.874600,NO2,61,97,73
India,Maharashtra,Mumbai,"Sion, Mumbai - MPCB",01-01-2026 08:00:00,19.047000,72.874600,NH3,3,6,5
India,Maharashtra,Mumbai,"Kurla, Mumbai - MPCB",01-01-2026 08:00:00,19.0863,72.8888,SO2,36,37,37
India,Maharashtra,Mumbai,"Mazgaon, Mumbai - IITM",01-01-2026 08:00:00,18.96702,72.84214,OZONE,7,84,30
India,Maharashtra,Mumbai,"Mindspace-Malad West, Mumbai - MPCB",01-01-2026 08:00:00,19.1878657,72.8304069,PM2.5,53,118,78
India,Maharashtra,Mumbai,"Khindipada-Bhandup West, Mumbai - IITM",01-01-2026 08:00:00,19.1653323,72.922099,OZONE,NA,NA,NA
India,Maharashtra,Mumbai,"Kurla, Mumbai - MPCB",01-01-2026 08:00:00,19.0863,72.8888,PM2.5,63,167,101
India,Maharashtra,Mumbai,"Vile Parle West, Mumbai - MPCB",01-01-2026 08:00:00,19.10861,72.83622,PM10,73,139,101
India,Maharashtra,Mumbai,"Vile Parle West, Mumbai - MPCB",01-01-2026 08:00:00,19.10861,72.83622,NH3,6,6,6
India,Maharashtra,Mumbai,"Kherwadi_Bandra East, Mumbai - MPCB",01-01-2026 08:00:00,19.0632143,72.8456324,PM10,56,159,102
India,Maharashtra,Mumbai,"Mindspace-Malad West, Mumbai - MPCB",01-01-2026 08:00:00,19.1878657,72.8304069,NO2,11,108,40
India,Maharashtra,Mumbai,"Khindipada-Bhandup West, Mumbai - IITM",01-01-2026 08:00:00,19.1653323,72.922099,PM10,NA,NA,NA
India,Maharashtra,Mumbai,"Khindipada-Bhandup West, Mumbai - IITM",01-01-2026 08:00:00,19.1653323,72.922099,SO2,NA,NA,NA
India,Maharashtra,Nagpur,"Ambazari, Nagpur - MPCB",01-01-2026 08:00:00,21.121801,79.04952,NO2,20,102,55
India,Maharashtra,Nagpur,"Ambazari, Nagpur - MPCB",01-01-2026 08:00:00,21.121801,79.04952,NH3,1,12,5
India,Maharashtra,Nagpur,"Ambazari, Nagpur - MPCB",01-01-2026 08:00:00,21.121801,79.04952,CO,8,107,70
India,Maharashtra,Nagpur,"Mahal, Nagpur - MPCB",01-01-2026 08:00:00,21.14472,79.107595,OZONE,NA,NA,NA
India,Maharashtra,Nagpur,"Opp GPO Civil Lines, Nagpur - MPCB",01-01-2026 08:00:00,21.152875,79.0517531,PM10,106,187,148
India,Maharashtra,Nagpur,"Opp GPO Civil Lines, Nagpur - MPCB",01-01-2026 08:00:00,21.152875,79.0517531,NH3,3,22,11
India,Maharashtra,Navi Mumbai,"Mahape, Navi Mumbai - MPCB",01-01-2026 08:00:00,19.1135051,73.008978,PM10,98,183,130
India,Maharashtra,Navi Mumbai,"Nerul, Navi Mumbai - MPCB",01-01-2026 08:00:00,19.008751,73.016620,PM10,NA,NA,NA
India,Maharashtra,Navi Mumbai,"Sanpada, Navi Mumbai - MPCB",01-01-2026 08:00:00,19.0575752,73.0151367,PM2.5,59,268,121
India,Maharashtra,Navi Mumbai,"Sanpada, Navi Mumbai - MPCB",01-01-2026 08:00:00,19.0575752,73.0151367,PM10,73,161,119
India,Maharashtra,Nanded,"Sneh Nagar, Nanded - MPCB",01-01-2026 08:00:00,19.173852,77.296291,NH3,3,5,4
India,Maharashtra,Nashik,"Gangapur Road, Nashik - MPCB",01-01-2026 08:00:00,20.0073285,73.7762427,NO2,5,5,5
India,Maharashtra,Nashik,"Gangapur Road, Nashik - MPCB",01-01-2026 08:00:00,20.0073285,73.7762427,OZONE,10,39,30
India,Maharashtra,Navi Mumbai,"Sector-2E Kalamboli, Navi Mumbai - MPCB",01-01-2026 08:00:00,19.02579,73.10297,OZONE,10,120,10
India,Maharashtra,Navi Mumbai,"Tondare-Taloja, Navi Mumbai - MPCB",01-01-2026 08:00:00,19.0630,73.1209,NH3,22,48,35
India,Maharashtra,Navi Mumbai,"Kopripada-Vashi, Navi Mumbai - MPCB",01-01-2026 08:00:00,19.090337,73.014232,OZONE,NA,NA,NA
India,Maharashtra,Navi Mumbai,"Mahape, Navi Mumbai - MPCB",01-01-2026 08:00:00,19.1135051,73.008978,PM2.5,82,306,158
India,Maharashtra,Navi Mumbai,"Kopripada-Vashi, Navi Mumbai - MPCB",01-01-2026 08:00:00,19.090337,73.014232,SO2,NA,NA,NA
India,Maharashtra,Nashik,"MIDC Ambad, Nashik - MPCB",01-01-2026 08:00:00,19.950220,73.731480,SO2,19,26,22
India,Maharashtra,Nagpur,"Ram Nagar, Nagpur - MPCB",01-01-2026 08:00:00,21.143383,79.048912,SO2,3,75,28
India,Maharashtra,Nashik,"MIDC Ambad, Nashik - MPCB",01-01-2026 08:00:00,19.950220,73.731480,NH3,2,4,2
India,Maharashtra,Pimpri-Chinchwad,"Savta Mali Nagar, Pimpri-Chinchwad - IITM",01-01-2026 08:00:00,18.614767,73.799516,PM2.5,37,277,166
India,Maharashtra,Pimpri-Chinchwad,"Savta Mali Nagar, Pimpri-Chinchwad - IITM",01-01-2026 08:00:00,18.614767,73.799516,PM10,56,157,120
India,Maharashtra,Pimpri-Chinchwad,"Thergaon, Pimpri Chinchwad - MPCB",01-01-2026 08:00:00,18.616318,73.765797,PM2.5,10,334,83
India,Maharashtra,Pimpri-Chinchwad,"Gavalinagar, Pimpri Chinchwad - MPCB",01-01-2026 08:00:00,18.63673,73.82487,PM10,87,156,122
India,Maharashtra,Pimpri-Chinchwad,"Gavalinagar, Pimpri Chinchwad - MPCB",01-01-2026 08:00:00,18.63673,73.82487,NO2,13,120,52
India,Maharashtra,Pimpri-Chinchwad,"Gavalinagar, Pimpri Chinchwad - MPCB",01-01-2026 08:00:00,18.63673,73.82487,NH3,5,21,11
India,Maharashtra,Pimpri-Chinchwad,"Thergaon, Pimpri Chinchwad - MPCB",01-01-2026 08:00:00,18.616318,73.765797,NO2,24,52,36
India,Maharashtra,Pimpri-Chinchwad,"Thergaon, Pimpri Chinchwad - MPCB",01-01-2026 08:00:00,18.616318,73.765797,NH3,5,7,6
India,Maharashtra,Pimpri-Chinchwad,"Thergaon, Pimpri Chinchwad - MPCB",01-01-2026 08:00:00,18.616318,73.765797,SO2,1,4,2
India,Maharashtra,Pune,"Bhumkar Nagar, Pune - IITM",01-01-2026 08:00:00,18.605770,73.749976,PM10,74,195,147
India,Maharashtra,Pune,"Bhumkar Nagar, Pune - IITM",01-01-2026 08:00:00,18.605770,73.749976,OZONE,9,247,66
India,Maharashtra,Pimpri-Chinchwad,"Thergaon, Pimpri Chinchwad - MPCB",01-01-2026 08:00:00,18.616318,73.765797,PM10,54,161,104
India,Maharashtra,Pune,"Revenue Colony-Shivajinagar, Pune - IITM",01-01-2026 08:00:00,18.530085,73.849598,PM10,55,128,95
India,Maharashtra,Pune,"Katraj Dairy, Pune - MPCB",01-01-2026 08:00:00,18.454450,73.854155,CO,34,103,48
India,Maharashtra,Pune,"Mhada Colony, Pune - IITM",01-01-2026 08:00:00,18.573040,73.927715,NO2,24,75,46
India,Maharashtra,Pune,"Katraj Dairy, Pune - MPCB",01-01-2026 08:00:00,18.454450,73.854155,NH3,2,10,5
India,Maharashtra,Thane,"Upvan Fort, Thane - MPCB",01-01-2026 08:00:00,19.222279,72.957979,SO2,4,23,10
India,Maharashtra,Thane,"Upvan Fort, Thane - MPCB",01-01-2026 08:00:00,19.222279,72.957979,CO,42,96,73
India,Maharashtra,Ulhasnagar,"Sidhi Vinayak Nagar, Ulhasnagar - MPCB",01-01-2026 08:00:00,19.235581,73.159121,CO,18,26,21
India,Maharashtra,Virar,"Bolinj, Virar - MPCB",01-01-2026 08:00:00,19.4458210,72.7988231,PM10,NA,NA,NA
India,Maharashtra,Virar,"Bolinj, Virar - MPCB",01-01-2026 08:00:00,19.4458210,72.7988231,SO2,NA,NA,NA
India,Meghalaya,Shillong,"JN Stadium, Shillong - Meghalaya PCB",01-01-2026 08:00:00,25.5803419,91.8942571,CO,16,101,64
India,Meghalaya,Shillong,"JN Stadium, Shillong - Meghalaya PCB",01-01-2026 08:00:00,25.5803419,91.8942571,OZONE,1,32,16
India,Mizoram,Aizawl,"Sikulpuikawn, Aizawl - Mizoram PCB",01-01-2026 08:00:00,23.7176342,92.7192841,PM10,NA,NA,NA
India,Nagaland,Kohima,"PWD Junction, Kohima - NPCB",01-01-2026 08:00:00,25.6635413,94.0989878,PM2.5,14,70,36
India,Nagaland,Kohima,"PWD Junction, Kohima - NPCB",01-01-2026 08:00:00,25.6635413,94.0989878,PM10,11,56,30
India,Nagaland,Kohima,"PWD Junction, Kohima - NPCB",01-01-2026 08:00:00,25.6635413,94.0989878,SO2,75,77,76
India,Odisha,Angul,"Hakimapada, Angul - OSPCB",01-01-2026 08:00:00,20.832874,85.104082,PM2.5,127,351,260
India,Odisha,Angul,"Hakimapada, Angul - OSPCB",01-01-2026 08:00:00,20.832874,85.104082,SO2,7,97,28
India,Odisha,Balasore,"Kalidaspur, Balasore - OSPCB",01-01-2026 08:00:00,21.51161,86.89088,NO2,18,66,36
India,Odisha,Barbil,"Forest Office, Barbil - OSPCB",01-01-2026 08:00:00,22.1166054,85.3945546,PM2.5,130,404,244
India,Odisha,Bhubaneswar,"Lingraj Mandir, Bhubaneswar - OSPCB",01-01-2026 08:00:00,20.240790,85.836784,PM2.5,315,410,351
India,Maharashtra,Thane,"Kasarvadavali, Thane - MPCB",01-01-2026 08:00:00,19.26777,72.97182,NH3,1,1,1
India,Maharashtra,Thane,"Upvan Fort, Thane - MPCB",01-01-2026 08:00:00,19.222279,72.957979,PM2.5,54,225,117
India,Maharashtra,Thane,"Upvan Fort, Thane - MPCB",01-01-2026 08:00:00,19.222279,72.957979,PM10,74,174,122
India,Maharashtra,Pune,"Savitribai Phule Pune University, Pune - MPCB",01-01-2026 08:00:00,18.547056,73.826908,NH3,1,6,2
India,Maharashtra,Pune,"Transport Nagar-Nigdi, Pune - IITM",01-01-2026 08:00:00,18.664282,73.763966,OZONE,11,63,26
India,Maharashtra,Sangli,"Vijay Nagar, Sangli - MPCB",01-01-2026 08:00:00, 16.5038,74.3623,NH3,2,7,5
India,Maharashtra,Solapur,"Dnyaneshwar Nagar, Solapur - MPCB",01-01-2026 08:00:00,17.6336264,75.9132495,OZONE,5,71,29
India,Odisha,Bhubaneswar,"Lingraj Mandir, Bhubaneswar - OSPCB",01-01-2026 08:00:00,20.240790,85.836784,SO2,3,30,13
India,Odisha,Brajrajnagar,"GM Office, Brajrajnagar - OSPCB",01-01-2026 08:00:00,21.8004996,83.8396977,CO,2,22,4
India,Odisha,Bhubaneswar,"Patia, Bhubaneswar - OSPCB",01-01-2026 08:00:00,20.34652,85.81630,OZONE,3,171,13
India,Odisha,Talcher,"Talcher Coalfields,Talcher - OSPCB",01-01-2026 08:00:00,20.9360711,85.1707021,PM2.5,70,409,258
India,Odisha,Talcher,"Talcher Coalfields,Talcher - OSPCB",01-01-2026 08:00:00,20.9360711,85.1707021,OZONE,31,84,37
India,Odisha,Tensa,"Barsua Iron Ore Mines, Tensa - OSPCB",01-01-2026 08:00:00,21.869985,85.167016,NO2,NA,NA,NA
India,Odisha,Tensa,"Barsua Iron Ore Mines, Tensa - OSPCB",01-01-2026 08:00:00,21.869985,85.167016,CO,48,61,50
India,Puducherry,Puducherry,"Jawahar Nagar, Puducherry - PPCC",01-01-2026 08:00:00,11.9309,79.8027,PM10,6,141,82
India,Odisha,Cuttack,"CDA Area, Cuttack - OSPCB",01-01-2026 08:00:00,20.48891     ,85.84768     ,PM10,99,407,194
India,Odisha,Cuttack,"CDA Area, Cuttack - OSPCB",01-01-2026 08:00:00,20.48891     ,85.84768     ,NO2,21,172,54
India,Odisha,Cuttack,"CDA Area, Cuttack - OSPCB",01-01-2026 08:00:00,20.48891     ,85.84768     ,CO,38,143,64
India,Odisha,Cuttack,"CDA Area, Cuttack - OSPCB",01-01-2026 08:00:00,20.48891     ,85.84768     ,OZONE,3,219,36
India,Odisha,Keonjhar,"Jagamohanpur, Keonjhar - OSPCB",01-01-2026 08:00:00,21.643900,85.599355,PM10,114,469,266
India,Odisha,Nayagarh,"Dabuna, Nayagarh - OSPCB",01-01-2026 08:00:00,21.847279,85.416905,NO2,10,11,10
India,Odisha,Nayagarh,"Dabuna, Nayagarh - OSPCB",01-01-2026 08:00:00,21.847279,85.416905,NH3,6,7,6
India,Odisha,Nayagarh,"Dabuna, Nayagarh - OSPCB",01-01-2026 08:00:00,21.847279,85.416905,CO,30,52,39
India,Odisha,Rairangpur,"Divisional Forest Office, Rairangpur - OSPCB",01-01-2026 08:00:00,22.265816,86.174829,PM10,104,280,149
India,Odisha,Byasanagar,"Ferro Chrome Colony, Byasanagar - OSPCB",01-01-2026 08:00:00,20.94185,86.11510,PM2.5,130,397,320
India,Odisha,Rourkela,"Sector-2, Rourkela - OSPCB",01-01-2026 08:00:00,22.24500000,84.88111111,PM10,61,233,161
India,Odisha,Rourkela,"Raghunathpali, Rourkela - OSPCB",01-01-2026 08:00:00,22.220833,84.809444,OZONE,6,17,7
India,Odisha,Keonjhar,"Jagamohanpur, Keonjhar - OSPCB",01-01-2026 08:00:00,21.643900,85.599355,OZONE,16,18,17
India,Odisha,Rourkela,"Raghunathpali, Rourkela - OSPCB",01-01-2026 08:00:00,22.220833,84.809444,SO2,5,8,6
India,Puducherry,Puducherry,"Jawahar Nagar, Puducherry - PPCC",01-01-2026 08:00:00,11.9309,79.8027,SO2,5,9,8
India,Rajasthan,Ajmer,"Civil Lines,  Ajmer - RSPCB",01-01-2026 08:00:00,26.470859,74.646594,OZONE,3,26,6
India,Rajasthan,Alwar,"Moti Doongri, Alwar - RSPCB",01-01-2026 08:00:00,27.554793,76.611536,PM2.5,60,153,102
India,Rajasthan,Alwar,"Moti Doongri, Alwar - RSPCB",01-01-2026 08:00:00,27.554793,76.611536,OZONE,11,53,16
India,Rajasthan,Banswara,"Rati Talai, Banswara - RSPCB",01-01-2026 08:00:00,23.555190,74.440010,PM2.5,NA,NA,NA
India,Rajasthan,Banswara,"Rati Talai, Banswara - RSPCB",01-01-2026 08:00:00,23.555190,74.440010,PM10,NA,NA,NA
India,Rajasthan,Banswara,"Rati Talai, Banswara - RSPCB",01-01-2026 08:00:00,23.555190,74.440010,NO2,NA,NA,NA
India,Punjab,Mandi Gobindgarh,"RIMT University, Mandi Gobindgarh - PPCB",01-01-2026 08:00:00,30.649961,76.331442,CO,22,60,43
India,Punjab,Mandi Gobindgarh,"RIMT University, Mandi Gobindgarh - PPCB",01-01-2026 08:00:00,30.649961,76.331442,OZONE,32,34,33
India,Punjab,Bathinda,"Hardev Nagar, Bathinda - PPCB",01-01-2026 08:00:00,30.233011,74.907758,SO2,4,10,7
India,Punjab,Bathinda,"Hardev Nagar, Bathinda - PPCB",01-01-2026 08:00:00,30.233011,74.907758,CO,76,79,78
India,Punjab,Mandi Gobindgarh,"RIMT University, Mandi Gobindgarh - PPCB",01-01-2026 08:00:00,30.649961,76.331442,PM10,139,164,150
India,Punjab,Ludhiana,"Punjab Agricultural University, Ludhiana - PPCB",01-01-2026 08:00:00,30.9028,75.8086,SO2,11,27,19
India,Rajasthan,Ajmer,"Civil Lines,  Ajmer - RSPCB",01-01-2026 08:00:00,26.470859,74.646594,PM10,81,177,129
India,Rajasthan,Ajmer,"Civil Lines,  Ajmer - RSPCB",01-01-2026 08:00:00,26.470859,74.646594,SO2,4,16,12
India,Punjab,Patiala,"Model Town, Patiala - PPCB",01-01-2026 08:00:00,30.349388,76.366642,SO2,4,26,15
India,Rajasthan,Jaipur,"Mansarovar Sector-12, Jaipur - RSPCB",01-01-2026 08:00:00,26.843698,75.766894,NH3,14,16,15
India,Rajasthan,Jaipur,"Police Commissionerate, Jaipur - RSPCB",01-01-2026 08:00:00,26.9164092,75.7994901,CO,22,107,58
India,Rajasthan,Jaipur,"Police Commissionerate, Jaipur - RSPCB",01-01-2026 08:00:00,26.9164092,75.7994901,OZONE,16,70,23
India,Rajasthan,Jaipur,"RIICO Sitapura, Jaipur - RSPCB",01-01-2026 08:00:00,26.786682,75.827928,NH3,4,7,6
India,Rajasthan,Jaipur,"Shastri Nagar, Jaipur - RSPCB",01-01-2026 08:00:00,26.9502929,75.730943,NO2,44,91,65
India,Rajasthan,Bhiwadi,"Vasundhara Nagar_UIT, Bhiwadi - RSPCB",01-01-2026 08:00:00,28.207266,76.829265,NO2,20,82,42
India,Rajasthan,Bhiwadi,"Vasundhara Nagar_UIT, Bhiwadi - RSPCB",01-01-2026 08:00:00,28.207266,76.829265,SO2,2,38,9
India,Rajasthan,Bikaner,"MM Ground, Bikaner - RSPCB",01-01-2026 08:00:00,28.018792,73.292658,SO2,2,13,8
India,Rajasthan,Bundi,"New Colony, Bundi - RSPCB",01-01-2026 08:00:00,25.435774,75.644272,PM10,74,183,127
India,Rajasthan,Bundi,"New Colony, Bundi - RSPCB",01-01-2026 08:00:00,25.435774,75.644272,SO2,2,13,6
India,Rajasthan,Bundi,"New Colony, Bundi - RSPCB",01-01-2026 08:00:00,25.435774,75.644272,CO,20,102,42
India,Rajasthan,Chittorgarh,"Shastri Nagar, Chittorgarh - RSPCB",01-01-2026 08:00:00,24.892047,74.623527,CO,12,82,26
India,Rajasthan,Churu,"Subash Chowk, Churu - RSPCB",01-01-2026 08:00:00,28.296139,74.961696,PM2.5,8,320,129
India,Rajasthan,Churu,"Subash Chowk, Churu - RSPCB",01-01-2026 08:00:00,28.296139,74.961696,NO2,8,69,27
India,Rajasthan,Churu,"Subash Chowk, Churu - RSPCB",01-01-2026 08:00:00,28.296139,74.961696,CO,22,57,29
India,Rajasthan,Dholpur,"Raja Ganj, Dholpur - RSPCB",01-01-2026 08:00:00,26.699557,77.898881,NO2,8,23,17
India,Rajasthan,Dungarpur,"Bhoiwada, Dungarpur - RSPCB",01-01-2026 08:00:00,23.837789,73.714926,NH3,5,9,7
India,Rajasthan,Hanumangarh,"Housing Board, Hanumangarh - RSPCB",01-01-2026 08:00:00,29.610750,74.283608,OZONE,3,50,6
India,Rajasthan,Jaipur,"Adarsh Nagar, Jaipur - RSPCB",01-01-2026 08:00:00,26.902909,75.836858,NO2,31,105,43
India,Rajasthan,Jaipur,"Adarsh Nagar, Jaipur - RSPCB",01-01-2026 08:00:00,26.902909,75.836858,CO,43,104,62
India,Rajasthan,Jaipur,"Shastri Nagar, Jaipur - RSPCB",01-01-2026 08:00:00,26.9502929,75.730943,NH3,9,21,14
India,Rajasthan,Jaisalmer,"Sadar Bazar, Jaisalmer - RSPCB",01-01-2026 08:00:00,26.912329,70.909168,PM10,86,184,141
India,Rajasthan,Jaisalmer,"Sadar Bazar, Jaisalmer - RSPCB",01-01-2026 08:00:00,26.912329,70.909168,NH3,16,22,18
India,Rajasthan,Bhilwara,"Pratap Nagar, Bhilwara - RSPCB",01-01-2026 08:00:00,25.339605,74.618883,OZONE,6,64,35
India,Rajasthan,Bhiwadi,"RIICO Ind. Area III, Bhiwadi - RSPCB",01-01-2026 08:00:00,28.194909,76.862296,PM10,127,192,166
India,Rajasthan,Jhalawar,"Rajlaxmi Nagar, Jhalawar - RSPCB",01-01-2026 08:00:00,24.588397,76.172782,CO,31,128,81
India,Rajasthan,Jhunjhunu,"Indra Nagar, Jhunjhunu - RSPCB",01-01-2026 08:00:00,28.108988,75.386577,PM2.5,12,238,100
India,Rajasthan,Bharatpur,"Krishna Nagar, Bharatpur - RSPCB",01-01-2026 08:00:00,27.215415,77.50873,NO2,12,27,19
India,Rajasthan,Bharatpur,"Krishna Nagar, Bharatpur - RSPCB",01-01-2026 08:00:00,27.215415,77.50873,CO,18,60,54
India,Rajasthan,Jhalawar,"Rajlaxmi Nagar, Jhalawar - RSPCB",01-01-2026 08:00:00,24.588397,76.172782,NH3,9,17,12
India,Rajasthan,Karauli,"Satyawati Vihar, Karauli - RSPCB",01-01-2026 08:00:00,26.506177,77.025989,SO2,5,9,7
India,Rajasthan,Karauli,"Satyawati Vihar, Karauli - RSPCB",01-01-2026 08:00:00,26.506177,77.025989,OZONE,1,82,17
India,Rajasthan,Kota,"Dhanmandi, Kota - RSPCB",01-01-2026 08:00:00,25.164090,75.858137,PM2.5,113,382,267
India,Rajasthan,Kota,"Dhanmandi, Kota - RSPCB",01-01-2026 08:00:00,25.164090,75.858137,PM10,109,294,165
India,Rajasthan,Jodhpur,"Digari Kalan, Jodhpur - RSPCB",01-01-2026 08:00:00,26.295810,73.082283,PM10,38,159,94
India,Rajasthan,Jodhpur,"Digari Kalan, Jodhpur - RSPCB",01-01-2026 08:00:00,26.295810,73.082283,OZONE,2,105,6
India,Rajasthan,Karauli,"Satyawati Vihar, Karauli - RSPCB",01-01-2026 08:00:00,26.506177,77.025989,PM2.5,53,257,116
India,Rajasthan,Karauli,"Satyawati Vihar, Karauli - RSPCB",01-01-2026 08:00:00,26.506177,77.025989,PM10,62,138,94
India,Rajasthan,Jodhpur,"Jhalamand, Jodhpur - RSPCB",01-01-2026 08:00:00,26.215415,73.070156,NH3,10,26,17
India,Rajasthan,Jodhpur,"Jhalamand, Jodhpur - RSPCB",01-01-2026 08:00:00,26.215415,73.070156,SO2,2,12,5
India,Rajasthan,Jodhpur,"Samrat Ashok Udhyan, Jodhpur - RSPCB",01-01-2026 08:00:00,26.253384,72.976571,NO2,11,87,37
India,Rajasthan,Jodhpur,"Samrat Ashok Udhyan, Jodhpur - RSPCB",01-01-2026 08:00:00,26.253384,72.976571,CO,24,80,34
India,Rajasthan,Jhunjhunu,"Indra Nagar, Jhunjhunu - RSPCB",01-01-2026 08:00:00,28.108988,75.386577,OZONE,7,97,42
India,Rajasthan,Jodhpur,"Jhalamand, Jodhpur - RSPCB",01-01-2026 08:00:00,26.215415,73.070156,PM2.5,50,210,95
India,Rajasthan,Kota,"Nayapura, Kota - RSPCB",01-01-2026 08:00:00,25.196024,75.855668,NH3,9,15,12
India,Rajasthan,Sawai Madhopur,"Sahu Nagar, Sawai Madhopur - RSPCB",01-01-2026 08:00:00,26.031443,76.359327,NH3,8,22,14
India,Rajasthan,Sawai Madhopur,"Sahu Nagar, Sawai Madhopur - RSPCB",01-01-2026 08:00:00,26.031443,76.359327,CO,16,105,68
India,Rajasthan,Pratapgarh,"Pragati Nagar, Pratapgarh - RSPCB",01-01-2026 08:00:00,24.041198,74.780702,PM10,76,403,162
India,Rajasthan,Pratapgarh,"Pragati Nagar, Pratapgarh - RSPCB",01-01-2026 08:00:00,24.041198,74.780702,CO,16,103,26
India,Rajasthan,Sri Ganganagar,"Old City, Sri Ganganagar - RSPCB",01-01-2026 08:00:00,29.931624,73.864511,PM10,124,231,158
India,Rajasthan,Sawai Madhopur,"Sahu Nagar, Sawai Madhopur - RSPCB",01-01-2026 08:00:00,26.031443,76.359327,OZONE,3,157,9
India,Rajasthan,Pali,"Indira Colony Vistar, Pali - RSPCB",01-01-2026 08:00:00,25.771061, 73.340227,PM10,36,147,109
India,Rajasthan,Sikar,"Radhakishan Pura, Sikar - RSPCB",01-01-2026 08:00:00,27.608912,75.153302,SO2,3,12,7
India,Rajasthan,Kota,"Shrinath Puram, Kota - RSPCB",01-01-2026 08:00:00,25.14389,75.821256,CO,27,112,48
India,Rajasthan,Rajsamand,"Dhoinda, Rajsamand - RSPCB",01-01-2026 08:00:00,25.036360,73.883502,SO2,2,15,4
India,Rajasthan,Kota,"Shrinath Puram, Kota - RSPCB",01-01-2026 08:00:00,25.14389,75.821256,SO2,3,19,9
India,TamilNadu,Chennai,"Gandhi Nagar_Ennore, Chennai - TNPCB",01-01-2026 08:00:00,13.218341,80.32027,OZONE,NA,NA,NA
India,TamilNadu,Chennai,"Kodungaiyur, Chennai - TNPCB",01-01-2026 08:00:00,13.1278,80.2642,NH3,4,7,6
India,TamilNadu,Chennai,"Manali Village, Chennai - TNPCB",01-01-2026 08:00:00,13.1662,80.2584,SO2,11,16,14
India,TamilNadu,Chennai,"Manali Village, Chennai - TNPCB",01-01-2026 08:00:00,13.1662,80.2584,OZONE,15,42,39
India,TamilNadu,Chennai,"Manali, Chennai - CPCB",01-01-2026 08:00:00,13.164544,80.26285,OZONE,10,12,11
India,TamilNadu,Chennai,"Perungudi, Chennai - TNPCB",01-01-2026 08:00:00,12.9533,80.2357,CO,49,81,62
India,TamilNadu,Chennai,"Royapuram, Chennai - TNPCB",01-01-2026 08:00:00,13.1036,80.2909,PM2.5,6,122,43
India,TamilNadu,Chennai,"Royapuram, Chennai - TNPCB",01-01-2026 08:00:00,13.1036,80.2909,PM10,8,102,56
India,TamilNadu,Chennai,"Royapuram, Chennai - TNPCB",01-01-2026 08:00:00,13.1036,80.2909,NO2,1,45,21
India,TamilNadu,Chennai,"Velachery Res. Area, Chennai - CPCB",01-01-2026 08:00:00,13.0052189,80.2398125,CO,37,76,38
India,TamilNadu,Coimbatore,"PSG College of Arts and Science, Coimbatore - TNPCB",01-01-2026 08:00:00,11.0328,77.0349,NO2,10,11,11
India,TamilNadu,Coimbatore,"PSG College of Arts and Science, Coimbatore - TNPCB",01-01-2026 08:00:00,11.0328,77.0349,SO2,4,6,5
India,TamilNadu,Cuddalore,"Kudikadu, Cuddalore - TNPCB",01-01-2026 08:00:00,11.6829898,79.7532099,PM2.5,10,177,88
India,TamilNadu,Cuddalore,"Semmandalam, Cuddalore - TNPCB",01-01-2026 08:00:00,11.7637683,79.7499835,NO2,3,24,12
India,Rajasthan,Tonk,"Shastri Nagar, Tonk - RSPCB",01-01-2026 08:00:00,26.159933,75.780517,NO2,11,73,30
India,Rajasthan,Udaipur,"Ashok Nagar, Udaipur - RSPCB",01-01-2026 08:00:00,24.5886166,73.6321397,PM10,65,184,128
India,Rajasthan,Udaipur,"Ashok Nagar, Udaipur - RSPCB",01-01-2026 08:00:00,24.5886166,73.6321397,CO,14,101,42
India,TamilNadu,Chennai,"Arumbakkam, Chennai - TNPCB",01-01-2026 08:00:00,13.0664,80.2112 ,NO2,13,37,20
India,Telangana,Hyderabad,"Central University, Hyderabad - TSPCB",01-01-2026 08:00:00,17.460103,78.334361,NH3,2,4,3
India,Telangana,Hyderabad,"Central University, Hyderabad - TSPCB",01-01-2026 08:00:00,17.460103,78.334361,SO2,5,10,7
India,Telangana,Hyderabad,"Central University, Hyderabad - TSPCB",01-01-2026 08:00:00,17.460103,78.334361,CO,24,75,56
India,Telangana,Hyderabad,"Central University, Hyderabad - TSPCB",01-01-2026 08:00:00,17.460103,78.334361,OZONE,14,16,15
India,Telangana,Hyderabad,"ECIL Kapra, Hyderabad - TSPCB",01-01-2026 08:00:00,17.470431,78.566959,PM10,69,84,75
India,Telangana,Hyderabad,"Bollaram Industrial Area, Hyderabad - TSPCB",01-01-2026 08:00:00,17.540891,78.358528,PM10,NA,NA,NA
India,TamilNadu,Gummidipoondi,"Anthoni Pillai Nagar, Gummidipoondi - TNPCB",01-01-2026 08:00:00,13.4127,80.1081,NO2,1,7,4
India,TamilNadu,Chennai,"Velachery Res. Area, Chennai - CPCB",01-01-2026 08:00:00,13.0052189,80.2398125,NH3,3,4,3
India,Telangana,Hyderabad,"ECIL Kapra, Hyderabad - TSPCB",01-01-2026 08:00:00,17.470431,78.566959,OZONE,8,29,10
India,TamilNadu,Madurai,"Uchapatti, Madurai - TNPCB",01-01-2026 08:00:00,9.865935,78.022669,CO,NA,NA,NA
India,Telangana,Hyderabad,"Zoo Park, Hyderabad - TSPCB",01-01-2026 08:00:00,17.349694,78.451437,NO2,6,26,16
India,Telangana,Hyderabad,"Zoo Park, Hyderabad - TSPCB",01-01-2026 08:00:00,17.349694,78.451437,CO,4,54,20
India,Tripura,Agartala,"Bardowali, Agartala - Tripura SPCB",01-01-2026 08:00:00,23.8175497,91.2726974,NH3,4,6,5
India,Telangana,Hyderabad,"IITH Kandi, Hyderabad - TSPCB",01-01-2026 08:00:00,17.585705,78.126199,NH3,5,7,6
India,Telangana,Hyderabad,"Kokapet, Hyderabad - TSPCB",01-01-2026 08:00:00,17.393559,78.339194,PM2.5,56,73,63
India,Telangana,Hyderabad,"Sanathnagar, Hyderabad - TSPCB",01-01-2026 08:00:00,17.4559458,78.4332152,OZONE,NA,NA,NA
India,Telangana,Hyderabad,"Somajiguda, Hyderabad - TSPCB",01-01-2026 08:00:00,17.417094,78.457437,PM2.5,57,78,65
India,Telangana,Hyderabad,"ICRISAT Patancheru, Hyderabad - TSPCB",01-01-2026 08:00:00,17.518400,78.278777,PM2.5,56,179,125
India,Telangana,Hyderabad,"Nacharam_TSIIC IALA, Hyderabad - TSPCB",01-01-2026 08:00:00,17.429398,78.569354,PM2.5,48,69,56
India,Telangana,Hyderabad,"ICRISAT Patancheru, Hyderabad - TSPCB",01-01-2026 08:00:00,17.518400,78.278777,NH3,2,7,4
India,Telangana,Hyderabad,"Ramachandrapuram, Hyderabad - TSPCB",01-01-2026 08:00:00,17.528544,78.286195,SO2,11,18,15
India,Telangana,Hyderabad,"Sanathnagar, Hyderabad - TSPCB",01-01-2026 08:00:00,17.4559458,78.4332152,SO2,NA,NA,NA
India,Telangana,Hyderabad,"Kokapet, Hyderabad - TSPCB",01-01-2026 08:00:00,17.393559,78.339194,NO2,12,15,13
India,Uttar_Pradesh,Bulandshahr,"Yamunapuram, Bulandshahr - UPPCB",01-01-2026 08:00:00,28.406963,77.849831,SO2,2,20,12
India,Uttar_Pradesh,Firozabad,"Nagla Bhau, Firozabad - UPPCB",01-01-2026 08:00:00,27.168897,78.376960,PM2.5,39,78,51
India,Uttar_Pradesh,Firozabad,"Vibhab Nagar, Firozabad - UPPCB",01-01-2026 08:00:00,27.1594,78.3953,PM10,47,76,62
India,Uttar_Pradesh,Firozabad,"Vibhab Nagar, Firozabad - UPPCB",01-01-2026 08:00:00,27.1594,78.3953,CO,16,26,24
India,Uttar_Pradesh,Firozabad,"Vibhab Nagar, Firozabad - UPPCB",01-01-2026 08:00:00,27.1594,78.3953,OZONE,1,1,1
India,Uttar_Pradesh,Ghaziabad,"Indirapuram, Ghaziabad - UPPCB",01-01-2026 08:00:00,28.646233,77.358075,CO,64,96,67
India,Uttar_Pradesh,Agra,"Sector-3B Avas Vikas Colony, Agra - UPPCB",01-01-2026 08:00:00,27.19412,77.96237,PM2.5,56,126,78
India,Uttar_Pradesh,Agra,"Sector-3B Avas Vikas Colony, Agra - UPPCB",01-01-2026 08:00:00,27.19412,77.96237,PM10,11,161,130
India,Uttar_Pradesh,Agra,"Shahjahan Garden, Agra - UPPCB",01-01-2026 08:00:00,27.169338,78.03582,PM10,114,176,141
India,Uttar_Pradesh,Agra,"Shahjahan Garden, Agra - UPPCB",01-01-2026 08:00:00,27.169338,78.03582,NO2,4,6,6
India,Uttar_Pradesh,Agra,"Shahjahan Garden, Agra - UPPCB",01-01-2026 08:00:00,27.169338,78.03582,NH3,5,6,6
India,Uttar_Pradesh,Agra,"Shastripuram, Agra - UPPCB",01-01-2026 08:00:00,27.19862,77.92066,NO2,38,39,38
India,Uttar_Pradesh,Ghaziabad,"Loni, Ghaziabad - UPPCB",01-01-2026 08:00:00,28.757294,77.278792,PM2.5,207,456,357
India,Uttar_Pradesh,Ghaziabad,"Loni, Ghaziabad - UPPCB",01-01-2026 08:00:00,28.757294,77.278792,NO2,42,126,77
India,Uttar_Pradesh,Ghaziabad,"Loni, Ghaziabad - UPPCB",01-01-2026 08:00:00,28.757294,77.278792,OZONE,2,14,9
India,Uttar_Pradesh,Ghaziabad,"Sanjay Nagar, Ghaziabad - UPPCB",01-01-2026 08:00:00,28.685382,77.453839,SO2,8,14,12
India,Uttar_Pradesh,Baghpat,"Sardar Patel Inter College, Baghpat - UPPCB",01-01-2026 08:00:00,28.964949,77.278761,SO2,9,18,13
India,Uttar_Pradesh,Bareilly,"Rajendra Nagar, Bareilly - UPPCB",01-01-2026 08:00:00,28.38910936,79.42963708,PM10,73,162,117
India,Uttar_Pradesh,Greater Noida,"Knowledge Park - V, Greater Noida - UPPCB",01-01-2026 08:00:00,28.557054,77.453663,OZONE,5,28,20
India,Uttar_Pradesh,Hapur,"Anand Vihar, Hapur - UPPCB",01-01-2026 08:00:00,28.725645,77.749675,PM10,70,212,146
India,Uttar_Pradesh,Ghaziabad,"Vasundhara, Ghaziabad - UPPCB",01-01-2026 08:00:00,28.6603346,77.3572563,PM2.5,321,479,399
India,Uttar_Pradesh,Ghaziabad,"Vasundhara, Ghaziabad - UPPCB",01-01-2026 08:00:00,28.6603346,77.3572563,OZONE,7,30,23
India,Uttar_Pradesh,Agra,"Rohta, Agra - UPPCB",01-01-2026 08:00:00,27.106972,78.000111,PM10,75,144,110
India,Uttar_Pradesh,Agra,"Rohta, Agra - UPPCB",01-01-2026 08:00:00,27.106972,78.000111,NH3,4,4,4
India,Uttar_Pradesh,Greater Noida,"Knowledge Park - III, Greater Noida - UPPCB",01-01-2026 08:00:00,28.47272,77.482000,SO2,6,14,10
India,Uttar_Pradesh,Agra,"Manoharpur, Agra - UPPCB",01-01-2026 08:00:00,27.23711,78.01936,SO2,52,77,66
India,Uttar_Pradesh,Lucknow,"B R Ambedkar University, Lucknow - UPPCB",01-01-2026 08:00:00,26.766433,80.927299,PM2.5,49,313,118
India,Uttar_Pradesh,Kanpur,"FTI Kidwai Nagar, Kanpur - UPPCB",01-01-2026 08:00:00,26.428282,80.327067,PM10,50,141,101
India,Uttar_Pradesh,Khurja,"Kalindi Kunj, Khurja - UPPCB",01-01-2026 08:00:00,28.2348927,77.8683002,PM2.5,48,316,227
India,Uttar_Pradesh,Khurja,"Kalindi Kunj, Khurja - UPPCB",01-01-2026 08:00:00,28.2348927,77.8683002,PM10,82,218,171
India,Uttar_Pradesh,Kanpur,"Nehru Nagar, Kanpur - UPPCB",01-01-2026 08:00:00,26.4703136,80.3229863,PM10,51,155,100
India,Uttar_Pradesh,Kanpur,"Nehru Nagar, Kanpur - UPPCB",01-01-2026 08:00:00,26.4703136,80.3229863,OZONE,10,21,11
India,Uttar_Pradesh,Kanpur,"NSI Kalyanpur, Kanpur - UPPCB",01-01-2026 08:00:00,26.509954,80.249612,SO2,19,21,20
India,Uttar_Pradesh,Jhansi,"Shivaji Nagar, Jhansi - UPPCB",01-01-2026 08:00:00,25.4547,78.6039,OZONE,1,8,1
India,Uttar_Pradesh,Jhansi,"Shivaji Nagar, Jhansi - UPPCB",01-01-2026 08:00:00,25.4547,78.6039,NH3,4,4,4
India,Uttar_Pradesh,Lucknow,"B R Ambedkar University, Lucknow - UPPCB",01-01-2026 08:00:00,26.766433,80.927299,NH3,1,4,2
India,Uttar_Pradesh,Lucknow,"B R Ambedkar University, Lucknow - UPPCB",01-01-2026 08:00:00,26.766433,80.927299,SO2,24,24,24
India,Uttar_Pradesh,Lucknow,"B R Ambedkar University, Lucknow - UPPCB",01-01-2026 08:00:00,26.766433,80.927299,OZONE,18,57,19
India,Uttar_Pradesh,Lucknow,"Gomti Nagar, Lucknow - UPPCB",01-01-2026 08:00:00,26.868120,81.005119,PM10,27,105,61
India,Uttar_Pradesh,Lucknow,"Gomti Nagar, Lucknow - UPPCB",01-01-2026 08:00:00,26.868120,81.005119,NO2,5,7,6
India,Uttar_Pradesh,Lucknow,"Kendriya Vidyalaya, Lucknow - CPCB",01-01-2026 08:00:00,26.906111,80.948222,CO,30,107,53
India,Uttar_Pradesh,Lucknow,"Kukrail Picnic Spot-1, Lucknow - UPPCB",01-01-2026 08:00:00,26.90723,80.98579,PM10,33,100,71
India,Uttar_Pradesh,Lucknow,"Kukrail Picnic Spot-1, Lucknow - UPPCB",01-01-2026 08:00:00,26.90723,80.98579,NH3,6,6,6
India,Uttar_Pradesh,Lucknow,"Lalbagh, Lucknow - CPCB",01-01-2026 08:00:00,26.8458805,80.9365541,OZONE,3,21,3
India,Uttar_Pradesh,Lucknow,"Talkatora District Industries Center, Lucknow - CPCB",01-01-2026 08:00:00,26.83399722,80.8917361,PM2.5,132,428,273
India,Uttar_Pradesh,Meerut,"Ganga Nagar, Meerut - UPPCB",01-01-2026 08:00:00,28.999264,77.7590354,PM2.5,176,314,271
India,Uttar_Pradesh,Meerut,"Ganga Nagar, Meerut - UPPCB",01-01-2026 08:00:00,28.999264,77.7590354,SO2,20,70,27
India,Uttar_Pradesh,Lucknow,"Talkatora District Industries Center, Lucknow - CPCB",01-01-2026 08:00:00,26.83399722,80.8917361,NH3,4,10,7
India,Uttar_Pradesh,Lucknow,"Kendriya Vidyalaya, Lucknow - CPCB",01-01-2026 08:00:00,26.906111,80.948222,PM2.5,131,295,227
India,Uttar_Pradesh,Lucknow,"Kendriya Vidyalaya, Lucknow - CPCB",01-01-2026 08:00:00,26.906111,80.948222,PM10,81,318,175
India,Uttar_Pradesh,Meerut,"Ganga Nagar, Meerut - UPPCB",01-01-2026 08:00:00,28.999264,77.7590354,OZONE,10,71,16
India,Uttar_Pradesh,Lucknow,"Lalbagh, Lucknow - CPCB",01-01-2026 08:00:00,26.8458805,80.9365541,NH3,15,23,19
India,Uttar_Pradesh,Moradabad,"Buddhi Vihar, Moradabad - UPPCB",01-01-2026 08:00:00,28.83526,78.74460,PM2.5,60,247,142
India,Uttar_Pradesh,Moradabad,"Buddhi Vihar, Moradabad - UPPCB",01-01-2026 08:00:00,28.83526,78.74460,PM10,88,181,130
India,Uttar_Pradesh,Moradabad,"Buddhi Vihar, Moradabad - UPPCB",01-01-2026 08:00:00,28.83526,78.74460,NH3,5,5,5
India,Uttar_Pradesh,Moradabad,"Buddhi Vihar, Moradabad - UPPCB",01-01-2026 08:00:00,28.83526,78.74460,CO,49,66,51
India,Uttar_Pradesh,Meerut,"Pallavpuram Phase 2, Meerut - UPPCB",01-01-2026 08:00:00,29.063510,77.709723,SO2,10,24,16
India,Uttar_Pradesh,Meerut,"Pallavpuram Phase 2, Meerut - UPPCB",01-01-2026 08:00:00,29.063510,77.709723,OZONE,18,69,25
India,Uttar_Pradesh,Moradabad,"Transport Nagar, Moradabad - UPPCB",01-01-2026 08:00:00,28.802625,78.753728,PM2.5,53,309,124
India,Uttar_Pradesh,Moradabad,"Transport Nagar, Moradabad - UPPCB",01-01-2026 08:00:00,28.802625,78.753728,PM10,58,170,99
India,Uttar_Pradesh,Moradabad,"Eco Herbal Park, Moradabad - UPPCB",01-01-2026 08:00:00,28.840739,78.697531,SO2,2,11,6
India,Uttar_Pradesh,Meerut,"Jai Bhim Nagar, Meerut - UPPCB",01-01-2026 08:00:00,28.9535882,77.7622941,OZONE,4,55,24
India,Uttar_Pradesh,Moradabad,"Employment Office, Moradabad - UPPCB",01-01-2026 08:00:00,28.88528,78.73880,NO2,15,16,16
India,Uttar_Pradesh,Meerut,"Jai Bhim Nagar, Meerut - UPPCB",01-01-2026 08:00:00,28.9535882,77.7622941,NH3,18,35,26
India,Uttar_Pradesh,Moradabad,"Kashiram Nagar, Moradabad - UPPCB",01-01-2026 08:00:00,28.849399,78.742362,NO2,25,25,25
India,Uttar_Pradesh,Moradabad,"Transport Nagar, Moradabad - UPPCB",01-01-2026 08:00:00,28.802625,78.753728,OZONE,26,31,28
India,Uttar_Pradesh,Muzaffarnagar,"New Mandi, Muzaffarnagar - UPPCB",01-01-2026 08:00:00,29.4723508,77.7194031,PM2.5,127,264,173
India,Uttar_Pradesh,Muzaffarnagar,"New Mandi, Muzaffarnagar - UPPCB",01-01-2026 08:00:00,29.4723508,77.7194031,NH3,15,20,18
India,Uttar_Pradesh,Noida,"Sector-116, Noida - UPPCB",01-01-2026 08:00:00,28.569230,77.393848,CO,29,112,35
India,Uttar_Pradesh,Prayagraj,"Jhunsi, Prayagraj - UPPCB",01-01-2026 08:00:00,25.425602,81.917152,SO2,34,34,34
India,Uttar_Pradesh,Prayagraj,"Motilal Nehru NIT, Prayagraj - UPPCB",01-01-2026 08:00:00,25.494,81.863,SO2,18,24,21
India,Uttar_Pradesh,Muzaffarnagar,"New Mandi, Muzaffarnagar - UPPCB",01-01-2026 08:00:00,29.4723508,77.7194031,CO,38,110,47
India,Uttar_Pradesh,Muzaffarnagar,"New Mandi, Muzaffarnagar - UPPCB",01-01-2026 08:00:00,29.4723508,77.7194031,OZONE,5,87,14
India,Uttar_Pradesh,Noida,"Sector-1, Noida - UPPCB",01-01-2026 08:00:00,28.5898,77.3101,NH3,22,26,24
India,Uttar_Pradesh,Varanasi,"IESD Banaras Hindu University, Varanasi - UPPCB",01-01-2026 08:00:00,25.262326,82.995408,PM10,108,189,134
India,Uttarakhand,Rishikesh,"Shivaji Nagar, Rishikesh - UKPCB",01-01-2026 08:00:00,30.075911,78.2859547,NO2,19,28,23
India,West_Bengal,Asansol,"Asansol Court Area, Asansol - WBPCB",01-01-2026 08:00:00,23.685297,86.945968,SO2,13,54,25
India,Uttar_Pradesh,Varanasi,"Bhelupur, Varanasi - UPPCB",01-01-2026 08:00:00,25.301778,82.996789,PM10,53,195,93
India,Uttar_Pradesh,Varanasi,"Maldahiya, Varanasi - UPPCB",01-01-2026 08:00:00,25.32393,82.99687,OZONE,1,3,1
India,Uttar_Pradesh,Varanasi,"Maldahiya, Varanasi - UPPCB",01-01-2026 08:00:00,25.32393,82.99687,NO2,2,2,2
India,West_Bengal,Haldia,"Priyambada Housing Estate, Haldia - WBPCB",01-01-2026 08:00:00,22.06047,88.109737,PM2.5,97,300,221
India,West_Bengal,Haldia,"Priyambada Housing Estate, Haldia - WBPCB",01-01-2026 08:00:00,22.06047,88.109737,PM10,70,154,116
India,West_Bengal,Haldia,"Priyambada Housing Estate, Haldia - WBPCB",01-01-2026 08:00:00,22.06047,88.109737,NH3,2,4,4
India,West_Bengal,Howrah,"Belur Math, Howrah - WBPCB",01-01-2026 08:00:00,22.629801,88.352017,CO,30,103,94
India,West_Bengal,Howrah,"Botanical Garden, Howrah - WBPCB",01-01-2026 08:00:00,22.554954,88.292568,NO2,NA,NA,NA
India,West_Bengal,Howrah,"Dasnagar, Howrah - WBPCB",01-01-2026 08:00:00,22.6025571,88.3105664,NO2,16,56,37
India,West_Bengal,Howrah,"Dasnagar, Howrah - WBPCB",01-01-2026 08:00:00,22.6025571,88.3105664,NH3,3,4,4
India,West_Bengal,Howrah,"Ghusuri, Howrah - WBPCB",01-01-2026 08:00:00,22.611968,88.347422,PM2.5,149,427,294
India,West_Bengal,Howrah,"Ghusuri, Howrah - WBPCB",01-01-2026 08:00:00,22.611968,88.347422,PM10,121,444,256
India,West_Bengal,Howrah,"Ghusuri, Howrah - WBPCB",01-01-2026 08:00:00,22.611968,88.347422,SO2,7,14,11
India,West_Bengal,Durgapur,"Womens College_City Center, Durgapur - WBPCB (Formerly known as Sidhu Kanhu Indoor Stadium)",01-01-2026 08:00:00,23.549395,87.300496,PM10,138,240,168
India,West_Bengal,Durgapur,"Womens College_City Center, Durgapur - WBPCB (Formerly known as Sidhu Kanhu Indoor Stadium)",01-01-2026 08:00:00,23.549395,87.300496,OZONE,2,66,2
India,West_Bengal,Durgapur,"Mahishkapur Road_B-Zone, Durgapur - WBPCB",01-01-2026 08:00:00,23.567923,87.306843,NO2,20,69,35
India,West_Bengal,Durgapur,"Mahishkapur Road_B-Zone, Durgapur - WBPCB",01-01-2026 08:00:00,23.567923,87.306843,SO2,8,53,17
India,West_Bengal,Asansol,"Trivenidevi Bhalotia College, Asansol - WBPCB",01-01-2026 08:00:00,23.616515,87.119133,NH3,6,7,6
India,West_Bengal,Barrackpore,"SVSPA Campus, Barrackpore - WBPCB",01-01-2026 08:00:00,22.7605581,88.3617589,OZONE,3,41,3
India,West_Bengal,Asansol,"Evelyn Lodge, Asansol - WBPCB",01-01-2026 08:00:00,23.6979360,86.9443950,PM10,119,212,143
India,West_Bengal,Asansol,"Mahabir Colliery, Asansol - WBPCB",01-01-2026 08:00:00,23.6181830,87.1057180,OZONE,5,59,5
India,West_Bengal,Asansol,"Mahabir Colliery, Asansol - WBPCB",01-01-2026 08:00:00,23.6181830,87.1057180,NH3,1,2,1
India,West_Bengal,Kolkata,"Ballygunge, Kolkata - WBPCB",01-01-2026 08:00:00,22.5367507,88.3638022,NO2,27,69,44
India,West_Bengal,Kolkata,"Ballygunge, Kolkata - WBPCB",01-01-2026 08:00:00,22.5367507,88.3638022,OZONE,4,29,5
India,West_Bengal,Kolkata,"Fort William, Kolkata - WBPCB",01-01-2026 08:00:00,22.556640,88.342674,NO2,15,19,17
India,West_Bengal,Kolkata,"Fort William, Kolkata - WBPCB",01-01-2026 08:00:00,22.556640,88.342674,NH3,9,10,10
India,West_Bengal,Kolkata,"Fort William, Kolkata - WBPCB",01-01-2026 08:00:00,22.556640,88.342674,SO2,9,20,14
India,West_Bengal,Kolkata,"Fort William, Kolkata - WBPCB",01-01-2026 08:00:00,22.556640,88.342674,CO,30,100,82
India,West_Bengal,Kolkata,"Jadavpur, Kolkata - WBPCB",01-01-2026 08:00:00,22.49929,88.36917,NH3,6,19,11
India,West_Bengal,Kolkata,"Jadavpur, Kolkata - WBPCB",01-01-2026 08:00:00,22.49929,88.36917,CO,29,128,119
India,West_Bengal,Kolkata,"Rabindra Bharati University, Kolkata - WBPCB",01-01-2026 08:00:00,22.627847,88.380669,NO2,50,150,102
India,West_Bengal,Kolkata,"Rabindra Bharati University, Kolkata - WBPCB",01-01-2026 08:00:00,22.627847,88.380669,SO2,9,14,11
India,West_Bengal,Kolkata,"Rabindra Sarobar, Kolkata - WBPCB",01-01-2026 08:00:00,22.51106,88.35142,NO2,43,175,115
India,West_Bengal,Siliguri,"Ward-32 Bapupara, Siliguri - WBPCB",01-01-2026 08:00:00,26.6879226,88.4152495,NO2,11,15,13
India,Andhra_Pradesh,Rajamahendravaram,"Anand Kala Kshetram, Rajamahendravaram - APPCB",01-01-2026 08:00:00,16.9872867,81.7363176,CO,32,72,51
India,Andhra_Pradesh,Tirumala,"Toll Gate, Tirumala - APPCB",01-01-2026 08:00:00,13.67,79.35,NH3,2,2,2
India,Andhra_Pradesh,Kadapa,"Yerramukkapalli, Kadapa - APPCB",01-01-2026 08:00:00,14.465052,78.824187,NH3,3,4,3
India,Andhra_Pradesh,Kadapa,"Yerramukkapalli, Kadapa - APPCB",01-01-2026 08:00:00,14.465052,78.824187,CO,32,52,34
India,Andhra_Pradesh,Anantapur,"Gulzarpet, Anantapur - APPCB",01-01-2026 08:00:00,14.675886,77.593027,NO2,10,23,12
India,Andhra_Pradesh,Anantapur,"Gulzarpet, Anantapur - APPCB",01-01-2026 08:00:00,14.675886,77.593027,NH3,5,5,5
India,Andhra_Pradesh,Rajamahendravaram,"Anand Kala Kshetram, Rajamahendravaram - APPCB",01-01-2026 08:00:00,16.9872867,81.7363176,NO2,14,45,27
India,Andhra_Pradesh,Vijayawada,"Rajiv Gandhi Park, Vijayawada - APPCB",01-01-2026 08:00:00,16.509717,80.612222,OZONE,11,38,15
India,Andhra_Pradesh,Chittoor,"Gangineni Cheruvu, Chittoor - APPCB",01-01-2026 08:00:00,13.204880,79.097889,CO,12,24,14
India,Andhra_Pradesh,Vijayawada,"HB Colony, Vijayawada - APPCB",01-01-2026 08:00:00,16.536107,80.594233,OZONE,11,44,28
India,Andhra_Pradesh,Vijayawada,"HB Colony, Vijayawada - APPCB",01-01-2026 08:00:00,16.536107,80.594233,CO,20,48,32
India,Andhra_Pradesh,Vijayawada,"HB Colony, Vijayawada - APPCB",01-01-2026 08:00:00,16.536107,80.594233,NH3,3,5,3
India,Andhra_Pradesh,Tirumala,"Toll Gate, Tirumala - APPCB",01-01-2026 08:00:00,13.67,79.35,OZONE,30,358,174
India,Assam,Guwahati,"Pan Bazaar, Guwahati - PCBA",01-01-2026 08:00:00,26.187500,91.744194,PM2.5,1,1,1
India,Assam,Guwahati,"Pan Bazaar, Guwahati - PCBA",01-01-2026 08:00:00,26.187500,91.744194,OZONE,17,18,17
India,Assam,Guwahati,"Railway Colony, Guwahati - PCBA",01-01-2026 08:00:00,26.181742,91.78063,NO2,3,4,3
India,Assam,Guwahati,"Railway Colony, Guwahati - PCBA",01-01-2026 08:00:00,26.181742,91.78063,CO,42,151,141
India,Assam,Nagaon,"Christianpatty, Nagaon - PCBA",01-01-2026 08:00:00,26.349082,92.68449,NO2,1,1,1
India,Assam,Nagaon,"Christianpatty, Nagaon - PCBA",01-01-2026 08:00:00,26.349082,92.68449,CO,5,24,24
India,Assam,Nagaon,"Christianpatty, Nagaon - PCBA",01-01-2026 08:00:00,26.349082,92.68449,OZONE,8,9,9
India,Assam,Nalbari,"Bata Chowk, Nalbari - PCBA",01-01-2026 08:00:00,26.446912,91.439057,NH3,6,6,6
India,Assam,Silchar,"Tarapur, Silchar - PCBA",01-01-2026 08:00:00,24.82827,92.79525,PM2.5,52,97,77
India,Assam,Silchar,"Tarapur, Silchar - PCBA",01-01-2026 08:00:00,24.82827,92.79525,NH3,1,2,2
India,Arunachal_Pradesh,Naharlagun,"Naharlagun, Naharlagun - APSPCB",01-01-2026 08:00:00,27.103358,93.679645,OZONE,5,7,6
India,Assam,Byrnihat,"Central Academy for SFS, Byrnihat - PCBA",01-01-2026 08:00:00,26.071318,91.87488,OZONE,15,26,18
India,Assam,Guwahati,"LGBI Airport, Guwahati - PCBA",01-01-2026 08:00:00,26.10887,91.589544,PM10,62,147,114
India,Bihar,Gaya,"SFTI Kusdihra, Gaya - BSPCB",01-01-2026 08:00:00,24.762518,84.982348,PM2.5,52,90,75
India,Bihar,Hajipur,"Industrial Area, Hajipur - BSPCB",01-01-2026 08:00:00,25.697189,85.245900,PM10,101,204,131
India,Bihar,Hajipur,"Industrial Area, Hajipur - BSPCB",01-01-2026 08:00:00,25.697189,85.245900,SO2,6,9,8
India,Bihar,Katihar,"Mirchaibari, Katihar - BSPCB",01-01-2026 08:00:00,25.560083,87.553265,NH3,1,1,1
India,Bihar,Bhagalpur,"DM Office_Kachari Chowk, Bhagalpur - BSPCB",01-01-2026 08:00:00,25.251013,86.989001,CO,47,86,59
India,Bihar,Bihar Sharif,"D M Colony, Bihar Sharif - BSPCB",01-01-2026 08:00:00,25.204762,85.514960,CO,2,71,1
India,Bihar,Chhapra,"Darshan Nagar, Chhapra - BSPCB",01-01-2026 08:00:00,25.7808257,84.7446768,PM10,NA,NA,NA
India,Bihar,Chhapra,"Darshan Nagar, Chhapra - BSPCB",01-01-2026 08:00:00,25.7808257,84.7446768,NO2,NA,NA,NA
India,Bihar,Gaya,"Collectorate, Gaya - BSPCB",01-01-2026 08:00:00,24.7955,84.9994,CO,32,32,32
India,Bihar,Gaya,"Kareemganj, Gaya - BSPCB",01-01-2026 08:00:00,24.792403,84.992416,NO2,2,8,5
India,Bihar,Kishanganj,"SDM Office_Khagra, Kishanganj - BSPCB",01-01-2026 08:00:00,26.0881305,87.93840336,PM2.5,68,82,75
India,Bihar,Manguraha,"Forest Rest House, Manguraha - BSPCB",01-01-2026 08:00:00,27.308328,84.531742,SO2,16,17,16
India,Assam,Sivasagar,"Girls College, Sivasagar - PCBA",01-01-2026 08:00:00,26.987634,94.636574,NO2,19,35,28
India,Assam,Sivasagar,"Girls College, Sivasagar - PCBA",01-01-2026 08:00:00,26.987634,94.636574,OZONE,5,66,7
India,Assam,Guwahati,"LGBI Airport, Guwahati - PCBA",01-01-2026 08:00:00,26.10887,91.589544,SO2,1,27,10
India,Assam,Guwahati,"LGBI Airport, Guwahati - PCBA",01-01-2026 08:00:00,26.10887,91.589544,OZONE,11,14,13
India,Bihar,Bettiah,"Kamalnath Nagar, Bettiah - BSPCB",01-01-2026 08:00:00,26.80365,84.51954,NH3,1,1,1
India,Bihar,Patna,"Muradpur, Patna - BSPCB",01-01-2026 08:00:00,25.619651,85.147382,OZONE,5,16,6
India,Bihar,Patna,"Rajbansi Nagar, Patna - BSPCB",01-01-2026 08:00:00,25.599486,85.113666,PM10,116,148,130
India,Bihar,Patna,"Rajbansi Nagar, Patna - BSPCB",01-01-2026 08:00:00,25.599486,85.113666,CO,42,111,58
India,Bihar,Muzaffarpur,"Muzaffarpur Collectorate, Muzaffarpur - BSPCB",01-01-2026 08:00:00,26.1209,85.3647,NO2,10,17,12
India,Bihar,Patna,"DRM Office Danapur, Patna - BSPCB",01-01-2026 08:00:00,25.586562,85.043586,PM2.5,99,216,162
India,Bihar,Patna,"IGSC Planetarium Complex, Patna - BSPCB",01-01-2026 08:00:00,25.610369,85.132568,OZONE,28,36,31
India,Bihar,Muzaffarpur,"MIT-Daudpur Kothi, Muzaffarpur - BSPCB",01-01-2026 08:00:00,26.1403345,85.3650192,NO2,2,4,3
India,Bihar,Patna,"Govt. High School Shikarpur, Patna - BSPCB",01-01-2026 08:00:00,25.592539,85.227158,NH3,4,5,5
India,Bihar,Muzaffarpur,"Buddha Colony, Muzaffarpur - BSPCB",01-01-2026 08:00:00,26.11442,85.39813,PM10,108,155,133
India,Bihar,Muzaffarpur,"Buddha Colony, Muzaffarpur - BSPCB",01-01-2026 08:00:00,26.11442,85.39813,OZONE,13,76,16
India,Bihar,Munger,"Town Hall, Munger - BSPCB",01-01-2026 08:00:00,25.376776,86.471523,SO2,33,50,40
India,Bihar,Patna,"Muradpur, Patna - BSPCB",01-01-2026 08:00:00,25.619651,85.147382,SO2,7,9,9
India,Chhattisgarh,Bhilai,"32Bungalows, Bhilai - CECB",01-01-2026 08:00:00,21.194815,81.314770,NO2,16,78,40
India,Chhattisgarh,Bhilai,"32Bungalows, Bhilai - CECB",01-01-2026 08:00:00,21.194815,81.314770,NH3,5,7,6
India,Chhattisgarh,Bhilai,"Civic Center, Bhilai - Bhilai Steel Plant",01-01-2026 08:00:00,21.185571,81.343175,PM2.5,21,74,48
India,Chhattisgarh,Bhilai,"Civic Center, Bhilai - Bhilai Steel Plant",01-01-2026 08:00:00,21.185571,81.343175,NH3,7,7,7
India,Chhattisgarh,Bilaspur,"Mangala, Bilaspur - NTPC",01-01-2026 08:00:00,22.08815,82.13737,PM10,64,187,111
India,Bihar,Siwan,"Chitragupta Nagar, Siwan - BSPCB",01-01-2026 08:00:00,26.2271665,84.3570427,SO2,10,10,10
India,Chandigarh,Chandigarh,"Sector 22, Chandigarh - CPCC",01-01-2026 08:00:00,30.735567,76.775714,PM10,110,161,135
India,Bihar,Sasaram,"Dada Peer, Sasaram - BSPCB",01-01-2026 08:00:00,24.952822,84.002396,SO2,4,5,5
India,Bihar,Siwan,"Chitragupta Nagar, Siwan - BSPCB",01-01-2026 08:00:00,26.2271665,84.3570427,PM2.5,60,315,159
India,Bihar,Rajgir,"Dangi Tola, Rajgir - BSPCB",01-01-2026 08:00:00,25.03280,85.41948,OZONE,31,33,32
India,Bihar,Saharsa,"Police Line, Saharsa - BSPCB",01-01-2026 08:00:00,25.892357,86.590325,NO2,5,8,7
India,Bihar,Samastipur,"DM Office_Kasipur, Samastipur - BSPCB",01-01-2026 08:00:00,25.859655,85.77944,PM2.5,110,315,210
India,Bihar,Samastipur,"DM Office_Kasipur, Samastipur - BSPCB",01-01-2026 08:00:00,25.859655,85.77944,PM10,103,188,138
India,Bihar,Samastipur,"DM Office_Kasipur, Samastipur - BSPCB",01-01-2026 08:00:00,25.859655,85.77944,NO2,8,9,8
India,Chhattisgarh,Korba,"Rampur, Korba - CECB",01-01-2026 08:00:00,22.368195,82.746431,PM2.5,30,142,77
India,Chhattisgarh,Korba,"Rampur, Korba - CECB",01-01-2026 08:00:00,22.368195,82.746431,PM10,34,123,81
India,Chhattisgarh,Korba,"Rampur, Korba - CECB",01-01-2026 08:00:00,22.368195,82.746431,NH3,1,1,1
India,Chandigarh,Chandigarh,"Sector-25, Chandigarh - CPCC",01-01-2026 08:00:00,30.751462,76.762879,OZONE,1,20,11
India,Chandigarh,Chandigarh,"Sector-53, Chandigarh - CPCC",01-01-2026 08:00:00,30.719859,76.738637,OZONE,2,33,17
India,Bihar,Patna,"Samanpura, Patna - BSPCB",01-01-2026 08:00:00,25.596727,85.085624,NH3,5,6,5
India,Bihar,Patna,"Samanpura, Patna - BSPCB",01-01-2026 08:00:00,25.596727,85.085624,SO2,1,2,1
India,Bihar,Rajgir,"Dangi Tola, Rajgir - BSPCB",01-01-2026 08:00:00,25.03280,85.41948,CO,80,98,87
India,Chhattisgarh,Korba,"Urja Nagar, Korba - CECB",01-01-2026 08:00:00,22.348441,82.549611,PM2.5,37,443,154
India,Chhattisgarh,Korba,"Urja Nagar, Korba - CECB",01-01-2026 08:00:00,22.348441,82.549611,SO2,2,12,6
India,Chhattisgarh,Korba,"Urja Nagar, Korba - CECB",01-01-2026 08:00:00,22.348441,82.549611,CO,16,52,38
India,Chhattisgarh,Kunjemura,"OP Jindal School, Kunjemura - CECB",01-01-2026 08:00:00,22.126650,83.483212,PM10,57,129,87
India,Chhattisgarh,Raipur,"Bhatagaon New ISBT, Raipur - CECB",01-01-2026 08:00:00,21.219665,81.630094,OZONE,2,9,2
India,Chhattisgarh,Raipur,"Krishak Nagar, Raipur - CECB",01-01-2026 08:00:00,21.237755,81.705301,PM10,38,101,70
India,Chhattisgarh,Raipur,"Krishak Nagar, Raipur - CECB",01-01-2026 08:00:00,21.237755,81.705301,NH3,2,2,2
India,Chhattisgarh,Tumidih,"OP Jindal Industrial Park, Tumidih - CECB",01-01-2026 08:00:00,22.06631475,83.33820077,CO,23,106,40
India,Chhattisgarh,Tumidih,"OP Jindal Industrial Park, Tumidih - CECB",01-01-2026 08:00:00,22.06631475,83.33820077,OZONE,3,106,4
India,Delhi,Delhi,"Alipur, Delhi - DPCC",01-01-2026 08:00:00,28.815329,77.153010,PM10,156,491,328
India,Delhi,Delhi,"Alipur, Delhi - DPCC",01-01-2026 08:00:00,28.815329,77.153010,NO2,26,74,59
India,Chhattisgarh,Milupara,"Govt. Higher Secondary School, Milupara - CECB",01-01-2026 08:00:00,22.1910172,83.5197009,OZONE,2,127,7
India,Chhattisgarh,Tumidih,"OP Jindal Industrial Park, Tumidih - CECB",01-01-2026 08:00:00,22.06631475,83.33820077,PM2.5,37,318,111
India,Chhattisgarh,Milupara,"Govt. Higher Secondary School, Milupara - CECB",01-01-2026 08:00:00,22.1910172,83.5197009,NO2,24,84,44
India,Chhattisgarh,Milupara,"Govt. Higher Secondary School, Milupara - CECB",01-01-2026 08:00:00,22.1910172,83.5197009,SO2,13,41,20
India,Chhattisgarh,Raipur,"AIIMS, Raipur - CECB",01-01-2026 08:00:00,21.258815,81.578979,NO2,NA,NA,NA
India,Delhi,Delhi,"Alipur, Delhi - DPCC",01-01-2026 08:00:00,28.815329,77.153010,OZONE,7,13,12
India,Delhi,Delhi,"Anand Vihar, Delhi - DPCC",01-01-2026 08:00:00,28.647622,77.3158090,PM10,187,454,311
India,Delhi,Delhi,"Burari Crossing, Delhi - IMD",01-01-2026 08:00:00,28.7256504,77.2011573,PM10,131,326,224
India,Delhi,Delhi,"CRRI Mathura Road, Delhi - IMD",01-01-2026 08:00:00,28.5512005,77.2735737,PM2.5,156,375,310
India,Delhi,Delhi,"Aya Nagar, Delhi - IMD",01-01-2026 08:00:00,28.4706914,77.1099364,PM10,153,407,294
India,Delhi,Delhi,"Bawana, Delhi - DPCC",01-01-2026 08:00:00,28.776200,77.051074,PM10,168,407,301
India,Delhi,Delhi,"CRRI Mathura Road, Delhi - IMD",01-01-2026 08:00:00,28.5512005,77.2735737,CO,30,72,41
India,Delhi,Delhi,"CRRI Mathura Road, Delhi - IMD",01-01-2026 08:00:00,28.5512005,77.2735737,OZONE,9,21,16
India,Delhi,Delhi,"Dr. Karni Singh Shooting Range, Delhi - DPCC",01-01-2026 08:00:00,28.498571,77.264840,PM2.5,316,430,375
India,Delhi,Delhi,"Dr. Karni Singh Shooting Range, Delhi - DPCC",01-01-2026 08:00:00,28.498571,77.264840,OZONE,7,41,33
India,Delhi,Delhi,"Ashok Vihar, Delhi - DPCC",01-01-2026 08:00:00,28.695381,77.181665,PM2.5,316,444,392
India,Delhi,Delhi,"Chandni Chowk, Delhi - IITM",01-01-2026 08:00:00,28.656756,77.227234,CO,38,113,96
India,Delhi,Delhi,"Anand Vihar, Delhi - DPCC",01-01-2026 08:00:00,28.647622,77.3158090,CO,80,132,89
India,Delhi,Delhi,"Jawaharlal Nehru Stadium, Delhi - DPCC",01-01-2026 08:00:00,28.580280,77.233829,PM10,185,406,298
India,Delhi,Delhi,"Lodhi Road, Delhi - IMD",01-01-2026 08:00:00,28.5918245,77.2273074,PM2.5,270,374,338
India,Delhi,Delhi,"Lodhi Road, Delhi - IMD",01-01-2026 08:00:00,28.5918245,77.2273074,CO,37,60,41
India,Delhi,Delhi,"Major Dhyan Chand National Stadium, Delhi - DPCC",01-01-2026 08:00:00,28.611281,77.237738,SO2,24,28,26
India,Delhi,Delhi,"Major Dhyan Chand National Stadium, Delhi - DPCC",01-01-2026 08:00:00,28.611281,77.237738,CO,91,112,95
India,Delhi,Delhi,"Mandir Marg, Delhi - DPCC",01-01-2026 08:00:00,28.636429,77.201067,NO2,63,122,98
India,Delhi,Delhi,"Mandir Marg, Delhi - DPCC",01-01-2026 08:00:00,28.636429,77.201067,CO,103,127,116
India,Delhi,Delhi,"Mundka, Delhi - DPCC",01-01-2026 08:00:00,28.684678,77.076574,SO2,12,27,18
India,Delhi,Delhi,"NSIT Dwarka, Delhi - CPCB",01-01-2026 08:00:00,28.60909,77.0325413,NH3,23,33,29
India,Delhi,Delhi,"NSIT Dwarka, Delhi - CPCB",01-01-2026 08:00:00,28.60909,77.0325413,CO,55,105,68
India,Delhi,Delhi,"NSIT Dwarka, Delhi - CPCB",01-01-2026 08:00:00,28.60909,77.0325413,OZONE,22,26,24
India,Delhi,Delhi,"Najafgarh, Delhi - DPCC",01-01-2026 08:00:00,28.570173,76.933762,PM2.5,306,385,354
India,Delhi,Delhi,"Narela, Delhi - DPCC",01-01-2026 08:00:00,28.822836,77.101981,NH3,9,13,11
India,Delhi,Delhi,"Narela, Delhi - DPCC",01-01-2026 08:00:00,28.822836,77.101981,CO,50,112,66
India,Delhi,Delhi,"North Campus, DU, Delhi - IMD",01-01-2026 08:00:00,28.6573814,77.1585447,PM10,NA,NA,NA
India,Delhi,Delhi,"North Campus, DU, Delhi - IMD",01-01-2026 08:00:00,28.6573814,77.1585447,NO2,NA,NA,NA
India,Delhi,Delhi,"Patparganj, Delhi - DPCC",01-01-2026 08:00:00,28.623763,77.287209,NO2,19,84,53
India,Delhi,Delhi,"Patparganj, Delhi - DPCC",01-01-2026 08:00:00,28.623763,77.287209,SO2,7,13,9
India,Delhi,Delhi,"IHBAS, Dilshad Garden, Delhi - CPCB",01-01-2026 08:00:00,28.6811736,77.3025234,CO,34,100,72
India,Delhi,Delhi,"IIT Delhi, Delhi - IITM",01-01-2026 08:00:00,28.542460,77.191651,PM2.5,281,395,340
India,Delhi,Delhi,"IIT Delhi, Delhi - IITM",01-01-2026 08:00:00,28.542460,77.191651,CO,72,103,78
India,Delhi,Delhi,"ITO, Delhi - CPCB",01-01-2026 08:00:00,28.628624,77.241060,OZONE,28,30,29
India,Delhi,Delhi,"Najafgarh, Delhi - DPCC",01-01-2026 08:00:00,28.570173,76.933762,NO2,88,117,103
India,Delhi,Delhi,"Najafgarh, Delhi - DPCC",01-01-2026 08:00:00,28.570173,76.933762,SO2,1,76,10
India,Delhi,Delhi,"IGI Airport (T3), Delhi - IMD",01-01-2026 08:00:00,28.5627763,77.1180053,OZONE,10,18,14
India,Delhi,Delhi,"Dwarka-Sector 8, Delhi - DPCC ",01-01-2026 08:00:00,28.5710274,77.0719006,NH3,7,27,21
India,Delhi,Delhi,"Jahangirpuri, Delhi - DPCC",01-01-2026 08:00:00,28.732820,77.170633,NH3,2,4,3
India,Delhi,Delhi,"Pusa, Delhi - DPCC",01-01-2026 08:00:00,28.639652,77.146275,CO,17,84,64
India,Delhi,Delhi,"Sonia Vihar, Delhi - DPCC",01-01-2026 08:00:00,28.710508,77.249485,NO2,35,97,61
India,Delhi,Delhi,"Sonia Vihar, Delhi - DPCC",01-01-2026 08:00:00,28.710508,77.249485,NH3,8,33,19
India,Delhi,Delhi,"Sonia Vihar, Delhi - DPCC",01-01-2026 08:00:00,28.710508,77.249485,CO,87,120,94
India,Delhi,Delhi,"Sri Aurobindo Marg, Delhi - DPCC",01-01-2026 08:00:00,28.531346,77.190156,OZONE,1,18,15
India,Delhi,Delhi,"Sirifort, Delhi - CPCB",01-01-2026 08:00:00,28.5504249,77.2159377,NO2,24,75,47
India,Delhi,Delhi,"Sirifort, Delhi - CPCB",01-01-2026 08:00:00,28.5504249,77.2159377,CO,40,99,60
India,Delhi,Delhi,"Sirifort, Delhi - CPCB",01-01-2026 08:00:00,28.5504249,77.2159377,OZONE,7,23,8
India,Delhi,Delhi,"Vivek Vihar, Delhi - DPCC",01-01-2026 08:00:00,28.672342,77.315260,OZONE,1,20,14
India,Delhi,Delhi,"Wazirpur, Delhi - DPCC",01-01-2026 08:00:00,28.699793,77.165453,PM2.5,349,480,414
India,Gujarat,Ahmedabad,"Chandkheda, Ahmedabad - IITM",01-01-2026 08:00:00,23.107969,72.574648,NH3,6,22,12
India,Gujarat,Ahmedabad,"Maninagar, Ahmedabad - GPCB",01-01-2026 08:00:00,23.002657,72.591912,NO2,63,64,64
India,Gujarat,Ahmedabad,"Gyaspur, Ahmedabad - IITM",01-01-2026 08:00:00,22.977134,72.553024,NH3,3,33,14
India,Delhi,Delhi,"R K Puram, Delhi - DPCC",01-01-2026 08:00:00,28.563262,77.186937,NO2,15,56,36
India,Delhi,Delhi,"Shadipur, Delhi - CPCB",01-01-2026 08:00:00,28.6514781,77.1473105,SO2,12,25,21
India,Delhi,Delhi,"Rohini, Delhi - DPCC",01-01-2026 08:00:00,28.732528,77.119920,NO2,20,180,57
India,Haryana,Bahadurgarh,"Arya Nagar, Bahadurgarh - HSPCB",01-01-2026 08:00:00,28.6701,76.9254,PM2.5,54,308,196
India,Haryana,Bahadurgarh,"Arya Nagar, Bahadurgarh - HSPCB",01-01-2026 08:00:00,28.6701,76.9254,OZONE,16,20,18
India,Haryana,Ballabgarh,"Nathu Colony, Ballabgarh - HSPCB",01-01-2026 08:00:00,28.3419248,77.319699,PM10,133,210,171
India,Haryana,Bhiwani,"H.B. Colony, Bhiwani - HSPCB",01-01-2026 08:00:00,28.806223,76.141105,OZONE,9,26,18
India,Haryana,Charkhi Dadri,"Mini Secretariat, Charkhi Dadri - HSPCB",01-01-2026 08:00:00,28.593883,76.270653,NO2,9,22,16
India,Gujarat,Surat,"Science Center, Surat - SMC",01-01-2026 08:00:00,21.170046,72.795405,PM10,94,409,158
India,Gujarat,Surat,"Science Center, Surat - SMC",01-01-2026 08:00:00,21.170046,72.795405,CO,36,50,42
India,Gujarat,Vapi,"Phase-1 GIDC, Vapi - GPCB",01-01-2026 08:00:00,20.362421,72.918013,NH3,NA,NA,NA
India,Gujarat,Vatva,"Phase-4 GIDC, Vatva - GPCB",01-01-2026 08:00:00,22.969611,72.643500,PM10,69,270,128
India,Haryana,Fatehabad,"Huda Sector, Fatehabad - HSPCB",01-01-2026 08:00:00,29.503664,75.467934,PM2.5,54,285,173
India,Haryana,Fatehabad,"Huda Sector, Fatehabad - HSPCB",01-01-2026 08:00:00,29.503664,75.467934,NH3,13,15,14
India,Haryana,Gurugram,"Teri Gram, Gurugram - HSPCB",01-01-2026 08:00:00,28.4275,77.1465,NH3,8,16,11
India,Haryana,Gurugram,"Teri Gram, Gurugram - HSPCB",01-01-2026 08:00:00,28.4275,77.1465,CO,45,67,49
India,Haryana,Dharuhera,"Municipal Corporation Office, Dharuhera -  HSPCB",01-01-2026 08:00:00,28.206800,76.799700,PM2.5,267,389,345
India,Haryana,Dharuhera,"Municipal Corporation Office, Dharuhera -  HSPCB",01-01-2026 08:00:00,28.206800,76.799700,PM10,162,382,271
India,Haryana,Faridabad,"New Industrial Town, Faridabad - HSPCB",01-01-2026 08:00:00,28.39072,77.30059,PM2.5,208,223,214
India,Gujarat,Ahmedabad,"SAC ISRO Satellite, Ahmedabad - IITM",01-01-2026 08:00:00,23.023389,72.515201,OZONE,1,68,15
India,Gujarat,Ahmedabad,"SVPI Airport Hansol, Ahmedabad - IITM",01-01-2026 08:00:00,23.076793,72.627874,PM2.5,89,328,191
India,Gujarat,Ankleshwar,"GIDC, Ankleshwar - GPCB",01-01-2026 08:00:00,21.613267,73.010555,NO2,18,23,20
India,Gujarat,Gandhinagar,"GIFT City, Gandhinagar - IITM",01-01-2026 08:00:00,23.163798,72.677768,PM2.5,61,135,94
India,Gujarat,Gandhinagar,"IIPHG Lekawada, Gandhinagar - IITM",01-01-2026 08:00:00,23.243639,72.68994,PM2.5,194,319,265
India,Gujarat,Gandhinagar,"IIPHG Lekawada, Gandhinagar - IITM",01-01-2026 08:00:00,23.243639,72.68994,CO,30,100,80
India,Gujarat,Ahmedabad,"SAC ISRO Satellite, Ahmedabad - IITM",01-01-2026 08:00:00,23.023389,72.515201,SO2,11,127,31
India,Gujarat,Ahmedabad,"Rakhial, Ahmedabad - IITM",01-01-2026 08:00:00,23.016834,72.625775,PM2.5,89,361,236
India,Haryana,Kurukshetra,"Sector-7, Kurukshetra - HSPCB",01-01-2026 08:00:00,29.966942,76.875879,PM10,177,305,247
India,Haryana,Mandikhera,"General Hospital, Mandikhera(Nuh) - HSPCB",01-01-2026 08:00:00,27.9002,76.9938,PM2.5,NA,NA,NA
India,Haryana,Karnal,"Sector-12, Karnal - HSPCB",01-01-2026 08:00:00,29.695300,77.002700,PM2.5,45,324,253
India,Haryana,Karnal,"Sector-12, Karnal - HSPCB",01-01-2026 08:00:00,29.695300,77.002700,NO2,6,7,6
India,Haryana,Manesar,"Sector-2 IMT, Manesar - HSPCB",01-01-2026 08:00:00,28.360699,76.936090,NH3,13,15,14
India,Haryana,Manesar,"Sector-2 IMT, Manesar - HSPCB",01-01-2026 08:00:00,28.360699,76.936090,SO2,5,13,9
India,Haryana,Gurugram,"Vikas Sadan, Gurugram - HSPCB",01-01-2026 08:00:00,28.4501238,77.0263051,NO2,9,45,26
India,Haryana,Gurugram,"Vikas Sadan, Gurugram - HSPCB",01-01-2026 08:00:00,28.4501238,77.0263051,OZONE,8,55,19
India,Haryana,Kaithal,"Rishi Nagar, Kaithal - HSPCB",01-01-2026 08:00:00,29.8006,76.4155,SO2,NA,NA,NA
India,Haryana,Kaithal,"Rishi Nagar, Kaithal - HSPCB",01-01-2026 08:00:00,29.8006,76.4155,CO,NA,NA,NA
India,Haryana,Mandikhera,"General Hospital, Mandikhera(Nuh) - HSPCB",01-01-2026 08:00:00,27.9002,76.9938,NH3,NA,NA,NA
India,Haryana,Hisar,"Urban Estate-II, Hisar - HSPCB",01-01-2026 08:00:00,29.140560,75.744941,CO,NA,NA,NA
India,Haryana,Karnal,"Sector-12, Karnal - HSPCB",01-01-2026 08:00:00,29.695300,77.002700,CO,38,55,44
India,Haryana,Kaithal,"Rishi Nagar, Kaithal - HSPCB",01-01-2026 08:00:00,29.8006,76.4155,PM2.5,NA,NA,NA
India,Haryana,Rohtak,"MD University, Rohtak - HSPCB",01-01-2026 08:00:00,28.52123,76.37138,PM10,NA,NA,NA
India,Haryana,Rohtak,"MD University, Rohtak - HSPCB",01-01-2026 08:00:00,28.52123,76.37138,NO2,NA,NA,NA
India,Haryana,Rohtak,"MD University, Rohtak - HSPCB",01-01-2026 08:00:00,28.52123,76.37138,OZONE,NA,NA,NA
India,Haryana,Sirsa,"F-Block, Sirsa - HSPCB",01-01-2026 08:00:00,29.536400,75.015800,NO2,5,30,18
India,Haryana,Sirsa,"F-Block, Sirsa - HSPCB",01-01-2026 08:00:00,29.536400,75.015800,CO,51,94,74
India,Haryana,Panchgaon,"Amity University, Panchgaon - IITM",01-01-2026 08:00:00,28.3153,76.9143,SO2,2,9,6
India,Haryana,Panchgaon,"Amity University, Panchgaon - IITM",01-01-2026 08:00:00,28.3153,76.9143,OZONE,8,20,14
India,Haryana,Panchkula,"Sector-6, Panchkula - HSPCB ",01-01-2026 08:00:00,30.7057778,76.8531805555555,PM2.5,199,309,273
India,Jammu_and_Kashmir,Srinagar,"Rajbagh, Srinagar - JKPCC",01-01-2026 08:00:00,34.066206,74.819820,PM2.5,23,39,31
India,Jammu_and_Kashmir,Srinagar,"Rajbagh, Srinagar - JKPCC",01-01-2026 08:00:00,34.066206,74.819820,PM10,36,61,49
India,Himachal Pradesh,Baddi,"HIMUDA Complex Phase-1, Baddi - HPPCB",01-01-2026 08:00:00,30.943887,76.801991,PM2.5,170,382,313
India,Jharkhand,Dhanbad,"Sardar Patel Nagar, Dhanbad - JSPCB",01-01-2026 08:00:00,23.80569,86.44268,OZONE,2,30,2
India,Haryana,Narnaul,"Shastri Nagar, Narnaul - HSPCB",01-01-2026 08:00:00,28.060249,76.113115,PM10,138,208,177
India,Jammu_and_Kashmir,Pampore,"Khrew, Pampore - JKPCC",01-01-2026 08:00:00,34.031606,75.009712,NO2,31,56,38
India,Jammu_and_Kashmir,Srinagar,"Khunmoh, Srinagar - JKPCC",01-01-2026 08:00:00,34.06313,74.96017,PM2.5,NA,NA,NA
India,Haryana,Panipat,"Sector-18, Panipat - HSPCB",01-01-2026 08:00:00,29.432304,76.972765,NH3,2,3,2
India,Karnataka,Bengaluru,"Jigani, Bengaluru - KSPCB",01-01-2026 08:00:00,12.7816279,77.6299145,PM2.5,34,89,64
India,Karnataka,Bengaluru,"Peenya, Bengaluru - CPCB",01-01-2026 08:00:00,13.0270199,77.494094,PM2.5,28,258,80
India,Karnataka,Bengaluru,"Peenya, Bengaluru - CPCB",01-01-2026 08:00:00,13.0270199,77.494094,NO2,22,28,25
India,Karnataka,Bengaluru,"Hebbal, Bengaluru - KSPCB",01-01-2026 08:00:00,13.029152,77.585901,OZONE,8,41,11
India,Karnataka,Bengaluru,"Hombegowda Nagar, Bengaluru - KSPCB",01-01-2026 08:00:00,12.938539,77.590100,PM10,58,98,82
India,Karnataka,Bengaluru,"BTM Layout, Bengaluru - CPCB",01-01-2026 08:00:00,12.9135218,77.5950804,CO,4,57,7
India,Karnataka,Bengaluru,"BTM Layout, Bengaluru - CPCB",01-01-2026 08:00:00,12.9135218,77.5950804,OZONE,18,18,18
India,Karnataka,Bengaluru,"RVCE-Mailasandra, Bengaluru - KSPCB",01-01-2026 08:00:00,12.921418,77.502466,PM2.5,40,326,147
India,Karnataka,Bengaluru,"Jayanagar 5th Block, Bengaluru - KSPCB",01-01-2026 08:00:00,12.920984,77.584908,NH3,1,2,1
India,Karnataka,Belgaum,"Ramteerth Nagar, Belgaum - KSPCB",01-01-2026 08:00:00,15.888653,74.541751,PM2.5,47,224,83
India,Karnataka,Belgaum,"Ramteerth Nagar, Belgaum - KSPCB",01-01-2026 08:00:00,15.888653,74.541751,PM10,61,174,99
India,Karnataka,Bengaluru,"Hombegowda Nagar, Bengaluru - KSPCB",01-01-2026 08:00:00,12.938539,77.590100,NH3,3,4,4
India,Karnataka,Bagalkot,"Vidayagiri, Bagalkot - KSPCB",01-01-2026 08:00:00,16.172806,75.659694,CO,6,61,23
India,Karnataka,Bengaluru,"Shivapura_Peenya, Bengaluru - KSPCB",01-01-2026 08:00:00,13.0246342,77.5080115,SO2,4,10,8
India,Karnataka,Bengaluru,"Silk Board, Bengaluru - KSPCB",01-01-2026 08:00:00,12.917348,77.622813,CO,22,30,23
