country,state,city,station,last_update,latitude,longitude,pollutant_id,min_value,max_value,avg_value
India,Andhra_Pradesh,Amaravati,"Secretariat, Amaravati - APPCB",14-12-2025 08:00:00,16.5150833,80.5181667,PM2.5,53,307,158
India,Andhra_Pradesh,Anantapur,"Gulzarpet, Anantapur - APPCB",14-12-2025 08:00:00,14.675886,77.593027,NO2,14,15,14
India,Andhra_Pradesh,Chittoor,"Gangineni Cheruvu, Chittoor - APPCB",14-12-2025 08:00:00,13.204880,79.097889,PM10,21,450,145
India,Andhra_Pradesh,Chittoor,"Gangineni Cheruvu, Chittoor - APPCB",14-12-2025 08:00:00,13.204880,79.097889,NO2,18,36,32
India,Andhra_Pradesh,Chittoor,"Gangineni Cheruvu, Chittoor - APPCB",14-12-2025 08:00:00,13.204880,79.097889,OZONE,55,62,58
India,Andhra_Pradesh,Kadapa,"Yerramukkapalli, Kadapa - APPCB",14-12-2025 08:00:00,14.465052,78.824187,PM10,32,136,71
India,Bihar,Chhapra,"Darshan Nagar, Chhapra - BSPCB",14-12-2025 08:00:00,25.7808257,84.7446768,OZONE,26,79,33
India,Bihar,Gaya,"Collectorate, Gaya - BSPCB",14-12-2025 08:00:00,24.7955,84.9994,PM2.5,89,320,193
India,Bihar,Gaya,"Collectorate, Gaya - BSPCB",14-12-2025 08:00:00,24.7955,84.9994,NO2,9,9,9
India,Bihar,Gaya,"Collectorate, Gaya - BSPCB",14-12-2025 08:00:00,24.7955,84.9994,CO,24,109,36
India,Bihar,Gaya,"Kareemganj, Gaya - BSPCB",14-12-2025 08:00:00,24.792403,84.992416,NH3,4,6,5
India,Bihar,Gaya,"SFTI Kusdihra, Gaya - BSPCB",14-12-2025 08:00:00,24.762518,84.982348,NO2,19,24,23
India,Bihar,Gaya,"SFTI Kusdihra, Gaya - BSPCB",14-12-2025 08:00:00,24.762518,84.982348,CO,22,46,44
India,Assam,Guwahati,"LGBI Airport, Guwahati - PCBA",14-12-2025 08:00:00,26.10887,91.589544,NO2,14,16,15
India,Assam,Guwahati,"LGBI Airport, Guwahati - PCBA",14-12-2025 08:00:00,26.10887,91.589544,CO,24,48,33
India,Assam,Guwahati,"LGBI Airport, Guwahati - PCBA",14-12-2025 08:00:00,26.10887,91.589544,OZONE,11,14,13
India,Assam,Guwahati,"Railway Colony, Guwahati - PCBA",14-12-2025 08:00:00,26.181742,91.78063,PM10,46,305,142
India,Assam,Guwahati,"Railway Colony, Guwahati - PCBA",14-12-2025 08:00:00,26.181742,91.78063,SO2,33,36,34
India,Assam,Nagaon,"Christianpatty, Nagaon - PCBA",14-12-2025 08:00:00,26.349082,92.68449,PM2.5,62,154,116
India,Assam,Nagaon,"Christianpatty, Nagaon - PCBA",14-12-2025 08:00:00,26.349082,92.68449,NO2,1,1,1
India,Bihar,Arrah,"New DM Office, Arrah - BSPCB",14-12-2025 08:00:00,25.5626095,84.663264,SO2,8,10,10
India,Bihar,Arrah,"New DM Office, Arrah - BSPCB",14-12-2025 08:00:00,25.5626095,84.663264,CO,32,66,52
India,Bihar,Aurangabad,"Gurdeo Nagar, Aurangabad - BSPCB",14-12-2025 08:00:00,24.75746,84.366208,PM10,101,358,170
India,Bihar,Aurangabad,"Gurdeo Nagar, Aurangabad - BSPCB",14-12-2025 08:00:00,24.75746,84.366208,SO2,7,22,12
India,Bihar,Aurangabad,"Gurdeo Nagar, Aurangabad - BSPCB",14-12-2025 08:00:00,24.75746,84.366208,CO,101,103,102
India,Bihar,Bettiah,"Kamalnath Nagar, Bettiah - BSPCB",14-12-2025 08:00:00,26.80365,84.51954,PM10,33,151,90
India,Andhra_Pradesh,Vijayawada,"HB Colony, Vijayawada - APPCB",14-12-2025 08:00:00,16.536107,80.594233,NO2,14,14,14
India,Andhra_Pradesh,Vijayawada,"HB Colony, Vijayawada - APPCB",14-12-2025 08:00:00,16.536107,80.594233,NH3,3,3,3
India,Andhra_Pradesh,Vijayawada,"HB Colony, Vijayawada - APPCB",14-12-2025 08:00:00,16.536107,80.594233,SO2,13,23,15
India,Andhra_Pradesh,Vijayawada,"Kanuru, Vijayawada - APPCB",14-12-2025 08:00:00,16.486692,80.699436,PM2.5,NA,NA,NA
India,Andhra_Pradesh,Vijayawada,"Kanuru, Vijayawada - APPCB",14-12-2025 08:00:00,16.486692,80.699436,PM10,NA,NA,NA
India,Andhra_Pradesh,Vijayawada,"Kanuru, Vijayawada - APPCB",14-12-2025 08:00:00,16.486692,80.699436,NO2,NA,NA,NA
India,Andhra_Pradesh,Vijayawada,"Rajiv Nagar, Vijayawada - APPCB",14-12-2025 08:00:00,16.554731,80.649110,SO2,13,18,16
India,Andhra_Pradesh,Visakhapatnam,"GVM Corporation, Visakhapatnam - APPCB",14-12-2025 08:00:00,17.72,83.3,CO,3,60,33
India,Andhra_Pradesh,Visakhapatnam,"GVM Corporation, Visakhapatnam - APPCB",14-12-2025 08:00:00,17.72,83.3,OZONE,4,90,5
India,Arunachal_Pradesh,Naharlagun,"Naharlagun, Naharlagun - APSPCB",14-12-2025 08:00:00,27.103358,93.679645,PM2.5,35,500,178
India,Assam,Guwahati,"LGBI Airport, Guwahati - PCBA",14-12-2025 08:00:00,26.10887,91.589544,PM2.5,66,137,97
India,Bihar,Bhagalpur,"Mayaganj, Bhagalpur - BSPCB",14-12-2025 08:00:00,25.265194,87.012947,PM2.5,NA,NA,NA
India,Bihar,Bhagalpur,"Mayaganj, Bhagalpur - BSPCB",14-12-2025 08:00:00,25.265194,87.012947,SO2,NA,NA,NA
India,Bihar,Bhagalpur,"Mayaganj, Bhagalpur - BSPCB",14-12-2025 08:00:00,25.265194,87.012947,OZONE,NA,NA,NA
India,Bihar,Bihar Sharif,"D M Colony, Bihar Sharif - BSPCB",14-12-2025 08:00:00,25.204762,85.514960,NO2,9,10,10
India,Bihar,Buxar,"Charitra Van, Buxar - BSPCB",14-12-2025 08:00:00,25.567520,83.966379,PM10,100,389,158
India,Assam,Silchar,"Tarapur, Silchar - PCBA",14-12-2025 08:00:00,24.82827,92.79525,NH3,1,2,1
India,Assam,Silchar,"Tarapur, Silchar - PCBA",14-12-2025 08:00:00,24.82827,92.79525,SO2,4,8,5
India,Bihar,Araria,"Kharahiya Basti, Araria - BSPCB",14-12-2025 08:00:00,26.146529,87.454184,NO2,1,70,20
India,Bihar,Araria,"Kharahiya Basti, Araria - BSPCB",14-12-2025 08:00:00,26.146529,87.454184,OZONE,9,10,10
India,Andhra_Pradesh,Rajamahendravaram,"Anand Kala Kshetram, Rajamahendravaram - APPCB",14-12-2025 08:00:00,16.9872867,81.7363176,OZONE,14,28,17
India,Andhra_Pradesh,Tirumala,"Toll Gate, Tirumala - APPCB",14-12-2025 08:00:00,13.67,79.35,NO2,11,23,18
India,Bihar,Gaya,"SFTI Kusdihra, Gaya - BSPCB",14-12-2025 08:00:00,24.762518,84.982348,OZONE,14,50,14
India,Bihar,Katihar,"Mirchaibari, Katihar - BSPCB",14-12-2025 08:00:00,25.560083,87.553265,PM2.5,18,207,95
India,Bihar,Manguraha,"Forest Rest House, Manguraha - BSPCB",14-12-2025 08:00:00,27.308328,84.531742,NH3,1,2,1
India,Bihar,Manguraha,"Forest Rest House, Manguraha - BSPCB",14-12-2025 08:00:00,27.308328,84.531742,SO2,16,17,16
India,Bihar,Manguraha,"Forest Rest House, Manguraha - BSPCB",14-12-2025 08:00:00,27.308328,84.531742,CO,32,33,32
India,Bihar,Motihari,"Gandak Colony, Motihari - BSPCB",14-12-2025 08:00:00,26.63086,84.90051,PM2.5,25,120,61
India,Bihar,Motihari,"Gandak Colony, Motihari - BSPCB",14-12-2025 08:00:00,26.63086,84.90051,OZONE,3,5,4
India,Bihar,Muzaffarpur,"Buddha Colony, Muzaffarpur - BSPCB",14-12-2025 08:00:00,26.11442,85.39813,PM2.5,40,236,166
India,Bihar,Muzaffarpur,"Buddha Colony, Muzaffarpur - BSPCB",14-12-2025 08:00:00,26.11442,85.39813,NO2,6,53,30
India,Bihar,Patna,"Govt. High School Shikarpur, Patna - BSPCB",14-12-2025 08:00:00,25.592539,85.227158,NO2,2,39,27
India,Bihar,Patna,"Govt. High School Shikarpur, Patna - BSPCB",14-12-2025 08:00:00,25.592539,85.227158,SO2,4,27,17
India,Bihar,Patna,"IGSC Planetarium Complex, Patna - BSPCB",14-12-2025 08:00:00,25.610369,85.132568,SO2,1,20,15
India,Bihar,Patna,"Muradpur, Patna - BSPCB",14-12-2025 08:00:00,25.619651,85.147382,PM10,64,264,143
India,Bihar,Patna,"Rajbansi Nagar, Patna - BSPCB",14-12-2025 08:00:00,25.599486,85.113666,PM2.5,64,227,123
India,Bihar,Patna,"Rajbansi Nagar, Patna - BSPCB",14-12-2025 08:00:00,25.599486,85.113666,NO2,21,159,98
India,Bihar,Patna,"Rajbansi Nagar, Patna - BSPCB",14-12-2025 08:00:00,25.599486,85.113666,NH3,1,9,5
India,Bihar,Patna,"Samanpura, Patna - BSPCB",14-12-2025 08:00:00,25.596727,85.085624,SO2,3,5,4
India,Bihar,Rajgir,"Dangi Tola, Rajgir - BSPCB",14-12-2025 08:00:00,25.03280,85.41948,PM10,19,191,100
India,Bihar,Rajgir,"Dangi Tola, Rajgir - BSPCB",14-12-2025 08:00:00,25.03280,85.41948,OZONE,29,34,32
India,Bihar,Siwan,"Chitragupta Nagar, Siwan - BSPCB",14-12-2025 08:00:00,26.2271665,84.3570427,SO2,3,4,3
India,Bihar,Siwan,"Chitragupta Nagar, Siwan - BSPCB",14-12-2025 08:00:00,26.2271665,84.3570427,CO,27,30,28
India,Chandigarh,Chandigarh,"Sector 22, Chandigarh - CPCC",14-12-2025 08:00:00,30.735567,76.775714,NO2,35,113,75
India,Chandigarh,Chandigarh,"Sector-53, Chandigarh - CPCC",14-12-2025 08:00:00,30.719859,76.738637,OZONE,2,35,2
India,Bihar,Muzaffarpur,"MIT-Daudpur Kothi, Muzaffarpur - BSPCB",14-12-2025 08:00:00,26.1403345,85.3650192,NH3,1,1,1
India,Bihar,Muzaffarpur,"Muzaffarpur Collectorate, Muzaffarpur - BSPCB",14-12-2025 08:00:00,26.1209,85.3647,PM2.5,97,140,123
India,Bihar,Muzaffarpur,"Muzaffarpur Collectorate, Muzaffarpur - BSPCB",14-12-2025 08:00:00,26.1209,85.3647,SO2,5,6,5
India,Bihar,Sasaram,"Dada Peer, Sasaram - BSPCB",14-12-2025 08:00:00,24.952822,84.002396,OZONE,10,27,18
India,Bihar,Siwan,"Chitragupta Nagar, Siwan - BSPCB",14-12-2025 08:00:00,26.2271665,84.3570427,NO2,1,2,1
India,Bihar,Samastipur,"DM Office_Kasipur, Samastipur - BSPCB",14-12-2025 08:00:00,25.859655,85.77944,SO2,25,30,28
India,Bihar,Sasaram,"Dada Peer, Sasaram - BSPCB",14-12-2025 08:00:00,24.952822,84.002396,PM2.5,50,300,97
India,Bihar,Patna,"DRM Office Danapur, Patna - BSPCB",14-12-2025 08:00:00,25.586562,85.043586,PM10,75,300,157
India,Chhattisgarh,Bhilai,"32Bungalows, Bhilai - CECB",14-12-2025 08:00:00,21.194815,81.314770,NO2,23,108,61
India,Delhi,Delhi,"ITO, Delhi - CPCB",14-12-2025 08:00:00,28.628624,77.241060,CO,15,143,123
India,Delhi,Delhi,"Jahangirpuri, Delhi - DPCC",14-12-2025 08:00:00,28.732820,77.170633,PM2.5,453,500,495
India,Delhi,Delhi,"Jawaharlal Nehru Stadium, Delhi - DPCC",14-12-2025 08:00:00,28.580280,77.233829,PM2.5,375,500,463
India,Delhi,Delhi,"Jawaharlal Nehru Stadium, Delhi - DPCC",14-12-2025 08:00:00,28.580280,77.233829,CO,60,168,153
India,Delhi,Delhi,"Lodhi Road, Delhi - IITM",14-12-2025 08:00:00,28.588333,77.221667,PM2.5,337,439,401
India,Delhi,Delhi,"Lodhi Road, Delhi - IMD",14-12-2025 08:00:00,28.5918245,77.2273074,PM10,NA,NA,NA
India,Delhi,Delhi,"Lodhi Road, Delhi - IMD",14-12-2025 08:00:00,28.5918245,77.2273074,OZONE,NA,NA,NA
India,Delhi,Delhi,"Major Dhyan Chand National Stadium, Delhi - DPCC",14-12-2025 08:00:00,28.611281,77.237738,PM10,254,477,421
India,Delhi,Delhi,"CRRI Mathura Road, Delhi - IMD",14-12-2025 08:00:00,28.5512005,77.2735737,CO,26,162,126
India,Delhi,Delhi,"CRRI Mathura Road, Delhi - IMD",14-12-2025 08:00:00,28.5512005,77.2735737,OZONE,9,113,11
India,Delhi,Delhi,"Chandni Chowk, Delhi - IITM",14-12-2025 08:00:00,28.656756,77.227234,PM2.5,348,500,450
India,Delhi,Delhi,"Chandni Chowk, Delhi - IITM",14-12-2025 08:00:00,28.656756,77.227234,NO2,59,160,89
India,Delhi,Delhi,"Chandni Chowk, Delhi - IITM",14-12-2025 08:00:00,28.656756,77.227234,CO,56,110,101
India,Delhi,Delhi,"Chandni Chowk, Delhi - IITM",14-12-2025 08:00:00,28.656756,77.227234,OZONE,1,203,2
India,Delhi,Delhi,"DTU, Delhi - CPCB",14-12-2025 08:00:00,28.7500499,77.1112615,PM2.5,428,500,493
India,Delhi,Delhi,"DTU, Delhi - CPCB",14-12-2025 08:00:00,28.7500499,77.1112615,OZONE,15,47,23
India,Delhi,Delhi,"Dr. Karni Singh Shooting Range, Delhi - DPCC",14-12-2025 08:00:00,28.498571,77.264840,PM2.5,421,500,476
India,Chhattisgarh,Korba,"Rampur, Korba - CECB",14-12-2025 08:00:00,22.368195,82.746431,PM2.5,49,87,52
India,Chhattisgarh,Korba,"Rampur, Korba - CECB",14-12-2025 08:00:00,22.368195,82.746431,NH3,1,1,1
India,Chhattisgarh,Korba,"Rampur, Korba - CECB",14-12-2025 08:00:00,22.368195,82.746431,SO2,13,16,14
India,Chhattisgarh,Korba,"Urja Nagar, Korba - CECB",14-12-2025 08:00:00,22.348441,82.549611,CO,13,40,28
India,Chhattisgarh,Kunjemura,"OP Jindal School, Kunjemura - CECB",14-12-2025 08:00:00,22.126650,83.483212,PM2.5,26,40,32
India,Chhattisgarh,Kunjemura,"OP Jindal School, Kunjemura - CECB",14-12-2025 08:00:00,22.126650,83.483212,SO2,1,37,13
India,Chhattisgarh,Kunjemura,"OP Jindal School, Kunjemura - CECB",14-12-2025 08:00:00,22.126650,83.483212,OZONE,1,68,2
India,Chhattisgarh,Milupara,"Govt. Higher Secondary School, Milupara - CECB",14-12-2025 08:00:00,22.1910172,83.5197009,PM10,NA,NA,NA
India,Chhattisgarh,Bhilai,"Civic Center, Bhilai - Bhilai Steel Plant",14-12-2025 08:00:00,21.185571,81.343175,PM2.5,19,99,58
India,Chhattisgarh,Bhilai,"Civic Center, Bhilai - Bhilai Steel Plant",14-12-2025 08:00:00,21.185571,81.343175,SO2,7,10,8
India,Chhattisgarh,Bhilai,"Civic Center, Bhilai - Bhilai Steel Plant",14-12-2025 08:00:00,21.185571,81.343175,CO,21,22,22
India,Chhattisgarh,Bilaspur,"Mangala, Bilaspur - NTPC",14-12-2025 08:00:00,22.08815,82.13737,PM2.5,55,151,89
India,Chhattisgarh,Chhal,"Nawapara SECL Colony, Chhal - CECB",14-12-2025 08:00:00,22.118125,83.140608,PM10,38,196,72
India,Chhattisgarh,Chhal,"Nawapara SECL Colony, Chhal - CECB",14-12-2025 08:00:00,22.118125,83.140608,NO2,7,23,11
India,Chhattisgarh,Raipur,"Siltara Phase-II, Raipur - CECB",14-12-2025 08:00:00,21.371751,81.664929,SO2,3,9,5
India,Chhattisgarh,Tumidih,"OP Jindal Industrial Park, Tumidih - CECB",14-12-2025 08:00:00,22.06631475,83.33820077,NO2,NA,NA,NA
India,Chhattisgarh,Tumidih,"OP Jindal Industrial Park, Tumidih - CECB",14-12-2025 08:00:00,22.06631475,83.33820077,NH3,NA,NA,NA
India,Chhattisgarh,Tumidih,"OP Jindal Industrial Park, Tumidih - CECB",14-12-2025 08:00:00,22.06631475,83.33820077,CO,NA,NA,NA
India,Chhattisgarh,Tumidih,"OP Jindal Industrial Park, Tumidih - CECB",14-12-2025 08:00:00,22.06631475,83.33820077,OZONE,NA,NA,NA
India,Delhi,Delhi,"IHBAS, Dilshad Garden, Delhi - CPCB",14-12-2025 08:00:00,28.6811736,77.3025234,PM2.5,49,500,402
India,Delhi,Delhi,"IIT Delhi, Delhi - IITM",14-12-2025 08:00:00,28.542460,77.191651,PM2.5,360,479,419
India,Delhi,Delhi,"IIT Delhi, Delhi - IITM",14-12-2025 08:00:00,28.542460,77.191651,CO,44,113,97
India,Delhi,Delhi,"ITO, Delhi - CPCB",14-12-2025 08:00:00,28.628624,77.241060,SO2,7,27,19
India,Chhattisgarh,Milupara,"Govt. Higher Secondary School, Milupara - CECB",14-12-2025 08:00:00,22.1910172,83.5197009,NH3,NA,NA,NA
India,Chhattisgarh,Raipur,"AIIMS, Raipur - CECB",14-12-2025 08:00:00,21.258815,81.578979,SO2,4,8,7
India,Chhattisgarh,Raipur,"Bhatagaon New ISBT, Raipur - CECB",14-12-2025 08:00:00,21.219665,81.630094,OZONE,3,7,3
India,Delhi,Delhi,"Aya Nagar, Delhi - IMD",14-12-2025 08:00:00,28.4706914,77.1099364,OZONE,6,139,7
India,Delhi,Delhi,"Bawana, Delhi - DPCC",14-12-2025 08:00:00,28.776200,77.051074,CO,82,136,111
India,Delhi,Delhi,"Burari Crossing, Delhi - IMD",14-12-2025 08:00:00,28.7256504,77.2011573,NO2,NA,NA,NA
India,Delhi,Delhi,"Dr. Karni Singh Shooting Range, Delhi - DPCC",14-12-2025 08:00:00,28.498571,77.264840,NO2,34,159,83
India,Gujarat,Vapi,"Phase-1 GIDC, Vapi - GPCB",14-12-2025 08:00:00,20.362421,72.918013,OZONE,8,24,8
India,Gujarat,Vatva,"Phase-4 GIDC, Vatva - GPCB",14-12-2025 08:00:00,22.969611,72.643500,PM10,27,109,75
India,Gujarat,Vatva,"Phase-4 GIDC, Vatva - GPCB",14-12-2025 08:00:00,22.969611,72.643500,NO2,33,43,38
India,Haryana,Ambala,"Patti Mehar, Ambala - HSPCB",14-12-2025 08:00:00,30.379589,76.778328,PM10,68,136,92
India,Haryana,Ambala,"Patti Mehar, Ambala - HSPCB",14-12-2025 08:00:00,30.379589,76.778328,NO2,21,25,23
India,Haryana,Ambala,"Patti Mehar, Ambala - HSPCB",14-12-2025 08:00:00,30.379589,76.778328,CO,97,100,99
India,Haryana,Bahadurgarh,"Arya Nagar, Bahadurgarh - HSPCB",14-12-2025 08:00:00,28.6701,76.9254,NO2,12,14,13
India,Delhi,Delhi,"Wazirpur, Delhi - DPCC",14-12-2025 08:00:00,28.699793,77.165453,CO,57,139,130
India,Delhi,Delhi,"Wazirpur, Delhi - DPCC",14-12-2025 08:00:00,28.699793,77.165453,OZONE,3,107,8
India,Gujarat,Ahmedabad,"Gyaspur, Ahmedabad - IITM",14-12-2025 08:00:00,22.977134,72.553024,PM2.5,78,278,171
India,Gujarat,Ahmedabad,"Maninagar, Ahmedabad - GPCB",14-12-2025 08:00:00,23.002657,72.591912,SO2,36,46,42
India,Gujarat,Ahmedabad,"Maninagar, Ahmedabad - GPCB",14-12-2025 08:00:00,23.002657,72.591912,CO,17,38,22
India,Gujarat,Ahmedabad,"Raikhad, Ahmedabad - IITM",14-12-2025 08:00:00,23.020509,72.579261,PM2.5,77,192,127
India,Gujarat,Ahmedabad,"Raikhad, Ahmedabad - IITM",14-12-2025 08:00:00,23.020509,72.579261,SO2,9,24,14
India,Delhi,Delhi,"Najafgarh, Delhi - DPCC",14-12-2025 08:00:00,28.570173,76.933762,SO2,18,63,36
India,Delhi,Delhi,"Narela, Delhi - DPCC",14-12-2025 08:00:00,28.822836,77.101981,NH3,9,14,11
India,Delhi,Delhi,"Narela, Delhi - DPCC",14-12-2025 08:00:00,28.822836,77.101981,OZONE,5,139,11
India,Delhi,Delhi,"Nehru Nagar, Delhi - DPCC",14-12-2025 08:00:00,28.567890,77.250515,PM2.5,393,500,480
India,Delhi,Delhi,"North Campus, DU, Delhi - IMD",14-12-2025 08:00:00,28.6573814,77.1585447,PM2.5,443,500,482
India,Delhi,Delhi,"Okhla Phase-2, Delhi - DPCC",14-12-2025 08:00:00,28.530785,77.271255,NH3,23,36,28
India,Delhi,Delhi,"R K Puram, Delhi - DPCC",14-12-2025 08:00:00,28.563262,77.186937,PM2.5,388,500,472
India,Delhi,Delhi,"R K Puram, Delhi - DPCC",14-12-2025 08:00:00,28.563262,77.186937,OZONE,16,144,18
India,Delhi,Delhi,"Rohini, Delhi - DPCC",14-12-2025 08:00:00,28.732528,77.119920,CO,82,165,157
India,Delhi,Delhi,"Shadipur, Delhi - CPCB",14-12-2025 08:00:00,28.6514781,77.1473105,PM10,279,500,406
India,Delhi,Delhi,"Shadipur, Delhi - CPCB",14-12-2025 08:00:00,28.6514781,77.1473105,SO2,7,19,15
India,Delhi,Delhi,"Sirifort, Delhi - CPCB",14-12-2025 08:00:00,28.5504249,77.2159377,PM10,258,500,430
India,Delhi,Delhi,"Mandir Marg, Delhi - DPCC",14-12-2025 08:00:00,28.636429,77.201067,CO,18,130,112
India,Delhi,Delhi,"NSIT Dwarka, Delhi - CPCB",14-12-2025 08:00:00,28.60909,77.0325413,SO2,7,18,10
India,Delhi,Delhi,"NSIT Dwarka, Delhi - CPCB",14-12-2025 08:00:00,28.60909,77.0325413,CO,48,105,59
India,Delhi,Delhi,"Najafgarh, Delhi - DPCC",14-12-2025 08:00:00,28.570173,76.933762,NO2,96,190,143
India,Gujarat,Ahmedabad,"Rakhial, Ahmedabad - IITM",14-12-2025 08:00:00,23.016834,72.625775,NH3,4,14,7
India,Gujarat,Ahmedabad,"Rakhial, Ahmedabad - IITM",14-12-2025 08:00:00,23.016834,72.625775,SO2,26,76,48
India,Gujarat,Ahmedabad,"SAC ISRO Satellite, Ahmedabad - IITM",14-12-2025 08:00:00,23.023389,72.515201,PM10,69,113,87
India,Gujarat,Ahmedabad,"SAC ISRO Satellite, Ahmedabad - IITM",14-12-2025 08:00:00,23.023389,72.515201,NO2,14,74,36
India,Delhi,Delhi,"Sirifort, Delhi - CPCB",14-12-2025 08:00:00,28.5504249,77.2159377,OZONE,9,17,9
India,Delhi,Delhi,"Sonia Vihar, Delhi - DPCC",14-12-2025 08:00:00,28.710508,77.249485,NO2,27,147,64
India,Delhi,Delhi,"Wazirpur, Delhi - DPCC",14-12-2025 08:00:00,28.699793,77.165453,NH3,18,23,20
India,Gujarat,Ankleshwar,"GIDC, Ankleshwar - GPCB",14-12-2025 08:00:00,21.613267,73.010555,SO2,42,43,42
India,Gujarat,Gandhinagar,"IIPHG Lekawada, Gandhinagar - IITM",14-12-2025 08:00:00,23.243639,72.68994,SO2,4,10,6
India,Gujarat,Gandhinagar,"IIPHG Lekawada, Gandhinagar - IITM",14-12-2025 08:00:00,23.243639,72.68994,CO,2,76,22
India,Delhi,Delhi,"Patparganj, Delhi - DPCC",14-12-2025 08:00:00,28.623763,77.287209,NH3,16,21,18
India,Delhi,Delhi,"Punjabi Bagh, Delhi - DPCC",14-12-2025 08:00:00,28.674045,77.131023,NH3,7,11,9
India,Delhi,Delhi,"Pusa, Delhi - DPCC",14-12-2025 08:00:00,28.639652,77.146275,OZONE,9,14,12
India,Haryana,Ballabgarh,"Nathu Colony, Ballabgarh - HSPCB",14-12-2025 08:00:00,28.3419248,77.319699,PM10,224,399,286
India,Haryana,Ballabgarh,"Nathu Colony, Ballabgarh - HSPCB",14-12-2025 08:00:00,28.3419248,77.319699,NO2,20,21,20
India,Haryana,Ballabgarh,"Nathu Colony, Ballabgarh - HSPCB",14-12-2025 08:00:00,28.3419248,77.319699,NH3,3,3,3
India,Haryana,Ballabgarh,"Nathu Colony, Ballabgarh - HSPCB",14-12-2025 08:00:00,28.3419248,77.319699,OZONE,15,15,15
India,Haryana,Bhiwani,"H.B. Colony, Bhiwani - HSPCB",14-12-2025 08:00:00,28.806223,76.141105,PM2.5,102,422,186
India,Haryana,Bhiwani,"H.B. Colony, Bhiwani - HSPCB",14-12-2025 08:00:00,28.806223,76.141105,OZONE,9,19,15
India,Haryana,Charkhi Dadri,"Mini Secretariat, Charkhi Dadri - HSPCB",14-12-2025 08:00:00,28.593883,76.270653,NO2,9,21,15
India,Haryana,Charkhi Dadri,"Mini Secretariat, Charkhi Dadri - HSPCB",14-12-2025 08:00:00,28.593883,76.270653,CO,7,25,16
India,Haryana,Charkhi Dadri,"Mini Secretariat, Charkhi Dadri - HSPCB",14-12-2025 08:00:00,28.593883,76.270653,OZONE,13,18,16
India,Haryana,Dharuhera,"Municipal Corporation Office, Dharuhera -  HSPCB",14-12-2025 08:00:00,28.206800,76.799700,NO2,15,54,38
India,Haryana,Dharuhera,"Municipal Corporation Office, Dharuhera -  HSPCB",14-12-2025 08:00:00,28.206800,76.799700,SO2,7,18,10
India,Haryana,Panipat,"Sector-18, Panipat - HSPCB",14-12-2025 08:00:00,29.432304,76.972765,NH3,2,3,2
India,Haryana,Panipat,"Sector-18, Panipat - HSPCB",14-12-2025 08:00:00,29.432304,76.972765,CO,47,48,48
India,Haryana,Panipat,"Sector-18, Panipat - HSPCB",14-12-2025 08:00:00,29.432304,76.972765,OZONE,30,30,30
India,Haryana,Sirsa,"F-Block, Sirsa - HSPCB",14-12-2025 08:00:00,29.536400,75.015800,NO2,16,21,19
India,Haryana,Sirsa,"F-Block, Sirsa - HSPCB",14-12-2025 08:00:00,29.536400,75.015800,OZONE,21,30,24
India,Haryana,Sonipat,"Murthal, Sonipat - HSPCB",14-12-2025 08:00:00,29.027200,77.062100,PM10,117,282,191
India,Haryana,Sonipat,"Murthal, Sonipat - HSPCB",14-12-2025 08:00:00,29.027200,77.062100,CO,76,101,92
India,Haryana,Yamuna Nagar,"Gobind Pura, Yamuna Nagar - HSPCB",14-12-2025 08:00:00,30.1480566,77.2893471,PM2.5,97,299,217
India,Haryana,Palwal,"Shyam Nagar, Palwal - HSPCB",14-12-2025 08:00:00,28.1485564,77.3320667,PM10,137,190,162
India,Haryana,Panchgaon,"Amity University, Panchgaon - IITM",14-12-2025 08:00:00,28.3153,76.9143,NH3,4,11,7
India,Haryana,Panchgaon,"Amity University, Panchgaon - IITM",14-12-2025 08:00:00,28.3153,76.9143,SO2,2,21,9
India,Haryana,Panchgaon,"Amity University, Panchgaon - IITM",14-12-2025 08:00:00,28.3153,76.9143,CO,20,76,40
India,Haryana,Panchkula,"Sector-6, Panchkula - HSPCB ",14-12-2025 08:00:00,30.7057778,76.8531805555555,CO,21,22,22
India,Haryana,Panipat,"Sector-18, Panipat - HSPCB",14-12-2025 08:00:00,29.432304,76.972765,PM10,334,500,454
India,Haryana,Gurugram,"Vikas Sadan, Gurugram - HSPCB",14-12-2025 08:00:00,28.4501238,77.0263051,OZONE,8,55,18
India,Haryana,Hisar,"Urban Estate-II, Hisar - HSPCB",14-12-2025 08:00:00,29.140560,75.744941,PM10,NA,NA,NA
India,Haryana,Hisar,"Urban Estate-II, Hisar - HSPCB",14-12-2025 08:00:00,29.140560,75.744941,SO2,NA,NA,NA
India,Haryana,Kaithal,"Rishi Nagar, Kaithal - HSPCB",14-12-2025 08:00:00,29.8006,76.4155,PM2.5,103,311,209
India,Haryana,Kaithal,"Rishi Nagar, Kaithal - HSPCB",14-12-2025 08:00:00,29.8006,76.4155,NO2,28,33,31
India,Haryana,Kaithal,"Rishi Nagar, Kaithal - HSPCB",14-12-2025 08:00:00,29.8006,76.4155,OZONE,2,30,2
India,Haryana,Dharuhera,"Municipal Corporation Office, Dharuhera -  HSPCB",14-12-2025 08:00:00,28.206800,76.799700,CO,38,78,54
India,Haryana,Faridabad,"New Industrial Town, Faridabad - HSPCB",14-12-2025 08:00:00,28.39072,77.30059,OZONE,27,33,29
India,Haryana,Faridabad,"Sector 30, Faridabad - HSPCB",14-12-2025 08:00:00,28.4417,77.3217,PM2.5,78,142,100
India,Haryana,Faridabad,"Sector 30, Faridabad - HSPCB",14-12-2025 08:00:00,28.4417,77.3217,NO2,35,39,37
India,Haryana,Faridabad,"Sector 30, Faridabad - HSPCB",14-12-2025 08:00:00,28.4417,77.3217,SO2,6,6,6
India,Haryana,Gurugram,"NISE Gwal Pahari, Gurugram - IMD",14-12-2025 08:00:00,28.422681,77.148944,OZONE,6,120,6
India,Haryana,Gurugram,"Sector-51, Gurugram - HSPCB",14-12-2025 08:00:00,28.4227,77.0667,PM10,NA,NA,NA
India,Haryana,Gurugram,"Sector-51, Gurugram - HSPCB",14-12-2025 08:00:00,28.4227,77.0667,CO,38,44,40
India,Haryana,Gurugram,"Teri Gram, Gurugram - HSPCB",14-12-2025 08:00:00,28.4275,77.1465,OZONE,10,43,12
India,Karnataka,Bengaluru,"BWSSB Kadabesanahalli, Bengaluru - CPCB",14-12-2025 08:00:00,12.9352049,77.6814488,OZONE,12,80,55
India,Karnataka,Bengaluru,"Hebbal, Bengaluru - KSPCB",14-12-2025 08:00:00,13.029152,77.585901,OZONE,7,16,10
India,Karnataka,Bengaluru,"Hombegowda Nagar, Bengaluru - KSPCB",14-12-2025 08:00:00,12.938539,77.590100,OZONE,5,55,35
India,Jharkhand,Dhanbad,"Sardar Patel Nagar, Dhanbad - JSPCB",14-12-2025 08:00:00,23.80569,86.44268,SO2,21,26,24
India,Jharkhand,Jorapokhar,"Tata Stadium, Jorapokhar - JSPCB",14-12-2025 08:00:00,23.707909,86.414670,PM10,NA,NA,NA
India,Haryana,Karnal,"Sector-12, Karnal - HSPCB",14-12-2025 08:00:00,29.695300,77.002700,OZONE,36,36,36
India,Haryana,Kurukshetra,"Sector-7, Kurukshetra - HSPCB",14-12-2025 08:00:00,29.966942,76.875879,CO,31,113,77
India,Madhya Pradesh,Bhopal,"T T Nagar, Bhopal - MPPCB",14-12-2025 08:00:00,23.233584,77.400574,PM2.5,30,246,94
India,Madhya Pradesh,Bhopal,"T T Nagar, Bhopal - MPPCB",14-12-2025 08:00:00,23.233584,77.400574,NH3,6,7,7
India,Madhya Pradesh,Bhopal,"T T Nagar, Bhopal - MPPCB",14-12-2025 08:00:00,23.233584,77.400574,SO2,7,21,14
India,Madhya Pradesh,Damoh,"Shrivastav Colony, Damoh - MPPCB",14-12-2025 08:00:00,23.81748678,79.446246,CO,NA,NA,NA
India,Madhya Pradesh,Dewas,"Bhopal Chauraha, Dewas - MPPCB",14-12-2025 08:00:00,22.9682591,76.064118,NH3,2,3,2
India,Madhya Pradesh,Dewas,"Bhopal Chauraha, Dewas - MPPCB",14-12-2025 08:00:00,22.9682591,76.064118,CO,12,34,16
India,Madhya Pradesh,Dewas,"Bhopal Chauraha, Dewas - MPPCB",14-12-2025 08:00:00,22.9682591,76.064118,OZONE,24,27,25
India,Madhya Pradesh,Gwalior,"City Center, Gwalior - MPPCB",14-12-2025 08:00:00,26.203442,78.193251,PM10,74,192,138
India,Karnataka,Bengaluru,"Jayanagar 5th Block, Bengaluru - KSPCB",14-12-2025 08:00:00,12.920984,77.584908,NO2,8,47,26
India,Karnataka,Bengaluru,"Jayanagar 5th Block, Bengaluru - KSPCB",14-12-2025 08:00:00,12.920984,77.584908,NH3,1,2,1
India,Karnataka,Bengaluru,"Jigani, Bengaluru - KSPCB",14-12-2025 08:00:00,12.7816279,77.6299145,NO2,23,25,24
India,Karnataka,Bengaluru,"Jigani, Bengaluru - KSPCB",14-12-2025 08:00:00,12.7816279,77.6299145,OZONE,22,23,22
India,Karnataka,Bengaluru,"Kasturi Nagar, Bengaluru - KSPCB",14-12-2025 08:00:00,13.003872,77.664217,NH3,1,1,1
India,Karnataka,Bengaluru,"Peenya, Bengaluru - CPCB",14-12-2025 08:00:00,13.0270199,77.494094,PM2.5,18,42,32
India,Karnataka,Bengaluru,"RVCE-Mailasandra, Bengaluru - KSPCB",14-12-2025 08:00:00,12.921418,77.502466,PM2.5,36,500,156
India,Madhya Pradesh,Indore,"Chhoti Gwaltoli, Indore - MPPCB",14-12-2025 08:00:00,22.4310,75.5213,NH3,1,8,3
India,Madhya Pradesh,Indore,"Chhoti Gwaltoli, Indore - MPPCB",14-12-2025 08:00:00,22.4310,75.5213,OZONE,4,64,24
India,Madhya Pradesh,Indore,"Regional Park, Indore - IMC",14-12-2025 08:00:00,22.6780,75.8559,NH3,NA,NA,NA
India,Madhya Pradesh,Indore,"Regional Park, Indore - IMC",14-12-2025 08:00:00,22.6780,75.8559,SO2,25,32,28
India,Madhya Pradesh,Jabalpur,"Govindh Bhavan Colony, Jabalpur - JMC",14-12-2025 08:00:00,23.163174,79.973061,NO2,19,22,20
India,Madhya Pradesh,Jabalpur,"Gupteshwar, Jabalpur - JMC",14-12-2025 08:00:00,23.142888,79.916147,PM2.5,28,201,62
India,Madhya Pradesh,Jabalpur,"Gupteshwar, Jabalpur - JMC",14-12-2025 08:00:00,23.142888,79.916147,OZONE,1,106,9
India,Kerala,Thiruvananthapuram,"Kariavattom, Thiruvananthapuram - Kerala PCB",14-12-2025 08:00:00,8.563700,76.886500,NH3,1,1,1
India,Kerala,Thiruvananthapuram,"Kariavattom, Thiruvananthapuram - Kerala PCB",14-12-2025 08:00:00,8.563700,76.886500,OZONE,36,37,36
India,Kerala,Thiruvananthapuram,"Plammoodu, Thiruvananthapuram - Kerala PCB",14-12-2025 08:00:00,8.5149093,76.9435879,SO2,13,21,18
India,Kerala,Thrissur,"Corporation Ground, Thrissur - Kerala PCB",14-12-2025 08:00:00,10.532400,76.215900,NO2,8,10,9
India,Kerala,Thrissur,"Corporation Ground, Thrissur - Kerala PCB",14-12-2025 08:00:00,10.532400,76.215900,SO2,1,1,1
India,Madhya Pradesh,Bhopal,"Idgah Hills, Bhopal - MPPCB",14-12-2025 08:00:00,23.264759,77.381568,NO2,15,66,30
India,Madhya Pradesh,Gwalior,"City Center, Gwalior - MPPCB",14-12-2025 08:00:00,26.203442,78.193251,CO,18,120,38
India,Madhya Pradesh,Gwalior,"Deen Dayal Nagar, Gwalior - MPPCB",14-12-2025 08:00:00,26.259242,78.216432,PM2.5,111,376,276
India,Madhya Pradesh,Gwalior,"Deen Dayal Nagar, Gwalior - MPPCB",14-12-2025 08:00:00,26.259242,78.216432,OZONE,5,264,12
India,Madhya Pradesh,Gwalior,"Maharaj Bada, Gwalior - MPPCB",14-12-2025 08:00:00,26.200388,78.147714,CO,2,115,18
India,Madhya Pradesh,Indore,"Airport Area, Indore - IMC",14-12-2025 08:00:00,22.7289,75.8076,PM2.5,24,102,51
India,Madhya Pradesh,Indore,"Airport Area, Indore - IMC",14-12-2025 08:00:00,22.7289,75.8076,CO,6,10,9
India,Karnataka,Hubballi,"Lingaraj Nagar, Hubballi - KSPCB",14-12-2025 08:00:00,15.3714823,75.1160168,OZONE,29,30,29
India,Karnataka,Kalaburagi,"Mahatma Basaveswar Colony, Kalaburgi - KSPCB",14-12-2025 08:00:00,17.336318,76.847397,PM10,25,81,53
India,Karnataka,Kalaburagi,"Mahatma Basaveswar Colony, Kalaburgi - KSPCB",14-12-2025 08:00:00,17.336318,76.847397,OZONE,11,18,15
India,Karnataka,Koppal,"Diwator Nagar, Koppal - KSPCB",14-12-2025 08:00:00,15.347630,76.181767,SO2,13,30,20
India,Karnataka,Madikeri,"Stuart Hill, Madikeri - KSPCB",14-12-2025 08:00:00,12.415911,75.735050,PM10,24,234,59
India,Karnataka,Shivamogga,"Vinoba Nagara, Shivamogga - KSPCB",14-12-2025 08:00:00,13.940000,75.555917,PM2.5,34,51,47
India,Karnataka,Shivamogga,"Vinoba Nagara, Shivamogga - KSPCB",14-12-2025 08:00:00,13.940000,75.555917,NH3,2,4,3
India,Karnataka,Shivamogga,"Vinoba Nagara, Shivamogga - KSPCB",14-12-2025 08:00:00,13.940000,75.555917,SO2,3,7,4
India,Karnataka,Shivamogga,"Vinoba Nagara, Shivamogga - KSPCB",14-12-2025 08:00:00,13.940000,75.555917,CO,12,24,22
India,Karnataka,Yadgir,"Collector Office, Yadgir - KSPCB",14-12-2025 08:00:00,16.7602,77.1428,SO2,9,31,17
India,Karnataka,Yadgir,"Collector Office, Yadgir - KSPCB",14-12-2025 08:00:00,16.7602,77.1428,OZONE,18,25,19
India,Karnataka,Bengaluru,"Silk Board, Bengaluru - KSPCB",14-12-2025 08:00:00,12.917348,77.622813,OZONE,12,26,21
India,Karnataka,Chamarajanagar,"Urban, Chamarajanagar - KSPCB",14-12-2025 08:00:00,11.55358,76.55521,SO2,2,8,4
India,Karnataka,Chamarajanagar,"Urban, Chamarajanagar - KSPCB",14-12-2025 08:00:00,11.55358,76.55521,OZONE,13,30,17
India,Karnataka,Bengaluru,"Sanegurava Halli, Bengaluru - KSPCB",14-12-2025 08:00:00,12.990328,77.5431385,NO2,20,21,20
India,Maharashtra,Aurangabad,"More Chowk Waluj, Aurangabad - MPCB",14-12-2025 08:00:00,19.8389439,75.244448,CO,2,132,94
India,Maharashtra,Aurangabad,"Rachnakar Colony, Aurangabad - MPCB",14-12-2025 08:00:00,19.863756,75.321188,NH3,4,5,5
India,Maharashtra,Aurangabad,"Rachnakar Colony, Aurangabad - MPCB",14-12-2025 08:00:00,19.863756,75.321188,OZONE,11,94,12
India,Maharashtra,Badlapur,"Katrap, Badlapur - MPCB",14-12-2025 08:00:00,19.16485,73.23409,PM10,102,194,136
India,Maharashtra,Badlapur,"Katrap, Badlapur - MPCB",14-12-2025 08:00:00,19.16485,73.23409,CO,26,105,38
India,Maharashtra,Belapur,"CBD Belapur, Belapur - MPCB",14-12-2025 08:00:00,19.0243902,73.0406721,NO2,13,50,28
India,Maharashtra,Belapur,"CBD Belapur, Belapur - MPCB",14-12-2025 08:00:00,19.0243902,73.0406721,NH3,1,2,1
India,Maharashtra,Belapur,"CBD Belapur, Belapur - MPCB",14-12-2025 08:00:00,19.0243902,73.0406721,SO2,10,27,16
India,Maharashtra,Belapur,"CBD Belapur, Belapur - MPCB",14-12-2025 08:00:00,19.0243902,73.0406721,OZONE,7,70,8
India,Madhya Pradesh,Jabalpur,"Marhatal, Jabalpur - MPPCB",14-12-2025 08:00:00,23.168606,79.932247,SO2,10,28,16
India,Madhya Pradesh,Jabalpur,"Marhatal, Jabalpur - MPPCB",14-12-2025 08:00:00,23.168606,79.932247,CO,14,115,61
India,Madhya Pradesh,Jabalpur,"Suhagi, Jabalpur - JMC",14-12-2025 08:00:00,23.218135,79.957770,SO2,5,7,6
India,Madhya Pradesh,Katni,"Gole Bazar, Katni - MPPCB",14-12-2025 08:00:00,23.50016,80.23284,CO,18,115,80
India,Madhya Pradesh,Maihar,"Sahilara, Maihar - KJS Cements",14-12-2025 08:00:00,24.2613009,80.7231783,CO,30,59,52
India,Madhya Pradesh,Mandideep,"Sector-D Industrial Area, Mandideep - MPPCB",14-12-2025 08:00:00,23.108440,77.511428,PM10,96,500,242
India,Maharashtra,Dhule,"Deopur, Dhule - MPCB",14-12-2025 08:00:00,20.918946,74.776388,SO2,6,17,11
India,Maharashtra,Dhule,"Deopur, Dhule - MPCB",14-12-2025 08:00:00,20.918946,74.776388,CO,22,84,34
India,Maharashtra,Jalgaon,"Prabhat Colony, Jalgaon - MPCB",14-12-2025 08:00:00,21.001264,75.565602,NO2,3,35,10
India,Maharashtra,Jalna,"Old MIDC, Jalna - MPCB",14-12-2025 08:00:00,19.854616,75.905894,NH3,2,5,4
India,Maharashtra,Kalyan,"Pimpleshwar Mandir, Kalyan - MPCB",14-12-2025 08:00:00,19.192056,72.9585188,PM2.5,NA,NA,NA
India,Maharashtra,Kalyan,"Pimpleshwar Mandir, Kalyan - MPCB",14-12-2025 08:00:00,19.192056,72.9585188,PM10,133,298,218
India,Maharashtra,Kalyan,"Pimpleshwar Mandir, Kalyan - MPCB",14-12-2025 08:00:00,19.192056,72.9585188,NO2,15,41,27
India,Madhya Pradesh,Mandideep,"Sector-D Industrial Area, Mandideep - MPPCB",14-12-2025 08:00:00,23.108440,77.511428,SO2,15,135,54
India,Madhya Pradesh,Mandideep,"Sector-D Industrial Area, Mandideep - MPPCB",14-12-2025 08:00:00,23.108440,77.511428,OZONE,3,44,4
India,Madhya Pradesh,Pithampur,"Sector-2 Industrial Area, Pithampur - MPPCB",14-12-2025 08:00:00,22.624758,75.675238,PM10,52,223,118
India,Madhya Pradesh,Ratlam,"Shasthri Nagar, Ratlam - IPCA Lab",14-12-2025 08:00:00,23.331731,75.045981,SO2,34,39,36
India,Madhya Pradesh,Sagar,"Civil Lines, Sagar - MPPCB",14-12-2025 08:00:00,23.838586,78.759431,SO2,4,25,8
India,Madhya Pradesh,Satna,"Bandhavgar Colony, Satna - Birla Cement",14-12-2025 08:00:00,24.58434363,80.8549414,PM2.5,45,50,49
India,Madhya Pradesh,Satna,"Bandhavgar Colony, Satna - Birla Cement",14-12-2025 08:00:00,24.58434363,80.8549414,SO2,19,20,19
India,Madhya Pradesh,Satna,"Bandhavgar Colony, Satna - Birla Cement",14-12-2025 08:00:00,24.58434363,80.8549414,OZONE,2,58,5
India,Madhya Pradesh,Singrauli,"Suryakiran Bhawan NCL, Singrauli - MPPCB",14-12-2025 08:00:00,24.108970,82.645580,SO2,20,31,24
India,Maharashtra,Ahmednagar,"Tarakpur, Ahmednagar - MPCB",14-12-2025 08:00:00,19.10122,74.73339,PM10,25,160,106
India,Maharashtra,Amravati,"Shivneri Colony, Amravati - MPCB",14-12-2025 08:00:00,20.9402359,77.7895248,NO2,9,50,23
India,Maharashtra,Amravati,"Shivneri Colony, Amravati - MPCB",14-12-2025 08:00:00,20.9402359,77.7895248,NH3,4,4,4
India,Maharashtra,Amravati,"Shri Shivaji Science College, Amravati - MPCB",14-12-2025 08:00:00,20.939198,77.765701,PM2.5,27,134,70
India,Maharashtra,Amravati,"Shri Shivaji Science College, Amravati - MPCB",14-12-2025 08:00:00,20.939198,77.765701,NH3,1,24,6
India,Maharashtra,Amravati,"Shri Shivaji Science College, Amravati - MPCB",14-12-2025 08:00:00,20.939198,77.765701,SO2,1,22,7
India,Maharashtra,Chandrapur,"MIDC Khutala, Chandrapur - MPCB",14-12-2025 08:00:00,19.9775302,79.2337086,NO2,13,58,34
India,Maharashtra,Chandrapur,"MIDC Khutala, Chandrapur - MPCB",14-12-2025 08:00:00,19.9775302,79.2337086,SO2,8,9,9
India,Maharashtra,Boisar,"Khaira, Boisar - MPCB",14-12-2025 08:00:00,19.786089,72.757971,SO2,NA,NA,NA
India,Maharashtra,Boisar,"Khaira, Boisar - MPCB",14-12-2025 08:00:00,19.786089,72.757971,OZONE,30,31,31
India,Maharashtra,Bhiwandi,"Gokul Nagar, Bhiwandi - MPCB",14-12-2025 08:00:00,19.309073,73.057223,NH3,4,7,6
India,Maharashtra,Mumbai,"Mindspace-Malad West, Mumbai - MPCB",14-12-2025 08:00:00,19.1878657,72.8304069,CO,18,100,80
India,Maharashtra,Mumbai,"Navy Nagar-Colaba, Mumbai - IITM",14-12-2025 08:00:00,18.897756,72.813320,PM2.5,89,195,140
India,Maharashtra,Mumbai,"Navy Nagar-Colaba, Mumbai - IITM",14-12-2025 08:00:00,18.897756,72.813320,NO2,39,194,111
India,Maharashtra,Mumbai,"Navy Nagar-Colaba, Mumbai - IITM",14-12-2025 08:00:00,18.897756,72.813320,NH3,8,34,17
India,Maharashtra,Mumbai,"Navy Nagar-Colaba, Mumbai - IITM",14-12-2025 08:00:00,18.897756,72.813320,SO2,23,66,40
India,Maharashtra,Mumbai,"Sewri, Mumbai - BMC",14-12-2025 08:00:00,19.000084,72.856730,OZONE,78,188,188
India,Maharashtra,Mumbai,"Shivaji Nagar, Mumbai - BMC",14-12-2025 08:00:00,19.060498,72.923356,PM2.5,110,322,214
India,Maharashtra,Mumbai,"Shivaji Nagar, Mumbai - BMC",14-12-2025 08:00:00,19.060498,72.923356,NO2,33,105,64
India,Maharashtra,Mumbai,"Shivaji Nagar, Mumbai - BMC",14-12-2025 08:00:00,19.060498,72.923356,NH3,3,21,6
India,Maharashtra,Mumbai,"Shivaji Nagar, Mumbai - BMC",14-12-2025 08:00:00,19.060498,72.923356,OZONE,1,84,3
India,Maharashtra,Nagpur,"Mahal, Nagpur - MPCB",14-12-2025 08:00:00,21.14472,79.107595,PM2.5,86,268,144
India,Maharashtra,Nagpur,"Mahal, Nagpur - MPCB",14-12-2025 08:00:00,21.14472,79.107595,NO2,24,84,49
India,Maharashtra,Nagpur,"Mahal, Nagpur - MPCB",14-12-2025 08:00:00,21.14472,79.107595,NH3,4,8,6
India,Maharashtra,Nagpur,"Mahal, Nagpur - MPCB",14-12-2025 08:00:00,21.14472,79.107595,SO2,11,122,46
India,Maharashtra,Nagpur,"Opp GPO Civil Lines, Nagpur - MPCB",14-12-2025 08:00:00,21.152875,79.0517531,PM2.5,28,319,133
India,Maharashtra,Nagpur,"Opp GPO Civil Lines, Nagpur - MPCB",14-12-2025 08:00:00,21.152875,79.0517531,NO2,28,76,46
India,Maharashtra,Nagpur,"Opp GPO Civil Lines, Nagpur - MPCB",14-12-2025 08:00:00,21.152875,79.0517531,SO2,9,125,35
India,Maharashtra,Nanded,"Sneh Nagar, Nanded - MPCB",14-12-2025 08:00:00,19.173852,77.296291,PM2.5,73,255,120
India,Maharashtra,Mumbai,"Byculla, Mumbai - BMC",14-12-2025 08:00:00,18.9767,72.8380,SO2,18,23,21
India,Maharashtra,Mumbai,"Byculla, Mumbai - BMC",14-12-2025 08:00:00,18.9767,72.8380,CO,6,112,55
India,Maharashtra,Mumbai,"Chakala-Andheri East, Mumbai - IITM",14-12-2025 08:00:00,19.11074,72.86084,NH3,27,63,41
India,Maharashtra,Mumbai,"Chembur, Mumbai - MPCB",14-12-2025 08:00:00,19.0364585,72.8954371,NO2,33,118,89
India,Maharashtra,Mumbai,"Chembur, Mumbai - MPCB",14-12-2025 08:00:00,19.0364585,72.8954371,OZONE,6,238,12
India,Maharashtra,Mumbai,"Colaba, Mumbai - MPCB",14-12-2025 08:00:00,18.910000,72.820000,PM2.5,45,118,77
India,Maharashtra,Mumbai,"Colaba, Mumbai - MPCB",14-12-2025 08:00:00,18.910000,72.820000,SO2,NA,NA,NA
India,Maharashtra,Mira-Bhayandar,"Bhayandar West, Mira-Bhayandar - MPCB",14-12-2025 08:00:00,19.296481,72.840923,PM10,88,135,113
India,Maharashtra,Mira-Bhayandar,"Bhayandar West, Mira-Bhayandar - MPCB",14-12-2025 08:00:00,19.296481,72.840923,OZONE,1,114,17
India,Maharashtra,Mumbai,"Bandra Kurla Complex, Mumbai - MPCB",14-12-2025 08:00:00,19.065931,72.862131,OZONE,1,111,3
India,Maharashtra,Mumbai,"Borivali East, Mumbai - IITM",14-12-2025 08:00:00,19.23241,72.86895,OZONE,18,67,46
India,Maharashtra,Mumbai,"Borivali East, Mumbai - MPCB",14-12-2025 08:00:00,19.2243333,72.8658113,SO2,18,21,19
India,Maharashtra,Mumbai,"Borivali East, Mumbai - MPCB",14-12-2025 08:00:00,19.2243333,72.8658113,OZONE,12,14,13
India,Maharashtra,Kolhapur,"Sinchan Bhavan, Kolhapur - MPCB",14-12-2025 08:00:00,16.7143745,74.2426398,SO2,2,11,5
India,Maharashtra,Latur,"Sawe Wadi, Latur - MPCB",14-12-2025 08:00:00,18.39963,76.57452,OZONE,27,110,64
India,Maharashtra,Mahad,"Kamble Tarf Birwadi, Mahad - MPCB",14-12-2025 08:00:00,18.1023399,73.4783687,PM10,101,189,128
India,Maharashtra,Mahad,"Kamble Tarf Birwadi, Mahad - MPCB",14-12-2025 08:00:00,18.1023399,73.4783687,NO2,14,83,23
India,Maharashtra,Malegaon,"Mahesh Nagar, Malegaon - MPCB",14-12-2025 08:00:00,20.555712,74.529236,NO2,13,89,39
India,Maharashtra,Mumbai,"Sion, Mumbai - MPCB",14-12-2025 08:00:00,19.047000,72.874600,OZONE,5,13,12
India,Maharashtra,Mumbai,"Vile Parle West, Mumbai - MPCB",14-12-2025 08:00:00,19.10861,72.83622,SO2,47,52,50
India,Maharashtra,Mumbai,"Worli, Mumbai - MPCB",14-12-2025 08:00:00,18.9936162,72.8128113,PM10,78,123,107
India,Maharashtra,Mumbai,"Worli, Mumbai - MPCB",14-12-2025 08:00:00,18.9936162,72.8128113,NO2,4,16,9
India,Maharashtra,Nagpur,"Ambazari, Nagpur - MPCB",14-12-2025 08:00:00,21.121801,79.04952,PM2.5,68,111,94
India,Maharashtra,Nagpur,"Ambazari, Nagpur - MPCB",14-12-2025 08:00:00,21.121801,79.04952,SO2,19,124,41
India,Maharashtra,Mumbai,"Ghatkopar, Mumbai - BMC",14-12-2025 08:00:00,19.083694,72.920967,SO2,1,13,7
India,Maharashtra,Mumbai,"Kandivali West, Mumbai - BMC",14-12-2025 08:00:00,19.215859,72.831718,NH3,NA,NA,NA
India,Maharashtra,Mumbai,"Kandivali West, Mumbai - BMC",14-12-2025 08:00:00,19.215859,72.831718,SO2,1,8,5
India,Maharashtra,Mumbai,"Kherwadi_Bandra East, Mumbai - MPCB",14-12-2025 08:00:00,19.0632143,72.8456324,NO2,NA,NA,NA
India,Maharashtra,Mumbai,"Kherwadi_Bandra East, Mumbai - MPCB",14-12-2025 08:00:00,19.0632143,72.8456324,SO2,3,4,3
India,Maharashtra,Mumbai,"Kherwadi_Bandra East, Mumbai - MPCB",14-12-2025 08:00:00,19.0632143,72.8456324,OZONE,1,122,2
India,Maharashtra,Mumbai,"Khindipada-Bhandup West, Mumbai - IITM",14-12-2025 08:00:00,19.1653323,72.922099,NO2,63,113,87
India,Maharashtra,Mumbai,"Kurla, Mumbai - MPCB",14-12-2025 08:00:00,19.0863,72.8888,SO2,36,37,37
India,Maharashtra,Mumbai,"Malad West, Mumbai - IITM",14-12-2025 08:00:00,19.19709,72.82204,PM10,NA,NA,NA
India,Maharashtra,Mumbai,"Malad West, Mumbai - IITM",14-12-2025 08:00:00,19.19709,72.82204,NH3,17,36,25
India,Maharashtra,Mumbai,"Mazgaon, Mumbai - IITM",14-12-2025 08:00:00,18.96702,72.84214,OZONE,1,80,12
India,Maharashtra,Mumbai,"Deonar, Mumbai - IITM",14-12-2025 08:00:00,19.04946,72.9230,NH3,8,15,12
India,Maharashtra,Virar,"Bolinj, Virar - MPCB",14-12-2025 08:00:00,19.4458210,72.7988231,PM10,62,299,153
India,Maharashtra,Virar,"Bolinj, Virar - MPCB",14-12-2025 08:00:00,19.4458210,72.7988231,CO,16,140,103
India,Meghalaya,Shillong,"JN Stadium, Shillong - Meghalaya PCB",14-12-2025 08:00:00,25.5803419,91.8942571,NH3,8,12,10
India,Meghalaya,Shillong,"JN Stadium, Shillong - Meghalaya PCB",14-12-2025 08:00:00,25.5803419,91.8942571,SO2,23,28,26
India,Meghalaya,Shillong,"JN Stadium, Shillong - Meghalaya PCB",14-12-2025 08:00:00,25.5803419,91.8942571,CO,14,109,51
India,Meghalaya,Shillong,"Lumpyngngad, Shillong - Meghalaya PCB",14-12-2025 08:00:00,25.5586,91.8985,NO2,NA,NA,NA
India,Meghalaya,Shillong,"Lumpyngngad, Shillong - Meghalaya PCB",14-12-2025 08:00:00,25.5586,91.8985,SO2,5,11,7
India,Mizoram,Aizawl,"Sikulpuikawn, Aizawl - Mizoram PCB",14-12-2025 08:00:00,23.7176342,92.7192841,PM2.5,36,40,38
India,Mizoram,Aizawl,"Sikulpuikawn, Aizawl - Mizoram PCB",14-12-2025 08:00:00,23.7176342,92.7192841,OZONE,1,2,2
India,Nagaland,Kohima,"PWD Junction, Kohima - NPCB",14-12-2025 08:00:00,25.6635413,94.0989878,PM2.5,9,72,40
India,Maharashtra,Pune,"Hadapsar, Pune - IITM",14-12-2025 08:00:00,18.501793,73.927532,PM10,139,471,264
India,Maharashtra,Pune,"Hadapsar, Pune - IITM",14-12-2025 08:00:00,18.501793,73.927532,OZONE,10,61,11
India,Maharashtra,Pune,"Katraj Dairy, Pune - MPCB",14-12-2025 08:00:00,18.454450,73.854155,PM2.5,88,222,137
India,Maharashtra,Pune,"Katraj Dairy, Pune - MPCB",14-12-2025 08:00:00,18.454450,73.854155,NH3,2,14,7
India,Maharashtra,Pune,"Mhada Colony, Pune - IITM",14-12-2025 08:00:00,18.573040,73.927715,PM10,126,275,193
India,Maharashtra,Pune,"Panchawati_Pashan, Pune - IITM",14-12-2025 08:00:00,18.536457,73.805454,NO2,16,82,33
India,Maharashtra,Pune,"Panchawati_Pashan, Pune - IITM",14-12-2025 08:00:00,18.536457,73.805454,OZONE,1,44,1
India,Maharashtra,Pune,"Revenue Colony-Shivajinagar, Pune - IITM",14-12-2025 08:00:00,18.530085,73.849598,NO2,37,113,73
India,Maharashtra,Nanded,"Sneh Nagar, Nanded - MPCB",14-12-2025 08:00:00,19.173852,77.296291,SO2,1,2,2
India,Maharashtra,Nanded,"Sneh Nagar, Nanded - MPCB",14-12-2025 08:00:00,19.173852,77.296291,OZONE,6,103,18
India,Maharashtra,Nashik,"Gangapur Road, Nashik - MPCB",14-12-2025 08:00:00,20.0073285,73.7762427,PM10,72,176,121
India,Maharashtra,Nashik,"Gangapur Road, Nashik - MPCB",14-12-2025 08:00:00,20.0073285,73.7762427,NH3,3,3,3
India,Maharashtra,Nashik,"Gangapur Road, Nashik - MPCB",14-12-2025 08:00:00,20.0073285,73.7762427,OZONE,10,38,26
India,Maharashtra,Nashik,"Hirawadi, Nashik - MPCB",14-12-2025 08:00:00,20.021503,73.813844,NH3,1,12,2
India,Maharashtra,Nashik,"MIDC Ambad, Nashik - MPCB",14-12-2025 08:00:00,19.950220,73.731480,NH3,2,4,3
India,Maharashtra,Nashik,"MIDC Ambad, Nashik - MPCB",14-12-2025 08:00:00,19.950220,73.731480,CO,23,36,33
India,Maharashtra,Navi Mumbai,"Mahape, Navi Mumbai - MPCB",14-12-2025 08:00:00,19.1135051,73.008978,PM2.5,13,27,18
India,Maharashtra,Navi Mumbai,"Mahape, Navi Mumbai - MPCB",14-12-2025 08:00:00,19.1135051,73.008978,PM10,110,185,135
India,Maharashtra,Navi Mumbai,"Mahape, Navi Mumbai - MPCB",14-12-2025 08:00:00,19.1135051,73.008978,SO2,22,24,24
India,Maharashtra,Navi Mumbai,"Mahape, Navi Mumbai - MPCB",14-12-2025 08:00:00,19.1135051,73.008978,CO,24,28,25
India,Maharashtra,Navi Mumbai,"Nerul, Navi Mumbai - MPCB",14-12-2025 08:00:00,19.008751,73.016620,PM2.5,43,264,140
India,Maharashtra,Navi Mumbai,"Nerul, Navi Mumbai - MPCB",14-12-2025 08:00:00,19.008751,73.016620,NO2,36,39,37
India,Maharashtra,Navi Mumbai,"Nerul, Navi Mumbai - MPCB",14-12-2025 08:00:00,19.008751,73.016620,NH3,4,5,5
India,Maharashtra,Navi Mumbai,"Sanpada, Navi Mumbai - MPCB",14-12-2025 08:00:00,19.0575752,73.0151367,NH3,3,33,15
India,Maharashtra,Pimpri-Chinchwad,"Park Street Wakad, Pimpri Chinchwad - MPCB",14-12-2025 08:00:00,18.59051,73.77946,OZONE,2,126,3
India,Maharashtra,Pimpri-Chinchwad,"Thergaon, Pimpri Chinchwad - MPCB",14-12-2025 08:00:00,18.616318,73.765797,PM2.5,51,369,244
India,Maharashtra,Pune,"Bhumkar Nagar, Pune - IITM",14-12-2025 08:00:00,18.605770,73.749976,PM2.5,150,376,287
India,Maharashtra,Pune,"Bhumkar Nagar, Pune - IITM",14-12-2025 08:00:00,18.605770,73.749976,PM10,169,359,249
India,Maharashtra,Pune,"Dhankawadi, Pune - IITM",14-12-2025 08:00:00,18.459883,73.852193,PM2.5,NA,NA,NA
India,Maharashtra,Navi Mumbai,"Sanpada, Navi Mumbai - MPCB",14-12-2025 08:00:00,19.0575752,73.0151367,OZONE,15,41,41
India,Maharashtra,Navi Mumbai,"Tondare-Taloja, Navi Mumbai - MPCB",14-12-2025 08:00:00,19.0630,73.1209,PM10,68,189,124
India,Maharashtra,Navi Mumbai,"Tondare-Taloja, Navi Mumbai - MPCB",14-12-2025 08:00:00,19.0630,73.1209,SO2,3,4,4
India,Maharashtra,Parbhani,"Masoom Colony, Parbhani - MPCB",14-12-2025 08:00:00,19.265594,76.761463,PM2.5,59,214,148
India,Maharashtra,Parbhani,"Masoom Colony, Parbhani - MPCB",14-12-2025 08:00:00,19.265594,76.761463,NH3,3,5,4
India,Maharashtra,Solapur,"Ratandeep Housing Society, Solapur - MPCB",14-12-2025 08:00:00,17.65439,75.90649,CO,18,113,27
India,Maharashtra,Thane,"Kasarvadavali, Thane - MPCB",14-12-2025 08:00:00,19.26777,72.97182,NO2,21,86,49
India,Maharashtra,Thane,"Kasarvadavali, Thane - MPCB",14-12-2025 08:00:00,19.26777,72.97182,CO,8,76,38
India,Maharashtra,Ulhasnagar,"Sidhi Vinayak Nagar, Ulhasnagar - MPCB",14-12-2025 08:00:00,19.235581,73.159121,PM10,97,304,161
India,Maharashtra,Sangli,"Vijay Nagar, Sangli - MPCB",14-12-2025 08:00:00, 16.5038,74.3623,NO2,21,114,51
India,Maharashtra,Solapur,"Dnyaneshwar Nagar, Solapur - MPCB",14-12-2025 08:00:00,17.6336264,75.9132495,NH3,6,68,15
India,Maharashtra,Solapur,"Dnyaneshwar Nagar, Solapur - MPCB",14-12-2025 08:00:00,17.6336264,75.9132495,OZONE,5,59,37
India,Maharashtra,Pune,"Transport Nagar-Nigdi, Pune - IITM",14-12-2025 08:00:00,18.664282,73.763966,OZONE,7,77,13
India,Rajasthan,Bharatpur,"Krishna Nagar, Bharatpur - RSPCB",14-12-2025 08:00:00,27.215415,77.50873,NO2,33,82,51
India,Rajasthan,Bhilwara,"Pratap Nagar, Bhilwara - RSPCB",14-12-2025 08:00:00,25.339605,74.618883,NH3,10,20,15
India,Rajasthan,Bhilwara,"Pratap Nagar, Bhilwara - RSPCB",14-12-2025 08:00:00,25.339605,74.618883,OZONE,1,50,1
India,Rajasthan,Bhiwadi,"Vasundhara Nagar_UIT, Bhiwadi - RSPCB",14-12-2025 08:00:00,28.207266,76.829265,NO2,40,210,114
India,Rajasthan,Bikaner,"MM Ground, Bikaner - RSPCB",14-12-2025 08:00:00,28.018792,73.292658,PM2.5,27,328,124
India,Rajasthan,Bikaner,"MM Ground, Bikaner - RSPCB",14-12-2025 08:00:00,28.018792,73.292658,PM10,71,439,184
India,Rajasthan,Alwar,"Moti Doongri, Alwar - RSPCB",14-12-2025 08:00:00,27.554793,76.611536,OZONE,13,47,17
India,Rajasthan,Banswara,"Rati Talai, Banswara - RSPCB",14-12-2025 08:00:00,23.555190,74.440010,PM10,47,177,96
India,Rajasthan,Banswara,"Rati Talai, Banswara - RSPCB",14-12-2025 08:00:00,23.555190,74.440010,SO2,1,38,7
India,Rajasthan,Barmer,"Railway Colony, Barmer - RSPCB",14-12-2025 08:00:00,25.747299,71.393989,OZONE,6,71,43
India,Rajasthan,Bharatpur,"Krishna Nagar, Bharatpur - RSPCB",14-12-2025 08:00:00,27.215415,77.50873,PM2.5,96,287,187
India,Rajasthan,Bharatpur,"Krishna Nagar, Bharatpur - RSPCB",14-12-2025 08:00:00,27.215415,77.50873,PM10,87,193,145
India,Punjab,Amritsar,"Golden Temple, Amritsar - PPCB",14-12-2025 08:00:00,31.620000,74.876512,SO2,15,22,20
India,Punjab,Amritsar,"Golden Temple, Amritsar - PPCB",14-12-2025 08:00:00,31.620000,74.876512,CO,32,45,42
India,Punjab,Khanna,"Kalal Majra, Khanna - PPCB",14-12-2025 08:00:00,30.736056 ,76.209694,PM10,113,172,137
India,Punjab,Khanna,"Kalal Majra, Khanna - PPCB",14-12-2025 08:00:00,30.736056 ,76.209694,NH3,7,7,7
India,Punjab,Ludhiana,"Punjab Agricultural University, Ludhiana - PPCB",14-12-2025 08:00:00,30.9028,75.8086,PM2.5,92,104,97
India,Punjab,Ludhiana,"Punjab Agricultural University, Ludhiana - PPCB",14-12-2025 08:00:00,30.9028,75.8086,SO2,11,25,16
India,Odisha,Bileipada,"Tata Township, Bileipada - OSPCB",14-12-2025 08:00:00,22.06156703,85.47409613,OZONE,13,13,13
India,Odisha,Brajrajnagar,"GM Office, Brajrajnagar - OSPCB",14-12-2025 08:00:00,21.8004996,83.8396977,CO,6,32,13
India,Odisha,Cuttack,"CDA Area, Cuttack - OSPCB",14-12-2025 08:00:00,20.48891     ,85.84768     ,PM2.5,137,344,265
India,Odisha,Cuttack,"CDA Area, Cuttack - OSPCB",14-12-2025 08:00:00,20.48891     ,85.84768     ,PM10,130,291,197
India,Odisha,Cuttack,"CDA Area, Cuttack - OSPCB",14-12-2025 08:00:00,20.48891     ,85.84768     ,CO,39,126,69
India,Odisha,Rairangpur,"Divisional Forest Office, Rairangpur - OSPCB",14-12-2025 08:00:00,22.265816,86.174829,SO2,4,38,15
India,Odisha,Rourkela,"Raghunathpali, Rourkela - OSPCB",14-12-2025 08:00:00,22.220833,84.809444,CO,42,102,67
India,Odisha,Rourkela,"Sector-2, Rourkela - OSPCB",14-12-2025 08:00:00,22.24500000,84.88111111,PM10,65,100,84
India,Odisha,Suakati,"OMC Colony, Suakati - OSPCB",14-12-2025 08:00:00,21.606865,85.510538,PM2.5,16,322,102
India,Odisha,Tensa,"Barsua Iron Ore Mines, Tensa - OSPCB",14-12-2025 08:00:00,21.869985,85.167016,PM10,87,182,116
India,Puducherry,Puducherry,"Jawahar Nagar, Puducherry - PPCC",14-12-2025 08:00:00,11.9309,79.8027,NH3,1,3,2
India,Punjab,Amritsar,"Golden Temple, Amritsar - PPCB",14-12-2025 08:00:00,31.620000,74.876512,PM2.5,74,290,188
India,Punjab,Amritsar,"Golden Temple, Amritsar - PPCB",14-12-2025 08:00:00,31.620000,74.876512,NO2,6,11,8
India,Odisha,Baripada,"Meher Colony, Baripada - OSPCB",14-12-2025 08:00:00,21.941841,86.728318,SO2,5,29,13
India,Odisha,Bhubaneswar,"Lingraj Mandir, Bhubaneswar - OSPCB",14-12-2025 08:00:00,20.240790,85.836784,PM10,146,405,199
India,Odisha,Bhubaneswar,"Patia, Bhubaneswar - OSPCB",14-12-2025 08:00:00,20.34652,85.81630,NH3,7,11,9
India,Odisha,Bhubaneswar,"Patia, Bhubaneswar - OSPCB",14-12-2025 08:00:00,20.34652,85.81630,SO2,4,46,17
India,Odisha,Angul,"Hakimapada, Angul - OSPCB",14-12-2025 08:00:00,20.832874,85.104082,NO2,31,120,60
India,Odisha,Angul,"Hakimapada, Angul - OSPCB",14-12-2025 08:00:00,20.832874,85.104082,SO2,5,139,35
India,Odisha,Barbil,"Forest Office, Barbil - OSPCB",14-12-2025 08:00:00,22.1166054,85.3945546,NH3,1,3,2
India,Odisha,Barbil,"Forest Office, Barbil - OSPCB",14-12-2025 08:00:00,22.1166054,85.3945546,CO,26,102,61
India,Punjab,Ludhiana,"Punjab Agricultural University, Ludhiana - PPCB",14-12-2025 08:00:00,30.9028,75.8086,CO,36,82,49
India,Punjab,Mandi Gobindgarh,"RIMT University, Mandi Gobindgarh - PPCB",14-12-2025 08:00:00,30.649961,76.331442,SO2,2,20,12
India,Rajasthan,Jaipur,"Shastri Nagar, Jaipur - RSPCB",14-12-2025 08:00:00,26.9502929,75.730943,PM2.5,71,350,169
India,Rajasthan,Jaipur,"Shastri Nagar, Jaipur - RSPCB",14-12-2025 08:00:00,26.9502929,75.730943,NO2,64,131,99
India,Rajasthan,Jaisalmer,"Sadar Bazar, Jaisalmer - RSPCB",14-12-2025 08:00:00,26.912329,70.909168,NO2,16,99,48
India,Rajasthan,Jaisalmer,"Sadar Bazar, Jaisalmer - RSPCB",14-12-2025 08:00:00,26.912329,70.909168,CO,22,100,29
India,Rajasthan,Jalore,"Mudtra Sili, Jalore - RSPCB",14-12-2025 08:00:00,25.344694,72.626208,NH3,4,9,7
India,Rajasthan,Jalore,"Mudtra Sili, Jalore - RSPCB",14-12-2025 08:00:00,25.344694,72.626208,SO2,1,5,3
India,Rajasthan,Jalore,"Mudtra Sili, Jalore - RSPCB",14-12-2025 08:00:00,25.344694,72.626208,OZONE,4,106,7
India,Rajasthan,Jhalawar,"Rajlaxmi Nagar, Jhalawar - RSPCB",14-12-2025 08:00:00,24.588397,76.172782,NO2,17,45,25
India,Rajasthan,Kota,"Dhanmandi, Kota - RSPCB",14-12-2025 08:00:00,25.164090,75.858137,PM10,70,252,147
India,Rajasthan,Kota,"Nayapura, Kota - RSPCB",14-12-2025 08:00:00,25.196024,75.855668,CO,27,124,78
India,Rajasthan,Kota,"Nayapura, Kota - RSPCB",14-12-2025 08:00:00,25.196024,75.855668,OZONE,3,137,4
India,Rajasthan,Kota,"Shrinath Puram, Kota - RSPCB",14-12-2025 08:00:00,25.14389,75.821256,NO2,13,16,15
India,Rajasthan,Kota,"Shrinath Puram, Kota - RSPCB",14-12-2025 08:00:00,25.14389,75.821256,SO2,10,49,17
India,Rajasthan,Kota,"Shrinath Puram, Kota - RSPCB",14-12-2025 08:00:00,25.14389,75.821256,OZONE,8,17,13
India,Rajasthan,Nagaur,"Karni Colony, Nagaur - RSPCB",14-12-2025 08:00:00,27.213494,73.734444,PM10,99,500,274
India,Rajasthan,Sikar,"Radhakishan Pura, Sikar - RSPCB",14-12-2025 08:00:00,27.608912,75.153302,NH3,10,20,14
India,Rajasthan,Sikar,"Radhakishan Pura, Sikar - RSPCB",14-12-2025 08:00:00,27.608912,75.153302,SO2,5,11,7
India,Rajasthan,Sikar,"Radhakishan Pura, Sikar - RSPCB",14-12-2025 08:00:00,27.608912,75.153302,OZONE,7,105,46
India,Rajasthan,Sri Ganganagar,"Old City, Sri Ganganagar - RSPCB",14-12-2025 08:00:00,29.931624,73.864511,PM2.5,53,309,89
India,Rajasthan,Sri Ganganagar,"Old City, Sri Ganganagar - RSPCB",14-12-2025 08:00:00,29.931624,73.864511,OZONE,4,86,29
India,Rajasthan,Tonk,"Shastri Nagar, Tonk - RSPCB",14-12-2025 08:00:00,26.159933,75.780517,PM2.5,47,346,114
India,Rajasthan,Tonk,"Shastri Nagar, Tonk - RSPCB",14-12-2025 08:00:00,26.159933,75.780517,PM10,81,418,190
India,Rajasthan,Dholpur,"Raja Ganj, Dholpur - RSPCB",14-12-2025 08:00:00,26.699557,77.898881,CO,3,90,64
India,Rajasthan,Dholpur,"Raja Ganj, Dholpur - RSPCB",14-12-2025 08:00:00,26.699557,77.898881,OZONE,36,48,38
India,Rajasthan,Hanumangarh,"Housing Board, Hanumangarh - RSPCB",14-12-2025 08:00:00,29.610750,74.283608,PM2.5,NA,NA,NA
India,Rajasthan,Jaipur,"Adarsh Nagar, Jaipur - RSPCB",14-12-2025 08:00:00,26.902909,75.836858,PM10,80,164,111
India,Rajasthan,Jaipur,"Adarsh Nagar, Jaipur - RSPCB",14-12-2025 08:00:00,26.902909,75.836858,NO2,28,103,53
India,Rajasthan,Jaipur,"Adarsh Nagar, Jaipur - RSPCB",14-12-2025 08:00:00,26.902909,75.836858,SO2,8,33,21
India,Rajasthan,Bikaner,"MM Ground, Bikaner - RSPCB",14-12-2025 08:00:00,28.018792,73.292658,OZONE,2,98,41
India,Rajasthan,Bundi,"New Colony, Bundi - RSPCB",14-12-2025 08:00:00,25.435774,75.644272,PM2.5,52,210,96
India,Rajasthan,Bundi,"New Colony, Bundi - RSPCB",14-12-2025 08:00:00,25.435774,75.644272,PM10,37,340,111
India,Rajasthan,Churu,"Subash Chowk, Churu - RSPCB",14-12-2025 08:00:00,28.296139,74.961696,OZONE,18,115,48
India,Rajasthan,Dausa,"Khatikan Mohalla, Dausa - RSPCB",14-12-2025 08:00:00,26.895552,76.334753,NO2,12,125,42
India,Rajasthan,Jodhpur,"Mandor, Jodhpur - RSPCB",14-12-2025 08:00:00,26.358805,73.047444,PM2.5,30,173,89
India,Rajasthan,Jodhpur,"Mandor, Jodhpur - RSPCB",14-12-2025 08:00:00,26.358805,73.047444,SO2,2,11,6
India,Rajasthan,Jodhpur,"Samrat Ashok Udhyan, Jodhpur - RSPCB",14-12-2025 08:00:00,26.253384,72.976571,CO,25,120,95
India,Rajasthan,Karauli,"Satyawati Vihar, Karauli - RSPCB",14-12-2025 08:00:00,26.506177,77.025989,PM10,53,138,95
India,Rajasthan,Jhalawar,"Rajlaxmi Nagar, Jhalawar - RSPCB",14-12-2025 08:00:00,24.588397,76.172782,OZONE,2,119,4
India,Rajasthan,Jodhpur,"Collectorate, Jodhpur - RSPCB",14-12-2025 08:00:00,26.268249,73.0193853,NH3,11,57,28
India,Rajasthan,Jodhpur,"Jhalamand, Jodhpur - RSPCB",14-12-2025 08:00:00,26.215415,73.070156,PM2.5,27,277,119
India,Rajasthan,Pali,"Indira Colony Vistar, Pali - RSPCB",14-12-2025 08:00:00,25.771061, 73.340227,NH3,7,31,12
India,Rajasthan,Pali,"Indira Colony Vistar, Pali - RSPCB",14-12-2025 08:00:00,25.771061, 73.340227,CO,28,105,71
India,Rajasthan,Sawai Madhopur,"Sahu Nagar, Sawai Madhopur - RSPCB",14-12-2025 08:00:00,26.031443,76.359327,CO,8,122,44
India,Rajasthan,Jaipur,"Adarsh Nagar, Jaipur - RSPCB",14-12-2025 08:00:00,26.902909,75.836858,CO,28,84,47
India,Rajasthan,Jaipur,"Police Commissionerate, Jaipur - RSPCB",14-12-2025 08:00:00,26.9164092,75.7994901,PM2.5,49,153,85
India,TamilNadu,Ooty,"Bombay Castel, Ooty - TNPCB",14-12-2025 08:00:00,11.4068288,76.7138973,PM10,26,176,71
India,TamilNadu,Ooty,"Bombay Castel, Ooty - TNPCB",14-12-2025 08:00:00,11.4068288,76.7138973,NO2,2,4,3
India,TamilNadu,Perundurai,"SIPCOT Industrial Park, Perundurai - TNPCB",14-12-2025 08:00:00,11.258242,77.552761,NO2,12,14,12
India,TamilNadu,Perundurai,"SIPCOT Industrial Park, Perundurai - TNPCB",14-12-2025 08:00:00,11.258242,77.552761,OZONE,18,24,22
India,TamilNadu,Pudukottai,"SIPCOT Nathampannai, Pudukottai - TNPCB",14-12-2025 08:00:00,10.423417,78.784889,PM10,52,108,81
India,TamilNadu,Pudukottai,"SIPCOT Nathampannai, Pudukottai - TNPCB",14-12-2025 08:00:00,10.423417,78.784889,NO2,3,9,6
India,TamilNadu,Ramanathapuram,"Chalai Bazaar, Ramanathapuram - TNPCB",14-12-2025 08:00:00,9.36399,78.831977,CO,14,21,17
India,TamilNadu,Salem,"Sona College of Technology, Salem - TNPCB",14-12-2025 08:00:00,11.679111,78.125052,PM2.5,NA,NA,NA
India,TamilNadu,Salem,"Sona College of Technology, Salem - TNPCB",14-12-2025 08:00:00,11.679111,78.125052,CO,12,13,12
India,TamilNadu,Gummidipoondi,"Anthoni Pillai Nagar, Gummidipoondi - TNPCB",14-12-2025 08:00:00,13.4127,80.1081,NO2,1,4,2
India,TamilNadu,Karur,"Kamadenu Nagar, Karur - TNPCB",14-12-2025 08:00:00,10.967820,78.080882,SO2,14,15,15
India,TamilNadu,Madurai,"Uchapatti, Madurai - TNPCB",14-12-2025 08:00:00,9.865935,78.022669,PM10,53,115,87
India,TamilNadu,Madurai,"Uchapatti, Madurai - TNPCB",14-12-2025 08:00:00,9.865935,78.022669,NH3,9,9,9
India,TamilNadu,Madurai,"Uchapatti, Madurai - TNPCB",14-12-2025 08:00:00,9.865935,78.022669,OZONE,1,1,1
India,TamilNadu,Nagapattinam,"Velippalayam, Nagapattinam - TNPCB",14-12-2025 08:00:00,10.798548,79.838212,PM10,32,105,53
India,TamilNadu,Nagapattinam,"Velippalayam, Nagapattinam - TNPCB",14-12-2025 08:00:00,10.798548,79.838212,NO2,6,6,6
India,TamilNadu,Nagapattinam,"Velippalayam, Nagapattinam - TNPCB",14-12-2025 08:00:00,10.798548,79.838212,CO,16,28,23
India,TamilNadu,Chennai,"Velachery Res. Area, Chennai - CPCB",14-12-2025 08:00:00,13.0052189,80.2398125,SO2,13,17,15
India,TamilNadu,Coimbatore,"PSG College of Arts and Science, Coimbatore - TNPCB",14-12-2025 08:00:00,11.0328,77.0349,OZONE,4,6,5
India,TamilNadu,Coimbatore,"SIDCO Kurichi, Coimbatore - TNPCB",14-12-2025 08:00:00,10.942451,76.978996,PM2.5,62,121,85
India,TamilNadu,Coimbatore,"SIDCO Kurichi, Coimbatore - TNPCB",14-12-2025 08:00:00,10.942451,76.978996,SO2,22,23,22
India,TamilNadu,Coimbatore,"SIDCO Kurichi, Coimbatore - TNPCB",14-12-2025 08:00:00,10.942451,76.978996,OZONE,5,42,15
India,TamilNadu,Cuddalore,"Kudikadu, Cuddalore - TNPCB",14-12-2025 08:00:00,11.6829898,79.7532099,NO2,19,19,19
India,TamilNadu,Ariyalur,"Keelapalur, Ariyalur - TNPCB",14-12-2025 08:00:00,11.06825,79.07033,PM10,48,104,65
India,TamilNadu,Ariyalur,"Keelapalur, Ariyalur - TNPCB",14-12-2025 08:00:00,11.06825,79.07033,NH3,1,1,1
India,TamilNadu,Ariyalur,"Keelapalur, Ariyalur - TNPCB",14-12-2025 08:00:00,11.06825,79.07033,SO2,13,13,13
India,TamilNadu,Chennai,"Arumbakkam, Chennai - TNPCB",14-12-2025 08:00:00,13.0664,80.2112 ,PM2.5,55,222,108
India,TamilNadu,Chennai,"Arumbakkam, Chennai - TNPCB",14-12-2025 08:00:00,13.0664,80.2112 ,NO2,20,35,25
India,TamilNadu,Chennai,"Kodungaiyur, Chennai - TNPCB",14-12-2025 08:00:00,13.1278,80.2642,PM2.5,65,321,118
India,TamilNadu,Chennai,"Kodungaiyur, Chennai - TNPCB",14-12-2025 08:00:00,13.1278,80.2642,NO2,1,3,1
India,Telangana,Hyderabad,"ICRISAT Patancheru, Hyderabad - TSPCB",14-12-2025 08:00:00,17.518400,78.278777,SO2,NA,NA,NA
India,Telangana,Hyderabad,"IITH Kandi, Hyderabad - TSPCB",14-12-2025 08:00:00,17.585705,78.126199,NH3,2,3,3
India,Telangana,Hyderabad,"IITH Kandi, Hyderabad - TSPCB",14-12-2025 08:00:00,17.585705,78.126199,CO,9,40,21
India,Telangana,Hyderabad,"Kokapet, Hyderabad - TSPCB",14-12-2025 08:00:00,17.393559,78.339194,PM2.5,48,71,55
India,Telangana,Hyderabad,"Kokapet, Hyderabad - TSPCB",14-12-2025 08:00:00,17.393559,78.339194,NO2,10,14,11
India,Telangana,Hyderabad,"Kompally Municipal Office, Hyderabad - TSPCB",14-12-2025 08:00:00,17.544899,78.486949,NO2,NA,NA,NA
India,TamilNadu,Virudhunagar,"Collectorate Office, Virudhunagar - TNPCB",14-12-2025 08:00:00,9.559382,77.948828,CO,21,24,24
India,Telangana,Hyderabad,"Bollaram Industrial Area, Hyderabad - TSPCB",14-12-2025 08:00:00,17.540891,78.358528,OZONE,43,57,44
India,Telangana,Hyderabad,"Central University, Hyderabad - TSPCB",14-12-2025 08:00:00,17.460103,78.334361,PM10,52,123,101
India,Telangana,Hyderabad,"Central University, Hyderabad - TSPCB",14-12-2025 08:00:00,17.460103,78.334361,SO2,6,25,14
India,TamilNadu,Chennai,"Perungudi, Chennai - TNPCB",14-12-2025 08:00:00,12.9533,80.2357,PM10,NA,NA,NA
India,TamilNadu,Chennai,"Perungudi, Chennai - TNPCB",14-12-2025 08:00:00,12.9533,80.2357,NH3,3,4,3
India,TamilNadu,Chennai,"Perungudi, Chennai - TNPCB",14-12-2025 08:00:00,12.9533,80.2357,OZONE,5,66,9
India,TamilNadu,Chennai,"Royapuram, Chennai - TNPCB",14-12-2025 08:00:00,13.1036,80.2909,NH3,5,9,6
India,TamilNadu,Chennai,"Velachery Res. Area, Chennai - CPCB",14-12-2025 08:00:00,13.0052189,80.2398125,PM2.5,25,54,38
India,TamilNadu,Thoothukudi,"Meelavittan, Thoothukudi - TNPCB",14-12-2025 08:00:00,8.816428 ,78.099039,SO2,1,19,11
India,TamilNadu,Thoothukudi,"Meelavittan, Thoothukudi - TNPCB",14-12-2025 08:00:00,8.816428 ,78.099039,CO,38,59,49
India,TamilNadu,Chennai,"Manali, Chennai - CPCB",14-12-2025 08:00:00,13.164544,80.26285,PM2.5,19,156,68
India,Telangana,Hyderabad,"New Malakpet, Hyderabad - TSPCB",14-12-2025 08:00:00,17.37206,78.50864,PM10,80,96,85
India,Telangana,Hyderabad,"New Malakpet, Hyderabad - TSPCB",14-12-2025 08:00:00,17.37206,78.50864,NH3,3,3,3
India,Telangana,Hyderabad,"New Malakpet, Hyderabad - TSPCB",14-12-2025 08:00:00,17.37206,78.50864,CO,32,42,34
India,Telangana,Hyderabad,"Ramachandrapuram, Hyderabad - TSPCB",14-12-2025 08:00:00,17.528544,78.286195,NH3,2,3,2
India,Telangana,Hyderabad,"Ramachandrapuram, Hyderabad - TSPCB",14-12-2025 08:00:00,17.528544,78.286195,SO2,10,15,12
India,Telangana,Hyderabad,"Ramachandrapuram, Hyderabad - TSPCB",14-12-2025 08:00:00,17.528544,78.286195,CO,38,84,64
India,Telangana,Hyderabad,"Ramachandrapuram, Hyderabad - TSPCB",14-12-2025 08:00:00,17.528544,78.286195,OZONE,18,28,21
India,Telangana,Hyderabad,"Sanathnagar, Hyderabad - TSPCB",14-12-2025 08:00:00,17.4559458,78.4332152,NO2,24,29,27
India,Telangana,Hyderabad,"Sanathnagar, Hyderabad - TSPCB",14-12-2025 08:00:00,17.4559458,78.4332152,OZONE,11,16,14
India,Telangana,Hyderabad,"Somajiguda, Hyderabad - TSPCB",14-12-2025 08:00:00,17.417094,78.457437,CO,21,57,38
India,Telangana,Hyderabad,"Zoo Park, Hyderabad - TSPCB",14-12-2025 08:00:00,17.349694,78.451437,NH3,3,4,3
India,Telangana,Hyderabad,"Zoo Park, Hyderabad - TSPCB",14-12-2025 08:00:00,17.349694,78.451437,OZONE,21,24,22
India,Tripura,Agartala,"Bardowali, Agartala - Tripura SPCB",14-12-2025 08:00:00,23.8175497,91.2726974,NH3,5,6,5
India,Tripura,Agartala,"Bardowali, Agartala - Tripura SPCB",14-12-2025 08:00:00,23.8175497,91.2726974,CO,26,34,29
India,Uttar_Pradesh,Agra,"Manoharpur, Agra - UPPCB",14-12-2025 08:00:00,27.23711,78.01936,PM10,93,250,181
India,Uttar_Pradesh,Agra,"Manoharpur, Agra - UPPCB",14-12-2025 08:00:00,27.23711,78.01936,CO,22,27,24
India,Uttar_Pradesh,Khurja,"Kalindi Kunj, Khurja - UPPCB",14-12-2025 08:00:00,28.2348927,77.8683002,SO2,14,15,14
India,Uttar_Pradesh,Lucknow,"B R Ambedkar University, Lucknow - UPPCB",14-12-2025 08:00:00,26.766433,80.927299,PM10,58,157,121
India,Uttar_Pradesh,Lucknow,"B R Ambedkar University, Lucknow - UPPCB",14-12-2025 08:00:00,26.766433,80.927299,CO,39,54,51
India,Uttar_Pradesh,Lucknow,"Gomti Nagar, Lucknow - UPPCB",14-12-2025 08:00:00,26.868120,81.005119,PM10,55,310,130
India,Uttar_Pradesh,Lucknow,"Kendriya Vidyalaya, Lucknow - CPCB",14-12-2025 08:00:00,26.906111,80.948222,NH3,12,18,15
India,Uttar_Pradesh,Lucknow,"Kukrail Picnic Spot-1, Lucknow - UPPCB",14-12-2025 08:00:00,26.90723,80.98579,CO,12,22,19
India,Uttar_Pradesh,Gorakhpur,"Madan Mohan Malaviya University of Technology, Gorakhpur - UPPCB",14-12-2025 08:00:00,26.730136,83.433859,SO2,34,36,35
India,Uttar_Pradesh,Greater Noida,"Knowledge Park - III, Greater Noida - UPPCB",14-12-2025 08:00:00,28.47272,77.482000,NO2,17,144,72
India,Uttar_Pradesh,Greater Noida,"Knowledge Park - V, Greater Noida - UPPCB",14-12-2025 08:00:00,28.557054,77.453663,PM2.5,407,500,478
India,Uttar_Pradesh,Greater Noida,"Knowledge Park - V, Greater Noida - UPPCB",14-12-2025 08:00:00,28.557054,77.453663,CO,25,115,56
India,Uttar_Pradesh,Hapur,"Anand Vihar, Hapur - UPPCB",14-12-2025 08:00:00,28.725645,77.749675,PM2.5,NA,NA,NA
India,Uttar_Pradesh,Hapur,"Anand Vihar, Hapur - UPPCB",14-12-2025 08:00:00,28.725645,77.749675,SO2,NA,NA,NA
India,Uttar_Pradesh,Agra,"Shastripuram, Agra - UPPCB",14-12-2025 08:00:00,27.19862,77.92066,CO,25,66,55
India,Uttar_Pradesh,Agra,"Shastripuram, Agra - UPPCB",14-12-2025 08:00:00,27.19862,77.92066,OZONE,6,7,6
India,Uttar_Pradesh,Baghpat,"Sardar Patel Inter College, Baghpat - UPPCB",14-12-2025 08:00:00,28.964949,77.278761,NH3,1,4,3
India,Uttar_Pradesh,Bareilly,"Civil Lines, Bareilly - UPPCB",14-12-2025 08:00:00,28.359581,79.414455,NH3,1,24,5
India,Uttar_Pradesh,Bareilly,"Civil Lines, Bareilly - UPPCB",14-12-2025 08:00:00,28.359581,79.414455,SO2,1,13,7
India,Uttar_Pradesh,Bareilly,"Rajendra Nagar, Bareilly - UPPCB",14-12-2025 08:00:00,28.38910936,79.42963708,SO2,35,38,36
India,Uttar_Pradesh,Firozabad,"Nagla Bhau, Firozabad - UPPCB",14-12-2025 08:00:00,27.168897,78.376960,NO2,16,17,17
India,Uttar_Pradesh,Firozabad,"Nagla Bhau, Firozabad - UPPCB",14-12-2025 08:00:00,27.168897,78.376960,CO,8,24,23
India,Uttar_Pradesh,Ghaziabad,"Indirapuram, Ghaziabad - UPPCB",14-12-2025 08:00:00,28.646233,77.358075,OZONE,6,72,19
India,Uttar_Pradesh,Ghaziabad,"Sanjay Nagar, Ghaziabad - UPPCB",14-12-2025 08:00:00,28.685382,77.453839,PM10,204,430,375
India,Uttar_Pradesh,Ghaziabad,"Sanjay Nagar, Ghaziabad - UPPCB",14-12-2025 08:00:00,28.685382,77.453839,CO,33,124,69
India,Uttar_Pradesh,Ghaziabad,"Vasundhara, Ghaziabad - UPPCB",14-12-2025 08:00:00,28.6603346,77.3572563,NO2,76,141,100
India,Uttar_Pradesh,Agra,"Rohta, Agra - UPPCB",14-12-2025 08:00:00,27.106972,78.000111,PM10,133,251,194
India,Uttar_Pradesh,Agra,"Rohta, Agra - UPPCB",14-12-2025 08:00:00,27.106972,78.000111,NH3,7,7,7
India,Uttar_Pradesh,Agra,"Sanjay Palace, Agra - UPPCB",14-12-2025 08:00:00,27.19865833,78.00598056,SO2,15,17,16
India,Uttar_Pradesh,Agra,"Sanjay Palace, Agra - UPPCB",14-12-2025 08:00:00,27.19865833,78.00598056,CO,28,39,28
India,Uttar_Pradesh,Agra,"Sanjay Palace, Agra - UPPCB",14-12-2025 08:00:00,27.19865833,78.00598056,OZONE,4,5,4
India,Uttar_Pradesh,Agra,"Sector-3B Avas Vikas Colony, Agra - UPPCB",14-12-2025 08:00:00,27.19412,77.96237,OZONE,6,42,8
India,Uttar_Pradesh,Kanpur,"FTI Kidwai Nagar, Kanpur - UPPCB",14-12-2025 08:00:00,26.428282,80.327067,NO2,25,25,25
India,Uttar_Pradesh,Kanpur,"FTI Kidwai Nagar, Kanpur - UPPCB",14-12-2025 08:00:00,26.428282,80.327067,OZONE,13,14,14
India,Uttar_Pradesh,Kanpur,"NSI Kalyanpur, Kanpur - UPPCB",14-12-2025 08:00:00,26.509954,80.249612,PM10,98,202,127
India,Uttar_Pradesh,Kanpur,"Nehru Nagar, Kanpur - UPPCB",14-12-2025 08:00:00,26.4703136,80.3229863,CO,47,76,73
India,Uttar_Pradesh,Bulandshahr,"Yamunapuram, Bulandshahr - UPPCB",14-12-2025 08:00:00,28.406963,77.849831,NH3,22,29,26
India,Uttar_Pradesh,Vrindavan,"Omex Eternity, Vrindavan - UPPCB",14-12-2025 08:00:00,27.5714090,77.6557570,SO2,11,14,12
India,Uttarakhand,Dehradun,"Doon University, Dehradun - UKPCB",14-12-2025 08:00:00,30.269444,78.044167,PM10,42,124,83
India,Uttarakhand,Dehradun,"Doon University, Dehradun - UKPCB",14-12-2025 08:00:00,30.269444,78.044167,OZONE,21,59,24
India,Uttarakhand,Kashipur,"Govt. Girls Inter College, Kashipur - UKPCB",14-12-2025 08:00:00,29.2124114,78.9611753,PM2.5,74,103,88
India,Uttarakhand,Kashipur,"Govt. Girls Inter College, Kashipur - UKPCB",14-12-2025 08:00:00,29.2124114,78.9611753,PM10,80,107,94
India,Uttarakhand,Rishikesh,"Shivaji Nagar, Rishikesh - UKPCB",14-12-2025 08:00:00,30.075911,78.2859547,SO2,3,3,3
India,Uttarakhand,Rishikesh,"Shivaji Nagar, Rishikesh - UKPCB",14-12-2025 08:00:00,30.075911,78.2859547,CO,26,45,28
India,Uttarakhand,Rishikesh,"Shivaji Nagar, Rishikesh - UKPCB",14-12-2025 08:00:00,30.075911,78.2859547,OZONE,25,27,26
India,West_Bengal,Asansol,"Asansol Court Area, Asansol - WBPCB",14-12-2025 08:00:00,23.685297,86.945968,PM2.5,61,316,179
India,Uttar_Pradesh,Varanasi,"IESD Banaras Hindu University, Varanasi - UPPCB",14-12-2025 08:00:00,25.262326,82.995408,NO2,2,3,2
India,Uttar_Pradesh,Varanasi,"IESD Banaras Hindu University, Varanasi - UPPCB",14-12-2025 08:00:00,25.262326,82.995408,CO,24,85,62
India,Uttar_Pradesh,Varanasi,"Maldahiya, Varanasi - UPPCB",14-12-2025 08:00:00,25.32393,82.99687,CO,42,127,118
India,Uttar_Pradesh,Varanasi,"Maldahiya, Varanasi - UPPCB",14-12-2025 08:00:00,25.32393,82.99687,OZONE,1,5,2
India,Uttar_Pradesh,Vrindavan,"Omex Eternity, Vrindavan - UPPCB",14-12-2025 08:00:00,27.5714090,77.6557570,NO2,12,13,12
India,Uttar_Pradesh,Moradabad,"Jigar Colony, Moradabad - UPPCB",14-12-2025 08:00:00,28.856664,78.772638,SO2,23,50,43
India,Uttar_Pradesh,Moradabad,"Kashiram Nagar, Moradabad - UPPCB",14-12-2025 08:00:00,28.849399,78.742362,NO2,25,25,25
India,Uttar_Pradesh,Moradabad,"Kashiram Nagar, Moradabad - UPPCB",14-12-2025 08:00:00,28.849399,78.742362,CO,32,115,77
India,Uttar_Pradesh,Moradabad,"Transport Nagar, Moradabad - UPPCB",14-12-2025 08:00:00,28.802625,78.753728,PM10,75,229,117
India,Uttar_Pradesh,Moradabad,"Transport Nagar, Moradabad - UPPCB",14-12-2025 08:00:00,28.802625,78.753728,SO2,33,39,36
India,Uttar_Pradesh,Moradabad,"Transport Nagar, Moradabad - UPPCB",14-12-2025 08:00:00,28.802625,78.753728,CO,32,76,34
India,West_Bengal,Asansol,"Evelyn Lodge, Asansol - WBPCB",14-12-2025 08:00:00,23.6979360,86.9443950,NO2,10,73,32
India,West_Bengal,Asansol,"Mahabir Colliery, Asansol - WBPCB",14-12-2025 08:00:00,23.6181830,87.1057180,NO2,12,74,36
India,West_Bengal,Asansol,"Mahabir Colliery, Asansol - WBPCB",14-12-2025 08:00:00,23.6181830,87.1057180,OZONE,6,59,6
India,West_Bengal,Asansol,"Trivenidevi Bhalotia College, Asansol - WBPCB",14-12-2025 08:00:00,23.616515,87.119133,NO2,19,43,31
India,West_Bengal,Asansol,"Trivenidevi Bhalotia College, Asansol - WBPCB",14-12-2025 08:00:00,23.616515,87.119133,OZONE,8,15,8
India,West_Bengal,Barrackpore,"SVSPA Campus, Barrackpore - WBPCB",14-12-2025 08:00:00,22.7605581,88.3617589,PM2.5,79,276,151
India,West_Bengal,Barrackpore,"SVSPA Campus, Barrackpore - WBPCB",14-12-2025 08:00:00,22.7605581,88.3617589,OZONE,3,58,4
India,West_Bengal,Durgapur,"Mahishkapur Road_B-Zone, Durgapur - WBPCB",14-12-2025 08:00:00,23.567923,87.306843,PM2.5,63,305,130
India,West_Bengal,Durgapur,"PCBL Residential Complex, Durgapur - WBPCB",14-12-2025 08:00:00,23.5087640,87.3544400,NO2,NA,NA,NA
India,Uttar_Pradesh,Lucknow,"Lalbagh, Lucknow - CPCB",14-12-2025 08:00:00,26.8458805,80.9365541,PM2.5,131,306,237
India,Uttar_Pradesh,Lucknow,"Lalbagh, Lucknow - CPCB",14-12-2025 08:00:00,26.8458805,80.9365541,PM10,128,432,231
India,Uttar_Pradesh,Lucknow,"Lalbagh, Lucknow - CPCB",14-12-2025 08:00:00,26.8458805,80.9365541,OZONE,13,57,15
India,Uttar_Pradesh,Meerut,"Ganga Nagar, Meerut - UPPCB",14-12-2025 08:00:00,28.999264,77.7590354,PM10,157,435,296
India,Uttar_Pradesh,Meerut,"Ganga Nagar, Meerut - UPPCB",14-12-2025 08:00:00,28.999264,77.7590354,OZONE,7,82,9
India,Uttar_Pradesh,Prayagraj,"Jhunsi, Prayagraj - UPPCB",14-12-2025 08:00:00,25.425602,81.917152,PM10,90,235,163
India,Uttar_Pradesh,Prayagraj,"Motilal Nehru NIT, Prayagraj - UPPCB",14-12-2025 08:00:00,25.494,81.863,PM2.5,184,357,284
India,Uttar_Pradesh,Prayagraj,"Nagar Nigam, Prayagraj - UPPCB",14-12-2025 08:00:00,25.44919916 ,81.82735986 ,OZONE,11,14,12
India,Uttar_Pradesh,Noida,"Sector - 62, Noida - IMD",14-12-2025 08:00:00,28.6245479,77.3577104,PM10,397,472,423
India,Uttar_Pradesh,Noida,"Sector-1, Noida - UPPCB",14-12-2025 08:00:00,28.5898,77.3101,NH3,25,44,37
India,Uttar_Pradesh,Noida,"Sector-1, Noida - UPPCB",14-12-2025 08:00:00,28.5898,77.3101,CO,56,140,95
India,Uttar_Pradesh,Meerut,"Pallavpuram Phase 2, Meerut - UPPCB",14-12-2025 08:00:00,29.063510,77.709723,PM10,174,418,292
India,Uttar_Pradesh,Moradabad,"Employment Office, Moradabad - UPPCB",14-12-2025 08:00:00,28.88528,78.73880,PM2.5,85,273,162
India,West_Bengal,Haldia,"Priyambada Housing Estate, Haldia - WBPCB",14-12-2025 08:00:00,22.06047,88.109737,OZONE,18,24,19
India,West_Bengal,Howrah,"Belur Math, Howrah - WBPCB",14-12-2025 08:00:00,22.629801,88.352017,CO,22,107,68
India,West_Bengal,Howrah,"Belur Math, Howrah - WBPCB",14-12-2025 08:00:00,22.629801,88.352017,OZONE,14,59,15
India,West_Bengal,Howrah,"Dasnagar, Howrah - WBPCB",14-12-2025 08:00:00,22.6025571,88.3105664,PM10,68,167,120
India,West_Bengal,Howrah,"Dasnagar, Howrah - WBPCB",14-12-2025 08:00:00,22.6025571,88.3105664,OZONE,5,89,5
India,West_Bengal,Howrah,"Padmapukur, Howrah - WBPCB",14-12-2025 08:00:00,22.5687319,88.2797276,PM10,NA,NA,NA
India,West_Bengal,Howrah,"Padmapukur, Howrah - WBPCB",14-12-2025 08:00:00,22.5687319,88.2797276,NH3,2,3,2
India,West_Bengal,Kolkata,"Ballygunge, Kolkata - WBPCB",14-12-2025 08:00:00,22.5367507,88.3638022,PM2.5,78,400,174
India,West_Bengal,Kolkata,"Ballygunge, Kolkata - WBPCB",14-12-2025 08:00:00,22.5367507,88.3638022,NO2,27,68,48
India,West_Bengal,Kolkata,"Ballygunge, Kolkata - WBPCB",14-12-2025 08:00:00,22.5367507,88.3638022,CO,10,124,93
India,West_Bengal,Kolkata,"Bidhannagar, Kolkata - WBPCB",14-12-2025 08:00:00,22.58157048,88.41002457,OZONE,11,42,12
India,West_Bengal,Kolkata,"Jadavpur, Kolkata - WBPCB",14-12-2025 08:00:00,22.49929,88.36917,NO2,33,158,88
India,West_Bengal,Kolkata,"Jadavpur, Kolkata - WBPCB",14-12-2025 08:00:00,22.49929,88.36917,NH3,7,22,13
India,West_Bengal,Kolkata,"Jadavpur, Kolkata - WBPCB",14-12-2025 08:00:00,22.49929,88.36917,SO2,8,11,9
India,West_Bengal,Kolkata,"Rabindra Bharati University, Kolkata - WBPCB",14-12-2025 08:00:00,22.627847,88.380669,NH3,12,14,13
India,West_Bengal,Kolkata,"Rabindra Bharati University, Kolkata - WBPCB",14-12-2025 08:00:00,22.627847,88.380669,OZONE,8,71,10
India,West_Bengal,Kolkata,"Rabindra Sarobar, Kolkata - WBPCB",14-12-2025 08:00:00,22.51106,88.35142,NH3,9,49,24
India,West_Bengal,Siliguri,"Ward-32 Bapupara, Siliguri - WBPCB",14-12-2025 08:00:00,26.6879226,88.4152495,PM2.5,31,84,54
India,West_Bengal,Siliguri,"Ward-32 Bapupara, Siliguri - WBPCB",14-12-2025 08:00:00,26.6879226,88.4152495,PM10,45,164,86
India,West_Bengal,Siliguri,"Ward-32 Bapupara, Siliguri - WBPCB",14-12-2025 08:00:00,26.6879226,88.4152495,CO,33,90,50
India,West_Bengal,Siliguri,"Ward-32 Bapupara, Siliguri - WBPCB",14-12-2025 08:00:00,26.6879226,88.4152495,OZONE,29,104,47
India,Assam,Byrnihat,"Central Academy for SFS, Byrnihat - PCBA",14-12-2025 08:00:00,26.071318,91.87488,NH3,4,4,4
India,Assam,Byrnihat,"Central Academy for SFS, Byrnihat - PCBA",14-12-2025 08:00:00,26.071318,91.87488,OZONE,15,36,16
India,Assam,Guwahati,"LGBI Airport, Guwahati - PCBA",14-12-2025 08:00:00,26.10887,91.589544,NH3,5,5,5
India,Assam,Guwahati,"Pan Bazaar, Guwahati - PCBA",14-12-2025 08:00:00,26.187500,91.744194,PM2.5,37,204,103
India,Assam,Guwahati,"Pan Bazaar, Guwahati - PCBA",14-12-2025 08:00:00,26.187500,91.744194,CO,12,76,41
India,Assam,Nagaon,"Christianpatty, Nagaon - PCBA",14-12-2025 08:00:00,26.349082,92.68449,PM10,67,119,104
India,Andaman and Nicobar,Sri Vijaya Puram,"Police Line, Sri Vijaya Puram - ANPCC",14-12-2025 08:00:00,11.654054,92.734055,OZONE,NA,NA,NA
India,Andhra_Pradesh,Amaravati,"Secretariat, Amaravati - APPCB",14-12-2025 08:00:00,16.5150833,80.5181667,NH3,1,4,2
India,Andhra_Pradesh,Amaravati,"Secretariat, Amaravati - APPCB",14-12-2025 08:00:00,16.5150833,80.5181667,SO2,1,88,13
India,Andhra_Pradesh,Amaravati,"Secretariat, Amaravati - APPCB",14-12-2025 08:00:00,16.5150833,80.5181667,CO,16,58,46
India,Andhra_Pradesh,Amaravati,"Secretariat, Amaravati - APPCB",14-12-2025 08:00:00,16.5150833,80.5181667,OZONE,3,64,7
India,Andhra_Pradesh,Anantapur,"Gulzarpet, Anantapur - APPCB",14-12-2025 08:00:00,14.675886,77.593027,NH3,6,6,6
India,Bihar,Bettiah,"Kamalnath Nagar, Bettiah - BSPCB",14-12-2025 08:00:00,26.80365,84.51954,NO2,7,10,8
India,Bihar,Bettiah,"Kamalnath Nagar, Bettiah - BSPCB",14-12-2025 08:00:00,26.80365,84.51954,OZONE,22,23,22
India,Bihar,Bhagalpur,"DM Office_Kachari Chowk, Bhagalpur - BSPCB",14-12-2025 08:00:00,25.251013,86.989001,NH3,1,1,1
India,Bihar,Bhagalpur,"Mayaganj, Bhagalpur - BSPCB",14-12-2025 08:00:00,25.265194,87.012947,PM10,NA,NA,NA
India,Bihar,Bhagalpur,"Mayaganj, Bhagalpur - BSPCB",14-12-2025 08:00:00,25.265194,87.012947,NH3,NA,NA,NA
India,Bihar,Bihar Sharif,"D M Colony, Bihar Sharif - BSPCB",14-12-2025 08:00:00,25.204762,85.514960,CO,1,40,6
India,Andhra_Pradesh,Kadapa,"Yerramukkapalli, Kadapa - APPCB",14-12-2025 08:00:00,14.465052,78.824187,NO2,30,30,30
India,Andhra_Pradesh,Kadapa,"Yerramukkapalli, Kadapa - APPCB",14-12-2025 08:00:00,14.465052,78.824187,SO2,10,10,10
India,Andhra_Pradesh,Rajamahendravaram,"Anand Kala Kshetram, Rajamahendravaram - APPCB",14-12-2025 08:00:00,16.9872867,81.7363176,CO,22,62,41
India,Andhra_Pradesh,Tirumala,"Toll Gate, Tirumala - APPCB",14-12-2025 08:00:00,13.67,79.35,PM10,52,123,90
India,Andhra_Pradesh,Tirumala,"Toll Gate, Tirumala - APPCB",14-12-2025 08:00:00,13.67,79.35,SO2,6,8,7
India,Bihar,Gaya,"Kareemganj, Gaya - BSPCB",14-12-2025 08:00:00,24.792403,84.992416,CO,37,44,42
India,Bihar,Gaya,"SFTI Kusdihra, Gaya - BSPCB",14-12-2025 08:00:00,24.762518,84.982348,NH3,3,4,4
India,Bihar,Gaya,"SFTI Kusdihra, Gaya - BSPCB",14-12-2025 08:00:00,24.762518,84.982348,SO2,7,9,8
India,Bihar,Hajipur,"Industrial Area, Hajipur - BSPCB",14-12-2025 08:00:00,25.697189,85.245900,CO,8,88,53
India,Bihar,Katihar,"Mirchaibari, Katihar - BSPCB",14-12-2025 08:00:00,25.560083,87.553265,OZONE,4,7,5
India,Bihar,Araria,"Kharahiya Basti, Araria - BSPCB",14-12-2025 08:00:00,26.146529,87.454184,PM2.5,17,379,144
India,Bihar,Aurangabad,"Gurdeo Nagar, Aurangabad - BSPCB",14-12-2025 08:00:00,24.75746,84.366208,NO2,7,8,8
India,Bihar,Begusarai,"Lohiyanagar, Begusarai - BSPCB",14-12-2025 08:00:00,25.42742023,86.13886079,OZONE,10,44,12
India,Andhra_Pradesh,Tirupati,"Vaikuntapuram, Tirupati - APPCB",14-12-2025 08:00:00,13.615387,79.409230,PM2.5,56,62,59
India,Andhra_Pradesh,Vijayawada,"HB Colony, Vijayawada - APPCB",14-12-2025 08:00:00,16.536107,80.594233,PM2.5,60,75,66
India,Andhra_Pradesh,Vijayawada,"Kanuru, Vijayawada - APPCB",14-12-2025 08:00:00,16.486692,80.699436,SO2,NA,NA,NA
India,Bihar,Chhapra,"Darshan Nagar, Chhapra - BSPCB",14-12-2025 08:00:00,25.7808257,84.7446768,SO2,20,34,24
India,Bihar,Gaya,"Kareemganj, Gaya - BSPCB",14-12-2025 08:00:00,24.792403,84.992416,PM2.5,65,287,158
India,Bihar,Gaya,"Kareemganj, Gaya - BSPCB",14-12-2025 08:00:00,24.792403,84.992416,NO2,3,7,4
India,Assam,Nalbari,"Bata Chowk, Nalbari - PCBA",14-12-2025 08:00:00,26.446912,91.439057,NO2,14,15,14
India,Assam,Nalbari,"Bata Chowk, Nalbari - PCBA",14-12-2025 08:00:00,26.446912,91.439057,OZONE,14,16,15
India,Assam,Sivasagar,"Girls College, Sivasagar - PCBA",14-12-2025 08:00:00,26.987634,94.636574,OZONE,4,78,5
India,Arunachal_Pradesh,Naharlagun,"Naharlagun, Naharlagun - APSPCB",14-12-2025 08:00:00,27.103358,93.679645,PM10,38,500,166
India,Arunachal_Pradesh,Naharlagun,"Naharlagun, Naharlagun - APSPCB",14-12-2025 08:00:00,27.103358,93.679645,SO2,8,10,9
India,Chhattisgarh,Bilaspur,"Mangala, Bilaspur - NTPC",14-12-2025 08:00:00,22.08815,82.13737,NO2,19,71,35
India,Chhattisgarh,Chhal,"Nawapara SECL Colony, Chhal - CECB",14-12-2025 08:00:00,22.118125,83.140608,SO2,6,59,24
India,Chhattisgarh,Chhal,"Nawapara SECL Colony, Chhal - CECB",14-12-2025 08:00:00,22.118125,83.140608,OZONE,2,157,7
India,Chhattisgarh,Korba,"Rampur, Korba - CECB",14-12-2025 08:00:00,22.368195,82.746431,PM10,72,86,85
India,Chhattisgarh,Korba,"Rampur, Korba - CECB",14-12-2025 08:00:00,22.368195,82.746431,NO2,15,33,24
India,Chhattisgarh,Korba,"Rampur, Korba - CECB",14-12-2025 08:00:00,22.368195,82.746431,CO,24,34,31
India,Chhattisgarh,Korba,"Rampur, Korba - CECB",14-12-2025 08:00:00,22.368195,82.746431,OZONE,2,5,2
India,Chhattisgarh,Korba,"Urja Nagar, Korba - CECB",14-12-2025 08:00:00,22.348441,82.549611,PM10,92,93,92
India,Chhattisgarh,Korba,"Urja Nagar, Korba - CECB",14-12-2025 08:00:00,22.348441,82.549611,SO2,2,29,12
India,Chhattisgarh,Bhilai,"32Bungalows, Bhilai - CECB",14-12-2025 08:00:00,21.194815,81.314770,SO2,6,60,18
India,Chhattisgarh,Bhilai,"32Bungalows, Bhilai - CECB",14-12-2025 08:00:00,21.194815,81.314770,CO,20,104,63
India,Chhattisgarh,Bhilai,"32Bungalows, Bhilai - CECB",14-12-2025 08:00:00,21.194815,81.314770,OZONE,2,79,3
India,Chhattisgarh,Bhilai,"Civic Center, Bhilai - Bhilai Steel Plant",14-12-2025 08:00:00,21.185571,81.343175,NO2,21,22,22
India,Chhattisgarh,Bhilai,"Civic Center, Bhilai - Bhilai Steel Plant",14-12-2025 08:00:00,21.185571,81.343175,NH3,6,6,6
India,Chhattisgarh,Bhilai,"Hathkhoj, Bhilai - CECB",14-12-2025 08:00:00,21.224231,81.408350,SO2,14,91,43
India,Chhattisgarh,Bhilai,"Hathkhoj, Bhilai - CECB",14-12-2025 08:00:00,21.224231,81.408350,OZONE,2,15,4
India,Chhattisgarh,Bilaspur,"Mangala, Bilaspur - NTPC",14-12-2025 08:00:00,22.08815,82.13737,PM10,72,166,106
India,Bihar,Kishanganj,"SDM Office_Khagra, Kishanganj - BSPCB",14-12-2025 08:00:00,26.0881305,87.93840336,PM10,100,422,209
India,Bihar,Kishanganj,"SDM Office_Khagra, Kishanganj - BSPCB",14-12-2025 08:00:00,26.0881305,87.93840336,NO2,9,13,11
India,Bihar,Kishanganj,"SDM Office_Khagra, Kishanganj - BSPCB",14-12-2025 08:00:00,26.0881305,87.93840336,OZONE,16,19,16
India,Bihar,Manguraha,"Forest Rest House, Manguraha - BSPCB",14-12-2025 08:00:00,27.308328,84.531742,PM10,30,149,72
India,Bihar,Manguraha,"Forest Rest House, Manguraha - BSPCB",14-12-2025 08:00:00,27.308328,84.531742,OZONE,10,19,11
India,Bihar,Munger,"Town Hall, Munger - BSPCB",14-12-2025 08:00:00,25.376776,86.471523,PM2.5,35,308,129
India,Bihar,Munger,"Town Hall, Munger - BSPCB",14-12-2025 08:00:00,25.376776,86.471523,PM10,30,159,83
India,Bihar,Muzaffarpur,"Muzaffarpur Collectorate, Muzaffarpur - BSPCB",14-12-2025 08:00:00,26.1209,85.3647,OZONE,7,41,7
India,Bihar,Patna,"DRM Office Danapur, Patna - BSPCB",14-12-2025 08:00:00,25.586562,85.043586,SO2,9,24,14
India,Bihar,Patna,"DRM Office Danapur, Patna - BSPCB",14-12-2025 08:00:00,25.586562,85.043586,CO,28,139,56
India,Bihar,Patna,"IGSC Planetarium Complex, Patna - BSPCB",14-12-2025 08:00:00,25.610369,85.132568,PM2.5,47,326,174
India,Bihar,Rajgir,"Dangi Tola, Rajgir - BSPCB",14-12-2025 08:00:00,25.03280,85.41948,PM2.5,17,310,125
India,Bihar,Rajgir,"Dangi Tola, Rajgir - BSPCB",14-12-2025 08:00:00,25.03280,85.41948,CO,78,102,88
India,Bihar,Saharsa,"Police Line, Saharsa - BSPCB",14-12-2025 08:00:00,25.892357,86.590325,NO2,6,8,7
India,Bihar,Samastipur,"DM Office_Kasipur, Samastipur - BSPCB",14-12-2025 08:00:00,25.859655,85.77944,PM10,43,195,109
India,Bihar,Munger,"Town Hall, Munger - BSPCB",14-12-2025 08:00:00,25.376776,86.471523,CO,8,40,19
India,Bihar,Muzaffarpur,"Buddha Colony, Muzaffarpur - BSPCB",14-12-2025 08:00:00,26.11442,85.39813,PM10,31,119,93
India,Bihar,Muzaffarpur,"Buddha Colony, Muzaffarpur - BSPCB",14-12-2025 08:00:00,26.11442,85.39813,NH3,8,16,13
India,Bihar,Muzaffarpur,"MIT-Daudpur Kothi, Muzaffarpur - BSPCB",14-12-2025 08:00:00,26.1403345,85.3650192,OZONE,17,65,19
India,Bihar,Patna,"Rajbansi Nagar, Patna - BSPCB",14-12-2025 08:00:00,25.599486,85.113666,PM10,68,146,103
India,Bihar,Patna,"Samanpura, Patna - BSPCB",14-12-2025 08:00:00,25.596727,85.085624,CO,12,156,70
India,Bihar,Purnia,"Mariam Nagar, Purnia - BSPCB",14-12-2025 08:00:00,25.366336,87.117468,PM2.5,17,193,77
India,Bihar,Purnia,"Mariam Nagar, Purnia - BSPCB",14-12-2025 08:00:00,25.366336,87.117468,NO2,5,7,6
India,Bihar,Siwan,"Chitragupta Nagar, Siwan - BSPCB",14-12-2025 08:00:00,26.2271665,84.3570427,PM10,42,126,79
India,Chandigarh,Chandigarh,"Sector-25, Chandigarh - CPCC",14-12-2025 08:00:00,30.751462,76.762879,NH3,2,4,2
India,Chandigarh,Chandigarh,"Sector-53, Chandigarh - CPCC",14-12-2025 08:00:00,30.719859,76.738637,PM10,29,127,83
India,Chandigarh,Chandigarh,"Sector-53, Chandigarh - CPCC",14-12-2025 08:00:00,30.719859,76.738637,NH3,6,11,9
India,Chandigarh,Chandigarh,"Sector-53, Chandigarh - CPCC",14-12-2025 08:00:00,30.719859,76.738637,CO,12,121,39
India,Chhattisgarh,Kunjemura,"OP Jindal School, Kunjemura - CECB",14-12-2025 08:00:00,22.126650,83.483212,PM10,37,58,45
India,Chhattisgarh,Kunjemura,"OP Jindal School, Kunjemura - CECB",14-12-2025 08:00:00,22.126650,83.483212,CO,15,44,41
India,Chhattisgarh,Milupara,"Govt. Higher Secondary School, Milupara - CECB",14-12-2025 08:00:00,22.1910172,83.5197009,OZONE,NA,NA,NA
India,Chhattisgarh,Raipur,"AIIMS, Raipur - CECB",14-12-2025 08:00:00,21.258815,81.578979,CO,34,91,71
India,Chhattisgarh,Raipur,"Bhatagaon New ISBT, Raipur - CECB",14-12-2025 08:00:00,21.219665,81.630094,PM2.5,28,215,81
India,Chhattisgarh,Raipur,"Bhatagaon New ISBT, Raipur - CECB",14-12-2025 08:00:00,21.219665,81.630094,NO2,NA,NA,NA
India,Chhattisgarh,Raipur,"Bhatagaon New ISBT, Raipur - CECB",14-12-2025 08:00:00,21.219665,81.630094,SO2,7,28,9
India,Delhi,Delhi,"Anand Vihar, Delhi - DPCC",14-12-2025 08:00:00,28.647622,77.3158090,PM10,430,500,479
India,Delhi,Delhi,"Anand Vihar, Delhi - DPCC",14-12-2025 08:00:00,28.647622,77.3158090,SO2,8,22,16
India,Delhi,Delhi,"Ashok Vihar, Delhi - DPCC",14-12-2025 08:00:00,28.695381,77.181665,PM2.5,418,500,493
India,Delhi,Delhi,"Ashok Vihar, Delhi - DPCC",14-12-2025 08:00:00,28.695381,77.181665,NO2,54,254,112
India,Delhi,Delhi,"Ashok Vihar, Delhi - DPCC",14-12-2025 08:00:00,28.695381,77.181665,SO2,3,30,22
India,Delhi,Delhi,"Ashok Vihar, Delhi - DPCC",14-12-2025 08:00:00,28.695381,77.181665,OZONE,5,153,7
India,Delhi,Delhi,"Aya Nagar, Delhi - IMD",14-12-2025 08:00:00,28.4706914,77.1099364,CO,42,111,95
India,Delhi,Delhi,"Bawana, Delhi - DPCC",14-12-2025 08:00:00,28.776200,77.051074,NO2,24,139,72
India,Delhi,Delhi,"IIT Delhi, Delhi - IITM",14-12-2025 08:00:00,28.542460,77.191651,OZONE,7,68,10
India,Delhi,Delhi,"ITO, Delhi - CPCB",14-12-2025 08:00:00,28.628624,77.241060,NO2,75,302,180
India,Delhi,Delhi,"ITO, Delhi - CPCB",14-12-2025 08:00:00,28.628624,77.241060,NH3,3,8,6
India,Delhi,Delhi,"Jawaharlal Nehru Stadium, Delhi - DPCC",14-12-2025 08:00:00,28.580280,77.233829,OZONE,3,219,5
India,Delhi,Delhi,"Lodhi Road, Delhi - IITM",14-12-2025 08:00:00,28.588333,77.221667,SO2,8,27,19
India,Delhi,Delhi,"Lodhi Road, Delhi - IMD",14-12-2025 08:00:00,28.5918245,77.2273074,PM2.5,NA,NA,NA
India,Delhi,Delhi,"Mandir Marg, Delhi - DPCC",14-12-2025 08:00:00,28.636429,77.201067,PM10,194,488,385
India,Delhi,Delhi,"Mandir Marg, Delhi - DPCC",14-12-2025 08:00:00,28.636429,77.201067,NH3,8,13,11
India,Delhi,Delhi,"Mandir Marg, Delhi - DPCC",14-12-2025 08:00:00,28.636429,77.201067,SO2,51,67,59
India,Delhi,Delhi,"Mundka, Delhi - DPCC",14-12-2025 08:00:00,28.684678,77.076574,PM10,298,500,464
India,Delhi,Delhi,"Mundka, Delhi - DPCC",14-12-2025 08:00:00,28.684678,77.076574,NO2,61,217,123
India,Delhi,Delhi,"Mundka, Delhi - DPCC",14-12-2025 08:00:00,28.684678,77.076574,NH3,19,30,25
India,Delhi,Delhi,"NSIT Dwarka, Delhi - CPCB",14-12-2025 08:00:00,28.60909,77.0325413,PM10,348,452,409
India,Chhattisgarh,Raipur,"Krishak Nagar, Raipur - CECB",14-12-2025 08:00:00,21.237755,81.705301,PM10,57,127,83
India,Chhattisgarh,Raipur,"Krishak Nagar, Raipur - CECB",14-12-2025 08:00:00,21.237755,81.705301,SO2,6,9,7
India,Chhattisgarh,Raipur,"Krishak Nagar, Raipur - CECB",14-12-2025 08:00:00,21.237755,81.705301,CO,32,70,45
India,Chhattisgarh,Raipur,"Siltara Phase-II, Raipur - CECB",14-12-2025 08:00:00,21.371751,81.664929,PM2.5,1,306,170
India,Delhi,Delhi,"Alipur, Delhi - DPCC",14-12-2025 08:00:00,28.815329,77.153010,SO2,2,11,4
India,Delhi,Delhi,"Burari Crossing, Delhi - IMD",14-12-2025 08:00:00,28.7256504,77.2011573,OZONE,12,214,17
India,Delhi,Delhi,"CRRI Mathura Road, Delhi - IMD",14-12-2025 08:00:00,28.5512005,77.2735737,PM10,271,485,412
India,Delhi,Delhi,"DTU, Delhi - CPCB",14-12-2025 08:00:00,28.7500499,77.1112615,NH3,9,12,10
India,Delhi,Delhi,"DTU, Delhi - CPCB",14-12-2025 08:00:00,28.7500499,77.1112615,SO2,32,38,33
India,Delhi,Delhi,"DTU, Delhi - CPCB",14-12-2025 08:00:00,28.7500499,77.1112615,CO,102,129,122
India,Delhi,Delhi,"Dwarka-Sector 8, Delhi - DPCC ",14-12-2025 08:00:00,28.5710274,77.0719006,SO2,22,36,27
India,Delhi,Delhi,"IGI Airport (T3), Delhi - IMD",14-12-2025 08:00:00,28.5627763,77.1180053,PM2.5,329,434,392
India,Delhi,Delhi,"IHBAS, Dilshad Garden, Delhi - CPCB",14-12-2025 08:00:00,28.6811736,77.3025234,PM10,371,499,414
India,Delhi,Delhi,"Narela, Delhi - DPCC",14-12-2025 08:00:00,28.822836,77.101981,NO2,33,91,56
India,Delhi,Delhi,"Narela, Delhi - DPCC",14-12-2025 08:00:00,28.822836,77.101981,CO,51,106,80
India,Delhi,Delhi,"Dr. Karni Singh Shooting Range, Delhi - DPCC",14-12-2025 08:00:00,28.498571,77.264840,NH3,14,19,17
India,Haryana,Dharuhera,"Municipal Corporation Office, Dharuhera -  HSPCB",14-12-2025 08:00:00,28.206800,76.799700,PM10,160,473,367
India,Haryana,Faridabad,"New Industrial Town, Faridabad - HSPCB",14-12-2025 08:00:00,28.39072,77.30059,PM2.5,177,189,183
India,Haryana,Faridabad,"New Industrial Town, Faridabad - HSPCB",14-12-2025 08:00:00,28.39072,77.30059,PM10,157,163,160
India,Haryana,Faridabad,"Sector 11, Faridabad - HSPCB",14-12-2025 08:00:00,28.376058,77.315741,PM2.5,324,408,369
India,Haryana,Faridabad,"Sector 11, Faridabad - HSPCB",14-12-2025 08:00:00,28.376058,77.315741,PM10,201,403,304
India,Haryana,Faridabad,"Sector 11, Faridabad - HSPCB",14-12-2025 08:00:00,28.376058,77.315741,SO2,5,7,6
India,Haryana,Faridabad,"Sector 30, Faridabad - HSPCB",14-12-2025 08:00:00,28.4417,77.3217,PM10,93,128,108
India,Gujarat,Gandhinagar,"Sector-10, Gandhinagar - GPCB",14-12-2025 08:00:00,23.221714,72.654328,OZONE,4,67,10
India,Gujarat,Surat,"Science Center, Surat - SMC",14-12-2025 08:00:00,21.170046,72.795405,PM10,36,113,75
India,Gujarat,Vapi,"Phase-1 GIDC, Vapi - GPCB",14-12-2025 08:00:00,20.362421,72.918013,SO2,14,17,16
India,Gujarat,Vatva,"Phase-4 GIDC, Vatva - GPCB",14-12-2025 08:00:00,22.969611,72.643500,OZONE,13,45,13
India,Haryana,Ambala,"Patti Mehar, Ambala - HSPCB",14-12-2025 08:00:00,30.379589,76.778328,PM2.5,68,207,106
India,Delhi,Delhi,"Vivek Vihar, Delhi - DPCC",14-12-2025 08:00:00,28.672342,77.315260,OZONE,3,94,4
India,Delhi,Delhi,"Wazirpur, Delhi - DPCC",14-12-2025 08:00:00,28.699793,77.165453,NO2,47,191,99
India,Gujarat,Ahmedabad,"Chandkheda, Ahmedabad - IITM",14-12-2025 08:00:00,23.107969,72.574648,PM2.5,49,194,105
India,Gujarat,Ahmedabad,"Chandkheda, Ahmedabad - IITM",14-12-2025 08:00:00,23.107969,72.574648,CO,10,116,49
India,Gujarat,Ahmedabad,"Maninagar, Ahmedabad - GPCB",14-12-2025 08:00:00,23.002657,72.591912,PM2.5,34,145,81
India,Delhi,Delhi,"Okhla Phase-2, Delhi - DPCC",14-12-2025 08:00:00,28.530785,77.271255,NO2,120,294,176
India,Delhi,Delhi,"Patparganj, Delhi - DPCC",14-12-2025 08:00:00,28.623763,77.287209,PM2.5,411,500,483
India,Delhi,Delhi,"Patparganj, Delhi - DPCC",14-12-2025 08:00:00,28.623763,77.287209,SO2,5,13,9
India,Delhi,Delhi,"Punjabi Bagh, Delhi - DPCC",14-12-2025 08:00:00,28.674045,77.131023,CO,24,110,63
India,Delhi,Delhi,"Pusa, Delhi - DPCC",14-12-2025 08:00:00,28.639652,77.146275,NO2,61,318,117
India,Delhi,Delhi,"Rohini, Delhi - DPCC",14-12-2025 08:00:00,28.732528,77.119920,NO2,20,203,90
India,Delhi,Delhi,"Rohini, Delhi - DPCC",14-12-2025 08:00:00,28.732528,77.119920,SO2,5,17,11
India,Delhi,Delhi,"Shadipur, Delhi - CPCB",14-12-2025 08:00:00,28.6514781,77.1473105,PM2.5,302,381,343
India,Delhi,Delhi,"Shadipur, Delhi - CPCB",14-12-2025 08:00:00,28.6514781,77.1473105,NH3,12,19,15
India,Gujarat,Ankleshwar,"GIDC, Ankleshwar - GPCB",14-12-2025 08:00:00,21.613267,73.010555,PM2.5,51,207,118
India,Gujarat,Ankleshwar,"GIDC, Ankleshwar - GPCB",14-12-2025 08:00:00,21.613267,73.010555,CO,22,88,66
India,Gujarat,Gandhinagar,"IIPHG Lekawada, Gandhinagar - IITM",14-12-2025 08:00:00,23.243639,72.68994,NH3,2,3,2
India,Delhi,Delhi,"Sonia Vihar, Delhi - DPCC",14-12-2025 08:00:00,28.710508,77.249485,NH3,8,14,11
India,Delhi,Delhi,"Sonia Vihar, Delhi - DPCC",14-12-2025 08:00:00,28.710508,77.249485,CO,111,192,148
India,Delhi,Delhi,"Sri Aurobindo Marg, Delhi - DPCC",14-12-2025 08:00:00,28.531346,77.190156,SO2,4,15,10
India,Gujarat,Ahmedabad,"SAC ISRO Bopal, Ahmedabad - IITM",14-12-2025 08:00:00,23.041137,72.456691,OZONE,1,56,2
India,Haryana,Ambala,"Patti Mehar, Ambala - HSPCB",14-12-2025 08:00:00,30.379589,76.778328,OZONE,48,51,50
India,Jharkhand,Jorapokhar,"Tata Stadium, Jorapokhar - JSPCB",14-12-2025 08:00:00,23.707909,86.414670,SO2,NA,NA,NA
India,Jharkhand,Jorapokhar,"Tata Stadium, Jorapokhar - JSPCB",14-12-2025 08:00:00,23.707909,86.414670,OZONE,NA,NA,NA
India,Karnataka,Bengaluru,"BTM Layout, Bengaluru - CPCB",14-12-2025 08:00:00,12.9135218,77.5950804,PM2.5,70,110,91
India,Karnataka,Bengaluru,"BTM Layout, Bengaluru - CPCB",14-12-2025 08:00:00,12.9135218,77.5950804,CO,42,49,44
India,Karnataka,Bengaluru,"BTM Layout, Bengaluru - CPCB",14-12-2025 08:00:00,12.9135218,77.5950804,OZONE,21,22,21
India,Karnataka,Bengaluru,"BWSSB Kadabesanahalli, Bengaluru - CPCB",14-12-2025 08:00:00,12.9352049,77.6814488,NO2,12,38,22
India,Karnataka,Bengaluru,"BWSSB Kadabesanahalli, Bengaluru - CPCB",14-12-2025 08:00:00,12.9352049,77.6814488,NH3,1,1,1
India,Karnataka,Bengaluru,"BWSSB Kadabesanahalli, Bengaluru - CPCB",14-12-2025 08:00:00,12.9352049,77.6814488,CO,9,50,15
India,Karnataka,Bengaluru,"Hebbal, Bengaluru - KSPCB",14-12-2025 08:00:00,13.029152,77.585901,PM2.5,22,192,87
India,Haryana,Gurugram,"Teri Gram, Gurugram - HSPCB",14-12-2025 08:00:00,28.4275,77.1465,CO,46,101,76
India,Haryana,Gurugram,"Vikas Sadan, Gurugram - HSPCB",14-12-2025 08:00:00,28.4501238,77.0263051,PM2.5,282,308,293
India,Haryana,Gurugram,"Vikas Sadan, Gurugram - HSPCB",14-12-2025 08:00:00,28.4501238,77.0263051,PM10,143,158,147
India,Haryana,Hisar,"Urban Estate-II, Hisar - HSPCB",14-12-2025 08:00:00,29.140560,75.744941,PM2.5,NA,NA,NA
India,Haryana,Hisar,"Urban Estate-II, Hisar - HSPCB",14-12-2025 08:00:00,29.140560,75.744941,NH3,NA,NA,NA
India,Haryana,Hisar,"Urban Estate-II, Hisar - HSPCB",14-12-2025 08:00:00,29.140560,75.744941,OZONE,NA,NA,NA
India,Haryana,Jind,"Police Lines, Jind - HSPCB",14-12-2025 08:00:00,29.307814,76.337619,PM2.5,302,390,361
India,Haryana,Jind,"Police Lines, Jind - HSPCB",14-12-2025 08:00:00,29.307814,76.337619,CO,4,140,18
India,Haryana,Yamuna Nagar,"Gobind Pura, Yamuna Nagar - HSPCB",14-12-2025 08:00:00,30.1480566,77.2893471,NO2,12,21,18
India,Himachal Pradesh,Baddi,"HIMUDA Complex Phase-1, Baddi - HPPCB",14-12-2025 08:00:00,30.943887,76.801991,NO2,14,64,33
India,Himachal Pradesh,Baddi,"HIMUDA Complex Phase-1, Baddi - HPPCB",14-12-2025 08:00:00,30.943887,76.801991,CO,48,108,61
India,Jammu_and_Kashmir,Srinagar,"Rajbagh, Srinagar - JKSPCB",14-12-2025 08:00:00,34.066206,74.819820,PM2.5,NA,NA,NA
India,Jammu_and_Kashmir,Srinagar,"Rajbagh, Srinagar - JKSPCB",14-12-2025 08:00:00,34.066206,74.819820,PM10,NA,NA,NA
India,Jammu_and_Kashmir,Srinagar,"Rajbagh, Srinagar - JKSPCB",14-12-2025 08:00:00,34.066206,74.819820,CO,14,28,24
India,Karnataka,Bengaluru,"Hombegowda Nagar, Bengaluru - KSPCB",14-12-2025 08:00:00,12.938539,77.590100,CO,12,62,20
India,Karnataka,Bengaluru,"Jayanagar 5th Block, Bengaluru - KSPCB",14-12-2025 08:00:00,12.920984,77.584908,SO2,1,55,16
India,Karnataka,Bengaluru,"Jigani, Bengaluru - KSPCB",14-12-2025 08:00:00,12.7816279,77.6299145,NH3,4,4,4
India,Karnataka,Bengaluru,"Peenya, Bengaluru - CPCB",14-12-2025 08:00:00,13.0270199,77.494094,NO2,20,26,24
India,Karnataka,Bengaluru,"Peenya, Bengaluru - CPCB",14-12-2025 08:00:00,13.0270199,77.494094,OZONE,20,21,20
India,Haryana,Panipat,"Sector-18, Panipat - HSPCB",14-12-2025 08:00:00,29.432304,76.972765,PM2.5,140,275,224
India,Haryana,Panipat,"Sector-18, Panipat - HSPCB",14-12-2025 08:00:00,29.432304,76.972765,NO2,31,32,31
India,Haryana,Rohtak,"MD University, Rohtak - HSPCB",14-12-2025 08:00:00,28.52123,76.37138,PM2.5,176,434,316
India,Haryana,Sirsa,"F-Block, Sirsa - HSPCB",14-12-2025 08:00:00,29.536400,75.015800,PM2.5,42,82,62
India,Haryana,Sirsa,"F-Block, Sirsa - HSPCB",14-12-2025 08:00:00,29.536400,75.015800,SO2,10,15,13
India,Haryana,Fatehabad,"Huda Sector, Fatehabad - HSPCB",14-12-2025 08:00:00,29.503664,75.467934,NO2,18,20,19
India,Haryana,Fatehabad,"Huda Sector, Fatehabad - HSPCB",14-12-2025 08:00:00,29.503664,75.467934,OZONE,15,18,15
India,Haryana,Gurugram,"NISE Gwal Pahari, Gurugram - IMD",14-12-2025 08:00:00,28.422681,77.148944,NO2,16,39,29
India,Haryana,Gurugram,"Sector-51, Gurugram - HSPCB",14-12-2025 08:00:00,28.4227,77.0667,OZONE,10,17,11
India,Haryana,Kurukshetra,"Sector-7, Kurukshetra - HSPCB",14-12-2025 08:00:00,29.966942,76.875879,NH3,5,5,5
India,Haryana,Mandikhera,"General Hospital, Mandikhera(Nuh) - HSPCB",14-12-2025 08:00:00,27.9002,76.9938,NH3,13,14,13
India,Haryana,Manesar,"Sector-2 IMT, Manesar - HSPCB",14-12-2025 08:00:00,28.360699,76.936090,PM2.5,183,445,363
India,Haryana,Palwal,"Shyam Nagar, Palwal - HSPCB",14-12-2025 08:00:00,28.1485564,77.3320667,NH3,8,9,9
India,Haryana,Panchgaon,"Amity University, Panchgaon - IITM",14-12-2025 08:00:00,28.3153,76.9143,NO2,NA,NA,NA
India,Haryana,Panchkula,"Sector-6, Panchkula - HSPCB ",14-12-2025 08:00:00,30.7057778,76.8531805555555,NO2,24,26,25
India,Karnataka,Bengaluru,"RVCE-Mailasandra, Bengaluru - KSPCB",14-12-2025 08:00:00,12.921418,77.502466,SO2,5,6,6
India,Madhya Pradesh,Mandideep,"Sector-D Industrial Area, Mandideep - MPPCB",14-12-2025 08:00:00,23.108440,77.511428,NO2,75,283,176
India,Madhya Pradesh,Pithampur,"Sector-2 Industrial Area, Pithampur - MPPCB",14-12-2025 08:00:00,22.624758,75.675238,PM2.5,48,306,120
India,Madhya Pradesh,Pithampur,"Sector-2 Industrial Area, Pithampur - MPPCB",14-12-2025 08:00:00,22.624758,75.675238,NO2,25,35,30
India,Madhya Pradesh,Pithampur,"Sector-2 Industrial Area, Pithampur - MPPCB",14-12-2025 08:00:00,22.624758,75.675238,CO,21,55,29
India,Madhya Pradesh,Sagar,"Civil Lines, Sagar - MPPCB",14-12-2025 08:00:00,23.838586,78.759431,PM10,53,161,93
India,Madhya Pradesh,Sagar,"Civil Lines, Sagar - MPPCB",14-12-2025 08:00:00,23.838586,78.759431,NO2,9,49,20
India,Madhya Pradesh,Sagar,"Civil Lines, Sagar - MPPCB",14-12-2025 08:00:00,23.838586,78.759431,OZONE,39,78,60
India,Karnataka,Madikeri,"Stuart Hill, Madikeri - KSPCB",14-12-2025 08:00:00,12.415911,75.735050,OZONE,4,6,4
India,Karnataka,Mysuru,"Hebbal 1st Stage, Mysuru - KSPCB",14-12-2025 08:00:00,12.21041,76.37376,PM10,66,147,95
India,Karnataka,Shivamogga,"Vinoba Nagara, Shivamogga - KSPCB",14-12-2025 08:00:00,13.940000,75.555917,OZONE,7,70,16
India,Karnataka,Yadgir,"Collector Office, Yadgir - KSPCB",14-12-2025 08:00:00,16.7602,77.1428,PM2.5,55,108,75
India,Karnataka,Yadgir,"Collector Office, Yadgir - KSPCB",14-12-2025 08:00:00,16.7602,77.1428,PM10,50,121,84
India,Karnataka,Yadgir,"Collector Office, Yadgir - KSPCB",14-12-2025 08:00:00,16.7602,77.1428,NO2,5,20,10
India,Madhya Pradesh,Jabalpur,"Marhatal, Jabalpur - MPPCB",14-12-2025 08:00:00,23.168606,79.932247,NO2,14,74,30
India,Madhya Pradesh,Jabalpur,"Marhatal, Jabalpur - MPPCB",14-12-2025 08:00:00,23.168606,79.932247,OZONE,8,138,27
India,Madhya Pradesh,Jabalpur,"Suhagi, Jabalpur - JMC",14-12-2025 08:00:00,23.218135,79.957770,CO,9,110,36
India,Madhya Pradesh,Katni,"Gole Bazar, Katni - MPPCB",14-12-2025 08:00:00,23.50016,80.23284,PM10,55,335,141
India,Madhya Pradesh,Maihar,"Sahilara, Maihar - KJS Cements",14-12-2025 08:00:00,24.2613009,80.7231783,PM2.5,12,81,43
India,Madhya Pradesh,Gwalior,"Deen Dayal Nagar, Gwalior - MPPCB",14-12-2025 08:00:00,26.259242,78.216432,NH3,8,14,11
India,Madhya Pradesh,Gwalior,"Deen Dayal Nagar, Gwalior - MPPCB",14-12-2025 08:00:00,26.259242,78.216432,CO,16,100,68
India,Madhya Pradesh,Gwalior,"Maharaj Bada, Gwalior - MPPCB",14-12-2025 08:00:00,26.200388,78.147714,NO2,30,144,71
India,Madhya Pradesh,Gwalior,"Maharaj Bada, Gwalior - MPPCB",14-12-2025 08:00:00,26.200388,78.147714,NH3,6,6,6
India,Madhya Pradesh,Indore,"Airport Area, Indore - IMC",14-12-2025 08:00:00,22.7289,75.8076,NO2,2,3,2
India,Madhya Pradesh,Indore,"Airport Area, Indore - IMC",14-12-2025 08:00:00,22.7289,75.8076,SO2,26,26,26
India,Madhya Pradesh,Indore,"Chhoti Gwaltoli, Indore - MPPCB",14-12-2025 08:00:00,22.4310,75.5213,CO,37,108,49
India,Madhya Pradesh,Indore,"Regional Park, Indore - IMC",14-12-2025 08:00:00,22.6780,75.8559,CO,24,46,33
India,Madhya Pradesh,Indore,"Regional Park, Indore - IMC",14-12-2025 08:00:00,22.6780,75.8559,OZONE,7,14,11
India,Madhya Pradesh,Jabalpur,"Govindh Bhavan Colony, Jabalpur - JMC",14-12-2025 08:00:00,23.163174,79.973061,SO2,11,15,14
India,Madhya Pradesh,Jabalpur,"Gupteshwar, Jabalpur - JMC",14-12-2025 08:00:00,23.142888,79.916147,SO2,6,9,8
