country,state,city,station,last_update,latitude,longitude,pollutant_id,min_value,max_value,avg_value
India,Assam,Sivasagar,"Girls College, Sivasagar - PCBA",28-09-2025 07:00:00,26.987634,94.636574,PM10,17,45,27
India,Assam,Sivasagar,"Girls College, Sivasagar - PCBA",28-09-2025 07:00:00,26.987634,94.636574,NO2,12,27,19
India,Bihar,Araria,"Kharahiya Basti, Araria - BSPCB",28-09-2025 07:00:00,26.146529,87.454184,CO,20,42,33
India,Bihar,Aurangabad,"Gurdeo Nagar, Aurangabad - BSPCB",28-09-2025 07:00:00,24.75746,84.366208,PM2.5,NA,NA,NA
India,Bihar,Aurangabad,"Gurdeo Nagar, Aurangabad - BSPCB",28-09-2025 07:00:00,24.75746,84.366208,NH3,1,2,1
India,Bihar,Aurangabad,"Gurdeo Nagar, Aurangabad - BSPCB",28-09-2025 07:00:00,24.75746,84.366208,CO,1,33,22
India,Andhra_Pradesh,Kadapa,"Yerramukkapalli, Kadapa - APPCB",28-09-2025 07:00:00,14.465052,78.824187,NH3,5,5,5
India,Andhra_Pradesh,Kadapa,"Yerramukkapalli, Kadapa - APPCB",28-09-2025 07:00:00,14.465052,78.824187,SO2,18,21,20
India,Andhra_Pradesh,Rajamahendravaram,"Anand Kala Kshetram, Rajamahendravaram - APPCB",28-09-2025 07:00:00,16.9872867,81.7363176,PM2.5,8,35,18
India,Andhra_Pradesh,Rajamahendravaram,"Anand Kala Kshetram, Rajamahendravaram - APPCB",28-09-2025 07:00:00,16.9872867,81.7363176,PM10,11,48,28
India,Andhra_Pradesh,Rajamahendravaram,"Anand Kala Kshetram, Rajamahendravaram - APPCB",28-09-2025 07:00:00,16.9872867,81.7363176,SO2,7,7,7
India,Andhra_Pradesh,Tirupati,"Vaikuntapuram, Tirupati - APPCB",28-09-2025 07:00:00,13.615387,79.409230,SO2,21,56,46
India,Andhra_Pradesh,Vijayawada,"HB Colony, Vijayawada - APPCB",28-09-2025 07:00:00,16.536107,80.594233,CO,NA,NA,NA
India,Andhra_Pradesh,Visakhapatnam,"GVM Corporation, Visakhapatnam - APPCB",28-09-2025 07:00:00,17.72,83.3,PM10,48,145,88
India,Assam,Nagaon,"Christianpatty, Nagaon - PCBA",28-09-2025 07:00:00,26.349082,92.68449,SO2,6,15,12
India,Assam,Nagaon,"Christianpatty, Nagaon - PCBA",28-09-2025 07:00:00,26.349082,92.68449,CO,2,60,28
India,Assam,Silchar,"Tarapur, Silchar - PCBA",28-09-2025 07:00:00,24.82827,92.79525,NO2,15,20,17
India,Assam,Guwahati,"IITG, Guwahati - PCBA",28-09-2025 07:00:00,26.2028636,91.70046436,OZONE,NA,NA,NA
India,Assam,Guwahati,"Pan Bazaar, Guwahati - PCBA",28-09-2025 07:00:00,26.187500,91.744194,SO2,34,60,45
India,Assam,Guwahati,"Pan Bazaar, Guwahati - PCBA",28-09-2025 07:00:00,26.187500,91.744194,CO,16,36,26
India,Andhra_Pradesh,Chittoor,"Gangineni Cheruvu, Chittoor - APPCB",28-09-2025 07:00:00,13.204880,79.097889,PM2.5,NA,NA,NA
India,Andhra_Pradesh,Chittoor,"Gangineni Cheruvu, Chittoor - APPCB",28-09-2025 07:00:00,13.204880,79.097889,OZONE,41,58,49
India,Arunachal_Pradesh,Naharlagun,"Naharlagun, Naharlagun - APSPCB",28-09-2025 07:00:00,27.103358,93.679645,PM10,14,52,31
India,Arunachal_Pradesh,Naharlagun,"Naharlagun, Naharlagun - APSPCB",28-09-2025 07:00:00,27.103358,93.679645,NO2,5,6,6
India,Assam,Guwahati,"Railway Colony, Guwahati - PCBA",28-09-2025 07:00:00,26.181742,91.78063,PM2.5,18,96,51
India,Assam,Guwahati,"IITG, Guwahati - PCBA",28-09-2025 07:00:00,26.2028636,91.70046436,NH3,5,5,5
India,Bihar,Begusarai,"Lohiyanagar, Begusarai - BSPCB",28-09-2025 07:00:00,25.42742023,86.13886079,CO,35,74,57
India,Bihar,Bettiah,"Kamalnath Nagar, Bettiah - BSPCB",28-09-2025 07:00:00,26.80365,84.51954,PM2.5,NA,NA,NA
India,Bihar,Bettiah,"Kamalnath Nagar, Bettiah - BSPCB",28-09-2025 07:00:00,26.80365,84.51954,NO2,6,13,8
India,Bihar,Bhagalpur,"DM Office_Kachari Chowk, Bhagalpur - BSPCB",28-09-2025 07:00:00,25.251013,86.989001,CO,12,18,14
India,Bihar,Bhagalpur,"DM Office_Kachari Chowk, Bhagalpur - BSPCB",28-09-2025 07:00:00,25.251013,86.989001,OZONE,10,29,16
India,Bihar,Bhagalpur,"Mayaganj, Bhagalpur - BSPCB",28-09-2025 07:00:00,25.265194,87.012947,CO,38,50,48
India,Bihar,Bihar Sharif,"D M Colony, Bihar Sharif - BSPCB",28-09-2025 07:00:00,25.204762,85.514960,NO2,8,10,9
India,Bihar,Bihar Sharif,"D M Colony, Bihar Sharif - BSPCB",28-09-2025 07:00:00,25.204762,85.514960,OZONE,17,56,32
India,Bihar,Buxar,"Charitra Van, Buxar - BSPCB",28-09-2025 07:00:00,25.567520,83.966379,NO2,9,10,10
India,Bihar,Muzaffarpur,"Buddha Colony, Muzaffarpur - BSPCB",28-09-2025 07:00:00,26.11442,85.39813,OZONE,18,53,26
India,Bihar,Muzaffarpur,"MIT-Daudpur Kothi, Muzaffarpur - BSPCB",28-09-2025 07:00:00,26.1403345,85.3650192,PM2.5,30,45,41
India,Bihar,Muzaffarpur,"MIT-Daudpur Kothi, Muzaffarpur - BSPCB",28-09-2025 07:00:00,26.1403345,85.3650192,PM10,39,48,43
India,Bihar,Muzaffarpur,"MIT-Daudpur Kothi, Muzaffarpur - BSPCB",28-09-2025 07:00:00,26.1403345,85.3650192,CO,14,17,15
India,Bihar,Muzaffarpur,"Muzaffarpur Collectorate, Muzaffarpur - BSPCB",28-09-2025 07:00:00,26.1209,85.3647,PM2.5,40,63,47
India,Bihar,Patna,"Govt. High School Shikarpur, Patna - BSPCB",28-09-2025 07:00:00,25.592539,85.227158,PM2.5,22,36,29
India,Bihar,Patna,"Govt. High School Shikarpur, Patna - BSPCB",28-09-2025 07:00:00,25.592539,85.227158,OZONE,7,12,10
India,Bihar,Patna,"IGSC Planetarium Complex, Patna - BSPCB",28-09-2025 07:00:00,25.610369,85.132568,PM2.5,7,62,41
India,Bihar,Buxar,"Charitra Van, Buxar - BSPCB",28-09-2025 07:00:00,25.567520,83.966379,NH3,3,3,3
India,Bihar,Chhapra,"Darshan Nagar, Chhapra - BSPCB",28-09-2025 07:00:00,25.7808257,84.7446768,PM10,37,167,90
India,Bihar,Chhapra,"Darshan Nagar, Chhapra - BSPCB",28-09-2025 07:00:00,25.7808257,84.7446768,NO2,1,1,1
India,Bihar,Chhapra,"Darshan Nagar, Chhapra - BSPCB",28-09-2025 07:00:00,25.7808257,84.7446768,CO,4,7,5
India,Bihar,Gaya,"Collectorate, Gaya - BSPCB",28-09-2025 07:00:00,24.7955,84.9994,CO,18,52,47
India,Bihar,Hajipur,"Industrial Area, Hajipur - BSPCB",28-09-2025 07:00:00,25.697189,85.245900,OZONE,12,72,21
India,Bihar,Katihar,"Mirchaibari, Katihar - BSPCB",28-09-2025 07:00:00,25.560083,87.553265,NH3,1,1,1
India,Bihar,Kishanganj,"SDM Office_Khagra, Kishanganj - BSPCB",28-09-2025 07:00:00,26.0881305,87.93840336,OZONE,14,18,17
India,Bihar,Manguraha,"Forest Rest House, Manguraha - BSPCB",28-09-2025 07:00:00,27.308328,84.531742,NH3,1,1,1
India,Bihar,Manguraha,"Forest Rest House, Manguraha - BSPCB",28-09-2025 07:00:00,27.308328,84.531742,CO,32,34,33
India,Bihar,Patna,"Rajbansi Nagar, Patna - BSPCB",28-09-2025 07:00:00,25.599486,85.113666,NO2,22,26,24
India,Bihar,Patna,"Rajbansi Nagar, Patna - BSPCB",28-09-2025 07:00:00,25.599486,85.113666,NH3,1,2,2
India,Bihar,Purnia,"Mariam Nagar, Purnia - BSPCB",28-09-2025 07:00:00,25.366336,87.117468,NH3,3,3,3
India,Bihar,Purnia,"Mariam Nagar, Purnia - BSPCB",28-09-2025 07:00:00,25.366336,87.117468,SO2,2,36,10
India,Bihar,Patna,"IGSC Planetarium Complex, Patna - BSPCB",28-09-2025 07:00:00,25.610369,85.132568,OZONE,46,48,46
India,Bihar,Patna,"Muradpur, Patna - BSPCB",28-09-2025 07:00:00,25.619651,85.147382,NH3,4,11,6
India,Bihar,Motihari,"Gandak Colony, Motihari - BSPCB",28-09-2025 07:00:00,26.63086,84.90051,PM2.5,8,43,25
India,Bihar,Motihari,"Gandak Colony, Motihari - BSPCB",28-09-2025 07:00:00,26.63086,84.90051,SO2,2,3,3
India,Bihar,Motihari,"Gandak Colony, Motihari - BSPCB",28-09-2025 07:00:00,26.63086,84.90051,OZONE,2,2,2
India,Bihar,Katihar,"Mirchaibari, Katihar - BSPCB",28-09-2025 07:00:00,25.560083,87.553265,SO2,16,26,21
India,Bihar,Katihar,"Mirchaibari, Katihar - BSPCB",28-09-2025 07:00:00,25.560083,87.553265,CO,66,101,81
India,Bihar,Rajgir,"Dangi Tola, Rajgir - BSPCB",28-09-2025 07:00:00,25.03280,85.41948,SO2,18,24,20
India,Bihar,Rajgir,"Dangi Tola, Rajgir - BSPCB",28-09-2025 07:00:00,25.03280,85.41948,OZONE,21,36,32
India,Chandigarh,Chandigarh,"Sector-25, Chandigarh - CPCC",28-09-2025 07:00:00,30.751462,76.762879,NH3,5,7,6
India,Chandigarh,Chandigarh,"Sector-25, Chandigarh - CPCC",28-09-2025 07:00:00,30.751462,76.762879,SO2,1,4,1
India,Chandigarh,Chandigarh,"Sector-25, Chandigarh - CPCC",28-09-2025 07:00:00,30.751462,76.762879,OZONE,8,48,14
India,Chandigarh,Chandigarh,"Sector-53, Chandigarh - CPCC",28-09-2025 07:00:00,30.719859,76.738637,SO2,NA,NA,NA
India,Chhattisgarh,Bhilai,"32Bungalows, Bhilai - CECB",28-09-2025 07:00:00,21.194815,81.314770,NH3,5,6,5
India,Chhattisgarh,Bhilai,"Civic Center, Bhilai - Bhilai Steel Plant",28-09-2025 07:00:00,21.185571,81.343175,PM2.5,16,57,32
India,Chhattisgarh,Bhilai,"Civic Center, Bhilai - Bhilai Steel Plant",28-09-2025 07:00:00,21.185571,81.343175,NH3,3,3,3
India,Chhattisgarh,Korba,"Rampur, Korba - CECB",28-09-2025 07:00:00,22.368195,82.746431,SO2,7,13,9
India,Chhattisgarh,Korba,"Rampur, Korba - CECB",28-09-2025 07:00:00,22.368195,82.746431,CO,10,12,11
India,Chhattisgarh,Korba,"Urja Nagar, Korba - CECB",28-09-2025 07:00:00,22.348441,82.549611,PM2.5,16,22,17
India,Chhattisgarh,Korba,"Urja Nagar, Korba - CECB",28-09-2025 07:00:00,22.348441,82.549611,SO2,3,11,7
India,Chhattisgarh,Kunjemura,"OP Jindal School, Kunjemura - CECB",28-09-2025 07:00:00,22.126650,83.483212,NO2,2,3,3
India,Chhattisgarh,Milupara,"Govt. Higher Secondary School, Milupara - CECB",28-09-2025 07:00:00,22.1910172,83.5197009,CO,12,24,13
India,Chhattisgarh,Bhilai,"Civic Center, Bhilai - Bhilai Steel Plant",28-09-2025 07:00:00,21.185571,81.343175,CO,36,38,38
India,Chhattisgarh,Bhilai,"Hathkhoj, Bhilai - CECB",28-09-2025 07:00:00,21.224231,81.408350,PM10,4,46,21
India,Chhattisgarh,Bhilai,"Hathkhoj, Bhilai - CECB",28-09-2025 07:00:00,21.224231,81.408350,SO2,6,9,7
India,Bihar,Sasaram,"Dada Peer, Sasaram - BSPCB",28-09-2025 07:00:00,24.952822,84.002396,PM10,27,105,43
India,Bihar,Sasaram,"Dada Peer, Sasaram - BSPCB",28-09-2025 07:00:00,24.952822,84.002396,SO2,1,5,3
India,Bihar,Sasaram,"Dada Peer, Sasaram - BSPCB",28-09-2025 07:00:00,24.952822,84.002396,CO,34,64,50
India,Bihar,Saharsa,"Police Line, Saharsa - BSPCB",28-09-2025 07:00:00,25.892357,86.590325,CO,39,44,41
India,Bihar,Saharsa,"Police Line, Saharsa - BSPCB",28-09-2025 07:00:00,25.892357,86.590325,OZONE,7,43,21
India,Chhattisgarh,Raipur,"AIIMS, Raipur - CECB",28-09-2025 07:00:00,21.258815,81.578979,PM10,5,50,25
India,Chhattisgarh,Raipur,"AIIMS, Raipur - CECB",28-09-2025 07:00:00,21.258815,81.578979,SO2,10,13,11
India,Bihar,Samastipur,"DM Office_Kasipur, Samastipur - BSPCB",28-09-2025 07:00:00,25.859655,85.77944,NO2,3,7,5
India,Chandigarh,Chandigarh,"Sector 22, Chandigarh - CPCC",28-09-2025 07:00:00,30.735567,76.775714,NH3,32,60,46
India,Chhattisgarh,Bilaspur,"Mangala, Bilaspur - NTPC",28-09-2025 07:00:00,22.08815,82.13737,PM10,NA,NA,NA
India,Delhi,Delhi,"Jawaharlal Nehru Stadium, Delhi - DPCC",28-09-2025 07:00:00,28.580280,77.233829,NO2,44,110,70
India,Delhi,Delhi,"Lodhi Road, Delhi - IITM",28-09-2025 07:00:00,28.588333,77.221667,PM2.5,49,140,84
India,Delhi,Delhi,"Lodhi Road, Delhi - IMD",28-09-2025 07:00:00,28.5918245,77.2273074,PM2.5,24,232,120
India,Delhi,Delhi,"Lodhi Road, Delhi - IMD",28-09-2025 07:00:00,28.5918245,77.2273074,OZONE,1,25,11
India,Delhi,Delhi,"Major Dhyan Chand National Stadium, Delhi - DPCC",28-09-2025 07:00:00,28.611281,77.237738,CO,12,84,39
India,Delhi,Delhi,"Mandir Marg, Delhi - DPCC",28-09-2025 07:00:00,28.636429,77.201067,NH3,7,10,8
India,Chhattisgarh,Raipur,"Bhatagaon New ISBT, Raipur - CECB",28-09-2025 07:00:00,21.219665,81.630094,OZONE,7,20,10
India,Chhattisgarh,Raipur,"Krishak Nagar, Raipur - CECB",28-09-2025 07:00:00,21.237755,81.705301,OZONE,2,5,2
India,Chhattisgarh,Raipur,"Siltara Phase-II, Raipur - CECB",28-09-2025 07:00:00,21.371751,81.664929,PM10,2,99,26
India,Chhattisgarh,Raipur,"Siltara Phase-II, Raipur - CECB",28-09-2025 07:00:00,21.371751,81.664929,NH3,3,3,3
India,Chhattisgarh,Tumidih,"OP Jindal Industrial Park, Tumidih - CECB",28-09-2025 07:00:00,22.06631475,83.33820077,PM2.5,5,21,12
India,Chhattisgarh,Tumidih,"OP Jindal Industrial Park, Tumidih - CECB",28-09-2025 07:00:00,22.06631475,83.33820077,SO2,5,7,6
India,Delhi,Delhi,"Alipur, Delhi - DPCC",28-09-2025 07:00:00,28.815329,77.153010,OZONE,3,68,7
India,Delhi,Delhi,"Anand Vihar, Delhi - DPCC",28-09-2025 07:00:00,28.647622,77.3158090,PM2.5,43,362,188
India,Delhi,Delhi,"Ashok Vihar, Delhi - DPCC",28-09-2025 07:00:00,28.695381,77.181665,PM10,56,267,175
India,Delhi,Delhi,"Ashok Vihar, Delhi - DPCC",28-09-2025 07:00:00,28.695381,77.181665,SO2,10,18,13
India,Delhi,Delhi,"Jahangirpuri, Delhi - DPCC",28-09-2025 07:00:00,28.732820,77.170633,NO2,24,66,41
India,Delhi,Delhi,"Jahangirpuri, Delhi - DPCC",28-09-2025 07:00:00,28.732820,77.170633,SO2,7,20,12
India,Delhi,Delhi,"Jawaharlal Nehru Stadium, Delhi - DPCC",28-09-2025 07:00:00,28.580280,77.233829,PM10,67,188,143
India,Delhi,Delhi,"IGI Airport (T3), Delhi - IMD",28-09-2025 07:00:00,28.5627763,77.1180053,PM10,78,270,158
India,Delhi,Delhi,"IGI Airport (T3), Delhi - IMD",28-09-2025 07:00:00,28.5627763,77.1180053,NO2,40,166,88
India,Delhi,Delhi,"IHBAS, Dilshad Garden, Delhi - CPCB",28-09-2025 07:00:00,28.6811736,77.3025234,PM10,98,146,122
India,Delhi,Delhi,"DTU, Delhi - CPCB",28-09-2025 07:00:00,28.7500499,77.1112615,SO2,16,32,24
India,Delhi,Delhi,"Dwarka-Sector 8, Delhi - DPCC ",28-09-2025 07:00:00,28.5710274,77.0719006,PM10,77,295,172
India,Delhi,Delhi,"Bawana, Delhi - DPCC",28-09-2025 07:00:00,28.776200,77.051074,NO2,5,39,18
India,Delhi,Delhi,"Bawana, Delhi - DPCC",28-09-2025 07:00:00,28.776200,77.051074,SO2,9,15,12
India,Delhi,Delhi,"Bawana, Delhi - DPCC",28-09-2025 07:00:00,28.776200,77.051074,CO,52,98,70
India,Delhi,Delhi,"Aya Nagar, Delhi - IMD",28-09-2025 07:00:00,28.4706914,77.1099364,OZONE,11,220,16
India,Delhi,Delhi,"DTU, Delhi - CPCB",28-09-2025 07:00:00,28.7500499,77.1112615,PM2.5,18,167,84
India,Delhi,Delhi,"Pusa, Delhi - IMD",28-09-2025 07:00:00,28.636110,77.173332,OZONE,5,266,12
India,Delhi,Delhi,"R K Puram, Delhi - DPCC",28-09-2025 07:00:00,28.563262,77.186937,PM10,44,222,147
India,Delhi,Delhi,"R K Puram, Delhi - DPCC",28-09-2025 07:00:00,28.563262,77.186937,NH3,4,6,4
India,Delhi,Delhi,"R K Puram, Delhi - DPCC",28-09-2025 07:00:00,28.563262,77.186937,OZONE,19,236,24
India,Delhi,Delhi,"Rohini, Delhi - DPCC",28-09-2025 07:00:00,28.732528,77.119920,PM10,61,340,181
India,Delhi,Delhi,"Rohini, Delhi - DPCC",28-09-2025 07:00:00,28.732528,77.119920,NH3,7,9,8
India,Delhi,Delhi,"Rohini, Delhi - DPCC",28-09-2025 07:00:00,28.732528,77.119920,CO,10,27,18
India,Delhi,Delhi,"Shadipur, Delhi - CPCB",28-09-2025 07:00:00,28.6514781,77.1473105,SO2,7,14,10
India,Delhi,Delhi,"Sirifort, Delhi - CPCB",28-09-2025 07:00:00,28.5504249,77.2159377,NH3,10,15,12
India,Delhi,Delhi,"Sonia Vihar, Delhi - DPCC",28-09-2025 07:00:00,28.710508,77.249485,NH3,7,9,8
India,Delhi,Delhi,"Sonia Vihar, Delhi - DPCC",28-09-2025 07:00:00,28.710508,77.249485,SO2,19,29,25
India,Delhi,Delhi,"Sri Aurobindo Marg, Delhi - DPCC",28-09-2025 07:00:00,28.531346,77.190156,PM10,46,161,115
India,Delhi,Delhi,"Sri Aurobindo Marg, Delhi - DPCC",28-09-2025 07:00:00,28.531346,77.190156,SO2,2,5,3
India,Delhi,Delhi,"Nehru Nagar, Delhi - DPCC",28-09-2025 07:00:00,28.567890,77.250515,SO2,1,42,13
India,Delhi,Delhi,"Nehru Nagar, Delhi - DPCC",28-09-2025 07:00:00,28.567890,77.250515,CO,8,72,38
India,Delhi,Delhi,"North Campus, DU, Delhi - IMD",28-09-2025 07:00:00,28.6573814,77.1585447,PM2.5,30,303,139
India,Delhi,Delhi,"Patparganj, Delhi - DPCC",28-09-2025 07:00:00,28.623763,77.287209,NO2,18,74,36
India,Delhi,Delhi,"Pusa, Delhi - DPCC",28-09-2025 07:00:00,28.639652,77.146275,PM10,62,294,170
India,Delhi,Delhi,"Pusa, Delhi - DPCC",28-09-2025 07:00:00,28.639652,77.146275,NO2,58,88,76
India,Delhi,Delhi,"Pusa, Delhi - IMD",28-09-2025 07:00:00,28.636110,77.173332,PM10,20,171,128
India,Delhi,Delhi,"Mundka, Delhi - DPCC",28-09-2025 07:00:00,28.684678,77.076574,NH3,4,5,5
India,Delhi,Delhi,"NSIT Dwarka, Delhi - CPCB",28-09-2025 07:00:00,28.60909,77.0325413,PM2.5,24,153,54
India,Delhi,Delhi,"Patparganj, Delhi - DPCC",28-09-2025 07:00:00,28.623763,77.287209,NH3,5,7,6
India,Delhi,Delhi,"Punjabi Bagh, Delhi - DPCC",28-09-2025 07:00:00,28.674045,77.131023,PM2.5,23,318,162
India,Delhi,Delhi,"Nehru Nagar, Delhi - DPCC",28-09-2025 07:00:00,28.567890,77.250515,PM2.5,40,399,153
India,Delhi,Delhi,"Nehru Nagar, Delhi - DPCC",28-09-2025 07:00:00,28.567890,77.250515,NH3,5,13,8
India,Delhi,Delhi,"Punjabi Bagh, Delhi - DPCC",28-09-2025 07:00:00,28.674045,77.131023,NH3,3,4,3
India,Delhi,Delhi,"Punjabi Bagh, Delhi - DPCC",28-09-2025 07:00:00,28.674045,77.131023,OZONE,4,186,12
India,Delhi,Delhi,"Narela, Delhi - DPCC",28-09-2025 07:00:00,28.822836,77.101981,CO,30,59,49
India,Gujarat,Ahmedabad,"Gyaspur, Ahmedabad - IITM",28-09-2025 07:00:00,22.977134,72.553024,SO2,2,18,8
India,Gujarat,Ahmedabad,"Raikhad, Ahmedabad - IITM",28-09-2025 07:00:00,23.020509,72.579261,NO2,20,76,36
India,Gujarat,Ahmedabad,"Raikhad, Ahmedabad - IITM",28-09-2025 07:00:00,23.020509,72.579261,CO,10,48,22
India,Gujarat,Ahmedabad,"Rakhial, Ahmedabad - IITM",28-09-2025 07:00:00,23.016834,72.625775,NO2,8,57,22
India,Gujarat,Ahmedabad,"Rakhial, Ahmedabad - IITM",28-09-2025 07:00:00,23.016834,72.625775,NH3,5,8,6
India,Gujarat,Ahmedabad,"SAC ISRO Bopal, Ahmedabad - IITM",28-09-2025 07:00:00,23.041137,72.456691,CO,4,33,17
India,Gujarat,Ahmedabad,"SAC ISRO Satellite, Ahmedabad - IITM",28-09-2025 07:00:00,23.023389,72.515201,CO,2,46,17
India,Gujarat,Ahmedabad,"SVPI Airport Hansol, Ahmedabad - IITM",28-09-2025 07:00:00,23.076793,72.627874,NH3,1,1,1
India,Gujarat,Ahmedabad,"SVPI Airport Hansol, Ahmedabad - IITM",28-09-2025 07:00:00,23.076793,72.627874,OZONE,8,47,12
India,Gujarat,Ankleshwar,"GIDC, Ankleshwar - GPCB",28-09-2025 07:00:00,21.613267,73.010555,PM2.5,46,68,57
India,Gujarat,Ankleshwar,"GIDC, Ankleshwar - GPCB",28-09-2025 07:00:00,21.613267,73.010555,NH3,6,6,6
India,Gujarat,Ankleshwar,"GIDC, Ankleshwar - GPCB",28-09-2025 07:00:00,21.613267,73.010555,SO2,61,62,61
India,Delhi,Delhi,"Wazirpur, Delhi - DPCC",28-09-2025 07:00:00,28.699793,77.165453,CO,16,39,25
India,Gujarat,Ahmedabad,"Chandkheda, Ahmedabad - IITM",28-09-2025 07:00:00,23.107969,72.574648,NO2,9,60,23
India,Gujarat,Vapi,"Phase-1 GIDC, Vapi - GPCB",28-09-2025 07:00:00,20.362421,72.918013,PM10,20,159,96
India,Gujarat,Vatva,"Phase-4 GIDC, Vatva - GPCB",28-09-2025 07:00:00,22.969611,72.643500,PM10,55,95,72
India,Haryana,Faridabad,"Sector 11, Faridabad - HSPCB",28-09-2025 07:00:00,28.376058,77.315741,NH3,6,6,6
India,Haryana,Faridabad,"Sector 11, Faridabad - HSPCB",28-09-2025 07:00:00,28.376058,77.315741,OZONE,19,20,20
India,Delhi,Delhi,"Wazirpur, Delhi - DPCC",28-09-2025 07:00:00,28.699793,77.165453,PM10,55,279,189
India,Delhi,Delhi,"Wazirpur, Delhi - DPCC",28-09-2025 07:00:00,28.699793,77.165453,NH3,7,10,9
India,Gujarat,Gandhinagar,"Sector-10, Gandhinagar - GPCB",28-09-2025 07:00:00,23.221714,72.654328,OZONE,24,34,33
India,Haryana,Faridabad,"Sector 11, Faridabad - HSPCB",28-09-2025 07:00:00,28.376058,77.315741,PM10,NA,NA,NA
India,Delhi,Delhi,"Vivek Vihar, Delhi - DPCC",28-09-2025 07:00:00,28.672342,77.315260,CO,39,75,48
India,Karnataka,Chikkamagaluru,"Kalyana Nagara, Chikkamagaluru - KSPCB",28-09-2025 07:00:00,13.328028,75.797056,CO,14,24,21
India,Karnataka,Chikkamagaluru,"Kalyana Nagara, Chikkamagaluru - KSPCB",28-09-2025 07:00:00,13.328028,75.797056,OZONE,12,22,13
India,Karnataka,Davanagere,"Devaraj Urs Badavane, Davanagere - KSPCB",28-09-2025 07:00:00,14.475800,75.905200,SO2,1,5,3
India,Karnataka,Davanagere,"Devaraj Urs Badavane, Davanagere - KSPCB",28-09-2025 07:00:00,14.475800,75.905200,CO,10,16,15
India,Karnataka,Davanagere,"Devaraj Urs Badavane, Davanagere - KSPCB",28-09-2025 07:00:00,14.475800,75.905200,OZONE,24,26,25
India,Haryana,Gurugram,"NISE Gwal Pahari, Gurugram - IMD",28-09-2025 07:00:00,28.422681,77.148944,CO,NA,NA,NA
India,Haryana,Narnaul,"Shastri Nagar, Narnaul - HSPCB",28-09-2025 07:00:00,28.060249,76.113115,PM10,NA,NA,NA
India,Haryana,Narnaul,"Shastri Nagar, Narnaul - HSPCB",28-09-2025 07:00:00,28.060249,76.113115,NH3,NA,NA,NA
India,Haryana,Panchgaon,"Amity University, Panchgaon - IITM",28-09-2025 07:00:00,28.3153,76.9143,PM10,56,127,91
India,Karnataka,Bengaluru,"Silk Board, Bengaluru - KSPCB",28-09-2025 07:00:00,12.917348,77.622813,PM2.5,14,28,21
India,Karnataka,Chamarajanagar,"Urban, Chamarajanagar - KSPCB",28-09-2025 07:00:00,11.55358,76.55521,NH3,1,2,2
India,Karnataka,Chamarajanagar,"Urban, Chamarajanagar - KSPCB",28-09-2025 07:00:00,11.55358,76.55521,SO2,2,5,4
India,Himachal Pradesh,Baddi,"HIMUDA Complex Phase-1, Baddi - HPPCB",28-09-2025 07:00:00,30.943887,76.801991,CO,40,56,49
India,Jharkhand,Dhanbad,"Sardar Patel Nagar, Dhanbad - JSPCB",28-09-2025 07:00:00,23.80569,86.44268,CO,1,82,3
India,Jharkhand,Jorapokhar,"Tata Stadium, Jorapokhar - JSPCB",28-09-2025 07:00:00,23.707909,86.414670,SO2,NA,NA,NA
India,Karnataka,Bagalkot,"Vidayagiri, Bagalkot - KSPCB",28-09-2025 07:00:00,16.172806,75.659694,PM10,42,43,42
India,Karnataka,Bengaluru,"Hombegowda Nagar, Bengaluru - KSPCB",28-09-2025 07:00:00,12.938539,77.590100,PM10,22,40,30
India,Karnataka,Bengaluru,"Hombegowda Nagar, Bengaluru - KSPCB",28-09-2025 07:00:00,12.938539,77.590100,CO,6,18,10
India,Karnataka,Bagalkot,"Vidayagiri, Bagalkot - KSPCB",28-09-2025 07:00:00,16.172806,75.659694,NO2,9,10,9
India,Karnataka,Bagalkot,"Vidayagiri, Bagalkot - KSPCB",28-09-2025 07:00:00,16.172806,75.659694,OZONE,12,16,16
India,Karnataka,Bengaluru,"Shivapura_Peenya, Bengaluru - KSPCB",28-09-2025 07:00:00,13.0246342,77.5080115,NO2,24,25,25
India,Karnataka,Bengaluru,"Shivapura_Peenya, Bengaluru - KSPCB",28-09-2025 07:00:00,13.0246342,77.5080115,SO2,5,11,7
India,Haryana,Panchgaon,"Amity University, Panchgaon - IITM",28-09-2025 07:00:00,28.3153,76.9143,CO,6,33,24
India,Karnataka,Madikeri,"Stuart Hill, Madikeri - KSPCB",28-09-2025 07:00:00,12.415911,75.735050,PM10,14,26,19
India,Karnataka,Madikeri,"Stuart Hill, Madikeri - KSPCB",28-09-2025 07:00:00,12.415911,75.735050,SO2,7,7,7
India,Karnataka,Mysuru,"Hebbal 1st Stage, Mysuru - KSPCB",28-09-2025 07:00:00,12.21041,76.37376,SO2,1,19,9
India,Karnataka,Mysuru,"Hebbal 1st Stage, Mysuru - KSPCB",28-09-2025 07:00:00,12.21041,76.37376,CO,6,20,9
India,Karnataka,Shivamogga,"Vinoba Nagara, Shivamogga - KSPCB",28-09-2025 07:00:00,13.940000,75.555917,PM2.5,16,25,20
India,Karnataka,Shivamogga,"Vinoba Nagara, Shivamogga - KSPCB",28-09-2025 07:00:00,13.940000,75.555917,CO,14,40,34
India,Karnataka,Dharwad,"Kalabhavan, Dharwad - KSPCB",28-09-2025 07:00:00,15.459706,75.008381,OZONE,16,22,20
India,Karnataka,Haveri,"Ashwini Nagar, Haveri - KSPCB",28-09-2025 07:00:00,14.791800,75.389600,NO2,32,52,37
India,Karnataka,Haveri,"Ashwini Nagar, Haveri - KSPCB",28-09-2025 07:00:00,14.791800,75.389600,OZONE,18,37,25
India,Karnataka,Hubballi,"Lingaraj Nagar, Hubballi - KSPCB",28-09-2025 07:00:00,15.3714823,75.1160168,SO2,1,2,1
India,Karnataka,Kalaburagi,"Mahatma Basaveswar Colony, Kalaburgi - KSPCB",28-09-2025 07:00:00,17.336318,76.847397,SO2,NA,NA,NA
India,Karnataka,Karwar,"KHB Colony, Karwar - KSPCB",28-09-2025 07:00:00,14.816666,74.141003,PM2.5,NA,NA,NA
India,Karnataka,Karwar,"KHB Colony, Karwar - KSPCB",28-09-2025 07:00:00,14.816666,74.141003,NO2,6,6,6
India,Kerala,Kollam,"Polayathode, Kollam - Kerala PCB",28-09-2025 07:00:00,8.8787,76.6073,NH3,1,1,1
India,Kerala,Kollam,"Polayathode, Kollam - Kerala PCB",28-09-2025 07:00:00,8.8787,76.6073,OZONE,29,35,30
India,Kerala,Thiruvananthapuram,"Plammoodu, Thiruvananthapuram - Kerala PCB",28-09-2025 07:00:00,8.5149093,76.9435879,NO2,52,100,73
India,Kerala,Kannur,"Thavakkara, Kannur - Kerala PCB",28-09-2025 07:00:00,11.875000,75.373200,PM2.5,49,56,51
India,Kerala,Kannur,"Thavakkara, Kannur - Kerala PCB",28-09-2025 07:00:00,11.875000,75.373200,OZONE,29,30,29
India,Kerala,Kollam,"Polayathode, Kollam - Kerala PCB",28-09-2025 07:00:00,8.8787,76.6073,PM10,50,104,62
India,Kerala,Eloor,"Udyogamandal, Eloor - Kerala PCB",28-09-2025 07:00:00,10.073232,76.302765,NO2,6,7,7
India,Kerala,Thrissur,"Corporation Ground, Thrissur - Kerala PCB",28-09-2025 07:00:00,10.532400,76.215900,PM2.5,43,51,48
India,Madhya Pradesh,Bhopal,"Idgah Hills, Bhopal - MPPCB",28-09-2025 07:00:00,23.264759,77.381568,PM10,34,160,91
India,Madhya Pradesh,Bhopal,"Idgah Hills, Bhopal - MPPCB",28-09-2025 07:00:00,23.264759,77.381568,SO2,10,13,11
India,Madhya Pradesh,Bhopal,"Paryavaran Parisar, Bhopal - MPPCB",28-09-2025 07:00:00,23.210494,77.425409,SO2,13,16,14
India,Madhya Pradesh,Bhopal,"Paryavaran Parisar, Bhopal - MPPCB",28-09-2025 07:00:00,23.210494,77.425409,OZONE,36,56,39
India,Madhya Pradesh,Bhopal,"T T Nagar, Bhopal - MPPCB",28-09-2025 07:00:00,23.233584,77.400574,PM2.5,19,59,34
India,Madhya Pradesh,Jabalpur,"Marhatal, Jabalpur - MPPCB",28-09-2025 07:00:00,23.168606,79.932247,NH3,2,3,3
India,Madhya Pradesh,Jabalpur,"Marhatal, Jabalpur - MPPCB",28-09-2025 07:00:00,23.168606,79.932247,SO2,11,21,16
India,Madhya Pradesh,Jabalpur,"Suhagi, Jabalpur - JMC",28-09-2025 07:00:00,23.218135,79.957770,SO2,8,10,9
India,Madhya Pradesh,Katni,"Gole Bazar, Katni - MPPCB",28-09-2025 07:00:00,23.50016,80.23284,NO2,32,34,33
India,Madhya Pradesh,Indore,"Residency Area, Indore - IMC",28-09-2025 07:00:00,22.7084,75.8815,CO,13,16,14
India,Madhya Pradesh,Jabalpur,"Govindh Bhavan Colony, Jabalpur - JMC",28-09-2025 07:00:00,23.163174,79.973061,PM10,17,36,24
India,Madhya Pradesh,Satna,"Bandhavgar Colony, Satna - Birla Cement",28-09-2025 07:00:00,24.58434363,80.8549414,NO2,18,25,21
India,Madhya Pradesh,Satna,"Bandhavgar Colony, Satna - Birla Cement",28-09-2025 07:00:00,24.58434363,80.8549414,SO2,19,19,19
India,Madhya Pradesh,Satna,"Bandhavgar Colony, Satna - Birla Cement",28-09-2025 07:00:00,24.58434363,80.8549414,CO,17,20,19
India,Madhya Pradesh,Jabalpur,"Gupteshwar, Jabalpur - JMC",28-09-2025 07:00:00,23.142888,79.916147,NH3,3,6,5
India,Madhya Pradesh,Jabalpur,"Gupteshwar, Jabalpur - JMC",28-09-2025 07:00:00,23.142888,79.916147,OZONE,13,49,17
India,Madhya Pradesh,Gwalior,"Maharaj Bada, Gwalior - MPPCB",28-09-2025 07:00:00,26.200388,78.147714,SO2,5,10,7
India,Madhya Pradesh,Gwalior,"Maharaj Bada, Gwalior - MPPCB",28-09-2025 07:00:00,26.200388,78.147714,OZONE,28,52,30
India,Madhya Pradesh,Ratlam,"Shasthri Nagar, Ratlam - IPCA Lab",28-09-2025 07:00:00,23.331731,75.045981,NO2,32,36,34
India,Madhya Pradesh,Ratlam,"Shasthri Nagar, Ratlam - IPCA Lab",28-09-2025 07:00:00,23.331731,75.045981,SO2,10,12,11
India,Madhya Pradesh,Mandideep,"Sector-D Industrial Area, Mandideep - MPPCB",28-09-2025 07:00:00,23.108440,77.511428,NO2,18,56,36
India,Madhya Pradesh,Gwalior,"City Center, Gwalior - MPPCB",28-09-2025 07:00:00,26.203442,78.193251,NO2,10,10,10
India,Maharashtra,Amravati,"Shri Shivaji Science College, Amravati - MPCB",28-09-2025 07:00:00,20.939198,77.765701,NO2,5,26,13
India,Maharashtra,Aurangabad,"Rachnakar Colony, Aurangabad - MPCB",28-09-2025 07:00:00,19.863756,75.321188,PM2.5,17,61,39
India,Maharashtra,Badlapur,"Katrap, Badlapur - MPCB",28-09-2025 07:00:00,19.16485,73.23409,NH3,5,7,6
India,Maharashtra,Badlapur,"Katrap, Badlapur - MPCB",28-09-2025 07:00:00,19.16485,73.23409,SO2,7,19,10
India,Maharashtra,Badlapur,"Katrap, Badlapur - MPCB",28-09-2025 07:00:00,19.16485,73.23409,CO,24,38,28
India,Maharashtra,Belapur,"CBD Belapur, Belapur - MPCB",28-09-2025 07:00:00,19.0243902,73.0406721,PM10,27,42,32
India,Maharashtra,Belapur,"CBD Belapur, Belapur - MPCB",28-09-2025 07:00:00,19.0243902,73.0406721,CO,4,32,9
India,Maharashtra,Bhiwandi,"Gokul Nagar, Bhiwandi - MPCB",28-09-2025 07:00:00,19.309073,73.057223,PM10,26,57,41
India,Maharashtra,Bhiwandi,"Gokul Nagar, Bhiwandi - MPCB",28-09-2025 07:00:00,19.309073,73.057223,NO2,20,32,27
India,Maharashtra,Bhiwandi,"Gokul Nagar, Bhiwandi - MPCB",28-09-2025 07:00:00,19.309073,73.057223,CO,29,56,34
India,Maharashtra,Bhiwandi,"Gokul Nagar, Bhiwandi - MPCB",28-09-2025 07:00:00,19.309073,73.057223,OZONE,13,30,14
India,Maharashtra,Boisar,"Khaira, Boisar - MPCB",28-09-2025 07:00:00,19.786089,72.757971,SO2,3,7,5
India,Maharashtra,Boisar,"Khaira, Boisar - MPCB",28-09-2025 07:00:00,19.786089,72.757971,CO,20,58,35
India,Maharashtra,Boisar,"Khaira, Boisar - MPCB",28-09-2025 07:00:00,19.786089,72.757971,OZONE,30,31,31
India,Maharashtra,Chandrapur,"Chauhan Colony, Chandrapur - MPCB",28-09-2025 07:00:00,19.962900,79.298714,PM10,3,49,20
India,Maharashtra,Latur,"Sawe Wadi, Latur - MPCB",28-09-2025 07:00:00,18.39963,76.57452,PM10,8,50,26
India,Maharashtra,Latur,"Sawe Wadi, Latur - MPCB",28-09-2025 07:00:00,18.39963,76.57452,NH3,1,9,3
India,Maharashtra,Latur,"Sawe Wadi, Latur - MPCB",28-09-2025 07:00:00,18.39963,76.57452,SO2,2,6,4
India,Maharashtra,Mahad,"Kamble Tarf Birwadi, Mahad - MPCB",28-09-2025 07:00:00,18.1023399,73.4783687,PM10,NA,NA,NA
India,Maharashtra,Ahmednagar,"Tarakpur, Ahmednagar - MPCB",28-09-2025 07:00:00,19.10122,74.73339,OZONE,5,38,29
India,Maharashtra,Amravati,"Shivneri Colony, Amravati - MPCB",28-09-2025 07:00:00,20.9402359,77.7895248,SO2,1,3,2
India,Maharashtra,Jalna,"Old MIDC, Jalna - MPCB",28-09-2025 07:00:00,19.854616,75.905894,PM2.5,NA,NA,NA
India,Maharashtra,Jalna,"Old MIDC, Jalna - MPCB",28-09-2025 07:00:00,19.854616,75.905894,CO,NA,NA,NA
India,Maharashtra,Kolhapur,"Shivaji University, Kolhapur - MPCB",28-09-2025 07:00:00,16.6870449,74.2505872,PM10,3,20,12
India,Maharashtra,Jalgaon,"Prabhat Colony, Jalgaon - MPCB",28-09-2025 07:00:00,21.001264,75.565602,SO2,2,7,5
India,Maharashtra,Kalyan,"Khadakpada, Kalyan - MPCB",28-09-2025 07:00:00,19.25292,73.142019,PM10,17,103,61
India,Maharashtra,Malegaon,"Mahesh Nagar, Malegaon - MPCB",28-09-2025 07:00:00,20.555712,74.529236,NH3,2,2,2
India,Maharashtra,Mumbai,"Chakala-Andheri East, Mumbai - IITM",28-09-2025 07:00:00,19.11074,72.86084,NH3,NA,NA,NA
India,Maharashtra,Mumbai,"Chembur, Mumbai - MPCB",28-09-2025 07:00:00,19.0364585,72.8954371,OZONE,2,41,26
India,Maharashtra,Mumbai,"Chhatrapati Shivaji Intl. Airport (T2), Mumbai - MPCB",28-09-2025 07:00:00,19.10078,72.87462,PM10,57,75,64
India,Maharashtra,Mumbai,"Chhatrapati Shivaji Intl. Airport (T2), Mumbai - MPCB",28-09-2025 07:00:00,19.10078,72.87462,SO2,20,21,21
India,Maharashtra,Mumbai,"Colaba, Mumbai - MPCB",28-09-2025 07:00:00,18.910000,72.820000,SO2,NA,NA,NA
India,Maharashtra,Mumbai,"Deonar, Mumbai - IITM",28-09-2025 07:00:00,19.04946,72.9230,NO2,16,29,22
India,Maharashtra,Mumbai,"Khindipada-Bhandup West, Mumbai - IITM",28-09-2025 07:00:00,19.1653323,72.922099,CO,19,28,24
India,Maharashtra,Mumbai,"Kurla, Mumbai - MPCB",28-09-2025 07:00:00,19.0863,72.8888,NH3,1,2,1
India,Maharashtra,Mumbai,"Malad West, Mumbai - IITM",28-09-2025 07:00:00,19.19709,72.82204,PM2.5,NA,NA,NA
India,Maharashtra,Mumbai,"Malad West, Mumbai - IITM",28-09-2025 07:00:00,19.19709,72.82204,NO2,36,39,38
India,Maharashtra,Mumbai,"Mazgaon, Mumbai - IITM",28-09-2025 07:00:00,18.96702,72.84214,NO2,25,59,40
India,Maharashtra,Mumbai,"Borivali East, Mumbai - IITM",28-09-2025 07:00:00,19.23241,72.86895,PM2.5,7,42,30
India,Maharashtra,Mumbai,"Borivali East, Mumbai - MPCB",28-09-2025 07:00:00,19.2243333,72.8658113,PM2.5,4,37,23
India,Maharashtra,Mumbai,"Borivali East, Mumbai - MPCB",28-09-2025 07:00:00,19.2243333,72.8658113,NO2,1,8,5
India,Maharashtra,Mumbai,"Byculla, Mumbai - BMC",28-09-2025 07:00:00,18.9767,72.8380,PM2.5,8,33,19
India,Maharashtra,Mumbai,"Byculla, Mumbai - BMC",28-09-2025 07:00:00,18.9767,72.8380,CO,1,12,2
India,Maharashtra,Mumbai,"Mazgaon, Mumbai - IITM",28-09-2025 07:00:00,18.96702,72.84214,SO2,NA,NA,NA
India,Maharashtra,Mumbai,"Mazgaon, Mumbai - IITM",28-09-2025 07:00:00,18.96702,72.84214,CO,NA,NA,NA
India,Maharashtra,Mumbai,"Mindspace-Malad West, Mumbai - MPCB",28-09-2025 07:00:00,19.1878657,72.8304069,SO2,6,7,6
India,Maharashtra,Mumbai,"Navy Nagar-Colaba, Mumbai - IITM",28-09-2025 07:00:00,18.897756,72.813320,OZONE,6,38,26
India,Maharashtra,Mumbai,"Powai, Mumbai - MPCB",28-09-2025 07:00:00,19.137500,72.915056,PM10,11,66,33
India,Maharashtra,Mumbai,"Powai, Mumbai - MPCB",28-09-2025 07:00:00,19.137500,72.915056,CO,24,24,24
India,Maharashtra,Mumbai,"Powai, Mumbai - MPCB",28-09-2025 07:00:00,19.137500,72.915056,OZONE,9,9,9
India,Maharashtra,Mumbai,"Shivaji Nagar, Mumbai - BMC",28-09-2025 07:00:00,19.060498,72.923356,NO2,25,54,40
India,Maharashtra,Mumbai,"Vasai West, Mumbai - MPCB",28-09-2025 07:00:00,19.383200,72.820400,PM2.5,2,37,20
India,Maharashtra,Mumbai,"Vasai West, Mumbai - MPCB",28-09-2025 07:00:00,19.383200,72.820400,PM10,6,44,26
India,Maharashtra,Mumbai,"Vasai West, Mumbai - MPCB",28-09-2025 07:00:00,19.383200,72.820400,NO2,16,34,21
India,Maharashtra,Mumbai,"Bandra Kurla Complex, Mumbai - IITM",28-09-2025 07:00:00,19.053536,72.84643,PM2.5,NA,NA,NA
India,Maharashtra,Mumbai,"Bandra Kurla Complex, Mumbai - IITM",28-09-2025 07:00:00,19.053536,72.84643,PM10,NA,NA,NA
India,Maharashtra,Mumbai,"Bandra Kurla Complex, Mumbai - IITM",28-09-2025 07:00:00,19.053536,72.84643,NO2,NA,NA,NA
India,Maharashtra,Mumbai,"Kherwadi_Bandra East, Mumbai - MPCB",28-09-2025 07:00:00,19.0632143,72.8456324,NO2,1,39,22
India,Maharashtra,Mumbai,"Kherwadi_Bandra East, Mumbai - MPCB",28-09-2025 07:00:00,19.0632143,72.8456324,CO,12,32,15
India,Maharashtra,Mumbai,"Kandivali West, Mumbai - BMC",28-09-2025 07:00:00,19.215859,72.831718,NH3,1,3,2
India,Maharashtra,Navi Mumbai,"Sector-2E Kalamboli, Navi Mumbai - MPCB",28-09-2025 07:00:00,19.02579,73.10297,OZONE,5,43,24
India,Maharashtra,Navi Mumbai,"Tondare-Taloja, Navi Mumbai - MPCB",28-09-2025 07:00:00,19.0630,73.1209,NH3,4,12,8
India,Maharashtra,Navi Mumbai,"Tondare-Taloja, Navi Mumbai - MPCB",28-09-2025 07:00:00,19.0630,73.1209,SO2,4,4,4
India,Maharashtra,Parbhani,"Masoom Colony, Parbhani - MPCB",28-09-2025 07:00:00,19.265594,76.761463,PM2.5,9,46,24
India,Maharashtra,Parbhani,"Masoom Colony, Parbhani - MPCB",28-09-2025 07:00:00,19.265594,76.761463,PM10,10,51,27
India,Maharashtra,Mumbai,"Vile Parle West, Mumbai - MPCB",28-09-2025 07:00:00,19.10861,72.83622,PM10,9,31,21
India,Maharashtra,Mumbai,"Vile Parle West, Mumbai - MPCB",28-09-2025 07:00:00,19.10861,72.83622,NH3,1,5,4
India,Maharashtra,Mumbai,"Vile Parle West, Mumbai - MPCB",28-09-2025 07:00:00,19.10861,72.83622,OZONE,5,27,20
India,Maharashtra,Mumbai,"Worli, Mumbai - MPCB",28-09-2025 07:00:00,18.9936162,72.8128113,NO2,5,23,13
India,Maharashtra,Nagpur,"Mahal, Nagpur - MPCB",28-09-2025 07:00:00,21.14472,79.107595,NO2,6,38,18
India,Maharashtra,Nagpur,"Mahal, Nagpur - MPCB",28-09-2025 07:00:00,21.14472,79.107595,OZONE,1,6,4
India,Maharashtra,Nagpur,"Ram Nagar, Nagpur - MPCB",28-09-2025 07:00:00,21.143383,79.048912,PM10,22,56,35
India,Maharashtra,Nagpur,"Ram Nagar, Nagpur - MPCB",28-09-2025 07:00:00,21.143383,79.048912,NO2,16,16,16
India,Maharashtra,Navi Mumbai,"Nerul, Navi Mumbai - MPCB",28-09-2025 07:00:00,19.008751,73.016620,NO2,29,30,29
India,Maharashtra,Navi Mumbai,"Sanpada, Navi Mumbai - MPCB",28-09-2025 07:00:00,19.0575752,73.0151367,PM2.5,7,40,19
India,Maharashtra,Navi Mumbai,"Sanpada, Navi Mumbai - MPCB",28-09-2025 07:00:00,19.0575752,73.0151367,OZONE,12,12,12
India,Maharashtra,Nanded,"Sneh Nagar, Nanded - MPCB",28-09-2025 07:00:00,19.173852,77.296291,CO,14,62,41
India,Maharashtra,Nashik,"Hirawadi, Nashik - MPCB",28-09-2025 07:00:00,20.021503,73.813844,PM10,13,87,47
India,Maharashtra,Nashik,"Hirawadi, Nashik - MPCB",28-09-2025 07:00:00,20.021503,73.813844,OZONE,21,94,46
India,Maharashtra,Navi Mumbai,"Kopripada-Vashi, Navi Mumbai - MPCB",28-09-2025 07:00:00,19.090337,73.014232,SO2,24,28,26
India,Maharashtra,Navi Mumbai,"Mahape, Navi Mumbai - MPCB",28-09-2025 07:00:00,19.1135051,73.008978,PM10,32,52,41
India,Maharashtra,Nashik,"Pandav Nagari, Nashik - MPCB",28-09-2025 07:00:00,19.9591346,73.7788008,NH3,1,2,1
India,Maharashtra,Nashik,"Pandav Nagari, Nashik - MPCB",28-09-2025 07:00:00,19.9591346,73.7788008,CO,8,20,9
India,Maharashtra,Parbhani,"Masoom Colony, Parbhani - MPCB",28-09-2025 07:00:00,19.265594,76.761463,SO2,5,23,13
India,Maharashtra,Nagpur,"Ram Nagar, Nagpur - MPCB",28-09-2025 07:00:00,21.143383,79.048912,NH3,4,6,5
India,Maharashtra,Thane,"Upvan Fort, Thane - MPCB",28-09-2025 07:00:00,19.222279,72.957979,OZONE,12,43,35
India,Maharashtra,Ulhasnagar,"Sidhi Vinayak Nagar, Ulhasnagar - MPCB",28-09-2025 07:00:00,19.235581,73.159121,PM10,32,72,49
India,Maharashtra,Ulhasnagar,"Sidhi Vinayak Nagar, Ulhasnagar - MPCB",28-09-2025 07:00:00,19.235581,73.159121,NH3,4,6,5
India,Maharashtra,Virar,"Bolinj, Virar - MPCB",28-09-2025 07:00:00,19.4458210,72.7988231,NH3,1,3,2
India,Meghalaya,Shillong,"Lumpyngngad, Shillong - Meghalaya PCB",28-09-2025 07:00:00,25.5586,91.8985,NO2,NA,NA,NA
India,Meghalaya,Shillong,"Lumpyngngad, Shillong - Meghalaya PCB",28-09-2025 07:00:00,25.5586,91.8985,OZONE,1,6,3
India,Nagaland,Kohima,"PWD Junction, Kohima - NPCB",28-09-2025 07:00:00,25.6635413,94.0989878,NO2,3,5,4
India,Odisha,Angul,"Hakimapada, Angul - OSPCB",28-09-2025 07:00:00,20.832874,85.104082,PM2.5,13,88,32
India,Odisha,Byasanagar,"Ferro Chrome Colony, Byasanagar - OSPCB",28-09-2025 07:00:00,20.94185,86.11510,OZONE,20,61,23
India,Odisha,Cuttack,"CDA Area, Cuttack - OSPCB",28-09-2025 07:00:00,20.48891     ,85.84768     ,NH3,1,35,4
India,Odisha,Keonjhar,"Jagamohanpur, Keonjhar - OSPCB",28-09-2025 07:00:00,21.643900,85.599355,NH3,7,10,9
India,Odisha,Nayagarh,"Dabuna, Nayagarh - OSPCB",28-09-2025 07:00:00,21.847279,85.416905,PM10,21,21,21
India,Odisha,Nayagarh,"Dabuna, Nayagarh - OSPCB",28-09-2025 07:00:00,21.847279,85.416905,CO,11,22,21
India,Odisha,Rairangpur,"Divisional Forest Office, Rairangpur - OSPCB",28-09-2025 07:00:00,22.265816,86.174829,PM2.5,26,43,32
India,Odisha,Balasore,"Kalidaspur, Balasore - OSPCB",28-09-2025 07:00:00,21.51161,86.89088,PM2.5,5,32,16
India,Odisha,Balasore,"Kalidaspur, Balasore - OSPCB",28-09-2025 07:00:00,21.51161,86.89088,NH3,1,2,2
India,Odisha,Baripada,"Meher Colony, Baripada - OSPCB",28-09-2025 07:00:00,21.941841,86.728318,NO2,7,30,16
India,Odisha,Baripada,"Meher Colony, Baripada - OSPCB",28-09-2025 07:00:00,21.941841,86.728318,SO2,3,6,5
India,Odisha,Baripada,"Meher Colony, Baripada - OSPCB",28-09-2025 07:00:00,21.941841,86.728318,OZONE,4,27,10
India,Odisha,Bhubaneswar,"Lingraj Mandir, Bhubaneswar - OSPCB",28-09-2025 07:00:00,20.240790,85.836784,PM2.5,3,35,16
India,Odisha,Bhubaneswar,"Patia, Bhubaneswar - OSPCB",28-09-2025 07:00:00,20.34652,85.81630,PM2.5,2,13,6
India,Odisha,Brajrajnagar,"GM Office, Brajrajnagar - OSPCB",28-09-2025 07:00:00,21.8004996,83.8396977,PM10,3,21,12
India,Odisha,Brajrajnagar,"GM Office, Brajrajnagar - OSPCB",28-09-2025 07:00:00,21.8004996,83.8396977,OZONE,24,26,25
India,Odisha,Byasanagar,"Ferro Chrome Colony, Byasanagar - OSPCB",28-09-2025 07:00:00,20.94185,86.11510,PM2.5,2,22,12
India,Odisha,Byasanagar,"Ferro Chrome Colony, Byasanagar - OSPCB",28-09-2025 07:00:00,20.94185,86.11510,NH3,1,1,1
India,Maharashtra,Solapur,"Ratandeep Housing Society, Solapur - MPCB",28-09-2025 07:00:00,17.65439,75.90649,NH3,1,6,4
India,Maharashtra,Solapur,"Ratandeep Housing Society, Solapur - MPCB",28-09-2025 07:00:00,17.65439,75.90649,SO2,1,4,2
India,Maharashtra,Solapur,"Ratandeep Housing Society, Solapur - MPCB",28-09-2025 07:00:00,17.65439,75.90649,CO,8,43,11
India,Maharashtra,Thane,"Kasarvadavali, Thane - MPCB",28-09-2025 07:00:00,19.26777,72.97182,PM2.5,17,37,25
India,Maharashtra,Pimpri-Chinchwad,"Gavalinagar, Pimpri Chinchwad - MPCB",28-09-2025 07:00:00,18.63673,73.82487,CO,4,22,10
India,Maharashtra,Pimpri-Chinchwad,"Savta Mali Nagar, Pimpri-Chinchwad - IITM",28-09-2025 07:00:00,18.614767,73.799516,NO2,17,41,31
India,Maharashtra,Pimpri-Chinchwad,"Thergaon, Pimpri Chinchwad - MPCB",28-09-2025 07:00:00,18.616318,73.765797,NO2,47,68,58
India,Maharashtra,Pune,"Katraj Dairy, Pune - MPCB",28-09-2025 07:00:00,18.454450,73.854155,PM10,15,62,28
India,Maharashtra,Pune,"Katraj Dairy, Pune - MPCB",28-09-2025 07:00:00,18.454450,73.854155,NH3,1,3,2
India,Maharashtra,Pune,"Katraj Dairy, Pune - MPCB",28-09-2025 07:00:00,18.454450,73.854155,CO,2,92,13
India,Maharashtra,Pune,"Panchawati_Pashan, Pune - IITM",28-09-2025 07:00:00,18.536457,73.805454,PM10,27,48,35
India,Maharashtra,Pune,"Transport Nagar-Nigdi, Pune - IITM",28-09-2025 07:00:00,18.664282,73.763966,PM2.5,4,55,20
India,Maharashtra,Pune,"Transport Nagar-Nigdi, Pune - IITM",28-09-2025 07:00:00,18.664282,73.763966,CO,34,88,50
India,Maharashtra,Thane,"Upvan Fort, Thane - MPCB",28-09-2025 07:00:00,19.222279,72.957979,PM2.5,10,37,21
India,Odisha,Rairangpur,"Divisional Forest Office, Rairangpur - OSPCB",28-09-2025 07:00:00,22.265816,86.174829,NH3,2,3,3
India,Odisha,Rairangpur,"Divisional Forest Office, Rairangpur - OSPCB",28-09-2025 07:00:00,22.265816,86.174829,CO,12,38,19
India,Odisha,Rairangpur,"Divisional Forest Office, Rairangpur - OSPCB",28-09-2025 07:00:00,22.265816,86.174829,OZONE,17,23,19
India,Odisha,Rourkela,"Fertilizer Township, Rourkela - OSPCB",28-09-2025 07:00:00,22.18972222,84.86277778,PM2.5,55,85,66
India,Odisha,Rourkela,"Raghunathpali, Rourkela - OSPCB",28-09-2025 07:00:00,22.220833,84.809444,NH3,1,2,1
India,Odisha,Rourkela,"Raghunathpali, Rourkela - OSPCB",28-09-2025 07:00:00,22.220833,84.809444,OZONE,5,48,46
India,Odisha,Talcher,"Talcher Coalfields,Talcher - OSPCB",28-09-2025 07:00:00,20.9360711,85.1707021,OZONE,12,22,19
India,Odisha,Tensa,"Barsua Iron Ore Mines, Tensa - OSPCB",28-09-2025 07:00:00,21.869985,85.167016,PM2.5,NA,NA,NA
India,Punjab,Mandi Gobindgarh,"RIMT University, Mandi Gobindgarh - PPCB",28-09-2025 07:00:00,30.649961,76.331442,PM2.5,40,93,54
India,Punjab,Mandi Gobindgarh,"RIMT University, Mandi Gobindgarh - PPCB",28-09-2025 07:00:00,30.649961,76.331442,PM10,55,118,73
India,Punjab,Mandi Gobindgarh,"RIMT University, Mandi Gobindgarh - PPCB",28-09-2025 07:00:00,30.649961,76.331442,OZONE,46,50,48
India,Punjab,Patiala,"Model Town, Patiala - PPCB",28-09-2025 07:00:00,30.349388,76.366642,PM10,80,106,92
India,Punjab,Patiala,"Model Town, Patiala - PPCB",28-09-2025 07:00:00,30.349388,76.366642,NO2,16,19,18
India,Rajasthan,Alwar,"Moti Doongri, Alwar - RSPCB",28-09-2025 07:00:00,27.554793,76.611536,PM10,48,107,84
India,Punjab,Amritsar,"Golden Temple, Amritsar - PPCB",28-09-2025 07:00:00,31.620000,74.876512,OZONE,28,43,33
India,Punjab,Bathinda,"Hardev Nagar, Bathinda - PPCB",28-09-2025 07:00:00,30.233011,74.907758,SO2,3,28,13
India,Punjab,Jalandhar,"Civil Line, Jalandhar - PPCB",28-09-2025 07:00:00,31.321907,75.578914,PM2.5,34,86,61
India,Rajasthan,Bikaner,"MM Ground, Bikaner - RSPCB",28-09-2025 07:00:00,28.018792,73.292658,SO2,1,8,4
India,Rajasthan,Bundi,"New Colony, Bundi - RSPCB",28-09-2025 07:00:00,25.435774,75.644272,PM2.5,13,63,37
India,Rajasthan,Bundi,"New Colony, Bundi - RSPCB",28-09-2025 07:00:00,25.435774,75.644272,SO2,3,7,5
India,Rajasthan,Banswara,"Rati Talai, Banswara - RSPCB",28-09-2025 07:00:00,23.555190,74.440010,PM10,NA,NA,NA
India,Rajasthan,Banswara,"Rati Talai, Banswara - RSPCB",28-09-2025 07:00:00,23.555190,74.440010,NO2,NA,NA,NA
India,Rajasthan,Banswara,"Rati Talai, Banswara - RSPCB",28-09-2025 07:00:00,23.555190,74.440010,OZONE,NA,NA,NA
India,Rajasthan,Barmer,"Railway Colony, Barmer - RSPCB",28-09-2025 07:00:00,25.747299,71.393989,SO2,3,6,5
India,Punjab,Khanna,"Kalal Majra, Khanna - PPCB",28-09-2025 07:00:00,30.736056 ,76.209694,OZONE,24,26,25
India,Punjab,Jalandhar,"Civil Line, Jalandhar - PPCB",28-09-2025 07:00:00,31.321907,75.578914,CO,32,37,34
India,Rajasthan,Baran,"Bamboliya, Baran - RSPCB",28-09-2025 07:00:00,25.106006,76.469948,OZONE,29,88,35
India,Rajasthan,Kota,"Nayapura, Kota - RSPCB",28-09-2025 07:00:00,25.196024,75.855668,PM10,45,120,84
India,Rajasthan,Kota,"Nayapura, Kota - RSPCB",28-09-2025 07:00:00,25.196024,75.855668,SO2,4,11,8
India,Rajasthan,Kota,"Nayapura, Kota - RSPCB",28-09-2025 07:00:00,25.196024,75.855668,OZONE,19,116,28
India,Rajasthan,Kota,"Shrinath Puram, Kota - RSPCB",28-09-2025 07:00:00,25.14389,75.821256,NO2,11,15,14
India,Rajasthan,Kota,"Shrinath Puram, Kota - RSPCB",28-09-2025 07:00:00,25.14389,75.821256,NH3,1,3,1
India,Rajasthan,Kota,"Shrinath Puram, Kota - RSPCB",28-09-2025 07:00:00,25.14389,75.821256,SO2,2,8,5
India,Rajasthan,Pali,"Indira Colony Vistar, Pali - RSPCB",28-09-2025 07:00:00,25.771061, 73.340227,PM2.5,65,192,111
India,Rajasthan,Chittorgarh,"Shastri Nagar, Chittorgarh - RSPCB",28-09-2025 07:00:00,24.892047,74.623527,PM2.5,56,103,78
India,Rajasthan,Chittorgarh,"Shastri Nagar, Chittorgarh - RSPCB",28-09-2025 07:00:00,24.892047,74.623527,NH3,1,3,2
India,Rajasthan,Chittorgarh,"Shastri Nagar, Chittorgarh - RSPCB",28-09-2025 07:00:00,24.892047,74.623527,CO,8,50,26
India,Rajasthan,Churu,"Subash Chowk, Churu - RSPCB",28-09-2025 07:00:00,28.296139,74.961696,NH3,3,7,5
India,Rajasthan,Dausa,"Khatikan Mohalla, Dausa - RSPCB",28-09-2025 07:00:00,26.895552,76.334753,NH3,6,19,11
India,Rajasthan,Dholpur,"Raja Ganj, Dholpur - RSPCB",28-09-2025 07:00:00,26.699557,77.898881,PM2.5,6,113,45
India,Rajasthan,Jaipur,"Adarsh Nagar, Jaipur - RSPCB",28-09-2025 07:00:00,26.902909,75.836858,NO2,14,40,24
India,Rajasthan,Jaipur,"Mansarovar Sector-12, Jaipur - RSPCB",28-09-2025 07:00:00,26.843698,75.766894,CO,22,48,32
India,Rajasthan,Jaipur,"Police Commissionerate, Jaipur - RSPCB",28-09-2025 07:00:00,26.9164092,75.7994901,PM2.5,69,105,85
India,Rajasthan,Jaipur,"Police Commissionerate, Jaipur - RSPCB",28-09-2025 07:00:00,26.9164092,75.7994901,SO2,7,14,10
India,Rajasthan,Jaipur,"RIICO Sitapura, Jaipur - RSPCB",28-09-2025 07:00:00,26.786682,75.827928,NH3,3,5,4
India,Rajasthan,Jaipur,"Shastri Nagar, Jaipur - RSPCB",28-09-2025 07:00:00,26.9502929,75.730943,PM10,68,146,108
India,Rajasthan,Jaipur,"Shastri Nagar, Jaipur - RSPCB",28-09-2025 07:00:00,26.9502929,75.730943,NO2,42,76,59
India,Rajasthan,Jaipur,"Shastri Nagar, Jaipur - RSPCB",28-09-2025 07:00:00,26.9502929,75.730943,OZONE,28,47,34
India,Rajasthan,Jaisalmer,"Sadar Bazar, Jaisalmer - RSPCB",28-09-2025 07:00:00,26.912329,70.909168,SO2,2,6,3
India,Rajasthan,Jalore,"Mudtra Sili, Jalore - RSPCB",28-09-2025 07:00:00,25.344694,72.626208,CO,14,101,21
India,Rajasthan,Jodhpur,"Samrat Ashok Udhyan, Jodhpur - RSPCB",28-09-2025 07:00:00,26.253384,72.976571,PM2.5,18,70,38
India,Rajasthan,Jodhpur,"Samrat Ashok Udhyan, Jodhpur - RSPCB",28-09-2025 07:00:00,26.253384,72.976571,NH3,2,5,4
India,Rajasthan,Karauli,"Satyawati Vihar, Karauli - RSPCB",28-09-2025 07:00:00,26.506177,77.025989,PM2.5,23,126,62
India,Rajasthan,Kota,"Dhanmandi, Kota - RSPCB",28-09-2025 07:00:00,25.164090,75.858137,NO2,10,67,32
India,Rajasthan,Dungarpur,"Bhoiwada, Dungarpur - RSPCB",28-09-2025 07:00:00,23.837789,73.714926,PM10,35,110,86
India,Rajasthan,Dungarpur,"Bhoiwada, Dungarpur - RSPCB",28-09-2025 07:00:00,23.837789,73.714926,NH3,4,10,6
India,Rajasthan,Hanumangarh,"Housing Board, Hanumangarh - RSPCB",28-09-2025 07:00:00,29.610750,74.283608,NO2,9,28,18
India,Rajasthan,Jaipur,"Sector-2 Murlipura, Jaipur - RSPCB",28-09-2025 07:00:00,26.960669,75.771817,OZONE,19,79,38
India,Rajasthan,Jaipur,"Shastri Nagar, Jaipur - RSPCB",28-09-2025 07:00:00,26.9502929,75.730943,PM2.5,50,152,83
India,Rajasthan,Jodhpur,"Digari Kalan, Jodhpur - RSPCB",28-09-2025 07:00:00,26.295810,73.082283,NH3,2,5,3
India,Rajasthan,Jodhpur,"Digari Kalan, Jodhpur - RSPCB",28-09-2025 07:00:00,26.295810,73.082283,SO2,1,7,3
India,Rajasthan,Jodhpur,"Collectorate, Jodhpur - RSPCB",28-09-2025 07:00:00,26.268249,73.0193853,NH3,5,11,9
India,Rajasthan,Sri Ganganagar,"Old City, Sri Ganganagar - RSPCB",28-09-2025 07:00:00,29.931624,73.864511,PM10,61,187,100
India,Rajasthan,Sri Ganganagar,"Old City, Sri Ganganagar - RSPCB",28-09-2025 07:00:00,29.931624,73.864511,SO2,1,34,9
India,Rajasthan,Tonk,"Shastri Nagar, Tonk - RSPCB",28-09-2025 07:00:00,26.159933,75.780517,PM10,70,187,128
India,Rajasthan,Tonk,"Shastri Nagar, Tonk - RSPCB",28-09-2025 07:00:00,26.159933,75.780517,CO,4,34,8
India,Rajasthan,Udaipur,"Ashok Nagar, Udaipur - RSPCB",28-09-2025 07:00:00,24.5886166,73.6321397,NO2,2,41,17
India,Rajasthan,Udaipur,"Ashok Nagar, Udaipur - RSPCB",28-09-2025 07:00:00,24.5886166,73.6321397,NH3,1,10,5
India,Rajasthan,Udaipur,"Ashok Nagar, Udaipur - RSPCB",28-09-2025 07:00:00,24.5886166,73.6321397,SO2,5,9,7
India,Sikkim,Gangtok,"Zero Point GICI, Gangtok - SSPCB",28-09-2025 07:00:00,27.338530,88.614099,NH3,1,1,1
India,TamilNadu,Chennai,"Alandur Bus Depot, Chennai - CPCB",28-09-2025 07:00:00,12.9099161,80.1076538,SO2,15,16,15
India,TamilNadu,Chennai,"Arumbakkam, Chennai - TNPCB",28-09-2025 07:00:00,13.0664,80.2112 ,NH3,3,4,3
India,TamilNadu,Chennai,"Kodungaiyur, Chennai - TNPCB",28-09-2025 07:00:00,13.1278,80.2642,PM10,NA,NA,NA
India,TamilNadu,Chennai,"Kodungaiyur, Chennai - TNPCB",28-09-2025 07:00:00,13.1278,80.2642,NH3,NA,NA,NA
India,TamilNadu,Chennai,"Manali, Chennai - CPCB",28-09-2025 07:00:00,13.164544,80.26285,PM2.5,NA,NA,NA
India,TamilNadu,Chennai,"Manali, Chennai - CPCB",28-09-2025 07:00:00,13.164544,80.26285,CO,29,78,46
India,TamilNadu,Chennai,"Perungudi, Chennai - TNPCB",28-09-2025 07:00:00,12.9533,80.2357,SO2,1,3,2
India,TamilNadu,Chennai,"Velachery Res. Area, Chennai - CPCB",28-09-2025 07:00:00,13.0052189,80.2398125,CO,46,66,50
India,TamilNadu,Coimbatore,"SIDCO Kurichi, Coimbatore - TNPCB",28-09-2025 07:00:00,10.942451,76.978996,PM10,NA,NA,NA
India,TamilNadu,Coimbatore,"SIDCO Kurichi, Coimbatore - TNPCB",28-09-2025 07:00:00,10.942451,76.978996,OZONE,1,20,2
India,TamilNadu,Cuddalore,"Kudikadu, Cuddalore - TNPCB",28-09-2025 07:00:00,11.6829898,79.7532099,NH3,4,5,5
India,TamilNadu,Cuddalore,"Semmandalam, Cuddalore - TNPCB",28-09-2025 07:00:00,11.7637683,79.7499835,PM10,10,58,24
India,TamilNadu,Dindigul,"Mendonsa Colony, Dindigul - TNPCB",28-09-2025 07:00:00,10.358535,77.984321,PM10,28,88,43
India,Rajasthan,Sawai Madhopur,"Sahu Nagar, Sawai Madhopur - RSPCB",28-09-2025 07:00:00,26.031443,76.359327,PM2.5,10,108,45
India,TamilNadu,Chengalpattu,"Crescent University, Chengalpattu - TNPCB",28-09-2025 07:00:00,12.8777316,80.0834807,NH3,1,1,1
India,Rajasthan,Pali,"Indira Colony Vistar, Pali - RSPCB",28-09-2025 07:00:00,25.771061, 73.340227,OZONE,6,58,7
India,Rajasthan,Rajsamand,"Dhoinda, Rajsamand - RSPCB",28-09-2025 07:00:00,25.036360,73.883502,CO,30,80,61
India,TamilNadu,Ariyalur,"Keelapalur, Ariyalur - TNPCB",28-09-2025 07:00:00,11.06825,79.07033,PM2.5,NA,NA,NA
India,TamilNadu,Thoothukudi,"Meelavittan, Thoothukudi - TNPCB",28-09-2025 07:00:00,8.816428 ,78.099039,CO,6,43,32
India,TamilNadu,Thoothukudi,"Meelavittan, Thoothukudi - TNPCB",28-09-2025 07:00:00,8.816428 ,78.099039,OZONE,NA,NA,NA
India,TamilNadu,Tiruchirappalli,"St Joseph College, Tiruchirappalli - TNPCB",28-09-2025 07:00:00,10.830158,78.691849,NO2,4,9,7
India,TamilNadu,Tirunelveli,"Municipal Corporation Office, Tirunelveli - TNPCB",28-09-2025 07:00:00,8.728442,77.6962,PM10,19,42,26
India,TamilNadu,Tirunelveli,"Municipal Corporation Office, Tirunelveli - TNPCB",28-09-2025 07:00:00,8.728442,77.6962,SO2,33,47,39
India,TamilNadu,Ooty,"Bombay Castel, Ooty - TNPCB",28-09-2025 07:00:00,11.4068288,76.7138973,PM2.5,2,52,21
India,TamilNadu,Ooty,"Bombay Castel, Ooty - TNPCB",28-09-2025 07:00:00,11.4068288,76.7138973,PM10,27,169,75
India,TamilNadu,Ooty,"Bombay Castel, Ooty - TNPCB",28-09-2025 07:00:00,11.4068288,76.7138973,NO2,2,5,3
India,TamilNadu,Ooty,"Bombay Castel, Ooty - TNPCB",28-09-2025 07:00:00,11.4068288,76.7138973,SO2,29,33,30
India,TamilNadu,Ramanathapuram,"Chalai Bazaar, Ramanathapuram - TNPCB",28-09-2025 07:00:00,9.36399,78.831977,OZONE,2,6,4
India,TamilNadu,Ranipet,"VOC Nagar_SIPCOT, Ranipet - TNPCB",28-09-2025 07:00:00,12.952707,79.30394,SO2,23,23,23
India,TamilNadu,Ooty,"Bombay Castel, Ooty - TNPCB",28-09-2025 07:00:00,11.4068288,76.7138973,OZONE,5,5,5
India,TamilNadu,Perundurai,"SIPCOT Industrial Park, Perundurai - TNPCB",28-09-2025 07:00:00,11.258242,77.552761,SO2,22,22,22
India,TamilNadu,Pudukottai,"SIPCOT Nathampannai, Pudukottai - TNPCB",28-09-2025 07:00:00,10.423417,78.784889,PM10,18,54,33
India,TamilNadu,Pudukottai,"SIPCOT Nathampannai, Pudukottai - TNPCB",28-09-2025 07:00:00,10.423417,78.784889,NH3,2,3,2
India,TamilNadu,Ramanathapuram,"Chalai Bazaar, Ramanathapuram - TNPCB",28-09-2025 07:00:00,9.36399,78.831977,NH3,2,2,2
India,TamilNadu,Ramanathapuram,"Chalai Bazaar, Ramanathapuram - TNPCB",28-09-2025 07:00:00,9.36399,78.831977,CO,24,28,27
India,TamilNadu,Dindigul,"Mendonsa Colony, Dindigul - TNPCB",28-09-2025 07:00:00,10.358535,77.984321,CO,10,14,12
India,TamilNadu,Vellore,"Vasanthapuram, Vellore - TNPCB",28-09-2025 07:00:00,12.909494,79.131861,PM2.5,14,48,26
India,TamilNadu,Madurai,"Uchapatti, Madurai - TNPCB",28-09-2025 07:00:00,9.865935,78.022669,PM2.5,16,33,24
India,Telangana,Hyderabad,"Kokapet, Hyderabad - TSPCB",28-09-2025 07:00:00,17.393559,78.339194,PM2.5,38,48,42
India,Telangana,Hyderabad,"Kokapet, Hyderabad - TSPCB",28-09-2025 07:00:00,17.393559,78.339194,NO2,12,15,13
India,Telangana,Hyderabad,"Kompally Municipal Office, Hyderabad - TSPCB",28-09-2025 07:00:00,17.544899,78.486949,PM10,NA,NA,NA
India,Telangana,Hyderabad,"Kompally Municipal Office, Hyderabad - TSPCB",28-09-2025 07:00:00,17.544899,78.486949,OZONE,18,23,19
India,Telangana,Hyderabad,"Nacharam_TSIIC IALA, Hyderabad - TSPCB",28-09-2025 07:00:00,17.429398,78.569354,NH3,5,7,6
India,Telangana,Hyderabad,"New Malakpet, Hyderabad - TSPCB",28-09-2025 07:00:00,17.37206,78.50864,CO,22,31,25
India,Telangana,Hyderabad,"Sanathnagar, Hyderabad - TSPCB",28-09-2025 07:00:00,17.4559458,78.4332152,PM2.5,13,53,28
India,Telangana,Hyderabad,"Sanathnagar, Hyderabad - TSPCB",28-09-2025 07:00:00,17.4559458,78.4332152,NO2,26,30,28
India,Telangana,Hyderabad,"Sanathnagar, Hyderabad - TSPCB",28-09-2025 07:00:00,17.4559458,78.4332152,CO,2,18,5
India,Uttar_Pradesh,Agra,"Manoharpur, Agra - UPPCB",28-09-2025 07:00:00,27.23711,78.01936,OZONE,8,8,8
India,Uttar_Pradesh,Agra,"Rohta, Agra - UPPCB",28-09-2025 07:00:00,27.106972,78.000111,PM2.5,40,186,104
India,Uttar_Pradesh,Agra,"Rohta, Agra - UPPCB",28-09-2025 07:00:00,27.106972,78.000111,SO2,15,18,16
India,Uttar_Pradesh,Agra,"Rohta, Agra - UPPCB",28-09-2025 07:00:00,27.106972,78.000111,OZONE,11,12,12
India,Uttar_Pradesh,Agra,"Sector-3B Avas Vikas Colony, Agra - UPPCB",28-09-2025 07:00:00,27.19412,77.96237,SO2,6,8,6
India,Uttar_Pradesh,Agra,"Sector-3B Avas Vikas Colony, Agra - UPPCB",28-09-2025 07:00:00,27.19412,77.96237,CO,24,42,31
India,Uttar_Pradesh,Agra,"Shahjahan Garden, Agra - UPPCB",28-09-2025 07:00:00,27.169338,78.03582,OZONE,1,28,2
India,Uttar_Pradesh,Agra,"Shastripuram, Agra - UPPCB",28-09-2025 07:00:00,27.19862,77.92066,NO2,32,33,33
India,Uttar_Pradesh,Agra,"Shastripuram, Agra - UPPCB",28-09-2025 07:00:00,27.19862,77.92066,SO2,20,34,26
India,Uttar_Pradesh,Bareilly,"Civil Lines, Bareilly - UPPCB",28-09-2025 07:00:00,28.359581,79.414455,NH3,NA,NA,NA
India,Uttar_Pradesh,Bareilly,"Rajendra Nagar, Bareilly - UPPCB",28-09-2025 07:00:00,28.38910936,79.42963708,SO2,NA,NA,NA
India,Uttar_Pradesh,Bulandshahr,"Yamunapuram, Bulandshahr - UPPCB",28-09-2025 07:00:00,28.406963,77.849831,PM10,33,155,93
India,Uttar_Pradesh,Bulandshahr,"Yamunapuram, Bulandshahr - UPPCB",28-09-2025 07:00:00,28.406963,77.849831,CO,24,57,26
India,Telangana,Hyderabad,"Somajiguda, Hyderabad - TSPCB",28-09-2025 07:00:00,17.417094,78.457437,NO2,14,17,15
India,Telangana,Hyderabad,"Somajiguda, Hyderabad - TSPCB",28-09-2025 07:00:00,17.417094,78.457437,OZONE,22,32,25
India,Telangana,Hyderabad,"Zoo Park, Hyderabad - TSPCB",28-09-2025 07:00:00,17.349694,78.451437,PM2.5,NA,NA,NA
India,Telangana,Hyderabad,"Zoo Park, Hyderabad - TSPCB",28-09-2025 07:00:00,17.349694,78.451437,NO2,10,12,11
India,Telangana,Hyderabad,"Zoo Park, Hyderabad - TSPCB",28-09-2025 07:00:00,17.349694,78.451437,SO2,1,7,4
India,TamilNadu,Virudhunagar,"Collectorate Office, Virudhunagar - TNPCB",28-09-2025 07:00:00,9.559382,77.948828,PM10,26,113,40
India,TamilNadu,Virudhunagar,"Collectorate Office, Virudhunagar - TNPCB",28-09-2025 07:00:00,9.559382,77.948828,OZONE,3,4,4
India,Telangana,Hyderabad,"Bollaram Industrial Area, Hyderabad - TSPCB",28-09-2025 07:00:00,17.540891,78.358528,NO2,25,57,34
India,Telangana,Hyderabad,"ECIL Kapra, Hyderabad - TSPCB",28-09-2025 07:00:00,17.470431,78.566959,PM2.5,36,37,37
India,Telangana,Hyderabad,"ECIL Kapra, Hyderabad - TSPCB",28-09-2025 07:00:00,17.470431,78.566959,NO2,12,30,22
India,Telangana,Hyderabad,"ICRISAT Patancheru, Hyderabad - TSPCB",28-09-2025 07:00:00,17.518400,78.278777,SO2,7,16,12
India,Telangana,Hyderabad,"ECIL Kapra, Hyderabad - TSPCB",28-09-2025 07:00:00,17.470431,78.566959,OZONE,9,27,11
India,Telangana,Hyderabad,"IITH Kandi, Hyderabad - TSPCB",28-09-2025 07:00:00,17.585705,78.126199,PM10,74,74,74
India,Uttar_Pradesh,Gorakhpur,"Madan Mohan Malaviya University of Technology, Gorakhpur - UPPCB",28-09-2025 07:00:00,26.730136,83.433859,OZONE,3,19,7
India,Uttar_Pradesh,Greater Noida,"Knowledge Park - V, Greater Noida - UPPCB",28-09-2025 07:00:00,28.557054,77.453663,NO2,23,123,58
India,Uttar_Pradesh,Greater Noida,"Knowledge Park - V, Greater Noida - UPPCB",28-09-2025 07:00:00,28.557054,77.453663,OZONE,3,147,10
India,Uttar_Pradesh,Hapur,"Anand Vihar, Hapur - UPPCB",28-09-2025 07:00:00,28.725645,77.749675,PM2.5,63,152,107
India,Uttar_Pradesh,Hapur,"Anand Vihar, Hapur - UPPCB",28-09-2025 07:00:00,28.725645,77.749675,PM10,86,167,124
India,Uttar_Pradesh,Lucknow,"B R Ambedkar University, Lucknow - UPPCB",28-09-2025 07:00:00,26.766433,80.927299,NH3,4,4,4
India,Uttar_Pradesh,Lucknow,"Gomti Nagar, Lucknow - UPPCB",28-09-2025 07:00:00,26.868120,81.005119,PM10,20,58,39
India,Uttar_Pradesh,Lucknow,"Gomti Nagar, Lucknow - UPPCB",28-09-2025 07:00:00,26.868120,81.005119,SO2,10,11,10
India,Uttar_Pradesh,Lucknow,"Kendriya Vidyalaya, Lucknow - CPCB",28-09-2025 07:00:00,26.906111,80.948222,PM2.5,NA,NA,NA
India,Uttar_Pradesh,Lucknow,"Kendriya Vidyalaya, Lucknow - CPCB",28-09-2025 07:00:00,26.906111,80.948222,NO2,NA,NA,NA
India,Uttar_Pradesh,Lucknow,"Kendriya Vidyalaya, Lucknow - CPCB",28-09-2025 07:00:00,26.906111,80.948222,NH3,NA,NA,NA
India,Uttar_Pradesh,Ghaziabad,"Loni, Ghaziabad - UPPCB",28-09-2025 07:00:00,28.757294,77.278792,SO2,3,18,11
India,Uttar_Pradesh,Ghaziabad,"Loni, Ghaziabad - UPPCB",28-09-2025 07:00:00,28.757294,77.278792,CO,49,102,76
India,Uttar_Pradesh,Ghaziabad,"Sanjay Nagar, Ghaziabad - UPPCB",28-09-2025 07:00:00,28.685382,77.453839,PM10,64,226,154
India,Uttar_Pradesh,Ghaziabad,"Sanjay Nagar, Ghaziabad - UPPCB",28-09-2025 07:00:00,28.685382,77.453839,NO2,31,94,56
India,Uttar_Pradesh,Hapur,"Anand Vihar, Hapur - UPPCB",28-09-2025 07:00:00,28.725645,77.749675,CO,36,47,40
India,Uttar_Pradesh,Kanpur,"FTI Kidwai Nagar, Kanpur - UPPCB",28-09-2025 07:00:00,26.428282,80.327067,PM10,22,49,34
India,Uttar_Pradesh,Kanpur,"NSI Kalyanpur, Kanpur - UPPCB",28-09-2025 07:00:00,26.509954,80.249612,OZONE,21,26,24
India,Uttar_Pradesh,Kanpur,"Nehru Nagar, Kanpur - UPPCB",28-09-2025 07:00:00,26.4703136,80.3229863,PM2.5,24,71,40
India,Uttar_Pradesh,Ghaziabad,"Indirapuram, Ghaziabad - UPPCB",28-09-2025 07:00:00,28.646233,77.358075,PM2.5,NA,NA,NA
India,Uttar_Pradesh,Ghaziabad,"Indirapuram, Ghaziabad - UPPCB",28-09-2025 07:00:00,28.646233,77.358075,NH3,NA,NA,NA
India,Uttar_Pradesh,Ghaziabad,"Indirapuram, Ghaziabad - UPPCB",28-09-2025 07:00:00,28.646233,77.358075,CO,NA,NA,NA
India,Uttar_Pradesh,Ghaziabad,"Vasundhara, Ghaziabad - UPPCB",28-09-2025 07:00:00,28.6603346,77.3572563,PM2.5,45,237,126
India,Uttar_Pradesh,Firozabad,"Nagla Bhau, Firozabad - UPPCB",28-09-2025 07:00:00,27.168897,78.376960,PM2.5,4,34,19
India,Uttar_Pradesh,Firozabad,"Vibhab Nagar, Firozabad - UPPCB",28-09-2025 07:00:00,27.1594,78.3953,SO2,9,14,12
India,Uttar_Pradesh,Lucknow,"Talkatora District Industries Center, Lucknow - CPCB",28-09-2025 07:00:00,26.83399722,80.8917361,SO2,1,19,7
India,Uttar_Pradesh,Meerut,"Ganga Nagar, Meerut - UPPCB",28-09-2025 07:00:00,28.999264,77.7590354,PM10,87,201,148
India,Uttar_Pradesh,Meerut,"Ganga Nagar, Meerut - UPPCB",28-09-2025 07:00:00,28.999264,77.7590354,NO2,30,50,36
India,Uttar_Pradesh,Meerut,"Ganga Nagar, Meerut - UPPCB",28-09-2025 07:00:00,28.999264,77.7590354,NH3,4,5,5
India,Uttar_Pradesh,Meerut,"Ganga Nagar, Meerut - UPPCB",28-09-2025 07:00:00,28.999264,77.7590354,SO2,13,23,16
India,Uttar_Pradesh,Meerut,"Ganga Nagar, Meerut - UPPCB",28-09-2025 07:00:00,28.999264,77.7590354,CO,39,80,54
India,Uttar_Pradesh,Noida,"Sector-1, Noida - UPPCB",28-09-2025 07:00:00,28.5898,77.3101,SO2,7,11,9
India,Uttar_Pradesh,Noida,"Sector-1, Noida - UPPCB",28-09-2025 07:00:00,28.5898,77.3101,CO,16,70,29
India,Uttar_Pradesh,Noida,"Sector-116, Noida - UPPCB",28-09-2025 07:00:00,28.569230,77.393848,CO,14,106,31
India,Uttar_Pradesh,Noida,"Sector-116, Noida - UPPCB",28-09-2025 07:00:00,28.569230,77.393848,OZONE,16,208,25
India,Uttar_Pradesh,Prayagraj,"Motilal Nehru NIT, Prayagraj - UPPCB",28-09-2025 07:00:00,25.494,81.863,NO2,12,12,12
India,Uttar_Pradesh,Meerut,"Pallavpuram Phase 2, Meerut - UPPCB",28-09-2025 07:00:00,29.063510,77.709723,SO2,11,24,16
India,Uttar_Pradesh,Moradabad,"Buddhi Vihar, Moradabad - UPPCB",28-09-2025 07:00:00,28.83526,78.74460,SO2,27,28,28
India,Uttar_Pradesh,Moradabad,"Buddhi Vihar, Moradabad - UPPCB",28-09-2025 07:00:00,28.83526,78.74460,OZONE,10,42,15
India,Uttar_Pradesh,Moradabad,"Eco Herbal Park, Moradabad - UPPCB",28-09-2025 07:00:00,28.840739,78.697531,PM10,57,158,108
India,Uttar_Pradesh,Moradabad,"Jigar Colony, Moradabad - UPPCB",28-09-2025 07:00:00,28.856664,78.772638,NO2,24,25,25
India,Uttar_Pradesh,Moradabad,"Jigar Colony, Moradabad - UPPCB",28-09-2025 07:00:00,28.856664,78.772638,OZONE,18,21,19
India,Uttar_Pradesh,Moradabad,"Kashiram Nagar, Moradabad - UPPCB",28-09-2025 07:00:00,28.849399,78.742362,PM2.5,48,159,89
India,Uttar_Pradesh,Moradabad,"Kashiram Nagar, Moradabad - UPPCB",28-09-2025 07:00:00,28.849399,78.742362,OZONE,21,24,22
India,Uttar_Pradesh,Moradabad,"Transport Nagar, Moradabad - UPPCB",28-09-2025 07:00:00,28.802625,78.753728,PM10,NA,NA,NA
India,Uttar_Pradesh,Moradabad,"Transport Nagar, Moradabad - UPPCB",28-09-2025 07:00:00,28.802625,78.753728,NH3,5,6,5
India,Uttar_Pradesh,Muzaffarnagar,"New Mandi, Muzaffarnagar - UPPCB",28-09-2025 07:00:00,29.4723508,77.7194031,NO2,8,63,28
India,Uttar_Pradesh,Moradabad,"Employment Office, Moradabad - UPPCB",28-09-2025 07:00:00,28.88528,78.73880,PM10,83,137,109
India,Uttar_Pradesh,Moradabad,"Employment Office, Moradabad - UPPCB",28-09-2025 07:00:00,28.88528,78.73880,NO2,15,16,16
India,Uttar_Pradesh,Moradabad,"Employment Office, Moradabad - UPPCB",28-09-2025 07:00:00,28.88528,78.73880,SO2,36,51,38
India,Uttar_Pradesh,Muzaffarnagar,"New Mandi, Muzaffarnagar - UPPCB",28-09-2025 07:00:00,29.4723508,77.7194031,OZONE,1,116,22
India,Uttar_Pradesh,Meerut,"Jai Bhim Nagar, Meerut - UPPCB",28-09-2025 07:00:00,28.9535882,77.7622941,OZONE,9,179,16
India,Uttar_Pradesh,Lucknow,"Lalbagh, Lucknow - CPCB",28-09-2025 07:00:00,26.8458805,80.9365541,NO2,24,47,37
India,West_Bengal,Durgapur,"PCBL Residential Complex, Durgapur - WBPCB",28-09-2025 07:00:00,23.5087640,87.3544400,NO2,4,19,12
India,West_Bengal,Durgapur,"PCBL Residential Complex, Durgapur - WBPCB",28-09-2025 07:00:00,23.5087640,87.3544400,CO,47,97,69
India,West_Bengal,Durgapur,"Womens College_City Center, Durgapur - WBPCB (Formerly known as Sidhu Kanhu Indoor Stadium)",28-09-2025 07:00:00,23.549395,87.300496,PM2.5,4,50,18
India,West_Bengal,Haldia,"Priyambada Housing Estate, Haldia - WBPCB",28-09-2025 07:00:00,22.06047,88.109737,PM10,29,92,48
India,West_Bengal,Haldia,"Priyambada Housing Estate, Haldia - WBPCB",28-09-2025 07:00:00,22.06047,88.109737,SO2,11,15,13
India,West_Bengal,Howrah,"Belur Math, Howrah - WBPCB",28-09-2025 07:00:00,22.629801,88.352017,PM10,29,50,43
India,West_Bengal,Howrah,"Belur Math, Howrah - WBPCB",28-09-2025 07:00:00,22.629801,88.352017,NH3,4,5,4
India,West_Bengal,Howrah,"Botanical Garden, Howrah - WBPCB",28-09-2025 07:00:00,22.554954,88.292568,NH3,1,2,2
India,West_Bengal,Howrah,"Botanical Garden, Howrah - WBPCB",28-09-2025 07:00:00,22.554954,88.292568,CO,66,70,69
India,West_Bengal,Howrah,"Dasnagar, Howrah - WBPCB",28-09-2025 07:00:00,22.6025571,88.3105664,PM10,30,57,43
India,Uttarakhand,Kashipur,"Govt. Girls Inter College, Kashipur - UKPCB",28-09-2025 07:00:00,29.2124114,78.9611753,OZONE,1,3,1
India,West_Bengal,Asansol,"Asansol Court Area, Asansol - WBPCB",28-09-2025 07:00:00,23.685297,86.945968,SO2,10,15,13
India,West_Bengal,Asansol,"Asansol Court Area, Asansol - WBPCB",28-09-2025 07:00:00,23.685297,86.945968,OZONE,11,22,12
India,West_Bengal,Asansol,"Evelyn Lodge, Asansol - WBPCB",28-09-2025 07:00:00,23.6979360,86.9443950,PM2.5,17,54,31
India,West_Bengal,Asansol,"Evelyn Lodge, Asansol - WBPCB",28-09-2025 07:00:00,23.6979360,86.9443950,CO,6,27,21
India,West_Bengal,Asansol,"Trivenidevi Bhalotia College, Asansol - WBPCB",28-09-2025 07:00:00,23.616515,87.119133,NO2,10,38,21
India,West_Bengal,Barrackpore,"SVSPA Campus, Barrackpore - WBPCB",28-09-2025 07:00:00,22.7605581,88.3617589,NH3,5,7,6
India,West_Bengal,Barrackpore,"SVSPA Campus, Barrackpore - WBPCB",28-09-2025 07:00:00,22.7605581,88.3617589,SO2,14,14,14
India,Uttar_Pradesh,Varanasi,"Maldahiya, Varanasi - UPPCB",28-09-2025 07:00:00,25.32393,82.99687,SO2,29,31,29
India,Uttar_Pradesh,Vrindavan,"Omex Eternity, Vrindavan - UPPCB",28-09-2025 07:00:00,27.5714090,77.6557570,NO2,12,12,12
India,Uttar_Pradesh,Vrindavan,"Omex Eternity, Vrindavan - UPPCB",28-09-2025 07:00:00,27.5714090,77.6557570,NH3,1,2,2
India,Uttar_Pradesh,Vrindavan,"Omex Eternity, Vrindavan - UPPCB",28-09-2025 07:00:00,27.5714090,77.6557570,OZONE,15,15,15
India,Uttarakhand,Dehradun,"Doon University, Dehradun - UKPCB",28-09-2025 07:00:00,30.269444,78.044167,NO2,1,4,1
India,Uttarakhand,Kashipur,"Govt. Girls Inter College, Kashipur - UKPCB",28-09-2025 07:00:00,29.2124114,78.9611753,PM10,12,259,60
India,Uttar_Pradesh,Varanasi,"Ardhali Bazar, Varanasi - UPPCB",28-09-2025 07:00:00,25.3505986,82.9083074,CO,4,26,10
India,Uttar_Pradesh,Varanasi,"Bhelupur, Varanasi - UPPCB",28-09-2025 07:00:00,25.301778,82.996789,PM10,5,46,30
India,Uttar_Pradesh,Varanasi,"Bhelupur, Varanasi - UPPCB",28-09-2025 07:00:00,25.301778,82.996789,NO2,8,8,8
India,Uttar_Pradesh,Varanasi,"Bhelupur, Varanasi - UPPCB",28-09-2025 07:00:00,25.301778,82.996789,SO2,27,29,28
India,Uttar_Pradesh,Varanasi,"Bhelupur, Varanasi - UPPCB",28-09-2025 07:00:00,25.301778,82.996789,CO,4,10,6
India,Uttar_Pradesh,Varanasi,"Bhelupur, Varanasi - UPPCB",28-09-2025 07:00:00,25.301778,82.996789,OZONE,2,5,3
India,West_Bengal,Howrah,"Ghusuri, Howrah - WBPCB",28-09-2025 07:00:00,22.611968,88.347422,SO2,6,11,9
India,West_Bengal,Howrah,"Padmapukur, Howrah - WBPCB",28-09-2025 07:00:00,22.5687319,88.2797276,PM2.5,18,50,32
India,West_Bengal,Howrah,"Padmapukur, Howrah - WBPCB",28-09-2025 07:00:00,22.5687319,88.2797276,NO2,11,23,16
India,West_Bengal,Kolkata,"Ballygunge, Kolkata - WBPCB",28-09-2025 07:00:00,22.5367507,88.3638022,PM2.5,23,45,33
India,West_Bengal,Kolkata,"Fort William, Kolkata - WBPCB",28-09-2025 07:00:00,22.556640,88.342674,PM10,27,42,34
India,West_Bengal,Kolkata,"Fort William, Kolkata - WBPCB",28-09-2025 07:00:00,22.556640,88.342674,SO2,8,9,8
India,West_Bengal,Kolkata,"Jadavpur, Kolkata - WBPCB",28-09-2025 07:00:00,22.49929,88.36917,NO2,23,36,26
India,West_Bengal,Kolkata,"Rabindra Bharati University, Kolkata - WBPCB",28-09-2025 07:00:00,22.627847,88.380669,PM2.5,6,20,14
India,West_Bengal,Kolkata,"Rabindra Bharati University, Kolkata - WBPCB",28-09-2025 07:00:00,22.627847,88.380669,CO,18,22,20
India,Uttar_Pradesh,Prayagraj,"Nagar Nigam, Prayagraj - UPPCB",28-09-2025 07:00:00,25.44919916 ,81.82735986 ,NO2,5,5,5
India,West_Bengal,Howrah,"Ghusuri, Howrah - WBPCB",28-09-2025 07:00:00,22.611968,88.347422,PM10,24,45,32
India,West_Bengal,Kolkata,"Rabindra Sarobar, Kolkata - WBPCB",28-09-2025 07:00:00,22.51106,88.35142,OZONE,5,21,5
India,West_Bengal,Kolkata,"Victoria, Kolkata - WBPCB",28-09-2025 07:00:00,22.5448082,88.3403691,PM10,44,59,52
India,West_Bengal,Siliguri,"Ward-32 Bapupara, Siliguri - WBPCB",28-09-2025 07:00:00,26.6879226,88.4152495,PM10,45,77,57
India,West_Bengal,Siliguri,"Ward-32 Bapupara, Siliguri - WBPCB",28-09-2025 07:00:00,26.6879226,88.4152495,SO2,10,12,11
India,West_Bengal,Siliguri,"Ward-32 Bapupara, Siliguri - WBPCB",28-09-2025 07:00:00,26.6879226,88.4152495,CO,30,62,47
India,Assam,Sivasagar,"Girls College, Sivasagar - PCBA",28-09-2025 07:00:00,26.987634,94.636574,CO,9,30,21
India,Assam,Sivasagar,"Girls College, Sivasagar - PCBA",28-09-2025 07:00:00,26.987634,94.636574,OZONE,2,5,3
India,Bihar,Aurangabad,"Gurdeo Nagar, Aurangabad - BSPCB",28-09-2025 07:00:00,24.75746,84.366208,SO2,7,15,12
India,Bihar,Aurangabad,"Gurdeo Nagar, Aurangabad - BSPCB",28-09-2025 07:00:00,24.75746,84.366208,OZONE,3,12,6
India,Bihar,Begusarai,"Lohiyanagar, Begusarai - BSPCB",28-09-2025 07:00:00,25.42742023,86.13886079,SO2,18,38,26
India,Bihar,Bettiah,"Kamalnath Nagar, Bettiah - BSPCB",28-09-2025 07:00:00,26.80365,84.51954,SO2,4,24,14
India,Bihar,Bettiah,"Kamalnath Nagar, Bettiah - BSPCB",28-09-2025 07:00:00,26.80365,84.51954,CO,38,70,42
India,Andhra_Pradesh,Amaravati,"Secretariat, Amaravati - APPCB",28-09-2025 07:00:00,16.5150833,80.5181667,OZONE,4,20,8
India,Andhra_Pradesh,Anantapur,"Gulzarpet, Anantapur - APPCB",28-09-2025 07:00:00,14.675886,77.593027,NH3,5,5,5
India,Andhra_Pradesh,Anantapur,"Gulzarpet, Anantapur - APPCB",28-09-2025 07:00:00,14.675886,77.593027,SO2,3,14,9
India,Andhra_Pradesh,Anantapur,"Gulzarpet, Anantapur - APPCB",28-09-2025 07:00:00,14.675886,77.593027,OZONE,10,16,12
India,Andhra_Pradesh,Chittoor,"Gangineni Cheruvu, Chittoor - APPCB",28-09-2025 07:00:00,13.204880,79.097889,PM10,NA,NA,NA
India,Andhra_Pradesh,Chittoor,"Gangineni Cheruvu, Chittoor - APPCB",28-09-2025 07:00:00,13.204880,79.097889,NO2,NA,NA,NA
India,Andhra_Pradesh,Chittoor,"Gangineni Cheruvu, Chittoor - APPCB",28-09-2025 07:00:00,13.204880,79.097889,NH3,NA,NA,NA
India,Andhra_Pradesh,Chittoor,"Gangineni Cheruvu, Chittoor - APPCB",28-09-2025 07:00:00,13.204880,79.097889,SO2,10,11,10
India,Andhra_Pradesh,Kadapa,"Yerramukkapalli, Kadapa - APPCB",28-09-2025 07:00:00,14.465052,78.824187,NO2,12,18,14
India,Andhra_Pradesh,Kadapa,"Yerramukkapalli, Kadapa - APPCB",28-09-2025 07:00:00,14.465052,78.824187,OZONE,35,49,41
India,Andhra_Pradesh,Rajamahendravaram,"Anand Kala Kshetram, Rajamahendravaram - APPCB",28-09-2025 07:00:00,16.9872867,81.7363176,NH3,1,3,2
India,Andhra_Pradesh,Rajamahendravaram,"Anand Kala Kshetram, Rajamahendravaram - APPCB",28-09-2025 07:00:00,16.9872867,81.7363176,CO,10,26,15
India,Andhra_Pradesh,Vijayawada,"HB Colony, Vijayawada - APPCB",28-09-2025 07:00:00,16.536107,80.594233,SO2,NA,NA,NA
India,Andhra_Pradesh,Visakhapatnam,"GVM Corporation, Visakhapatnam - APPCB",28-09-2025 07:00:00,17.72,83.3,NO2,14,65,44
India,Andhra_Pradesh,Visakhapatnam,"GVM Corporation, Visakhapatnam - APPCB",28-09-2025 07:00:00,17.72,83.3,CO,17,101,31
India,Assam,Nalbari,"Bata Chowk, Nalbari - PCBA",28-09-2025 07:00:00,26.446912,91.439057,SO2,13,22,20
India,Assam,Nalbari,"Bata Chowk, Nalbari - PCBA",28-09-2025 07:00:00,26.446912,91.439057,CO,6,30,26
India,Andhra_Pradesh,Amaravati,"Secretariat, Amaravati - APPCB",28-09-2025 07:00:00,16.5150833,80.5181667,NH3,4,5,5
India,Arunachal_Pradesh,Naharlagun,"Naharlagun, Naharlagun - APSPCB",28-09-2025 07:00:00,27.103358,93.679645,OZONE,4,5,5
India,Andhra_Pradesh,Tirumala,"Toll Gate, Tirumala - APPCB",28-09-2025 07:00:00,13.67,79.35,CO,4,40,20
India,Assam,Nagaon,"Christianpatty, Nagaon - PCBA",28-09-2025 07:00:00,26.349082,92.68449,OZONE,6,20,8
India,Assam,Guwahati,"IITG, Guwahati - PCBA",28-09-2025 07:00:00,26.2028636,91.70046436,SO2,21,26,23
India,Bihar,Gaya,"Collectorate, Gaya - BSPCB",28-09-2025 07:00:00,24.7955,84.9994,NO2,3,10,9
India,Bihar,Gaya,"Kareemganj, Gaya - BSPCB",28-09-2025 07:00:00,24.792403,84.992416,PM2.5,10,60,39
India,Bihar,Gaya,"Kareemganj, Gaya - BSPCB",28-09-2025 07:00:00,24.792403,84.992416,CO,28,42,36
India,Bihar,Hajipur,"Industrial Area, Hajipur - BSPCB",28-09-2025 07:00:00,25.697189,85.245900,PM2.5,26,66,50
India,Bihar,Katihar,"Mirchaibari, Katihar - BSPCB",28-09-2025 07:00:00,25.560083,87.553265,PM2.5,30,40,34
India,Bihar,Kishanganj,"SDM Office_Khagra, Kishanganj - BSPCB",28-09-2025 07:00:00,26.0881305,87.93840336,PM2.5,33,376,73
India,Bihar,Muzaffarpur,"MIT-Daudpur Kothi, Muzaffarpur - BSPCB",28-09-2025 07:00:00,26.1403345,85.3650192,NH3,1,1,1
India,Bihar,Patna,"DRM Office Danapur, Patna - BSPCB",28-09-2025 07:00:00,25.586562,85.043586,PM10,45,74,61
India,Bihar,Patna,"DRM Office Danapur, Patna - BSPCB",28-09-2025 07:00:00,25.586562,85.043586,NO2,27,35,31
India,Bihar,Patna,"Govt. High School Shikarpur, Patna - BSPCB",28-09-2025 07:00:00,25.592539,85.227158,CO,10,26,19
India,Bihar,Bhagalpur,"DM Office_Kachari Chowk, Bhagalpur - BSPCB",28-09-2025 07:00:00,25.251013,86.989001,NO2,14,20,16
India,Bihar,Bhagalpur,"Mayaganj, Bhagalpur - BSPCB",28-09-2025 07:00:00,25.265194,87.012947,OZONE,23,31,30
India,Bihar,Bihar Sharif,"D M Colony, Bihar Sharif - BSPCB",28-09-2025 07:00:00,25.204762,85.514960,PM10,60,111,86
India,Bihar,Patna,"Rajbansi Nagar, Patna - BSPCB",28-09-2025 07:00:00,25.599486,85.113666,PM10,28,46,36
India,Bihar,Rajgir,"Dangi Tola, Rajgir - BSPCB",28-09-2025 07:00:00,25.03280,85.41948,PM2.5,100,111,102
India,Bihar,Patna,"IGSC Planetarium Complex, Patna - BSPCB",28-09-2025 07:00:00,25.610369,85.132568,SO2,29,32,30
India,Bihar,Patna,"IGSC Planetarium Complex, Patna - BSPCB",28-09-2025 07:00:00,25.610369,85.132568,CO,68,72,71
India,Bihar,Patna,"Muradpur, Patna - BSPCB",28-09-2025 07:00:00,25.619651,85.147382,CO,32,66,48
India,Bihar,Manguraha,"Forest Rest House, Manguraha - BSPCB",28-09-2025 07:00:00,27.308328,84.531742,PM2.5,27,123,36
India,Bihar,Manguraha,"Forest Rest House, Manguraha - BSPCB",28-09-2025 07:00:00,27.308328,84.531742,SO2,16,17,17
India,Bihar,Saharsa,"Police Line, Saharsa - BSPCB",28-09-2025 07:00:00,25.892357,86.590325,PM10,18,76,42
India,Bihar,Saharsa,"Police Line, Saharsa - BSPCB",28-09-2025 07:00:00,25.892357,86.590325,SO2,17,19,18
India,Bihar,Munger,"Town Hall, Munger - BSPCB",28-09-2025 07:00:00,25.376776,86.471523,PM2.5,43,56,48
India,Chhattisgarh,Chhal,"Nawapara SECL Colony, Chhal - CECB",28-09-2025 07:00:00,22.118125,83.140608,OZONE,33,81,36
India,Chhattisgarh,Korba,"Urja Nagar, Korba - CECB",28-09-2025 07:00:00,22.348441,82.549611,PM10,25,26,25
India,Chhattisgarh,Korba,"Urja Nagar, Korba - CECB",28-09-2025 07:00:00,22.348441,82.549611,CO,14,22,20
India,Chhattisgarh,Kunjemura,"OP Jindal School, Kunjemura - CECB",28-09-2025 07:00:00,22.126650,83.483212,CO,17,24,22
India,Chhattisgarh,Kunjemura,"OP Jindal School, Kunjemura - CECB",28-09-2025 07:00:00,22.126650,83.483212,OZONE,2,9,8
India,Chhattisgarh,Milupara,"Govt. Higher Secondary School, Milupara - CECB",28-09-2025 07:00:00,22.1910172,83.5197009,NO2,6,21,12
India,Bihar,Siwan,"Chitragupta Nagar, Siwan - BSPCB",28-09-2025 07:00:00,26.2271665,84.3570427,PM2.5,13,90,35
India,Bihar,Siwan,"Chitragupta Nagar, Siwan - BSPCB",28-09-2025 07:00:00,26.2271665,84.3570427,NO2,1,1,1
India,Chandigarh,Chandigarh,"Sector-53, Chandigarh - CPCC",28-09-2025 07:00:00,30.719859,76.738637,PM2.5,NA,NA,NA
India,Chandigarh,Chandigarh,"Sector-53, Chandigarh - CPCC",28-09-2025 07:00:00,30.719859,76.738637,PM10,NA,NA,NA
India,Chhattisgarh,Milupara,"Govt. Higher Secondary School, Milupara - CECB",28-09-2025 07:00:00,22.1910172,83.5197009,OZONE,59,75,62
India,Chhattisgarh,Raipur,"AIIMS, Raipur - CECB",28-09-2025 07:00:00,21.258815,81.578979,CO,24,51,31
India,Chhattisgarh,Raipur,"Bhatagaon New ISBT, Raipur - CECB",28-09-2025 07:00:00,21.219665,81.630094,PM2.5,NA,NA,NA
India,Chandigarh,Chandigarh,"Sector-53, Chandigarh - CPCC",28-09-2025 07:00:00,30.719859,76.738637,NO2,NA,NA,NA
India,Chhattisgarh,Bhilai,"32Bungalows, Bhilai - CECB",28-09-2025 07:00:00,21.194815,81.314770,NO2,1,35,12
India,Chhattisgarh,Bhilai,"Civic Center, Bhilai - Bhilai Steel Plant",28-09-2025 07:00:00,21.185571,81.343175,PM10,18,73,40
India,Chhattisgarh,Raipur,"Bhatagaon New ISBT, Raipur - CECB",28-09-2025 07:00:00,21.219665,81.630094,NO2,7,16,10
India,Chhattisgarh,Raipur,"Bhatagaon New ISBT, Raipur - CECB",28-09-2025 07:00:00,21.219665,81.630094,CO,10,20,11
India,Chhattisgarh,Raipur,"Krishak Nagar, Raipur - CECB",28-09-2025 07:00:00,21.237755,81.705301,PM2.5,2,20,8
India,Chhattisgarh,Bhilai,"Hathkhoj, Bhilai - CECB",28-09-2025 07:00:00,21.224231,81.408350,NH3,3,4,3
India,Chhattisgarh,Bhilai,"Hathkhoj, Bhilai - CECB",28-09-2025 07:00:00,21.224231,81.408350,CO,9,23,13
India,Chhattisgarh,Bhilai,"Hathkhoj, Bhilai - CECB",28-09-2025 07:00:00,21.224231,81.408350,OZONE,9,20,11
India,Chhattisgarh,Chhal,"Nawapara SECL Colony, Chhal - CECB",28-09-2025 07:00:00,22.118125,83.140608,NO2,3,16,9
India,Chhattisgarh,Chhal,"Nawapara SECL Colony, Chhal - CECB",28-09-2025 07:00:00,22.118125,83.140608,NH3,6,6,6
India,Bihar,Sasaram,"Dada Peer, Sasaram - BSPCB",28-09-2025 07:00:00,24.952822,84.002396,NO2,1,3,2
India,Bihar,Sasaram,"Dada Peer, Sasaram - BSPCB",28-09-2025 07:00:00,24.952822,84.002396,NH3,2,5,3
India,Bihar,Sasaram,"Dada Peer, Sasaram - BSPCB",28-09-2025 07:00:00,24.952822,84.002396,PM2.5,NA,NA,NA
India,Delhi,Delhi,"IHBAS, Dilshad Garden, Delhi - CPCB",28-09-2025 07:00:00,28.6811736,77.3025234,PM2.5,8,170,109
India,Delhi,Delhi,"IHBAS, Dilshad Garden, Delhi - CPCB",28-09-2025 07:00:00,28.6811736,77.3025234,NH3,2,3,2
India,Delhi,Delhi,"ITO, Delhi - CPCB",28-09-2025 07:00:00,28.628624,77.241060,PM2.5,46,271,140
India,Delhi,Delhi,"ITO, Delhi - CPCB",28-09-2025 07:00:00,28.628624,77.241060,PM10,65,178,131
India,Delhi,Delhi,"ITO, Delhi - CPCB",28-09-2025 07:00:00,28.628624,77.241060,NO2,78,101,89
India,Chhattisgarh,Tumidih,"OP Jindal Industrial Park, Tumidih - CECB",28-09-2025 07:00:00,22.06631475,83.33820077,NH3,1,2,2
India,Delhi,Delhi,"Alipur, Delhi - DPCC",28-09-2025 07:00:00,28.815329,77.153010,NO2,11,37,21
India,Delhi,Delhi,"Anand Vihar, Delhi - DPCC",28-09-2025 07:00:00,28.647622,77.3158090,PM10,12,366,208
India,Delhi,Delhi,"CRRI Mathura Road, Delhi - IMD",28-09-2025 07:00:00,28.5512005,77.2735737,NO2,17,44,32
India,Delhi,Delhi,"CRRI Mathura Road, Delhi - IMD",28-09-2025 07:00:00,28.5512005,77.2735737,CO,13,42,27
India,Delhi,Delhi,"Chandni Chowk, Delhi - IITM",28-09-2025 07:00:00,28.656756,77.227234,PM2.5,97,305,199
India,Delhi,Delhi,"Chandni Chowk, Delhi - IITM",28-09-2025 07:00:00,28.656756,77.227234,PM10,63,184,143
India,Delhi,Delhi,"Anand Vihar, Delhi - DPCC",28-09-2025 07:00:00,28.647622,77.3158090,NH3,2,6,3
India,Delhi,Delhi,"Anand Vihar, Delhi - DPCC",28-09-2025 07:00:00,28.647622,77.3158090,CO,48,94,59
India,Delhi,Delhi,"Anand Vihar, Delhi - DPCC",28-09-2025 07:00:00,28.647622,77.3158090,OZONE,1,79,4
India,Delhi,Delhi,"Ashok Vihar, Delhi - DPCC",28-09-2025 07:00:00,28.695381,77.181665,NH3,1,1,1
India,Delhi,Delhi,"Dr. Karni Singh Shooting Range, Delhi - DPCC",28-09-2025 07:00:00,28.498571,77.264840,CO,12,92,31
India,Delhi,Delhi,"Dr. Karni Singh Shooting Range, Delhi - DPCC",28-09-2025 07:00:00,28.498571,77.264840,OZONE,7,115,10
India,Delhi,Delhi,"Dwarka-Sector 8, Delhi - DPCC ",28-09-2025 07:00:00,28.5710274,77.0719006,CO,24,101,56
India,Delhi,Delhi,"Burari Crossing, Delhi - IMD",28-09-2025 07:00:00,28.7256504,77.2011573,CO,22,58,39
India,Delhi,Delhi,"Chandni Chowk, Delhi - IITM",28-09-2025 07:00:00,28.656756,77.227234,CO,40,68,50
India,Delhi,Delhi,"DTU, Delhi - CPCB",28-09-2025 07:00:00,28.7500499,77.1112615,OZONE,9,39,17
India,Delhi,Delhi,"Mandir Marg, Delhi - DPCC",28-09-2025 07:00:00,28.636429,77.201067,OZONE,10,309,19
India,Delhi,Delhi,"Mundka, Delhi - DPCC",28-09-2025 07:00:00,28.684678,77.076574,PM10,91,403,172
India,Delhi,Delhi,"Mundka, Delhi - DPCC",28-09-2025 07:00:00,28.684678,77.076574,OZONE,6,116,13
India,Delhi,Delhi,"NSIT Dwarka, Delhi - CPCB",28-09-2025 07:00:00,28.60909,77.0325413,PM10,67,156,117
India,Delhi,Delhi,"NSIT Dwarka, Delhi - CPCB",28-09-2025 07:00:00,28.60909,77.0325413,NO2,34,67,48
India,Delhi,Delhi,"Jahangirpuri, Delhi - DPCC",28-09-2025 07:00:00,28.732820,77.170633,OZONE,20,227,27
India,Delhi,Delhi,"Jawaharlal Nehru Stadium, Delhi - DPCC",28-09-2025 07:00:00,28.580280,77.233829,PM2.5,37,197,93
India,Delhi,Delhi,"Major Dhyan Chand National Stadium, Delhi - DPCC",28-09-2025 07:00:00,28.611281,77.237738,PM2.5,38,237,119
India,Delhi,Delhi,"Mandir Marg, Delhi - DPCC",28-09-2025 07:00:00,28.636429,77.201067,PM2.5,NA,NA,NA
India,Delhi,Delhi,"Najafgarh, Delhi - DPCC",28-09-2025 07:00:00,28.570173,76.933762,PM10,76,163,136
India,Delhi,Delhi,"Najafgarh, Delhi - DPCC",28-09-2025 07:00:00,28.570173,76.933762,NH3,4,5,4
India,Delhi,Delhi,"Najafgarh, Delhi - DPCC",28-09-2025 07:00:00,28.570173,76.933762,SO2,16,19,18
India,Delhi,Delhi,"Najafgarh, Delhi - DPCC",28-09-2025 07:00:00,28.570173,76.933762,CO,30,50,41
India,Delhi,Delhi,"Narela, Delhi - DPCC",28-09-2025 07:00:00,28.822836,77.101981,PM2.5,75,325,197
India,Delhi,Delhi,"Rohini, Delhi - DPCC",28-09-2025 07:00:00,28.732528,77.119920,PM2.5,33,304,168
India,Delhi,Delhi,"Rohini, Delhi - DPCC",28-09-2025 07:00:00,28.732528,77.119920,OZONE,4,133,12
India,Delhi,Delhi,"Shadipur, Delhi - CPCB",28-09-2025 07:00:00,28.6514781,77.1473105,NO2,61,122,86
India,Delhi,Delhi,"Patparganj, Delhi - DPCC",28-09-2025 07:00:00,28.623763,77.287209,CO,33,75,43
India,Delhi,Delhi,"Punjabi Bagh, Delhi - DPCC",28-09-2025 07:00:00,28.674045,77.131023,PM10,69,293,178
India,Delhi,Delhi,"Punjabi Bagh, Delhi - DPCC",28-09-2025 07:00:00,28.674045,77.131023,CO,35,81,53
India,Delhi,Delhi,"Pusa, Delhi - DPCC",28-09-2025 07:00:00,28.639652,77.146275,CO,15,78,49
India,Delhi,Delhi,"Pusa, Delhi - IMD",28-09-2025 07:00:00,28.636110,77.173332,PM2.5,12,241,124
India,Delhi,Delhi,"Pusa, Delhi - IMD",28-09-2025 07:00:00,28.636110,77.173332,NO2,19,69,36
India,Delhi,Delhi,"North Campus, DU, Delhi - IMD",28-09-2025 07:00:00,28.6573814,77.1585447,PM10,54,251,158
India,Delhi,Delhi,"Mandir Marg, Delhi - DPCC",28-09-2025 07:00:00,28.636429,77.201067,NO2,18,64,33
India,Delhi,Delhi,"Pusa, Delhi - DPCC",28-09-2025 07:00:00,28.639652,77.146275,PM2.5,40,333,154
India,Gujarat,Ahmedabad,"Gyaspur, Ahmedabad - IITM",28-09-2025 07:00:00,22.977134,72.553024,OZONE,13,38,20
India,Gujarat,Ahmedabad,"Maninagar, Ahmedabad - GPCB",28-09-2025 07:00:00,23.002657,72.591912,PM10,16,56,35
India,Gujarat,Ahmedabad,"Maninagar, Ahmedabad - GPCB",28-09-2025 07:00:00,23.002657,72.591912,NO2,23,29,27
India,Gujarat,Ahmedabad,"Raikhad, Ahmedabad - IITM",28-09-2025 07:00:00,23.020509,72.579261,PM2.5,28,69,45
India,Gujarat,Ahmedabad,"Rakhial, Ahmedabad - IITM",28-09-2025 07:00:00,23.016834,72.625775,SO2,11,94,32
India,Gujarat,Ahmedabad,"SAC ISRO Bopal, Ahmedabad - IITM",28-09-2025 07:00:00,23.041137,72.456691,NO2,18,24,21
India,Gujarat,Ahmedabad,"SAC ISRO Bopal, Ahmedabad - IITM",28-09-2025 07:00:00,23.041137,72.456691,NH3,2,3,3
India,Gujarat,Ahmedabad,"SAC ISRO Bopal, Ahmedabad - IITM",28-09-2025 07:00:00,23.041137,72.456691,SO2,1,1,1
India,Gujarat,Ahmedabad,"SAC ISRO Satellite, Ahmedabad - IITM",28-09-2025 07:00:00,23.023389,72.515201,PM10,59,97,76
India,Gujarat,Ahmedabad,"SAC ISRO Satellite, Ahmedabad - IITM",28-09-2025 07:00:00,23.023389,72.515201,SO2,4,13,7
India,Delhi,Delhi,"Sonia Vihar, Delhi - DPCC",28-09-2025 07:00:00,28.710508,77.249485,CO,53,95,72
India,Delhi,Delhi,"Sonia Vihar, Delhi - DPCC",28-09-2025 07:00:00,28.710508,77.249485,OZONE,4,128,10
India,Delhi,Delhi,"Sri Aurobindo Marg, Delhi - DPCC",28-09-2025 07:00:00,28.531346,77.190156,NO2,12,48,24
India,Delhi,Delhi,"Sri Aurobindo Marg, Delhi - DPCC",28-09-2025 07:00:00,28.531346,77.190156,CO,31,80,56
India,Delhi,Delhi,"Sirifort, Delhi - CPCB",28-09-2025 07:00:00,28.5504249,77.2159377,CO,17,88,58
India,Delhi,Delhi,"Sonia Vihar, Delhi - DPCC",28-09-2025 07:00:00,28.710508,77.249485,PM10,52,221,143
India,Delhi,Delhi,"Sonia Vihar, Delhi - DPCC",28-09-2025 07:00:00,28.710508,77.249485,NO2,15,43,25
India,Delhi,Delhi,"Vivek Vihar, Delhi - DPCC",28-09-2025 07:00:00,28.672342,77.315260,NO2,16,60,32
India,Delhi,Delhi,"Vivek Vihar, Delhi - DPCC",28-09-2025 07:00:00,28.672342,77.315260,NH3,8,11,9
India,Delhi,Delhi,"Vivek Vihar, Delhi - DPCC",28-09-2025 07:00:00,28.672342,77.315260,SO2,18,41,27
India,Gujarat,Gandhinagar,"IIPHG Lekawada, Gandhinagar - IITM",28-09-2025 07:00:00,23.243639,72.68994,PM2.5,11,34,22
India,Gujarat,Gandhinagar,"IIPHG Lekawada, Gandhinagar - IITM",28-09-2025 07:00:00,23.243639,72.68994,NH3,1,1,1
India,Gujarat,Gandhinagar,"Sector-10, Gandhinagar - GPCB",28-09-2025 07:00:00,23.221714,72.654328,SO2,4,8,6
India,Gujarat,Gandhinagar,"Sector-10, Gandhinagar - GPCB",28-09-2025 07:00:00,23.221714,72.654328,CO,10,18,11
India,Gujarat,Ankleshwar,"GIDC, Ankleshwar - GPCB",28-09-2025 07:00:00,21.613267,73.010555,CO,38,54,44
India,Gujarat,Ankleshwar,"GIDC, Ankleshwar - GPCB",28-09-2025 07:00:00,21.613267,73.010555,OZONE,49,102,54
India,Gujarat,Gandhinagar,"Sector-10, Gandhinagar - GPCB",28-09-2025 07:00:00,23.221714,72.654328,PM2.5,23,58,39
India,Gujarat,Ahmedabad,"Chandkheda, Ahmedabad - IITM",28-09-2025 07:00:00,23.107969,72.574648,SO2,3,16,10
India,Haryana,Faridabad,"Sector 11, Faridabad - HSPCB",28-09-2025 07:00:00,28.376058,77.315741,SO2,8,9,8
India,Haryana,Faridabad,"Sector 11, Faridabad - HSPCB",28-09-2025 07:00:00,28.376058,77.315741,CO,48,52,50
India,Haryana,Faridabad,"Sector 30, Faridabad - HSPCB",28-09-2025 07:00:00,28.4417,77.3217,NO2,36,38,37
India,Haryana,Gurugram,"NISE Gwal Pahari, Gurugram - IMD",28-09-2025 07:00:00,28.422681,77.148944,PM10,NA,NA,NA
India,Haryana,Panchgaon,"Amity University, Panchgaon - IITM",28-09-2025 07:00:00,28.3153,76.9143,SO2,1,10,5
India,Himachal Pradesh,Baddi,"HIMUDA Complex Phase-1, Baddi - HPPCB",28-09-2025 07:00:00,30.943887,76.801991,PM2.5,42,103,64
India,Himachal Pradesh,Baddi,"HIMUDA Complex Phase-1, Baddi - HPPCB",28-09-2025 07:00:00,30.943887,76.801991,SO2,18,90,34
India,Jharkhand,Dhanbad,"Sardar Patel Nagar, Dhanbad - JSPCB",28-09-2025 07:00:00,23.80569,86.44268,PM2.5,NA,NA,NA
India,Gujarat,Vapi,"Phase-1 GIDC, Vapi - GPCB",28-09-2025 07:00:00,20.362421,72.918013,PM2.5,14,121,62
India,Gujarat,Vatva,"Phase-4 GIDC, Vatva - GPCB",28-09-2025 07:00:00,22.969611,72.643500,PM2.5,41,41,41
India,Gujarat,Vatva,"Phase-4 GIDC, Vatva - GPCB",28-09-2025 07:00:00,22.969611,72.643500,SO2,8,12,10
India,Haryana,Gurugram,"NISE Gwal Pahari, Gurugram - IMD",28-09-2025 07:00:00,28.422681,77.148944,OZONE,NA,NA,NA
India,Haryana,Panchgaon,"Amity University, Panchgaon - IITM",28-09-2025 07:00:00,28.3153,76.9143,PM2.5,48,130,81
India,Karnataka,Bengaluru,"Bapuji Nagar, Bengaluru - KSPCB",28-09-2025 07:00:00,12.951913,77.539784,NO2,4,8,6
India,Karnataka,Bengaluru,"Bapuji Nagar, Bengaluru - KSPCB",28-09-2025 07:00:00,12.951913,77.539784,NH3,1,1,1
India,Karnataka,Bengaluru,"Bapuji Nagar, Bengaluru - KSPCB",28-09-2025 07:00:00,12.951913,77.539784,SO2,2,5,4
India,Jharkhand,Jorapokhar,"Tata Stadium, Jorapokhar - JSPCB",28-09-2025 07:00:00,23.707909,86.414670,PM10,NA,NA,NA
India,Jharkhand,Jorapokhar,"Tata Stadium, Jorapokhar - JSPCB",28-09-2025 07:00:00,23.707909,86.414670,OZONE,NA,NA,NA
India,Himachal Pradesh,Baddi,"HIMUDA Complex Phase-1, Baddi - HPPCB",28-09-2025 07:00:00,30.943887,76.801991,NH3,7,10,9
India,Haryana,Faridabad,"New Industrial Town, Faridabad - HSPCB",28-09-2025 07:00:00,28.39072,77.30059,CO,NA,NA,NA
India,Karnataka,Haveri,"Ashwini Nagar, Haveri - KSPCB",28-09-2025 07:00:00,14.791800,75.389600,PM2.5,22,31,26
India,Karnataka,Haveri,"Ashwini Nagar, Haveri - KSPCB",28-09-2025 07:00:00,14.791800,75.389600,CO,25,28,27
India,Karnataka,Hubballi,"Lingaraj Nagar, Hubballi - KSPCB",28-09-2025 07:00:00,15.3714823,75.1160168,CO,10,16,12
India,Karnataka,Kalaburagi,"Mahatma Basaveswar Colony, Kalaburgi - KSPCB",28-09-2025 07:00:00,17.336318,76.847397,NH3,3,4,3
India,Karnataka,Kalaburagi,"Mahatma Basaveswar Colony, Kalaburgi - KSPCB",28-09-2025 07:00:00,17.336318,76.847397,CO,30,51,33
India,Karnataka,Kalaburagi,"Mahatma Basaveswar Colony, Kalaburgi - KSPCB",28-09-2025 07:00:00,17.336318,76.847397,OZONE,NA,NA,NA
India,Karnataka,Bengaluru,"Hombegowda Nagar, Bengaluru - KSPCB",28-09-2025 07:00:00,12.938539,77.590100,NH3,1,1,1
India,Karnataka,Bengaluru,"Jayanagar 5th Block, Bengaluru - KSPCB",28-09-2025 07:00:00,12.920984,77.584908,PM10,NA,NA,NA
India,Karnataka,Bengaluru,"City Railway Station, Bengaluru - KSPCB",28-09-2025 07:00:00,12.9756843,77.5660749,NO2,47,50,48
India,Karnataka,Bengaluru,"Hebbal, Bengaluru - KSPCB",28-09-2025 07:00:00,13.029152,77.585901,PM10,12,28,20
India,Karnataka,Chamarajanagar,"Urban, Chamarajanagar - KSPCB",28-09-2025 07:00:00,11.55358,76.55521,PM2.5,19,39,30
India,Karnataka,Chamarajanagar,"Urban, Chamarajanagar - KSPCB",28-09-2025 07:00:00,11.55358,76.55521,NO2,14,30,23
India,Karnataka,Chamarajanagar,"Urban, Chamarajanagar - KSPCB",28-09-2025 07:00:00,11.55358,76.55521,CO,14,119,27
India,Karnataka,Bengaluru,"Jayanagar 5th Block, Bengaluru - KSPCB",28-09-2025 07:00:00,12.920984,77.584908,NO2,NA,NA,NA
India,Karnataka,Bengaluru,"Jayanagar 5th Block, Bengaluru - KSPCB",28-09-2025 07:00:00,12.920984,77.584908,SO2,NA,NA,NA
India,Karnataka,Kalaburagi,"Mahatma Basaveswar Colony, Kalaburgi - KSPCB",28-09-2025 07:00:00,17.336318,76.847397,PM2.5,12,20,17
India,Karnataka,Chikkamagaluru,"Kalyana Nagara, Chikkamagaluru - KSPCB",28-09-2025 07:00:00,13.328028,75.797056,PM10,23,27,25
India,Karnataka,Bengaluru,"Shivapura_Peenya, Bengaluru - KSPCB",28-09-2025 07:00:00,13.0246342,77.5080115,PM10,52,83,61
India,Karnataka,Ramanagara,"Vijay Nagar, Ramanagara - KSPCB",28-09-2025 07:00:00,12.733409,77.298051,NO2,NA,NA,NA
India,Karnataka,Ramanagara,"Vijay Nagar, Ramanagara - KSPCB",28-09-2025 07:00:00,12.733409,77.298051,CO,NA,NA,NA
India,Karnataka,Shivamogga,"Vinoba Nagara, Shivamogga - KSPCB",28-09-2025 07:00:00,13.940000,75.555917,PM10,28,33,30
India,Karnataka,Shivamogga,"Vinoba Nagara, Shivamogga - KSPCB",28-09-2025 07:00:00,13.940000,75.555917,NO2,14,19,16
India,Karnataka,Shivamogga,"Vinoba Nagara, Shivamogga - KSPCB",28-09-2025 07:00:00,13.940000,75.555917,SO2,4,5,5
India,Karnataka,Yadgir,"Collector Office, Yadgir - KSPCB",28-09-2025 07:00:00,16.7602,77.1428,PM2.5,NA,NA,NA
India,Karnataka,Yadgir,"Collector Office, Yadgir - KSPCB",28-09-2025 07:00:00,16.7602,77.1428,PM10,1,8,5
India,Madhya Pradesh,Indore,"Residency Area, Indore - IMC",28-09-2025 07:00:00,22.7084,75.8815,PM2.5,14,67,33
India,Madhya Pradesh,Indore,"Residency Area, Indore - IMC",28-09-2025 07:00:00,22.7084,75.8815,PM10,11,83,41
India,Madhya Pradesh,Indore,"Residency Area, Indore - IMC",28-09-2025 07:00:00,22.7084,75.8815,OZONE,10,14,10
India,Madhya Pradesh,Jabalpur,"Govindh Bhavan Colony, Jabalpur - JMC",28-09-2025 07:00:00,23.163174,79.973061,PM2.5,10,38,22
India,Madhya Pradesh,Jabalpur,"Govindh Bhavan Colony, Jabalpur - JMC",28-09-2025 07:00:00,23.163174,79.973061,NO2,36,39,36
India,Madhya Pradesh,Gwalior,"Maharaj Bada, Gwalior - MPPCB",28-09-2025 07:00:00,26.200388,78.147714,NO2,2,37,18
India,Madhya Pradesh,Indore,"Airport Area, Indore - IMC",28-09-2025 07:00:00,22.7289,75.8076,PM2.5,17,37,26
India,Madhya Pradesh,Indore,"Chhoti Gwaltoli, Indore - MPPCB",28-09-2025 07:00:00,22.4310,75.5213,PM2.5,15,85,46
India,Madhya Pradesh,Indore,"Chhoti Gwaltoli, Indore - MPPCB",28-09-2025 07:00:00,22.4310,75.5213,NH3,7,9,8
India,Kerala,Thiruvananthapuram,"Plammoodu, Thiruvananthapuram - Kerala PCB",28-09-2025 07:00:00,8.5149093,76.9435879,PM2.5,5,193,59
India,Kerala,Thiruvananthapuram,"Plammoodu, Thiruvananthapuram - Kerala PCB",28-09-2025 07:00:00,8.5149093,76.9435879,PM10,1,95,20
India,Kerala,Thiruvananthapuram,"Plammoodu, Thiruvananthapuram - Kerala PCB",28-09-2025 07:00:00,8.5149093,76.9435879,CO,5,16,7
India,Kerala,Thrissur,"Corporation Ground, Thrissur - Kerala PCB",28-09-2025 07:00:00,10.532400,76.215900,SO2,NA,NA,NA
India,Karnataka,Karwar,"KHB Colony, Karwar - KSPCB",28-09-2025 07:00:00,14.816666,74.141003,NH3,1,2,1
India,Karnataka,Madikeri,"Stuart Hill, Madikeri - KSPCB",28-09-2025 07:00:00,12.415911,75.735050,OZONE,4,7,4
India,Karnataka,Mysuru,"Hebbal 1st Stage, Mysuru - KSPCB",28-09-2025 07:00:00,12.21041,76.37376,PM10,18,43,30
India,Madhya Pradesh,Damoh,"Shrivastav Colony, Damoh - MPPCB",28-09-2025 07:00:00,23.81748678,79.446246,CO,22,27,25
India,Madhya Pradesh,Dewas,"Bhopal Chauraha, Dewas - MPPCB",28-09-2025 07:00:00,22.9682591,76.064118,NO2,38,54,45
India,Madhya Pradesh,Dewas,"Bhopal Chauraha, Dewas - MPPCB",28-09-2025 07:00:00,22.9682591,76.064118,NH3,3,3,3
India,Madhya Pradesh,Dewas,"Bhopal Chauraha, Dewas - MPPCB",28-09-2025 07:00:00,22.9682591,76.064118,CO,6,22,10
India,Madhya Pradesh,Indore,"Chhoti Gwaltoli, Indore - MPPCB",28-09-2025 07:00:00,22.4310,75.5213,CO,26,72,34
India,Madhya Pradesh,Indore,"Maguda Nagar, Indore - IMC",28-09-2025 07:00:00,22.7524,75.8872,PM10,7,53,25
India,Madhya Pradesh,Gwalior,"Maharaj Bada, Gwalior - MPPCB",28-09-2025 07:00:00,26.200388,78.147714,PM10,39,163,82
India,Kerala,Eloor,"Udyogamandal, Eloor - Kerala PCB",28-09-2025 07:00:00,10.073232,76.302765,PM2.5,45,59,49
India,Madhya Pradesh,Jabalpur,"Gupteshwar, Jabalpur - JMC",28-09-2025 07:00:00,23.142888,79.916147,NO2,11,20,16
India,Madhya Pradesh,Jabalpur,"Gupteshwar, Jabalpur - JMC",28-09-2025 07:00:00,23.142888,79.916147,SO2,4,9,6
India,Madhya Pradesh,Jabalpur,"Gupteshwar, Jabalpur - JMC",28-09-2025 07:00:00,23.142888,79.916147,CO,36,51,41
India,Madhya Pradesh,Jabalpur,"Marhatal, Jabalpur - MPPCB",28-09-2025 07:00:00,23.168606,79.932247,PM2.5,7,45,22
India,Madhya Pradesh,Jabalpur,"Suhagi, Jabalpur - JMC",28-09-2025 07:00:00,23.218135,79.957770,NH3,2,2,2
India,Madhya Pradesh,Jabalpur,"Suhagi, Jabalpur - JMC",28-09-2025 07:00:00,23.218135,79.957770,CO,14,51,19
India,Madhya Pradesh,Katni,"Gole Bazar, Katni - MPPCB",28-09-2025 07:00:00,23.50016,80.23284,PM10,18,46,29
India,Madhya Pradesh,Sagar,"Civil Lines, Sagar - MPPCB",28-09-2025 07:00:00,23.838586,78.759431,SO2,8,15,12
India,Madhya Pradesh,Satna,"Bandhavgar Colony, Satna - Birla Cement",28-09-2025 07:00:00,24.58434363,80.8549414,PM2.5,42,45,43
India,Madhya Pradesh,Katni,"Gole Bazar, Katni - MPPCB",28-09-2025 07:00:00,23.50016,80.23284,SO2,7,25,16
India,Madhya Pradesh,Katni,"Gole Bazar, Katni - MPPCB",28-09-2025 07:00:00,23.50016,80.23284,CO,15,30,24
India,Madhya Pradesh,Mandideep,"Sector-D Industrial Area, Mandideep - MPPCB",28-09-2025 07:00:00,23.108440,77.511428,PM2.5,26,343,92
India,Madhya Pradesh,Pithampur,"Sector-2 Industrial Area, Pithampur - MPPCB",28-09-2025 07:00:00,22.624758,75.675238,NO2,5,14,9
India,Madhya Pradesh,Mandideep,"Sector-D Industrial Area, Mandideep - MPPCB",28-09-2025 07:00:00,23.108440,77.511428,NH3,1,3,2
India,Madhya Pradesh,Mandideep,"Sector-D Industrial Area, Mandideep - MPPCB",28-09-2025 07:00:00,23.108440,77.511428,SO2,NA,NA,NA
India,Madhya Pradesh,Ratlam,"Shasthri Nagar, Ratlam - IPCA Lab",28-09-2025 07:00:00,23.331731,75.045981,PM10,22,188,111
India,Madhya Pradesh,Sagar,"Civil Lines, Sagar - MPPCB",28-09-2025 07:00:00,23.838586,78.759431,NH3,1,1,1
India,Maharashtra,Chandrapur,"Chauhan Colony, Chandrapur - MPCB",28-09-2025 07:00:00,19.962900,79.298714,SO2,34,34,34
India,Maharashtra,Chandrapur,"Chauhan Colony, Chandrapur - MPCB",28-09-2025 07:00:00,19.962900,79.298714,OZONE,23,23,23
India,Maharashtra,Chandrapur,"MIDC Khutala, Chandrapur - MPCB",28-09-2025 07:00:00,19.9775302,79.2337086,PM2.5,NA,NA,NA
India,Maharashtra,Chandrapur,"MIDC Khutala, Chandrapur - MPCB",28-09-2025 07:00:00,19.9775302,79.2337086,NO2,1,7,4
India,Maharashtra,Chandrapur,"MIDC Khutala, Chandrapur - MPCB",28-09-2025 07:00:00,19.9775302,79.2337086,SO2,8,9,9
India,Maharashtra,Chandrapur,"MIDC Khutala, Chandrapur - MPCB",28-09-2025 07:00:00,19.9775302,79.2337086,CO,36,42,39
India,Maharashtra,Jalgaon,"Prabhat Colony, Jalgaon - MPCB",28-09-2025 07:00:00,21.001264,75.565602,PM2.5,22,120,71
India,Maharashtra,Jalgaon,"Prabhat Colony, Jalgaon - MPCB",28-09-2025 07:00:00,21.001264,75.565602,NO2,3,11,6
India,Maharashtra,Jalna,"Old MIDC, Jalna - MPCB",28-09-2025 07:00:00,19.854616,75.905894,SO2,NA,NA,NA
India,Maharashtra,Aurangabad,"More Chowk Waluj, Aurangabad - MPCB",28-09-2025 07:00:00,19.8389439,75.244448,OZONE,26,29,28
India,Maharashtra,Badlapur,"Katrap, Badlapur - MPCB",28-09-2025 07:00:00,19.16485,73.23409,PM2.5,1,187,43
India,Maharashtra,Badlapur,"Katrap, Badlapur - MPCB",28-09-2025 07:00:00,19.16485,73.23409,NO2,21,31,26
India,Maharashtra,Bhiwandi,"Gokul Nagar, Bhiwandi - MPCB",28-09-2025 07:00:00,19.309073,73.057223,PM2.5,15,59,32
India,Maharashtra,Bhiwandi,"Gokul Nagar, Bhiwandi - MPCB",28-09-2025 07:00:00,19.309073,73.057223,NH3,4,6,5
India,Maharashtra,Ahmednagar,"Tarakpur, Ahmednagar - MPCB",28-09-2025 07:00:00,19.10122,74.73339,PM10,12,100,38
India,Maharashtra,Akola,"Ramdaspeth, Akola - MPCB",28-09-2025 07:00:00,20.719516,77.000253,CO,10,20,13
India,Maharashtra,Amravati,"Shivneri Colony, Amravati - MPCB",28-09-2025 07:00:00,20.9402359,77.7895248,PM10,20,77,40
India,Maharashtra,Amravati,"Shivneri Colony, Amravati - MPCB",28-09-2025 07:00:00,20.9402359,77.7895248,NO2,6,17,11
India,Maharashtra,Boisar,"Khaira, Boisar - MPCB",28-09-2025 07:00:00,19.786089,72.757971,PM10,NA,NA,NA
India,Maharashtra,Boisar,"Khaira, Boisar - MPCB",28-09-2025 07:00:00,19.786089,72.757971,NH3,2,6,4
India,Maharashtra,Chandrapur,"Chauhan Colony, Chandrapur - MPCB",28-09-2025 07:00:00,19.962900,79.298714,PM2.5,9,90,18
India,Maharashtra,Chandrapur,"Chauhan Colony, Chandrapur - MPCB",28-09-2025 07:00:00,19.962900,79.298714,NO2,22,29,24
India,Maharashtra,Latur,"Sawe Wadi, Latur - MPCB",28-09-2025 07:00:00,18.39963,76.57452,NO2,4,29,11
India,Maharashtra,Mahad,"Kamble Tarf Birwadi, Mahad - MPCB",28-09-2025 07:00:00,18.1023399,73.4783687,PM2.5,NA,NA,NA
India,Maharashtra,Mahad,"Kamble Tarf Birwadi, Mahad - MPCB",28-09-2025 07:00:00,18.1023399,73.4783687,NO2,NA,NA,NA
India,Maharashtra,Malegaon,"Mahesh Nagar, Malegaon - MPCB",28-09-2025 07:00:00,20.555712,74.529236,CO,13,34,15
India,Maharashtra,Mira-Bhayandar,"Bhayandar West, Mira-Bhayandar - MPCB",28-09-2025 07:00:00,19.296481,72.840923,NH3,1,5,2
India,Maharashtra,Kolhapur,"Sinchan Bhavan, Kolhapur - MPCB",28-09-2025 07:00:00,16.7143745,74.2426398,NO2,NA,NA,NA
India,Maharashtra,Kolhapur,"Sinchan Bhavan, Kolhapur - MPCB",28-09-2025 07:00:00,16.7143745,74.2426398,NH3,NA,NA,NA
India,Maharashtra,Kolhapur,"Sinchan Bhavan, Kolhapur - MPCB",28-09-2025 07:00:00,16.7143745,74.2426398,OZONE,22,27,23
India,Maharashtra,Kolhapur,"Shivaji University, Kolhapur - MPCB",28-09-2025 07:00:00,16.6870449,74.2505872,NH3,3,4,3
India,Maharashtra,Kolhapur,"Shivaji University, Kolhapur - MPCB",28-09-2025 07:00:00,16.6870449,74.2505872,SO2,NA,NA,NA
India,Maharashtra,Mahad,"Kamble Tarf Birwadi, Mahad - MPCB",28-09-2025 07:00:00,18.1023399,73.4783687,NH3,NA,NA,NA
India,Maharashtra,Mumbai,"Chembur, Mumbai - MPCB",28-09-2025 07:00:00,19.0364585,72.8954371,PM10,22,45,33
India,Maharashtra,Mumbai,"Chembur, Mumbai - MPCB",28-09-2025 07:00:00,19.0364585,72.8954371,NH3,4,6,4
India,Maharashtra,Mumbai,"Chembur, Mumbai - MPCB",28-09-2025 07:00:00,19.0364585,72.8954371,CO,16,32,19
India,Maharashtra,Mumbai,"Colaba, Mumbai - MPCB",28-09-2025 07:00:00,18.910000,72.820000,PM10,22,50,35
India,Maharashtra,Mumbai,"Colaba, Mumbai - MPCB",28-09-2025 07:00:00,18.910000,72.820000,NH3,3,3,3
India,Maharashtra,Mumbai,"Ghatkopar, Mumbai - BMC",28-09-2025 07:00:00,19.083694,72.920967,NH3,2,7,4
India,Maharashtra,Mira-Bhayandar,"Bhayandar West, Mira-Bhayandar - MPCB",28-09-2025 07:00:00,19.296481,72.840923,CO,25,53,32
India,Maharashtra,Mumbai,"Bandra Kurla Complex, Mumbai - IITM",28-09-2025 07:00:00,19.053536,72.84643,SO2,NA,NA,NA
India,Maharashtra,Mumbai,"Bandra Kurla Complex, Mumbai - IITM",28-09-2025 07:00:00,19.053536,72.84643,OZONE,NA,NA,NA
India,Maharashtra,Mumbai,"Bandra Kurla Complex, Mumbai - MPCB",28-09-2025 07:00:00,19.065931,72.862131,PM10,80,142,93
India,Maharashtra,Mumbai,"Borivali East, Mumbai - IITM",28-09-2025 07:00:00,19.23241,72.86895,CO,66,94,79
India,Maharashtra,Mumbai,"Byculla, Mumbai - BMC",28-09-2025 07:00:00,18.9767,72.8380,NH3,1,9,4
India,Maharashtra,Mumbai,"Byculla, Mumbai - BMC",28-09-2025 07:00:00,18.9767,72.8380,SO2,9,11,10
India,Maharashtra,Mumbai,"Byculla, Mumbai - BMC",28-09-2025 07:00:00,18.9767,72.8380,OZONE,11,48,28
India,Maharashtra,Mumbai,"Kurla, Mumbai - MPCB",28-09-2025 07:00:00,19.0863,72.8888,PM10,41,108,64
India,Maharashtra,Mumbai,"Kurla, Mumbai - MPCB",28-09-2025 07:00:00,19.0863,72.8888,NO2,4,6,5
India,Maharashtra,Mumbai,"Kurla, Mumbai - MPCB",28-09-2025 07:00:00,19.0863,72.8888,SO2,36,37,37
India,Maharashtra,Mumbai,"Kurla, Mumbai - MPCB",28-09-2025 07:00:00,19.0863,72.8888,CO,4,12,7
India,Maharashtra,Mumbai,"Malad West, Mumbai - IITM",28-09-2025 07:00:00,19.19709,72.82204,OZONE,4,54,42
India,Maharashtra,Mumbai,"Mazgaon, Mumbai - IITM",28-09-2025 07:00:00,18.96702,72.84214,NH3,7,10,8
India,Maharashtra,Mumbai,"Kherwadi_Bandra East, Mumbai - MPCB",28-09-2025 07:00:00,19.0632143,72.8456324,PM10,13,40,27
India,Maharashtra,Mumbai,"Kherwadi_Bandra East, Mumbai - MPCB",28-09-2025 07:00:00,19.0632143,72.8456324,NH3,8,17,13
India,Maharashtra,Mumbai,"Khindipada-Bhandup West, Mumbai - IITM",28-09-2025 07:00:00,19.1653323,72.922099,NO2,4,22,11
