country,state,city,station,last_update,latitude,longitude,pollutant_id,min_value,max_value,avg_value
India,Maharashtra,Thane,"Kasarvadavali, Thane - MPCB",04-12-2025 07:00:00,19.26777,72.97182,PM10,68,92,81
India,Andhra_Pradesh,Kadapa,"Yerramukkapalli, Kadapa - APPCB",04-12-2025 07:00:00,14.465052,78.824187,OZONE,21,24,22
India,Maharashtra,Thane,"Kasarvadavali, Thane - MPCB",04-12-2025 07:00:00,19.26777,72.97182,NH3,1,19,5
India,Andhra_Pradesh,Rajamahendravaram,"Anand Kala Kshetram, Rajamahendravaram - APPCB",04-12-2025 07:00:00,16.9872867,81.7363176,PM2.5,74,270,158
India,Andhra_Pradesh,Rajamahendravaram,"Anand Kala Kshetram, Rajamahendravaram - APPCB",04-12-2025 07:00:00,16.9872867,81.7363176,PM10,83,172,126
India,Maharashtra,Thane,"Upvan Fort, Thane - MPCB",04-12-2025 07:00:00,19.222279,72.957979,PM10,72,112,94
India,Maharashtra,Thane,"Upvan Fort, Thane - MPCB",04-12-2025 07:00:00,19.222279,72.957979,CO,9,36,20
India,Meghalaya,Shillong,"JN Stadium, Shillong - Meghalaya PCB",04-12-2025 07:00:00,25.5803419,91.8942571,CO,14,79,43
India,Andhra_Pradesh,Vijayawada,"Rajiv Gandhi Park, Vijayawada - APPCB",04-12-2025 07:00:00,16.509717,80.612222,PM10,68,103,82
India,Meghalaya,Shillong,"Lumpyngngad, Shillong - Meghalaya PCB",04-12-2025 07:00:00,25.5586,91.8985,CO,2,12,7
India,Andhra_Pradesh,Vijayawada,"Rajiv Nagar, Vijayawada - APPCB",04-12-2025 07:00:00,16.554731,80.649110,CO,28,62,40
India,Maharashtra,Pune,"Transport Nagar-Nigdi, Pune - IITM",04-12-2025 07:00:00,18.664282,73.763966,PM10,137,256,175
India,Maharashtra,Pune,"Transport Nagar-Nigdi, Pune - IITM",04-12-2025 07:00:00,18.664282,73.763966,NO2,43,164,89
India,Maharashtra,Pune,"Transport Nagar-Nigdi, Pune - IITM",04-12-2025 07:00:00,18.664282,73.763966,OZONE,8,75,18
India,Andhra_Pradesh,Anantapur,"Gulzarpet, Anantapur - APPCB",04-12-2025 07:00:00,14.675886,77.593027,OZONE,19,35,23
India,Andhra_Pradesh,Tirupati,"Vaikuntapuram, Tirupati - APPCB",04-12-2025 07:00:00,13.615387,79.409230,PM2.5,47,53,50
India,Maharashtra,Ulhasnagar,"Sidhi Vinayak Nagar, Ulhasnagar - MPCB",04-12-2025 07:00:00,19.235581,73.159121,NO2,12,31,23
India,Maharashtra,Ulhasnagar,"Sidhi Vinayak Nagar, Ulhasnagar - MPCB",04-12-2025 07:00:00,19.235581,73.159121,SO2,6,46,16
India,Maharashtra,Solapur,"Dnyaneshwar Nagar, Solapur - MPCB",04-12-2025 07:00:00,17.6336264,75.9132495,CO,18,48,24
India,Andhra_Pradesh,Chittoor,"Gangineni Cheruvu, Chittoor - APPCB",04-12-2025 07:00:00,13.204880,79.097889,SO2,7,34,16
India,Maharashtra,Pimpri-Chinchwad,"Thergaon, Pimpri Chinchwad - MPCB",04-12-2025 07:00:00,18.616318,73.765797,CO,42,113,79
India,Maharashtra,Solapur,"Dnyaneshwar Nagar, Solapur - MPCB",04-12-2025 07:00:00,17.6336264,75.9132495,PM2.5,112,214,144
India,Andhra_Pradesh,Amaravati,"Secretariat, Amaravati - APPCB",04-12-2025 07:00:00,16.5150833,80.5181667,PM10,72,149,110
India,Meghalaya,Shillong,"JN Stadium, Shillong - Meghalaya PCB",04-12-2025 07:00:00,25.5803419,91.8942571,SO2,10,23,17
India,Maharashtra,Pune,"Panchawati_Pashan, Pune - IITM",04-12-2025 07:00:00,18.536457,73.805454,PM10,119,182,154
India,Andhra_Pradesh,Visakhapatnam,"GVM Corporation, Visakhapatnam - APPCB",04-12-2025 07:00:00,17.72,83.3,PM2.5,NA,NA,NA
India,Nagaland,Kohima,"PWD Junction, Kohima - NPCB",04-12-2025 07:00:00,25.6635413,94.0989878,PM10,15,76,37
India,Andhra_Pradesh,Visakhapatnam,"GVM Corporation, Visakhapatnam - APPCB",04-12-2025 07:00:00,17.72,83.3,PM10,NA,NA,NA
India,Andhra_Pradesh,Visakhapatnam,"GVM Corporation, Visakhapatnam - APPCB",04-12-2025 07:00:00,17.72,83.3,NO2,NA,NA,NA
India,Andhra_Pradesh,Visakhapatnam,"GVM Corporation, Visakhapatnam - APPCB",04-12-2025 07:00:00,17.72,83.3,SO2,NA,NA,NA
India,Andhra_Pradesh,Visakhapatnam,"GVM Corporation, Visakhapatnam - APPCB",04-12-2025 07:00:00,17.72,83.3,CO,NA,NA,NA
India,Odisha,Angul,"Hakimapada, Angul - OSPCB",04-12-2025 07:00:00,20.832874,85.104082,PM2.5,213,424,300
India,Odisha,Angul,"Hakimapada, Angul - OSPCB",04-12-2025 07:00:00,20.832874,85.104082,PM10,142,297,184
India,Odisha,Angul,"Hakimapada, Angul - OSPCB",04-12-2025 07:00:00,20.832874,85.104082,NO2,17,66,34
India,Arunachal_Pradesh,Naharlagun,"Naharlagun, Naharlagun - APSPCB",04-12-2025 07:00:00,27.103358,93.679645,SO2,8,9,9
India,Assam,Nagaon,"Christianpatty, Nagaon - PCBA",04-12-2025 07:00:00,26.349082,92.68449,OZONE,8,9,9
India,Odisha,Bhubaneswar,"Patia, Bhubaneswar - OSPCB",04-12-2025 07:00:00,20.34652,85.81630,NO2,16,59,30
India,Odisha,Bhubaneswar,"Patia, Bhubaneswar - OSPCB",04-12-2025 07:00:00,20.34652,85.81630,NH3,5,10,7
India,Odisha,Bileipada,"Tata Township, Bileipada - OSPCB",04-12-2025 07:00:00,22.06156703,85.47409613,PM2.5,90,339,218
India,Assam,Nalbari,"Bata Chowk, Nalbari - PCBA",04-12-2025 07:00:00,26.446912,91.439057,OZONE,4,17,16
India,Odisha,Baripada,"Meher Colony, Baripada - OSPCB",04-12-2025 07:00:00,21.941841,86.728318,NH3,1,6,4
India,Assam,Guwahati,"LGBI Airport, Guwahati - PCBA",04-12-2025 07:00:00,26.10887,91.589544,OZONE,11,14,13
India,Odisha,Bhubaneswar,"Lingraj Mandir, Bhubaneswar - OSPCB",04-12-2025 07:00:00,20.240790,85.836784,PM2.5,193,355,302
India,Assam,Guwahati,"Pan Bazaar, Guwahati - PCBA",04-12-2025 07:00:00,26.187500,91.744194,PM10,40,132,82
India,Odisha,Bhubaneswar,"Lingraj Mandir, Bhubaneswar - OSPCB",04-12-2025 07:00:00,20.240790,85.836784,PM10,128,277,187
India,Odisha,Bhubaneswar,"Lingraj Mandir, Bhubaneswar - OSPCB",04-12-2025 07:00:00,20.240790,85.836784,SO2,3,13,7
India,Assam,Nagaon,"Christianpatty, Nagaon - PCBA",04-12-2025 07:00:00,26.349082,92.68449,PM2.5,62,62,62
India,Odisha,Bhubaneswar,"Lingraj Mandir, Bhubaneswar - OSPCB",04-12-2025 07:00:00,20.240790,85.836784,CO,27,102,61
India,Assam,Byrnihat,"Central Academy for SFS, Byrnihat - PCBA",04-12-2025 07:00:00,26.071318,91.87488,PM2.5,79,136,98
India,Odisha,Bhubaneswar,"Lingraj Mandir, Bhubaneswar - OSPCB",04-12-2025 07:00:00,20.240790,85.836784,OZONE,10,288,43
India,Assam,Byrnihat,"Central Academy for SFS, Byrnihat - PCBA",04-12-2025 07:00:00,26.071318,91.87488,NO2,5,8,7
India,Assam,Guwahati,"Pan Bazaar, Guwahati - PCBA",04-12-2025 07:00:00,26.187500,91.744194,SO2,25,46,34
India,Assam,Guwahati,"IITG, Guwahati - PCBA",04-12-2025 07:00:00,26.2028636,91.70046436,SO2,23,25,24
India,Odisha,Cuttack,"CDA Area, Cuttack - OSPCB",04-12-2025 07:00:00,20.48891     ,85.84768     ,CO,35,118,64
India,Bihar,Arrah,"New DM Office, Arrah - BSPCB",04-12-2025 07:00:00,25.5626095,84.663264,PM10,103,165,150
India,Odisha,Keonjhar,"Jagamohanpur, Keonjhar - OSPCB",04-12-2025 07:00:00,21.643900,85.599355,NO2,20,63,37
India,Odisha,Keonjhar,"Jagamohanpur, Keonjhar - OSPCB",04-12-2025 07:00:00,21.643900,85.599355,SO2,15,42,21
India,Odisha,Keonjhar,"Jagamohanpur, Keonjhar - OSPCB",04-12-2025 07:00:00,21.643900,85.599355,OZONE,17,19,18
India,Odisha,Nayagarh,"Dabuna, Nayagarh - OSPCB",04-12-2025 07:00:00,21.847279,85.416905,OZONE,11,68,12
India,Odisha,Byasanagar,"Ferro Chrome Colony, Byasanagar - OSPCB",04-12-2025 07:00:00,20.94185,86.11510,NH3,2,3,3
India,Assam,Sivasagar,"Girls College, Sivasagar - PCBA",04-12-2025 07:00:00,26.987634,94.636574,CO,12,91,31
India,Odisha,Cuttack,"CDA Area, Cuttack - OSPCB",04-12-2025 07:00:00,20.48891     ,85.84768     ,NH3,3,6,4
India,Bihar,Araria,"Kharahiya Basti, Araria - BSPCB",04-12-2025 07:00:00,26.146529,87.454184,CO,6,58,34
India,Bihar,Bettiah,"Kamalnath Nagar, Bettiah - BSPCB",04-12-2025 07:00:00,26.80365,84.51954,NO2,5,11,8
India,Odisha,Rourkela,"Raghunathpali, Rourkela - OSPCB",04-12-2025 07:00:00,22.220833,84.809444,SO2,2,10,5
India,Bihar,Bettiah,"Kamalnath Nagar, Bettiah - BSPCB",04-12-2025 07:00:00,26.80365,84.51954,CO,66,141,101
India,Odisha,Bileipada,"Tata Township, Bileipada - OSPCB",04-12-2025 07:00:00,22.06156703,85.47409613,OZONE,11,12,12
India,Odisha,Brajrajnagar,"GM Office, Brajrajnagar - OSPCB",04-12-2025 07:00:00,21.8004996,83.8396977,PM2.5,45,205,82
India,Odisha,Brajrajnagar,"GM Office, Brajrajnagar - OSPCB",04-12-2025 07:00:00,21.8004996,83.8396977,NO2,13,168,116
India,Odisha,Rourkela,"Sector-2, Rourkela - OSPCB",04-12-2025 07:00:00,22.24500000,84.88111111,PM2.5,58,86,75
India,Bihar,Bhagalpur,"DM Office_Kachari Chowk, Bhagalpur - BSPCB",04-12-2025 07:00:00,25.251013,86.989001,NO2,5,14,8
India,Bihar,Bhagalpur,"DM Office_Kachari Chowk, Bhagalpur - BSPCB",04-12-2025 07:00:00,25.251013,86.989001,SO2,41,68,52
India,Bihar,Bhagalpur,"DM Office_Kachari Chowk, Bhagalpur - BSPCB",04-12-2025 07:00:00,25.251013,86.989001,OZONE,11,20,15
India,Odisha,Brajrajnagar,"GM Office, Brajrajnagar - OSPCB",04-12-2025 07:00:00,21.8004996,83.8396977,NH3,7,13,11
India,Bihar,Begusarai,"Lohiyanagar, Begusarai - BSPCB",04-12-2025 07:00:00,25.42742023,86.13886079,SO2,5,32,11
India,Bihar,Bettiah,"Kamalnath Nagar, Bettiah - BSPCB",04-12-2025 07:00:00,26.80365,84.51954,PM10,58,155,111
India,Puducherry,Puducherry,"Jawahar Nagar, Puducherry - PPCC",04-12-2025 07:00:00,11.9309,79.8027,PM10,4,58,22
India,Bihar,Chhapra,"Darshan Nagar, Chhapra - BSPCB",04-12-2025 07:00:00,25.7808257,84.7446768,PM10,52,112,70
India,Bihar,Chhapra,"Darshan Nagar, Chhapra - BSPCB",04-12-2025 07:00:00,25.7808257,84.7446768,NO2,2,3,3
India,Bihar,Gaya,"Collectorate, Gaya - BSPCB",04-12-2025 07:00:00,24.7955,84.9994,NO2,9,9,9
India,Bihar,Gaya,"Collectorate, Gaya - BSPCB",04-12-2025 07:00:00,24.7955,84.9994,SO2,9,30,14
India,Punjab,Amritsar,"Golden Temple, Amritsar - PPCB",04-12-2025 07:00:00,31.620000,74.876512,NH3,5,6,6
India,Odisha,Tensa,"Barsua Iron Ore Mines, Tensa - OSPCB",04-12-2025 07:00:00,21.869985,85.167016,OZONE,11,38,20
India,Puducherry,Puducherry,"Jawahar Nagar, Puducherry - PPCC",04-12-2025 07:00:00,11.9309,79.8027,PM2.5,2,92,26
India,Bihar,Chhapra,"Darshan Nagar, Chhapra - BSPCB",04-12-2025 07:00:00,25.7808257,84.7446768,CO,8,20,10
India,Bihar,Gaya,"Collectorate, Gaya - BSPCB",04-12-2025 07:00:00,24.7955,84.9994,PM2.5,69,310,156
India,Bihar,Bihar Sharif,"D M Colony, Bihar Sharif - BSPCB",04-12-2025 07:00:00,25.204762,85.514960,PM2.5,73,257,154
India,Bihar,Bihar Sharif,"D M Colony, Bihar Sharif - BSPCB",04-12-2025 07:00:00,25.204762,85.514960,PM10,57,129,97
India,Odisha,Talcher,"Talcher Coalfields,Talcher - OSPCB",04-12-2025 07:00:00,20.9360711,85.1707021,NO2,52,114,87
India,Bihar,Bhagalpur,"Mayaganj, Bhagalpur - BSPCB",04-12-2025 07:00:00,25.265194,87.012947,SO2,51,85,68
India,Bihar,Gaya,"Kareemganj, Gaya - BSPCB",04-12-2025 07:00:00,24.792403,84.992416,OZONE,1,47,2
India,Punjab,Khanna,"Kalal Majra, Khanna - PPCB",04-12-2025 07:00:00,30.736056 ,76.209694,PM2.5,70,230,156
India,Punjab,Khanna,"Kalal Majra, Khanna - PPCB",04-12-2025 07:00:00,30.736056 ,76.209694,NO2,26,31,28
India,Punjab,Khanna,"Kalal Majra, Khanna - PPCB",04-12-2025 07:00:00,30.736056 ,76.209694,SO2,13,40,20
India,Punjab,Khanna,"Kalal Majra, Khanna - PPCB",04-12-2025 07:00:00,30.736056 ,76.209694,OZONE,24,26,25
India,Bihar,Katihar,"Mirchaibari, Katihar - BSPCB",04-12-2025 07:00:00,25.560083,87.553265,PM2.5,77,240,126
India,Punjab,Jalandhar,"Civil Line, Jalandhar - PPCB",04-12-2025 07:00:00,31.321907,75.578914,PM10,113,185,142
India,Bihar,Gaya,"SFTI Kusdihra, Gaya - BSPCB",04-12-2025 07:00:00,24.762518,84.982348,NO2,17,21,18
India,Bihar,Gaya,"SFTI Kusdihra, Gaya - BSPCB",04-12-2025 07:00:00,24.762518,84.982348,NH3,3,3,3
India,Punjab,Jalandhar,"Civil Line, Jalandhar - PPCB",04-12-2025 07:00:00,31.321907,75.578914,NH3,4,4,4
India,Rajasthan,Banswara,"Rati Talai, Banswara - RSPCB",04-12-2025 07:00:00,23.555190,74.440010,NO2,15,109,43
India,Bihar,Muzaffarpur,"Buddha Colony, Muzaffarpur - BSPCB",04-12-2025 07:00:00,26.11442,85.39813,PM10,85,129,112
India,Bihar,Manguraha,"Forest Rest House, Manguraha - BSPCB",04-12-2025 07:00:00,27.308328,84.531742,PM2.5,7,223,96
India,Punjab,Patiala,"Model Town, Patiala - PPCB",04-12-2025 07:00:00,30.349388,76.366642,NO2,16,19,17
India,Rajasthan,Ajmer,"Civil Lines,  Ajmer - RSPCB",04-12-2025 07:00:00,26.470859,74.646594,NO2,23,42,26
India,Rajasthan,Ajmer,"Civil Lines,  Ajmer - RSPCB",04-12-2025 07:00:00,26.470859,74.646594,SO2,4,45,20
India,Punjab,Mandi Gobindgarh,"RIMT University, Mandi Gobindgarh - PPCB",04-12-2025 07:00:00,30.649961,76.331442,OZONE,28,42,34
India,Punjab,Ludhiana,"Punjab Agricultural University, Ludhiana - PPCB",04-12-2025 07:00:00,30.9028,75.8086,CO,28,100,53
India,Rajasthan,Alwar,"Moti Doongri, Alwar - RSPCB",04-12-2025 07:00:00,27.554793,76.611536,NO2,58,77,65
India,Rajasthan,Ajmer,"Civil Lines,  Ajmer - RSPCB",04-12-2025 07:00:00,26.470859,74.646594,CO,16,56,35
India,Bihar,Muzaffarpur,"Buddha Colony, Muzaffarpur - BSPCB",04-12-2025 07:00:00,26.11442,85.39813,NO2,18,64,35
India,Rajasthan,Baran,"Bamboliya, Baran - RSPCB",04-12-2025 07:00:00,25.106006,76.469948,PM2.5,38,187,95
India,Bihar,Muzaffarpur,"Buddha Colony, Muzaffarpur - BSPCB",04-12-2025 07:00:00,26.11442,85.39813,NH3,6,13,9
India,Rajasthan,Bharatpur,"Krishna Nagar, Bharatpur - RSPCB",04-12-2025 07:00:00,27.215415,77.50873,PM2.5,53,303,147
India,Bihar,Muzaffarpur,"MIT-Daudpur Kothi, Muzaffarpur - BSPCB",04-12-2025 07:00:00,26.1403345,85.3650192,CO,45,64,60
India,Bihar,Muzaffarpur,"Muzaffarpur Collectorate, Muzaffarpur - BSPCB",04-12-2025 07:00:00,26.1209,85.3647,CO,20,70,36
India,Rajasthan,Bhilwara,"Pratap Nagar, Bhilwara - RSPCB",04-12-2025 07:00:00,25.339605,74.618883,SO2,3,10,6
India,Bihar,Muzaffarpur,"MIT-Daudpur Kothi, Muzaffarpur - BSPCB",04-12-2025 07:00:00,26.1403345,85.3650192,PM10,69,88,84
India,Bihar,Patna,"Govt. High School Shikarpur, Patna - BSPCB",04-12-2025 07:00:00,25.592539,85.227158,NO2,19,53,32
India,Rajasthan,Bharatpur,"Krishna Nagar, Bharatpur - RSPCB",04-12-2025 07:00:00,27.215415,77.50873,NH3,11,19,16
India,Rajasthan,Barmer,"Railway Colony, Barmer - RSPCB",04-12-2025 07:00:00,25.747299,71.393989,OZONE,22,78,57
India,Bihar,Patna,"DRM Office Danapur, Patna - BSPCB",04-12-2025 07:00:00,25.586562,85.043586,CO,28,137,55
India,Rajasthan,Barmer,"Railway Colony, Barmer - RSPCB",04-12-2025 07:00:00,25.747299,71.393989,NH3,2,5,3
India,Rajasthan,Dungarpur,"Bhoiwada, Dungarpur - RSPCB",04-12-2025 07:00:00,23.837789,73.714926,PM2.5,58,243,124
India,Bihar,Purnia,"Mariam Nagar, Purnia - BSPCB",04-12-2025 07:00:00,25.366336,87.117468,PM10,63,113,91
India,Rajasthan,Dungarpur,"Bhoiwada, Dungarpur - RSPCB",04-12-2025 07:00:00,23.837789,73.714926,SO2,1,5,1
India,Rajasthan,Dungarpur,"Bhoiwada, Dungarpur - RSPCB",04-12-2025 07:00:00,23.837789,73.714926,OZONE,1,110,9
India,Bihar,Patna,"Rajbansi Nagar, Patna - BSPCB",04-12-2025 07:00:00,25.599486,85.113666,NO2,23,169,86
India,Rajasthan,Chittorgarh,"Shastri Nagar, Chittorgarh - RSPCB",04-12-2025 07:00:00,24.892047,74.623527,NO2,14,52,31
India,Rajasthan,Chittorgarh,"Shastri Nagar, Chittorgarh - RSPCB",04-12-2025 07:00:00,24.892047,74.623527,OZONE,9,91,34
India,Bihar,Patna,"IGSC Planetarium Complex, Patna - BSPCB",04-12-2025 07:00:00,25.610369,85.132568,NO2,12,14,14
India,Rajasthan,Bundi,"New Colony, Bundi - RSPCB",04-12-2025 07:00:00,25.435774,75.644272,PM10,87,194,135
India,Rajasthan,Bundi,"New Colony, Bundi - RSPCB",04-12-2025 07:00:00,25.435774,75.644272,NO2,15,47,22
India,Rajasthan,Hanumangarh,"Housing Board, Hanumangarh - RSPCB",04-12-2025 07:00:00,29.610750,74.283608,OZONE,7,102,35
India,Rajasthan,Jaipur,"Adarsh Nagar, Jaipur - RSPCB",04-12-2025 07:00:00,26.902909,75.836858,NO2,19,94,46
India,Bihar,Patna,"Samanpura, Patna - BSPCB",04-12-2025 07:00:00,25.596727,85.085624,NH3,5,5,5
India,Rajasthan,Dholpur,"Raja Ganj, Dholpur - RSPCB",04-12-2025 07:00:00,26.699557,77.898881,SO2,3,52,12
India,Rajasthan,Bundi,"New Colony, Bundi - RSPCB",04-12-2025 07:00:00,25.435774,75.644272,NH3,3,4,3
India,Rajasthan,Bundi,"New Colony, Bundi - RSPCB",04-12-2025 07:00:00,25.435774,75.644272,SO2,1,7,4
India,Rajasthan,Bundi,"New Colony, Bundi - RSPCB",04-12-2025 07:00:00,25.435774,75.644272,CO,25,66,36
India,Rajasthan,Hanumangarh,"Housing Board, Hanumangarh - RSPCB",04-12-2025 07:00:00,29.610750,74.283608,PM10,79,196,126
India,Rajasthan,Dausa,"Khatikan Mohalla, Dausa - RSPCB",04-12-2025 07:00:00,26.895552,76.334753,PM2.5,78,325,140
India,Rajasthan,Churu,"Subash Chowk, Churu - RSPCB",04-12-2025 07:00:00,28.296139,74.961696,NO2,9,89,47
India,Rajasthan,Jaisalmer,"Sadar Bazar, Jaisalmer - RSPCB",04-12-2025 07:00:00,26.912329,70.909168,NO2,10,83,29
India,Rajasthan,Jaisalmer,"Sadar Bazar, Jaisalmer - RSPCB",04-12-2025 07:00:00,26.912329,70.909168,OZONE,5,94,78
India,Rajasthan,Jalore,"Mudtra Sili, Jalore - RSPCB",04-12-2025 07:00:00,25.344694,72.626208,PM2.5,55,297,106
India,Chhattisgarh,Bhilai,"32Bungalows, Bhilai - CECB",04-12-2025 07:00:00,21.194815,81.314770,PM10,36,86,55
India,Rajasthan,Jalore,"Mudtra Sili, Jalore - RSPCB",04-12-2025 07:00:00,25.344694,72.626208,PM10,72,182,117
India,Chhattisgarh,Bhilai,"32Bungalows, Bhilai - CECB",04-12-2025 07:00:00,21.194815,81.314770,NO2,18,98,47
India,Chhattisgarh,Bhilai,"32Bungalows, Bhilai - CECB",04-12-2025 07:00:00,21.194815,81.314770,OZONE,2,79,6
India,Chhattisgarh,Bhilai,"Civic Center, Bhilai - Bhilai Steel Plant",04-12-2025 07:00:00,21.185571,81.343175,PM2.5,20,116,55
India,Chhattisgarh,Bhilai,"Civic Center, Bhilai - Bhilai Steel Plant",04-12-2025 07:00:00,21.185571,81.343175,NH3,3,4,4
India,Rajasthan,Jaipur,"Adarsh Nagar, Jaipur - RSPCB",04-12-2025 07:00:00,26.902909,75.836858,SO2,12,28,22
India,Rajasthan,Jaipur,"Adarsh Nagar, Jaipur - RSPCB",04-12-2025 07:00:00,26.902909,75.836858,CO,32,70,42
India,Rajasthan,Jaipur,"Mansarovar Sector-12, Jaipur - RSPCB",04-12-2025 07:00:00,26.843698,75.766894,PM10,91,258,147
India,Bihar,Saharsa,"Police Line, Saharsa - BSPCB",04-12-2025 07:00:00,25.892357,86.590325,NH3,4,4,4
India,Rajasthan,Jaipur,"Police Commissionerate, Jaipur - RSPCB",04-12-2025 07:00:00,26.9164092,75.7994901,NO2,107,174,151
India,Bihar,Sasaram,"Dada Peer, Sasaram - BSPCB",04-12-2025 07:00:00,24.952822,84.002396,NH3,2,4,3
India,Bihar,Siwan,"Chitragupta Nagar, Siwan - BSPCB",04-12-2025 07:00:00,26.2271665,84.3570427,PM2.5,38,230,102
India,Rajasthan,Jaipur,"RIICO Sitapura, Jaipur - RSPCB",04-12-2025 07:00:00,26.786682,75.827928,CO,18,124,40
India,Bihar,Samastipur,"DM Office_Kasipur, Samastipur - BSPCB",04-12-2025 07:00:00,25.859655,85.77944,PM10,31,70,49
India,Rajasthan,Jaipur,"Police Commissionerate, Jaipur - RSPCB",04-12-2025 07:00:00,26.9164092,75.7994901,PM10,58,137,95
India,Rajasthan,Jaipur,"Shastri Nagar, Jaipur - RSPCB",04-12-2025 07:00:00,26.9502929,75.730943,PM2.5,80,307,159
India,Rajasthan,Jaipur,"Shastri Nagar, Jaipur - RSPCB",04-12-2025 07:00:00,26.9502929,75.730943,SO2,10,54,28
India,Chandigarh,Chandigarh,"Sector-25, Chandigarh - CPCC",04-12-2025 07:00:00,30.751462,76.762879,CO,32,64,50
India,Chandigarh,Chandigarh,"Sector-25, Chandigarh - CPCC",04-12-2025 07:00:00,30.751462,76.762879,OZONE,1,73,2
India,Chandigarh,Chandigarh,"Sector 22, Chandigarh - CPCC",04-12-2025 07:00:00,30.735567,76.775714,NH3,7,15,12
India,Bihar,Saharsa,"Police Line, Saharsa - BSPCB",04-12-2025 07:00:00,25.892357,86.590325,SO2,16,19,17
India,Chhattisgarh,Chhal,"Nawapara SECL Colony, Chhal - CECB",04-12-2025 07:00:00,22.118125,83.140608,NH3,5,5,5
India,Chhattisgarh,Chhal,"Nawapara SECL Colony, Chhal - CECB",04-12-2025 07:00:00,22.118125,83.140608,OZONE,7,180,17
India,Rajasthan,Jhunjhunu,"Indra Nagar, Jhunjhunu - RSPCB",04-12-2025 07:00:00,28.108988,75.386577,NH3,1,15,10
India,Rajasthan,Jhunjhunu,"Indra Nagar, Jhunjhunu - RSPCB",04-12-2025 07:00:00,28.108988,75.386577,CO,16,104,55
India,Rajasthan,Jhunjhunu,"Indra Nagar, Jhunjhunu - RSPCB",04-12-2025 07:00:00,28.108988,75.386577,PM2.5,27,320,144
India,Rajasthan,Jodhpur,"Digari Kalan, Jodhpur - RSPCB",04-12-2025 07:00:00,26.295810,73.082283,SO2,3,8,5
India,Chhattisgarh,Korba,"Urja Nagar, Korba - CECB",04-12-2025 07:00:00,22.348441,82.549611,SO2,1,14,7
India,Rajasthan,Jodhpur,"Jhalamand, Jodhpur - RSPCB",04-12-2025 07:00:00,26.215415,73.070156,NH3,4,10,6
India,Chhattisgarh,Bhilai,"Hathkhoj, Bhilai - CECB",04-12-2025 07:00:00,21.224231,81.408350,SO2,NA,NA,NA
India,Chhattisgarh,Korba,"Rampur, Korba - CECB",04-12-2025 07:00:00,22.368195,82.746431,CO,23,30,25
India,Rajasthan,Jodhpur,"Mandor, Jodhpur - RSPCB",04-12-2025 07:00:00,26.358805,73.047444,NO2,NA,NA,NA
India,Chhattisgarh,Raipur,"Siltara Phase-II, Raipur - CECB",04-12-2025 07:00:00,21.371751,81.664929,PM2.5,17,45,29
India,Chhattisgarh,Raipur,"Siltara Phase-II, Raipur - CECB",04-12-2025 07:00:00,21.371751,81.664929,PM10,35,151,92
India,Rajasthan,Kota,"Shrinath Puram, Kota - RSPCB",04-12-2025 07:00:00,25.14389,75.821256,PM2.5,122,241,172
India,Chhattisgarh,Raipur,"Siltara Phase-II, Raipur - CECB",04-12-2025 07:00:00,21.371751,81.664929,SO2,2,7,4
India,Chhattisgarh,Raipur,"Siltara Phase-II, Raipur - CECB",04-12-2025 07:00:00,21.371751,81.664929,CO,34,36,35
India,Rajasthan,Kota,"Shrinath Puram, Kota - RSPCB",04-12-2025 07:00:00,25.14389,75.821256,NH3,2,5,4
India,Delhi,Delhi,"Anand Vihar, Delhi - DPCC",04-12-2025 07:00:00,28.647622,77.3158090,CO,82,122,112
India,Delhi,Delhi,"Anand Vihar, Delhi - DPCC",04-12-2025 07:00:00,28.647622,77.3158090,OZONE,2,27,18
India,Rajasthan,Pratapgarh,"Pragati Nagar, Pratapgarh - RSPCB",04-12-2025 07:00:00,24.041198,74.780702,SO2,1,6,4
India,Delhi,Delhi,"Ashok Vihar, Delhi - DPCC",04-12-2025 07:00:00,28.695381,77.181665,NH3,6,7,6
India,Delhi,Delhi,"Alipur, Delhi - DPCC",04-12-2025 07:00:00,28.815329,77.153010,CO,100,115,109
India,Delhi,Delhi,"Anand Vihar, Delhi - DPCC",04-12-2025 07:00:00,28.647622,77.3158090,PM2.5,130,401,318
India,Rajasthan,Pali,"Indira Colony Vistar, Pali - RSPCB",04-12-2025 07:00:00,25.771061, 73.340227,CO,6,82,28
India,Rajasthan,Pali,"Indira Colony Vistar, Pali - RSPCB",04-12-2025 07:00:00,25.771061, 73.340227,OZONE,6,29,7
India,Chhattisgarh,Kunjemura,"OP Jindal School, Kunjemura - CECB",04-12-2025 07:00:00,22.126650,83.483212,NO2,15,52,28
India,Rajasthan,Jodhpur,"Mandor, Jodhpur - RSPCB",04-12-2025 07:00:00,26.358805,73.047444,OZONE,73,99,82
India,Chhattisgarh,Milupara,"Govt. Higher Secondary School, Milupara - CECB",04-12-2025 07:00:00,22.1910172,83.5197009,PM2.5,61,123,95
India,Rajasthan,Kota,"Dhanmandi, Kota - RSPCB",04-12-2025 07:00:00,25.164090,75.858137,NH3,5,7,6
India,Rajasthan,Kota,"Dhanmandi, Kota - RSPCB",04-12-2025 07:00:00,25.164090,75.858137,SO2,2,15,7
India,Chhattisgarh,Raipur,"Krishak Nagar, Raipur - CECB",04-12-2025 07:00:00,21.237755,81.705301,PM2.5,51,84,67
India,Rajasthan,Karauli,"Satyawati Vihar, Karauli - RSPCB",04-12-2025 07:00:00,26.506177,77.025989,OZONE,2,94,13
India,Chhattisgarh,Raipur,"Bhatagaon New ISBT, Raipur - CECB",04-12-2025 07:00:00,21.219665,81.630094,SO2,6,21,9
India,Chhattisgarh,Raipur,"AIIMS, Raipur - CECB",04-12-2025 07:00:00,21.258815,81.578979,SO2,4,7,5
India,Chhattisgarh,Raipur,"AIIMS, Raipur - CECB",04-12-2025 07:00:00,21.258815,81.578979,OZONE,NA,NA,NA
India,Rajasthan,Pali,"Indira Colony Vistar, Pali - RSPCB",04-12-2025 07:00:00,25.771061, 73.340227,PM10,82,140,111
India,Delhi,Delhi,"Alipur, Delhi - DPCC",04-12-2025 07:00:00,28.815329,77.153010,NH3,18,20,19
India,Rajasthan,Tonk,"Shastri Nagar, Tonk - RSPCB",04-12-2025 07:00:00,26.159933,75.780517,CO,29,114,53
India,Delhi,Delhi,"Dr. Karni Singh Shooting Range, Delhi - DPCC",04-12-2025 07:00:00,28.498571,77.264840,PM10,139,388,246
India,Rajasthan,Tonk,"Shastri Nagar, Tonk - RSPCB",04-12-2025 07:00:00,26.159933,75.780517,OZONE,1,67,12
India,Rajasthan,Udaipur,"Ashok Nagar, Udaipur - RSPCB",04-12-2025 07:00:00,24.5886166,73.6321397,PM2.5,56,230,112
India,Delhi,Delhi,"Dr. Karni Singh Shooting Range, Delhi - DPCC",04-12-2025 07:00:00,28.498571,77.264840,NH3,8,11,10
India,Rajasthan,Sawai Madhopur,"Sahu Nagar, Sawai Madhopur - RSPCB",04-12-2025 07:00:00,26.031443,76.359327,SO2,2,8,4
India,Rajasthan,Sawai Madhopur,"Sahu Nagar, Sawai Madhopur - RSPCB",04-12-2025 07:00:00,26.031443,76.359327,CO,24,100,42
India,Delhi,Delhi,"Bawana, Delhi - DPCC",04-12-2025 07:00:00,28.776200,77.051074,NO2,9,79,42
India,Delhi,Delhi,"Bawana, Delhi - DPCC",04-12-2025 07:00:00,28.776200,77.051074,CO,8,72,51
India,Rajasthan,Sikar,"Radhakishan Pura, Sikar - RSPCB",04-12-2025 07:00:00,27.608912,75.153302,CO,12,81,34
India,Delhi,Delhi,"Burari Crossing, Delhi - IMD",04-12-2025 07:00:00,28.7256504,77.2011573,PM10,129,393,232
India,Rajasthan,Tonk,"Shastri Nagar, Tonk - RSPCB",04-12-2025 07:00:00,26.159933,75.780517,PM2.5,141,422,283
India,Delhi,Delhi,"DTU, Delhi - CPCB",04-12-2025 07:00:00,28.7500499,77.1112615,SO2,39,46,41
India,Rajasthan,Tonk,"Shastri Nagar, Tonk - RSPCB",04-12-2025 07:00:00,26.159933,75.780517,NO2,21,138,48
India,Delhi,Delhi,"DTU, Delhi - CPCB",04-12-2025 07:00:00,28.7500499,77.1112615,CO,8,60,53
India,Delhi,Delhi,"CRRI Mathura Road, Delhi - IMD",04-12-2025 07:00:00,28.5512005,77.2735737,OZONE,8,84,11
India,Delhi,Delhi,"DTU, Delhi - CPCB",04-12-2025 07:00:00,28.7500499,77.1112615,PM10,113,361,224
India,Delhi,Delhi,"Aya Nagar, Delhi - IMD",04-12-2025 07:00:00,28.4706914,77.1099364,PM2.5,99,347,275
India,Delhi,Delhi,"Aya Nagar, Delhi - IMD",04-12-2025 07:00:00,28.4706914,77.1099364,PM10,133,404,256
India,Rajasthan,Sirohi,"Vedhaynath Colony, Sirohi - RSPCB",04-12-2025 07:00:00,24.885261,72.857549,NH3,2,5,3
India,Delhi,Delhi,"Aya Nagar, Delhi - IMD",04-12-2025 07:00:00,28.4706914,77.1099364,CO,32,76,61
India,TamilNadu,Ariyalur,"Keelapalur, Ariyalur - TNPCB",04-12-2025 07:00:00,11.06825,79.07033,PM2.5,8,468,37
India,Delhi,Delhi,"IHBAS, Dilshad Garden, Delhi - CPCB",04-12-2025 07:00:00,28.6811736,77.3025234,OZONE,24,26,25
India,TamilNadu,Ariyalur,"Keelapalur, Ariyalur - TNPCB",04-12-2025 07:00:00,11.06825,79.07033,NO2,9,9,9
India,Delhi,Delhi,"IIT Delhi, Delhi - IITM",04-12-2025 07:00:00,28.542460,77.191651,PM10,141,337,206
India,TamilNadu,Ariyalur,"Keelapalur, Ariyalur - TNPCB",04-12-2025 07:00:00,11.06825,79.07033,NH3,1,1,1
India,Delhi,Delhi,"IIT Delhi, Delhi - IITM",04-12-2025 07:00:00,28.542460,77.191651,CO,14,72,46
India,Delhi,Delhi,"ITO, Delhi - CPCB",04-12-2025 07:00:00,28.628624,77.241060,NO2,48,167,110
India,Delhi,Delhi,"ITO, Delhi - CPCB",04-12-2025 07:00:00,28.628624,77.241060,NH3,2,5,3
India,TamilNadu,Chennai,"Arumbakkam, Chennai - TNPCB",04-12-2025 07:00:00,13.0664,80.2112 ,NH3,NA,NA,NA
India,TamilNadu,Chennai,"Manali Village, Chennai - TNPCB",04-12-2025 07:00:00,13.1662,80.2584,PM2.5,NA,NA,NA
India,Rajasthan,Udaipur,"Ashok Nagar, Udaipur - RSPCB",04-12-2025 07:00:00,24.5886166,73.6321397,SO2,6,10,8
India,Delhi,Delhi,"Dwarka-Sector 8, Delhi - DPCC ",04-12-2025 07:00:00,28.5710274,77.0719006,NH3,12,23,18
India,Delhi,Delhi,"Dwarka-Sector 8, Delhi - DPCC ",04-12-2025 07:00:00,28.5710274,77.0719006,CO,38,126,86
India,Delhi,Delhi,"Dwarka-Sector 8, Delhi - DPCC ",04-12-2025 07:00:00,28.5710274,77.0719006,OZONE,1,150,1
India,Delhi,Delhi,"Lodhi Road, Delhi - IMD",04-12-2025 07:00:00,28.5918245,77.2273074,OZONE,9,145,12
India,TamilNadu,Chennai,"Velachery Res. Area, Chennai - CPCB",04-12-2025 07:00:00,13.0052189,80.2398125,SO2,15,19,17
India,TamilNadu,Coimbatore,"PSG College of Arts and Science, Coimbatore - TNPCB",04-12-2025 07:00:00,11.0328,77.0349,PM10,20,80,55
India,TamilNadu,Coimbatore,"PSG College of Arts and Science, Coimbatore - TNPCB",04-12-2025 07:00:00,11.0328,77.0349,NH3,1,1,1
India,TamilNadu,Chennai,"Manali Village, Chennai - TNPCB",04-12-2025 07:00:00,13.1662,80.2584,SO2,NA,NA,NA
India,TamilNadu,Chennai,"Manali Village, Chennai - TNPCB",04-12-2025 07:00:00,13.1662,80.2584,CO,NA,NA,NA
India,TamilNadu,Chennai,"Manali Village, Chennai - TNPCB",04-12-2025 07:00:00,13.1662,80.2584,OZONE,NA,NA,NA
India,Delhi,Delhi,"IHBAS, Dilshad Garden, Delhi - CPCB",04-12-2025 07:00:00,28.6811736,77.3025234,NO2,26,129,62
India,Delhi,Delhi,"Lodhi Road, Delhi - IITM",04-12-2025 07:00:00,28.588333,77.221667,PM10,113,200,164
India,Delhi,Delhi,"Lodhi Road, Delhi - IITM",04-12-2025 07:00:00,28.588333,77.221667,SO2,8,19,15
India,Delhi,Delhi,"Mundka, Delhi - DPCC",04-12-2025 07:00:00,28.684678,77.076574,SO2,1,19,10
India,TamilNadu,Cuddalore,"Kudikadu, Cuddalore - TNPCB",04-12-2025 07:00:00,11.6829898,79.7532099,PM2.5,8,89,26
India,Delhi,Delhi,"Mundka, Delhi - DPCC",04-12-2025 07:00:00,28.684678,77.076574,CO,42,105,81
India,Delhi,Delhi,"NSIT Dwarka, Delhi - CPCB",04-12-2025 07:00:00,28.60909,77.0325413,PM10,167,356,220
India,Delhi,Delhi,"Mandir Marg, Delhi - DPCC",04-12-2025 07:00:00,28.636429,77.201067,NH3,6,14,9
India,Delhi,Delhi,"Mandir Marg, Delhi - DPCC",04-12-2025 07:00:00,28.636429,77.201067,SO2,51,104,85
India,TamilNadu,Nagapattinam,"Velippalayam, Nagapattinam - TNPCB",04-12-2025 07:00:00,10.798548,79.838212,PM2.5,18,318,61
India,TamilNadu,Cuddalore,"Semmandalam, Cuddalore - TNPCB",04-12-2025 07:00:00,11.7637683,79.7499835,NH3,1,3,2
India,TamilNadu,Karur,"Kamadenu Nagar, Karur - TNPCB",04-12-2025 07:00:00,10.967820,78.080882,NO2,5,6,6
India,TamilNadu,Ooty,"Bombay Castel, Ooty - TNPCB",04-12-2025 07:00:00,11.4068288,76.7138973,NO2,NA,NA,NA
India,Delhi,Delhi,"Mundka, Delhi - DPCC",04-12-2025 07:00:00,28.684678,77.076574,PM2.5,103,455,340
India,Delhi,Delhi,"NSIT Dwarka, Delhi - CPCB",04-12-2025 07:00:00,28.60909,77.0325413,NH3,7,28,12
India,Delhi,Delhi,"Najafgarh, Delhi - DPCC",04-12-2025 07:00:00,28.570173,76.933762,NO2,68,88,79
India,TamilNadu,Palkalaiperur,"Bharathidasan University, Palkalaiperur - TNPCB",04-12-2025 07:00:00,10.681158,78.741746,NO2,1,3,2
India,TamilNadu,Perundurai,"SIPCOT Industrial Park, Perundurai - TNPCB",04-12-2025 07:00:00,11.258242,77.552761,PM2.5,7,31,21
India,Delhi,Delhi,"Nehru Nagar, Delhi - DPCC",04-12-2025 07:00:00,28.567890,77.250515,PM10,129,462,286
India,TamilNadu,Perundurai,"SIPCOT Industrial Park, Perundurai - TNPCB",04-12-2025 07:00:00,11.258242,77.552761,PM10,1,62,24
India,TamilNadu,Perundurai,"SIPCOT Industrial Park, Perundurai - TNPCB",04-12-2025 07:00:00,11.258242,77.552761,NO2,12,14,13
India,TamilNadu,Pudukottai,"SIPCOT Nathampannai, Pudukottai - TNPCB",04-12-2025 07:00:00,10.423417,78.784889,PM2.5,22,92,49
India,TamilNadu,Ramanathapuram,"Chalai Bazaar, Ramanathapuram - TNPCB",04-12-2025 07:00:00,9.36399,78.831977,PM10,22,113,40
India,Delhi,Delhi,"North Campus, DU, Delhi - IMD",04-12-2025 07:00:00,28.6573814,77.1585447,NO2,35,175,96
India,TamilNadu,Tirunelveli,"Municipal Corporation Office, Tirunelveli - TNPCB",04-12-2025 07:00:00,8.728442,77.6962,PM10,9,65,30
India,TamilNadu,Tirunelveli,"Municipal Corporation Office, Tirunelveli - TNPCB",04-12-2025 07:00:00,8.728442,77.6962,NO2,1,28,12
India,Telangana,Hyderabad,"Bollaram Industrial Area, Hyderabad - TSPCB",04-12-2025 07:00:00,17.540891,78.358528,NO2,4,46,29
India,TamilNadu,Ramanathapuram,"Chalai Bazaar, Ramanathapuram - TNPCB",04-12-2025 07:00:00,9.36399,78.831977,CO,16,22,19
India,Delhi,Delhi,"Okhla Phase-2, Delhi - DPCC",04-12-2025 07:00:00,28.530785,77.271255,PM2.5,150,388,326
India,Delhi,Delhi,"Patparganj, Delhi - DPCC",04-12-2025 07:00:00,28.623763,77.287209,PM2.5,143,368,309
India,Delhi,Delhi,"Narela, Delhi - DPCC",04-12-2025 07:00:00,28.822836,77.101981,SO2,7,27,15
India,Telangana,Hyderabad,"IITH Kandi, Hyderabad - TSPCB",04-12-2025 07:00:00,17.585705,78.126199,PM2.5,28,232,85
India,Telangana,Hyderabad,"IITH Kandi, Hyderabad - TSPCB",04-12-2025 07:00:00,17.585705,78.126199,PM10,69,100,78
India,Delhi,Delhi,"Sirifort, Delhi - CPCB",04-12-2025 07:00:00,28.5504249,77.2159377,PM2.5,168,394,327
India,Telangana,Hyderabad,"IITH Kandi, Hyderabad - TSPCB",04-12-2025 07:00:00,17.585705,78.126199,NH3,4,7,4
India,Telangana,Hyderabad,"ICRISAT Patancheru, Hyderabad - TSPCB",04-12-2025 07:00:00,17.518400,78.278777,PM2.5,69,181,129
India,Delhi,Delhi,"Pusa, Delhi - IMD",04-12-2025 07:00:00,28.636110,77.173332,CO,3,119,91
India,Delhi,Delhi,"R K Puram, Delhi - DPCC",04-12-2025 07:00:00,28.563262,77.186937,NH3,6,8,7
India,Delhi,Delhi,"Shadipur, Delhi - CPCB",04-12-2025 07:00:00,28.6514781,77.1473105,NO2,48,115,78
India,Telangana,Hyderabad,"IDA Pashamylaram, Hyderabad - TSPCB",04-12-2025 07:00:00,17.5316895,78.218939,CO,22,64,42
India,Delhi,Delhi,"Punjabi Bagh, Delhi - DPCC",04-12-2025 07:00:00,28.674045,77.131023,PM2.5,127,417,309
India,Delhi,Delhi,"Punjabi Bagh, Delhi - DPCC",04-12-2025 07:00:00,28.674045,77.131023,PM10,130,440,230
India,Delhi,Delhi,"Punjabi Bagh, Delhi - DPCC",04-12-2025 07:00:00,28.674045,77.131023,CO,44,106,67
India,Delhi,Delhi,"Patparganj, Delhi - DPCC",04-12-2025 07:00:00,28.623763,77.287209,PM10,147,314,228
India,Delhi,Delhi,"Patparganj, Delhi - DPCC",04-12-2025 07:00:00,28.623763,77.287209,NO2,34,168,108
India,Telangana,Hyderabad,"IDA Pashamylaram, Hyderabad - TSPCB",04-12-2025 07:00:00,17.5316895,78.218939,PM2.5,63,187,125
India,Telangana,Hyderabad,"Central University, Hyderabad - TSPCB",04-12-2025 07:00:00,17.460103,78.334361,NO2,13,101,48
India,Delhi,Delhi,"Sirifort, Delhi - CPCB",04-12-2025 07:00:00,28.5504249,77.2159377,OZONE,15,22,15
India,Delhi,Delhi,"Rohini, Delhi - DPCC",04-12-2025 07:00:00,28.732528,77.119920,PM2.5,120,466,343
India,Telangana,Hyderabad,"Kokapet, Hyderabad - TSPCB",04-12-2025 07:00:00,17.393559,78.339194,CO,22,42,22
India,Telangana,Hyderabad,"Kompally Municipal Office, Hyderabad - TSPCB",04-12-2025 07:00:00,17.544899,78.486949,PM2.5,44,59,50
India,Delhi,Delhi,"Sonia Vihar, Delhi - DPCC",04-12-2025 07:00:00,28.710508,77.249485,NH3,6,9,8
India,Delhi,Delhi,"Sonia Vihar, Delhi - DPCC",04-12-2025 07:00:00,28.710508,77.249485,SO2,4,37,12
India,Delhi,Delhi,"Sonia Vihar, Delhi - DPCC",04-12-2025 07:00:00,28.710508,77.249485,OZONE,3,177,4
India,Telangana,Hyderabad,"Ramachandrapuram, Hyderabad - TSPCB",04-12-2025 07:00:00,17.528544,78.286195,NH3,3,4,3
India,Gujarat,Ahmedabad,"Chandkheda, Ahmedabad - IITM",04-12-2025 07:00:00,23.107969,72.574648,PM10,99,155,131
India,Telangana,Hyderabad,"Ramachandrapuram, Hyderabad - TSPCB",04-12-2025 07:00:00,17.528544,78.286195,PM2.5,43,64,49
India,Telangana,Hyderabad,"Ramachandrapuram, Hyderabad - TSPCB",04-12-2025 07:00:00,17.528544,78.286195,CO,35,52,50
India,Telangana,Hyderabad,"Sanathnagar, Hyderabad - TSPCB",04-12-2025 07:00:00,17.4559458,78.4332152,SO2,10,13,12
India,Telangana,Hyderabad,"New Malakpet, Hyderabad - TSPCB",04-12-2025 07:00:00,17.37206,78.50864,CO,26,42,28
India,Gujarat,Ahmedabad,"Chandkheda, Ahmedabad - IITM",04-12-2025 07:00:00,23.107969,72.574648,PM2.5,60,120,85
India,Gujarat,Ahmedabad,"Chandkheda, Ahmedabad - IITM",04-12-2025 07:00:00,23.107969,72.574648,CO,24,62,34
India,Delhi,Delhi,"Sri Aurobindo Marg, Delhi - DPCC",04-12-2025 07:00:00,28.531346,77.190156,SO2,2,13,8
India,Tripura,Agartala,"Bardowali, Agartala - Tripura SPCB",04-12-2025 07:00:00,23.8175497,91.2726974,NH3,2,4,3
India,Tripura,Agartala,"Bardowali, Agartala - Tripura SPCB",04-12-2025 07:00:00,23.8175497,91.2726974,CO,18,26,22
India,Uttar_Pradesh,Agra,"Manoharpur, Agra - UPPCB",04-12-2025 07:00:00,27.23711,78.01936,OZONE,8,9,8
India,Uttar_Pradesh,Agra,"Rohta, Agra - UPPCB",04-12-2025 07:00:00,27.106972,78.000111,NO2,19,21,19
India,Gujarat,Ahmedabad,"SAC ISRO Satellite, Ahmedabad - IITM",04-12-2025 07:00:00,23.023389,72.515201,PM10,59,150,87
India,Gujarat,Ahmedabad,"Maninagar, Ahmedabad - GPCB",04-12-2025 07:00:00,23.002657,72.591912,OZONE,41,79,58
India,Gujarat,Ahmedabad,"Raikhad, Ahmedabad - IITM",04-12-2025 07:00:00,23.020509,72.579261,PM2.5,69,167,122
India,Telangana,Hyderabad,"Zoo Park, Hyderabad - TSPCB",04-12-2025 07:00:00,17.349694,78.451437,CO,28,102,92
India,Gujarat,Ahmedabad,"Raikhad, Ahmedabad - IITM",04-12-2025 07:00:00,23.020509,72.579261,CO,14,72,37
India,Telangana,Hyderabad,"Zoo Park, Hyderabad - TSPCB",04-12-2025 07:00:00,17.349694,78.451437,OZONE,21,25,24
India,Gujarat,Ahmedabad,"Raikhad, Ahmedabad - IITM",04-12-2025 07:00:00,23.020509,72.579261,OZONE,8,74,25
India,Gujarat,Ahmedabad,"SAC ISRO Satellite, Ahmedabad - IITM",04-12-2025 07:00:00,23.023389,72.515201,NH3,7,14,10
India,Uttar_Pradesh,Agra,"Rohta, Agra - UPPCB",04-12-2025 07:00:00,27.106972,78.000111,NH3,7,8,7
India,Uttar_Pradesh,Agra,"Rohta, Agra - UPPCB",04-12-2025 07:00:00,27.106972,78.000111,CO,18,53,37
India,Gujarat,Ahmedabad,"SVPI Airport Hansol, Ahmedabad - IITM",04-12-2025 07:00:00,23.076793,72.627874,PM2.5,39,78,63
India,Gujarat,Ahmedabad,"SVPI Airport Hansol, Ahmedabad - IITM",04-12-2025 07:00:00,23.076793,72.627874,NO2,18,79,49
India,Gujarat,Nandesari,"GIDC, Nandesari - Nandesari Ind. Association",04-12-2025 07:00:00,22.410802,73.097923,NO2,11,57,27
India,Gujarat,Surat,"Science Center, Surat - SMC",04-12-2025 07:00:00,21.170046,72.795405,PM2.5,19,96,46
India,Uttar_Pradesh,Baghpat,"Sardar Patel Inter College, Baghpat - UPPCB",04-12-2025 07:00:00,28.964949,77.278761,NH3,6,9,8
India,Uttar_Pradesh,Baghpat,"Sardar Patel Inter College, Baghpat - UPPCB",04-12-2025 07:00:00,28.964949,77.278761,SO2,7,101,27
India,Uttar_Pradesh,Agra,"Shahjahan Garden, Agra - UPPCB",04-12-2025 07:00:00,27.169338,78.03582,PM2.5,30,227,103
India,Gujarat,Gandhinagar,"IIPHG Lekawada, Gandhinagar - IITM",04-12-2025 07:00:00,23.243639,72.68994,PM2.5,2,36,11
India,Uttar_Pradesh,Agra,"Shahjahan Garden, Agra - UPPCB",04-12-2025 07:00:00,27.169338,78.03582,OZONE,1,20,1
India,Telangana,Hyderabad,"Sanathnagar, Hyderabad - TSPCB",04-12-2025 07:00:00,17.4559458,78.4332152,OZONE,12,16,14
India,Telangana,Hyderabad,"Somajiguda, Hyderabad - TSPCB",04-12-2025 07:00:00,17.417094,78.457437,PM2.5,15,65,34
India,Telangana,Hyderabad,"Somajiguda, Hyderabad - TSPCB",04-12-2025 07:00:00,17.417094,78.457437,PM10,61,117,86
India,Gujarat,Gandhinagar,"Sector-10, Gandhinagar - GPCB",04-12-2025 07:00:00,23.221714,72.654328,PM10,55,95,78
India,Gujarat,Gandhinagar,"Sector-10, Gandhinagar - GPCB",04-12-2025 07:00:00,23.221714,72.654328,NO2,16,23,19
India,Gujarat,Gandhinagar,"Sector-10, Gandhinagar - GPCB",04-12-2025 07:00:00,23.221714,72.654328,OZONE,6,58,17
India,Tripura,Agartala,"Bardowali, Agartala - Tripura SPCB",04-12-2025 07:00:00,23.8175497,91.2726974,PM10,NA,NA,NA
India,Gujarat,Ahmedabad,"Gyaspur, Ahmedabad - IITM",04-12-2025 07:00:00,22.977134,72.553024,CO,19,104,89
India,Uttar_Pradesh,Firozabad,"Nagla Bhau, Firozabad - UPPCB",04-12-2025 07:00:00,27.168897,78.376960,CO,5,24,23
India,Haryana,Bhiwani,"H.B. Colony, Bhiwani - HSPCB",04-12-2025 07:00:00,28.806223,76.141105,NO2,1,35,31
India,Haryana,Bhiwani,"H.B. Colony, Bhiwani - HSPCB",04-12-2025 07:00:00,28.806223,76.141105,NH3,1,9,8
India,Haryana,Bhiwani,"H.B. Colony, Bhiwani - HSPCB",04-12-2025 07:00:00,28.806223,76.141105,SO2,12,13,12
India,Haryana,Bhiwani,"H.B. Colony, Bhiwani - HSPCB",04-12-2025 07:00:00,28.806223,76.141105,CO,6,14,12
India,Haryana,Bhiwani,"H.B. Colony, Bhiwani - HSPCB",04-12-2025 07:00:00,28.806223,76.141105,OZONE,8,20,14
India,Haryana,Charkhi Dadri,"Mini Secretariat, Charkhi Dadri - HSPCB",04-12-2025 07:00:00,28.593883,76.270653,NH3,5,8,6
India,Uttar_Pradesh,Ghaziabad,"Loni, Ghaziabad - UPPCB",04-12-2025 07:00:00,28.757294,77.278792,PM10,177,435,316
India,Haryana,Ambala,"Patti Mehar, Ambala - HSPCB",04-12-2025 07:00:00,30.379589,76.778328,PM10,12,163,120
India,Haryana,Ambala,"Patti Mehar, Ambala - HSPCB",04-12-2025 07:00:00,30.379589,76.778328,SO2,31,32,31
India,Uttar_Pradesh,Bulandshahr,"Yamunapuram, Bulandshahr - UPPCB",04-12-2025 07:00:00,28.406963,77.849831,SO2,9,102,37
India,Gujarat,Vatva,"Phase-4 GIDC, Vatva - GPCB",04-12-2025 07:00:00,22.969611,72.643500,NO2,29,51,39
India,Uttar_Pradesh,Bareilly,"Rajendra Nagar, Bareilly - UPPCB",04-12-2025 07:00:00,28.38910936,79.42963708,PM2.5,24,88,65
India,Uttar_Pradesh,Bareilly,"Rajendra Nagar, Bareilly - UPPCB",04-12-2025 07:00:00,28.38910936,79.42963708,SO2,34,37,35
India,Uttar_Pradesh,Firozabad,"Nagla Bhau, Firozabad - UPPCB",04-12-2025 07:00:00,27.168897,78.376960,PM2.5,34,88,63
India,Haryana,Ballabgarh,"Nathu Colony, Ballabgarh - HSPCB",04-12-2025 07:00:00,28.3419248,77.319699,CO,15,112,47
India,Uttar_Pradesh,Ghaziabad,"Sanjay Nagar, Ghaziabad - UPPCB",04-12-2025 07:00:00,28.685382,77.453839,NO2,69,158,104
India,Haryana,Faridabad,"New Industrial Town, Faridabad - HSPCB",04-12-2025 07:00:00,28.39072,77.30059,NH3,10,12,11
India,Haryana,Ambala,"Patti Mehar, Ambala - HSPCB",04-12-2025 07:00:00,30.379589,76.778328,OZONE,48,52,50
India,Haryana,Ballabgarh,"Nathu Colony, Ballabgarh - HSPCB",04-12-2025 07:00:00,28.3419248,77.319699,PM2.5,208,210,208
India,Haryana,Faridabad,"Sector 11, Faridabad - HSPCB",04-12-2025 07:00:00,28.376058,77.315741,PM10,112,330,160
India,Haryana,Faridabad,"Sector 11, Faridabad - HSPCB",04-12-2025 07:00:00,28.376058,77.315741,SO2,1,5,4
India,Haryana,Dharuhera,"Municipal Corporation Office, Dharuhera -  HSPCB",04-12-2025 07:00:00,28.206800,76.799700,CO,4,5,5
India,Uttar_Pradesh,Ghaziabad,"Sanjay Nagar, Ghaziabad - UPPCB",04-12-2025 07:00:00,28.685382,77.453839,PM10,128,322,193
India,Uttar_Pradesh,Kanpur,"Nehru Nagar, Kanpur - UPPCB",04-12-2025 07:00:00,26.4703136,80.3229863,PM10,57,152,84
India,Uttar_Pradesh,Kanpur,"Nehru Nagar, Kanpur - UPPCB",04-12-2025 07:00:00,26.4703136,80.3229863,NO2,11,45,29
India,Haryana,Hisar,"Urban Estate-II, Hisar - HSPCB",04-12-2025 07:00:00,29.140560,75.744941,PM10,NA,NA,NA
India,Uttar_Pradesh,Khurja,"Kalindi Kunj, Khurja - UPPCB",04-12-2025 07:00:00,28.2348927,77.8683002,SO2,14,15,14
India,Uttar_Pradesh,Lucknow,"B R Ambedkar University, Lucknow - UPPCB",04-12-2025 07:00:00,26.766433,80.927299,PM10,98,220,143
India,Haryana,Jind,"Police Lines, Jind - HSPCB",04-12-2025 07:00:00,29.307814,76.337619,PM10,95,177,123
India,Uttar_Pradesh,Lucknow,"Gomti Nagar, Lucknow - UPPCB",04-12-2025 07:00:00,26.868120,81.005119,SO2,9,12,10
India,Uttar_Pradesh,Lucknow,"Kendriya Vidyalaya, Lucknow - CPCB",04-12-2025 07:00:00,26.906111,80.948222,PM2.5,92,305,192
India,Uttar_Pradesh,Lucknow,"Kendriya Vidyalaya, Lucknow - CPCB",04-12-2025 07:00:00,26.906111,80.948222,PM10,111,210,150
India,Uttar_Pradesh,Lucknow,"Kendriya Vidyalaya, Lucknow - CPCB",04-12-2025 07:00:00,26.906111,80.948222,NO2,37,44,40
India,Uttar_Pradesh,Kanpur,"NSI Kalyanpur, Kanpur - UPPCB",04-12-2025 07:00:00,26.509954,80.249612,PM2.5,50,237,108
India,Haryana,Gurugram,"Sector-51, Gurugram - HSPCB",04-12-2025 07:00:00,28.4227,77.0667,OZONE,9,46,12
India,Haryana,Gurugram,"Teri Gram, Gurugram - HSPCB",04-12-2025 07:00:00,28.4275,77.1465,PM2.5,152,370,312
India,Uttar_Pradesh,Kanpur,"NSI Kalyanpur, Kanpur - UPPCB",04-12-2025 07:00:00,26.509954,80.249612,NO2,22,23,22
India,Uttar_Pradesh,Greater Noida,"Knowledge Park - V, Greater Noida - UPPCB",04-12-2025 07:00:00,28.557054,77.453663,PM2.5,168,405,318
India,Haryana,Faridabad,"Sector 30, Faridabad - HSPCB",04-12-2025 07:00:00,28.4417,77.3217,CO,40,64,62
India,Haryana,Fatehabad,"Huda Sector, Fatehabad - HSPCB",04-12-2025 07:00:00,29.503664,75.467934,PM10,109,485,191
India,Haryana,Kaithal,"Rishi Nagar, Kaithal - HSPCB",04-12-2025 07:00:00,29.8006,76.4155,CO,NA,NA,NA
India,Haryana,Karnal,"Sector-12, Karnal - HSPCB",04-12-2025 07:00:00,29.695300,77.002700,PM2.5,173,317,238
India,Uttar_Pradesh,Lucknow,"Kukrail Picnic Spot-1, Lucknow - UPPCB",04-12-2025 07:00:00,26.90723,80.98579,PM2.5,58,175,100
India,Uttar_Pradesh,Hapur,"Anand Vihar, Hapur - UPPCB",04-12-2025 07:00:00,28.725645,77.749675,PM10,133,354,224
India,Haryana,Fatehabad,"Huda Sector, Fatehabad - HSPCB",04-12-2025 07:00:00,29.503664,75.467934,NH3,13,15,14
India,Uttar_Pradesh,Hapur,"Anand Vihar, Hapur - UPPCB",04-12-2025 07:00:00,28.725645,77.749675,SO2,19,67,44
India,Haryana,Fatehabad,"Huda Sector, Fatehabad - HSPCB",04-12-2025 07:00:00,29.503664,75.467934,OZONE,10,13,11
India,Uttar_Pradesh,Lucknow,"Kukrail Picnic Spot-1, Lucknow - UPPCB",04-12-2025 07:00:00,26.90723,80.98579,PM10,85,140,109
India,Haryana,Karnal,"Sector-12, Karnal - HSPCB",04-12-2025 07:00:00,29.695300,77.002700,NO2,6,7,6
India,Haryana,Karnal,"Sector-12, Karnal - HSPCB",04-12-2025 07:00:00,29.695300,77.002700,CO,42,61,52
India,Uttar_Pradesh,Jhansi,"Shivaji Nagar, Jhansi - UPPCB",04-12-2025 07:00:00,25.4547,78.6039,PM10,29,54,41
India,Uttar_Pradesh,Jhansi,"Shivaji Nagar, Jhansi - UPPCB",04-12-2025 07:00:00,25.4547,78.6039,NH3,4,4,4
India,Uttar_Pradesh,Kanpur,"FTI Kidwai Nagar, Kanpur - UPPCB",04-12-2025 07:00:00,26.428282,80.327067,PM2.5,45,306,119
India,Haryana,Faridabad,"Sector 30, Faridabad - HSPCB",04-12-2025 07:00:00,28.4417,77.3217,NH3,11,12,11
India,Haryana,Faridabad,"Sector 30, Faridabad - HSPCB",04-12-2025 07:00:00,28.4417,77.3217,SO2,6,6,6
India,Uttar_Pradesh,Meerut,"Ganga Nagar, Meerut - UPPCB",04-12-2025 07:00:00,28.999264,77.7590354,NO2,37,111,66
India,Haryana,Mandikhera,"General Hospital, Mandikhera(Nuh) - HSPCB",04-12-2025 07:00:00,27.9002,76.9938,OZONE,24,31,27
India,Uttar_Pradesh,Meerut,"Ganga Nagar, Meerut - UPPCB",04-12-2025 07:00:00,28.999264,77.7590354,NH3,1,5,3
India,Uttar_Pradesh,Meerut,"Ganga Nagar, Meerut - UPPCB",04-12-2025 07:00:00,28.999264,77.7590354,SO2,28,50,35
India,Uttar_Pradesh,Meerut,"Pallavpuram Phase 2, Meerut - UPPCB",04-12-2025 07:00:00,29.063510,77.709723,NH3,9,9,9
India,Uttar_Pradesh,Meerut,"Pallavpuram Phase 2, Meerut - UPPCB",04-12-2025 07:00:00,29.063510,77.709723,CO,21,102,58
India,Haryana,Manesar,"Sector-2 IMT, Manesar - HSPCB",04-12-2025 07:00:00,28.360699,76.936090,NH3,16,19,18
India,Haryana,Narnaul,"Shastri Nagar, Narnaul - HSPCB",04-12-2025 07:00:00,28.060249,76.113115,CO,21,48,36
India,Uttar_Pradesh,Moradabad,"Eco Herbal Park, Moradabad - UPPCB",04-12-2025 07:00:00,28.840739,78.697531,SO2,9,34,17
India,Uttar_Pradesh,Lucknow,"Lalbagh, Lucknow - CPCB",04-12-2025 07:00:00,26.8458805,80.9365541,NH3,15,24,20
India,Uttar_Pradesh,Lucknow,"Lalbagh, Lucknow - CPCB",04-12-2025 07:00:00,26.8458805,80.9365541,SO2,1,37,9
India,Uttar_Pradesh,Lucknow,"Lalbagh, Lucknow - CPCB",04-12-2025 07:00:00,26.8458805,80.9365541,CO,15,36,25
India,Uttar_Pradesh,Meerut,"Jai Bhim Nagar, Meerut - UPPCB",04-12-2025 07:00:00,28.9535882,77.7622941,OZONE,28,159,57
India,Uttar_Pradesh,Meerut,"Ganga Nagar, Meerut - UPPCB",04-12-2025 07:00:00,28.999264,77.7590354,PM2.5,88,319,186
India,Uttar_Pradesh,Moradabad,"Buddhi Vihar, Moradabad - UPPCB",04-12-2025 07:00:00,28.83526,78.74460,PM10,60,166,114
India,Haryana,Kurukshetra,"Sector-7, Kurukshetra - HSPCB",04-12-2025 07:00:00,29.966942,76.875879,PM2.5,133,308,210
India,Haryana,Kurukshetra,"Sector-7, Kurukshetra - HSPCB",04-12-2025 07:00:00,29.966942,76.875879,OZONE,14,75,35
India,Uttar_Pradesh,Moradabad,"Kashiram Nagar, Moradabad - UPPCB",04-12-2025 07:00:00,28.849399,78.742362,SO2,4,104,47
India,Haryana,Panipat,"Sector-18, Panipat - HSPCB",04-12-2025 07:00:00,29.432304,76.972765,NO2,31,32,31
India,Uttar_Pradesh,Moradabad,"Kashiram Nagar, Moradabad - UPPCB",04-12-2025 07:00:00,28.849399,78.742362,CO,27,66,44
India,Uttar_Pradesh,Moradabad,"Employment Office, Moradabad - UPPCB",04-12-2025 07:00:00,28.88528,78.73880,OZONE,14,72,15
India,Haryana,Panchgaon,"Amity University, Panchgaon - IITM",04-12-2025 07:00:00,28.3153,76.9143,NO2,3,108,60
India,Uttar_Pradesh,Moradabad,"Transport Nagar, Moradabad - UPPCB",04-12-2025 07:00:00,28.802625,78.753728,PM2.5,35,140,84
India,Haryana,Sirsa,"F-Block, Sirsa - HSPCB",04-12-2025 07:00:00,29.536400,75.015800,PM2.5,75,176,115
India,Uttar_Pradesh,Moradabad,"Employment Office, Moradabad - UPPCB",04-12-2025 07:00:00,28.88528,78.73880,NO2,15,16,16
India,Uttar_Pradesh,Moradabad,"Employment Office, Moradabad - UPPCB",04-12-2025 07:00:00,28.88528,78.73880,CO,2,53,44
India,Haryana,Sirsa,"F-Block, Sirsa - HSPCB",04-12-2025 07:00:00,29.536400,75.015800,NH3,11,16,14
India,Haryana,Sirsa,"F-Block, Sirsa - HSPCB",04-12-2025 07:00:00,29.536400,75.015800,CO,36,62,49
India,Uttar_Pradesh,Muzaffarnagar,"New Mandi, Muzaffarnagar - UPPCB",04-12-2025 07:00:00,29.4723508,77.7194031,PM10,117,216,151
India,Haryana,Panchkula,"Sector-6, Panchkula - HSPCB ",04-12-2025 07:00:00,30.7057778,76.8531805555555,NO2,24,26,25
India,Haryana,Panchgaon,"Amity University, Panchgaon - IITM",04-12-2025 07:00:00,28.3153,76.9143,OZONE,1,271,2
India,Haryana,Panchgaon,"Amity University, Panchgaon - IITM",04-12-2025 07:00:00,28.3153,76.9143,SO2,2,8,4
India,Himachal Pradesh,Baddi,"HIMUDA Complex Phase-1, Baddi - HPPCB",04-12-2025 07:00:00,30.943887,76.801991,PM2.5,58,417,233
India,Uttar_Pradesh,Noida,"Sector-1, Noida - UPPCB",04-12-2025 07:00:00,28.5898,77.3101,NH3,16,24,20
India,Himachal Pradesh,Baddi,"HIMUDA Complex Phase-1, Baddi - HPPCB",04-12-2025 07:00:00,30.943887,76.801991,NH3,6,12,9
India,Himachal Pradesh,Baddi,"HIMUDA Complex Phase-1, Baddi - HPPCB",04-12-2025 07:00:00,30.943887,76.801991,SO2,24,126,50
India,Uttar_Pradesh,Noida,"Sector-116, Noida - UPPCB",04-12-2025 07:00:00,28.569230,77.393848,SO2,7,37,20
India,Uttar_Pradesh,Varanasi,"Ardhali Bazar, Varanasi - UPPCB",04-12-2025 07:00:00,25.3505986,82.9083074,PM2.5,44,145,91
India,Karnataka,Belgaum,"Ramteerth Nagar, Belgaum - KSPCB",04-12-2025 07:00:00,15.888653,74.541751,NH3,NA,NA,NA
India,Uttar_Pradesh,Varanasi,"Ardhali Bazar, Varanasi - UPPCB",04-12-2025 07:00:00,25.3505986,82.9083074,PM10,80,180,137
India,Uttar_Pradesh,Prayagraj,"Motilal Nehru NIT, Prayagraj - UPPCB",04-12-2025 07:00:00,25.494,81.863,NH3,8,8,8
India,Jharkhand,Jorapokhar,"Tata Stadium, Jorapokhar - JSPCB",04-12-2025 07:00:00,23.707909,86.414670,SO2,NA,NA,NA
India,Uttar_Pradesh,Prayagraj,"Motilal Nehru NIT, Prayagraj - UPPCB",04-12-2025 07:00:00,25.494,81.863,OZONE,6,45,6
India,Jammu_and_Kashmir,Srinagar,"Rajbagh, Srinagar - JKSPCB",04-12-2025 07:00:00,34.066206,74.819820,SO2,3,4,3
India,Uttar_Pradesh,Prayagraj,"Jhunsi, Prayagraj - UPPCB",04-12-2025 07:00:00,25.425602,81.917152,PM10,95,281,171
India,Uttar_Pradesh,Prayagraj,"Jhunsi, Prayagraj - UPPCB",04-12-2025 07:00:00,25.425602,81.917152,NO2,6,6,6
India,Haryana,Yamuna Nagar,"Gobind Pura, Yamuna Nagar - HSPCB",04-12-2025 07:00:00,30.1480566,77.2893471,PM10,NA,NA,NA
India,Uttar_Pradesh,Noida,"Sector - 125, Noida - UPPCB",04-12-2025 07:00:00,28.5447608,77.3231257,SO2,9,20,13
India,Uttar_Pradesh,Noida,"Sector - 125, Noida - UPPCB",04-12-2025 07:00:00,28.5447608,77.3231257,OZONE,9,29,9
India,Uttar_Pradesh,Muzaffarnagar,"New Mandi, Muzaffarnagar - UPPCB",04-12-2025 07:00:00,29.4723508,77.7194031,NH3,13,19,15
India,Uttar_Pradesh,Muzaffarnagar,"New Mandi, Muzaffarnagar - UPPCB",04-12-2025 07:00:00,29.4723508,77.7194031,CO,32,104,48
India,Uttar_Pradesh,Prayagraj,"Nagar Nigam, Prayagraj - UPPCB",04-12-2025 07:00:00,25.44919916 ,81.82735986 ,PM2.5,80,303,153
India,Uttar_Pradesh,Noida,"Sector - 125, Noida - UPPCB",04-12-2025 07:00:00,28.5447608,77.3231257,PM2.5,184,442,341
India,Uttar_Pradesh,Noida,"Sector - 125, Noida - UPPCB",04-12-2025 07:00:00,28.5447608,77.3231257,NH3,2,3,3
India,Karnataka,Bengaluru,"BTM Layout, Bengaluru - CPCB",04-12-2025 07:00:00,12.9135218,77.5950804,SO2,18,19,18
India,Karnataka,Bengaluru,"BWSSB Kadabesanahalli, Bengaluru - CPCB",04-12-2025 07:00:00,12.9352049,77.6814488,PM2.5,13,157,69
India,Uttar_Pradesh,Varanasi,"Bhelupur, Varanasi - UPPCB",04-12-2025 07:00:00,25.301778,82.996789,OZONE,1,16,1
India,Uttar_Pradesh,Varanasi,"IESD Banaras Hindu University, Varanasi - UPPCB",04-12-2025 07:00:00,25.262326,82.995408,PM10,74,195,122
India,Karnataka,Bengaluru,"BWSSB Kadabesanahalli, Bengaluru - CPCB",04-12-2025 07:00:00,12.9352049,77.6814488,CO,101,110,103
India,Uttar_Pradesh,Varanasi,"IESD Banaras Hindu University, Varanasi - UPPCB",04-12-2025 07:00:00,25.262326,82.995408,NO2,2,2,2
India,Uttar_Pradesh,Vrindavan,"Omex Eternity, Vrindavan - UPPCB",04-12-2025 07:00:00,27.5714090,77.6557570,CO,29,76,49
India,Uttar_Pradesh,Vrindavan,"Omex Eternity, Vrindavan - UPPCB",04-12-2025 07:00:00,27.5714090,77.6557570,OZONE,15,16,15
India,Uttarakhand,Dehradun,"Doon University, Dehradun - UKPCB",04-12-2025 07:00:00,30.269444,78.044167,CO,38,41,39
India,Karnataka,Bengaluru,"Hombegowda Nagar, Bengaluru - KSPCB",04-12-2025 07:00:00,12.938539,77.590100,OZONE,6,28,13
India,Karnataka,Bengaluru,"City Railway Station, Bengaluru - KSPCB",04-12-2025 07:00:00,12.9756843,77.5660749,CO,85,88,87
India,Uttar_Pradesh,Varanasi,"Maldahiya, Varanasi - UPPCB",04-12-2025 07:00:00,25.32393,82.99687,PM10,58,118,93
India,Uttar_Pradesh,Varanasi,"Maldahiya, Varanasi - UPPCB",04-12-2025 07:00:00,25.32393,82.99687,CO,24,60,37
India,Karnataka,Bengaluru,"Hebbal, Bengaluru - KSPCB",04-12-2025 07:00:00,13.029152,77.585901,NH3,NA,NA,NA
India,Uttarakhand,Rishikesh,"Shivaji Nagar, Rishikesh - UKPCB",04-12-2025 07:00:00,30.075911,78.2859547,PM10,52,107,70
India,Uttarakhand,Rishikesh,"Shivaji Nagar, Rishikesh - UKPCB",04-12-2025 07:00:00,30.075911,78.2859547,NH3,6,12,8
India,Karnataka,Bengaluru,"Kasturi Nagar, Bengaluru - KSPCB",04-12-2025 07:00:00,13.003872,77.664217,PM2.5,58,61,60
India,Karnataka,Bengaluru,"Kasturi Nagar, Bengaluru - KSPCB",04-12-2025 07:00:00,13.003872,77.664217,PM10,70,72,71
India,Uttarakhand,Kashipur,"Govt. Girls Inter College, Kashipur - UKPCB",04-12-2025 07:00:00,29.2124114,78.9611753,PM2.5,51,291,134
India,Karnataka,Bengaluru,"Jayanagar 5th Block, Bengaluru - KSPCB",04-12-2025 07:00:00,12.920984,77.584908,PM10,11,85,47
India,Karnataka,Belgaum,"Ramteerth Nagar, Belgaum - KSPCB",04-12-2025 07:00:00,15.888653,74.541751,OZONE,NA,NA,NA
India,Uttar_Pradesh,Varanasi,"Ardhali Bazar, Varanasi - UPPCB",04-12-2025 07:00:00,25.3505986,82.9083074,OZONE,6,19,15
India,Uttar_Pradesh,Varanasi,"IESD Banaras Hindu University, Varanasi - UPPCB",04-12-2025 07:00:00,25.262326,82.995408,NH3,1,8,4
India,Uttar_Pradesh,Vrindavan,"Omex Eternity, Vrindavan - UPPCB",04-12-2025 07:00:00,27.5714090,77.6557570,PM2.5,40,221,103
India,Karnataka,Bengaluru,"Jigani, Bengaluru - KSPCB",04-12-2025 07:00:00,12.7816279,77.6299145,PM2.5,38,39,38
India,West_Bengal,Barrackpore,"SVSPA Campus, Barrackpore - WBPCB",04-12-2025 07:00:00,22.7605581,88.3617589,SO2,9,11,10
India,West_Bengal,Barrackpore,"SVSPA Campus, Barrackpore - WBPCB",04-12-2025 07:00:00,22.7605581,88.3617589,CO,56,102,89
India,Karnataka,Chamarajanagar,"Urban, Chamarajanagar - KSPCB",04-12-2025 07:00:00,11.55358,76.55521,NH3,1,2,2
India,West_Bengal,Durgapur,"Mahishkapur Road_B-Zone, Durgapur - WBPCB",04-12-2025 07:00:00,23.567923,87.306843,PM10,89,126,106
India,Karnataka,Chamarajanagar,"Urban, Chamarajanagar - KSPCB",04-12-2025 07:00:00,11.55358,76.55521,CO,15,120,31
India,West_Bengal,Durgapur,"Mahishkapur Road_B-Zone, Durgapur - WBPCB",04-12-2025 07:00:00,23.567923,87.306843,NH3,2,2,2
India,Karnataka,Chikkamagaluru,"Kalyana Nagara, Chikkamagaluru - KSPCB",04-12-2025 07:00:00,13.328028,75.797056,PM10,30,37,36
India,West_Bengal,Durgapur,"Mahishkapur Road_B-Zone, Durgapur - WBPCB",04-12-2025 07:00:00,23.567923,87.306843,SO2,12,52,23
India,Karnataka,Bengaluru,"Shivapura_Peenya, Bengaluru - KSPCB",04-12-2025 07:00:00,13.0246342,77.5080115,NO2,34,36,35
India,Karnataka,Bengaluru,"Shivapura_Peenya, Bengaluru - KSPCB",04-12-2025 07:00:00,13.0246342,77.5080115,NH3,5,5,5
India,Karnataka,Bengaluru,"Shivapura_Peenya, Bengaluru - KSPCB",04-12-2025 07:00:00,13.0246342,77.5080115,SO2,3,13,8
India,Karnataka,Bengaluru,"Shivapura_Peenya, Bengaluru - KSPCB",04-12-2025 07:00:00,13.0246342,77.5080115,CO,43,50,45
India,Karnataka,Bengaluru,"Silk Board, Bengaluru - KSPCB",04-12-2025 07:00:00,12.917348,77.622813,PM10,28,115,59
India,West_Bengal,Asansol,"Trivenidevi Bhalotia College, Asansol - WBPCB",04-12-2025 07:00:00,23.616515,87.119133,CO,50,102,86
India,Karnataka,Hubballi,"Lingaraj Nagar, Hubballi - KSPCB",04-12-2025 07:00:00,15.3714823,75.1160168,PM10,58,66,60
India,Karnataka,Hubballi,"Lingaraj Nagar, Hubballi - KSPCB",04-12-2025 07:00:00,15.3714823,75.1160168,NO2,7,13,8
India,West_Bengal,Durgapur,"PCBL Residential Complex, Durgapur - WBPCB",04-12-2025 07:00:00,23.5087640,87.3544400,OZONE,1,17,2
India,Karnataka,Bengaluru,"Peenya, Bengaluru - CPCB",04-12-2025 07:00:00,13.0270199,77.494094,OZONE,25,26,25
India,Karnataka,Bengaluru,"Peenya, Bengaluru - CPCB",04-12-2025 07:00:00,13.0270199,77.494094,NO2,21,27,24
India,Karnataka,Dharwad,"Kalabhavan, Dharwad - KSPCB",04-12-2025 07:00:00,15.459706,75.008381,SO2,1,3,2
India,Karnataka,Kalaburagi,"Mahatma Basaveswar Colony, Kalaburgi - KSPCB",04-12-2025 07:00:00,17.336318,76.847397,NO2,12,18,13
India,Karnataka,Kalaburagi,"Mahatma Basaveswar Colony, Kalaburgi - KSPCB",04-12-2025 07:00:00,17.336318,76.847397,NH3,3,4,3
India,West_Bengal,Kolkata,"Ballygunge, Kolkata - WBPCB",04-12-2025 07:00:00,22.5367507,88.3638022,PM10,131,275,172
India,West_Bengal,Howrah,"Belur Math, Howrah - WBPCB",04-12-2025 07:00:00,22.629801,88.352017,PM2.5,243,416,335
India,West_Bengal,Howrah,"Botanical Garden, Howrah - WBPCB",04-12-2025 07:00:00,22.554954,88.292568,CO,12,92,67
India,Karnataka,Koppal,"Diwator Nagar, Koppal - KSPCB",04-12-2025 07:00:00,15.347630,76.181767,SO2,8,36,18
India,West_Bengal,Howrah,"Ghusuri, Howrah - WBPCB",04-12-2025 07:00:00,22.611968,88.347422,NO2,21,37,26
India,West_Bengal,Howrah,"Dasnagar, Howrah - WBPCB",04-12-2025 07:00:00,22.6025571,88.3105664,NH3,1,2,1
India,West_Bengal,Howrah,"Ghusuri, Howrah - WBPCB",04-12-2025 07:00:00,22.611968,88.347422,SO2,12,22,16
India,Karnataka,Mangalore,"Kadri, Mangalore - KSPCB",04-12-2025 07:00:00,12.889250,74.853000,NH3,1,2,2
India,Karnataka,Mysuru,"Hebbal 1st Stage, Mysuru - KSPCB",04-12-2025 07:00:00,12.21041,76.37376,NO2,11,27,21
India,West_Bengal,Kolkata,"Fort William, Kolkata - WBPCB",04-12-2025 07:00:00,22.556640,88.342674,PM2.5,NA,NA,NA
India,West_Bengal,Kolkata,"Fort William, Kolkata - WBPCB",04-12-2025 07:00:00,22.556640,88.342674,PM10,NA,NA,NA
India,West_Bengal,Kolkata,"Fort William, Kolkata - WBPCB",04-12-2025 07:00:00,22.556640,88.342674,NO2,16,22,18
India,West_Bengal,Kolkata,"Rabindra Bharati University, Kolkata - WBPCB",04-12-2025 07:00:00,22.627847,88.380669,NO2,32,140,84
India,Kerala,Eloor,"Udyogamandal, Eloor - Kerala PCB",04-12-2025 07:00:00,10.073232,76.302765,OZONE,NA,NA,NA
India,West_Bengal,Kolkata,"Rabindra Bharati University, Kolkata - WBPCB",04-12-2025 07:00:00,22.627847,88.380669,PM2.5,94,296,194
India,West_Bengal,Kolkata,"Rabindra Sarobar, Kolkata - WBPCB",04-12-2025 07:00:00,22.51106,88.35142,NH3,9,40,20
India,Karnataka,Shivamogga,"Vinoba Nagara, Shivamogga - KSPCB",04-12-2025 07:00:00,13.940000,75.555917,NH3,2,3,3
India,West_Bengal,Kolkata,"Jadavpur, Kolkata - WBPCB",04-12-2025 07:00:00,22.49929,88.36917,PM10,150,307,209
India,Kerala,Kollam,"Polayathode, Kollam - Kerala PCB",04-12-2025 07:00:00,8.8787,76.6073,PM10,49,156,89
India,Kerala,Kollam,"Polayathode, Kollam - Kerala PCB",04-12-2025 07:00:00,8.8787,76.6073,OZONE,29,35,30
India,Kerala,Kollam,"Polayathode, Kollam - Kerala PCB",04-12-2025 07:00:00,8.8787,76.6073,NH3,1,1,1
India,Kerala,Thrissur,"Corporation Ground, Thrissur - Kerala PCB",04-12-2025 07:00:00,10.532400,76.215900,OZONE,31,31,31
India,Madhya Pradesh,Bhopal,"Idgah Hills, Bhopal - MPPCB",04-12-2025 07:00:00,23.264759,77.381568,NO2,19,61,32
India,Madhya Pradesh,Bhopal,"Idgah Hills, Bhopal - MPPCB",04-12-2025 07:00:00,23.264759,77.381568,NH3,5,6,6
India,Madhya Pradesh,Dewas,"Bhopal Chauraha, Dewas - MPPCB",04-12-2025 07:00:00,22.9682591,76.064118,NH3,2,3,2
India,Madhya Pradesh,Dewas,"Bhopal Chauraha, Dewas - MPPCB",04-12-2025 07:00:00,22.9682591,76.064118,CO,16,35,21
India,Madhya Pradesh,Gwalior,"City Center, Gwalior - MPPCB",04-12-2025 07:00:00,26.203442,78.193251,PM2.5,92,313,198
India,Kerala,Thiruvananthapuram,"Plammoodu, Thiruvananthapuram - Kerala PCB",04-12-2025 07:00:00,8.5149093,76.9435879,NH3,1,5,3
India,Kerala,Thrissur,"Corporation Ground, Thrissur - Kerala PCB",04-12-2025 07:00:00,10.532400,76.215900,PM10,40,55,47
India,Madhya Pradesh,Bhopal,"T T Nagar, Bhopal - MPPCB",04-12-2025 07:00:00,23.233584,77.400574,SO2,5,13,10
India,Madhya Pradesh,Dewas,"Bhopal Chauraha, Dewas - MPPCB",04-12-2025 07:00:00,22.9682591,76.064118,PM10,73,173,109
India,Madhya Pradesh,Gwalior,"Maharaj Bada, Gwalior - MPPCB",04-12-2025 07:00:00,26.200388,78.147714,PM10,111,228,166
India,Madhya Pradesh,Gwalior,"Maharaj Bada, Gwalior - MPPCB",04-12-2025 07:00:00,26.200388,78.147714,NO2,24,127,57
India,Madhya Pradesh,Indore,"Chhoti Gwaltoli, Indore - MPPCB",04-12-2025 07:00:00,22.4310,75.5213,PM2.5,50,217,101
India,Madhya Pradesh,Indore,"Chhoti Gwaltoli, Indore - MPPCB",04-12-2025 07:00:00,22.4310,75.5213,PM10,61,150,103
India,Madhya Pradesh,Bhopal,"Paryavaran Parisar, Bhopal - MPPCB",04-12-2025 07:00:00,23.210494,77.425409,PM2.5,50,302,118
India,Madhya Pradesh,Gwalior,"Deen Dayal Nagar, Gwalior - MPPCB",04-12-2025 07:00:00,26.259242,78.216432,SO2,2,11,7
India,Madhya Pradesh,Gwalior,"City Center, Gwalior - MPPCB",04-12-2025 07:00:00,26.203442,78.193251,NO2,22,153,61
India,Madhya Pradesh,Pithampur,"Sector-2 Industrial Area, Pithampur - MPPCB",04-12-2025 07:00:00,22.624758,75.675238,NH3,2,3,3
India,Madhya Pradesh,Pithampur,"Sector-2 Industrial Area, Pithampur - MPPCB",04-12-2025 07:00:00,22.624758,75.675238,CO,24,56,32
India,Madhya Pradesh,Ratlam,"Shasthri Nagar, Ratlam - IPCA Lab",04-12-2025 07:00:00,23.331731,75.045981,PM2.5,46,166,81
India,Madhya Pradesh,Ratlam,"Shasthri Nagar, Ratlam - IPCA Lab",04-12-2025 07:00:00,23.331731,75.045981,PM10,88,183,128
India,Madhya Pradesh,Mandideep,"Sector-D Industrial Area, Mandideep - MPPCB",04-12-2025 07:00:00,23.108440,77.511428,PM2.5,51,348,191
India,Madhya Pradesh,Mandideep,"Sector-D Industrial Area, Mandideep - MPPCB",04-12-2025 07:00:00,23.108440,77.511428,SO2,25,125,59
India,Madhya Pradesh,Pithampur,"Sector-2 Industrial Area, Pithampur - MPPCB",04-12-2025 07:00:00,22.624758,75.675238,PM2.5,68,300,146
India,Madhya Pradesh,Ratlam,"Shasthri Nagar, Ratlam - IPCA Lab",04-12-2025 07:00:00,23.331731,75.045981,SO2,32,36,34
India,Madhya Pradesh,Sagar,"Civil Lines, Sagar - MPPCB",04-12-2025 07:00:00,23.838586,78.759431,PM10,63,127,96
India,Madhya Pradesh,Indore,"Maguda Nagar, Indore - IMC",04-12-2025 07:00:00,22.7524,75.8872,CO,14,38,25
India,Madhya Pradesh,Indore,"Maguda Nagar, Indore - IMC",04-12-2025 07:00:00,22.7524,75.8872,OZONE,7,24,9
India,Madhya Pradesh,Indore,"Regional Park, Indore - IMC",04-12-2025 07:00:00,22.6780,75.8559,PM10,32,86,56
India,Madhya Pradesh,Indore,"Regional Park, Indore - IMC",04-12-2025 07:00:00,22.6780,75.8559,NH3,NA,NA,NA
India,Madhya Pradesh,Indore,"Residency Area, Indore - IMC",04-12-2025 07:00:00,22.7084,75.8815,NO2,11,20,15
India,Madhya Pradesh,Jabalpur,"Gupteshwar, Jabalpur - JMC",04-12-2025 07:00:00,23.142888,79.916147,SO2,7,10,8
India,Madhya Pradesh,Indore,"Residency Area, Indore - IMC",04-12-2025 07:00:00,22.7084,75.8815,SO2,27,29,28
India,Madhya Pradesh,Jabalpur,"Marhatal, Jabalpur - MPPCB",04-12-2025 07:00:00,23.168606,79.932247,NH3,2,2,2
India,Madhya Pradesh,Sagar,"Deen Dayal Nagar, Sagar - MPPCB",04-12-2025 07:00:00,23.8640158,78.80289321,PM10,57,115,91
India,Madhya Pradesh,Sagar,"Deen Dayal Nagar, Sagar - MPPCB",04-12-2025 07:00:00,23.8640158,78.80289321,NO2,3,93,36
India,Madhya Pradesh,Sagar,"Deen Dayal Nagar, Sagar - MPPCB",04-12-2025 07:00:00,23.8640158,78.80289321,SO2,5,8,6
India,Madhya Pradesh,Sagar,"Deen Dayal Nagar, Sagar - MPPCB",04-12-2025 07:00:00,23.8640158,78.80289321,CO,46,74,60
India,Madhya Pradesh,Satna,"Bandhavgar Colony, Satna - Birla Cement",04-12-2025 07:00:00,24.58434363,80.8549414,NO2,12,13,12
India,Maharashtra,Aurangabad,"Rachnakar Colony, Aurangabad - MPCB",04-12-2025 07:00:00,19.863756,75.321188,NH3,1,3,2
India,Maharashtra,Badlapur,"Katrap, Badlapur - MPCB",04-12-2025 07:00:00,19.16485,73.23409,PM2.5,53,168,97
India,Madhya Pradesh,Singrauli,"Suryakiran Bhawan NCL, Singrauli - MPPCB",04-12-2025 07:00:00,24.108970,82.645580,SO2,21,32,26
India,Madhya Pradesh,Singrauli,"Suryakiran Bhawan NCL, Singrauli - MPPCB",04-12-2025 07:00:00,24.108970,82.645580,OZONE,1,55,1
India,Madhya Pradesh,Singrauli,"Suryakiran Bhawan NCL, Singrauli - MPPCB",04-12-2025 07:00:00,24.108970,82.645580,NO2,63,115,95
India,Maharashtra,Amravati,"Shri Shivaji Science College, Amravati - MPCB",04-12-2025 07:00:00,20.939198,77.765701,SO2,5,19,9
India,Maharashtra,Aurangabad,"More Chowk Waluj, Aurangabad - MPCB",04-12-2025 07:00:00,19.8389439,75.244448,CO,2,135,82
India,Maharashtra,Amravati,"Shivneri Colony, Amravati - MPCB",04-12-2025 07:00:00,20.9402359,77.7895248,NO2,10,33,19
India,Maharashtra,Akola,"Ramdaspeth, Akola - MPCB",04-12-2025 07:00:00,20.719516,77.000253,PM10,56,132,86
India,Maharashtra,Akola,"Ramdaspeth, Akola - MPCB",04-12-2025 07:00:00,20.719516,77.000253,NH3,4,6,5
India,Maharashtra,Dhule,"Deopur, Dhule - MPCB",04-12-2025 07:00:00,20.918946,74.776388,OZONE,9,63,12
India,Maharashtra,Jalgaon,"Prabhat Colony, Jalgaon - MPCB",04-12-2025 07:00:00,21.001264,75.565602,NO2,4,31,10
India,Maharashtra,Jalgaon,"Prabhat Colony, Jalgaon - MPCB",04-12-2025 07:00:00,21.001264,75.565602,CO,18,40,23
India,Maharashtra,Jalna,"Old MIDC, Jalna - MPCB",04-12-2025 07:00:00,19.854616,75.905894,PM2.5,41,140,64
India,Maharashtra,Jalna,"Old MIDC, Jalna - MPCB",04-12-2025 07:00:00,19.854616,75.905894,PM10,62,157,93
India,Maharashtra,Jalna,"Old MIDC, Jalna - MPCB",04-12-2025 07:00:00,19.854616,75.905894,NO2,8,17,11
India,Maharashtra,Jalna,"Old MIDC, Jalna - MPCB",04-12-2025 07:00:00,19.854616,75.905894,OZONE,10,105,56
India,Maharashtra,Kalyan,"Khadakpada, Kalyan - MPCB",04-12-2025 07:00:00,19.25292,73.142019,CO,72,104,94
India,Maharashtra,Badlapur,"Katrap, Badlapur - MPCB",04-12-2025 07:00:00,19.16485,73.23409,PM10,87,151,119
India,Maharashtra,Badlapur,"Katrap, Badlapur - MPCB",04-12-2025 07:00:00,19.16485,73.23409,NH3,3,7,5
India,Maharashtra,Kolhapur,"Shivaji University, Kolhapur - MPCB",04-12-2025 07:00:00,16.6870449,74.2505872,NO2,16,87,40
India,Maharashtra,Belapur,"CBD Belapur, Belapur - MPCB",04-12-2025 07:00:00,19.0243902,73.0406721,OZONE,7,71,14
India,Maharashtra,Bhiwandi,"Gokul Nagar, Bhiwandi - MPCB",04-12-2025 07:00:00,19.309073,73.057223,SO2,4,13,8
India,Maharashtra,Boisar,"Khaira, Boisar - MPCB",04-12-2025 07:00:00,19.786089,72.757971,NH3,5,11,6
India,Maharashtra,Dhule,"Deopur, Dhule - MPCB",04-12-2025 07:00:00,20.918946,74.776388,CO,20,83,46
India,Maharashtra,Mahad,"Kamble Tarf Birwadi, Mahad - MPCB",04-12-2025 07:00:00,18.1023399,73.4783687,OZONE,19,71,31
India,Maharashtra,Malegaon,"Mahesh Nagar, Malegaon - MPCB",04-12-2025 07:00:00,20.555712,74.529236,PM2.5,46,153,95
India,Maharashtra,Malegaon,"Mahesh Nagar, Malegaon - MPCB",04-12-2025 07:00:00,20.555712,74.529236,CO,27,100,57
India,Maharashtra,Mumbai,"Bandra Kurla Complex, Mumbai - MPCB",04-12-2025 07:00:00,19.065931,72.862131,OZONE,1,93,10
India,Maharashtra,Mumbai,"Borivali East, Mumbai - IITM",04-12-2025 07:00:00,19.23241,72.86895,PM2.5,67,120,93
India,Maharashtra,Mumbai,"Borivali East, Mumbai - IITM",04-12-2025 07:00:00,19.23241,72.86895,NH3,5,7,6
India,Maharashtra,Latur,"Sawe Wadi, Latur - MPCB",04-12-2025 07:00:00,18.39963,76.57452,NO2,16,33,24
India,Maharashtra,Mahad,"Kamble Tarf Birwadi, Mahad - MPCB",04-12-2025 07:00:00,18.1023399,73.4783687,PM2.5,82,341,159
India,Maharashtra,Mumbai,"Deonar, Mumbai - IITM",04-12-2025 07:00:00,19.04946,72.9230,PM10,115,185,155
India,Maharashtra,Mumbai,"Deonar, Mumbai - IITM",04-12-2025 07:00:00,19.04946,72.9230,NO2,17,112,40
India,Maharashtra,Mumbai,"Deonar, Mumbai - IITM",04-12-2025 07:00:00,19.04946,72.9230,SO2,6,16,9
India,Maharashtra,Mumbai,"Chakala-Andheri East, Mumbai - IITM",04-12-2025 07:00:00,19.11074,72.86084,PM10,102,151,117
India,Maharashtra,Mumbai,"Chakala-Andheri East, Mumbai - IITM",04-12-2025 07:00:00,19.11074,72.86084,CO,2,76,29
India,Maharashtra,Mira-Bhayandar,"Bhayandar West, Mira-Bhayandar - MPCB",04-12-2025 07:00:00,19.296481,72.840923,SO2,1,7,3
India,Maharashtra,Mira-Bhayandar,"Bhayandar West, Mira-Bhayandar - MPCB",04-12-2025 07:00:00,19.296481,72.840923,OZONE,1,79,21
India,Maharashtra,Mumbai,"Chembur, Mumbai - MPCB",04-12-2025 07:00:00,19.0364585,72.8954371,PM2.5,87,281,161
India,Maharashtra,Mumbai,"Chembur, Mumbai - MPCB",04-12-2025 07:00:00,19.0364585,72.8954371,SO2,4,22,11
India,Maharashtra,Mumbai,"Colaba, Mumbai - MPCB",04-12-2025 07:00:00,18.910000,72.820000,PM2.5,NA,NA,NA
India,Maharashtra,Mumbai,"Khindipada-Bhandup West, Mumbai - IITM",04-12-2025 07:00:00,19.1653323,72.922099,OZONE,49,81,60
India,Maharashtra,Mumbai,"Kurla, Mumbai - MPCB",04-12-2025 07:00:00,19.0863,72.8888,PM10,93,122,107
India,Maharashtra,Mumbai,"Kurla, Mumbai - MPCB",04-12-2025 07:00:00,19.0863,72.8888,CO,18,36,26
India,Maharashtra,Mumbai,"Kurla, Mumbai - MPCB",04-12-2025 07:00:00,19.0863,72.8888,OZONE,28,29,29
India,Maharashtra,Mumbai,"Kandivali West, Mumbai - BMC",04-12-2025 07:00:00,19.215859,72.831718,PM10,56,105,77
India,Maharashtra,Mumbai,"Kherwadi_Bandra East, Mumbai - MPCB",04-12-2025 07:00:00,19.0632143,72.8456324,PM2.5,158,309,221
India,Maharashtra,Mumbai,"Kherwadi_Bandra East, Mumbai - MPCB",04-12-2025 07:00:00,19.0632143,72.8456324,PM10,137,236,175
India,Maharashtra,Mumbai,"Mulund West, Mumbai - MPCB",04-12-2025 07:00:00,19.1750,72.9419,PM10,NA,NA,NA
India,Maharashtra,Mumbai,"Mulund West, Mumbai - MPCB",04-12-2025 07:00:00,19.1750,72.9419,NO2,16,19,17
India,Maharashtra,Mumbai,"Mulund West, Mumbai - MPCB",04-12-2025 07:00:00,19.1750,72.9419,NH3,3,4,4
India,Maharashtra,Mumbai,"Malad West, Mumbai - IITM",04-12-2025 07:00:00,19.19709,72.82204,PM2.5,76,179,123
India,Maharashtra,Mumbai,"Malad West, Mumbai - IITM",04-12-2025 07:00:00,19.19709,72.82204,PM10,120,174,151
India,Maharashtra,Mumbai,"Khindipada-Bhandup West, Mumbai - IITM",04-12-2025 07:00:00,19.1653323,72.922099,NO2,11,38,22
India,Maharashtra,Mumbai,"Mindspace-Malad West, Mumbai - MPCB",04-12-2025 07:00:00,19.1878657,72.8304069,SO2,14,15,15
India,Maharashtra,Mumbai,"Navy Nagar-Colaba, Mumbai - IITM",04-12-2025 07:00:00,18.897756,72.813320,NH3,16,37,23
India,Maharashtra,Mumbai,"Ghatkopar, Mumbai - BMC",04-12-2025 07:00:00,19.083694,72.920967,NH3,2,7,5
India,Maharashtra,Mumbai,"Mazgaon, Mumbai - IITM",04-12-2025 07:00:00,18.96702,72.84214,CO,2,82,24
India,Maharashtra,Nagpur,"Opp GPO Civil Lines, Nagpur - MPCB",04-12-2025 07:00:00,21.152875,79.0517531,OZONE,2,64,3
India,Maharashtra,Nagpur,"Ram Nagar, Nagpur - MPCB",04-12-2025 07:00:00,21.143383,79.048912,PM10,71,180,132
India,Maharashtra,Nagpur,"Ram Nagar, Nagpur - MPCB",04-12-2025 07:00:00,21.143383,79.048912,NH3,1,7,4
India,Maharashtra,Mumbai,"Sion, Mumbai - MPCB",04-12-2025 07:00:00,19.047000,72.874600,OZONE,6,11,11
India,Maharashtra,Mumbai,"Vile Parle West, Mumbai - MPCB",04-12-2025 07:00:00,19.10861,72.83622,PM2.5,70,119,86
India,Maharashtra,Mumbai,"Vile Parle West, Mumbai - MPCB",04-12-2025 07:00:00,19.10861,72.83622,PM10,111,151,126
India,Maharashtra,Mumbai,"Shivaji Nagar, Mumbai - BMC",04-12-2025 07:00:00,19.060498,72.923356,OZONE,7,110,11
India,Maharashtra,Mumbai,"Siddharth Nagar-Worli, Mumbai - IITM",04-12-2025 07:00:00,19.000083,72.813993,PM10,92,157,131
India,Maharashtra,Mumbai,"Siddharth Nagar-Worli, Mumbai - IITM",04-12-2025 07:00:00,19.000083,72.813993,NO2,51,110,85
India,Maharashtra,Mumbai,"Sewri, Mumbai - BMC",04-12-2025 07:00:00,19.000084,72.856730,NO2,NA,NA,NA
India,Maharashtra,Mumbai,"Sewri, Mumbai - BMC",04-12-2025 07:00:00,19.000084,72.856730,CO,1,149,26
India,Maharashtra,Mumbai,"Shivaji Nagar, Mumbai - BMC",04-12-2025 07:00:00,19.060498,72.923356,PM2.5,NA,NA,NA
India,Maharashtra,Mumbai,"Worli, Mumbai - MPCB",04-12-2025 07:00:00,18.9936162,72.8128113,NH3,1,3,1
India,Maharashtra,Nagpur,"Ambazari, Nagpur - MPCB",04-12-2025 07:00:00,21.121801,79.04952,PM2.5,75,196,121
India,Maharashtra,Nagpur,"Mahal, Nagpur - MPCB",04-12-2025 07:00:00,21.14472,79.107595,OZONE,11,310,21
India,Maharashtra,Nagpur,"Opp GPO Civil Lines, Nagpur - MPCB",04-12-2025 07:00:00,21.152875,79.0517531,NO2,16,118,42
India,Maharashtra,Nagpur,"Ambazari, Nagpur - MPCB",04-12-2025 07:00:00,21.121801,79.04952,OZONE,2,97,18
India,Maharashtra,Nagpur,"Mahal, Nagpur - MPCB",04-12-2025 07:00:00,21.14472,79.107595,PM2.5,64,277,138
India,Maharashtra,Mumbai,"Powai, Mumbai - MPCB",04-12-2025 07:00:00,19.137500,72.915056,SO2,28,29,28
India,Maharashtra,Navi Mumbai,"Mahape, Navi Mumbai - MPCB",04-12-2025 07:00:00,19.1135051,73.008978,OZONE,8,15,10
India,Maharashtra,Navi Mumbai,"Nerul, Navi Mumbai - MPCB",04-12-2025 07:00:00,19.008751,73.016620,PM10,108,181,145
India,Maharashtra,Navi Mumbai,"Nerul, Navi Mumbai - MPCB",04-12-2025 07:00:00,19.008751,73.016620,NO2,35,38,37
India,Maharashtra,Navi Mumbai,"Sanpada, Navi Mumbai - MPCB",04-12-2025 07:00:00,19.0575752,73.0151367,NO2,12,31,23
India,Maharashtra,Navi Mumbai,"Sanpada, Navi Mumbai - MPCB",04-12-2025 07:00:00,19.0575752,73.0151367,NH3,3,21,8
India,Maharashtra,Navi Mumbai,"Sanpada, Navi Mumbai - MPCB",04-12-2025 07:00:00,19.0575752,73.0151367,CO,28,102,64
India,Maharashtra,Navi Mumbai,"Sector-2E Kalamboli, Navi Mumbai - MPCB",04-12-2025 07:00:00,19.02579,73.10297,NO2,5,89,35
India,Maharashtra,Navi Mumbai,"Tondare-Taloja, Navi Mumbai - MPCB",04-12-2025 07:00:00,19.0630,73.1209,PM10,58,132,95
India,Maharashtra,Nashik,"Hirawadi, Nashik - MPCB",04-12-2025 07:00:00,20.021503,73.813844,CO,45,78,52
India,Maharashtra,Nashik,"MIDC Ambad, Nashik - MPCB",04-12-2025 07:00:00,19.950220,73.731480,NO2,19,70,36
India,Maharashtra,Nashik,"MIDC Ambad, Nashik - MPCB",04-12-2025 07:00:00,19.950220,73.731480,CO,12,19,16
India,Maharashtra,Nashik,"Pandav Nagari, Nashik - MPCB",04-12-2025 07:00:00,19.9591346,73.7788008,PM10,101,137,118
India,Maharashtra,Nashik,"Pandav Nagari, Nashik - MPCB",04-12-2025 07:00:00,19.9591346,73.7788008,NH3,2,7,4
India,Maharashtra,Navi Mumbai,"Tondare-Taloja, Navi Mumbai - MPCB",04-12-2025 07:00:00,19.0630,73.1209,NO2,26,42,32
India,Maharashtra,Navi Mumbai,"Mahape, Navi Mumbai - MPCB",04-12-2025 07:00:00,19.1135051,73.008978,PM2.5,17,28,21
India,Maharashtra,Navi Mumbai,"Mahape, Navi Mumbai - MPCB",04-12-2025 07:00:00,19.1135051,73.008978,NO2,34,36,35
India,Maharashtra,Nashik,"Hirawadi, Nashik - MPCB",04-12-2025 07:00:00,20.021503,73.813844,PM10,108,149,127
India,Maharashtra,Nashik,"Gangapur Road, Nashik - MPCB",04-12-2025 07:00:00,20.0073285,73.7762427,NO2,5,5,5
India,Maharashtra,Pimpri-Chinchwad,"Gavalinagar, Pimpri Chinchwad - MPCB",04-12-2025 07:00:00,18.63673,73.82487,SO2,2,8,4
India,Maharashtra,Pimpri-Chinchwad,"Park Street Wakad, Pimpri Chinchwad - MPCB",04-12-2025 07:00:00,18.59051,73.77946,CO,26,120,89
India,Maharashtra,Pune,"Hadapsar, Pune - IITM",04-12-2025 07:00:00,18.501793,73.927532,PM10,26,185,88
India,Maharashtra,Pune,"Katraj Dairy, Pune - MPCB",04-12-2025 07:00:00,18.454450,73.854155,PM2.5,47,91,66
India,Maharashtra,Pune,"Savitribai Phule Pune University, Pune - MPCB",04-12-2025 07:00:00,18.547056,73.826908,PM2.5,90,266,150
India,Maharashtra,Pune,"Savitribai Phule Pune University, Pune - MPCB",04-12-2025 07:00:00,18.547056,73.826908,NH3,1,5,2
India,Maharashtra,Pimpri-Chinchwad,"Savta Mali Nagar, Pimpri-Chinchwad - IITM",04-12-2025 07:00:00,18.614767,73.799516,NO2,NA,NA,NA
India,Maharashtra,Pune,"Revenue Colony-Shivajinagar, Pune - IITM",04-12-2025 07:00:00,18.530085,73.849598,PM2.5,178,352,281
India,Maharashtra,Pimpri-Chinchwad,"Thergaon, Pimpri Chinchwad - MPCB",04-12-2025 07:00:00,18.616318,73.765797,NH3,3,5,4
India,Maharashtra,Navi Mumbai,"Tondare-Taloja, Navi Mumbai - MPCB",04-12-2025 07:00:00,19.0630,73.1209,NH3,9,15,12
India,Maharashtra,Parbhani,"Masoom Colony, Parbhani - MPCB",04-12-2025 07:00:00,19.265594,76.761463,NO2,28,89,45
India,Maharashtra,Pune,"Katraj Dairy, Pune - MPCB",04-12-2025 07:00:00,18.454450,73.854155,NO2,31,81,54
India,Maharashtra,Thane,"Kasarvadavali, Thane - MPCB",04-12-2025 07:00:00,19.26777,72.97182,NH3,1,19,5
India,Maharashtra,Ulhasnagar,"Sidhi Vinayak Nagar, Ulhasnagar - MPCB",04-12-2025 07:00:00,19.235581,73.159121,PM2.5,66,168,99
India,Maharashtra,Virar,"Bolinj, Virar - MPCB",04-12-2025 07:00:00,19.4458210,72.7988231,OZONE,32,85,53
India,Meghalaya,Shillong,"JN Stadium, Shillong - Meghalaya PCB",04-12-2025 07:00:00,25.5803419,91.8942571,SO2,10,23,17
India,Maharashtra,Solapur,"Dnyaneshwar Nagar, Solapur - MPCB",04-12-2025 07:00:00,17.6336264,75.9132495,PM2.5,112,214,144
India,Maharashtra,Solapur,"Dnyaneshwar Nagar, Solapur - MPCB",04-12-2025 07:00:00,17.6336264,75.9132495,NO2,8,35,17
India,Meghalaya,Shillong,"JN Stadium, Shillong - Meghalaya PCB",04-12-2025 07:00:00,25.5803419,91.8942571,CO,14,79,43
India,Maharashtra,Thane,"Kasarvadavali, Thane - MPCB",04-12-2025 07:00:00,19.26777,72.97182,PM10,68,92,81
India,Maharashtra,Sangli,"Vijay Nagar, Sangli - MPCB",04-12-2025 07:00:00, 16.5038,74.3623,NH3,1,5,4
India,Maharashtra,Virar,"Bolinj, Virar - MPCB",04-12-2025 07:00:00,19.4458210,72.7988231,NO2,17,54,34
India,Maharashtra,Virar,"Bolinj, Virar - MPCB",04-12-2025 07:00:00,19.4458210,72.7988231,CO,22,84,39
India,Odisha,Balasore,"Kalidaspur, Balasore - OSPCB",04-12-2025 07:00:00,21.51161,86.89088,PM10,125,435,185
India,Odisha,Balasore,"Kalidaspur, Balasore - OSPCB",04-12-2025 07:00:00,21.51161,86.89088,OZONE,18,91,24
India,Odisha,Barbil,"Forest Office, Barbil - OSPCB",04-12-2025 07:00:00,22.1166054,85.3945546,PM2.5,107,375,212
India,Odisha,Barbil,"Forest Office, Barbil - OSPCB",04-12-2025 07:00:00,22.1166054,85.3945546,PM10,105,350,146
India,Nagaland,Kohima,"PWD Junction, Kohima - NPCB",04-12-2025 07:00:00,25.6635413,94.0989878,CO,6,22,9
India,Odisha,Angul,"Hakimapada, Angul - OSPCB",04-12-2025 07:00:00,20.832874,85.104082,NH3,5,9,7
India,Odisha,Angul,"Hakimapada, Angul - OSPCB",04-12-2025 07:00:00,20.832874,85.104082,SO2,1,109,24
India,Odisha,Bhubaneswar,"Lingraj Mandir, Bhubaneswar - OSPCB",04-12-2025 07:00:00,20.240790,85.836784,SO2,3,13,7
India,Odisha,Bhubaneswar,"Lingraj Mandir, Bhubaneswar - OSPCB",04-12-2025 07:00:00,20.240790,85.836784,OZONE,10,288,43
India,Odisha,Bhubaneswar,"Patia, Bhubaneswar - OSPCB",04-12-2025 07:00:00,20.34652,85.81630,CO,5,71,36
India,Meghalaya,Shillong,"Lumpyngngad, Shillong - Meghalaya PCB",04-12-2025 07:00:00,25.5586,91.8985,SO2,5,7,6
India,Mizoram,Aizawl,"Sikulpuikawn, Aizawl - Mizoram PCB",04-12-2025 07:00:00,23.7176342,92.7192841,PM10,34,37,36
India,Odisha,Brajrajnagar,"GM Office, Brajrajnagar - OSPCB",04-12-2025 07:00:00,21.8004996,83.8396977,PM2.5,45,205,82
India,Odisha,Brajrajnagar,"GM Office, Brajrajnagar - OSPCB",04-12-2025 07:00:00,21.8004996,83.8396977,NO2,13,168,116
India,Odisha,Brajrajnagar,"GM Office, Brajrajnagar - OSPCB",04-12-2025 07:00:00,21.8004996,83.8396977,OZONE,26,30,27
India,Odisha,Byasanagar,"Ferro Chrome Colony, Byasanagar - OSPCB",04-12-2025 07:00:00,20.94185,86.11510,NH3,2,3,3
India,Odisha,Byasanagar,"Ferro Chrome Colony, Byasanagar - OSPCB",04-12-2025 07:00:00,20.94185,86.11510,CO,12,48,24
India,Odisha,Bhubaneswar,"Lingraj Mandir, Bhubaneswar - OSPCB",04-12-2025 07:00:00,20.240790,85.836784,NO2,21,115,65
India,Odisha,Cuttack,"CDA Area, Cuttack - OSPCB",04-12-2025 07:00:00,20.48891     ,85.84768     ,OZONE,3,157,15
India,Odisha,Cuttack,"CDA Area, Cuttack - OSPCB",04-12-2025 07:00:00,20.48891     ,85.84768     ,NO2,28,115,52
India,Odisha,Talcher,"Talcher Coalfields,Talcher - OSPCB",04-12-2025 07:00:00,20.9360711,85.1707021,NO2,52,114,87
India,Odisha,Tensa,"Barsua Iron Ore Mines, Tensa - OSPCB",04-12-2025 07:00:00,21.869985,85.167016,SO2,4,42,22
India,Puducherry,Puducherry,"Jawahar Nagar, Puducherry - PPCC",04-12-2025 07:00:00,11.9309,79.8027,PM2.5,2,92,26
India,Odisha,Rourkela,"Fertilizer Township, Rourkela - OSPCB",04-12-2025 07:00:00,22.18972222,84.86277778,PM2.5,75,106,86
India,Odisha,Rourkela,"Raghunathpali, Rourkela - OSPCB",04-12-2025 07:00:00,22.220833,84.809444,PM10,64,319,145
India,Odisha,Rourkela,"Raghunathpali, Rourkela - OSPCB",04-12-2025 07:00:00,22.220833,84.809444,OZONE,1,19,1
India,Punjab,Amritsar,"Golden Temple, Amritsar - PPCB",04-12-2025 07:00:00,31.620000,74.876512,SO2,2,24,14
India,Punjab,Amritsar,"Golden Temple, Amritsar - PPCB",04-12-2025 07:00:00,31.620000,74.876512,CO,4,40,34
India,Punjab,Bathinda,"Hardev Nagar, Bathinda - PPCB",04-12-2025 07:00:00,30.233011,74.907758,PM10,NA,NA,NA
India,Odisha,Rairangpur,"Divisional Forest Office, Rairangpur - OSPCB",04-12-2025 07:00:00,22.265816,86.174829,CO,33,72,43
India,Odisha,Suakati,"OMC Colony, Suakati - OSPCB",04-12-2025 07:00:00,21.606865,85.510538,OZONE,21,24,23
India,Punjab,Khanna,"Kalal Majra, Khanna - PPCB",04-12-2025 07:00:00,30.736056 ,76.209694,NO2,26,31,28
India,Punjab,Bathinda,"Hardev Nagar, Bathinda - PPCB",04-12-2025 07:00:00,30.233011,74.907758,SO2,NA,NA,NA
India,Punjab,Bathinda,"Hardev Nagar, Bathinda - PPCB",04-12-2025 07:00:00,30.233011,74.907758,CO,NA,NA,NA
India,Odisha,Nayagarh,"Dabuna, Nayagarh - OSPCB",04-12-2025 07:00:00,21.847279,85.416905,SO2,8,16,10
India,Punjab,Mandi Gobindgarh,"RIMT University, Mandi Gobindgarh - PPCB",04-12-2025 07:00:00,30.649961,76.331442,CO,9,130,70
India,Punjab,Ludhiana,"Punjab Agricultural University, Ludhiana - PPCB",04-12-2025 07:00:00,30.9028,75.8086,CO,28,100,53
India,Punjab,Rupnagar,"Ratanpura, Rupnagar - Ambuja Cements",04-12-2025 07:00:00,31.0325454,76.5623046,PM10,6,26,17
India,Rajasthan,Ajmer,"Civil Lines,  Ajmer - RSPCB",04-12-2025 07:00:00,26.470859,74.646594,PM10,104,150,131
India,Rajasthan,Alwar,"Moti Doongri, Alwar - RSPCB",04-12-2025 07:00:00,27.554793,76.611536,OZONE,14,32,19
India,Rajasthan,Alwar,"Moti Doongri, Alwar - RSPCB",04-12-2025 07:00:00,27.554793,76.611536,NO2,58,77,65
India,Rajasthan,Banswara,"Rati Talai, Banswara - RSPCB",04-12-2025 07:00:00,23.555190,74.440010,SO2,4,31,12
India,Rajasthan,Baran,"Bamboliya, Baran - RSPCB",04-12-2025 07:00:00,25.106006,76.469948,PM10,31,108,67
India,Punjab,Khanna,"Kalal Majra, Khanna - PPCB",04-12-2025 07:00:00,30.736056 ,76.209694,NH3,7,7,7
India,Rajasthan,Baran,"Bamboliya, Baran - RSPCB",04-12-2025 07:00:00,25.106006,76.469948,OZONE,31,135,57
India,Rajasthan,Barmer,"Railway Colony, Barmer - RSPCB",04-12-2025 07:00:00,25.747299,71.393989,PM2.5,37,90,57
India,Rajasthan,Barmer,"Railway Colony, Barmer - RSPCB",04-12-2025 07:00:00,25.747299,71.393989,NH3,2,5,3
India,Rajasthan,Bhiwadi,"RIICO Ind. Area III, Bhiwadi - RSPCB",04-12-2025 07:00:00,28.194909,76.862296,PM2.5,268,370,332
India,Rajasthan,Bhilwara,"Pratap Nagar, Bhilwara - RSPCB",04-12-2025 07:00:00,25.339605,74.618883,PM2.5,57,183,114
India,Rajasthan,Bharatpur,"Krishna Nagar, Bharatpur - RSPCB",04-12-2025 07:00:00,27.215415,77.50873,NO2,25,91,43
India,Rajasthan,Barmer,"Railway Colony, Barmer - RSPCB",04-12-2025 07:00:00,25.747299,71.393989,OZONE,22,78,57
India,Rajasthan,Bhilwara,"Pratap Nagar, Bhilwara - RSPCB",04-12-2025 07:00:00,25.339605,74.618883,CO,18,41,35
India,Rajasthan,Bundi,"New Colony, Bundi - RSPCB",04-12-2025 07:00:00,25.435774,75.644272,NO2,15,47,22
India,Rajasthan,Bikaner,"MM Ground, Bikaner - RSPCB",04-12-2025 07:00:00,28.018792,73.292658,NO2,NA,NA,NA
India,Rajasthan,Bundi,"New Colony, Bundi - RSPCB",04-12-2025 07:00:00,25.435774,75.644272,NH3,3,4,3
India,Rajasthan,Jaipur,"Police Commissionerate, Jaipur - RSPCB",04-12-2025 07:00:00,26.9164092,75.7994901,CO,47,68,60
India,Rajasthan,Jaipur,"RIICO Sitapura, Jaipur - RSPCB",04-12-2025 07:00:00,26.786682,75.827928,PM2.5,50,316,192
India,Rajasthan,Jaipur,"Police Commissionerate, Jaipur - RSPCB",04-12-2025 07:00:00,26.9164092,75.7994901,PM2.5,59,104,73
India,Rajasthan,Jaipur,"Police Commissionerate, Jaipur - RSPCB",04-12-2025 07:00:00,26.9164092,75.7994901,NO2,107,174,151
India,Rajasthan,Jaipur,"Adarsh Nagar, Jaipur - RSPCB",04-12-2025 07:00:00,26.902909,75.836858,NH3,9,20,13
India,Rajasthan,Jaipur,"Adarsh Nagar, Jaipur - RSPCB",04-12-2025 07:00:00,26.902909,75.836858,SO2,12,28,22
India,Rajasthan,Chittorgarh,"Shastri Nagar, Chittorgarh - RSPCB",04-12-2025 07:00:00,24.892047,74.623527,SO2,7,131,37
India,Rajasthan,Hanumangarh,"Housing Board, Hanumangarh - RSPCB",04-12-2025 07:00:00,29.610750,74.283608,NH3,12,52,18
India,Rajasthan,Churu,"Subash Chowk, Churu - RSPCB",04-12-2025 07:00:00,28.296139,74.961696,PM10,84,476,202
India,Rajasthan,Dholpur,"Raja Ganj, Dholpur - RSPCB",04-12-2025 07:00:00,26.699557,77.898881,CO,44,78,48
India,Rajasthan,Dungarpur,"Bhoiwada, Dungarpur - RSPCB",04-12-2025 07:00:00,23.837789,73.714926,SO2,1,5,1
India,Rajasthan,Churu,"Subash Chowk, Churu - RSPCB",04-12-2025 07:00:00,28.296139,74.961696,SO2,4,12,7
India,Rajasthan,Jodhpur,"Samrat Ashok Udhyan, Jodhpur - RSPCB",04-12-2025 07:00:00,26.253384,72.976571,PM2.5,35,90,57
India,Rajasthan,Jaipur,"Sector-2 Murlipura, Jaipur - RSPCB",04-12-2025 07:00:00,26.960669,75.771817,PM2.5,44,316,126
India,Rajasthan,Jhunjhunu,"Indra Nagar, Jhunjhunu - RSPCB",04-12-2025 07:00:00,28.108988,75.386577,OZONE,4,130,16
India,Rajasthan,Jaisalmer,"Sadar Bazar, Jaisalmer - RSPCB",04-12-2025 07:00:00,26.912329,70.909168,OZONE,5,94,78
India,Rajasthan,Jodhpur,"Digari Kalan, Jodhpur - RSPCB",04-12-2025 07:00:00,26.295810,73.082283,PM2.5,30,72,49
India,Rajasthan,Jhunjhunu,"Indra Nagar, Jhunjhunu - RSPCB",04-12-2025 07:00:00,28.108988,75.386577,NH3,1,15,10
India,Rajasthan,Jalore,"Mudtra Sili, Jalore - RSPCB",04-12-2025 07:00:00,25.344694,72.626208,OZONE,13,100,57
India,Rajasthan,Jodhpur,"Jhalamand, Jodhpur - RSPCB",04-12-2025 07:00:00,26.215415,73.070156,PM2.5,45,123,76
India,Rajasthan,Jodhpur,"Collectorate, Jodhpur - RSPCB",04-12-2025 07:00:00,26.268249,73.0193853,NH3,4,9,6
India,Rajasthan,Pali,"Indira Colony Vistar, Pali - RSPCB",04-12-2025 07:00:00,25.771061, 73.340227,NH3,6,17,9
India,Rajasthan,Pali,"Indira Colony Vistar, Pali - RSPCB",04-12-2025 07:00:00,25.771061, 73.340227,OZONE,6,29,7
India,Rajasthan,Pratapgarh,"Pragati Nagar, Pratapgarh - RSPCB",04-12-2025 07:00:00,24.041198,74.780702,PM10,64,107,80
India,Rajasthan,Rajsamand,"Dhoinda, Rajsamand - RSPCB",04-12-2025 07:00:00,25.036360,73.883502,NH3,10,15,12
India,Rajasthan,Sawai Madhopur,"Sahu Nagar, Sawai Madhopur - RSPCB",04-12-2025 07:00:00,26.031443,76.359327,PM2.5,63,249,126
India,Rajasthan,Kota,"Dhanmandi, Kota - RSPCB",04-12-2025 07:00:00,25.164090,75.858137,PM2.5,58,305,193
India,Rajasthan,Kota,"Dhanmandi, Kota - RSPCB",04-12-2025 07:00:00,25.164090,75.858137,PM10,96,181,136
India,Rajasthan,Kota,"Dhanmandi, Kota - RSPCB",04-12-2025 07:00:00,25.164090,75.858137,NO2,25,162,56
India,Rajasthan,Karauli,"Satyawati Vihar, Karauli - RSPCB",04-12-2025 07:00:00,26.506177,77.025989,PM2.5,77,318,172
India,Rajasthan,Karauli,"Satyawati Vihar, Karauli - RSPCB",04-12-2025 07:00:00,26.506177,77.025989,PM10,72,178,118
India,Rajasthan,Pali,"Indira Colony Vistar, Pali - RSPCB",04-12-2025 07:00:00,25.771061, 73.340227,PM2.5,46,195,88
India,Rajasthan,Sirohi,"Vedhaynath Colony, Sirohi - RSPCB",04-12-2025 07:00:00,24.885261,72.857549,PM2.5,47,192,84
India,Rajasthan,Sikar,"Radhakishan Pura, Sikar - RSPCB",04-12-2025 07:00:00,27.608912,75.153302,PM10,100,305,167
India,Rajasthan,Sirohi,"Vedhaynath Colony, Sirohi - RSPCB",04-12-2025 07:00:00,24.885261,72.857549,NH3,2,5,3
India,Rajasthan,Kota,"Nayapura, Kota - RSPCB",04-12-2025 07:00:00,25.196024,75.855668,NH3,8,16,10
India,TamilNadu,Chennai,"Velachery Res. Area, Chennai - CPCB",04-12-2025 07:00:00,13.0052189,80.2398125,OZONE,4,6,4
India,TamilNadu,Coimbatore,"PSG College of Arts and Science, Coimbatore - TNPCB",04-12-2025 07:00:00,11.0328,77.0349,PM2.5,13,101,49
India,TamilNadu,Coimbatore,"PSG College of Arts and Science, Coimbatore - TNPCB",04-12-2025 07:00:00,11.0328,77.0349,NH3,1,1,1
India,Rajasthan,Sri Ganganagar,"Old City, Sri Ganganagar - RSPCB",04-12-2025 07:00:00,29.931624,73.864511,PM2.5,48,395,113
India,Rajasthan,Sri Ganganagar,"Old City, Sri Ganganagar - RSPCB",04-12-2025 07:00:00,29.931624,73.864511,NH3,4,54,16
India,TamilNadu,Chennai,"Arumbakkam, Chennai - TNPCB",04-12-2025 07:00:00,13.0664,80.2112 ,SO2,NA,NA,NA
India,TamilNadu,Chennai,"Kodungaiyur, Chennai - TNPCB",04-12-2025 07:00:00,13.1278,80.2642,PM2.5,NA,NA,NA
India,Sikkim,Gangtok,"Zero Point GICI, Gangtok - SSPCB",04-12-2025 07:00:00,27.338530,88.614099,PM2.5,26,71,51
India,Sikkim,Gangtok,"Zero Point GICI, Gangtok - SSPCB",04-12-2025 07:00:00,27.338530,88.614099,NH3,1,1,1
India,Rajasthan,Tonk,"Shastri Nagar, Tonk - RSPCB",04-12-2025 07:00:00,26.159933,75.780517,SO2,1,3,2
India,Rajasthan,Tonk,"Shastri Nagar, Tonk - RSPCB",04-12-2025 07:00:00,26.159933,75.780517,OZONE,1,67,12
India,TamilNadu,Chennai,"Velachery Res. Area, Chennai - CPCB",04-12-2025 07:00:00,13.0052189,80.2398125,NO2,13,18,15
India,Rajasthan,Udaipur,"Ashok Nagar, Udaipur - RSPCB",04-12-2025 07:00:00,24.5886166,73.6321397,NH3,3,24,10
India,Sikkim,Gangtok,"Zero Point GICI, Gangtok - SSPCB",04-12-2025 07:00:00,27.338530,88.614099,OZONE,3,6,3
India,TamilNadu,Chennai,"Manali Village, Chennai - TNPCB",04-12-2025 07:00:00,13.1662,80.2584,NO2,NA,NA,NA
India,TamilNadu,Tirupur,"Kumaran College, Tirupur - TNPCB",04-12-2025 07:00:00,11.0973603,77.3228673,OZONE,NA,NA,NA
India,TamilNadu,Vellore,"Vasanthapuram, Vellore - TNPCB",04-12-2025 07:00:00,12.909494,79.131861,CO,8,8,8
India,TamilNadu,Ramanathapuram,"Chalai Bazaar, Ramanathapuram - TNPCB",04-12-2025 07:00:00,9.36399,78.831977,SO2,4,5,5
India,TamilNadu,Ramanathapuram,"Chalai Bazaar, Ramanathapuram - TNPCB",04-12-2025 07:00:00,9.36399,78.831977,CO,16,22,19
India,TamilNadu,Perundurai,"SIPCOT Industrial Park, Perundurai - TNPCB",04-12-2025 07:00:00,11.258242,77.552761,PM2.5,7,31,21
India,TamilNadu,Perundurai,"SIPCOT Industrial Park, Perundurai - TNPCB",04-12-2025 07:00:00,11.258242,77.552761,PM10,1,62,24
India,TamilNadu,Coimbatore,"SIDCO Kurichi, Coimbatore - TNPCB",04-12-2025 07:00:00,10.942451,76.978996,NO2,7,49,20
India,TamilNadu,Coimbatore,"SIDCO Kurichi, Coimbatore - TNPCB",04-12-2025 07:00:00,10.942451,76.978996,SO2,22,24,23
India,TamilNadu,Palkalaiperur,"Bharathidasan University, Palkalaiperur - TNPCB",04-12-2025 07:00:00,10.681158,78.741746,PM2.5,10,57,34
India,TamilNadu,Thoothukudi,"Meelavittan, Thoothukudi - TNPCB",04-12-2025 07:00:00,8.816428 ,78.099039,SO2,4,8,6
India,TamilNadu,Dindigul,"Mendonsa Colony, Dindigul - TNPCB",04-12-2025 07:00:00,10.358535,77.984321,SO2,NA,NA,NA
India,TamilNadu,Cuddalore,"Kudikadu, Cuddalore - TNPCB",04-12-2025 07:00:00,11.6829898,79.7532099,OZONE,13,14,14
India,TamilNadu,Madurai,"Uchapatti, Madurai - TNPCB",04-12-2025 07:00:00,9.865935,78.022669,PM10,21,178,61
India,Telangana,Hyderabad,"Central University, Hyderabad - TSPCB",04-12-2025 07:00:00,17.460103,78.334361,CO,14,42,35
India,Telangana,Hyderabad,"ECIL Kapra, Hyderabad - TSPCB",04-12-2025 07:00:00,17.470431,78.566959,PM2.5,49,72,56
India,Telangana,Hyderabad,"ECIL Kapra, Hyderabad - TSPCB",04-12-2025 07:00:00,17.470431,78.566959,NH3,2,3,3
India,Telangana,Hyderabad,"ECIL Kapra, Hyderabad - TSPCB",04-12-2025 07:00:00,17.470431,78.566959,CO,24,44,26
India,Telangana,Hyderabad,"ICRISAT Patancheru, Hyderabad - TSPCB",04-12-2025 07:00:00,17.518400,78.278777,PM2.5,69,181,129
India,Telangana,Hyderabad,"Central University, Hyderabad - TSPCB",04-12-2025 07:00:00,17.460103,78.334361,NO2,13,101,48
India,Telangana,Hyderabad,"Central University, Hyderabad - TSPCB",04-12-2025 07:00:00,17.460103,78.334361,NH3,2,13,6
India,Telangana,Hyderabad,"ICRISAT Patancheru, Hyderabad - TSPCB",04-12-2025 07:00:00,17.518400,78.278777,CO,21,40,35
India,Telangana,Hyderabad,"IDA Pashamylaram, Hyderabad - TSPCB",04-12-2025 07:00:00,17.5316895,78.218939,OZONE,8,36,12
India,Telangana,Hyderabad,"IITH Kandi, Hyderabad - TSPCB",04-12-2025 07:00:00,17.585705,78.126199,PM2.5,28,232,85
India,TamilNadu,Vellore,"Vasanthapuram, Vellore - TNPCB",04-12-2025 07:00:00,12.909494,79.131861,OZONE,1,25,14
India,Telangana,Hyderabad,"Somajiguda, Hyderabad - TSPCB",04-12-2025 07:00:00,17.417094,78.457437,CO,22,46,26
India,Telangana,Hyderabad,"Somajiguda, Hyderabad - TSPCB",04-12-2025 07:00:00,17.417094,78.457437,OZONE,14,45,31
India,Telangana,Hyderabad,"Zoo Park, Hyderabad - TSPCB",04-12-2025 07:00:00,17.349694,78.451437,SO2,3,4,4
India,Tripura,Agartala,"Bardowali, Agartala - Tripura SPCB",04-12-2025 07:00:00,23.8175497,91.2726974,PM2.5,NA,NA,NA
India,Uttar_Pradesh,Agra,"Sanjay Palace, Agra - UPPCB",04-12-2025 07:00:00,27.19865833,78.00598056,NO2,6,29,14
India,Uttar_Pradesh,Agra,"Sector-3B Avas Vikas Colony, Agra - UPPCB",04-12-2025 07:00:00,27.19412,77.96237,NO2,31,33,33
India,Telangana,Hyderabad,"New Malakpet, Hyderabad - TSPCB",04-12-2025 07:00:00,17.37206,78.50864,PM2.5,46,122,71
India,Telangana,Hyderabad,"Ramachandrapuram, Hyderabad - TSPCB",04-12-2025 07:00:00,17.528544,78.286195,PM2.5,43,64,49
India,Uttar_Pradesh,Agra,"Manoharpur, Agra - UPPCB",04-12-2025 07:00:00,27.23711,78.01936,SO2,36,62,47
India,Uttar_Pradesh,Agra,"Rohta, Agra - UPPCB",04-12-2025 07:00:00,27.106972,78.000111,CO,18,53,37
India,Uttar_Pradesh,Baghpat,"Sardar Patel Inter College, Baghpat - UPPCB",04-12-2025 07:00:00,28.964949,77.278761,PM2.5,148,440,320
India,Telangana,Hyderabad,"Kompally Municipal Office, Hyderabad - TSPCB",04-12-2025 07:00:00,17.544899,78.486949,OZONE,16,41,19
India,Uttar_Pradesh,Agra,"Sector-3B Avas Vikas Colony, Agra - UPPCB",04-12-2025 07:00:00,27.19412,77.96237,SO2,9,12,9
India,Telangana,Hyderabad,"Sanathnagar, Hyderabad - TSPCB",04-12-2025 07:00:00,17.4559458,78.4332152,PM2.5,68,157,108
India,Tripura,Agartala,"Bardowali, Agartala - Tripura SPCB",04-12-2025 07:00:00,23.8175497,91.2726974,NH3,2,4,3
India,Uttar_Pradesh,Bareilly,"Rajendra Nagar, Bareilly - UPPCB",04-12-2025 07:00:00,28.38910936,79.42963708,NH3,1,1,1
India,Uttar_Pradesh,Bulandshahr,"Yamunapuram, Bulandshahr - UPPCB",04-12-2025 07:00:00,28.406963,77.849831,NO2,43,161,100
India,Uttar_Pradesh,Bulandshahr,"Yamunapuram, Bulandshahr - UPPCB",04-12-2025 07:00:00,28.406963,77.849831,NH3,10,16,14
India,Uttar_Pradesh,Bulandshahr,"Yamunapuram, Bulandshahr - UPPCB",04-12-2025 07:00:00,28.406963,77.849831,OZONE,2,104,4
India,Uttar_Pradesh,Firozabad,"Nagla Bhau, Firozabad - UPPCB",04-12-2025 07:00:00,27.168897,78.376960,PM10,48,116,88
India,Uttar_Pradesh,Ghaziabad,"Indirapuram, Ghaziabad - UPPCB",04-12-2025 07:00:00,28.646233,77.358075,SO2,9,51,29
India,Uttar_Pradesh,Ghaziabad,"Loni, Ghaziabad - UPPCB",04-12-2025 07:00:00,28.757294,77.278792,PM10,177,435,316
India,Uttar_Pradesh,Baghpat,"Sardar Patel Inter College, Baghpat - UPPCB",04-12-2025 07:00:00,28.964949,77.278761,NO2,66,98,85
India,Uttar_Pradesh,Ghaziabad,"Vasundhara, Ghaziabad - UPPCB",04-12-2025 07:00:00,28.6603346,77.3572563,PM2.5,198,417,335
India,Uttar_Pradesh,Ghaziabad,"Vasundhara, Ghaziabad - UPPCB",04-12-2025 07:00:00,28.6603346,77.3572563,PM10,160,427,280
India,Uttar_Pradesh,Bareilly,"Civil Lines, Bareilly - UPPCB",04-12-2025 07:00:00,28.359581,79.414455,SO2,3,18,11
India,Uttar_Pradesh,Firozabad,"Nagla Bhau, Firozabad - UPPCB",04-12-2025 07:00:00,27.168897,78.376960,CO,5,24,23
India,Uttar_Pradesh,Firozabad,"Vibhab Nagar, Firozabad - UPPCB",04-12-2025 07:00:00,27.1594,78.3953,CO,15,34,21
India,Uttar_Pradesh,Kanpur,"NSI Kalyanpur, Kanpur - UPPCB",04-12-2025 07:00:00,26.509954,80.249612,OZONE,16,19,16
India,Uttar_Pradesh,Kanpur,"Nehru Nagar, Kanpur - UPPCB",04-12-2025 07:00:00,26.4703136,80.3229863,PM10,57,152,84
India,Uttar_Pradesh,Khurja,"Kalindi Kunj, Khurja - UPPCB",04-12-2025 07:00:00,28.2348927,77.8683002,PM10,117,279,183
India,Uttar_Pradesh,Lucknow,"B R Ambedkar University, Lucknow - UPPCB",04-12-2025 07:00:00,26.766433,80.927299,PM10,98,220,143
India,Uttar_Pradesh,Gorakhpur,"Madan Mohan Malaviya University of Technology, Gorakhpur - UPPCB",04-12-2025 07:00:00,26.730136,83.433859,NH3,1,1,1
India,Uttar_Pradesh,Gorakhpur,"Madan Mohan Malaviya University of Technology, Gorakhpur - UPPCB",04-12-2025 07:00:00,26.730136,83.433859,SO2,33,36,35
India,Uttar_Pradesh,Lucknow,"Gomti Nagar, Lucknow - UPPCB",04-12-2025 07:00:00,26.868120,81.005119,OZONE,24,39,28
India,Uttar_Pradesh,Lucknow,"Kendriya Vidyalaya, Lucknow - CPCB",04-12-2025 07:00:00,26.906111,80.948222,NO2,37,44,40
India,Uttar_Pradesh,Jhansi,"Shivaji Nagar, Jhansi - UPPCB",04-12-2025 07:00:00,25.4547,78.6039,PM2.5,24,44,34
India,Uttar_Pradesh,Jhansi,"Shivaji Nagar, Jhansi - UPPCB",04-12-2025 07:00:00,25.4547,78.6039,SO2,12,17,14
India,Uttar_Pradesh,Greater Noida,"Knowledge Park - III, Greater Noida - UPPCB",04-12-2025 07:00:00,28.47272,77.482000,CO,32,152,110
India,Uttar_Pradesh,Lucknow,"B R Ambedkar University, Lucknow - UPPCB",04-12-2025 07:00:00,26.766433,80.927299,SO2,23,25,24
India,Uttar_Pradesh,Kanpur,"NSI Kalyanpur, Kanpur - UPPCB",04-12-2025 07:00:00,26.509954,80.249612,PM2.5,50,237,108
India,Uttar_Pradesh,Lucknow,"Gomti Nagar, Lucknow - UPPCB",04-12-2025 07:00:00,26.868120,81.005119,PM10,69,128,98
India,Uttar_Pradesh,Kanpur,"FTI Kidwai Nagar, Kanpur - UPPCB",04-12-2025 07:00:00,26.428282,80.327067,NH3,2,2,2
India,Uttar_Pradesh,Moradabad,"Eco Herbal Park, Moradabad - UPPCB",04-12-2025 07:00:00,28.840739,78.697531,OZONE,8,85,19
India,Uttar_Pradesh,Moradabad,"Employment Office, Moradabad - UPPCB",04-12-2025 07:00:00,28.88528,78.73880,PM10,59,168,121
India,Uttar_Pradesh,Moradabad,"Employment Office, Moradabad - UPPCB",04-12-2025 07:00:00,28.88528,78.73880,CO,2,53,44
India,Uttar_Pradesh,Meerut,"Pallavpuram Phase 2, Meerut - UPPCB",04-12-2025 07:00:00,29.063510,77.709723,CO,21,102,58
India,Uttar_Pradesh,Moradabad,"Eco Herbal Park, Moradabad - UPPCB",04-12-2025 07:00:00,28.840739,78.697531,NH3,5,11,8
India,Uttar_Pradesh,Meerut,"Jai Bhim Nagar, Meerut - UPPCB",04-12-2025 07:00:00,28.9535882,77.7622941,CO,32,102,49
India,Uttar_Pradesh,Meerut,"Jai Bhim Nagar, Meerut - UPPCB",04-12-2025 07:00:00,28.9535882,77.7622941,SO2,9,28,16
India,Uttar_Pradesh,Moradabad,"Buddhi Vihar, Moradabad - UPPCB",04-12-2025 07:00:00,28.83526,78.74460,PM2.5,35,155,96
India,Uttar_Pradesh,Moradabad,"Kashiram Nagar, Moradabad - UPPCB",04-12-2025 07:00:00,28.849399,78.742362,NH3,4,4,4
India,Uttar_Pradesh,Lucknow,"Lalbagh, Lucknow - CPCB",04-12-2025 07:00:00,26.8458805,80.9365541,CO,15,36,25
India,Uttar_Pradesh,Lucknow,"Lalbagh, Lucknow - CPCB",04-12-2025 07:00:00,26.8458805,80.9365541,SO2,1,37,9
India,Uttar_Pradesh,Noida,"Sector-1, Noida - UPPCB",04-12-2025 07:00:00,28.5898,77.3101,OZONE,6,92,6
India,Uttar_Pradesh,Noida,"Sector-116, Noida - UPPCB",04-12-2025 07:00:00,28.569230,77.393848,PM2.5,188,412,332
India,Uttar_Pradesh,Noida,"Sector-116, Noida - UPPCB",04-12-2025 07:00:00,28.569230,77.393848,PM10,155,394,263
India,Uttar_Pradesh,Noida,"Sector-116, Noida - UPPCB",04-12-2025 07:00:00,28.569230,77.393848,NO2,10,38,24
India,Uttar_Pradesh,Prayagraj,"Jhunsi, Prayagraj - UPPCB",04-12-2025 07:00:00,25.425602,81.917152,PM10,95,281,171
India,Uttar_Pradesh,Moradabad,"Transport Nagar, Moradabad - UPPCB",04-12-2025 07:00:00,28.802625,78.753728,SO2,31,39,33
India,Uttar_Pradesh,Moradabad,"Transport Nagar, Moradabad - UPPCB",04-12-2025 07:00:00,28.802625,78.753728,CO,1,48,2
India,Uttar_Pradesh,Moradabad,"Transport Nagar, Moradabad - UPPCB",04-12-2025 07:00:00,28.802625,78.753728,OZONE,26,46,27
India,Uttar_Pradesh,Muzaffarnagar,"New Mandi, Muzaffarnagar - UPPCB",04-12-2025 07:00:00,29.4723508,77.7194031,PM10,117,216,151
India,Uttar_Pradesh,Muzaffarnagar,"New Mandi, Muzaffarnagar - UPPCB",04-12-2025 07:00:00,29.4723508,77.7194031,NO2,45,141,74
India,Uttar_Pradesh,Prayagraj,"Jhunsi, Prayagraj - UPPCB",04-12-2025 07:00:00,25.425602,81.917152,OZONE,14,225,15
India,Uttar_Pradesh,Prayagraj,"Motilal Nehru NIT, Prayagraj - UPPCB",04-12-2025 07:00:00,25.494,81.863,PM2.5,77,224,130
India,Uttar_Pradesh,Prayagraj,"Motilal Nehru NIT, Prayagraj - UPPCB",04-12-2025 07:00:00,25.494,81.863,PM10,59,121,89
India,Uttar_Pradesh,Prayagraj,"Nagar Nigam, Prayagraj - UPPCB",04-12-2025 07:00:00,25.44919916 ,81.82735986 ,NO2,5,5,5
India,Uttar_Pradesh,Noida,"Sector - 125, Noida - UPPCB",04-12-2025 07:00:00,28.5447608,77.3231257,NO2,38,194,115
India,Uttar_Pradesh,Noida,"Sector - 62, Noida - IMD",04-12-2025 07:00:00,28.6245479,77.3577104,PM2.5,97,354,265
India,Uttar_Pradesh,Noida,"Sector - 62, Noida - IMD",04-12-2025 07:00:00,28.6245479,77.3577104,PM10,127,297,201
India,Uttar_Pradesh,Varanasi,"IESD Banaras Hindu University, Varanasi - UPPCB",04-12-2025 07:00:00,25.262326,82.995408,PM10,74,195,122
India,Uttar_Pradesh,Varanasi,"IESD Banaras Hindu University, Varanasi - UPPCB",04-12-2025 07:00:00,25.262326,82.995408,CO,14,50,37
India,Uttar_Pradesh,Muzaffarnagar,"New Mandi, Muzaffarnagar - UPPCB",04-12-2025 07:00:00,29.4723508,77.7194031,CO,32,104,48
India,Uttar_Pradesh,Noida,"Sector-1, Noida - UPPCB",04-12-2025 07:00:00,28.5898,77.3101,PM10,159,380,258
India,Uttar_Pradesh,Varanasi,"Bhelupur, Varanasi - UPPCB",04-12-2025 07:00:00,25.301778,82.996789,NH3,1,1,1
India,West_Bengal,Barrackpore,"SVSPA Campus, Barrackpore - WBPCB",04-12-2025 07:00:00,22.7605581,88.3617589,CO,56,102,89
India,West_Bengal,Durgapur,"Mahishkapur Road_B-Zone, Durgapur - WBPCB",04-12-2025 07:00:00,23.567923,87.306843,PM2.5,82,178,121
India,West_Bengal,Asansol,"Evelyn Lodge, Asansol - WBPCB",04-12-2025 07:00:00,23.6979360,86.9443950,PM10,75,145,116
India,West_Bengal,Asansol,"Evelyn Lodge, Asansol - WBPCB",04-12-2025 07:00:00,23.6979360,86.9443950,NO2,12,53,28
India,Uttarakhand,Kashipur,"Govt. Girls Inter College, Kashipur - UKPCB",04-12-2025 07:00:00,29.2124114,78.9611753,CO,38,42,40
India,Uttar_Pradesh,Vrindavan,"Omex Eternity, Vrindavan - UPPCB",04-12-2025 07:00:00,27.5714090,77.6557570,OZONE,15,16,15
