country,state,city,station,last_update,latitude,longitude,pollutant_id,min_value,max_value,avg_value
India,Andhra_Pradesh,Anantapur,"Gulzarpet, Anantapur - APPCB",23-01-2026 08:00:00,14.675886,77.593027,CO,14,44,18
India,Andhra_Pradesh,Anantapur,"Gulzarpet, Anantapur - APPCB",23-01-2026 08:00:00,14.675886,77.593027,OZONE,7,23,16
India,Andhra_Pradesh,Chittoor,"Gangineni Cheruvu, Chittoor - APPCB",23-01-2026 08:00:00,13.204880,79.097889,SO2,19,48,29
India,Andhra_Pradesh,Chittoor,"Gangineni Cheruvu, Chittoor - APPCB",23-01-2026 08:00:00,13.204880,79.097889,OZONE,60,67,63
India,Andhra_Pradesh,Rajamahendravaram,"Anand Kala Kshetram, Rajamahendravaram - APPCB",23-01-2026 08:00:00,16.9872867,81.7363176,OZONE,11,38,16
India,Andhra_Pradesh,Tirumala,"Toll Gate, Tirumala - APPCB",23-01-2026 08:00:00,13.67,79.35,NH3,2,2,2
India,Andhra_Pradesh,Tirupati,"Vaikuntapuram, Tirupati - APPCB",23-01-2026 08:00:00,13.615387,79.409230,SO2,20,23,22
India,Andhra_Pradesh,Tirupati,"Vaikuntapuram, Tirupati - APPCB",23-01-2026 08:00:00,13.615387,79.409230,CO,27,47,30
India,Assam,Nagaon,"Christianpatty, Nagaon - PCBA",23-01-2026 08:00:00,26.349082,92.68449,PM10,80,133,104
India,Assam,Silchar,"Tarapur, Silchar - PCBA",23-01-2026 08:00:00,24.82827,92.79525,SO2,5,9,7
India,Assam,Sivasagar,"Girls College, Sivasagar - PCBA",23-01-2026 08:00:00,26.987634,94.636574,NH3,5,33,13
India,Assam,Sivasagar,"Girls College, Sivasagar - PCBA",23-01-2026 08:00:00,26.987634,94.636574,SO2,14,15,15
India,Assam,Sivasagar,"Girls College, Sivasagar - PCBA",23-01-2026 08:00:00,26.987634,94.636574,CO,20,113,79
India,Bihar,Araria,"Kharahiya Basti, Araria - BSPCB",23-01-2026 08:00:00,26.146529,87.454184,CO,6,35,25
India,Bihar,Arrah,"New DM Office, Arrah - BSPCB",23-01-2026 08:00:00,25.5626095,84.663264,SO2,10,10,10
India,Bihar,Arrah,"New DM Office, Arrah - BSPCB",23-01-2026 08:00:00,25.5626095,84.663264,CO,43,72,56
India,Bihar,Arrah,"New DM Office, Arrah - BSPCB",23-01-2026 08:00:00,25.5626095,84.663264,OZONE,7,8,8
India,Bihar,Bettiah,"Kamalnath Nagar, Bettiah - BSPCB",23-01-2026 08:00:00,26.80365,84.51954,SO2,17,48,31
India,Bihar,Bihar Sharif,"D M Colony, Bihar Sharif - BSPCB",23-01-2026 08:00:00,25.204762,85.514960,PM2.5,45,177,86
India,Bihar,Bihar Sharif,"D M Colony, Bihar Sharif - BSPCB",23-01-2026 08:00:00,25.204762,85.514960,NO2,9,10,9
India,Bihar,Bihar Sharif,"D M Colony, Bihar Sharif - BSPCB",23-01-2026 08:00:00,25.204762,85.514960,SO2,9,10,10
India,Bihar,Chhapra,"Darshan Nagar, Chhapra - BSPCB",23-01-2026 08:00:00,25.7808257,84.7446768,CO,39,64,52
India,Bihar,Gaya,"Collectorate, Gaya - BSPCB",23-01-2026 08:00:00,24.7955,84.9994,PM2.5,49,320,122
India,Bihar,Gaya,"Collectorate, Gaya - BSPCB",23-01-2026 08:00:00,24.7955,84.9994,SO2,NA,NA,NA
India,Bihar,Gaya,"Collectorate, Gaya - BSPCB",23-01-2026 08:00:00,24.7955,84.9994,OZONE,19,28,20
India,Bihar,Gaya,"Kareemganj, Gaya - BSPCB",23-01-2026 08:00:00,24.792403,84.992416,PM10,103,320,175
India,Bihar,Gaya,"Kareemganj, Gaya - BSPCB",23-01-2026 08:00:00,24.792403,84.992416,NH3,5,6,5
India,Arunachal_Pradesh,Naharlagun,"Naharlagun, Naharlagun - APSPCB",23-01-2026 08:00:00,27.103358,93.679645,PM2.5,NA,NA,NA
India,Assam,Byrnihat,"Central Academy for SFS, Byrnihat - PCBA",23-01-2026 08:00:00,26.071318,91.87488,PM2.5,92,341,181
India,Assam,Byrnihat,"Central Academy for SFS, Byrnihat - PCBA",23-01-2026 08:00:00,26.071318,91.87488,OZONE,14,43,16
India,Assam,Guwahati,"LGBI Airport, Guwahati - PCBA",23-01-2026 08:00:00,26.10887,91.589544,PM10,54,150,115
India,Andhra_Pradesh,Vijayawada,"Kanuru, Vijayawada - APPCB",23-01-2026 08:00:00,16.486692,80.699436,PM2.5,51,332,120
India,Andhra_Pradesh,Vijayawada,"Kanuru, Vijayawada - APPCB",23-01-2026 08:00:00,16.486692,80.699436,NO2,33,40,34
India,Andhra_Pradesh,Vijayawada,"Rajiv Gandhi Park, Vijayawada - APPCB",23-01-2026 08:00:00,16.509717,80.612222,PM10,55,82,68
India,Andhra_Pradesh,Vijayawada,"Rajiv Gandhi Park, Vijayawada - APPCB",23-01-2026 08:00:00,16.509717,80.612222,CO,30,36,32
India,Andhra_Pradesh,Anantapur,"Gulzarpet, Anantapur - APPCB",23-01-2026 08:00:00,14.675886,77.593027,NO2,13,22,15
India,Bihar,Hajipur,"Industrial Area, Hajipur - BSPCB",23-01-2026 08:00:00,25.697189,85.245900,PM2.5,79,390,220
India,Bihar,Chhapra,"Darshan Nagar, Chhapra - BSPCB",23-01-2026 08:00:00,25.7808257,84.7446768,PM10,61,181,121
India,Bihar,Arrah,"New DM Office, Arrah - BSPCB",23-01-2026 08:00:00,25.5626095,84.663264,PM10,37,111,72
India,Chhattisgarh,Milupara,"Govt. Higher Secondary School, Milupara - CECB",23-01-2026 08:00:00,22.1910172,83.5197009,CO,14,47,30
India,Chhattisgarh,Raipur,"AIIMS, Raipur - CECB",23-01-2026 08:00:00,21.258815,81.578979,PM2.5,35,88,57
India,Chhattisgarh,Raipur,"AIIMS, Raipur - CECB",23-01-2026 08:00:00,21.258815,81.578979,NH3,4,5,4
India,Chhattisgarh,Raipur,"AIIMS, Raipur - CECB",23-01-2026 08:00:00,21.258815,81.578979,CO,22,64,55
India,Chhattisgarh,Raipur,"Bhatagaon New ISBT, Raipur - CECB",23-01-2026 08:00:00,21.219665,81.630094,NH3,2,2,2
India,Chhattisgarh,Raipur,"Bhatagaon New ISBT, Raipur - CECB",23-01-2026 08:00:00,21.219665,81.630094,OZONE,2,9,2
India,Chhattisgarh,Raipur,"Krishak Nagar, Raipur - CECB",23-01-2026 08:00:00,21.237755,81.705301,PM10,38,94,64
India,Chhattisgarh,Raipur,"Krishak Nagar, Raipur - CECB",23-01-2026 08:00:00,21.237755,81.705301,OZONE,13,19,13
India,Chhattisgarh,Raipur,"Siltara Phase-II, Raipur - CECB",23-01-2026 08:00:00,21.371751,81.664929,NO2,49,59,54
India,Chhattisgarh,Tumidih,"OP Jindal Industrial Park, Tumidih - CECB",23-01-2026 08:00:00,22.06631475,83.33820077,PM2.5,31,175,95
India,Bihar,Katihar,"Mirchaibari, Katihar - BSPCB",23-01-2026 08:00:00,25.560083,87.553265,PM10,74,160,110
India,Bihar,Katihar,"Mirchaibari, Katihar - BSPCB",23-01-2026 08:00:00,25.560083,87.553265,OZONE,23,30,27
India,Bihar,Kishanganj,"SDM Office_Khagra, Kishanganj - BSPCB",23-01-2026 08:00:00,26.0881305,87.93840336,NH3,3,3,3
India,Bihar,Kishanganj,"SDM Office_Khagra, Kishanganj - BSPCB",23-01-2026 08:00:00,26.0881305,87.93840336,SO2,7,11,8
India,Bihar,Manguraha,"Forest Rest House, Manguraha - BSPCB",23-01-2026 08:00:00,27.308328,84.531742,PM10,61,173,109
India,Bihar,Manguraha,"Forest Rest House, Manguraha - BSPCB",23-01-2026 08:00:00,27.308328,84.531742,NO2,4,11,6
India,Bihar,Manguraha,"Forest Rest House, Manguraha - BSPCB",23-01-2026 08:00:00,27.308328,84.531742,OZONE,10,10,10
India,Bihar,Motihari,"Gandak Colony, Motihari - BSPCB",23-01-2026 08:00:00,26.63086,84.90051,PM10,45,189,128
India,Chhattisgarh,Bilaspur,"Mangala, Bilaspur - NTPC",23-01-2026 08:00:00,22.08815,82.13737,CO,28,115,62
India,Chhattisgarh,Chhal,"Nawapara SECL Colony, Chhal - CECB",23-01-2026 08:00:00,22.118125,83.140608,CO,18,54,32
India,Chhattisgarh,Korba,"Rampur, Korba - CECB",23-01-2026 08:00:00,22.368195,82.746431,PM2.5,9,79,36
India,Chhattisgarh,Korba,"Urja Nagar, Korba - CECB",23-01-2026 08:00:00,22.348441,82.549611,PM2.5,22,382,89
India,Chhattisgarh,Korba,"Urja Nagar, Korba - CECB",23-01-2026 08:00:00,22.348441,82.549611,OZONE,12,26,24
India,Chhattisgarh,Milupara,"Govt. Higher Secondary School, Milupara - CECB",23-01-2026 08:00:00,22.1910172,83.5197009,PM2.5,26,77,49
India,Chhattisgarh,Milupara,"Govt. Higher Secondary School, Milupara - CECB",23-01-2026 08:00:00,22.1910172,83.5197009,PM10,36,126,73
India,Bihar,Munger,"Town Hall, Munger - BSPCB",23-01-2026 08:00:00,25.376776,86.471523,NO2,4,5,5
India,Bihar,Muzaffarpur,"MIT-Daudpur Kothi, Muzaffarpur - BSPCB",23-01-2026 08:00:00,26.1403345,85.3650192,NH3,2,2,2
India,Bihar,Muzaffarpur,"MIT-Daudpur Kothi, Muzaffarpur - BSPCB",23-01-2026 08:00:00,26.1403345,85.3650192,SO2,13,18,15
India,Bihar,Muzaffarpur,"Muzaffarpur Collectorate, Muzaffarpur - BSPCB",23-01-2026 08:00:00,26.1209,85.3647,CO,16,54,30
India,Bihar,Muzaffarpur,"Muzaffarpur Collectorate, Muzaffarpur - BSPCB",23-01-2026 08:00:00,26.1209,85.3647,OZONE,6,19,6
India,Bihar,Patna,"DRM Office Danapur, Patna - BSPCB",23-01-2026 08:00:00,25.586562,85.043586,SO2,5,9,6
India,Bihar,Patna,"Govt. High School Shikarpur, Patna - BSPCB",23-01-2026 08:00:00,25.592539,85.227158,PM2.5,69,84,77
India,Bihar,Purnia,"Mariam Nagar, Purnia - BSPCB",23-01-2026 08:00:00,25.366336,87.117468,SO2,15,18,17
India,Bihar,Rajgir,"Dangi Tola, Rajgir - BSPCB",23-01-2026 08:00:00,25.03280,85.41948,NH3,5,8,7
India,Bihar,Saharsa,"Police Line, Saharsa - BSPCB",23-01-2026 08:00:00,25.892357,86.590325,PM2.5,45,257,128
India,Bihar,Samastipur,"DM Office_Kasipur, Samastipur - BSPCB",23-01-2026 08:00:00,25.859655,85.77944,PM10,39,239,126
India,Bihar,Samastipur,"DM Office_Kasipur, Samastipur - BSPCB",23-01-2026 08:00:00,25.859655,85.77944,NH3,1,1,1
India,Bihar,Samastipur,"DM Office_Kasipur, Samastipur - BSPCB",23-01-2026 08:00:00,25.859655,85.77944,CO,8,12,10
India,Bihar,Samastipur,"DM Office_Kasipur, Samastipur - BSPCB",23-01-2026 08:00:00,25.859655,85.77944,OZONE,7,9,8
India,Bihar,Siwan,"Chitragupta Nagar, Siwan - BSPCB",23-01-2026 08:00:00,26.2271665,84.3570427,PM2.5,2,315,135
India,Chandigarh,Chandigarh,"Sector-53, Chandigarh - CPCC",23-01-2026 08:00:00,30.719859,76.738637,NO2,22,148,62
India,Chandigarh,Chandigarh,"Sector-53, Chandigarh - CPCC",23-01-2026 08:00:00,30.719859,76.738637,NH3,5,9,7
India,Chhattisgarh,Bhilai,"Hathkhoj, Bhilai - CECB",23-01-2026 08:00:00,21.224231,81.408350,PM2.5,28,109,52
India,Chhattisgarh,Bhilai,"Hathkhoj, Bhilai - CECB",23-01-2026 08:00:00,21.224231,81.408350,NO2,29,97,56
India,Bihar,Patna,"Govt. High School Shikarpur, Patna - BSPCB",23-01-2026 08:00:00,25.592539,85.227158,CO,70,137,100
India,Bihar,Patna,"IGSC Planetarium Complex, Patna - BSPCB",23-01-2026 08:00:00,25.610369,85.132568,CO,34,75,74
India,Bihar,Patna,"Muradpur, Patna - BSPCB",23-01-2026 08:00:00,25.619651,85.147382,SO2,8,10,9
India,Bihar,Patna,"Rajbansi Nagar, Patna - BSPCB",23-01-2026 08:00:00,25.599486,85.113666,SO2,5,7,6
India,Delhi,Delhi,"Ashok Vihar, Delhi - DPCC",23-01-2026 08:00:00,28.695381,77.181665,PM2.5,273,454,332
India,Delhi,Delhi,"Ashok Vihar, Delhi - DPCC",23-01-2026 08:00:00,28.695381,77.181665,SO2,3,23,14
India,Delhi,Delhi,"Bawana, Delhi - DPCC",23-01-2026 08:00:00,28.776200,77.051074,SO2,9,18,12
India,Delhi,Delhi,"Bawana, Delhi - DPCC",23-01-2026 08:00:00,28.776200,77.051074,CO,40,110,43
India,Delhi,Delhi,"Bawana, Delhi - DPCC",23-01-2026 08:00:00,28.776200,77.051074,OZONE,2,233,69
India,Bihar,Patna,"Samanpura, Patna - BSPCB",23-01-2026 08:00:00,25.596727,85.085624,NO2,20,23,22
India,Delhi,Delhi,"CRRI Mathura Road, Delhi - IMD",23-01-2026 08:00:00,28.5512005,77.2735737,OZONE,2,94,36
India,Delhi,Delhi,"Chandni Chowk, Delhi - IITM",23-01-2026 08:00:00,28.656756,77.227234,NH3,10,30,14
India,Delhi,Delhi,"Chandni Chowk, Delhi - IITM",23-01-2026 08:00:00,28.656756,77.227234,SO2,15,33,23
India,Delhi,Delhi,"DTU, Delhi - CPCB",23-01-2026 08:00:00,28.7500499,77.1112615,PM2.5,203,470,307
India,Delhi,Delhi,"DTU, Delhi - CPCB",23-01-2026 08:00:00,28.7500499,77.1112615,PM10,151,417,230
India,Delhi,Delhi,"Dr. Karni Singh Shooting Range, Delhi - DPCC",23-01-2026 08:00:00,28.498571,77.264840,PM10,133,356,194
India,Delhi,Delhi,"Dwarka-Sector 8, Delhi - DPCC ",23-01-2026 08:00:00,28.5710274,77.0719006,PM2.5,180,410,314
India,Delhi,Delhi,"Dwarka-Sector 8, Delhi - DPCC ",23-01-2026 08:00:00,28.5710274,77.0719006,CO,16,103,22
India,Delhi,Delhi,"IGI Airport (T3), Delhi - IMD",23-01-2026 08:00:00,28.5627763,77.1180053,PM2.5,130,332,212
India,Delhi,Delhi,"IGI Airport (T3), Delhi - IMD",23-01-2026 08:00:00,28.5627763,77.1180053,PM10,111,337,210
India,Delhi,Delhi,"IGI Airport (T3), Delhi - IMD",23-01-2026 08:00:00,28.5627763,77.1180053,CO,2,105,3
India,Delhi,Delhi,"IHBAS, Dilshad Garden, Delhi - CPCB",23-01-2026 08:00:00,28.6811736,77.3025234,NO2,10,235,72
India,Delhi,Delhi,"Pusa, Delhi - IMD",23-01-2026 08:00:00,28.636110,77.173332,CO,94,130,98
India,Delhi,Delhi,"Pusa, Delhi - IMD",23-01-2026 08:00:00,28.636110,77.173332,OZONE,8,308,155
India,Delhi,Delhi,"R K Puram, Delhi - DPCC",23-01-2026 08:00:00,28.563262,77.186937,OZONE,10,177,97
India,Delhi,Delhi,"Rohini, Delhi - DPCC",23-01-2026 08:00:00,28.732528,77.119920,PM2.5,267,487,335
India,Delhi,Delhi,"Rohini, Delhi - DPCC",23-01-2026 08:00:00,28.732528,77.119920,NO2,22,115,59
India,Delhi,Delhi,"Rohini, Delhi - DPCC",23-01-2026 08:00:00,28.732528,77.119920,OZONE,4,300,83
India,Delhi,Delhi,"Shadipur, Delhi - CPCB",23-01-2026 08:00:00,28.6514781,77.1473105,PM10,132,353,191
India,Delhi,Delhi,"Shadipur, Delhi - CPCB",23-01-2026 08:00:00,28.6514781,77.1473105,NO2,62,214,81
India,Delhi,Delhi,"Shadipur, Delhi - CPCB",23-01-2026 08:00:00,28.6514781,77.1473105,NH3,16,23,18
India,Delhi,Delhi,"Sirifort, Delhi - CPCB",23-01-2026 08:00:00,28.5504249,77.2159377,PM2.5,250,411,329
India,Delhi,Delhi,"Sirifort, Delhi - CPCB",23-01-2026 08:00:00,28.5504249,77.2159377,NH3,3,12,6
India,Delhi,Delhi,"Nehru Nagar, Delhi - DPCC",23-01-2026 08:00:00,28.567890,77.250515,PM10,145,420,238
India,Delhi,Delhi,"Nehru Nagar, Delhi - DPCC",23-01-2026 08:00:00,28.567890,77.250515,NO2,31,112,61
India,Delhi,Delhi,"North Campus, DU, Delhi - IMD",23-01-2026 08:00:00,28.6573814,77.1585447,PM10,141,410,208
India,Delhi,Delhi,"North Campus, DU, Delhi - IMD",23-01-2026 08:00:00,28.6573814,77.1585447,NO2,29,303,125
India,Delhi,Delhi,"North Campus, DU, Delhi - IMD",23-01-2026 08:00:00,28.6573814,77.1585447,OZONE,1,304,98
India,Delhi,Delhi,"Okhla Phase-2, Delhi - DPCC",23-01-2026 08:00:00,28.530785,77.271255,NO2,43,235,104
India,Delhi,Delhi,"Patparganj, Delhi - DPCC",23-01-2026 08:00:00,28.623763,77.287209,PM10,140,300,192
India,Delhi,Delhi,"Punjabi Bagh, Delhi - DPCC",23-01-2026 08:00:00,28.674045,77.131023,SO2,4,18,9
India,Delhi,Delhi,"Punjabi Bagh, Delhi - DPCC",23-01-2026 08:00:00,28.674045,77.131023,OZONE,8,84,44
India,Gujarat,Ahmedabad,"SVPI Airport Hansol, Ahmedabad - IITM",23-01-2026 08:00:00,23.076793,72.627874,PM2.5,43,219,124
India,Gujarat,Gandhinagar,"GIFT City, Gandhinagar - IITM",23-01-2026 08:00:00,23.163798,72.677768,SO2,6,12,8
India,Gujarat,Gandhinagar,"GIFT City, Gandhinagar - IITM",23-01-2026 08:00:00,23.163798,72.677768,CO,26,96,34
India,Gujarat,Gandhinagar,"IIPHG Lekawada, Gandhinagar - IITM",23-01-2026 08:00:00,23.243639,72.68994,NH3,3,8,4
India,Gujarat,Gandhinagar,"Sector-10, Gandhinagar - GPCB",23-01-2026 08:00:00,23.221714,72.654328,PM2.5,67,278,135
India,Gujarat,Gandhinagar,"Sector-10, Gandhinagar - GPCB",23-01-2026 08:00:00,23.221714,72.654328,NO2,32,69,42
India,Gujarat,Gandhinagar,"Sector-10, Gandhinagar - GPCB",23-01-2026 08:00:00,23.221714,72.654328,NH3,2,4,3
India,Delhi,Delhi,"Sonia Vihar, Delhi - DPCC",23-01-2026 08:00:00,28.710508,77.249485,SO2,7,29,14
India,Delhi,Delhi,"Sonia Vihar, Delhi - DPCC",23-01-2026 08:00:00,28.710508,77.249485,OZONE,8,237,70
India,Delhi,Delhi,"Sri Aurobindo Marg, Delhi - DPCC",23-01-2026 08:00:00,28.531346,77.190156,PM10,143,425,211
India,Delhi,Delhi,"Sri Aurobindo Marg, Delhi - DPCC",23-01-2026 08:00:00,28.531346,77.190156,SO2,10,17,13
India,Delhi,Delhi,"Vivek Vihar, Delhi - DPCC",23-01-2026 08:00:00,28.672342,77.315260,PM10,174,404,242
India,Delhi,Delhi,"Vivek Vihar, Delhi - DPCC",23-01-2026 08:00:00,28.672342,77.315260,NO2,25,186,69
India,Gujarat,Ahmedabad,"Chandkheda, Ahmedabad - IITM",23-01-2026 08:00:00,23.107969,72.574648,CO,40,74,43
India,Delhi,Delhi,"Mandir Marg, Delhi - DPCC",23-01-2026 08:00:00,28.636429,77.201067,PM10,150,348,204
India,Delhi,Delhi,"Mundka, Delhi - DPCC",23-01-2026 08:00:00,28.684678,77.076574,NO2,49,106,73
India,Delhi,Delhi,"NSIT Dwarka, Delhi - CPCB",23-01-2026 08:00:00,28.60909,77.0325413,PM10,168,455,230
India,Delhi,Delhi,"NSIT Dwarka, Delhi - CPCB",23-01-2026 08:00:00,28.60909,77.0325413,SO2,10,22,15
India,Delhi,Delhi,"NSIT Dwarka, Delhi - CPCB",23-01-2026 08:00:00,28.60909,77.0325413,OZONE,22,48,40
India,Delhi,Delhi,"Najafgarh, Delhi - DPCC",23-01-2026 08:00:00,28.570173,76.933762,OZONE,4,10,6
India,Delhi,Delhi,"Narela, Delhi - DPCC",23-01-2026 08:00:00,28.822836,77.101981,PM10,182,410,286
India,Gujarat,Surat,"Science Center, Surat - SMC",23-01-2026 08:00:00,21.170046,72.795405,CO,37,44,38
India,Gujarat,Vatva,"Phase-4 GIDC, Vatva - GPCB",23-01-2026 08:00:00,22.969611,72.643500,SO2,35,42,38
India,Haryana,Ambala,"Patti Mehar, Ambala - HSPCB",23-01-2026 08:00:00,30.379589,76.778328,PM2.5,64,136,92
India,Haryana,Bahadurgarh,"Arya Nagar, Bahadurgarh - HSPCB",23-01-2026 08:00:00,28.6701,76.9254,CO,43,51,48
India,Haryana,Ballabgarh,"Nathu Colony, Ballabgarh - HSPCB",23-01-2026 08:00:00,28.3419248,77.319699,PM2.5,70,331,199
India,Gujarat,Ahmedabad,"Raikhad, Ahmedabad - IITM",23-01-2026 08:00:00,23.020509,72.579261,PM2.5,NA,NA,NA
India,Gujarat,Ahmedabad,"Raikhad, Ahmedabad - IITM",23-01-2026 08:00:00,23.020509,72.579261,OZONE,15,73,36
India,Gujarat,Ahmedabad,"Rakhial, Ahmedabad - IITM",23-01-2026 08:00:00,23.016834,72.625775,SO2,25,103,53
India,Gujarat,Ahmedabad,"SAC ISRO Bopal, Ahmedabad - IITM",23-01-2026 08:00:00,23.041137,72.456691,PM10,79,190,145
India,Gujarat,Ahmedabad,"SAC ISRO Bopal, Ahmedabad - IITM",23-01-2026 08:00:00,23.041137,72.456691,NH3,11,17,13
India,Delhi,Delhi,"IHBAS, Dilshad Garden, Delhi - CPCB",23-01-2026 08:00:00,28.6811736,77.3025234,SO2,1,14,8
India,Delhi,Delhi,"IIT Delhi, Delhi - IITM",23-01-2026 08:00:00,28.542460,77.191651,CO,32,113,34
India,Delhi,Delhi,"IIT Delhi, Delhi - IITM",23-01-2026 08:00:00,28.542460,77.191651,OZONE,13,74,52
India,Delhi,Delhi,"ITO, Delhi - CPCB",23-01-2026 08:00:00,28.628624,77.241060,CO,18,103,39
India,Delhi,Delhi,"ITO, Delhi - CPCB",23-01-2026 08:00:00,28.628624,77.241060,OZONE,4,36,8
India,Haryana,Faridabad,"Sector 30, Faridabad - HSPCB",23-01-2026 08:00:00,28.4417,77.3217,PM10,161,176,166
India,Haryana,Fatehabad,"Huda Sector, Fatehabad - HSPCB",23-01-2026 08:00:00,29.503664,75.467934,PM2.5,61,181,131
India,Haryana,Fatehabad,"Huda Sector, Fatehabad - HSPCB",23-01-2026 08:00:00,29.503664,75.467934,PM10,91,174,147
India,Haryana,Gurugram,"NISE Gwal Pahari, Gurugram - IMD",23-01-2026 08:00:00,28.422681,77.148944,PM10,117,276,177
India,Haryana,Gurugram,"Sector-51, Gurugram - HSPCB",23-01-2026 08:00:00,28.4227,77.0667,CO,19,70,21
India,Haryana,Gurugram,"Vikas Sadan, Gurugram - HSPCB",23-01-2026 08:00:00,28.4501238,77.0263051,PM2.5,34,500,153
India,Haryana,Gurugram,"Vikas Sadan, Gurugram - HSPCB",23-01-2026 08:00:00,28.4501238,77.0263051,PM10,NA,NA,NA
India,Haryana,Gurugram,"Vikas Sadan, Gurugram - HSPCB",23-01-2026 08:00:00,28.4501238,77.0263051,NO2,9,45,27
India,Haryana,Gurugram,"Vikas Sadan, Gurugram - HSPCB",23-01-2026 08:00:00,28.4501238,77.0263051,CO,66,114,97
India,Karnataka,Bengaluru,"Jayanagar 5th Block, Bengaluru - KSPCB",23-01-2026 08:00:00,12.920984,77.584908,OZONE,15,96,82
India,Karnataka,Bengaluru,"Jigani, Bengaluru - KSPCB",23-01-2026 08:00:00,12.7816279,77.6299145,NO2,19,20,19
India,Karnataka,Bengaluru,"Peenya, Bengaluru - CPCB",23-01-2026 08:00:00,13.0270199,77.494094,PM2.5,20,95,41
India,Karnataka,Bengaluru,"Peenya, Bengaluru - CPCB",23-01-2026 08:00:00,13.0270199,77.494094,NO2,22,28,25
India,Karnataka,Bengaluru,"Peenya, Bengaluru - CPCB",23-01-2026 08:00:00,13.0270199,77.494094,SO2,6,15,10
India,Karnataka,Bengaluru,"RVCE-Mailasandra, Bengaluru - KSPCB",23-01-2026 08:00:00,12.921418,77.502466,PM10,92,129,112
India,Karnataka,Bengaluru,"Sanegurava Halli, Bengaluru - KSPCB",23-01-2026 08:00:00,12.990328,77.5431385,NO2,17,18,18
India,Karnataka,Bengaluru,"Shivapura_Peenya, Bengaluru - KSPCB",23-01-2026 08:00:00,13.0246342,77.5080115,NO2,78,79,79
India,Karnataka,Bengaluru,"BWSSB Kadabesanahalli, Bengaluru - CPCB",23-01-2026 08:00:00,12.9352049,77.6814488,PM2.5,73,159,116
India,Karnataka,Bengaluru,"BWSSB Kadabesanahalli, Bengaluru - CPCB",23-01-2026 08:00:00,12.9352049,77.6814488,SO2,3,8,5
India,Karnataka,Bengaluru,"Bapuji Nagar, Bengaluru - KSPCB",23-01-2026 08:00:00,12.951913,77.539784,OZONE,18,36,29
India,Karnataka,Bengaluru,"City Railway Station, Bengaluru - KSPCB",23-01-2026 08:00:00,12.9756843,77.5660749,NO2,30,36,33
India,Karnataka,Bengaluru,"City Railway Station, Bengaluru - KSPCB",23-01-2026 08:00:00,12.9756843,77.5660749,CO,72,79,76
India,Karnataka,Bengaluru,"Hebbal, Bengaluru - KSPCB",23-01-2026 08:00:00,13.029152,77.585901,SO2,9,18,14
India,Karnataka,Bengaluru,"Jayanagar 5th Block, Bengaluru - KSPCB",23-01-2026 08:00:00,12.920984,77.584908,SO2,6,21,14
India,Haryana,Gurugram,"Vikas Sadan, Gurugram - HSPCB",23-01-2026 08:00:00,28.4501238,77.0263051,OZONE,5,31,11
India,Haryana,Hisar,"Urban Estate-II, Hisar - HSPCB",23-01-2026 08:00:00,29.140560,75.744941,OZONE,NA,NA,NA
India,Haryana,Karnal,"Sector-12, Karnal - HSPCB",23-01-2026 08:00:00,29.695300,77.002700,NO2,6,7,6
India,Haryana,Karnal,"Sector-12, Karnal - HSPCB",23-01-2026 08:00:00,29.695300,77.002700,NH3,6,7,6
India,Haryana,Kurukshetra,"Sector-7, Kurukshetra - HSPCB",23-01-2026 08:00:00,29.966942,76.875879,NH3,5,5,5
India,Haryana,Mandikhera,"General Hospital, Mandikhera(Nuh) - HSPCB",23-01-2026 08:00:00,27.9002,76.9938,SO2,32,38,34
India,Haryana,Mandikhera,"General Hospital, Mandikhera(Nuh) - HSPCB",23-01-2026 08:00:00,27.9002,76.9938,OZONE,24,32,28
India,Jammu_and_Kashmir,Srinagar,"Khunmoh, Srinagar - JKPCC",23-01-2026 08:00:00,34.06313,74.96017,NO2,2,22,6
India,Jammu_and_Kashmir,Srinagar,"Khunmoh, Srinagar - JKPCC",23-01-2026 08:00:00,34.06313,74.96017,SO2,1,4,3
India,Jammu_and_Kashmir,Srinagar,"Rajbagh, Srinagar - JKPCC",23-01-2026 08:00:00,34.066206,74.819820,PM10,NA,NA,NA
India,Jharkhand,Dhanbad,"Sardar Patel Nagar, Dhanbad - JSPCB",23-01-2026 08:00:00,23.80569,86.44268,NO2,50,78,51
India,Jharkhand,Dhanbad,"Sardar Patel Nagar, Dhanbad - JSPCB",23-01-2026 08:00:00,23.80569,86.44268,CO,1,170,1
India,Karnataka,Bagalkot,"Vidayagiri, Bagalkot - KSPCB",23-01-2026 08:00:00,16.172806,75.659694,NO2,NA,NA,NA
India,Karnataka,Bagalkot,"Vidayagiri, Bagalkot - KSPCB",23-01-2026 08:00:00,16.172806,75.659694,SO2,NA,NA,NA
India,Haryana,Narnaul,"Shastri Nagar, Narnaul - HSPCB",23-01-2026 08:00:00,28.060249,76.113115,SO2,6,7,7
India,Haryana,Palwal,"Shyam Nagar, Palwal - HSPCB",23-01-2026 08:00:00,28.1485564,77.3320667,NO2,23,24,24
India,Haryana,Palwal,"Shyam Nagar, Palwal - HSPCB",23-01-2026 08:00:00,28.1485564,77.3320667,OZONE,14,17,16
India,Haryana,Panchgaon,"Amity University, Panchgaon - IITM",23-01-2026 08:00:00,28.3153,76.9143,NO2,6,66,15
India,Haryana,Panchgaon,"Amity University, Panchgaon - IITM",23-01-2026 08:00:00,28.3153,76.9143,OZONE,1,98,52
India,Haryana,Panipat,"Sector-18, Panipat - HSPCB",23-01-2026 08:00:00,29.432304,76.972765,PM10,155,386,226
India,Haryana,Panipat,"Sector-18, Panipat - HSPCB",23-01-2026 08:00:00,29.432304,76.972765,NO2,31,32,31
India,Haryana,Charkhi Dadri,"Mini Secretariat, Charkhi Dadri - HSPCB",23-01-2026 08:00:00,28.593883,76.270653,PM2.5,64,373,201
India,Haryana,Charkhi Dadri,"Mini Secretariat, Charkhi Dadri - HSPCB",23-01-2026 08:00:00,28.593883,76.270653,NO2,9,22,15
India,Haryana,Charkhi Dadri,"Mini Secretariat, Charkhi Dadri - HSPCB",23-01-2026 08:00:00,28.593883,76.270653,CO,5,25,17
India,Haryana,Dharuhera,"Municipal Corporation Office, Dharuhera -  HSPCB",23-01-2026 08:00:00,28.206800,76.799700,CO,54,102,90
India,Haryana,Faridabad,"New Industrial Town, Faridabad - HSPCB",23-01-2026 08:00:00,28.39072,77.30059,NO2,23,26,25
India,Haryana,Sirsa,"F-Block, Sirsa - HSPCB",23-01-2026 08:00:00,29.536400,75.015800,NO2,10,27,20
India,Haryana,Sirsa,"F-Block, Sirsa - HSPCB",23-01-2026 08:00:00,29.536400,75.015800,NH3,11,14,13
India,Haryana,Sirsa,"F-Block, Sirsa - HSPCB",23-01-2026 08:00:00,29.536400,75.015800,OZONE,40,67,54
India,Haryana,Sonipat,"Murthal, Sonipat - HSPCB",23-01-2026 08:00:00,29.027200,77.062100,NO2,NA,NA,NA
India,Himachal Pradesh,Baddi,"HIMUDA Complex Phase-1, Baddi - HPPCB",23-01-2026 08:00:00,30.943887,76.801991,NO2,1,31,7
India,Himachal Pradesh,Baddi,"HIMUDA Complex Phase-1, Baddi - HPPCB",23-01-2026 08:00:00,30.943887,76.801991,SO2,23,111,58
India,Himachal Pradesh,Baddi,"HIMUDA Complex Phase-1, Baddi - HPPCB",23-01-2026 08:00:00,30.943887,76.801991,OZONE,25,123,80
India,Karnataka,Bengaluru,"Silk Board, Bengaluru - KSPCB",23-01-2026 08:00:00,12.917348,77.622813,PM2.5,35,232,71
India,Karnataka,Chikkaballapur,"Chikkaballapur Rural, Chikkaballapur - KSPCB",23-01-2026 08:00:00,13.428828,77.731418,PM10,41,137,90
India,Karnataka,Chikkaballapur,"Chikkaballapur Rural, Chikkaballapur - KSPCB",23-01-2026 08:00:00,13.428828,77.731418,NH3,4,6,5
India,Karnataka,Chikkaballapur,"Chikkaballapur Rural, Chikkaballapur - KSPCB",23-01-2026 08:00:00,13.428828,77.731418,OZONE,13,28,22
India,Karnataka,Chikkamagaluru,"Kalyana Nagara, Chikkamagaluru - KSPCB",23-01-2026 08:00:00,13.328028,75.797056,PM2.5,17,86,39
India,Karnataka,Chikkamagaluru,"Kalyana Nagara, Chikkamagaluru - KSPCB",23-01-2026 08:00:00,13.328028,75.797056,NO2,22,28,26
India,Karnataka,Davanagere,"Devaraj Urs Badavane, Davanagere - KSPCB",23-01-2026 08:00:00,14.475800,75.905200,PM2.5,40,103,60
India,Karnataka,Davanagere,"Devaraj Urs Badavane, Davanagere - KSPCB",23-01-2026 08:00:00,14.475800,75.905200,OZONE,19,26,20
India,Karnataka,Dharwad,"Kalabhavan, Dharwad - KSPCB",23-01-2026 08:00:00,15.459706,75.008381,SO2,7,14,9
India,Karnataka,Dharwad,"Kalabhavan, Dharwad - KSPCB",23-01-2026 08:00:00,15.459706,75.008381,CO,54,106,81
India,Karnataka,Hubballi,"Lingaraj Nagar, Hubballi - KSPCB",23-01-2026 08:00:00,15.3714823,75.1160168,PM2.5,45,50,49
India,Karnataka,Hubballi,"Lingaraj Nagar, Hubballi - KSPCB",23-01-2026 08:00:00,15.3714823,75.1160168,PM10,63,67,66
India,Madhya Pradesh,Jabalpur,"Gupteshwar, Jabalpur - JMC",23-01-2026 08:00:00,23.142888,79.916147,CO,30,125,36
India,Madhya Pradesh,Jabalpur,"Marhatal, Jabalpur - MPPCB",23-01-2026 08:00:00,23.168606,79.932247,NO2,14,54,31
India,Madhya Pradesh,Jabalpur,"Marhatal, Jabalpur - MPPCB",23-01-2026 08:00:00,23.168606,79.932247,NH3,2,3,2
India,Madhya Pradesh,Jabalpur,"Marhatal, Jabalpur - MPPCB",23-01-2026 08:00:00,23.168606,79.932247,OZONE,54,249,67
India,Madhya Pradesh,Katni,"Gole Bazar, Katni - MPPCB",23-01-2026 08:00:00,23.50016,80.23284,CO,16,128,20
India,Madhya Pradesh,Mandideep,"Sector-D Industrial Area, Mandideep - MPPCB",23-01-2026 08:00:00,23.108440,77.511428,PM2.5,183,428,281
India,Madhya Pradesh,Mandideep,"Sector-D Industrial Area, Mandideep - MPPCB",23-01-2026 08:00:00,23.108440,77.511428,NH3,4,5,5
India,Madhya Pradesh,Mandideep,"Sector-D Industrial Area, Mandideep - MPPCB",23-01-2026 08:00:00,23.108440,77.511428,SO2,19,51,30
India,Madhya Pradesh,Mandideep,"Sector-D Industrial Area, Mandideep - MPPCB",23-01-2026 08:00:00,23.108440,77.511428,OZONE,37,60,38
India,Madhya Pradesh,Pithampur,"Sector-2 Industrial Area, Pithampur - MPPCB",23-01-2026 08:00:00,22.624758,75.675238,CO,2,31,20
India,Madhya Pradesh,Ratlam,"Shasthri Nagar, Ratlam - IPCA Lab",23-01-2026 08:00:00,23.331731,75.045981,PM2.5,32,163,83
India,Karnataka,Shivamogga,"Vinoba Nagara, Shivamogga - KSPCB",23-01-2026 08:00:00,13.940000,75.555917,CO,6,22,8
India,Karnataka,Vijayapura,"Ibrahimpur, Vijayapura - KSPCB",23-01-2026 08:00:00,16.802639,75.722694,NO2,11,12,11
India,Karnataka,Yadgir,"Collector Office, Yadgir - KSPCB",23-01-2026 08:00:00,16.7602,77.1428,PM2.5,NA,NA,NA
India,Karnataka,Yadgir,"Collector Office, Yadgir - KSPCB",23-01-2026 08:00:00,16.7602,77.1428,NO2,NA,NA,NA
India,Karnataka,Yadgir,"Collector Office, Yadgir - KSPCB",23-01-2026 08:00:00,16.7602,77.1428,NH3,NA,NA,NA
India,Karnataka,Yadgir,"Collector Office, Yadgir - KSPCB",23-01-2026 08:00:00,16.7602,77.1428,OZONE,18,19,18
India,Kerala,Eloor,"Udyogamandal, Eloor - Kerala PCB",23-01-2026 08:00:00,10.073232,76.302765,PM2.5,90,204,148
India,Kerala,Eloor,"Udyogamandal, Eloor - Kerala PCB",23-01-2026 08:00:00,10.073232,76.302765,PM10,69,104,89
India,Kerala,Eloor,"Udyogamandal, Eloor - Kerala PCB",23-01-2026 08:00:00,10.073232,76.302765,NO2,6,7,6
India,Kerala,Kannur,"Thavakkara, Kannur - Kerala PCB",23-01-2026 08:00:00,11.875000,75.373200,PM2.5,80,98,90
India,Kerala,Kannur,"Thavakkara, Kannur - Kerala PCB",23-01-2026 08:00:00,11.875000,75.373200,SO2,4,6,5
India,Karnataka,Hubballi,"Lingaraj Nagar, Hubballi - KSPCB",23-01-2026 08:00:00,15.3714823,75.1160168,NH3,2,3,3
India,Karnataka,Kalaburagi,"Mahatma Basaveswar Colony, Kalaburgi - KSPCB",23-01-2026 08:00:00,17.336318,76.847397,PM10,25,69,51
India,Karnataka,Kalaburagi,"Mahatma Basaveswar Colony, Kalaburgi - KSPCB",23-01-2026 08:00:00,17.336318,76.847397,NO2,13,22,15
India,Karnataka,Mysuru,"Hebbal 1st Stage, Mysuru - KSPCB",23-01-2026 08:00:00,12.21041,76.37376,PM10,50,110,74
India,Karnataka,Mysuru,"Hebbal 1st Stage, Mysuru - KSPCB",23-01-2026 08:00:00,12.21041,76.37376,SO2,5,47,13
India,Karnataka,Mysuru,"Hebbal 1st Stage, Mysuru - KSPCB",23-01-2026 08:00:00,12.21041,76.37376,CO,8,103,26
India,Karnataka,Ramanagara,"Vijay Nagar, Ramanagara - KSPCB",23-01-2026 08:00:00,12.733409,77.298051,PM2.5,15,86,50
India,Karnataka,Ramanagara,"Vijay Nagar, Ramanagara - KSPCB",23-01-2026 08:00:00,12.733409,77.298051,PM10,22,116,71
India,Karnataka,Ramanagara,"Vijay Nagar, Ramanagara - KSPCB",23-01-2026 08:00:00,12.733409,77.298051,CO,10,31,28
India,Maharashtra,Amravati,"Shivneri Colony, Amravati - MPCB",23-01-2026 08:00:00,20.9402359,77.7895248,PM2.5,60,86,73
India,Maharashtra,Amravati,"Shivneri Colony, Amravati - MPCB",23-01-2026 08:00:00,20.9402359,77.7895248,NH3,2,3,3
India,Maharashtra,Aurangabad,"MIDC Chilkalthana, Aurangabad - MPCB",23-01-2026 08:00:00,19.875620,75.387310,PM2.5,68,164,112
India,Maharashtra,Aurangabad,"More Chowk Waluj, Aurangabad - MPCB",23-01-2026 08:00:00,19.8389439,75.244448,CO,6,142,92
India,Maharashtra,Aurangabad,"Rachnakar Colony, Aurangabad - MPCB",23-01-2026 08:00:00,19.863756,75.321188,NH3,2,5,4
India,Maharashtra,Aurangabad,"Rachnakar Colony, Aurangabad - MPCB",23-01-2026 08:00:00,19.863756,75.321188,OZONE,14,71,14
India,Maharashtra,Badlapur,"Katrap, Badlapur - MPCB",23-01-2026 08:00:00,19.16485,73.23409,PM2.5,75,252,142
India,Maharashtra,Badlapur,"Katrap, Badlapur - MPCB",23-01-2026 08:00:00,19.16485,73.23409,PM10,100,190,140
India,Kerala,Kollam,"Polayathode, Kollam - Kerala PCB",23-01-2026 08:00:00,8.8787,76.6073,NH3,NA,NA,NA
India,Kerala,Thiruvananthapuram,"Kariavattom, Thiruvananthapuram - Kerala PCB",23-01-2026 08:00:00,8.563700,76.886500,SO2,1,15,8
India,Kerala,Thiruvananthapuram,"Plammoodu, Thiruvananthapuram - Kerala PCB",23-01-2026 08:00:00,8.5149093,76.9435879,CO,10,32,16
India,Madhya Pradesh,Bhopal,"Idgah Hills, Bhopal - MPPCB",23-01-2026 08:00:00,23.264759,77.381568,PM2.5,55,153,87
India,Madhya Pradesh,Bhopal,"Idgah Hills, Bhopal - MPPCB",23-01-2026 08:00:00,23.264759,77.381568,NO2,25,64,40
India,Madhya Pradesh,Bhopal,"Idgah Hills, Bhopal - MPPCB",23-01-2026 08:00:00,23.264759,77.381568,CO,24,61,29
India,Madhya Pradesh,Bhopal,"Paryavaran Parisar, Bhopal - MPPCB",23-01-2026 08:00:00,23.210494,77.425409,CO,14,102,27
India,Madhya Pradesh,Sagar,"Deen Dayal Nagar, Sagar - MPPCB",23-01-2026 08:00:00,23.8640158,78.80289321,PM2.5,31,69,48
India,Madhya Pradesh,Sagar,"Deen Dayal Nagar, Sagar - MPPCB",23-01-2026 08:00:00,23.8640158,78.80289321,PM10,54,116,80
India,Madhya Pradesh,Satna,"Bandhavgar Colony, Satna - Birla Cement",23-01-2026 08:00:00,24.58434363,80.8549414,SO2,3,20,18
India,Madhya Pradesh,Satna,"Bandhavgar Colony, Satna - Birla Cement",23-01-2026 08:00:00,24.58434363,80.8549414,CO,12,37,27
India,Madhya Pradesh,Ujjain,"Mahashweta Nagar, Ujjain - MPPCB",23-01-2026 08:00:00,23.1633321,75.800225,PM10,NA,NA,NA
India,Maharashtra,Akola,"Ramdaspeth, Akola - MPCB",23-01-2026 08:00:00,20.719516,77.000253,PM10,74,139,105
India,Maharashtra,Akola,"Ramdaspeth, Akola - MPCB",23-01-2026 08:00:00,20.719516,77.000253,SO2,10,30,19
India,Madhya Pradesh,Indore,"Chhoti Gwaltoli, Indore - MPPCB",23-01-2026 08:00:00,22.4310,75.5213,PM2.5,52,140,86
India,Madhya Pradesh,Indore,"Chhoti Gwaltoli, Indore - MPPCB",23-01-2026 08:00:00,22.4310,75.5213,NH3,1,6,4
India,Madhya Pradesh,Indore,"Chhoti Gwaltoli, Indore - MPPCB",23-01-2026 08:00:00,22.4310,75.5213,OZONE,11,61,45
India,Madhya Pradesh,Indore,"Maguda Nagar, Indore - IMC",23-01-2026 08:00:00,22.7524,75.8872,SO2,5,22,16
India,Madhya Pradesh,Indore,"Regional Park, Indore - IMC",23-01-2026 08:00:00,22.6780,75.8559,PM10,26,60,41
India,Madhya Pradesh,Indore,"Regional Park, Indore - IMC",23-01-2026 08:00:00,22.6780,75.8559,NO2,11,27,18
India,Madhya Pradesh,Indore,"Regional Park, Indore - IMC",23-01-2026 08:00:00,22.6780,75.8559,NH3,NA,NA,NA
India,Madhya Pradesh,Jabalpur,"Govindh Bhavan Colony, Jabalpur - JMC",23-01-2026 08:00:00,23.163174,79.973061,OZONE,6,24,8
India,Madhya Pradesh,Bhopal,"T T Nagar, Bhopal - MPPCB",23-01-2026 08:00:00,23.233584,77.400574,CO,36,100,50
India,Madhya Pradesh,Dewas,"Bhopal Chauraha, Dewas - MPPCB",23-01-2026 08:00:00,22.9682591,76.064118,SO2,14,80,50
India,Madhya Pradesh,Gwalior,"City Center, Gwalior - MPPCB",23-01-2026 08:00:00,26.203442,78.193251,OZONE,12,50,12
India,Madhya Pradesh,Gwalior,"Deen Dayal Nagar, Gwalior - MPPCB",23-01-2026 08:00:00,26.259242,78.216432,NH3,9,17,12
India,Madhya Pradesh,Indore,"Airport Area, Indore - IMC",23-01-2026 08:00:00,22.7289,75.8076,CO,2,15,7
India,Maharashtra,Nanded,"Sneh Nagar, Nanded - MPCB",23-01-2026 08:00:00,19.173852,77.296291,CO,14,28,22
India,Maharashtra,Nashik,"Gangapur Road, Nashik - MPCB",23-01-2026 08:00:00,20.0073285,73.7762427,PM10,62,199,98
India,Maharashtra,Nashik,"Gangapur Road, Nashik - MPCB",23-01-2026 08:00:00,20.0073285,73.7762427,NO2,5,5,5
India,Maharashtra,Nashik,"MIDC Ambad, Nashik - MPCB",23-01-2026 08:00:00,19.950220,73.731480,PM10,97,137,118
India,Maharashtra,Nashik,"MIDC Ambad, Nashik - MPCB",23-01-2026 08:00:00,19.950220,73.731480,NH3,2,3,3
India,Maharashtra,Nashik,"MIDC Ambad, Nashik - MPCB",23-01-2026 08:00:00,19.950220,73.731480,SO2,17,22,19
India,Maharashtra,Nashik,"Pandav Nagari, Nashik - MPCB",23-01-2026 08:00:00,19.9591346,73.7788008,NH3,3,7,5
India,Maharashtra,Navi Mumbai,"Kopripada-Vashi, Navi Mumbai - MPCB",23-01-2026 08:00:00,19.090337,73.014232,PM10,87,155,116
India,Maharashtra,Navi Mumbai,"Kopripada-Vashi, Navi Mumbai - MPCB",23-01-2026 08:00:00,19.090337,73.014232,NH3,4,5,4
India,Maharashtra,Navi Mumbai,"Mahape, Navi Mumbai - MPCB",23-01-2026 08:00:00,19.1135051,73.008978,PM2.5,55,156,81
India,Maharashtra,Mumbai,"Kherwadi_Bandra East, Mumbai - MPCB",23-01-2026 08:00:00,19.0632143,72.8456324,PM2.5,71,177,98
India,Maharashtra,Mumbai,"Kherwadi_Bandra East, Mumbai - MPCB",23-01-2026 08:00:00,19.0632143,72.8456324,OZONE,1,77,8
India,Maharashtra,Mumbai,"Khindipada-Bhandup West, Mumbai - IITM",23-01-2026 08:00:00,19.1653323,72.922099,SO2,2,29,10
India,Maharashtra,Mumbai,"Kurla, Mumbai - MPCB",23-01-2026 08:00:00,19.0863,72.8888,SO2,36,37,37
India,Maharashtra,Mumbai,"Malad West, Mumbai - IITM",23-01-2026 08:00:00,19.19709,72.82204,PM10,99,194,136
India,Maharashtra,Mumbai,"Mazgaon, Mumbai - IITM",23-01-2026 08:00:00,18.96702,72.84214,PM2.5,70,106,87
India,Maharashtra,Mumbai,"Mazgaon, Mumbai - IITM",23-01-2026 08:00:00,18.96702,72.84214,OZONE,13,82,48
India,Maharashtra,Mumbai,"Mindspace-Malad West, Mumbai - MPCB",23-01-2026 08:00:00,19.1878657,72.8304069,PM2.5,64,132,88
India,Maharashtra,Mumbai,"Mindspace-Malad West, Mumbai - MPCB",23-01-2026 08:00:00,19.1878657,72.8304069,NH3,1,63,6
India,Maharashtra,Mumbai,"Mindspace-Malad West, Mumbai - MPCB",23-01-2026 08:00:00,19.1878657,72.8304069,OZONE,4,73,12
India,Maharashtra,Nagpur,"Ambazari, Nagpur - MPCB",23-01-2026 08:00:00,21.121801,79.04952,PM10,99,188,126
India,Maharashtra,Nagpur,"Ambazari, Nagpur - MPCB",23-01-2026 08:00:00,21.121801,79.04952,NH3,2,42,9
India,Maharashtra,Nagpur,"Mahal, Nagpur - MPCB",23-01-2026 08:00:00,21.14472,79.107595,PM10,94,180,129
India,Maharashtra,Nagpur,"Mahal, Nagpur - MPCB",23-01-2026 08:00:00,21.14472,79.107595,SO2,8,88,46
India,Maharashtra,Nagpur,"Mahal, Nagpur - MPCB",23-01-2026 08:00:00,21.14472,79.107595,CO,26,125,60
India,Maharashtra,Nagpur,"Opp GPO Civil Lines, Nagpur - MPCB",23-01-2026 08:00:00,21.152875,79.0517531,PM10,94,205,144
India,Maharashtra,Nagpur,"Opp GPO Civil Lines, Nagpur - MPCB",23-01-2026 08:00:00,21.152875,79.0517531,NH3,5,25,15
India,Maharashtra,Nagpur,"Opp GPO Civil Lines, Nagpur - MPCB",23-01-2026 08:00:00,21.152875,79.0517531,OZONE,1,12,1
India,Maharashtra,Nagpur,"Ram Nagar, Nagpur - MPCB",23-01-2026 08:00:00,21.143383,79.048912,PM2.5,90,266,171
India,Maharashtra,Nagpur,"Ram Nagar, Nagpur - MPCB",23-01-2026 08:00:00,21.143383,79.048912,PM10,107,181,147
India,Maharashtra,Nagpur,"Ram Nagar, Nagpur - MPCB",23-01-2026 08:00:00,21.143383,79.048912,CO,34,101,81
India,Maharashtra,Mumbai,"Borivali East, Mumbai - IITM",23-01-2026 08:00:00,19.23241,72.86895,PM2.5,80,120,97
India,Maharashtra,Mumbai,"Borivali East, Mumbai - IITM",23-01-2026 08:00:00,19.23241,72.86895,PM10,86,145,121
India,Maharashtra,Mumbai,"Borivali East, Mumbai - IITM",23-01-2026 08:00:00,19.23241,72.86895,NH3,4,6,5
India,Maharashtra,Mumbai,"Borivali East, Mumbai - IITM",23-01-2026 08:00:00,19.23241,72.86895,CO,28,92,86
India,Maharashtra,Mumbai,"Borivali East, Mumbai - MPCB",23-01-2026 08:00:00,19.2243333,72.8658113,NH3,1,10,6
India,Maharashtra,Mumbai,"Borivali East, Mumbai - MPCB",23-01-2026 08:00:00,19.2243333,72.8658113,SO2,14,17,15
India,Maharashtra,Mumbai,"Byculla, Mumbai - BMC",23-01-2026 08:00:00,18.9767,72.8380,NH3,8,38,14
India,Maharashtra,Mumbai,"Chakala-Andheri East, Mumbai - IITM",23-01-2026 08:00:00,19.11074,72.86084,PM2.5,97,179,134
India,Maharashtra,Mumbai,"Chakala-Andheri East, Mumbai - IITM",23-01-2026 08:00:00,19.11074,72.86084,PM10,92,173,118
India,Maharashtra,Mumbai,"Chakala-Andheri East, Mumbai - IITM",23-01-2026 08:00:00,19.11074,72.86084,NH3,11,26,16
India,Maharashtra,Mumbai,"Chakala-Andheri East, Mumbai - IITM",23-01-2026 08:00:00,19.11074,72.86084,SO2,NA,NA,NA
India,Maharashtra,Dhule,"Deopur, Dhule - MPCB",23-01-2026 08:00:00,20.918946,74.776388,CO,18,80,30
India,Maharashtra,Jalgaon,"Prabhat Colony, Jalgaon - MPCB",23-01-2026 08:00:00,21.001264,75.565602,PM10,32,148,110
India,Maharashtra,Jalna,"Old MIDC, Jalna - MPCB",23-01-2026 08:00:00,19.854616,75.905894,CO,18,60,29
India,Maharashtra,Kalyan,"Khadakpada, Kalyan - MPCB",23-01-2026 08:00:00,19.25292,73.142019,PM2.5,46,193,107
India,Maharashtra,Kalyan,"Khadakpada, Kalyan - MPCB",23-01-2026 08:00:00,19.25292,73.142019,PM10,82,213,139
India,Maharashtra,Kalyan,"Khadakpada, Kalyan - MPCB",23-01-2026 08:00:00,19.25292,73.142019,NO2,36,36,36
India,Maharashtra,Kalyan,"Pimpleshwar Mandir, Kalyan - MPCB",23-01-2026 08:00:00,19.192056,72.9585188,NO2,11,30,19
India,Maharashtra,Kolhapur,"Shivaji University, Kolhapur - MPCB",23-01-2026 08:00:00,16.6870449,74.2505872,PM2.5,28,165,101
India,Maharashtra,Mumbai,"Mulund West, Mumbai - MPCB",23-01-2026 08:00:00,19.1750,72.9419,NH3,4,5,4
India,Maharashtra,Mumbai,"Mulund West, Mumbai - MPCB",23-01-2026 08:00:00,19.1750,72.9419,CO,NA,NA,NA
India,Maharashtra,Mumbai,"Navy Nagar-Colaba, Mumbai - IITM",23-01-2026 08:00:00,18.897756,72.813320,PM2.5,61,197,144
India,Maharashtra,Mumbai,"Navy Nagar-Colaba, Mumbai - IITM",23-01-2026 08:00:00,18.897756,72.813320,SO2,4,105,36
India,Maharashtra,Mumbai,"Sewri, Mumbai - BMC",23-01-2026 08:00:00,19.000084,72.856730,NO2,30,98,58
India,Maharashtra,Mumbai,"Sewri, Mumbai - BMC",23-01-2026 08:00:00,19.000084,72.856730,NH3,5,25,10
India,Maharashtra,Mumbai,"Siddharth Nagar-Worli, Mumbai - IITM",23-01-2026 08:00:00,19.000083,72.813993,PM10,51,206,94
India,Maharashtra,Mumbai,"Siddharth Nagar-Worli, Mumbai - IITM",23-01-2026 08:00:00,19.000083,72.813993,NH3,6,14,8
India,Maharashtra,Mumbai,"Sion, Mumbai - MPCB",23-01-2026 08:00:00,19.047000,72.874600,NO2,35,38,37
India,Maharashtra,Mumbai,"Chembur, Mumbai - MPCB",23-01-2026 08:00:00,19.0364585,72.8954371,OZONE,5,68,11
India,Maharashtra,Mumbai,"Chhatrapati Shivaji Intl. Airport (T2), Mumbai - MPCB",23-01-2026 08:00:00,19.10078,72.87462,PM2.5,65,231,97
India,Maharashtra,Mumbai,"Chhatrapati Shivaji Intl. Airport (T2), Mumbai - MPCB",23-01-2026 08:00:00,19.10078,72.87462,SO2,NA,NA,NA
India,Maharashtra,Mumbai,"Chhatrapati Shivaji Intl. Airport (T2), Mumbai - MPCB",23-01-2026 08:00:00,19.10078,72.87462,OZONE,7,7,7
India,Maharashtra,Mumbai,"Colaba, Mumbai - MPCB",23-01-2026 08:00:00,18.910000,72.820000,PM2.5,38,99,62
India,Maharashtra,Mumbai,"Ghatkopar, Mumbai - BMC",23-01-2026 08:00:00,19.083694,72.920967,NO2,40,105,66
India,Maharashtra,Mumbai,"Ghatkopar, Mumbai - BMC",23-01-2026 08:00:00,19.083694,72.920967,SO2,1,6,2
India,Maharashtra,Mumbai,"Kandivali West, Mumbai - BMC",23-01-2026 08:00:00,19.215859,72.831718,CO,14,102,45
India,Maharashtra,Belapur,"CBD Belapur, Belapur - MPCB",23-01-2026 08:00:00,19.0243902,73.0406721,SO2,14,40,21
India,Maharashtra,Bhiwandi,"Gokul Nagar, Bhiwandi - MPCB",23-01-2026 08:00:00,19.309073,73.057223,PM2.5,60,265,140
India,Maharashtra,Boisar,"Khaira, Boisar - MPCB",23-01-2026 08:00:00,19.786089,72.757971,PM2.5,49,255,111
India,Maharashtra,Boisar,"Khaira, Boisar - MPCB",23-01-2026 08:00:00,19.786089,72.757971,NH3,6,13,9
India,Maharashtra,Boisar,"Khaira, Boisar - MPCB",23-01-2026 08:00:00,19.786089,72.757971,CO,12,87,39
India,Maharashtra,Chandrapur,"MIDC Khutala, Chandrapur - MPCB",23-01-2026 08:00:00,19.9775302,79.2337086,NH3,2,10,5
India,Maharashtra,Kolhapur,"Shivaji University, Kolhapur - MPCB",23-01-2026 08:00:00,16.6870449,74.2505872,CO,10,54,43
India,Maharashtra,Mahad,"Kamble Tarf Birwadi, Mahad - MPCB",23-01-2026 08:00:00,18.1023399,73.4783687,CO,1,26,10
India,Maharashtra,Malegaon,"Mahesh Nagar, Malegaon - MPCB",23-01-2026 08:00:00,20.555712,74.529236,NH3,1,3,1
India,Maharashtra,Malegaon,"Mahesh Nagar, Malegaon - MPCB",23-01-2026 08:00:00,20.555712,74.529236,CO,18,126,24
India,Maharashtra,Mira-Bhayandar,"Bhayandar West, Mira-Bhayandar - MPCB",23-01-2026 08:00:00,19.296481,72.840923,CO,16,68,50
India,Mizoram,Aizawl,"Sikulpuikawn, Aizawl - Mizoram PCB",23-01-2026 08:00:00,23.7176342,92.7192841,PM2.5,53,61,57
India,Mizoram,Aizawl,"Sikulpuikawn, Aizawl - Mizoram PCB",23-01-2026 08:00:00,23.7176342,92.7192841,PM10,51,54,53
India,Mizoram,Aizawl,"Sikulpuikawn, Aizawl - Mizoram PCB",23-01-2026 08:00:00,23.7176342,92.7192841,CO,3,4,3
India,Nagaland,Kohima,"PWD Junction, Kohima - NPCB",23-01-2026 08:00:00,25.6635413,94.0989878,NO2,3,4,4
India,Odisha,Angul,"Hakimapada, Angul - OSPCB",23-01-2026 08:00:00,20.832874,85.104082,SO2,13,103,34
India,Odisha,Balasore,"Kalidaspur, Balasore - OSPCB",23-01-2026 08:00:00,21.51161,86.89088,PM2.5,92,260,150
India,Odisha,Balasore,"Kalidaspur, Balasore - OSPCB",23-01-2026 08:00:00,21.51161,86.89088,NO2,8,45,21
India,Odisha,Balasore,"Kalidaspur, Balasore - OSPCB",23-01-2026 08:00:00,21.51161,86.89088,SO2,8,41,19
India,Odisha,Barbil,"Forest Office, Barbil - OSPCB",23-01-2026 08:00:00,22.1166054,85.3945546,PM2.5,13,371,113
India,Odisha,Baripada,"Meher Colony, Baripada - OSPCB",23-01-2026 08:00:00,21.941841,86.728318,NH3,1,6,4
India,Odisha,Bhubaneswar,"Lingraj Mandir, Bhubaneswar - OSPCB",23-01-2026 08:00:00,20.240790,85.836784,CO,68,106,94
India,Odisha,Bhubaneswar,"Patia, Bhubaneswar - OSPCB",23-01-2026 08:00:00,20.34652,85.81630,PM10,93,185,132
India,Odisha,Bhubaneswar,"Patia, Bhubaneswar - OSPCB",23-01-2026 08:00:00,20.34652,85.81630,NH3,7,9,8
India,Odisha,Bhubaneswar,"Patia, Bhubaneswar - OSPCB",23-01-2026 08:00:00,20.34652,85.81630,CO,106,120,112
India,Odisha,Bileipada,"Tata Township, Bileipada - OSPCB",23-01-2026 08:00:00,22.06156703,85.47409613,PM10,NA,NA,NA
India,Odisha,Bileipada,"Tata Township, Bileipada - OSPCB",23-01-2026 08:00:00,22.06156703,85.47409613,OZONE,NA,NA,NA
India,Odisha,Byasanagar,"Ferro Chrome Colony, Byasanagar - OSPCB",23-01-2026 08:00:00,20.94185,86.11510,NO2,17,41,24
India,Odisha,Byasanagar,"Ferro Chrome Colony, Byasanagar - OSPCB",23-01-2026 08:00:00,20.94185,86.11510,NH3,2,3,2
India,Maharashtra,Pune,"Katraj Dairy, Pune - MPCB",23-01-2026 08:00:00,18.454450,73.854155,NH3,2,7,4
India,Maharashtra,Pune,"Katraj Dairy, Pune - MPCB",23-01-2026 08:00:00,18.454450,73.854155,SO2,1,4,4
India,Maharashtra,Pune,"Panchawati_Pashan, Pune - IITM",23-01-2026 08:00:00,18.536457,73.805454,OZONE,1,31,3
India,Maharashtra,Pune,"Revenue Colony-Shivajinagar, Pune - IITM",23-01-2026 08:00:00,18.530085,73.849598,OZONE,2,29,15
India,Maharashtra,Pune,"Savitribai Phule Pune University, Pune - MPCB",23-01-2026 08:00:00,18.547056,73.826908,NH3,1,6,1
India,Maharashtra,Pune,"Transport Nagar-Nigdi, Pune - IITM",23-01-2026 08:00:00,18.664282,73.763966,PM2.5,72,173,111
India,Maharashtra,Pune,"Transport Nagar-Nigdi, Pune - IITM",23-01-2026 08:00:00,18.664282,73.763966,PM10,121,241,157
India,Maharashtra,Sangli,"Vijay Nagar, Sangli - MPCB",23-01-2026 08:00:00, 16.5038,74.3623,NO2,20,114,43
India,Odisha,Suakati,"OMC Colony, Suakati - OSPCB",23-01-2026 08:00:00,21.606865,85.510538,PM10,104,189,134
India,Odisha,Suakati,"OMC Colony, Suakati - OSPCB",23-01-2026 08:00:00,21.606865,85.510538,NH3,6,6,6
India,Odisha,Talcher,"Talcher Coalfields,Talcher - OSPCB",23-01-2026 08:00:00,20.9360711,85.1707021,PM10,57,237,148
India,Puducherry,Puducherry,"Jawahar Nagar, Puducherry - PPCC",23-01-2026 08:00:00,11.9309,79.8027,PM2.5,31,90,58
India,Puducherry,Puducherry,"Jawahar Nagar, Puducherry - PPCC",23-01-2026 08:00:00,11.9309,79.8027,NH3,2,4,3
India,Punjab,Amritsar,"Golden Temple, Amritsar - PPCB",23-01-2026 08:00:00,31.620000,74.876512,NH3,5,13,8
India,Punjab,Amritsar,"Golden Temple, Amritsar - PPCB",23-01-2026 08:00:00,31.620000,74.876512,SO2,14,31,21
India,Punjab,Bathinda,"Hardev Nagar, Bathinda - PPCB",23-01-2026 08:00:00,30.233011,74.907758,SO2,3,8,5
India,Maharashtra,Navi Mumbai,"Mahape, Navi Mumbai - MPCB",23-01-2026 08:00:00,19.1135051,73.008978,CO,18,20,18
India,Maharashtra,Navi Mumbai,"Sector-2E Kalamboli, Navi Mumbai - MPCB",23-01-2026 08:00:00,19.02579,73.10297,OZONE,NA,NA,NA
India,Maharashtra,Navi Mumbai,"Tondare-Taloja, Navi Mumbai - MPCB",23-01-2026 08:00:00,19.0630,73.1209,NO2,20,62,36
India,Maharashtra,Navi Mumbai,"Tondare-Taloja, Navi Mumbai - MPCB",23-01-2026 08:00:00,19.0630,73.1209,OZONE,10,53,11
India,Maharashtra,Parbhani,"Masoom Colony, Parbhani - MPCB",23-01-2026 08:00:00,19.265594,76.761463,NO2,52,78,59
India,Maharashtra,Parbhani,"Masoom Colony, Parbhani - MPCB",23-01-2026 08:00:00,19.265594,76.761463,NH3,3,5,4
India,Maharashtra,Parbhani,"Masoom Colony, Parbhani - MPCB",23-01-2026 08:00:00,19.265594,76.761463,CO,8,16,12
India,Odisha,Cuttack,"CDA Area, Cuttack - OSPCB",23-01-2026 08:00:00,20.48891     ,85.84768     ,NO2,6,59,35
India,Odisha,Keonjhar,"Jagamohanpur, Keonjhar - OSPCB",23-01-2026 08:00:00,21.643900,85.599355,PM10,NA,NA,NA
India,Odisha,Rairangpur,"Divisional Forest Office, Rairangpur - OSPCB",23-01-2026 08:00:00,22.265816,86.174829,SO2,12,52,30
India,Odisha,Rourkela,"Fertilizer Township, Rourkela - OSPCB",23-01-2026 08:00:00,22.18972222,84.86277778,NO2,11,11,11
India,Odisha,Rourkela,"Raghunathpali, Rourkela - OSPCB",23-01-2026 08:00:00,22.220833,84.809444,NH3,1,2,1
India,Maharashtra,Solapur,"Dnyaneshwar Nagar, Solapur - MPCB",23-01-2026 08:00:00,17.6336264,75.9132495,NH3,6,32,13
India,Maharashtra,Solapur,"Ratandeep Housing Society, Solapur - MPCB",23-01-2026 08:00:00,17.65439,75.90649,PM2.5,73,210,105
India,Maharashtra,Thane,"Kasarvadavali, Thane - MPCB",23-01-2026 08:00:00,19.26777,72.97182,PM2.5,55,290,124
India,Maharashtra,Thane,"Kasarvadavali, Thane - MPCB",23-01-2026 08:00:00,19.26777,72.97182,SO2,2,42,10
India,Maharashtra,Thane,"Kasarvadavali, Thane - MPCB",23-01-2026 08:00:00,19.26777,72.97182,CO,12,72,43
India,Maharashtra,Thane,"Upvan Fort, Thane - MPCB",23-01-2026 08:00:00,19.222279,72.957979,CO,2,92,7
India,Maharashtra,Pimpri-Chinchwad,"Park Street Wakad, Pimpri Chinchwad - MPCB",23-01-2026 08:00:00,18.59051,73.77946,NO2,46,97,68
India,Maharashtra,Pimpri-Chinchwad,"Park Street Wakad, Pimpri Chinchwad - MPCB",23-01-2026 08:00:00,18.59051,73.77946,NH3,4,7,6
India,Maharashtra,Pimpri-Chinchwad,"Thergaon, Pimpri Chinchwad - MPCB",23-01-2026 08:00:00,18.616318,73.765797,CO,24,103,52
India,Maharashtra,Pune,"Dhankawadi, Pune - IITM",23-01-2026 08:00:00,18.459883,73.852193,NO2,14,22,16
India,Maharashtra,Pune,"Hadapsar, Pune - IITM",23-01-2026 08:00:00,18.501793,73.927532,OZONE,2,158,9
India,Maharashtra,Ulhasnagar,"Sidhi Vinayak Nagar, Ulhasnagar - MPCB",23-01-2026 08:00:00,19.235581,73.159121,NO2,14,36,26
India,Maharashtra,Ulhasnagar,"Sidhi Vinayak Nagar, Ulhasnagar - MPCB",23-01-2026 08:00:00,19.235581,73.159121,OZONE,12,84,14
India,Maharashtra,Virar,"Bolinj, Virar - MPCB",23-01-2026 08:00:00,19.4458210,72.7988231,PM10,73,214,108
India,Maharashtra,Virar,"Bolinj, Virar - MPCB",23-01-2026 08:00:00,19.4458210,72.7988231,NO2,26,98,51
India,Maharashtra,Virar,"Bolinj, Virar - MPCB",23-01-2026 08:00:00,19.4458210,72.7988231,CO,28,113,68
India,Rajasthan,Jalore,"Mudtra Sili, Jalore - RSPCB",23-01-2026 08:00:00,25.344694,72.626208,SO2,3,16,10
India,Rajasthan,Jalore,"Mudtra Sili, Jalore - RSPCB",23-01-2026 08:00:00,25.344694,72.626208,OZONE,26,117,62
India,Rajasthan,Jhalawar,"Rajlaxmi Nagar, Jhalawar - RSPCB",23-01-2026 08:00:00,24.588397,76.172782,PM2.5,40,270,111
India,Rajasthan,Jhalawar,"Rajlaxmi Nagar, Jhalawar - RSPCB",23-01-2026 08:00:00,24.588397,76.172782,SO2,5,14,12
India,Rajasthan,Jhunjhunu,"Indra Nagar, Jhunjhunu - RSPCB",23-01-2026 08:00:00,28.108988,75.386577,SO2,4,16,8
India,Rajasthan,Jhunjhunu,"Indra Nagar, Jhunjhunu - RSPCB",23-01-2026 08:00:00,28.108988,75.386577,OZONE,38,119,58
India,Rajasthan,Jodhpur,"Collectorate, Jodhpur - RSPCB",23-01-2026 08:00:00,26.268249,73.0193853,SO2,1,21,7
India,Rajasthan,Jodhpur,"Digari Kalan, Jodhpur - RSPCB",23-01-2026 08:00:00,26.295810,73.082283,PM2.5,8,217,92
India,Rajasthan,Jodhpur,"Digari Kalan, Jodhpur - RSPCB",23-01-2026 08:00:00,26.295810,73.082283,PM10,20,107,65
India,Rajasthan,Jodhpur,"Digari Kalan, Jodhpur - RSPCB",23-01-2026 08:00:00,26.295810,73.082283,CO,11,44,18
India,Punjab,Khanna,"Kalal Majra, Khanna - PPCB",23-01-2026 08:00:00,30.736056 ,76.209694,PM10,87,152,118
India,Punjab,Patiala,"Model Town, Patiala - PPCB",23-01-2026 08:00:00,30.349388,76.366642,PM10,93,323,141
India,Punjab,Patiala,"Model Town, Patiala - PPCB",23-01-2026 08:00:00,30.349388,76.366642,NO2,15,20,18
India,Punjab,Patiala,"Model Town, Patiala - PPCB",23-01-2026 08:00:00,30.349388,76.366642,SO2,6,33,18
India,Punjab,Rupnagar,"Ratanpura, Rupnagar - Ambuja Cements",23-01-2026 08:00:00,31.0325454,76.5623046,PM10,6,58,32
India,Rajasthan,Ajmer,"Civil Lines,  Ajmer - RSPCB",23-01-2026 08:00:00,26.470859,74.646594,NH3,4,4,4
India,Rajasthan,Ajmer,"Civil Lines,  Ajmer - RSPCB",23-01-2026 08:00:00,26.470859,74.646594,SO2,3,16,7
India,Rajasthan,Alwar,"Moti Doongri, Alwar - RSPCB",23-01-2026 08:00:00,27.554793,76.611536,PM2.5,81,181,104
India,Rajasthan,Alwar,"Moti Doongri, Alwar - RSPCB",23-01-2026 08:00:00,27.554793,76.611536,PM10,113,168,133
India,Rajasthan,Alwar,"Moti Doongri, Alwar - RSPCB",23-01-2026 08:00:00,27.554793,76.611536,SO2,8,44,26
India,Rajasthan,Barmer,"Railway Colony, Barmer - RSPCB",23-01-2026 08:00:00,25.747299,71.393989,NH3,4,14,7
India,Rajasthan,Barmer,"Railway Colony, Barmer - RSPCB",23-01-2026 08:00:00,25.747299,71.393989,SO2,2,28,10
India,Rajasthan,Bharatpur,"Krishna Nagar, Bharatpur - RSPCB",23-01-2026 08:00:00,27.215415,77.50873,NH3,12,22,15
India,Rajasthan,Bharatpur,"Krishna Nagar, Bharatpur - RSPCB",23-01-2026 08:00:00,27.215415,77.50873,CO,16,96,39
India,Rajasthan,Bhilwara,"Pratap Nagar, Bhilwara - RSPCB",23-01-2026 08:00:00,25.339605,74.618883,PM2.5,78,280,146
India,Rajasthan,Bhilwara,"Pratap Nagar, Bhilwara - RSPCB",23-01-2026 08:00:00,25.339605,74.618883,PM10,76,169,113
India,Rajasthan,Bhiwadi,"RIICO Ind. Area III, Bhiwadi - RSPCB",23-01-2026 08:00:00,28.194909,76.862296,CO,12,104,55
India,Rajasthan,Bhiwadi,"Vasundhara Nagar_UIT, Bhiwadi - RSPCB",23-01-2026 08:00:00,28.207266,76.829265,PM10,142,480,266
India,Rajasthan,Bhiwadi,"Vasundhara Nagar_UIT, Bhiwadi - RSPCB",23-01-2026 08:00:00,28.207266,76.829265,NH3,7,10,8
India,Rajasthan,Bhiwadi,"Vasundhara Nagar_UIT, Bhiwadi - RSPCB",23-01-2026 08:00:00,28.207266,76.829265,CO,29,70,32
India,Rajasthan,Bhiwadi,"Vasundhara Nagar_UIT, Bhiwadi - RSPCB",23-01-2026 08:00:00,28.207266,76.829265,OZONE,5,97,72
India,Rajasthan,Bikaner,"MM Ground, Bikaner - RSPCB",23-01-2026 08:00:00,28.018792,73.292658,PM2.5,13,228,106
India,Rajasthan,Bikaner,"MM Ground, Bikaner - RSPCB",23-01-2026 08:00:00,28.018792,73.292658,CO,8,134,14
India,Rajasthan,Chittorgarh,"Shastri Nagar, Chittorgarh - RSPCB",23-01-2026 08:00:00,24.892047,74.623527,SO2,5,26,11
India,Rajasthan,Chittorgarh,"Shastri Nagar, Chittorgarh - RSPCB",23-01-2026 08:00:00,24.892047,74.623527,OZONE,11,83,32
India,Rajasthan,Churu,"Subash Chowk, Churu - RSPCB",23-01-2026 08:00:00,28.296139,74.961696,PM10,106,232,175
India,Rajasthan,Churu,"Subash Chowk, Churu - RSPCB",23-01-2026 08:00:00,28.296139,74.961696,NO2,15,37,21
India,Rajasthan,Churu,"Subash Chowk, Churu - RSPCB",23-01-2026 08:00:00,28.296139,74.961696,NH3,8,27,13
India,Rajasthan,Dausa,"Khatikan Mohalla, Dausa - RSPCB",23-01-2026 08:00:00,26.895552,76.334753,PM2.5,35,123,59
India,Rajasthan,Hanumangarh,"Housing Board, Hanumangarh - RSPCB",23-01-2026 08:00:00,29.610750,74.283608,OZONE,21,60,37
India,Rajasthan,Jaipur,"Adarsh Nagar, Jaipur - RSPCB",23-01-2026 08:00:00,26.902909,75.836858,CO,28,57,33
India,Rajasthan,Jaipur,"Shastri Nagar, Jaipur - RSPCB",23-01-2026 08:00:00,26.9502929,75.730943,NH3,4,19,12
India,Rajasthan,Jaisalmer,"Sadar Bazar, Jaisalmer - RSPCB",23-01-2026 08:00:00,26.912329,70.909168,PM2.5,30,177,78
India,Rajasthan,Jaipur,"RIICO Sitapura, Jaipur - RSPCB",23-01-2026 08:00:00,26.786682,75.827928,NH3,3,6,5
India,Rajasthan,Jaipur,"Shastri Nagar, Jaipur - RSPCB",23-01-2026 08:00:00,26.9502929,75.730943,PM10,75,126,104
India,Rajasthan,Jaipur,"Police Commissionerate, Jaipur - RSPCB",23-01-2026 08:00:00,26.9164092,75.7994901,PM2.5,46,150,81
India,Rajasthan,Jaipur,"Police Commissionerate, Jaipur - RSPCB",23-01-2026 08:00:00,26.9164092,75.7994901,NO2,130,158,147
India,Rajasthan,Nagaur,"Karni Colony, Nagaur - RSPCB",23-01-2026 08:00:00,27.213494,73.734444,PM10,28,239,145
India,Rajasthan,Nagaur,"Karni Colony, Nagaur - RSPCB",23-01-2026 08:00:00,27.213494,73.734444,CO,13,72,19
India,Rajasthan,Pali,"Indira Colony Vistar, Pali - RSPCB",23-01-2026 08:00:00,25.771061, 73.340227,CO,9,72,30
India,Rajasthan,Pratapgarh,"Pragati Nagar, Pratapgarh - RSPCB",23-01-2026 08:00:00,24.041198,74.780702,PM2.5,70,270,121
India,Rajasthan,Pratapgarh,"Pragati Nagar, Pratapgarh - RSPCB",23-01-2026 08:00:00,24.041198,74.780702,NH3,5,9,6
India,Rajasthan,Pratapgarh,"Pragati Nagar, Pratapgarh - RSPCB",23-01-2026 08:00:00,24.041198,74.780702,SO2,2,10,6
India,Rajasthan,Pratapgarh,"Pragati Nagar, Pratapgarh - RSPCB",23-01-2026 08:00:00,24.041198,74.780702,CO,16,91,20
India,Rajasthan,Pratapgarh,"Pragati Nagar, Pratapgarh - RSPCB",23-01-2026 08:00:00,24.041198,74.780702,OZONE,15,114,73
India,Rajasthan,Rajsamand,"Dhoinda, Rajsamand - RSPCB",23-01-2026 08:00:00,25.036360,73.883502,NO2,12,45,22
India,Rajasthan,Rajsamand,"Dhoinda, Rajsamand - RSPCB",23-01-2026 08:00:00,25.036360,73.883502,NH3,11,27,15
India,Rajasthan,Rajsamand,"Dhoinda, Rajsamand - RSPCB",23-01-2026 08:00:00,25.036360,73.883502,SO2,10,63,22
India,Rajasthan,Sawai Madhopur,"Sahu Nagar, Sawai Madhopur - RSPCB",23-01-2026 08:00:00,26.031443,76.359327,PM2.5,32,312,98
India,Rajasthan,Sawai Madhopur,"Sahu Nagar, Sawai Madhopur - RSPCB",23-01-2026 08:00:00,26.031443,76.359327,NH3,1,6,4
India,Rajasthan,Sikar,"Radhakishan Pura, Sikar - RSPCB",23-01-2026 08:00:00,27.608912,75.153302,NO2,14,32,21
India,Rajasthan,Sikar,"Radhakishan Pura, Sikar - RSPCB",23-01-2026 08:00:00,27.608912,75.153302,SO2,4,15,10
India,TamilNadu,Perundurai,"SIPCOT Industrial Park, Perundurai - TNPCB",23-01-2026 08:00:00,11.258242,77.552761,SO2,12,14,13
India,TamilNadu,Pudukottai,"SIPCOT Nathampannai, Pudukottai - TNPCB",23-01-2026 08:00:00,10.423417,78.784889,NO2,4,16,7
India,TamilNadu,Pudukottai,"SIPCOT Nathampannai, Pudukottai - TNPCB",23-01-2026 08:00:00,10.423417,78.784889,NH3,NA,NA,NA
India,TamilNadu,Ramanathapuram,"Chalai Bazaar, Ramanathapuram - TNPCB",23-01-2026 08:00:00,9.36399,78.831977,PM10,31,70,49
India,TamilNadu,Thanjavur,"Parisutham Nagar, Thanjavur - TNPCB",23-01-2026 08:00:00,10.7654824,79.1389968,SO2,16,17,17
India,Telangana,Hyderabad,"Bollaram Industrial Area, Hyderabad - TSPCB",23-01-2026 08:00:00,17.540891,78.358528,PM10,80,124,104
India,Telangana,Hyderabad,"Bollaram Industrial Area, Hyderabad - TSPCB",23-01-2026 08:00:00,17.540891,78.358528,SO2,2,15,7
India,Telangana,Hyderabad,"Bollaram Industrial Area, Hyderabad - TSPCB",23-01-2026 08:00:00,17.540891,78.358528,CO,8,66,28
India,Telangana,Hyderabad,"Central University, Hyderabad - TSPCB",23-01-2026 08:00:00,17.460103,78.334361,PM10,67,102,81
India,Telangana,Hyderabad,"Central University, Hyderabad - TSPCB",23-01-2026 08:00:00,17.460103,78.334361,OZONE,14,16,15
India,Telangana,Hyderabad,"ECIL Kapra, Hyderabad - TSPCB",23-01-2026 08:00:00,17.470431,78.566959,PM2.5,41,42,41
India,Telangana,Hyderabad,"ECIL Kapra, Hyderabad - TSPCB",23-01-2026 08:00:00,17.470431,78.566959,CO,8,26,21
India,Telangana,Hyderabad,"ICRISAT Patancheru, Hyderabad - TSPCB",23-01-2026 08:00:00,17.518400,78.278777,PM10,50,93,65
India,Telangana,Hyderabad,"ICRISAT Patancheru, Hyderabad - TSPCB",23-01-2026 08:00:00,17.518400,78.278777,NO2,3,114,38
India,Telangana,Hyderabad,"ICRISAT Patancheru, Hyderabad - TSPCB",23-01-2026 08:00:00,17.518400,78.278777,SO2,5,10,7
India,Telangana,Hyderabad,"IDA Pashamylaram, Hyderabad - TSPCB",23-01-2026 08:00:00,17.5316895,78.218939,PM2.5,39,70,54
India,Telangana,Hyderabad,"IITH Kandi, Hyderabad - TSPCB",23-01-2026 08:00:00,17.585705,78.126199,NO2,11,17,12
India,Telangana,Hyderabad,"IITH Kandi, Hyderabad - TSPCB",23-01-2026 08:00:00,17.585705,78.126199,NH3,3,5,3
India,Telangana,Hyderabad,"IITH Kandi, Hyderabad - TSPCB",23-01-2026 08:00:00,17.585705,78.126199,SO2,14,16,15
India,Telangana,Hyderabad,"Kokapet, Hyderabad - TSPCB",23-01-2026 08:00:00,17.393559,78.339194,PM2.5,63,76,69
India,Telangana,Hyderabad,"Kokapet, Hyderabad - TSPCB",23-01-2026 08:00:00,17.393559,78.339194,PM10,87,101,94
India,Telangana,Hyderabad,"Kokapet, Hyderabad - TSPCB",23-01-2026 08:00:00,17.393559,78.339194,NH3,2,3,2
India,TamilNadu,Chennai,"Kodungaiyur, Chennai - TNPCB",23-01-2026 08:00:00,13.1278,80.2642,PM10,84,228,133
India,TamilNadu,Chennai,"Manali Village, Chennai - TNPCB",23-01-2026 08:00:00,13.1662,80.2584,NO2,4,9,6
India,TamilNadu,Chennai,"Manali Village, Chennai - TNPCB",23-01-2026 08:00:00,13.1662,80.2584,SO2,11,16,13
India,TamilNadu,Chennai,"Perungudi, Chennai - TNPCB",23-01-2026 08:00:00,12.9533,80.2357,NH3,1,2,1
India,TamilNadu,Chennai,"Perungudi, Chennai - TNPCB",23-01-2026 08:00:00,12.9533,80.2357,OZONE,2,19,3
India,TamilNadu,Chennai,"Royapuram, Chennai - TNPCB",23-01-2026 08:00:00,13.1036,80.2909,SO2,5,7,6
India,TamilNadu,Chennai,"Royapuram, Chennai - TNPCB",23-01-2026 08:00:00,13.1036,80.2909,CO,42,64,54
India,TamilNadu,Chennai,"Velachery Res. Area, Chennai - CPCB",23-01-2026 08:00:00,13.0052189,80.2398125,PM2.5,56,105,74
India,TamilNadu,Chennai,"Velachery Res. Area, Chennai - CPCB",23-01-2026 08:00:00,13.0052189,80.2398125,PM10,52,94,68
India,Rajasthan,Sirohi,"Vedhaynath Colony, Sirohi - RSPCB",23-01-2026 08:00:00,24.885261,72.857549,SO2,4,24,10
India,Rajasthan,Sirohi,"Vedhaynath Colony, Sirohi - RSPCB",23-01-2026 08:00:00,24.885261,72.857549,OZONE,30,107,54
India,Rajasthan,Tonk,"Shastri Nagar, Tonk - RSPCB",23-01-2026 08:00:00,26.159933,75.780517,PM10,71,171,124
India,Rajasthan,Udaipur,"Ashok Nagar, Udaipur - RSPCB",23-01-2026 08:00:00,24.5886166,73.6321397,PM2.5,96,284,178
India,Rajasthan,Udaipur,"Ashok Nagar, Udaipur - RSPCB",23-01-2026 08:00:00,24.5886166,73.6321397,NO2,3,53,25
India,Sikkim,Gangtok,"Zero Point GICI, Gangtok - SSPCB",23-01-2026 08:00:00,27.338530,88.614099,PM2.5,NA,NA,NA
India,TamilNadu,Chennai,"Arumbakkam, Chennai - TNPCB",23-01-2026 08:00:00,13.0664,80.2112 ,PM10,59,148,105
India,Telangana,Hyderabad,"Nacharam_TSIIC IALA, Hyderabad - TSPCB",23-01-2026 08:00:00,17.429398,78.569354,NO2,9,16,11
India,Telangana,Hyderabad,"Nacharam_TSIIC IALA, Hyderabad - TSPCB",23-01-2026 08:00:00,17.429398,78.569354,CO,18,46,34
India,Telangana,Hyderabad,"New Malakpet, Hyderabad - TSPCB",23-01-2026 08:00:00,17.37206,78.50864,SO2,13,22,15
India,Telangana,Hyderabad,"Sanathnagar, Hyderabad - TSPCB",23-01-2026 08:00:00,17.4559458,78.4332152,NO2,19,167,48
India,Telangana,Hyderabad,"Sanathnagar, Hyderabad - TSPCB",23-01-2026 08:00:00,17.4559458,78.4332152,SO2,3,60,15
India,Telangana,Hyderabad,"Somajiguda, Hyderabad - TSPCB",23-01-2026 08:00:00,17.417094,78.457437,CO,12,30,18
India,Telangana,Hyderabad,"Zoo Park, Hyderabad - TSPCB",23-01-2026 08:00:00,17.349694,78.451437,CO,16,94,52
India,TamilNadu,Coimbatore,"SIDCO Kurichi, Coimbatore - TNPCB",23-01-2026 08:00:00,10.942451,76.978996,CO,38,44,41
India,TamilNadu,Cuddalore,"Kudikadu, Cuddalore - TNPCB",23-01-2026 08:00:00,11.6829898,79.7532099,OZONE,12,13,12
India,TamilNadu,Cuddalore,"Semmandalam, Cuddalore - TNPCB",23-01-2026 08:00:00,11.7637683,79.7499835,NO2,5,26,11
India,TamilNadu,Madurai,"Uchapatti, Madurai - TNPCB",23-01-2026 08:00:00,9.865935,78.022669,CO,24,33,32
India,TamilNadu,Nagapattinam,"Velippalayam, Nagapattinam - TNPCB",23-01-2026 08:00:00,10.798548,79.838212,PM2.5,12,223,51
India,Rajasthan,Jodhpur,"Mandor, Jodhpur - RSPCB",23-01-2026 08:00:00,26.358805,73.047444,NO2,7,44,21
India,Rajasthan,Jodhpur,"Mandor, Jodhpur - RSPCB",23-01-2026 08:00:00,26.358805,73.047444,NH3,3,7,5
India,Rajasthan,Jodhpur,"Mandor, Jodhpur - RSPCB",23-01-2026 08:00:00,26.358805,73.047444,SO2,2,15,9
India,Rajasthan,Jodhpur,"Mandor, Jodhpur - RSPCB",23-01-2026 08:00:00,26.358805,73.047444,CO,1,20,9
India,Rajasthan,Jodhpur,"Samrat Ashok Udhyan, Jodhpur - RSPCB",23-01-2026 08:00:00,26.253384,72.976571,NO2,9,92,24
India,Rajasthan,Karauli,"Satyawati Vihar, Karauli - RSPCB",23-01-2026 08:00:00,26.506177,77.025989,PM2.5,23,128,54
India,Rajasthan,Karauli,"Satyawati Vihar, Karauli - RSPCB",23-01-2026 08:00:00,26.506177,77.025989,SO2,3,7,4
India,Rajasthan,Kota,"Dhanmandi, Kota - RSPCB",23-01-2026 08:00:00,25.164090,75.858137,NH3,8,13,11
India,Rajasthan,Kota,"Nayapura, Kota - RSPCB",23-01-2026 08:00:00,25.196024,75.855668,SO2,6,64,19
India,Rajasthan,Kota,"Shrinath Puram, Kota - RSPCB",23-01-2026 08:00:00,25.14389,75.821256,NO2,10,16,13
India,Rajasthan,Kota,"Shrinath Puram, Kota - RSPCB",23-01-2026 08:00:00,25.14389,75.821256,NH3,4,8,6
India,Uttar_Pradesh,Ghaziabad,"Loni, Ghaziabad - UPPCB",23-01-2026 08:00:00,28.757294,77.278792,OZONE,2,145,35
India,Uttar_Pradesh,Ghaziabad,"Sanjay Nagar, Ghaziabad - UPPCB",23-01-2026 08:00:00,28.685382,77.453839,PM10,142,404,238
India,Uttar_Pradesh,Ghaziabad,"Sanjay Nagar, Ghaziabad - UPPCB",23-01-2026 08:00:00,28.685382,77.453839,NO2,34,147,83
India,Uttar_Pradesh,Ghaziabad,"Sanjay Nagar, Ghaziabad - UPPCB",23-01-2026 08:00:00,28.685382,77.453839,NH3,9,36,13
India,Uttar_Pradesh,Ghaziabad,"Sanjay Nagar, Ghaziabad - UPPCB",23-01-2026 08:00:00,28.685382,77.453839,OZONE,7,84,32
India,Uttar_Pradesh,Gorakhpur,"Madan Mohan Malaviya University of Technology, Gorakhpur - UPPCB",23-01-2026 08:00:00,26.730136,83.433859,PM10,30,116,78
India,Uttar_Pradesh,Gorakhpur,"Madan Mohan Malaviya University of Technology, Gorakhpur - UPPCB",23-01-2026 08:00:00,26.730136,83.433859,OZONE,2,13,2
India,Uttar_Pradesh,Greater Noida,"Knowledge Park - III, Greater Noida - UPPCB",23-01-2026 08:00:00,28.47272,77.482000,PM10,127,404,201
India,Uttar_Pradesh,Greater Noida,"Knowledge Park - III, Greater Noida - UPPCB",23-01-2026 08:00:00,28.47272,77.482000,NO2,15,100,38
India,Uttar_Pradesh,Greater Noida,"Knowledge Park - V, Greater Noida - UPPCB",23-01-2026 08:00:00,28.557054,77.453663,PM10,136,428,218
India,Uttar_Pradesh,Greater Noida,"Knowledge Park - V, Greater Noida - UPPCB",23-01-2026 08:00:00,28.557054,77.453663,NH3,15,27,18
India,Uttar_Pradesh,Hapur,"Anand Vihar, Hapur - UPPCB",23-01-2026 08:00:00,28.725645,77.749675,SO2,21,103,39
India,Uttar_Pradesh,Jhansi,"Shivaji Nagar, Jhansi - UPPCB",23-01-2026 08:00:00,25.4547,78.6039,PM10,42,101,64
India,Uttar_Pradesh,Jhansi,"Shivaji Nagar, Jhansi - UPPCB",23-01-2026 08:00:00,25.4547,78.6039,NO2,6,6,6
India,Uttar_Pradesh,Kanpur,"FTI Kidwai Nagar, Kanpur - UPPCB",23-01-2026 08:00:00,26.428282,80.327067,PM2.5,39,254,99
India,Uttar_Pradesh,Kanpur,"FTI Kidwai Nagar, Kanpur - UPPCB",23-01-2026 08:00:00,26.428282,80.327067,NO2,26,27,27
India,Uttar_Pradesh,Kanpur,"FTI Kidwai Nagar, Kanpur - UPPCB",23-01-2026 08:00:00,26.428282,80.327067,CO,36,54,46
India,Uttar_Pradesh,Kanpur,"NSI Kalyanpur, Kanpur - UPPCB",23-01-2026 08:00:00,26.509954,80.249612,OZONE,14,17,16
India,Uttar_Pradesh,Kanpur,"Nehru Nagar, Kanpur - UPPCB",23-01-2026 08:00:00,26.4703136,80.3229863,NO2,49,56,53
India,Uttar_Pradesh,Kanpur,"Nehru Nagar, Kanpur - UPPCB",23-01-2026 08:00:00,26.4703136,80.3229863,SO2,1,19,10
India,Uttar_Pradesh,Khurja,"Kalindi Kunj, Khurja - UPPCB",23-01-2026 08:00:00,28.2348927,77.8683002,PM2.5,31,293,92
India,Uttar_Pradesh,Khurja,"Kalindi Kunj, Khurja - UPPCB",23-01-2026 08:00:00,28.2348927,77.8683002,SO2,15,24,17
India,Uttar_Pradesh,Baghpat,"Sardar Patel Inter College, Baghpat - UPPCB",23-01-2026 08:00:00,28.964949,77.278761,CO,10,30,17
India,Uttar_Pradesh,Baghpat,"Sardar Patel Inter College, Baghpat - UPPCB",23-01-2026 08:00:00,28.964949,77.278761,OZONE,7,103,50
India,Uttar_Pradesh,Bareilly,"Civil Lines, Bareilly - UPPCB",23-01-2026 08:00:00,28.359581,79.414455,PM10,48,88,68
India,Uttar_Pradesh,Bareilly,"Civil Lines, Bareilly - UPPCB",23-01-2026 08:00:00,28.359581,79.414455,NH3,1,1,1
India,Uttar_Pradesh,Bareilly,"Civil Lines, Bareilly - UPPCB",23-01-2026 08:00:00,28.359581,79.414455,CO,48,110,72
India,Uttar_Pradesh,Bareilly,"Rajendra Nagar, Bareilly - UPPCB",23-01-2026 08:00:00,28.38910936,79.42963708,NH3,1,1,1
India,Uttar_Pradesh,Bulandshahr,"Yamunapuram, Bulandshahr - UPPCB",23-01-2026 08:00:00,28.406963,77.849831,CO,30,107,52
India,Uttar_Pradesh,Bulandshahr,"Yamunapuram, Bulandshahr - UPPCB",23-01-2026 08:00:00,28.406963,77.849831,OZONE,5,74,31
India,Uttar_Pradesh,Firozabad,"Vibhab Nagar, Firozabad - UPPCB",23-01-2026 08:00:00,27.1594,78.3953,NO2,15,15,15
India,Uttar_Pradesh,Firozabad,"Vibhab Nagar, Firozabad - UPPCB",23-01-2026 08:00:00,27.1594,78.3953,SO2,18,22,20
India,Uttar_Pradesh,Varanasi,"Ardhali Bazar, Varanasi - UPPCB",23-01-2026 08:00:00,25.3505986,82.9083074,OZONE,10,25,14
India,Uttar_Pradesh,Varanasi,"Bhelupur, Varanasi - UPPCB",23-01-2026 08:00:00,25.301778,82.996789,CO,2,114,51
India,Uttar_Pradesh,Varanasi,"IESD Banaras Hindu University, Varanasi - UPPCB",23-01-2026 08:00:00,25.262326,82.995408,PM10,44,184,112
India,Uttar_Pradesh,Varanasi,"IESD Banaras Hindu University, Varanasi - UPPCB",23-01-2026 08:00:00,25.262326,82.995408,SO2,28,32,30
India,Uttar_Pradesh,Varanasi,"IESD Banaras Hindu University, Varanasi - UPPCB",23-01-2026 08:00:00,25.262326,82.995408,CO,8,44,28
India,Uttar_Pradesh,Varanasi,"IESD Banaras Hindu University, Varanasi - UPPCB",23-01-2026 08:00:00,25.262326,82.995408,OZONE,1,31,14
India,Uttar_Pradesh,Varanasi,"Maldahiya, Varanasi - UPPCB",23-01-2026 08:00:00,25.32393,82.99687,SO2,28,29,28
India,Uttar_Pradesh,Varanasi,"Maldahiya, Varanasi - UPPCB",23-01-2026 08:00:00,25.32393,82.99687,CO,2,118,88
India,Uttar_Pradesh,Vrindavan,"Omex Eternity, Vrindavan - UPPCB",23-01-2026 08:00:00,27.5714090,77.6557570,NH3,7,8,7
India,Uttar_Pradesh,Vrindavan,"Omex Eternity, Vrindavan - UPPCB",23-01-2026 08:00:00,27.5714090,77.6557570,OZONE,15,15,15
India,Uttar_Pradesh,Meerut,"Ganga Nagar, Meerut - UPPCB",23-01-2026 08:00:00,28.999264,77.7590354,NO2,30,70,42
India,Uttar_Pradesh,Meerut,"Jai Bhim Nagar, Meerut - UPPCB",23-01-2026 08:00:00,28.9535882,77.7622941,PM2.5,182,352,276
India,Uttar_Pradesh,Meerut,"Jai Bhim Nagar, Meerut - UPPCB",23-01-2026 08:00:00,28.9535882,77.7622941,CO,36,82,45
India,Uttar_Pradesh,Meerut,"Pallavpuram Phase 2, Meerut - UPPCB",23-01-2026 08:00:00,29.063510,77.709723,OZONE,12,152,61
India,Uttar_Pradesh,Moradabad,"Buddhi Vihar, Moradabad - UPPCB",23-01-2026 08:00:00,28.83526,78.74460,PM2.5,NA,NA,NA
India,Uttar_Pradesh,Moradabad,"Buddhi Vihar, Moradabad - UPPCB",23-01-2026 08:00:00,28.83526,78.74460,PM10,NA,NA,NA
India,Uttar_Pradesh,Moradabad,"Buddhi Vihar, Moradabad - UPPCB",23-01-2026 08:00:00,28.83526,78.74460,SO2,NA,NA,NA
India,Uttar_Pradesh,Moradabad,"Eco Herbal Park, Moradabad - UPPCB",23-01-2026 08:00:00,28.840739,78.697531,PM10,99,252,159
India,Uttar_Pradesh,Moradabad,"Employment Office, Moradabad - UPPCB",23-01-2026 08:00:00,28.88528,78.73880,PM2.5,65,303,193
India,Uttar_Pradesh,Lucknow,"Gomti Nagar, Lucknow - UPPCB",23-01-2026 08:00:00,26.868120,81.005119,OZONE,25,37,26
India,Uttar_Pradesh,Lucknow,"Kendriya Vidyalaya, Lucknow - CPCB",23-01-2026 08:00:00,26.906111,80.948222,PM10,115,281,187
India,Uttar_Pradesh,Lucknow,"Kendriya Vidyalaya, Lucknow - CPCB",23-01-2026 08:00:00,26.906111,80.948222,NO2,40,45,42
India,Uttar_Pradesh,Lucknow,"Kendriya Vidyalaya, Lucknow - CPCB",23-01-2026 08:00:00,26.906111,80.948222,NH3,12,17,15
India,Uttar_Pradesh,Lucknow,"Kukrail Picnic Spot-1, Lucknow - UPPCB",23-01-2026 08:00:00,26.90723,80.98579,PM2.5,41,254,84
India,Uttar_Pradesh,Lucknow,"Lalbagh, Lucknow - CPCB",23-01-2026 08:00:00,26.8458805,80.9365541,PM10,96,408,238
India,Uttar_Pradesh,Lucknow,"Lalbagh, Lucknow - CPCB",23-01-2026 08:00:00,26.8458805,80.9365541,NO2,29,34,32
India,Uttar_Pradesh,Lucknow,"Lalbagh, Lucknow - CPCB",23-01-2026 08:00:00,26.8458805,80.9365541,NH3,16,24,20
India,Uttar_Pradesh,Lucknow,"Lalbagh, Lucknow - CPCB",23-01-2026 08:00:00,26.8458805,80.9365541,SO2,2,30,9
India,Uttar_Pradesh,Lucknow,"Lalbagh, Lucknow - CPCB",23-01-2026 08:00:00,26.8458805,80.9365541,OZONE,6,51,14
India,Uttar_Pradesh,Agra,"Rohta, Agra - UPPCB",23-01-2026 08:00:00,27.106972,78.000111,PM2.5,46,196,81
India,Uttar_Pradesh,Agra,"Sanjay Palace, Agra - UPPCB",23-01-2026 08:00:00,27.19865833,78.00598056,PM10,88,199,133
India,Uttar_Pradesh,Agra,"Sanjay Palace, Agra - UPPCB",23-01-2026 08:00:00,27.19865833,78.00598056,CO,35,53,41
India,Uttar_Pradesh,Agra,"Sanjay Palace, Agra - UPPCB",23-01-2026 08:00:00,27.19865833,78.00598056,OZONE,17,115,55
India,Uttar_Pradesh,Agra,"Shahjahan Garden, Agra - UPPCB",23-01-2026 08:00:00,27.169338,78.03582,PM2.5,6,191,58
India,Uttar_Pradesh,Agra,"Shastripuram, Agra - UPPCB",23-01-2026 08:00:00,27.19862,77.92066,NH3,3,3,3
India,Uttar_Pradesh,Agra,"Shastripuram, Agra - UPPCB",23-01-2026 08:00:00,27.19862,77.92066,CO,14,40,14
India,Uttar_Pradesh,Baghpat,"Sardar Patel Inter College, Baghpat - UPPCB",23-01-2026 08:00:00,28.964949,77.278761,PM2.5,108,343,249
India,Uttar_Pradesh,Baghpat,"Sardar Patel Inter College, Baghpat - UPPCB",23-01-2026 08:00:00,28.964949,77.278761,NO2,8,32,18
India,Uttar_Pradesh,Noida,"Sector - 62, Noida - IMD",23-01-2026 08:00:00,28.6245479,77.3577104,OZONE,19,132,69
India,Uttar_Pradesh,Noida,"Sector-1, Noida - UPPCB",23-01-2026 08:00:00,28.5898,77.3101,CO,38,114,54
India,Uttar_Pradesh,Noida,"Sector-116, Noida - UPPCB",23-01-2026 08:00:00,28.569230,77.393848,PM10,135,435,209
India,Uttar_Pradesh,Prayagraj,"Jhunsi, Prayagraj - UPPCB",23-01-2026 08:00:00,25.425602,81.917152,OZONE,16,50,18
India,Uttar_Pradesh,Prayagraj,"Nagar Nigam, Prayagraj - UPPCB",23-01-2026 08:00:00,25.44919916 ,81.82735986 ,PM2.5,34,236,90
India,Uttar_Pradesh,Prayagraj,"Nagar Nigam, Prayagraj - UPPCB",23-01-2026 08:00:00,25.44919916 ,81.82735986 ,NO2,5,5,5
India,Uttar_Pradesh,Varanasi,"Ardhali Bazar, Varanasi - UPPCB",23-01-2026 08:00:00,25.3505986,82.9083074,PM2.5,37,80,62
India,Uttar_Pradesh,Moradabad,"Jigar Colony, Moradabad - UPPCB",23-01-2026 08:00:00,28.856664,78.772638,NO2,25,25,25
India,Uttar_Pradesh,Moradabad,"Jigar Colony, Moradabad - UPPCB",23-01-2026 08:00:00,28.856664,78.772638,CO,40,40,40
India,Uttar_Pradesh,Muzaffarnagar,"New Mandi, Muzaffarnagar - UPPCB",23-01-2026 08:00:00,29.4723508,77.7194031,NO2,22,103,48
India,Uttar_Pradesh,Muzaffarnagar,"New Mandi, Muzaffarnagar - UPPCB",23-01-2026 08:00:00,29.4723508,77.7194031,SO2,13,36,22
India,Uttar_Pradesh,Noida,"Sector - 125, Noida - UPPCB",23-01-2026 08:00:00,28.5447608,77.3231257,PM2.5,240,500,315
India,Uttar_Pradesh,Noida,"Sector - 125, Noida - UPPCB",23-01-2026 08:00:00,28.5447608,77.3231257,PM10,131,500,197
India,Uttar_Pradesh,Noida,"Sector - 125, Noida - UPPCB",23-01-2026 08:00:00,28.5447608,77.3231257,NO2,20,230,67
India,Uttar_Pradesh,Noida,"Sector - 125, Noida - UPPCB",23-01-2026 08:00:00,28.5447608,77.3231257,CO,16,143,30
India,Uttarakhand,Kashipur,"Govt. Girls Inter College, Kashipur - UKPCB",23-01-2026 08:00:00,29.2124114,78.9611753,OZONE,10,11,11
India,Uttarakhand,Rishikesh,"Shivaji Nagar, Rishikesh - UKPCB",23-01-2026 08:00:00,30.075911,78.2859547,NH3,6,14,8
India,West_Bengal,Asansol,"Asansol Court Area, Asansol - WBPCB",23-01-2026 08:00:00,23.685297,86.945968,NH3,3,9,5
India,West_Bengal,Asansol,"Evelyn Lodge, Asansol - WBPCB",23-01-2026 08:00:00,23.6979360,86.9443950,CO,12,101,65
India,West_Bengal,Asansol,"Mahabir Colliery, Asansol - WBPCB",23-01-2026 08:00:00,23.6181830,87.1057180,NO2,6,22,14
India,West_Bengal,Asansol,"Mahabir Colliery, Asansol - WBPCB",23-01-2026 08:00:00,23.6181830,87.1057180,NH3,1,2,1
India,West_Bengal,Asansol,"Mahabir Colliery, Asansol - WBPCB",23-01-2026 08:00:00,23.6181830,87.1057180,CO,2,125,103
India,West_Bengal,Barrackpore,"SVSPA Campus, Barrackpore - WBPCB",23-01-2026 08:00:00,22.7605581,88.3617589,PM2.5,55,244,141
India,West_Bengal,Barrackpore,"SVSPA Campus, Barrackpore - WBPCB",23-01-2026 08:00:00,22.7605581,88.3617589,NH3,7,10,8
India,West_Bengal,Durgapur,"Mahishkapur Road_B-Zone, Durgapur - WBPCB",23-01-2026 08:00:00,23.567923,87.306843,CO,8,75,45
India,West_Bengal,Durgapur,"PCBL Residential Complex, Durgapur - WBPCB",23-01-2026 08:00:00,23.5087640,87.3544400,OZONE,5,6,6
India,West_Bengal,Durgapur,"Womens College_City Center, Durgapur - WBPCB",23-01-2026 08:00:00,23.549395,87.300496,NO2,26,43,32
India,West_Bengal,Haldia,"Priyambada Housing Estate, Haldia - WBPCB",23-01-2026 08:00:00,22.06047,88.109737,NO2,12,48,26
India,West_Bengal,Haldia,"Priyambada Housing Estate, Haldia - WBPCB",23-01-2026 08:00:00,22.06047,88.109737,NH3,4,6,6
India,West_Bengal,Haldia,"Priyambada Housing Estate, Haldia - WBPCB",23-01-2026 08:00:00,22.06047,88.109737,SO2,13,21,15
India,West_Bengal,Howrah,"Belur Math, Howrah - WBPCB",23-01-2026 08:00:00,22.629801,88.352017,NH3,11,19,15
India,West_Bengal,Howrah,"Botanical Garden, Howrah - WBPCB",23-01-2026 08:00:00,22.554954,88.292568,PM2.5,43,247,135
India,West_Bengal,Howrah,"Botanical Garden, Howrah - WBPCB",23-01-2026 08:00:00,22.554954,88.292568,NO2,7,22,13
India,West_Bengal,Howrah,"Botanical Garden, Howrah - WBPCB",23-01-2026 08:00:00,22.554954,88.292568,SO2,5,12,8
India,West_Bengal,Howrah,"Botanical Garden, Howrah - WBPCB",23-01-2026 08:00:00,22.554954,88.292568,CO,4,112,107
India,West_Bengal,Howrah,"Dasnagar, Howrah - WBPCB",23-01-2026 08:00:00,22.6025571,88.3105664,PM2.5,45,304,147
India,West_Bengal,Howrah,"Ghusuri, Howrah - WBPCB",23-01-2026 08:00:00,22.611968,88.347422,PM2.5,89,342,232
India,West_Bengal,Howrah,"Ghusuri, Howrah - WBPCB",23-01-2026 08:00:00,22.611968,88.347422,NO2,17,38,27
India,West_Bengal,Howrah,"Padmapukur, Howrah - WBPCB",23-01-2026 08:00:00,22.5687319,88.2797276,PM10,97,392,233
India,West_Bengal,Kolkata,"Ballygunge, Kolkata - WBPCB",23-01-2026 08:00:00,22.5367507,88.3638022,NO2,32,127,75
India,West_Bengal,Kolkata,"Fort William, Kolkata - WBPCB",23-01-2026 08:00:00,22.556640,88.342674,PM10,75,150,117
India,West_Bengal,Kolkata,"Jadavpur, Kolkata - WBPCB",23-01-2026 08:00:00,22.49929,88.36917,PM2.5,85,352,209
India,West_Bengal,Kolkata,"Jadavpur, Kolkata - WBPCB",23-01-2026 08:00:00,22.49929,88.36917,NH3,6,15,10
India,West_Bengal,Kolkata,"Jadavpur, Kolkata - WBPCB",23-01-2026 08:00:00,22.49929,88.36917,OZONE,8,16,10
India,West_Bengal,Kolkata,"Rabindra Bharati University, Kolkata - WBPCB",23-01-2026 08:00:00,22.627847,88.380669,PM2.5,88,301,193
India,West_Bengal,Kolkata,"Rabindra Bharati University, Kolkata - WBPCB",23-01-2026 08:00:00,22.627847,88.380669,PM10,73,184,134
India,West_Bengal,Kolkata,"Rabindra Bharati University, Kolkata - WBPCB",23-01-2026 08:00:00,22.627847,88.380669,NH3,12,13,12
India,West_Bengal,Kolkata,"Rabindra Bharati University, Kolkata - WBPCB",23-01-2026 08:00:00,22.627847,88.380669,CO,43,102,90
India,West_Bengal,Kolkata,"Rabindra Sarobar, Kolkata - WBPCB",23-01-2026 08:00:00,22.51106,88.35142,PM2.5,46,160,94
India,West_Bengal,Kolkata,"Victoria, Kolkata - WBPCB",23-01-2026 08:00:00,22.5448082,88.3403691,PM2.5,75,266,172
India,West_Bengal,Kolkata,"Victoria, Kolkata - WBPCB",23-01-2026 08:00:00,22.5448082,88.3403691,PM10,102,189,147
India,West_Bengal,Kolkata,"Victoria, Kolkata - WBPCB",23-01-2026 08:00:00,22.5448082,88.3403691,CO,16,100,42
India,West_Bengal,Siliguri,"Ward-32 Bapupara, Siliguri - WBPCB",23-01-2026 08:00:00,26.6879226,88.4152495,PM2.5,81,228,114
India,West_Bengal,Siliguri,"Ward-32 Bapupara, Siliguri - WBPCB",23-01-2026 08:00:00,26.6879226,88.4152495,SO2,13,18,16
India,West_Bengal,Siliguri,"Ward-32 Bapupara, Siliguri - WBPCB",23-01-2026 08:00:00,26.6879226,88.4152495,CO,34,102,53
India,Bihar,Aurangabad,"Gurdeo Nagar, Aurangabad - BSPCB",23-01-2026 08:00:00,24.75746,84.366208,SO2,6,17,13
India,Bihar,Begusarai,"Lohiyanagar, Begusarai - BSPCB",23-01-2026 08:00:00,25.42742023,86.13886079,SO2,27,32,30
India,Bihar,Bhagalpur,"DM Office_Kachari Chowk, Bhagalpur - BSPCB",23-01-2026 08:00:00,25.251013,86.989001,PM2.5,47,75,62
India,Bihar,Bhagalpur,"Mayaganj, Bhagalpur - BSPCB",23-01-2026 08:00:00,25.265194,87.012947,PM10,78,115,99
India,Bihar,Bhagalpur,"Mayaganj, Bhagalpur - BSPCB",23-01-2026 08:00:00,25.265194,87.012947,NO2,6,8,7
India,Bihar,Bhagalpur,"Mayaganj, Bhagalpur - BSPCB",23-01-2026 08:00:00,25.265194,87.012947,SO2,53,63,58
India,Bihar,Bhagalpur,"Mayaganj, Bhagalpur - BSPCB",23-01-2026 08:00:00,25.265194,87.012947,OZONE,15,37,19
India,Bihar,Bihar Sharif,"D M Colony, Bihar Sharif - BSPCB",23-01-2026 08:00:00,25.204762,85.514960,OZONE,1,15,7
India,Bihar,Buxar,"Charitra Van, Buxar - BSPCB",23-01-2026 08:00:00,25.567520,83.966379,PM2.5,68,247,125
India,Bihar,Buxar,"Charitra Van, Buxar - BSPCB",23-01-2026 08:00:00,25.567520,83.966379,NO2,9,10,9
India,Bihar,Buxar,"Charitra Van, Buxar - BSPCB",23-01-2026 08:00:00,25.567520,83.966379,SO2,NA,NA,NA
India,Bihar,Buxar,"Charitra Van, Buxar - BSPCB",23-01-2026 08:00:00,25.567520,83.966379,CO,21,28,25
India,Andhra_Pradesh,Kadapa,"Yerramukkapalli, Kadapa - APPCB",23-01-2026 08:00:00,14.465052,78.824187,SO2,14,19,16
India,Andhra_Pradesh,Kadapa,"Yerramukkapalli, Kadapa - APPCB",23-01-2026 08:00:00,14.465052,78.824187,OZONE,24,26,26
India,Andhra_Pradesh,Rajamahendravaram,"Anand Kala Kshetram, Rajamahendravaram - APPCB",23-01-2026 08:00:00,16.9872867,81.7363176,PM2.5,91,198,123
India,Andhra_Pradesh,Rajamahendravaram,"Anand Kala Kshetram, Rajamahendravaram - APPCB",23-01-2026 08:00:00,16.9872867,81.7363176,SO2,4,23,11
India,Andhra_Pradesh,Tirumala,"Toll Gate, Tirumala - APPCB",23-01-2026 08:00:00,13.67,79.35,PM2.5,48,144,83
India,Andhra_Pradesh,Tirupati,"Vaikuntapuram, Tirupati - APPCB",23-01-2026 08:00:00,13.615387,79.409230,OZONE,23,25,24
India,Andhra_Pradesh,Vijayawada,"HB Colony, Vijayawada - APPCB",23-01-2026 08:00:00,16.536107,80.594233,PM10,67,99,87
India,Andhra_Pradesh,Vijayawada,"HB Colony, Vijayawada - APPCB",23-01-2026 08:00:00,16.536107,80.594233,NO2,18,25,21
India,Assam,Nalbari,"Bata Chowk, Nalbari - PCBA",23-01-2026 08:00:00,26.446912,91.439057,PM2.5,112,172,144
India,Assam,Nalbari,"Bata Chowk, Nalbari - PCBA",23-01-2026 08:00:00,26.446912,91.439057,PM10,102,122,112
India,Assam,Nalbari,"Bata Chowk, Nalbari - PCBA",23-01-2026 08:00:00,26.446912,91.439057,NH3,6,6,6
India,Assam,Silchar,"Tarapur, Silchar - PCBA",23-01-2026 08:00:00,24.82827,92.79525,PM10,26,90,49
India,Assam,Sivasagar,"Girls College, Sivasagar - PCBA",23-01-2026 08:00:00,26.987634,94.636574,PM10,32,81,52
India,Assam,Sivasagar,"Girls College, Sivasagar - PCBA",23-01-2026 08:00:00,26.987634,94.636574,NO2,31,61,41
India,Bihar,Araria,"Kharahiya Basti, Araria - BSPCB",23-01-2026 08:00:00,26.146529,87.454184,NO2,1,19,4
India,Bihar,Araria,"Kharahiya Basti, Araria - BSPCB",23-01-2026 08:00:00,26.146529,87.454184,NH3,4,5,4
India,Andhra_Pradesh,Vijayawada,"HB Colony, Vijayawada - APPCB",23-01-2026 08:00:00,16.536107,80.594233,OZONE,6,140,9
India,Andhra_Pradesh,Vijayawada,"Kanuru, Vijayawada - APPCB",23-01-2026 08:00:00,16.486692,80.699436,OZONE,31,36,31
India,Andhra_Pradesh,Vijayawada,"Rajiv Gandhi Park, Vijayawada - APPCB",23-01-2026 08:00:00,16.509717,80.612222,SO2,11,16,13
India,Andhra_Pradesh,Vijayawada,"Rajiv Nagar, Vijayawada - APPCB",23-01-2026 08:00:00,16.554731,80.649110,NO2,17,23,20
India,Andhra_Pradesh,Visakhapatnam,"GVM Corporation, Visakhapatnam - APPCB",23-01-2026 08:00:00,17.72,83.3,PM2.5,89,310,171
India,Andhra_Pradesh,Visakhapatnam,"GVM Corporation, Visakhapatnam - APPCB",23-01-2026 08:00:00,17.72,83.3,NO2,18,163,58
India,Andhra_Pradesh,Visakhapatnam,"GVM Corporation, Visakhapatnam - APPCB",23-01-2026 08:00:00,17.72,83.3,SO2,NA,NA,NA
India,Arunachal_Pradesh,Naharlagun,"Naharlagun, Naharlagun - APSPCB",23-01-2026 08:00:00,27.103358,93.679645,CO,NA,NA,NA
India,Assam,Byrnihat,"Central Academy for SFS, Byrnihat - PCBA",23-01-2026 08:00:00,26.071318,91.87488,NO2,3,9,7
India,Assam,Guwahati,"LGBI Airport, Guwahati - PCBA",23-01-2026 08:00:00,26.10887,91.589544,NH3,4,6,5
India,Assam,Guwahati,"LGBI Airport, Guwahati - PCBA",23-01-2026 08:00:00,26.10887,91.589544,OZONE,13,15,13
India,Assam,Guwahati,"Pan Bazaar, Guwahati - PCBA",23-01-2026 08:00:00,26.187500,91.744194,PM2.5,63,303,177
India,Assam,Guwahati,"Pan Bazaar, Guwahati - PCBA",23-01-2026 08:00:00,26.187500,91.744194,OZONE,17,18,17
India,Bihar,Katihar,"Mirchaibari, Katihar - BSPCB",23-01-2026 08:00:00,25.560083,87.553265,NO2,8,10,9
India,Bihar,Kishanganj,"SDM Office_Khagra, Kishanganj - BSPCB",23-01-2026 08:00:00,26.0881305,87.93840336,PM10,37,90,69
India,Bihar,Motihari,"Gandak Colony, Motihari - BSPCB",23-01-2026 08:00:00,26.63086,84.90051,PM2.5,40,305,169
India,Bihar,Motihari,"Gandak Colony, Motihari - BSPCB",23-01-2026 08:00:00,26.63086,84.90051,NH3,3,3,3
India,Bihar,Munger,"Town Hall, Munger - BSPCB",23-01-2026 08:00:00,25.376776,86.471523,PM10,47,116,75
India,Bihar,Gaya,"SFTI Kusdihra, Gaya - BSPCB",23-01-2026 08:00:00,24.762518,84.982348,SO2,6,9,8
India,Bihar,Hajipur,"Industrial Area, Hajipur - BSPCB",23-01-2026 08:00:00,25.697189,85.245900,CO,24,109,71
India,Bihar,Katihar,"Mirchaibari, Katihar - BSPCB",23-01-2026 08:00:00,25.560083,87.553265,PM2.5,72,280,137
India,Bihar,Gaya,"Collectorate, Gaya - BSPCB",23-01-2026 08:00:00,24.7955,84.9994,NO2,7,9,9
India,Bihar,Gaya,"Collectorate, Gaya - BSPCB",23-01-2026 08:00:00,24.7955,84.9994,CO,NA,NA,NA
India,Bihar,Gaya,"Kareemganj, Gaya - BSPCB",23-01-2026 08:00:00,24.792403,84.992416,OZONE,1,24,4
India,Andhra_Pradesh,Chittoor,"Gangineni Cheruvu, Chittoor - APPCB",23-01-2026 08:00:00,13.204880,79.097889,NH3,8,8,8
India,Bihar,Arrah,"New DM Office, Arrah - BSPCB",23-01-2026 08:00:00,25.5626095,84.663264,NH3,1,1,1
India,Bihar,Siwan,"Chitragupta Nagar, Siwan - BSPCB",23-01-2026 08:00:00,26.2271665,84.3570427,NH3,1,1,1
India,Chandigarh,Chandigarh,"Sector 22, Chandigarh - CPCC",23-01-2026 08:00:00,30.735567,76.775714,PM2.5,33,304,94
India,Chandigarh,Chandigarh,"Sector 22, Chandigarh - CPCC",23-01-2026 08:00:00,30.735567,76.775714,NH3,8,21,15
India,Chandigarh,Chandigarh,"Sector 22, Chandigarh - CPCC",23-01-2026 08:00:00,30.735567,76.775714,CO,57,114,67
India,Chandigarh,Chandigarh,"Sector-25, Chandigarh - CPCC",23-01-2026 08:00:00,30.751462,76.762879,NO2,9,30,19
India,Chandigarh,Chandigarh,"Sector-25, Chandigarh - CPCC",23-01-2026 08:00:00,30.751462,76.762879,CO,16,68,22
India,Chandigarh,Chandigarh,"Sector-53, Chandigarh - CPCC",23-01-2026 08:00:00,30.719859,76.738637,SO2,12,66,27
India,Chhattisgarh,Bhilai,"32Bungalows, Bhilai - CECB",23-01-2026 08:00:00,21.194815,81.314770,CO,24,51,43
India,Chhattisgarh,Bhilai,"Hathkhoj, Bhilai - CECB",23-01-2026 08:00:00,21.224231,81.408350,PM10,30,116,58
India,Chhattisgarh,Bhilai,"Hathkhoj, Bhilai - CECB",23-01-2026 08:00:00,21.224231,81.408350,SO2,16,77,35
India,Chhattisgarh,Bhilai,"Hathkhoj, Bhilai - CECB",23-01-2026 08:00:00,21.224231,81.408350,CO,5,48,37
India,Chhattisgarh,Bilaspur,"Mangala, Bilaspur - NTPC",23-01-2026 08:00:00,22.08815,82.13737,SO2,11,60,22
India,Chhattisgarh,Chhal,"Nawapara SECL Colony, Chhal - CECB",23-01-2026 08:00:00,22.118125,83.140608,PM2.5,30,79,61
India,Chhattisgarh,Chhal,"Nawapara SECL Colony, Chhal - CECB",23-01-2026 08:00:00,22.118125,83.140608,PM10,29,185,78
India,Chhattisgarh,Chhal,"Nawapara SECL Colony, Chhal - CECB",23-01-2026 08:00:00,22.118125,83.140608,OZONE,2,84,6
India,Chhattisgarh,Korba,"Rampur, Korba - CECB",23-01-2026 08:00:00,22.368195,82.746431,CO,14,35,24
India,Chhattisgarh,Korba,"Urja Nagar, Korba - CECB",23-01-2026 08:00:00,22.348441,82.549611,NO2,10,19,15
India,Chhattisgarh,Korba,"Urja Nagar, Korba - CECB",23-01-2026 08:00:00,22.348441,82.549611,SO2,5,19,10
India,Chhattisgarh,Kunjemura,"OP Jindal School, Kunjemura - CECB",23-01-2026 08:00:00,22.126650,83.483212,PM10,51,209,130
India,Chhattisgarh,Milupara,"Govt. Higher Secondary School, Milupara - CECB",23-01-2026 08:00:00,22.1910172,83.5197009,OZONE,2,103,10
India,Bihar,Munger,"Town Hall, Munger - BSPCB",23-01-2026 08:00:00,25.376776,86.471523,NH3,5,7,6
India,Bihar,Munger,"Town Hall, Munger - BSPCB",23-01-2026 08:00:00,25.376776,86.471523,SO2,20,28,25
India,Bihar,Muzaffarpur,"Buddha Colony, Muzaffarpur - BSPCB",23-01-2026 08:00:00,26.11442,85.39813,PM10,83,184,128
India,Bihar,Muzaffarpur,"MIT-Daudpur Kothi, Muzaffarpur - BSPCB",23-01-2026 08:00:00,26.1403345,85.3650192,PM2.5,85,97,90
India,Bihar,Muzaffarpur,"MIT-Daudpur Kothi, Muzaffarpur - BSPCB",23-01-2026 08:00:00,26.1403345,85.3650192,NO2,1,3,2
India,Bihar,Muzaffarpur,"MIT-Daudpur Kothi, Muzaffarpur - BSPCB",23-01-2026 08:00:00,26.1403345,85.3650192,CO,41,56,41
India,Bihar,Patna,"DRM Office Danapur, Patna - BSPCB",23-01-2026 08:00:00,25.586562,85.043586,NO2,18,69,37
India,Bihar,Patna,"DRM Office Danapur, Patna - BSPCB",23-01-2026 08:00:00,25.586562,85.043586,NH3,6,25,12
India,Bihar,Patna,"Govt. High School Shikarpur, Patna - BSPCB",23-01-2026 08:00:00,25.592539,85.227158,NO2,14,18,16
India,Bihar,Patna,"Govt. High School Shikarpur, Patna - BSPCB",23-01-2026 08:00:00,25.592539,85.227158,NH3,4,5,5
India,Delhi,Delhi,"Anand Vihar, Delhi - DPCC",23-01-2026 08:00:00,28.647622,77.3158090,NO2,32,153,73
India,Delhi,Delhi,"Anand Vihar, Delhi - DPCC",23-01-2026 08:00:00,28.647622,77.3158090,NH3,11,18,14
India,Delhi,Delhi,"Ashok Vihar, Delhi - DPCC",23-01-2026 08:00:00,28.695381,77.181665,NH3,8,9,8
India,Delhi,Delhi,"Ashok Vihar, Delhi - DPCC",23-01-2026 08:00:00,28.695381,77.181665,CO,4,105,40
India,Delhi,Delhi,"Ashok Vihar, Delhi - DPCC",23-01-2026 08:00:00,28.695381,77.181665,OZONE,3,209,63
India,Delhi,Delhi,"Burari Crossing, Delhi - IMD",23-01-2026 08:00:00,28.7256504,77.2011573,PM10,130,412,208
India,Delhi,Delhi,"Burari Crossing, Delhi - IMD",23-01-2026 08:00:00,28.7256504,77.2011573,NO2,54,229,132
India,Delhi,Delhi,"CRRI Mathura Road, Delhi - IMD",23-01-2026 08:00:00,28.5512005,77.2735737,PM10,123,392,191
India,Delhi,Delhi,"CRRI Mathura Road, Delhi - IMD",23-01-2026 08:00:00,28.5512005,77.2735737,CO,16,119,20
India,Delhi,Delhi,"Chandni Chowk, Delhi - IITM",23-01-2026 08:00:00,28.656756,77.227234,PM2.5,238,448,319
India,Delhi,Delhi,"Chandni Chowk, Delhi - IITM",23-01-2026 08:00:00,28.656756,77.227234,OZONE,7,115,48
India,Delhi,Delhi,"DTU, Delhi - CPCB",23-01-2026 08:00:00,28.7500499,77.1112615,SO2,27,36,30
India,Delhi,Delhi,"Dr. Karni Singh Shooting Range, Delhi - DPCC",23-01-2026 08:00:00,28.498571,77.264840,NO2,4,75,25
India,Delhi,Delhi,"Dr. Karni Singh Shooting Range, Delhi - DPCC",23-01-2026 08:00:00,28.498571,77.264840,SO2,8,26,13
India,Delhi,Delhi,"Dr. Karni Singh Shooting Range, Delhi - DPCC",23-01-2026 08:00:00,28.498571,77.264840,CO,27,98,40
India,Delhi,Delhi,"IHBAS, Dilshad Garden, Delhi - CPCB",23-01-2026 08:00:00,28.6811736,77.3025234,PM2.5,186,352,278
India,Delhi,Delhi,"IIT Delhi, Delhi - IITM",23-01-2026 08:00:00,28.542460,77.191651,PM2.5,143,372,252
India,Bihar,Purnia,"Mariam Nagar, Purnia - BSPCB",23-01-2026 08:00:00,25.366336,87.117468,PM10,65,110,90
India,Bihar,Purnia,"Mariam Nagar, Purnia - BSPCB",23-01-2026 08:00:00,25.366336,87.117468,NO2,5,6,6
India,Bihar,Purnia,"Mariam Nagar, Purnia - BSPCB",23-01-2026 08:00:00,25.366336,87.117468,NH3,3,3,3
India,Bihar,Saharsa,"Police Line, Saharsa - BSPCB",23-01-2026 08:00:00,25.892357,86.590325,PM10,72,181,132
India,Bihar,Saharsa,"Police Line, Saharsa - BSPCB",23-01-2026 08:00:00,25.892357,86.590325,NH3,4,4,4
India,Bihar,Sasaram,"Dada Peer, Sasaram - BSPCB",23-01-2026 08:00:00,24.952822,84.002396,PM2.5,17,60,29
India,Bihar,Sasaram,"Dada Peer, Sasaram - BSPCB",23-01-2026 08:00:00,24.952822,84.002396,OZONE,9,30,17
India,Chhattisgarh,Raipur,"AIIMS, Raipur - CECB",23-01-2026 08:00:00,21.258815,81.578979,SO2,4,21,6
India,Chhattisgarh,Raipur,"Krishak Nagar, Raipur - CECB",23-01-2026 08:00:00,21.237755,81.705301,PM2.5,39,71,57
India,Chhattisgarh,Raipur,"Siltara Phase-II, Raipur - CECB",23-01-2026 08:00:00,21.371751,81.664929,PM2.5,55,281,131
India,Chhattisgarh,Raipur,"Siltara Phase-II, Raipur - CECB",23-01-2026 08:00:00,21.371751,81.664929,PM10,70,164,104
India,Chhattisgarh,Raipur,"Siltara Phase-II, Raipur - CECB",23-01-2026 08:00:00,21.371751,81.664929,NH3,2,2,2
India,Chhattisgarh,Raipur,"Siltara Phase-II, Raipur - CECB",23-01-2026 08:00:00,21.371751,81.664929,OZONE,3,3,3
India,Delhi,Delhi,"Jahangirpuri, Delhi - DPCC",23-01-2026 08:00:00,28.732820,77.170633,PM2.5,250,453,332
India,Delhi,Delhi,"Jawaharlal Nehru Stadium, Delhi - DPCC",23-01-2026 08:00:00,28.580280,77.233829,NO2,38,186,87
India,Delhi,Delhi,"Jawaharlal Nehru Stadium, Delhi - DPCC",23-01-2026 08:00:00,28.580280,77.233829,CO,56,120,60
India,Delhi,Delhi,"Jawaharlal Nehru Stadium, Delhi - DPCC",23-01-2026 08:00:00,28.580280,77.233829,OZONE,6,162,69
India,Delhi,Delhi,"Major Dhyan Chand National Stadium, Delhi - DPCC",23-01-2026 08:00:00,28.611281,77.237738,OZONE,2,205,67
India,Bihar,Patna,"Muradpur, Patna - BSPCB",23-01-2026 08:00:00,25.619651,85.147382,PM10,77,258,117
India,Bihar,Patna,"Muradpur, Patna - BSPCB",23-01-2026 08:00:00,25.619651,85.147382,NO2,5,10,7
India,Bihar,Patna,"Muradpur, Patna - BSPCB",23-01-2026 08:00:00,25.619651,85.147382,OZONE,5,15,5
India,Bihar,Patna,"Rajbansi Nagar, Patna - BSPCB",23-01-2026 08:00:00,25.599486,85.113666,NO2,23,149,72
India,Bihar,Patna,"Rajbansi Nagar, Patna - BSPCB",23-01-2026 08:00:00,25.599486,85.113666,CO,28,92,45
India,Bihar,Patna,"Rajbansi Nagar, Patna - BSPCB",23-01-2026 08:00:00,25.599486,85.113666,OZONE,19,29,25
India,Delhi,Delhi,"Nehru Nagar, Delhi - DPCC",23-01-2026 08:00:00,28.567890,77.250515,OZONE,3,190,51
India,Delhi,Delhi,"North Campus, DU, Delhi - IMD",23-01-2026 08:00:00,28.6573814,77.1585447,PM2.5,186,391,291
India,Delhi,Delhi,"North Campus, DU, Delhi - IMD",23-01-2026 08:00:00,28.6573814,77.1585447,CO,16,122,23
India,Delhi,Delhi,"Okhla Phase-2, Delhi - DPCC",23-01-2026 08:00:00,28.530785,77.271255,SO2,1,43,12
India,Delhi,Delhi,"Patparganj, Delhi - DPCC",23-01-2026 08:00:00,28.623763,77.287209,CO,26,119,70
India,Delhi,Delhi,"Punjabi Bagh, Delhi - DPCC",23-01-2026 08:00:00,28.674045,77.131023,PM2.5,177,447,321
India,Delhi,Delhi,"Pusa, Delhi - DPCC",23-01-2026 08:00:00,28.639652,77.146275,PM10,143,409,221
India,Delhi,Delhi,"Pusa, Delhi - DPCC",23-01-2026 08:00:00,28.639652,77.146275,NH3,15,23,20
India,Delhi,Delhi,"Pusa, Delhi - IMD",23-01-2026 08:00:00,28.636110,77.173332,PM2.5,94,328,192
India,Delhi,Delhi,"Pusa, Delhi - IMD",23-01-2026 08:00:00,28.636110,77.173332,NO2,49,236,103
India,Delhi,Delhi,"Sonia Vihar, Delhi - DPCC",23-01-2026 08:00:00,28.710508,77.249485,CO,1,103,7
India,Delhi,Delhi,"Sri Aurobindo Marg, Delhi - DPCC",23-01-2026 08:00:00,28.531346,77.190156,NO2,27,104,53
India,Delhi,Delhi,"Sri Aurobindo Marg, Delhi - DPCC",23-01-2026 08:00:00,28.531346,77.190156,OZONE,3,124,60
India,Delhi,Delhi,"Vivek Vihar, Delhi - DPCC",23-01-2026 08:00:00,28.672342,77.315260,SO2,9,28,14
India,Delhi,Delhi,"Vivek Vihar, Delhi - DPCC",23-01-2026 08:00:00,28.672342,77.315260,OZONE,1,194,58
India,Delhi,Delhi,"Wazirpur, Delhi - DPCC",23-01-2026 08:00:00,28.699793,77.165453,PM2.5,280,500,346
India,Delhi,Delhi,"Wazirpur, Delhi - DPCC",23-01-2026 08:00:00,28.699793,77.165453,NH3,10,12,11
India,Delhi,Delhi,"Wazirpur, Delhi - DPCC",23-01-2026 08:00:00,28.699793,77.165453,CO,68,113,79
India,Gujarat,Ahmedabad,"Chandkheda, Ahmedabad - IITM",23-01-2026 08:00:00,23.107969,72.574648,NO2,15,100,38
India,Gujarat,Ahmedabad,"Gyaspur, Ahmedabad - IITM",23-01-2026 08:00:00,22.977134,72.553024,PM2.5,74,272,181
India,Haryana,Charkhi Dadri,"Mini Secretariat, Charkhi Dadri - HSPCB",23-01-2026 08:00:00,28.593883,76.270653,NH3,5,8,6
India,Haryana,Dharuhera,"Municipal Corporation Office, Dharuhera -  HSPCB",23-01-2026 08:00:00,28.206800,76.799700,PM10,41,354,188
India,Haryana,Faridabad,"New Industrial Town, Faridabad - HSPCB",23-01-2026 08:00:00,28.39072,77.30059,PM2.5,206,220,214
India,Haryana,Faridabad,"New Industrial Town, Faridabad - HSPCB",23-01-2026 08:00:00,28.39072,77.30059,PM10,169,177,173
India,Haryana,Faridabad,"New Industrial Town, Faridabad - HSPCB",23-01-2026 08:00:00,28.39072,77.30059,SO2,8,8,8
India,Haryana,Faridabad,"Sector 11, Faridabad - HSPCB",23-01-2026 08:00:00,28.376058,77.315741,PM10,104,400,160
India,Haryana,Faridabad,"Sector 11, Faridabad - HSPCB",23-01-2026 08:00:00,28.376058,77.315741,NO2,30,33,31
India,Haryana,Faridabad,"Sector 11, Faridabad - HSPCB",23-01-2026 08:00:00,28.376058,77.315741,OZONE,14,16,15
India,Delhi,Delhi,"R K Puram, Delhi - DPCC",23-01-2026 08:00:00,28.563262,77.186937,PM10,114,432,216
India,Delhi,Delhi,"Rohini, Delhi - DPCC",23-01-2026 08:00:00,28.732528,77.119920,PM10,175,476,288
India,Delhi,Delhi,"Rohini, Delhi - DPCC",23-01-2026 08:00:00,28.732528,77.119920,CO,24,104,33
India,Delhi,Delhi,"Shadipur, Delhi - CPCB",23-01-2026 08:00:00,28.6514781,77.1473105,PM2.5,243,333,279
India,Delhi,Delhi,"Shadipur, Delhi - CPCB",23-01-2026 08:00:00,28.6514781,77.1473105,CO,54,137,57
India,Delhi,Delhi,"Shadipur, Delhi - CPCB",23-01-2026 08:00:00,28.6514781,77.1473105,OZONE,13,37,24
India,Delhi,Delhi,"Sirifort, Delhi - CPCB",23-01-2026 08:00:00,28.5504249,77.2159377,CO,18,109,33
India,Delhi,Delhi,"Sonia Vihar, Delhi - DPCC",23-01-2026 08:00:00,28.710508,77.249485,PM10,183,435,282
India,Delhi,Delhi,"Sonia Vihar, Delhi - DPCC",23-01-2026 08:00:00,28.710508,77.249485,NO2,30,129,69
India,Delhi,Delhi,"Mandir Marg, Delhi - DPCC",23-01-2026 08:00:00,28.636429,77.201067,NO2,46,158,90
India,Delhi,Delhi,"Mandir Marg, Delhi - DPCC",23-01-2026 08:00:00,28.636429,77.201067,NH3,6,11,8
India,Delhi,Delhi,"Mundka, Delhi - DPCC",23-01-2026 08:00:00,28.684678,77.076574,PM10,178,429,279
India,Delhi,Delhi,"NSIT Dwarka, Delhi - CPCB",23-01-2026 08:00:00,28.60909,77.0325413,PM2.5,68,335,201
India,Delhi,Delhi,"Narela, Delhi - DPCC",23-01-2026 08:00:00,28.822836,77.101981,NO2,11,76,38
India,Delhi,Delhi,"Narela, Delhi - DPCC",23-01-2026 08:00:00,28.822836,77.101981,NH3,6,9,8
India,Delhi,Delhi,"Narela, Delhi - DPCC",23-01-2026 08:00:00,28.822836,77.101981,SO2,9,21,13
India,Delhi,Delhi,"Nehru Nagar, Delhi - DPCC",23-01-2026 08:00:00,28.567890,77.250515,PM2.5,233,496,327
India,Delhi,Delhi,"Nehru Nagar, Delhi - DPCC",23-01-2026 08:00:00,28.567890,77.250515,NH3,6,12,7
India,Gujarat,Ahmedabad,"SVPI Airport Hansol, Ahmedabad - IITM",23-01-2026 08:00:00,23.076793,72.627874,NO2,22,115,49
India,Gujarat,Ankleshwar,"GIDC, Ankleshwar - GPCB",23-01-2026 08:00:00,21.613267,73.010555,PM2.5,70,148,101
India,Gujarat,Ankleshwar,"GIDC, Ankleshwar - GPCB",23-01-2026 08:00:00,21.613267,73.010555,NO2,21,27,23
India,Gujarat,Ankleshwar,"GIDC, Ankleshwar - GPCB",23-01-2026 08:00:00,21.613267,73.010555,SO2,25,31,27
India,Gujarat,Ankleshwar,"GIDC, Ankleshwar - GPCB",23-01-2026 08:00:00,21.613267,73.010555,OZONE,4,89,18
India,Gujarat,Gandhinagar,"GIFT City, Gandhinagar - IITM",23-01-2026 08:00:00,23.163798,72.677768,NO2,21,105,44
India,Gujarat,Gandhinagar,"Sector-10, Gandhinagar - GPCB",23-01-2026 08:00:00,23.221714,72.654328,PM10,89,234,138
India,Gujarat,Gandhinagar,"Sector-10, Gandhinagar - GPCB",23-01-2026 08:00:00,23.221714,72.654328,CO,30,75,51
India,Gujarat,Vapi,"Phase-1 GIDC, Vapi - GPCB",23-01-2026 08:00:00,20.362421,72.918013,PM10,NA,NA,NA
India,Gujarat,Vapi,"Phase-1 GIDC, Vapi - GPCB",23-01-2026 08:00:00,20.362421,72.918013,NO2,NA,NA,NA
India,Gujarat,Vapi,"Phase-1 GIDC, Vapi - GPCB",23-01-2026 08:00:00,20.362421,72.918013,SO2,NA,NA,NA
India,Gujarat,Vatva,"Phase-4 GIDC, Vatva - GPCB",23-01-2026 08:00:00,22.969611,72.643500,PM2.5,97,301,200
India,Gujarat,Vatva,"Phase-4 GIDC, Vatva - GPCB",23-01-2026 08:00:00,22.969611,72.643500,NO2,59,67,62
India,Gujarat,Vatva,"Phase-4 GIDC, Vatva - GPCB",23-01-2026 08:00:00,22.969611,72.643500,CO,14,16,14
India,Haryana,Ambala,"Patti Mehar, Ambala - HSPCB",23-01-2026 08:00:00,30.379589,76.778328,OZONE,10,21,14
India,Haryana,Ballabgarh,"Nathu Colony, Ballabgarh - HSPCB",23-01-2026 08:00:00,28.3419248,77.319699,NO2,20,21,20
India,Haryana,Fatehabad,"Huda Sector, Fatehabad - HSPCB",23-01-2026 08:00:00,29.503664,75.467934,NH3,13,15,14
India,Haryana,Gurugram,"NISE Gwal Pahari, Gurugram - IMD",23-01-2026 08:00:00,28.422681,77.148944,CO,28,101,32
India,Haryana,Gurugram,"Sector-51, Gurugram - HSPCB",23-01-2026 08:00:00,28.4227,77.0667,SO2,1,7,4
India,Haryana,Gurugram,"Sector-51, Gurugram - HSPCB",23-01-2026 08:00:00,28.4227,77.0667,OZONE,3,15,3
India,Haryana,Hisar,"Urban Estate-II, Hisar - HSPCB",23-01-2026 08:00:00,29.140560,75.744941,PM10,NA,NA,NA
India,Gujarat,Ahmedabad,"Maninagar, Ahmedabad - GPCB",23-01-2026 08:00:00,23.002657,72.591912,SO2,26,42,35
India,Gujarat,Ahmedabad,"Raikhad, Ahmedabad - IITM",23-01-2026 08:00:00,23.020509,72.579261,SO2,16,103,54
India,Gujarat,Ahmedabad,"SAC ISRO Bopal, Ahmedabad - IITM",23-01-2026 08:00:00,23.041137,72.456691,SO2,2,44,11
India,Gujarat,Ahmedabad,"SAC ISRO Satellite, Ahmedabad - IITM",23-01-2026 08:00:00,23.023389,72.515201,SO2,8,111,29
India,Haryana,Kaithal,"Rishi Nagar, Kaithal - HSPCB",23-01-2026 08:00:00,29.8006,76.4155,NO2,NA,NA,NA
India,Haryana,Kaithal,"Rishi Nagar, Kaithal - HSPCB",23-01-2026 08:00:00,29.8006,76.4155,CO,NA,NA,NA
India,Haryana,Kaithal,"Rishi Nagar, Kaithal - HSPCB",23-01-2026 08:00:00,29.8006,76.4155,OZONE,NA,NA,NA
India,Haryana,Karnal,"Sector-12, Karnal - HSPCB",23-01-2026 08:00:00,29.695300,77.002700,PM2.5,91,311,219
India,Haryana,Karnal,"Sector-12, Karnal - HSPCB",23-01-2026 08:00:00,29.695300,77.002700,SO2,6,7,6
India,Haryana,Karnal,"Sector-12, Karnal - HSPCB",23-01-2026 08:00:00,29.695300,77.002700,OZONE,32,33,32
India,Haryana,Kurukshetra,"Sector-7, Kurukshetra - HSPCB",23-01-2026 08:00:00,29.966942,76.875879,PM10,103,225,157
India,Haryana,Kurukshetra,"Sector-7, Kurukshetra - HSPCB",23-01-2026 08:00:00,29.966942,76.875879,OZONE,3,59,28
India,Haryana,Manesar,"Sector-2 IMT, Manesar - HSPCB",23-01-2026 08:00:00,28.360699,76.936090,PM2.5,142,414,243
India,Haryana,Manesar,"Sector-2 IMT, Manesar - HSPCB",23-01-2026 08:00:00,28.360699,76.936090,NH3,10,13,11
India,Haryana,Manesar,"Sector-2 IMT, Manesar - HSPCB",23-01-2026 08:00:00,28.360699,76.936090,OZONE,5,23,7
India,Karnataka,Bengaluru,"Silk Board, Bengaluru - KSPCB",23-01-2026 08:00:00,12.917348,77.622813,SO2,4,15,7
India,Karnataka,Bengaluru,"Silk Board, Bengaluru - KSPCB",23-01-2026 08:00:00,12.917348,77.622813,CO,18,79,40
India,Karnataka,Chamarajanagar,"Urban, Chamarajanagar - KSPCB",23-01-2026 08:00:00,11.55358,76.55521,PM2.5,26,46,38
India,Karnataka,Chamarajanagar,"Urban, Chamarajanagar - KSPCB",23-01-2026 08:00:00,11.55358,76.55521,NO2,15,30,26
India,Karnataka,Chamarajanagar,"Urban, Chamarajanagar - KSPCB",23-01-2026 08:00:00,11.55358,76.55521,NH3,1,3,2
India,Karnataka,Chamarajanagar,"Urban, Chamarajanagar - KSPCB",23-01-2026 08:00:00,11.55358,76.55521,SO2,2,5,4
India,Karnataka,Chikkaballapur,"Chikkaballapur Rural, Chikkaballapur - KSPCB",23-01-2026 08:00:00,13.428828,77.731418,SO2,43,65,51
India,Karnataka,Dharwad,"Kalabhavan, Dharwad - KSPCB",23-01-2026 08:00:00,15.459706,75.008381,NH3,6,6,6
India,Karnataka,Dharwad,"Kalabhavan, Dharwad - KSPCB",23-01-2026 08:00:00,15.459706,75.008381,OZONE,17,17,17
