country,state,city,station,last_update,latitude,longitude,pollutant_id,min_value,max_value,avg_value
India,Assam,Guwahati,"Pan Bazaar, Guwahati - PCBA",27-08-2025 22:00:00,26.187500,91.744194,PM10,5,35,15
India,Assam,Guwahati,"Pan Bazaar, Guwahati - PCBA",27-08-2025 22:00:00,26.187500,91.744194,SO2,26,75,45
India,Assam,Nagaon,"Christianpatty, Nagaon - PCBA",27-08-2025 22:00:00,26.349082,92.68449,SO2,1,14,10
India,Assam,Nagaon,"Christianpatty, Nagaon - PCBA",27-08-2025 22:00:00,26.349082,92.68449,CO,14,56,47
India,Assam,Nalbari,"Bata Chowk, Nalbari - PCBA",27-08-2025 22:00:00,26.446912,91.439057,PM10,33,115,45
India,Assam,Nalbari,"Bata Chowk, Nalbari - PCBA",27-08-2025 22:00:00,26.446912,91.439057,NH3,1,11,3
India,Assam,Nalbari,"Bata Chowk, Nalbari - PCBA",27-08-2025 22:00:00,26.446912,91.439057,CO,20,50,42
India,Assam,Nalbari,"Bata Chowk, Nalbari - PCBA",27-08-2025 22:00:00,26.446912,91.439057,OZONE,2,56,16
India,Assam,Silchar,"Tarapur, Silchar - PCBA",27-08-2025 22:00:00,24.82827,92.79525,PM10,45,61,49
India,Assam,Silchar,"Tarapur, Silchar - PCBA",27-08-2025 22:00:00,24.82827,92.79525,NH3,1,1,1
India,Bihar,Begusarai,"Lohiyanagar, Begusarai - BSPCB",27-08-2025 22:00:00,25.42742023,86.13886079,NO2,7,21,15
India,Bihar,Begusarai,"Lohiyanagar, Begusarai - BSPCB",27-08-2025 22:00:00,25.42742023,86.13886079,SO2,8,22,16
India,Bihar,Begusarai,"Lohiyanagar, Begusarai - BSPCB",27-08-2025 22:00:00,25.42742023,86.13886079,CO,49,73,56
India,Bihar,Bettiah,"Kamalnath Nagar, Bettiah - BSPCB",27-08-2025 22:00:00,26.80365,84.51954,CO,49,75,67
India,Bihar,Bhagalpur,"DM Office_Kachari Chowk, Bhagalpur - BSPCB",27-08-2025 22:00:00,25.251013,86.989001,NH3,2,4,3
India,Bihar,Bhagalpur,"Mayaganj, Bhagalpur - BSPCB",27-08-2025 22:00:00,25.265194,87.012947,PM2.5,5,233,44
India,Bihar,Bhagalpur,"Mayaganj, Bhagalpur - BSPCB",27-08-2025 22:00:00,25.265194,87.012947,NO2,8,260,21
India,Arunachal_Pradesh,Naharlagun,"Naharlagun, Naharlagun - APSPCB",27-08-2025 22:00:00,27.103358,93.679645,NO2,5,5,5
India,Assam,Byrnihat,"Central Academy for SFS, Byrnihat - PCBA",27-08-2025 22:00:00,26.071318,91.87488,PM10,NA,NA,NA
India,Assam,Byrnihat,"Central Academy for SFS, Byrnihat - PCBA",27-08-2025 22:00:00,26.071318,91.87488,NH3,NA,NA,NA
India,Assam,Byrnihat,"Central Academy for SFS, Byrnihat - PCBA",27-08-2025 22:00:00,26.071318,91.87488,CO,34,56,53
India,Assam,Guwahati,"IITG, Guwahati - PCBA",27-08-2025 22:00:00,26.2028636,91.70046436,PM2.5,NA,NA,NA
India,Assam,Guwahati,"IITG, Guwahati - PCBA",27-08-2025 22:00:00,26.2028636,91.70046436,CO,2,11,6
India,Assam,Guwahati,"LGBI Airport, Guwahati - PCBA",27-08-2025 22:00:00,26.10887,91.589544,PM2.5,46,57,50
India,Bihar,Bihar Sharif,"D M Colony, Bihar Sharif - BSPCB",27-08-2025 22:00:00,25.204762,85.514960,NH3,2,2,2
India,Bihar,Bihar Sharif,"D M Colony, Bihar Sharif - BSPCB",27-08-2025 22:00:00,25.204762,85.514960,CO,1,21,10
India,Bihar,Buxar,"Charitra Van, Buxar - BSPCB",27-08-2025 22:00:00,25.567520,83.966379,SO2,2,16,7
India,Bihar,Chhapra,"Darshan Nagar, Chhapra - BSPCB",27-08-2025 22:00:00,25.7808257,84.7446768,PM2.5,42,66,53
India,Bihar,Gaya,"Collectorate, Gaya - BSPCB",27-08-2025 22:00:00,24.7955,84.9994,PM2.5,14,330,85
India,Bihar,Gaya,"Collectorate, Gaya - BSPCB",27-08-2025 22:00:00,24.7955,84.9994,OZONE,19,21,21
India,Andhra_Pradesh,Tirumala,"Toll Gate, Tirumala - APPCB",27-08-2025 22:00:00,13.67,79.35,PM10,8,31,19
India,Andhra_Pradesh,Tirupati,"Vaikuntapuram, Tirupati - APPCB",27-08-2025 22:00:00,13.615387,79.409230,PM2.5,62,98,72
India,Andhra_Pradesh,Tirupati,"Vaikuntapuram, Tirupati - APPCB",27-08-2025 22:00:00,13.615387,79.409230,CO,9,18,11
India,Andhra_Pradesh,Vijayawada,"HB Colony, Vijayawada - APPCB",27-08-2025 22:00:00,16.536107,80.594233,NO2,20,20,20
India,Andhra_Pradesh,Vijayawada,"Rajiv Gandhi Park, Vijayawada - APPCB",27-08-2025 22:00:00,16.509717,80.612222,PM10,54,66,58
India,Andhra_Pradesh,Amaravati,"Secretariat, Amaravati - APPCB",27-08-2025 22:00:00,16.5150833,80.5181667,PM10,3,58,14
India,Andhra_Pradesh,Chittoor,"Gangineni Cheruvu, Chittoor - APPCB",27-08-2025 22:00:00,13.204880,79.097889,SO2,21,22,21
India,Andhra_Pradesh,Kadapa,"Yerramukkapalli, Kadapa - APPCB",27-08-2025 22:00:00,14.465052,78.824187,PM2.5,NA,NA,NA
India,Bihar,Gaya,"SFTI Kusdihra, Gaya - BSPCB",27-08-2025 22:00:00,24.762518,84.982348,PM10,15,50,33
India,Bihar,Hajipur,"Industrial Area, Hajipur - BSPCB",27-08-2025 22:00:00,25.697189,85.245900,NO2,8,14,10
India,Bihar,Katihar,"Mirchaibari, Katihar - BSPCB",27-08-2025 22:00:00,25.560083,87.553265,PM10,NA,NA,NA
India,Bihar,Katihar,"Mirchaibari, Katihar - BSPCB",27-08-2025 22:00:00,25.560083,87.553265,NH3,NA,NA,NA
India,Andhra_Pradesh,Vijayawada,"Rajiv Nagar, Vijayawada - APPCB",27-08-2025 22:00:00,16.554731,80.649110,PM10,62,90,71
India,Andhra_Pradesh,Visakhapatnam,"GVM Corporation, Visakhapatnam - APPCB",27-08-2025 22:00:00,17.72,83.3,PM2.5,17,59,39
India,Andhra_Pradesh,Visakhapatnam,"GVM Corporation, Visakhapatnam - APPCB",27-08-2025 22:00:00,17.72,83.3,SO2,9,105,26
India,Bihar,Manguraha,"Forest Rest House, Manguraha - BSPCB",27-08-2025 22:00:00,27.308328,84.531742,PM2.5,NA,NA,NA
India,Bihar,Motihari,"Gandak Colony, Motihari - BSPCB",27-08-2025 22:00:00,26.63086,84.90051,SO2,2,3,3
India,Bihar,Motihari,"Gandak Colony, Motihari - BSPCB",27-08-2025 22:00:00,26.63086,84.90051,CO,1,6,3
India,Assam,Sivasagar,"Girls College, Sivasagar - PCBA",27-08-2025 22:00:00,26.987634,94.636574,PM10,26,60,37
India,Bihar,Araria,"Kharahiya Basti, Araria - BSPCB",27-08-2025 22:00:00,26.146529,87.454184,NH3,5,5,5
India,Bihar,Araria,"Kharahiya Basti, Araria - BSPCB",27-08-2025 22:00:00,26.146529,87.454184,SO2,1,112,21
India,Bihar,Patna,"Rajbansi Nagar, Patna - BSPCB",27-08-2025 22:00:00,25.599486,85.113666,SO2,4,9,7
India,Bihar,Patna,"Rajbansi Nagar, Patna - BSPCB",27-08-2025 22:00:00,25.599486,85.113666,CO,4,50,20
India,Bihar,Patna,"Samanpura, Patna - BSPCB",27-08-2025 22:00:00,25.596727,85.085624,PM2.5,53,256,137
India,Bihar,Patna,"Samanpura, Patna - BSPCB",27-08-2025 22:00:00,25.596727,85.085624,OZONE,8,107,35
India,Bihar,Purnia,"Mariam Nagar, Purnia - BSPCB",27-08-2025 22:00:00,25.366336,87.117468,PM2.5,18,53,32
India,Bihar,Purnia,"Mariam Nagar, Purnia - BSPCB",27-08-2025 22:00:00,25.366336,87.117468,OZONE,19,25,21
India,Bihar,Rajgir,"Dangi Tola, Rajgir - BSPCB",27-08-2025 22:00:00,25.03280,85.41948,PM10,NA,NA,NA
India,Bihar,Rajgir,"Dangi Tola, Rajgir - BSPCB",27-08-2025 22:00:00,25.03280,85.41948,NO2,8,10,9
India,Bihar,Rajgir,"Dangi Tola, Rajgir - BSPCB",27-08-2025 22:00:00,25.03280,85.41948,OZONE,22,67,36
India,Bihar,Patna,"DRM Office Danapur, Patna - BSPCB",27-08-2025 22:00:00,25.586562,85.043586,NH3,2,3,3
India,Bihar,Patna,"DRM Office Danapur, Patna - BSPCB",27-08-2025 22:00:00,25.586562,85.043586,CO,30,52,37
India,Bihar,Patna,"DRM Office Danapur, Patna - BSPCB",27-08-2025 22:00:00,25.586562,85.043586,OZONE,22,26,24
India,Bihar,Patna,"Govt. High School Shikarpur, Patna - BSPCB",27-08-2025 22:00:00,25.592539,85.227158,NH3,3,4,3
India,Bihar,Patna,"Govt. High School Shikarpur, Patna - BSPCB",27-08-2025 22:00:00,25.592539,85.227158,SO2,20,31,21
India,Bihar,Patna,"Govt. High School Shikarpur, Patna - BSPCB",27-08-2025 22:00:00,25.592539,85.227158,OZONE,8,13,11
India,Bihar,Patna,"IGSC Planetarium Complex, Patna - BSPCB",27-08-2025 22:00:00,25.610369,85.132568,NO2,10,15,13
India,Bihar,Patna,"IGSC Planetarium Complex, Patna - BSPCB",27-08-2025 22:00:00,25.610369,85.132568,CO,34,94,87
India,Bihar,Patna,"Muradpur, Patna - BSPCB",27-08-2025 22:00:00,25.619651,85.147382,CO,30,64,47
India,Chhattisgarh,Raipur,"Siltara Phase-II, Raipur - CECB",27-08-2025 22:00:00,21.371751,81.664929,NH3,3,3,3
India,Chhattisgarh,Raipur,"Siltara Phase-II, Raipur - CECB",27-08-2025 22:00:00,21.371751,81.664929,OZONE,4,6,5
India,Chhattisgarh,Tumidih,"OP Jindal Industrial Park, Tumidih - CECB",27-08-2025 22:00:00,22.06631475,83.33820077,NH3,1,2,2
India,Delhi,Delhi,"Alipur, Delhi - DPCC",27-08-2025 22:00:00,28.815329,77.153010,CO,15,46,27
India,Delhi,Delhi,"Anand Vihar, Delhi - DPCC",27-08-2025 22:00:00,28.647622,77.3158090,PM10,27,159,89
India,Bihar,Samastipur,"DM Office_Kasipur, Samastipur - BSPCB",27-08-2025 22:00:00,25.859655,85.77944,SO2,20,37,30
India,Bihar,Samastipur,"DM Office_Kasipur, Samastipur - BSPCB",27-08-2025 22:00:00,25.859655,85.77944,OZONE,7,13,9
India,Bihar,Sasaram,"Dada Peer, Sasaram - BSPCB",27-08-2025 22:00:00,24.952822,84.002396,PM10,18,79,41
India,Bihar,Sasaram,"Dada Peer, Sasaram - BSPCB",27-08-2025 22:00:00,24.952822,84.002396,NO2,2,5,2
India,Bihar,Sasaram,"Dada Peer, Sasaram - BSPCB",27-08-2025 22:00:00,24.952822,84.002396,SO2,1,5,3
India,Bihar,Siwan,"Chitragupta Nagar, Siwan - BSPCB",27-08-2025 22:00:00,26.2271665,84.3570427,PM10,22,27,24
India,Chandigarh,Chandigarh,"Sector-25, Chandigarh - CPCC",27-08-2025 22:00:00,30.751462,76.762879,NH3,4,7,6
India,Chandigarh,Chandigarh,"Sector-53, Chandigarh - CPCC",27-08-2025 22:00:00,30.719859,76.738637,SO2,NA,NA,NA
India,Chhattisgarh,Bhilai,"32Bungalows, Bhilai - CECB",27-08-2025 22:00:00,21.194815,81.314770,PM2.5,NA,NA,NA
India,Chhattisgarh,Bhilai,"32Bungalows, Bhilai - CECB",27-08-2025 22:00:00,21.194815,81.314770,CO,5,55,21
India,Chhattisgarh,Bhilai,"Civic Center, Bhilai - Bhilai Steel Plant",27-08-2025 22:00:00,21.185571,81.343175,NH3,NA,NA,NA
India,Chhattisgarh,Chhal,"Nawapara SECL Colony, Chhal - CECB",27-08-2025 22:00:00,22.118125,83.140608,PM2.5,NA,NA,NA
India,Chhattisgarh,Chhal,"Nawapara SECL Colony, Chhal - CECB",27-08-2025 22:00:00,22.118125,83.140608,NH3,NA,NA,NA
India,Chhattisgarh,Chhal,"Nawapara SECL Colony, Chhal - CECB",27-08-2025 22:00:00,22.118125,83.140608,CO,10,31,15
India,Chhattisgarh,Korba,"Rampur, Korba - CECB",27-08-2025 22:00:00,22.368195,82.746431,PM2.5,NA,NA,NA
India,Chhattisgarh,Korba,"Rampur, Korba - CECB",27-08-2025 22:00:00,22.368195,82.746431,PM10,NA,NA,NA
India,Chhattisgarh,Korba,"Rampur, Korba - CECB",27-08-2025 22:00:00,22.368195,82.746431,NH3,NA,NA,NA
India,Chhattisgarh,Korba,"Urja Nagar, Korba - CECB",27-08-2025 22:00:00,22.348441,82.549611,PM2.5,NA,NA,NA
India,Chhattisgarh,Korba,"Urja Nagar, Korba - CECB",27-08-2025 22:00:00,22.348441,82.549611,OZONE,NA,NA,NA
India,Delhi,Delhi,"Anand Vihar, Delhi - DPCC",27-08-2025 22:00:00,28.647622,77.3158090,NH3,3,8,6
India,Delhi,Delhi,"Anand Vihar, Delhi - DPCC",27-08-2025 22:00:00,28.647622,77.3158090,CO,68,116,95
India,Delhi,Delhi,"Ashok Vihar, Delhi - DPCC",27-08-2025 22:00:00,28.695381,77.181665,OZONE,2,310,11
India,Delhi,Delhi,"Aya Nagar, Delhi - IMD",27-08-2025 22:00:00,28.4706914,77.1099364,PM2.5,NA,NA,NA
India,Delhi,Delhi,"Burari Crossing, Delhi - IMD",27-08-2025 22:00:00,28.7256504,77.2011573,OZONE,18,52,36
India,Chhattisgarh,Kunjemura,"OP Jindal School, Kunjemura - CECB",27-08-2025 22:00:00,22.126650,83.483212,OZONE,4,8,5
India,Chhattisgarh,Raipur,"AIIMS, Raipur - CECB",27-08-2025 22:00:00,21.258815,81.578979,NO2,12,23,16
India,Chhattisgarh,Raipur,"Bhatagaon New ISBT, Raipur - CECB",27-08-2025 22:00:00,21.219665,81.630094,PM10,1,73,27
India,Chhattisgarh,Raipur,"Bhatagaon New ISBT, Raipur - CECB",27-08-2025 22:00:00,21.219665,81.630094,NH3,2,2,2
India,Bihar,Muzaffarpur,"Muzaffarpur Collectorate, Muzaffarpur - BSPCB",27-08-2025 22:00:00,26.1209,85.3647,CO,16,44,33
India,Delhi,Delhi,"IGI Airport (T3), Delhi - IMD",27-08-2025 22:00:00,28.5627763,77.1180053,NO2,39,116,70
India,Delhi,Delhi,"IHBAS, Dilshad Garden, Delhi - CPCB",27-08-2025 22:00:00,28.6811736,77.3025234,NH3,4,7,6
India,Delhi,Delhi,"ITO, Delhi - CPCB",27-08-2025 22:00:00,28.628624,77.241060,PM10,14,74,50
India,Delhi,Delhi,"Jahangirpuri, Delhi - DPCC",27-08-2025 22:00:00,28.732820,77.170633,NH3,6,7,6
India,Delhi,Delhi,"Jawaharlal Nehru Stadium, Delhi - DPCC",27-08-2025 22:00:00,28.580280,77.233829,PM2.5,NA,NA,NA
India,Delhi,Delhi,"Jawaharlal Nehru Stadium, Delhi - DPCC",27-08-2025 22:00:00,28.580280,77.233829,NO2,NA,NA,NA
India,Delhi,Delhi,"NSIT Dwarka, Delhi - CPCB",27-08-2025 22:00:00,28.60909,77.0325413,PM2.5,25,75,39
India,Delhi,Delhi,"NSIT Dwarka, Delhi - CPCB",27-08-2025 22:00:00,28.60909,77.0325413,NH3,5,8,7
India,Delhi,Delhi,"Najafgarh, Delhi - DPCC",27-08-2025 22:00:00,28.570173,76.933762,PM10,26,63,47
India,Delhi,Delhi,"Narela, Delhi - DPCC",27-08-2025 22:00:00,28.822836,77.101981,PM10,24,151,71
India,Delhi,Delhi,"Nehru Nagar, Delhi - DPCC",27-08-2025 22:00:00,28.567890,77.250515,NO2,20,44,30
India,Delhi,Delhi,"Nehru Nagar, Delhi - DPCC",27-08-2025 22:00:00,28.567890,77.250515,OZONE,12,65,36
India,Delhi,Delhi,"Pusa, Delhi - IMD",27-08-2025 22:00:00,28.636110,77.173332,CO,85,108,94
India,Delhi,Delhi,"R K Puram, Delhi - DPCC",27-08-2025 22:00:00,28.563262,77.186937,PM10,20,134,63
India,Delhi,Delhi,"R K Puram, Delhi - DPCC",27-08-2025 22:00:00,28.563262,77.186937,NH3,3,9,5
India,Delhi,Delhi,"R K Puram, Delhi - DPCC",27-08-2025 22:00:00,28.563262,77.186937,SO2,1,36,18
India,Delhi,Delhi,"Rohini, Delhi - DPCC",27-08-2025 22:00:00,28.732528,77.119920,CO,9,64,26
India,Delhi,Delhi,"Shadipur, Delhi - CPCB",27-08-2025 22:00:00,28.6514781,77.1473105,PM10,31,89,53
India,Delhi,Delhi,"Okhla Phase-2, Delhi - DPCC",27-08-2025 22:00:00,28.530785,77.271255,PM2.5,NA,NA,NA
India,Delhi,Delhi,"Okhla Phase-2, Delhi - DPCC",27-08-2025 22:00:00,28.530785,77.271255,NH3,NA,NA,NA
India,Delhi,Delhi,"Patparganj, Delhi - DPCC",27-08-2025 22:00:00,28.623763,77.287209,PM10,25,146,76
India,Delhi,Delhi,"Punjabi Bagh, Delhi - DPCC",27-08-2025 22:00:00,28.674045,77.131023,PM2.5,20,183,74
India,Delhi,Delhi,"Punjabi Bagh, Delhi - DPCC",27-08-2025 22:00:00,28.674045,77.131023,NH3,1,6,2
India,Delhi,Delhi,"Punjabi Bagh, Delhi - DPCC",27-08-2025 22:00:00,28.674045,77.131023,SO2,7,28,19
India,Delhi,Delhi,"Punjabi Bagh, Delhi - DPCC",27-08-2025 22:00:00,28.674045,77.131023,CO,23,115,69
India,Gujarat,Ahmedabad,"Maninagar, Ahmedabad - GPCB",27-08-2025 22:00:00,23.002657,72.591912,CO,25,32,29
India,Gujarat,Ahmedabad,"Raikhad, Ahmedabad - IITM",27-08-2025 22:00:00,23.020509,72.579261,NO2,5,17,8
India,Gujarat,Ahmedabad,"Rakhial, Ahmedabad - IITM",27-08-2025 22:00:00,23.016834,72.625775,PM2.5,20,113,50
India,Gujarat,Ahmedabad,"Rakhial, Ahmedabad - IITM",27-08-2025 22:00:00,23.016834,72.625775,PM10,50,125,75
India,Gujarat,Ahmedabad,"Rakhial, Ahmedabad - IITM",27-08-2025 22:00:00,23.016834,72.625775,NO2,11,30,17
India,Gujarat,Ahmedabad,"Rakhial, Ahmedabad - IITM",27-08-2025 22:00:00,23.016834,72.625775,CO,18,103,47
India,Delhi,Delhi,"Vivek Vihar, Delhi - DPCC",27-08-2025 22:00:00,28.672342,77.315260,PM2.5,17,108,54
India,Delhi,Delhi,"Vivek Vihar, Delhi - DPCC",27-08-2025 22:00:00,28.672342,77.315260,NO2,20,46,31
India,Delhi,Delhi,"Wazirpur, Delhi - DPCC",27-08-2025 22:00:00,28.699793,77.165453,PM10,42,348,125
India,Gujarat,Ahmedabad,"Chandkheda, Ahmedabad - IITM",27-08-2025 22:00:00,23.107969,72.574648,PM10,41,67,50
India,Gujarat,Ahmedabad,"Chandkheda, Ahmedabad - IITM",27-08-2025 22:00:00,23.107969,72.574648,CO,12,48,25
India,Delhi,Delhi,"Chandni Chowk, Delhi - IITM",27-08-2025 22:00:00,28.656756,77.227234,CO,46,113,75
India,Delhi,Delhi,"DTU, Delhi - CPCB",27-08-2025 22:00:00,28.7500499,77.1112615,SO2,28,30,29
India,Delhi,Delhi,"Dr. Karni Singh Shooting Range, Delhi - DPCC",27-08-2025 22:00:00,28.498571,77.264840,PM10,7,89,45
India,Delhi,Delhi,"Dwarka-Sector 8, Delhi - DPCC ",27-08-2025 22:00:00,28.5710274,77.0719006,PM10,16,139,59
India,Delhi,Delhi,"Jawaharlal Nehru Stadium, Delhi - DPCC",27-08-2025 22:00:00,28.580280,77.233829,OZONE,20,48,30
India,Delhi,Delhi,"Major Dhyan Chand National Stadium, Delhi - DPCC",27-08-2025 22:00:00,28.611281,77.237738,PM10,5,94,52
India,Delhi,Delhi,"Major Dhyan Chand National Stadium, Delhi - DPCC",27-08-2025 22:00:00,28.611281,77.237738,SO2,4,20,11
India,Delhi,Delhi,"Mandir Marg, Delhi - DPCC",27-08-2025 22:00:00,28.636429,77.201067,NO2,25,57,38
India,Delhi,Delhi,"Sirifort, Delhi - CPCB",27-08-2025 22:00:00,28.5504249,77.2159377,NH3,10,14,11
India,Delhi,Delhi,"Sonia Vihar, Delhi - DPCC",27-08-2025 22:00:00,28.710508,77.249485,NH3,6,11,8
India,Karnataka,Bengaluru,"Sanegurava Halli, Bengaluru - KSPCB",27-08-2025 22:00:00,12.990328,77.5431385,SO2,7,7,7
India,Karnataka,Bengaluru,"Sanegurava Halli, Bengaluru - KSPCB",27-08-2025 22:00:00,12.990328,77.5431385,CO,23,31,26
India,Karnataka,Bengaluru,"Shivapura_Peenya, Bengaluru - KSPCB",27-08-2025 22:00:00,13.0246342,77.5080115,NH3,4,4,4
India,Karnataka,Bengaluru,"Shivapura_Peenya, Bengaluru - KSPCB",27-08-2025 22:00:00,13.0246342,77.5080115,SO2,3,10,5
India,Karnataka,Bengaluru,"Shivapura_Peenya, Bengaluru - KSPCB",27-08-2025 22:00:00,13.0246342,77.5080115,OZONE,24,25,24
India,Karnataka,Bengaluru,"Silk Board, Bengaluru - KSPCB",27-08-2025 22:00:00,12.917348,77.622813,NO2,5,9,7
India,Karnataka,Bengaluru,"Silk Board, Bengaluru - KSPCB",27-08-2025 22:00:00,12.917348,77.622813,OZONE,24,34,29
India,Karnataka,Chikkaballapur,"Chikkaballapur Rural, Chikkaballapur - KSPCB",27-08-2025 22:00:00,13.428828,77.731418,PM2.5,2,20,10
India,Karnataka,Chikkaballapur,"Chikkaballapur Rural, Chikkaballapur - KSPCB",27-08-2025 22:00:00,13.428828,77.731418,PM10,4,30,16
India,Karnataka,Chikkamagaluru,"Kalyana Nagara, Chikkamagaluru - KSPCB",27-08-2025 22:00:00,13.328028,75.797056,PM10,23,28,27
India,Karnataka,Chikkamagaluru,"Kalyana Nagara, Chikkamagaluru - KSPCB",27-08-2025 22:00:00,13.328028,75.797056,NO2,19,26,20
India,Karnataka,Chikkamagaluru,"Kalyana Nagara, Chikkamagaluru - KSPCB",27-08-2025 22:00:00,13.328028,75.797056,NH3,2,3,2
India,Gujarat,Vapi,"Phase-1 GIDC, Vapi - GPCB",27-08-2025 22:00:00,20.362421,72.918013,PM2.5,NA,NA,NA
India,Gujarat,Vapi,"Phase-1 GIDC, Vapi - GPCB",27-08-2025 22:00:00,20.362421,72.918013,NO2,NA,NA,NA
India,Gujarat,Vatva,"Phase-4 GIDC, Vatva - GPCB",27-08-2025 22:00:00,22.969611,72.643500,PM10,74,123,99
India,Gujarat,Vatva,"Phase-4 GIDC, Vatva - GPCB",27-08-2025 22:00:00,22.969611,72.643500,NO2,17,18,17
India,Haryana,Gurugram,"NISE Gwal Pahari, Gurugram - IMD",27-08-2025 22:00:00,28.422681,77.148944,PM2.5,2,61,29
India,Haryana,Gurugram,"NISE Gwal Pahari, Gurugram - IMD",27-08-2025 22:00:00,28.422681,77.148944,CO,28,40,31
India,Haryana,Panchgaon,"Amity University, Panchgaon - IITM",27-08-2025 22:00:00,28.3153,76.9143,SO2,6,10,7
India,Himachal Pradesh,Baddi,"HIMUDA Complex Phase-1, Baddi - HPPCB",27-08-2025 22:00:00,30.943887,76.801991,PM10,48,119,77
India,Karnataka,Bengaluru,"BTM Layout, Bengaluru - CPCB",27-08-2025 22:00:00,12.9135218,77.5950804,CO,24,32,29
India,Karnataka,Bengaluru,"Bapuji Nagar, Bengaluru - KSPCB",27-08-2025 22:00:00,12.951913,77.539784,PM10,9,42,22
India,Karnataka,Bengaluru,"Bapuji Nagar, Bengaluru - KSPCB",27-08-2025 22:00:00,12.951913,77.539784,NO2,4,8,6
India,Karnataka,Bengaluru,"Hebbal, Bengaluru - KSPCB",27-08-2025 22:00:00,13.029152,77.585901,PM2.5,2,14,7
India,Karnataka,Bengaluru,"Hebbal, Bengaluru - KSPCB",27-08-2025 22:00:00,13.029152,77.585901,NO2,19,20,20
India,Karnataka,Bengaluru,"Hebbal, Bengaluru - KSPCB",27-08-2025 22:00:00,13.029152,77.585901,SO2,5,12,8
India,Karnataka,Bengaluru,"Hebbal, Bengaluru - KSPCB",27-08-2025 22:00:00,13.029152,77.585901,CO,10,37,22
India,Karnataka,Bengaluru,"Hombegowda Nagar, Bengaluru - KSPCB",27-08-2025 22:00:00,12.938539,77.590100,NO2,6,16,10
India,Gujarat,Gandhinagar,"GIFT City, Gandhinagar - IITM",27-08-2025 22:00:00,23.163798,72.677768,PM10,47,91,65
India,Gujarat,Gandhinagar,"GIFT City, Gandhinagar - IITM",27-08-2025 22:00:00,23.163798,72.677768,NO2,6,30,12
India,Gujarat,Gandhinagar,"GIFT City, Gandhinagar - IITM",27-08-2025 22:00:00,23.163798,72.677768,NH3,1,7,2
India,Gujarat,Gandhinagar,"IIPHG Lekawada, Gandhinagar - IITM",27-08-2025 22:00:00,23.243639,72.68994,PM10,52,85,64
India,Gujarat,Gandhinagar,"Sector-10, Gandhinagar - GPCB",27-08-2025 22:00:00,23.221714,72.654328,NH3,2,2,2
India,Gujarat,Gandhinagar,"Sector-10, Gandhinagar - GPCB",27-08-2025 22:00:00,23.221714,72.654328,OZONE,15,16,16
India,Gujarat,Surat,"Science Center, Surat - SMC",27-08-2025 22:00:00,21.170046,72.795405,NO2,5,22,14
India,Karnataka,Kalaburagi,"Mahatma Basaveswar Colony, Kalaburgi - KSPCB",27-08-2025 22:00:00,17.336318,76.847397,SO2,3,7,4
India,Karnataka,Karwar,"KHB Colony, Karwar - KSPCB",27-08-2025 22:00:00,14.816666,74.141003,NO2,2,44,10
India,Karnataka,Koppal,"Diwator Nagar, Koppal - KSPCB",27-08-2025 22:00:00,15.347630,76.181767,PM10,3,9,6
India,Karnataka,Madikeri,"Stuart Hill, Madikeri - KSPCB",27-08-2025 22:00:00,12.415911,75.735050,NH3,NA,NA,NA
India,Karnataka,Madikeri,"Stuart Hill, Madikeri - KSPCB",27-08-2025 22:00:00,12.415911,75.735050,OZONE,4,5,5
India,Karnataka,Bengaluru,"Jayanagar 5th Block, Bengaluru - KSPCB",27-08-2025 22:00:00,12.920984,77.584908,SO2,1,24,8
India,Karnataka,Bengaluru,"Jayanagar 5th Block, Bengaluru - KSPCB",27-08-2025 22:00:00,12.920984,77.584908,OZONE,27,114,74
India,Karnataka,Bengaluru,"Jigani, Bengaluru - KSPCB",27-08-2025 22:00:00,12.7816279,77.6299145,SO2,14,15,15
India,Karnataka,Bengaluru,"Jigani, Bengaluru - KSPCB",27-08-2025 22:00:00,12.7816279,77.6299145,CO,32,33,32
India,Karnataka,Bengaluru,"Jigani, Bengaluru - KSPCB",27-08-2025 22:00:00,12.7816279,77.6299145,OZONE,21,22,21
India,Karnataka,Bengaluru,"RVCE-Mailasandra, Bengaluru - KSPCB",27-08-2025 22:00:00,12.921418,77.502466,SO2,NA,NA,NA
India,Jharkhand,Dhanbad,"Sardar Patel Nagar, Dhanbad - JSPCB",27-08-2025 22:00:00,23.80569,86.44268,PM10,20,84,51
India,Jharkhand,Jorapokhar,"Tata Stadium, Jorapokhar - JSPCB",27-08-2025 22:00:00,23.707909,86.414670,PM10,39,84,62
India,Karnataka,Bagalkot,"Vidayagiri, Bagalkot - KSPCB",27-08-2025 22:00:00,16.172806,75.659694,NO2,9,10,9
India,Karnataka,Belgaum,"Ramteerth Nagar, Belgaum - KSPCB",27-08-2025 22:00:00,15.888653,74.541751,NH3,NA,NA,NA
India,Karnataka,Davanagere,"Devaraj Urs Badavane, Davanagere - KSPCB",27-08-2025 22:00:00,14.475800,75.905200,NH3,1,68,6
India,Karnataka,Hubballi,"Lingaraj Nagar, Hubballi - KSPCB",27-08-2025 22:00:00,15.3714823,75.1160168,OZONE,13,13,13
India,Gujarat,Ahmedabad,"SVPI Airport Hansol, Ahmedabad - IITM",27-08-2025 22:00:00,23.076793,72.627874,NO2,15,95,36
India,Gujarat,Ankleshwar,"GIDC, Ankleshwar - GPCB",27-08-2025 22:00:00,21.613267,73.010555,PM2.5,31,72,46
India,Madhya Pradesh,Indore,"Chhoti Gwaltoli, Indore - MPPCB",27-08-2025 22:00:00,22.4310,75.5213,SO2,8,10,9
India,Madhya Pradesh,Indore,"Maguda Nagar, Indore - IMC",27-08-2025 22:00:00,22.7524,75.8872,NO2,1,2,2
India,Madhya Pradesh,Indore,"Maguda Nagar, Indore - IMC",27-08-2025 22:00:00,22.7524,75.8872,SO2,32,41,35
India,Madhya Pradesh,Indore,"Maguda Nagar, Indore - IMC",27-08-2025 22:00:00,22.7524,75.8872,CO,16,53,23
India,Madhya Pradesh,Indore,"Maguda Nagar, Indore - IMC",27-08-2025 22:00:00,22.7524,75.8872,OZONE,8,12,9
India,Madhya Pradesh,Indore,"Regional Park, Indore - IMC",27-08-2025 22:00:00,22.6780,75.8559,NH3,1,1,1
India,Madhya Pradesh,Indore,"Regional Park, Indore - IMC",27-08-2025 22:00:00,22.6780,75.8559,SO2,46,49,48
India,Madhya Pradesh,Indore,"Residency Area, Indore - IMC",27-08-2025 22:00:00,22.7084,75.8815,PM2.5,8,32,23
India,Madhya Pradesh,Jabalpur,"Govindh Bhavan Colony, Jabalpur - JMC",27-08-2025 22:00:00,23.163174,79.973061,SO2,23,29,26
India,Madhya Pradesh,Jabalpur,"Govindh Bhavan Colony, Jabalpur - JMC",27-08-2025 22:00:00,23.163174,79.973061,OZONE,5,56,32
India,Kerala,Thiruvananthapuram,"Kariavattom, Thiruvananthapuram - Kerala PCB",27-08-2025 22:00:00,8.563700,76.886500,CO,29,85,48
India,Kerala,Thiruvananthapuram,"Plammoodu, Thiruvananthapuram - Kerala PCB",27-08-2025 22:00:00,8.5149093,76.9435879,PM10,1,96,27
India,Kerala,Thiruvananthapuram,"Plammoodu, Thiruvananthapuram - Kerala PCB",27-08-2025 22:00:00,8.5149093,76.9435879,NH3,6,8,7
India,Kerala,Thiruvananthapuram,"Plammoodu, Thiruvananthapuram - Kerala PCB",27-08-2025 22:00:00,8.5149093,76.9435879,OZONE,13,16,14
India,Kerala,Thrissur,"Corporation Ground, Thrissur - Kerala PCB",27-08-2025 22:00:00,10.532400,76.215900,NO2,7,10,8
India,Madhya Pradesh,Bhopal,"Idgah Hills, Bhopal - MPPCB",27-08-2025 22:00:00,23.264759,77.381568,PM2.5,13,23,19
India,Madhya Pradesh,Bhopal,"Idgah Hills, Bhopal - MPPCB",27-08-2025 22:00:00,23.264759,77.381568,OZONE,17,40,33
India,Madhya Pradesh,Mandideep,"Sector-D Industrial Area, Mandideep - MPPCB",27-08-2025 22:00:00,23.108440,77.511428,NO2,11,35,21
India,Madhya Pradesh,Mandideep,"Sector-D Industrial Area, Mandideep - MPPCB",27-08-2025 22:00:00,23.108440,77.511428,NH3,3,4,3
India,Madhya Pradesh,Mandideep,"Sector-D Industrial Area, Mandideep - MPPCB",27-08-2025 22:00:00,23.108440,77.511428,SO2,9,49,15
India,Madhya Pradesh,Sagar,"Civil Lines, Sagar - MPPCB",27-08-2025 22:00:00,23.838586,78.759431,PM2.5,NA,NA,NA
India,Madhya Pradesh,Sagar,"Civil Lines, Sagar - MPPCB",27-08-2025 22:00:00,23.838586,78.759431,CO,NA,NA,NA
India,Madhya Pradesh,Sagar,"Civil Lines, Sagar - MPPCB",27-08-2025 22:00:00,23.838586,78.759431,OZONE,4,58,35
India,Madhya Pradesh,Sagar,"Deen Dayal Nagar, Sagar - MPPCB",27-08-2025 22:00:00,23.8640158,78.80289321,PM2.5,1,56,17
India,Madhya Pradesh,Bhopal,"Paryavaran Parisar, Bhopal - MPPCB",27-08-2025 22:00:00,23.210494,77.425409,NO2,6,18,10
India,Madhya Pradesh,Bhopal,"T T Nagar, Bhopal - MPPCB",27-08-2025 22:00:00,23.233584,77.400574,PM2.5,20,38,27
India,Madhya Pradesh,Bhopal,"T T Nagar, Bhopal - MPPCB",27-08-2025 22:00:00,23.233584,77.400574,NO2,11,31,17
India,Madhya Pradesh,Bhopal,"T T Nagar, Bhopal - MPPCB",27-08-2025 22:00:00,23.233584,77.400574,SO2,14,27,21
India,Madhya Pradesh,Bhopal,"T T Nagar, Bhopal - MPPCB",27-08-2025 22:00:00,23.233584,77.400574,OZONE,7,26,11
India,Madhya Pradesh,Damoh,"Shrivastav Colony, Damoh - MPPCB",27-08-2025 22:00:00,23.81748678,79.446246,SO2,16,18,16
India,Madhya Pradesh,Damoh,"Shrivastav Colony, Damoh - MPPCB",27-08-2025 22:00:00,23.81748678,79.446246,CO,20,28,25
India,Karnataka,Mangalore,"Kadri, Mangalore - KSPCB",27-08-2025 22:00:00,12.889250,74.853000,SO2,7,7,7
India,Karnataka,Mysuru,"Hebbal 1st Stage, Mysuru - KSPCB",27-08-2025 22:00:00,12.21041,76.37376,NH3,2,6,5
India,Karnataka,Shivamogga,"Vinoba Nagara, Shivamogga - KSPCB",27-08-2025 22:00:00,13.940000,75.555917,OZONE,36,70,42
India,Karnataka,Vijayapura,"Ibrahimpur, Vijayapura - KSPCB",27-08-2025 22:00:00,16.802639,75.722694,NH3,1,2,1
India,Karnataka,Yadgir,"Collector Office, Yadgir - KSPCB",27-08-2025 22:00:00,16.7602,77.1428,SO2,14,22,18
India,Kerala,Kannur,"Thavakkara, Kannur - Kerala PCB",27-08-2025 22:00:00,11.875000,75.373200,PM2.5,49,56,52
India,Kerala,Kannur,"Thavakkara, Kannur - Kerala PCB",27-08-2025 22:00:00,11.875000,75.373200,NH3,1,2,2
India,Kerala,Kollam,"Polayathode, Kollam - Kerala PCB",27-08-2025 22:00:00,8.8787,76.6073,OZONE,28,34,32
India,Madhya Pradesh,Jabalpur,"Gupteshwar, Jabalpur - JMC",27-08-2025 22:00:00,23.142888,79.916147,PM10,NA,NA,NA
India,Madhya Pradesh,Jabalpur,"Marhatal, Jabalpur - MPPCB",27-08-2025 22:00:00,23.168606,79.932247,PM2.5,20,55,31
India,Madhya Pradesh,Jabalpur,"Suhagi, Jabalpur - JMC",27-08-2025 22:00:00,23.218135,79.957770,OZONE,8,47,26
India,Madhya Pradesh,Katni,"Gole Bazar, Katni - MPPCB",27-08-2025 22:00:00,23.50016,80.23284,OZONE,12,66,50
India,Madhya Pradesh,Gwalior,"City Center, Gwalior - MPPCB",27-08-2025 22:00:00,26.203442,78.193251,SO2,16,32,21
India,Madhya Pradesh,Gwalior,"City Center, Gwalior - MPPCB",27-08-2025 22:00:00,26.203442,78.193251,CO,20,58,45
India,Madhya Pradesh,Gwalior,"Deen Dayal Nagar, Gwalior - MPPCB",27-08-2025 22:00:00,26.259242,78.216432,OZONE,25,62,49
India,Madhya Pradesh,Indore,"Airport Area, Indore - IMC",27-08-2025 22:00:00,22.7289,75.8076,CO,4,5,5
India,Madhya Pradesh,Sagar,"Deen Dayal Nagar, Sagar - MPPCB",27-08-2025 22:00:00,23.8640158,78.80289321,CO,14,29,19
India,Maharashtra,Ahmednagar,"Tarakpur, Ahmednagar - MPCB",27-08-2025 22:00:00,19.10122,74.73339,CO,26,50,37
India,Maharashtra,Akola,"Ramdaspeth, Akola - MPCB",27-08-2025 22:00:00,20.719516,77.000253,PM10,17,38,27
India,Maharashtra,Aurangabad,"Rachnakar Colony, Aurangabad - MPCB",27-08-2025 22:00:00,19.863756,75.321188,NH3,2,6,3
India,Maharashtra,Aurangabad,"Rachnakar Colony, Aurangabad - MPCB",27-08-2025 22:00:00,19.863756,75.321188,CO,11,18,14
India,Maharashtra,Aurangabad,"Rachnakar Colony, Aurangabad - MPCB",27-08-2025 22:00:00,19.863756,75.321188,OZONE,11,33,31
India,Maharashtra,Badlapur,"Katrap, Badlapur - MPCB",27-08-2025 22:00:00,19.16485,73.23409,PM10,28,103,54
India,Maharashtra,Badlapur,"Katrap, Badlapur - MPCB",27-08-2025 22:00:00,19.16485,73.23409,NH3,5,8,6
India,Maharashtra,Badlapur,"Katrap, Badlapur - MPCB",27-08-2025 22:00:00,19.16485,73.23409,SO2,8,18,12
India,Maharashtra,Belapur,"CBD Belapur, Belapur - MPCB",27-08-2025 22:00:00,19.0243902,73.0406721,NH3,1,3,2
India,Maharashtra,Belapur,"CBD Belapur, Belapur - MPCB",27-08-2025 22:00:00,19.0243902,73.0406721,SO2,1,3,1
India,Maharashtra,Belapur,"CBD Belapur, Belapur - MPCB",27-08-2025 22:00:00,19.0243902,73.0406721,OZONE,11,118,32
India,Maharashtra,Bhiwandi,"Gokul Nagar, Bhiwandi - MPCB",27-08-2025 22:00:00,19.309073,73.057223,OZONE,13,40,29
India,Maharashtra,Mumbai,"Ghatkopar, Mumbai - BMC",27-08-2025 22:00:00,19.083694,72.920967,NO2,13,35,21
India,Maharashtra,Mumbai,"Ghatkopar, Mumbai - BMC",27-08-2025 22:00:00,19.083694,72.920967,OZONE,10,16,12
India,Maharashtra,Mumbai,"Kandivali East, Mumbai - MPCB",27-08-2025 22:00:00,19.205800,72.868200,NO2,6,10,7
India,Maharashtra,Mumbai,"Kandivali East, Mumbai - MPCB",27-08-2025 22:00:00,19.205800,72.868200,CO,12,17,12
India,Maharashtra,Mumbai,"Kandivali West, Mumbai - BMC",27-08-2025 22:00:00,19.215859,72.831718,NH3,2,3,3
India,Maharashtra,Mumbai,"Kandivali West, Mumbai - BMC",27-08-2025 22:00:00,19.215859,72.831718,SO2,1,3,1
India,Maharashtra,Mumbai,"Kherwadi_Bandra East, Mumbai - MPCB",27-08-2025 22:00:00,19.0632143,72.8456324,PM10,22,51,37
India,Maharashtra,Mumbai,"Kherwadi_Bandra East, Mumbai - MPCB",27-08-2025 22:00:00,19.0632143,72.8456324,SO2,3,3,3
India,Maharashtra,Mumbai,"Khindipada-Bhandup West, Mumbai - IITM",27-08-2025 22:00:00,19.1653323,72.922099,PM10,14,44,28
India,Maharashtra,Mumbai,"Borivali East, Mumbai - IITM",27-08-2025 22:00:00,19.23241,72.86895,NO2,34,51,42
India,Maharashtra,Mumbai,"Byculla, Mumbai - BMC",27-08-2025 22:00:00,18.9767,72.8380,NO2,6,18,12
India,Maharashtra,Mumbai,"Byculla, Mumbai - BMC",27-08-2025 22:00:00,18.9767,72.8380,NH3,1,3,1
India,Maharashtra,Mumbai,"Chakala-Andheri East, Mumbai - IITM",27-08-2025 22:00:00,19.11074,72.86084,NH3,2,2,2
India,Maharashtra,Mumbai,"Chakala-Andheri East, Mumbai - IITM",27-08-2025 22:00:00,19.11074,72.86084,SO2,1,20,5
India,Maharashtra,Mumbai,"Chembur, Mumbai - MPCB",27-08-2025 22:00:00,19.0364585,72.8954371,PM2.5,11,39,26
India,Maharashtra,Mumbai,"Chembur, Mumbai - MPCB",27-08-2025 22:00:00,19.0364585,72.8954371,NH3,4,11,6
India,Maharashtra,Mumbai,"Chembur, Mumbai - MPCB",27-08-2025 22:00:00,19.0364585,72.8954371,SO2,2,4,3
India,Maharashtra,Mumbai,"Chembur, Mumbai - MPCB",27-08-2025 22:00:00,19.0364585,72.8954371,CO,22,38,24
India,Maharashtra,Jalna,"Old MIDC, Jalna - MPCB",27-08-2025 22:00:00,19.854616,75.905894,PM2.5,NA,NA,NA
India,Maharashtra,Jalna,"Old MIDC, Jalna - MPCB",27-08-2025 22:00:00,19.854616,75.905894,NO2,NA,NA,NA
India,Maharashtra,Kolhapur,"Shivaji University, Kolhapur - MPCB",27-08-2025 22:00:00,16.6870449,74.2505872,PM2.5,NA,NA,NA
India,Maharashtra,Kolhapur,"Shivaji University, Kolhapur - MPCB",27-08-2025 22:00:00,16.6870449,74.2505872,NO2,NA,NA,NA
India,Maharashtra,Kolhapur,"Shivaji University, Kolhapur - MPCB",27-08-2025 22:00:00,16.6870449,74.2505872,NH3,NA,NA,NA
India,Maharashtra,Kolhapur,"Sinchan Bhavan, Kolhapur - MPCB",27-08-2025 22:00:00,16.7143745,74.2426398,CO,4,7,5
India,Maharashtra,Latur,"Sawe Wadi, Latur - MPCB",27-08-2025 22:00:00,18.39963,76.57452,PM2.5,15,92,37
India,Maharashtra,Mumbai,"Khindipada-Bhandup West, Mumbai - IITM",27-08-2025 22:00:00,19.1653323,72.922099,SO2,1,8,5
India,Maharashtra,Mumbai,"Kurla, Mumbai - MPCB",27-08-2025 22:00:00,19.0863,72.8888,OZONE,27,29,28
India,Maharashtra,Mumbai,"Malad West, Mumbai - IITM",27-08-2025 22:00:00,19.19709,72.82204,PM2.5,2,25,11
India,Maharashtra,Mumbai,"Malad West, Mumbai - IITM",27-08-2025 22:00:00,19.19709,72.82204,NO2,10,17,13
India,Maharashtra,Mumbai,"Mindspace-Malad West, Mumbai - MPCB",27-08-2025 22:00:00,19.1878657,72.8304069,NH3,NA,NA,NA
India,Maharashtra,Mumbai,"Mindspace-Malad West, Mumbai - MPCB",27-08-2025 22:00:00,19.1878657,72.8304069,CO,30,31,30
India,Maharashtra,Boisar,"Khaira, Boisar - MPCB",27-08-2025 22:00:00,19.786089,72.757971,CO,22,78,50
India,Maharashtra,Chandrapur,"Chauhan Colony, Chandrapur - MPCB",27-08-2025 22:00:00,19.962900,79.298714,PM2.5,7,51,23
India,Maharashtra,Chandrapur,"Chauhan Colony, Chandrapur - MPCB",27-08-2025 22:00:00,19.962900,79.298714,PM10,8,79,28
India,Maharashtra,Chandrapur,"Chauhan Colony, Chandrapur - MPCB",27-08-2025 22:00:00,19.962900,79.298714,SO2,28,29,28
India,Maharashtra,Chandrapur,"MIDC Khutala, Chandrapur - MPCB",27-08-2025 22:00:00,19.9775302,79.2337086,NH3,1,2,1
India,Maharashtra,Mumbai,"Chhatrapati Shivaji Intl. Airport (T2), Mumbai - MPCB",27-08-2025 22:00:00,19.10078,72.87462,SO2,20,21,20
India,Maharashtra,Mumbai,"Chhatrapati Shivaji Intl. Airport (T2), Mumbai - MPCB",27-08-2025 22:00:00,19.10078,72.87462,OZONE,7,7,7
India,Maharashtra,Mumbai,"Colaba, Mumbai - MPCB",27-08-2025 22:00:00,18.910000,72.820000,NH3,3,3,3
India,Maharashtra,Mumbai,"Colaba, Mumbai - MPCB",27-08-2025 22:00:00,18.910000,72.820000,OZONE,6,13,12
India,Maharashtra,Mumbai,"Deonar, Mumbai - IITM",27-08-2025 22:00:00,19.04946,72.9230,CO,1,18,7
India,Maharashtra,Latur,"Sawe Wadi, Latur - MPCB",27-08-2025 22:00:00,18.39963,76.57452,NO2,5,33,15
India,Maharashtra,Malegaon,"Mahesh Nagar, Malegaon - MPCB",27-08-2025 22:00:00,20.555712,74.529236,PM2.5,29,53,41
India,Maharashtra,Malegaon,"Mahesh Nagar, Malegaon - MPCB",27-08-2025 22:00:00,20.555712,74.529236,CO,18,70,39
India,Maharashtra,Mira-Bhayandar,"Bhayandar West, Mira-Bhayandar - MPCB",27-08-2025 22:00:00,19.296481,72.840923,PM10,25,39,30
India,Maharashtra,Amravati,"Shivneri Colony, Amravati - MPCB",27-08-2025 22:00:00,20.9402359,77.7895248,SO2,9,11,10
India,Maharashtra,Amravati,"Shivneri Colony, Amravati - MPCB",27-08-2025 22:00:00,20.9402359,77.7895248,OZONE,9,29,22
India,Maharashtra,Aurangabad,"More Chowk Waluj, Aurangabad - MPCB",27-08-2025 22:00:00,19.8389439,75.244448,PM10,47,55,50
India,Maharashtra,Aurangabad,"More Chowk Waluj, Aurangabad - MPCB",27-08-2025 22:00:00,19.8389439,75.244448,NH3,10,11,11
India,Maharashtra,Aurangabad,"More Chowk Waluj, Aurangabad - MPCB",27-08-2025 22:00:00,19.8389439,75.244448,OZONE,9,24,17
India,Maharashtra,Mumbai,"Worli, Mumbai - MPCB",27-08-2025 22:00:00,18.9936162,72.8128113,OZONE,20,20,20
India,Maharashtra,Nagpur,"Ambazari, Nagpur - MPCB",27-08-2025 22:00:00,21.121801,79.04952,PM10,18,47,26
India,Maharashtra,Nagpur,"Opp GPO Civil Lines, Nagpur - MPCB",27-08-2025 22:00:00,21.152875,79.0517531,PM2.5,11,42,25
India,Maharashtra,Nagpur,"Opp GPO Civil Lines, Nagpur - MPCB",27-08-2025 22:00:00,21.152875,79.0517531,SO2,NA,NA,NA
India,Maharashtra,Nagpur,"Opp GPO Civil Lines, Nagpur - MPCB",27-08-2025 22:00:00,21.152875,79.0517531,CO,9,52,28
India,Maharashtra,Nagpur,"Ram Nagar, Nagpur - MPCB",27-08-2025 22:00:00,21.143383,79.048912,PM2.5,13,45,29
India,Maharashtra,Nagpur,"Ram Nagar, Nagpur - MPCB",27-08-2025 22:00:00,21.143383,79.048912,NH3,1,4,2
India,Maharashtra,Nagpur,"Ram Nagar, Nagpur - MPCB",27-08-2025 22:00:00,21.143383,79.048912,OZONE,2,10,6
India,Maharashtra,Solapur,"Dnyaneshwar Nagar, Solapur - MPCB",27-08-2025 22:00:00,17.6336264,75.9132495,PM10,5,51,21
India,Maharashtra,Solapur,"Dnyaneshwar Nagar, Solapur - MPCB",27-08-2025 22:00:00,17.6336264,75.9132495,SO2,1,2,1
India,Maharashtra,Solapur,"Ratandeep Housing Society, Solapur - MPCB",27-08-2025 22:00:00,17.65439,75.90649,CO,8,53,33
India,Maharashtra,Thane,"Kasarvadavali, Thane - MPCB",27-08-2025 22:00:00,19.26777,72.97182,NO2,8,15,11
India,Maharashtra,Thane,"Upvan Fort, Thane - MPCB",27-08-2025 22:00:00,19.222279,72.957979,PM10,36,53,43
India,Maharashtra,Ulhasnagar,"Sidhi Vinayak Nagar, Ulhasnagar - MPCB",27-08-2025 22:00:00,19.235581,73.159121,PM2.5,36,66,48
India,Maharashtra,Mumbai,"Navy Nagar-Colaba, Mumbai - IITM",27-08-2025 22:00:00,18.897756,72.813320,NO2,7,16,11
India,Maharashtra,Mumbai,"Powai, Mumbai - MPCB",27-08-2025 22:00:00,19.137500,72.915056,CO,22,22,22
India,Maharashtra,Mumbai,"Powai, Mumbai - MPCB",27-08-2025 22:00:00,19.137500,72.915056,OZONE,9,9,9
India,Maharashtra,Mumbai,"Sewri, Mumbai - BMC",27-08-2025 22:00:00,19.000084,72.856730,PM10,16,33,26
India,Maharashtra,Mumbai,"Sewri, Mumbai - BMC",27-08-2025 22:00:00,19.000084,72.856730,NO2,NA,NA,NA
India,Maharashtra,Mumbai,"Shivaji Nagar, Mumbai - BMC",27-08-2025 22:00:00,19.060498,72.923356,PM10,NA,NA,NA
India,Maharashtra,Mumbai,"Shivaji Nagar, Mumbai - BMC",27-08-2025 22:00:00,19.060498,72.923356,NH3,NA,NA,NA
India,Maharashtra,Mumbai,"Shivaji Nagar, Mumbai - BMC",27-08-2025 22:00:00,19.060498,72.923356,OZONE,NA,NA,NA
India,Maharashtra,Pune,"Katraj Dairy, Pune - MPCB",27-08-2025 22:00:00,18.454450,73.854155,NO2,2,11,7
India,Maharashtra,Pune,"Mhada Colony, Pune - IITM",27-08-2025 22:00:00,18.573040,73.927715,OZONE,5,18,12
India,Maharashtra,Pune,"Panchawati_Pashan, Pune - IITM",27-08-2025 22:00:00,18.536457,73.805454,NO2,15,34,20
India,Maharashtra,Pune,"Transport Nagar-Nigdi, Pune - IITM",27-08-2025 22:00:00,18.664282,73.763966,PM2.5,6,34,18
India,Maharashtra,Sangli,"Vijay Nagar, Sangli - MPCB",27-08-2025 22:00:00, 16.5038,74.3623,SO2,9,12,11
India,Maharashtra,Mumbai,"Siddharth Nagar-Worli, Mumbai - IITM",27-08-2025 22:00:00,19.000083,72.813993,NH3,5,5,5
India,Maharashtra,Mumbai,"Sion, Mumbai - MPCB",27-08-2025 22:00:00,19.047000,72.874600,PM10,19,29,24
India,Maharashtra,Mumbai,"Vasai West, Mumbai - MPCB",27-08-2025 22:00:00,19.383200,72.820400,PM2.5,NA,NA,NA
India,Maharashtra,Mumbai,"Vasai West, Mumbai - MPCB",27-08-2025 22:00:00,19.383200,72.820400,SO2,10,79,16
India,Maharashtra,Mumbai,"Vasai West, Mumbai - MPCB",27-08-2025 22:00:00,19.383200,72.820400,CO,30,53,51
India,Maharashtra,Mumbai,"Worli, Mumbai - MPCB",27-08-2025 22:00:00,18.9936162,72.8128113,PM10,57,72,64
India,Maharashtra,Nanded,"Sneh Nagar, Nanded - MPCB",27-08-2025 22:00:00,19.173852,77.296291,OZONE,24,33,28
India,Maharashtra,Nashik,"Gangapur Road, Nashik - MPCB",27-08-2025 22:00:00,20.0073285,73.7762427,NO2,5,5,5
India,Maharashtra,Nashik,"Hirawadi, Nashik - MPCB",27-08-2025 22:00:00,20.021503,73.813844,NO2,1,5,3
India,Maharashtra,Nashik,"MIDC Ambad, Nashik - MPCB",27-08-2025 22:00:00,19.950220,73.731480,NO2,3,12,7
India,Maharashtra,Nashik,"Pandav Nagari, Nashik - MPCB",27-08-2025 22:00:00,19.9591346,73.7788008,PM2.5,8,31,15
India,Maharashtra,Navi Mumbai,"Sector-2E Kalamboli, Navi Mumbai - MPCB",27-08-2025 22:00:00,19.02579,73.10297,NO2,20,145,48
India,Maharashtra,Parbhani,"Masoom Colony, Parbhani - MPCB",27-08-2025 22:00:00,19.265594,76.761463,PM10,18,58,33
India,Maharashtra,Parbhani,"Masoom Colony, Parbhani - MPCB",27-08-2025 22:00:00,19.265594,76.761463,SO2,NA,NA,NA
India,Maharashtra,Pimpri-Chinchwad,"Gavalinagar, Pimpri Chinchwad - MPCB",27-08-2025 22:00:00,18.63673,73.82487,PM10,NA,NA,NA
India,Maharashtra,Pimpri-Chinchwad,"Gavalinagar, Pimpri Chinchwad - MPCB",27-08-2025 22:00:00,18.63673,73.82487,NO2,NA,NA,NA
India,Maharashtra,Pimpri-Chinchwad,"Gavalinagar, Pimpri Chinchwad - MPCB",27-08-2025 22:00:00,18.63673,73.82487,OZONE,NA,NA,NA
India,Maharashtra,Nashik,"Pandav Nagari, Nashik - MPCB",27-08-2025 22:00:00,19.9591346,73.7788008,OZONE,4,16,13
India,Maharashtra,Navi Mumbai,"Kopripada-Vashi, Navi Mumbai - MPCB",27-08-2025 22:00:00,19.090337,73.014232,SO2,4,11,5
India,Maharashtra,Navi Mumbai,"Kopripada-Vashi, Navi Mumbai - MPCB",27-08-2025 22:00:00,19.090337,73.014232,OZONE,1,32,18
India,Maharashtra,Navi Mumbai,"Sanpada, Navi Mumbai - MPCB",27-08-2025 22:00:00,19.0575752,73.0151367,PM2.5,NA,NA,NA
India,Maharashtra,Navi Mumbai,"Sanpada, Navi Mumbai - MPCB",27-08-2025 22:00:00,19.0575752,73.0151367,CO,8,26,13
India,Maharashtra,Pimpri-Chinchwad,"Savta Mali Nagar, Pimpri-Chinchwad - IITM",27-08-2025 22:00:00,18.614767,73.799516,PM2.5,8,37,20
India,Maharashtra,Pimpri-Chinchwad,"Savta Mali Nagar, Pimpri-Chinchwad - IITM",27-08-2025 22:00:00,18.614767,73.799516,OZONE,5,19,15
India,Maharashtra,Pune,"Bhosari, Pune - IITM",27-08-2025 22:00:00,18.640051,73.848956,CO,36,81,55
India,Maharashtra,Pune,"Katraj Dairy, Pune - MPCB",27-08-2025 22:00:00,18.454450,73.854155,PM2.5,9,38,20
India,Punjab,Amritsar,"Golden Temple, Amritsar - PPCB",27-08-2025 22:00:00,31.620000,74.876512,NH3,5,7,6
India,Punjab,Amritsar,"Golden Temple, Amritsar - PPCB",27-08-2025 22:00:00,31.620000,74.876512,CO,19,32,24
India,Punjab,Jalandhar,"Civil Line, Jalandhar - PPCB",27-08-2025 22:00:00,31.321907,75.578914,PM2.5,21,47,36
India,Punjab,Khanna,"Kalal Majra, Khanna - PPCB",27-08-2025 22:00:00,30.736056 ,76.209694,PM10,23,92,52
India,Punjab,Khanna,"Kalal Majra, Khanna - PPCB",27-08-2025 22:00:00,30.736056 ,76.209694,SO2,2,8,5
India,Punjab,Ludhiana,"Punjab Agricultural University, Ludhiana - PPCB",27-08-2025 22:00:00,30.9028,75.8086,PM2.5,46,58,49
India,Punjab,Ludhiana,"Punjab Agricultural University, Ludhiana - PPCB",27-08-2025 22:00:00,30.9028,75.8086,PM10,56,70,59
India,Rajasthan,Bhilwara,"Pratap Nagar, Bhilwara - RSPCB",27-08-2025 22:00:00,25.339605,74.618883,NO2,6,26,18
India,Rajasthan,Bhiwadi,"RIICO Ind. Area III, Bhiwadi - RSPCB",27-08-2025 22:00:00,28.194909,76.862296,CO,9,101,35
India,Rajasthan,Bhiwadi,"Vasundhara Nagar_UIT, Bhiwadi - RSPCB",27-08-2025 22:00:00,28.207266,76.829265,PM2.5,14,214,66
India,Rajasthan,Bhiwadi,"Vasundhara Nagar_UIT, Bhiwadi - RSPCB",27-08-2025 22:00:00,28.207266,76.829265,SO2,7,18,12
India,Rajasthan,Bhiwadi,"Vasundhara Nagar_UIT, Bhiwadi - RSPCB",27-08-2025 22:00:00,28.207266,76.829265,OZONE,10,24,18
India,Rajasthan,Bikaner,"MM Ground, Bikaner - RSPCB",27-08-2025 22:00:00,28.018792,73.292658,NO2,5,56,18
India,Rajasthan,Bundi,"New Colony, Bundi - RSPCB",27-08-2025 22:00:00,25.435774,75.644272,PM2.5,5,26,12
India,Odisha,Angul,"Hakimapada, Angul - OSPCB",27-08-2025 22:00:00,20.832874,85.104082,SO2,5,40,10
India,Odisha,Barbil,"Forest Office, Barbil - OSPCB",27-08-2025 22:00:00,22.1166054,85.3945546,CO,18,41,26
India,Odisha,Baripada,"Meher Colony, Baripada - OSPCB",27-08-2025 22:00:00,21.941841,86.728318,PM2.5,20,41,27
India,Odisha,Baripada,"Meher Colony, Baripada - OSPCB",27-08-2025 22:00:00,21.941841,86.728318,NO2,1,9,3
India,Odisha,Baripada,"Meher Colony, Baripada - OSPCB",27-08-2025 22:00:00,21.941841,86.728318,CO,4,38,11
India,Odisha,Baripada,"Meher Colony, Baripada - OSPCB",27-08-2025 22:00:00,21.941841,86.728318,OZONE,3,16,12
India,Odisha,Bhubaneswar,"Lingraj Mandir, Bhubaneswar - OSPCB",27-08-2025 22:00:00,20.240790,85.836784,PM10,10,55,25
India,Odisha,Rourkela,"Raghunathpali, Rourkela - OSPCB",27-08-2025 22:00:00,22.220833,84.809444,OZONE,8,16,13
India,Odisha,Talcher,"Talcher Coalfields,Talcher - OSPCB",27-08-2025 22:00:00,20.9360711,85.1707021,NO2,40,56,47
India,Odisha,Tensa,"Barsua Iron Ore Mines, Tensa - OSPCB",27-08-2025 22:00:00,21.869985,85.167016,CO,30,58,33
India,Odisha,Tensa,"Barsua Iron Ore Mines, Tensa - OSPCB",27-08-2025 22:00:00,21.869985,85.167016,OZONE,10,26,14
India,Puducherry,Puducherry,"Jawahar Nagar, Puducherry - PPCC",27-08-2025 22:00:00,11.9309,79.8027,PM10,26,104,39
India,Puducherry,Puducherry,"Jawahar Nagar, Puducherry - PPCC",27-08-2025 22:00:00,11.9309,79.8027,SO2,6,13,8
India,Punjab,Patiala,"Model Town, Patiala - PPCB",27-08-2025 22:00:00,30.349388,76.366642,OZONE,14,18,16
India,Punjab,Rupnagar,"Ratanpura, Rupnagar - Ambuja Cements",27-08-2025 22:00:00,31.0325454,76.5623046,PM10,32,75,50
India,Rajasthan,Ajmer,"Civil Lines,  Ajmer - RSPCB",27-08-2025 22:00:00,26.470859,74.646594,PM10,54,102,68
India,Rajasthan,Ajmer,"Civil Lines,  Ajmer - RSPCB",27-08-2025 22:00:00,26.470859,74.646594,CO,40,105,58
India,Rajasthan,Ajmer,"Civil Lines,  Ajmer - RSPCB",27-08-2025 22:00:00,26.470859,74.646594,OZONE,8,15,11
India,Rajasthan,Alwar,"Moti Doongri, Alwar - RSPCB",27-08-2025 22:00:00,27.554793,76.611536,PM10,38,88,52
India,Rajasthan,Banswara,"Rati Talai, Banswara - RSPCB",27-08-2025 22:00:00,23.555190,74.440010,PM2.5,12,53,35
India,Rajasthan,Banswara,"Rati Talai, Banswara - RSPCB",27-08-2025 22:00:00,23.555190,74.440010,NO2,4,18,8
India,Rajasthan,Baran,"Bamboliya, Baran - RSPCB",27-08-2025 22:00:00,25.106006,76.469948,CO,22,32,27
India,Rajasthan,Barmer,"Railway Colony, Barmer - RSPCB",27-08-2025 22:00:00,25.747299,71.393989,PM2.5,5,56,28
India,Rajasthan,Bharatpur,"Krishna Nagar, Bharatpur - RSPCB",27-08-2025 22:00:00,27.215415,77.50873,NO2,12,34,17
India,Rajasthan,Bharatpur,"Krishna Nagar, Bharatpur - RSPCB",27-08-2025 22:00:00,27.215415,77.50873,CO,1,48,40
India,Odisha,Bhubaneswar,"Patia, Bhubaneswar - OSPCB",27-08-2025 22:00:00,20.34652,85.81630,NH3,4,5,5
India,Odisha,Bhubaneswar,"Patia, Bhubaneswar - OSPCB",27-08-2025 22:00:00,20.34652,85.81630,SO2,2,4,3
India,Odisha,Bhubaneswar,"Patia, Bhubaneswar - OSPCB",27-08-2025 22:00:00,20.34652,85.81630,CO,32,56,42
India,Odisha,Brajrajnagar,"GM Office, Brajrajnagar - OSPCB",27-08-2025 22:00:00,21.8004996,83.8396977,NH3,4,9,7
India,Odisha,Byasanagar,"Ferro Chrome Colony, Byasanagar - OSPCB",27-08-2025 22:00:00,20.94185,86.11510,NO2,17,24,19
India,Odisha,Byasanagar,"Ferro Chrome Colony, Byasanagar - OSPCB",27-08-2025 22:00:00,20.94185,86.11510,OZONE,14,38,32
India,Odisha,Keonjhar,"Jagamohanpur, Keonjhar - OSPCB",27-08-2025 22:00:00,21.643900,85.599355,OZONE,16,20,18
India,Odisha,Nayagarh,"Dabuna, Nayagarh - OSPCB",27-08-2025 22:00:00,21.847279,85.416905,PM10,22,24,22
India,Odisha,Nayagarh,"Dabuna, Nayagarh - OSPCB",27-08-2025 22:00:00,21.847279,85.416905,CO,16,22,19
India,Odisha,Rourkela,"Fertilizer Township, Rourkela - OSPCB",27-08-2025 22:00:00,22.18972222,84.86277778,PM2.5,55,72,60
India,Odisha,Rourkela,"Fertilizer Township, Rourkela - OSPCB",27-08-2025 22:00:00,22.18972222,84.86277778,CO,22,29,24
India,Maharashtra,Ulhasnagar,"Sidhi Vinayak Nagar, Ulhasnagar - MPCB",27-08-2025 22:00:00,19.235581,73.159121,SO2,8,19,14
India,Maharashtra,Ulhasnagar,"Sidhi Vinayak Nagar, Ulhasnagar - MPCB",27-08-2025 22:00:00,19.235581,73.159121,OZONE,13,36,28
India,Maharashtra,Virar,"Bolinj, Virar - MPCB",27-08-2025 22:00:00,19.4458210,72.7988231,NH3,NA,NA,NA
India,Nagaland,Kohima,"PWD Junction, Kohima - NPCB",27-08-2025 22:00:00,25.6635413,94.0989878,OZONE,6,11,10
India,Rajasthan,Jaisalmer,"Sadar Bazar, Jaisalmer - RSPCB",27-08-2025 22:00:00,26.912329,70.909168,CO,13,76,42
India,Rajasthan,Jaisalmer,"Sadar Bazar, Jaisalmer - RSPCB",27-08-2025 22:00:00,26.912329,70.909168,OZONE,27,70,51
India,Rajasthan,Jalore,"Mudtra Sili, Jalore - RSPCB",27-08-2025 22:00:00,25.344694,72.626208,PM2.5,19,68,35
India,Rajasthan,Jalore,"Mudtra Sili, Jalore - RSPCB",27-08-2025 22:00:00,25.344694,72.626208,NO2,5,32,15
India,Rajasthan,Jhalawar,"Rajlaxmi Nagar, Jhalawar - RSPCB",27-08-2025 22:00:00,24.588397,76.172782,NH3,2,3,2
India,Rajasthan,Jhalawar,"Rajlaxmi Nagar, Jhalawar - RSPCB",27-08-2025 22:00:00,24.588397,76.172782,SO2,7,9,7
India,Rajasthan,Rajsamand,"Dhoinda, Rajsamand - RSPCB",27-08-2025 22:00:00,25.036360,73.883502,PM10,37,103,54
India,Rajasthan,Rajsamand,"Dhoinda, Rajsamand - RSPCB",27-08-2025 22:00:00,25.036360,73.883502,NO2,3,9,4
India,Rajasthan,Rajsamand,"Dhoinda, Rajsamand - RSPCB",27-08-2025 22:00:00,25.036360,73.883502,SO2,7,13,8
India,Rajasthan,Sawai Madhopur,"Sahu Nagar, Sawai Madhopur - RSPCB",27-08-2025 22:00:00,26.031443,76.359327,PM2.5,5,137,23
India,Rajasthan,Sawai Madhopur,"Sahu Nagar, Sawai Madhopur - RSPCB",27-08-2025 22:00:00,26.031443,76.359327,CO,2,22,10
India,Rajasthan,Sikar,"Radhakishan Pura, Sikar - RSPCB",27-08-2025 22:00:00,27.608912,75.153302,SO2,2,3,3
India,Rajasthan,Jhunjhunu,"Indra Nagar, Jhunjhunu - RSPCB",27-08-2025 22:00:00,28.108988,75.386577,SO2,2,3,2
India,Rajasthan,Jhunjhunu,"Indra Nagar, Jhunjhunu - RSPCB",27-08-2025 22:00:00,28.108988,75.386577,OZONE,11,51,31
India,Rajasthan,Jodhpur,"Collectorate, Jodhpur - RSPCB",27-08-2025 22:00:00,26.268249,73.0193853,SO2,1,13,5
India,Rajasthan,Jodhpur,"Digari Kalan, Jodhpur - RSPCB",27-08-2025 22:00:00,26.295810,73.082283,SO2,1,5,3
India,Rajasthan,Jodhpur,"Jhalamand, Jodhpur - RSPCB",27-08-2025 22:00:00,26.215415,73.070156,PM10,16,116,50
India,Rajasthan,Dholpur,"Raja Ganj, Dholpur - RSPCB",27-08-2025 22:00:00,26.699557,77.898881,SO2,1,5,4
India,Rajasthan,Dholpur,"Raja Ganj, Dholpur - RSPCB",27-08-2025 22:00:00,26.699557,77.898881,OZONE,19,58,31
India,Rajasthan,Dungarpur,"Bhoiwada, Dungarpur - RSPCB",27-08-2025 22:00:00,23.837789,73.714926,OZONE,16,62,48
India,Rajasthan,Jaipur,"Adarsh Nagar, Jaipur - RSPCB",27-08-2025 22:00:00,26.902909,75.836858,PM2.5,NA,NA,NA
India,Rajasthan,Jaipur,"Adarsh Nagar, Jaipur - RSPCB",27-08-2025 22:00:00,26.902909,75.836858,NH3,NA,NA,NA
India,Rajasthan,Jaipur,"Adarsh Nagar, Jaipur - RSPCB",27-08-2025 22:00:00,26.902909,75.836858,SO2,NA,NA,NA
India,Rajasthan,Sri Ganganagar,"Old City, Sri Ganganagar - RSPCB",27-08-2025 22:00:00,29.931624,73.864511,NO2,34,66,45
India,Rajasthan,Sri Ganganagar,"Old City, Sri Ganganagar - RSPCB",27-08-2025 22:00:00,29.931624,73.864511,NH3,3,4,4
India,Rajasthan,Tonk,"Shastri Nagar, Tonk - RSPCB",27-08-2025 22:00:00,26.159933,75.780517,NH3,2,7,4
India,Rajasthan,Udaipur,"Ashok Nagar, Udaipur - RSPCB",27-08-2025 22:00:00,24.5886166,73.6321397,PM2.5,16,99,51
India,Rajasthan,Udaipur,"Ashok Nagar, Udaipur - RSPCB",27-08-2025 22:00:00,24.5886166,73.6321397,PM10,34,104,66
India,Rajasthan,Jodhpur,"Mandor, Jodhpur - RSPCB",27-08-2025 22:00:00,26.358805,73.047444,NO2,7,31,13
India,Rajasthan,Karauli,"Satyawati Vihar, Karauli - RSPCB",27-08-2025 22:00:00,26.506177,77.025989,CO,3,26,17
India,Rajasthan,Karauli,"Satyawati Vihar, Karauli - RSPCB",27-08-2025 22:00:00,26.506177,77.025989,OZONE,3,64,28
India,Rajasthan,Kota,"Dhanmandi, Kota - RSPCB",27-08-2025 22:00:00,25.164090,75.858137,PM2.5,NA,NA,NA
India,Rajasthan,Kota,"Dhanmandi, Kota - RSPCB",27-08-2025 22:00:00,25.164090,75.858137,PM10,NA,NA,NA
India,Rajasthan,Kota,"Dhanmandi, Kota - RSPCB",27-08-2025 22:00:00,25.164090,75.858137,OZONE,2,59,26
India,Rajasthan,Chittorgarh,"Shastri Nagar, Chittorgarh - RSPCB",27-08-2025 22:00:00,24.892047,74.623527,SO2,5,15,9
India,Rajasthan,Chittorgarh,"Shastri Nagar, Chittorgarh - RSPCB",27-08-2025 22:00:00,24.892047,74.623527,OZONE,1,29,16
India,Rajasthan,Churu,"Subash Chowk, Churu - RSPCB",27-08-2025 22:00:00,28.296139,74.961696,NO2,2,10,5
India,Rajasthan,Churu,"Subash Chowk, Churu - RSPCB",27-08-2025 22:00:00,28.296139,74.961696,OZONE,5,79,60
India,Rajasthan,Dausa,"Khatikan Mohalla, Dausa - RSPCB",27-08-2025 22:00:00,26.895552,76.334753,PM10,15,102,52
India,Rajasthan,Kota,"Nayapura, Kota - RSPCB",27-08-2025 22:00:00,25.196024,75.855668,NH3,4,8,5
India,Rajasthan,Nagaur,"Karni Colony, Nagaur - RSPCB",27-08-2025 22:00:00,27.213494,73.734444,PM10,43,125,65
India,Rajasthan,Nagaur,"Karni Colony, Nagaur - RSPCB",27-08-2025 22:00:00,27.213494,73.734444,NO2,2,12,4
India,Rajasthan,Pali,"Indira Colony Vistar, Pali - RSPCB",27-08-2025 22:00:00,25.771061, 73.340227,CO,10,57,30
India,Rajasthan,Jaipur,"Police Commissionerate, Jaipur - RSPCB",27-08-2025 22:00:00,26.9164092,75.7994901,NH3,7,11,9
India,Rajasthan,Jaipur,"Police Commissionerate, Jaipur - RSPCB",27-08-2025 22:00:00,26.9164092,75.7994901,OZONE,12,27,18
India,Rajasthan,Jaipur,"Sector-2 Murlipura, Jaipur - RSPCB",27-08-2025 22:00:00,26.960669,75.771817,NO2,16,57,28
India,TamilNadu,Chennai,"Arumbakkam, Chennai - TNPCB",27-08-2025 22:00:00,13.0664,80.2112 ,SO2,1,3,2
India,TamilNadu,Chennai,"Kodungaiyur, Chennai - TNPCB",27-08-2025 22:00:00,13.1278,80.2642,SO2,1,5,3
India,TamilNadu,Chennai,"Manali Village, Chennai - TNPCB",27-08-2025 22:00:00,13.1662,80.2584,PM2.5,6,92,43
India,TamilNadu,Chennai,"Manali Village, Chennai - TNPCB",27-08-2025 22:00:00,13.1662,80.2584,PM10,26,62,41
India,TamilNadu,Chennai,"Manali Village, Chennai - TNPCB",27-08-2025 22:00:00,13.1662,80.2584,OZONE,31,61,44
India,TamilNadu,Chennai,"Manali, Chennai - CPCB",27-08-2025 22:00:00,13.164544,80.26285,PM10,65,66,66
India,TamilNadu,Chennai,"Manali, Chennai - CPCB",27-08-2025 22:00:00,13.164544,80.26285,CO,20,94,44
India,TamilNadu,Chennai,"Manali, Chennai - CPCB",27-08-2025 22:00:00,13.164544,80.26285,OZONE,28,29,28
India,TamilNadu,Chennai,"Perungudi, Chennai - TNPCB",27-08-2025 22:00:00,12.9533,80.2357,PM2.5,11,107,32
India,TamilNadu,Chennai,"Perungudi, Chennai - TNPCB",27-08-2025 22:00:00,12.9533,80.2357,OZONE,1,19,7
India,TamilNadu,Chennai,"Royapuram, Chennai - TNPCB",27-08-2025 22:00:00,13.1036,80.2909,PM2.5,NA,NA,NA
India,TamilNadu,Chennai,"Royapuram, Chennai - TNPCB",27-08-2025 22:00:00,13.1036,80.2909,SO2,NA,NA,NA
India,TamilNadu,Chennai,"Velachery Res. Area, Chennai - CPCB",27-08-2025 22:00:00,13.0052189,80.2398125,PM2.5,29,57,46
India,TamilNadu,Chennai,"Velachery Res. Area, Chennai - CPCB",27-08-2025 22:00:00,13.0052189,80.2398125,PM10,47,72,58
India,TamilNadu,Coimbatore,"PSG College of Arts and Science, Coimbatore - TNPCB",27-08-2025 22:00:00,11.0328,77.0349,NH3,2,2,2
India,TamilNadu,Coimbatore,"PSG College of Arts and Science, Coimbatore - TNPCB",27-08-2025 22:00:00,11.0328,77.0349,SO2,2,4,3
India,TamilNadu,Coimbatore,"SIDCO Kurichi, Coimbatore - TNPCB",27-08-2025 22:00:00,10.942451,76.978996,PM2.5,2,37,16
India,TamilNadu,Coimbatore,"SIDCO Kurichi, Coimbatore - TNPCB",27-08-2025 22:00:00,10.942451,76.978996,NO2,6,9,8
India,TamilNadu,Coimbatore,"SIDCO Kurichi, Coimbatore - TNPCB",27-08-2025 22:00:00,10.942451,76.978996,SO2,22,23,23
India,TamilNadu,Kanchipuram,"Kilambi, Kanchipuram - TNPCB",27-08-2025 22:00:00,12.864618,79.659968,PM10,11,500,75
India,TamilNadu,Karur,"Kamadenu Nagar, Karur - TNPCB",27-08-2025 22:00:00,10.967820,78.080882,NO2,6,6,6
India,TamilNadu,Karur,"Kamadenu Nagar, Karur - TNPCB",27-08-2025 22:00:00,10.967820,78.080882,NH3,3,3,3
India,TamilNadu,Karur,"Kamadenu Nagar, Karur - TNPCB",27-08-2025 22:00:00,10.967820,78.080882,CO,8,48,40
India,TamilNadu,Karur,"Kamadenu Nagar, Karur - TNPCB",27-08-2025 22:00:00,10.967820,78.080882,OZONE,6,9,8
India,TamilNadu,Madurai,"Uchapatti, Madurai - TNPCB",27-08-2025 22:00:00,9.865935,78.022669,NO2,16,16,16
India,TamilNadu,Nagapattinam,"Velippalayam, Nagapattinam - TNPCB",27-08-2025 22:00:00,10.798548,79.838212,PM10,NA,NA,NA
India,TamilNadu,Nagapattinam,"Velippalayam, Nagapattinam - TNPCB",27-08-2025 22:00:00,10.798548,79.838212,NH3,NA,NA,NA
India,TamilNadu,Virudhunagar,"Collectorate Office, Virudhunagar - TNPCB",27-08-2025 22:00:00,9.559382,77.948828,OZONE,3,4,3
India,Telangana,Hyderabad,"Bollaram Industrial Area, Hyderabad - TSPCB",27-08-2025 22:00:00,17.540891,78.358528,PM2.5,2,35,14
India,Telangana,Hyderabad,"Bollaram Industrial Area, Hyderabad - TSPCB",27-08-2025 22:00:00,17.540891,78.358528,OZONE,47,49,49
India,Telangana,Hyderabad,"Central University, Hyderabad - TSPCB",27-08-2025 22:00:00,17.460103,78.334361,PM2.5,NA,NA,NA
India,Telangana,Hyderabad,"Central University, Hyderabad - TSPCB",27-08-2025 22:00:00,17.460103,78.334361,CO,4,24,18
India,Telangana,Hyderabad,"ICRISAT Patancheru, Hyderabad - TSPCB",27-08-2025 22:00:00,17.518400,78.278777,SO2,1,14,9
India,TamilNadu,Ranipet,"VOC Nagar_SIPCOT, Ranipet - TNPCB",27-08-2025 22:00:00,12.952707,79.30394,PM2.5,16,111,52
India,TamilNadu,Ranipet,"VOC Nagar_SIPCOT, Ranipet - TNPCB",27-08-2025 22:00:00,12.952707,79.30394,CO,18,20,20
India,TamilNadu,Salem,"Sona College of Technology, Salem - TNPCB",27-08-2025 22:00:00,11.679111,78.125052,CO,18,18,18
India,TamilNadu,Thanjavur,"Parisutham Nagar, Thanjavur - TNPCB",27-08-2025 22:00:00,10.7654824,79.1389968,PM10,27,51,37
India,TamilNadu,Thanjavur,"Parisutham Nagar, Thanjavur - TNPCB",27-08-2025 22:00:00,10.7654824,79.1389968,NO2,2,3,3
India,TamilNadu,Cuddalore,"Kudikadu, Cuddalore - TNPCB",27-08-2025 22:00:00,11.6829898,79.7532099,NO2,20,20,20
India,TamilNadu,Cuddalore,"Semmandalam, Cuddalore - TNPCB",27-08-2025 22:00:00,11.7637683,79.7499835,PM10,9,29,17
India,TamilNadu,Hosur,"SIPCOT Phase-1, Hosur - TNPCB",27-08-2025 22:00:00,12.746998,77.813811,NO2,1,2,2
India,TamilNadu,Hosur,"SIPCOT Phase-1, Hosur - TNPCB",27-08-2025 22:00:00,12.746998,77.813811,NH3,1,1,1
India,TamilNadu,Hosur,"SIPCOT Phase-1, Hosur - TNPCB",27-08-2025 22:00:00,12.746998,77.813811,OZONE,9,11,9
India,TamilNadu,Tirunelveli,"Municipal Corporation Office, Tirunelveli - TNPCB",27-08-2025 22:00:00,8.728442,77.6962,CO,40,42,41
India,TamilNadu,Tirupur,"Kumaran College, Tirupur - TNPCB",27-08-2025 22:00:00,11.0973603,77.3228673,OZONE,3,4,3
India,TamilNadu,Vellore,"Vasanthapuram, Vellore - TNPCB",27-08-2025 22:00:00,12.909494,79.131861,CO,6,7,7
India,TamilNadu,Perundurai,"SIPCOT Industrial Park, Perundurai - TNPCB",27-08-2025 22:00:00,11.258242,77.552761,NO2,7,8,7
India,TamilNadu,Ramanathapuram,"Chalai Bazaar, Ramanathapuram - TNPCB",27-08-2025 22:00:00,9.36399,78.831977,PM10,9,30,16
India,TamilNadu,Ramanathapuram,"Chalai Bazaar, Ramanathapuram - TNPCB",27-08-2025 22:00:00,9.36399,78.831977,SO2,8,14,13
India,Rajasthan,Udaipur,"Ashok Nagar, Udaipur - RSPCB",27-08-2025 22:00:00,24.5886166,73.6321397,OZONE,3,29,11
India,TamilNadu,Chengalpattu,"Crescent University, Chengalpattu - TNPCB",27-08-2025 22:00:00,12.8777316,80.0834807,NH3,1,3,2
India,TamilNadu,Chengalpattu,"Crescent University, Chengalpattu - TNPCB",27-08-2025 22:00:00,12.8777316,80.0834807,CO,6,9,8
India,Uttar_Pradesh,Agra,"Manoharpur, Agra - UPPCB",27-08-2025 22:00:00,27.23711,78.01936,NH3,5,6,5
India,Uttar_Pradesh,Agra,"Rohta, Agra - UPPCB",27-08-2025 22:00:00,27.106972,78.000111,NH3,4,4,4
India,Uttar_Pradesh,Agra,"Sanjay Palace, Agra - UPPCB",27-08-2025 22:00:00,27.19865833,78.00598056,PM10,13,62,32
India,Uttar_Pradesh,Agra,"Sanjay Palace, Agra - UPPCB",27-08-2025 22:00:00,27.19865833,78.00598056,OZONE,8,28,22
India,Uttar_Pradesh,Agra,"Sector-3B Avas Vikas Colony, Agra - UPPCB",27-08-2025 22:00:00,27.19412,77.96237,PM10,74,131,98
India,Uttar_Pradesh,Agra,"Sector-3B Avas Vikas Colony, Agra - UPPCB",27-08-2025 22:00:00,27.19412,77.96237,CO,20,30,22
India,Uttar_Pradesh,Agra,"Sector-3B Avas Vikas Colony, Agra - UPPCB",27-08-2025 22:00:00,27.19412,77.96237,OZONE,7,8,8
India,Uttar_Pradesh,Agra,"Shahjahan Garden, Agra - UPPCB",27-08-2025 22:00:00,27.169338,78.03582,PM10,59,116,82
India,Uttar_Pradesh,Agra,"Shahjahan Garden, Agra - UPPCB",27-08-2025 22:00:00,27.169338,78.03582,NO2,27,28,27
India,Uttar_Pradesh,Hapur,"Anand Vihar, Hapur - UPPCB",27-08-2025 22:00:00,28.725645,77.749675,NH3,5,10,7
India,Uttar_Pradesh,Hapur,"Anand Vihar, Hapur - UPPCB",27-08-2025 22:00:00,28.725645,77.749675,SO2,3,33,23
India,Uttar_Pradesh,Hapur,"Anand Vihar, Hapur - UPPCB",27-08-2025 22:00:00,28.725645,77.749675,CO,31,66,47
India,Uttar_Pradesh,Jhansi,"Shivaji Nagar, Jhansi - UPPCB",27-08-2025 22:00:00,25.4547,78.6039,PM2.5,19,145,59
India,Uttar_Pradesh,Jhansi,"Shivaji Nagar, Jhansi - UPPCB",27-08-2025 22:00:00,25.4547,78.6039,PM10,28,156,77
India,Uttar_Pradesh,Jhansi,"Shivaji Nagar, Jhansi - UPPCB",27-08-2025 22:00:00,25.4547,78.6039,NH3,4,4,4
India,Uttar_Pradesh,Kanpur,"FTI Kidwai Nagar, Kanpur - UPPCB",27-08-2025 22:00:00,26.428282,80.327067,OZONE,16,16,16
India,Uttar_Pradesh,Bareilly,"Rajendra Nagar, Bareilly - UPPCB",27-08-2025 22:00:00,28.38910936,79.42963708,SO2,45,46,45
India,Uttar_Pradesh,Bulandshahr,"Yamunapuram, Bulandshahr - UPPCB",27-08-2025 22:00:00,28.406963,77.849831,NO2,7,52,16
India,Uttar_Pradesh,Bulandshahr,"Yamunapuram, Bulandshahr - UPPCB",27-08-2025 22:00:00,28.406963,77.849831,NH3,4,10,6
India,Uttar_Pradesh,Firozabad,"Nagla Bhau, Firozabad - UPPCB",27-08-2025 22:00:00,27.168897,78.376960,PM10,13,34,24
India,Uttar_Pradesh,Firozabad,"Nagla Bhau, Firozabad - UPPCB",27-08-2025 22:00:00,27.168897,78.376960,SO2,7,27,19
India,Uttar_Pradesh,Firozabad,"Vibhab Nagar, Firozabad - UPPCB",27-08-2025 22:00:00,27.1594,78.3953,SO2,5,17,13
India,Uttar_Pradesh,Kanpur,"NSI Kalyanpur, Kanpur - UPPCB",27-08-2025 22:00:00,26.509954,80.249612,PM10,29,91,51
India,Uttar_Pradesh,Kanpur,"Nehru Nagar, Kanpur - UPPCB",27-08-2025 22:00:00,26.4703136,80.3229863,PM2.5,39,98,58
India,Uttar_Pradesh,Kanpur,"Nehru Nagar, Kanpur - UPPCB",27-08-2025 22:00:00,26.4703136,80.3229863,PM10,35,89,53
India,Uttar_Pradesh,Khurja,"Kalindi Kunj, Khurja - UPPCB",27-08-2025 22:00:00,28.2348927,77.8683002,PM2.5,12,45,25
India,Telangana,Hyderabad,"Ramachandrapuram, Hyderabad - TSPCB",27-08-2025 22:00:00,17.528544,78.286195,NO2,15,16,15
India,Telangana,Hyderabad,"Sanathnagar, Hyderabad - TSPCB",27-08-2025 22:00:00,17.4559458,78.4332152,PM2.5,8,29,19
India,Telangana,Hyderabad,"Zoo Park, Hyderabad - TSPCB",27-08-2025 22:00:00,17.349694,78.451437,NO2,10,11,10
India,Telangana,Hyderabad,"Zoo Park, Hyderabad - TSPCB",27-08-2025 22:00:00,17.349694,78.451437,CO,14,20,15
India,Uttar_Pradesh,Agra,"Shastripuram, Agra - UPPCB",27-08-2025 22:00:00,27.19862,77.92066,PM10,46,110,66
India,Uttar_Pradesh,Agra,"Shastripuram, Agra - UPPCB",27-08-2025 22:00:00,27.19862,77.92066,OZONE,2,3,3
India,Uttar_Pradesh,Bareilly,"Civil Lines, Bareilly - UPPCB",27-08-2025 22:00:00,28.359581,79.414455,SO2,101,108,104
India,Uttar_Pradesh,Ghaziabad,"Vasundhara, Ghaziabad - UPPCB",27-08-2025 22:00:00,28.6603346,77.3572563,CO,38,111,69
India,Uttar_Pradesh,Greater Noida,"Knowledge Park - V, Greater Noida - UPPCB",27-08-2025 22:00:00,28.557054,77.453663,PM10,21,313,107
India,Telangana,Hyderabad,"IITH Kandi, Hyderabad - TSPCB",27-08-2025 22:00:00,17.585705,78.126199,CO,16,25,20
India,Telangana,Hyderabad,"Kompally Municipal Office, Hyderabad - TSPCB",27-08-2025 22:00:00,17.544899,78.486949,PM10,NA,NA,NA
India,Telangana,Hyderabad,"Kompally Municipal Office, Hyderabad - TSPCB",27-08-2025 22:00:00,17.544899,78.486949,OZONE,17,19,18
India,Uttar_Pradesh,Ghaziabad,"Sanjay Nagar, Ghaziabad - UPPCB",27-08-2025 22:00:00,28.685382,77.453839,NH3,3,6,4
India,Uttar_Pradesh,Moradabad,"Kashiram Nagar, Moradabad - UPPCB",27-08-2025 22:00:00,28.849399,78.742362,PM2.5,17,81,52
India,Uttar_Pradesh,Moradabad,"Kashiram Nagar, Moradabad - UPPCB",27-08-2025 22:00:00,28.849399,78.742362,PM10,39,99,67
India,Uttar_Pradesh,Moradabad,"Transport Nagar, Moradabad - UPPCB",27-08-2025 22:00:00,28.802625,78.753728,NH3,5,5,5
India,Uttar_Pradesh,Muzaffarnagar,"New Mandi, Muzaffarnagar - UPPCB",27-08-2025 22:00:00,29.4723508,77.7194031,NO2,13,52,25
India,Uttar_Pradesh,Muzaffarnagar,"New Mandi, Muzaffarnagar - UPPCB",27-08-2025 22:00:00,29.4723508,77.7194031,CO,30,101,56
India,Uttar_Pradesh,Noida,"Sector - 125, Noida - UPPCB",27-08-2025 22:00:00,28.5447608,77.3231257,PM2.5,4,153,59
India,Uttar_Pradesh,Noida,"Sector - 125, Noida - UPPCB",27-08-2025 22:00:00,28.5447608,77.3231257,PM10,19,270,79
India,Uttar_Pradesh,Noida,"Sector - 125, Noida - UPPCB",27-08-2025 22:00:00,28.5447608,77.3231257,NH3,7,7,7
India,Uttar_Pradesh,Lucknow,"Gomti Nagar, Lucknow - UPPCB",27-08-2025 22:00:00,26.868120,81.005119,NO2,9,10,10
India,Uttar_Pradesh,Lucknow,"Kendriya Vidyalaya, Lucknow - CPCB",27-08-2025 22:00:00,26.906111,80.948222,NO2,24,40,32
India,Uttar_Pradesh,Lucknow,"Kukrail Picnic Spot-1, Lucknow - UPPCB",27-08-2025 22:00:00,26.90723,80.98579,PM10,19,37,29
India,Uttar_Pradesh,Lucknow,"Lalbagh, Lucknow - CPCB",27-08-2025 22:00:00,26.8458805,80.9365541,PM2.5,26,64,42
India,Uttar_Pradesh,Lucknow,"Lalbagh, Lucknow - CPCB",27-08-2025 22:00:00,26.8458805,80.9365541,NO2,33,38,35
India,Uttar_Pradesh,Lucknow,"Lalbagh, Lucknow - CPCB",27-08-2025 22:00:00,26.8458805,80.9365541,SO2,1,24,7
India,Uttar_Pradesh,Lucknow,"Talkatora District Industries Center, Lucknow - CPCB",27-08-2025 22:00:00,26.83399722,80.8917361,PM2.5,24,76,49
India,West_Bengal,Asansol,"Mahabir Colliery, Asansol - WBPCB",27-08-2025 22:00:00,23.6181830,87.1057180,NH3,8,13,10
India,West_Bengal,Asansol,"Trivenidevi Bhalotia College, Asansol - WBPCB",27-08-2025 22:00:00,23.616515,87.119133,SO2,9,11,10
India,West_Bengal,Asansol,"Trivenidevi Bhalotia College, Asansol - WBPCB",27-08-2025 22:00:00,23.616515,87.119133,OZONE,15,43,33
India,West_Bengal,Barrackpore,"SVSPA Campus, Barrackpore - WBPCB",27-08-2025 22:00:00,22.7605581,88.3617589,PM10,18,53,35
India,West_Bengal,Barrackpore,"SVSPA Campus, Barrackpore - WBPCB",27-08-2025 22:00:00,22.7605581,88.3617589,NO2,9,18,13
India,West_Bengal,Durgapur,"Mahishkapur Road_B-Zone, Durgapur - WBPCB",27-08-2025 22:00:00,23.567923,87.306843,PM10,19,101,52
India,Uttar_Pradesh,Lucknow,"Talkatora District Industries Center, Lucknow - CPCB",27-08-2025 22:00:00,26.83399722,80.8917361,NH3,9,18,13
India,Uttar_Pradesh,Lucknow,"Talkatora District Industries Center, Lucknow - CPCB",27-08-2025 22:00:00,26.83399722,80.8917361,OZONE,9,55,35
India,Uttar_Pradesh,Meerut,"Jai Bhim Nagar, Meerut - UPPCB",27-08-2025 22:00:00,28.9535882,77.7622941,NO2,11,58,22
India,Uttar_Pradesh,Meerut,"Pallavpuram Phase 2, Meerut - UPPCB",27-08-2025 22:00:00,29.063510,77.709723,NO2,13,22,17
India,Uttar_Pradesh,Meerut,"Pallavpuram Phase 2, Meerut - UPPCB",27-08-2025 22:00:00,29.063510,77.709723,SO2,12,22,17
India,Uttar_Pradesh,Meerut,"Pallavpuram Phase 2, Meerut - UPPCB",27-08-2025 22:00:00,29.063510,77.709723,OZONE,15,52,36
India,Uttarakhand,Dehradun,"Doon University, Dehradun - UKPCB",27-08-2025 22:00:00,30.269444,78.044167,OZONE,14,23,21
India,Uttarakhand,Kashipur,"Govt. Girls Inter College, Kashipur - UKPCB",27-08-2025 22:00:00,29.2124114,78.9611753,PM2.5,20,65,41
India,Uttarakhand,Kashipur,"Govt. Girls Inter College, Kashipur - UKPCB",27-08-2025 22:00:00,29.2124114,78.9611753,NO2,6,12,9
India,Uttarakhand,Kashipur,"Govt. Girls Inter College, Kashipur - UKPCB",27-08-2025 22:00:00,29.2124114,78.9611753,NH3,1,3,2
India,West_Bengal,Asansol,"Evelyn Lodge, Asansol - WBPCB",27-08-2025 22:00:00,23.6979360,86.9443950,CO,4,50,10
India,Uttar_Pradesh,Noida,"Sector-1, Noida - UPPCB",27-08-2025 22:00:00,28.5898,77.3101,PM2.5,17,198,72
India,Uttar_Pradesh,Noida,"Sector-1, Noida - UPPCB",27-08-2025 22:00:00,28.5898,77.3101,NO2,19,80,52
India,Uttar_Pradesh,Noida,"Sector-1, Noida - UPPCB",27-08-2025 22:00:00,28.5898,77.3101,NH3,2,9,6
India,Uttar_Pradesh,Noida,"Sector-1, Noida - UPPCB",27-08-2025 22:00:00,28.5898,77.3101,SO2,7,10,8
India,Uttar_Pradesh,Noida,"Sector-1, Noida - UPPCB",27-08-2025 22:00:00,28.5898,77.3101,CO,7,98,41
India,Uttar_Pradesh,Prayagraj,"Jhunsi, Prayagraj - UPPCB",27-08-2025 22:00:00,25.425602,81.917152,NO2,5,6,6
India,Uttar_Pradesh,Prayagraj,"Jhunsi, Prayagraj - UPPCB",27-08-2025 22:00:00,25.425602,81.917152,CO,14,37,20
India,Uttar_Pradesh,Varanasi,"Bhelupur, Varanasi - UPPCB",27-08-2025 22:00:00,25.301778,82.996789,OZONE,1,28,8
India,Uttar_Pradesh,Varanasi,"IESD Banaras Hindu University, Varanasi - UPPCB",27-08-2025 22:00:00,25.262326,82.995408,PM10,35,97,66
India,Uttar_Pradesh,Varanasi,"Maldahiya, Varanasi - UPPCB",27-08-2025 22:00:00,25.32393,82.99687,NO2,1,2,2
India,Uttar_Pradesh,Vrindavan,"Omex Eternity, Vrindavan - UPPCB",27-08-2025 22:00:00,27.5714090,77.6557570,SO2,6,18,9
India,Uttar_Pradesh,Moradabad,"Buddhi Vihar, Moradabad - UPPCB",27-08-2025 22:00:00,28.83526,78.74460,OZONE,14,41,32
India,Uttar_Pradesh,Moradabad,"Employment Office, Moradabad - UPPCB",27-08-2025 22:00:00,28.88528,78.73880,SO2,36,54,39
India,Uttar_Pradesh,Moradabad,"Jigar Colony, Moradabad - UPPCB",27-08-2025 22:00:00,28.856664,78.772638,PM10,41,151,66
India,Uttar_Pradesh,Moradabad,"Jigar Colony, Moradabad - UPPCB",27-08-2025 22:00:00,28.856664,78.772638,NO2,24,25,25
India,Uttar_Pradesh,Varanasi,"Ardhali Bazar, Varanasi - UPPCB",27-08-2025 22:00:00,25.3505986,82.9083074,PM2.5,28,52,38
India,Uttar_Pradesh,Varanasi,"Ardhali Bazar, Varanasi - UPPCB",27-08-2025 22:00:00,25.3505986,82.9083074,PM10,34,70,49
India,West_Bengal,Durgapur,"PCBL Residential Complex, Durgapur - WBPCB",27-08-2025 22:00:00,23.5087640,87.3544400,NH3,NA,NA,NA
India,West_Bengal,Durgapur,"PCBL Residential Complex, Durgapur - WBPCB",27-08-2025 22:00:00,23.5087640,87.3544400,SO2,4,5,5
India,West_Bengal,Durgapur,"PCBL Residential Complex, Durgapur - WBPCB",27-08-2025 22:00:00,23.5087640,87.3544400,CO,13,58,35
India,West_Bengal,Durgapur,"Womens College_City Center, Durgapur - WBPCB (Formerly known as Sidhu Kanhu Indoor Stadium)",27-08-2025 22:00:00,23.549395,87.300496,PM2.5,16,83,42
India,West_Bengal,Durgapur,"Womens College_City Center, Durgapur - WBPCB (Formerly known as Sidhu Kanhu Indoor Stadium)",27-08-2025 22:00:00,23.549395,87.300496,OZONE,5,26,17
India,West_Bengal,Haldia,"Priyambada Housing Estate, Haldia - WBPCB",27-08-2025 22:00:00,22.06047,88.109737,CO,18,46,21
India,West_Bengal,Howrah,"Belur Math, Howrah - WBPCB",27-08-2025 22:00:00,22.629801,88.352017,PM10,16,45,26
India,West_Bengal,Howrah,"Botanical Garden, Howrah - WBPCB",27-08-2025 22:00:00,22.554954,88.292568,NH3,1,63,6
India,West_Bengal,Howrah,"Botanical Garden, Howrah - WBPCB",27-08-2025 22:00:00,22.554954,88.292568,SO2,13,14,13
India,West_Bengal,Howrah,"Dasnagar, Howrah - WBPCB",27-08-2025 22:00:00,22.6025571,88.3105664,PM10,16,45,31
India,West_Bengal,Howrah,"Ghusuri, Howrah - WBPCB",27-08-2025 22:00:00,22.611968,88.347422,PM10,15,163,59
India,West_Bengal,Howrah,"Ghusuri, Howrah - WBPCB",27-08-2025 22:00:00,22.611968,88.347422,NH3,8,10,10
India,West_Bengal,Howrah,"Ghusuri, Howrah - WBPCB",27-08-2025 22:00:00,22.611968,88.347422,CO,9,10,9
India,West_Bengal,Howrah,"Padmapukur, Howrah - WBPCB",27-08-2025 22:00:00,22.5687319,88.2797276,NH3,3,11,7
India,West_Bengal,Howrah,"Padmapukur, Howrah - WBPCB",27-08-2025 22:00:00,22.5687319,88.2797276,OZONE,16,40,30
India,West_Bengal,Kolkata,"Bidhannagar, Kolkata - WBPCB",27-08-2025 22:00:00,22.58157048,88.41002457,NO2,15,18,16
India,West_Bengal,Kolkata,"Bidhannagar, Kolkata - WBPCB",27-08-2025 22:00:00,22.58157048,88.41002457,OZONE,20,27,27
India,West_Bengal,Kolkata,"Rabindra Bharati University, Kolkata - WBPCB",27-08-2025 22:00:00,22.627847,88.380669,PM2.5,4,13,8
India,West_Bengal,Kolkata,"Victoria, Kolkata - WBPCB",27-08-2025 22:00:00,22.5448082,88.3403691,NO2,12,25,18
India,West_Bengal,Kolkata,"Victoria, Kolkata - WBPCB",27-08-2025 22:00:00,22.5448082,88.3403691,SO2,2,30,11
India,West_Bengal,Siliguri,"Ward-32 Bapupara, Siliguri - WBPCB",27-08-2025 22:00:00,26.6879226,88.4152495,PM10,34,68,44
India,West_Bengal,Siliguri,"Ward-32 Bapupara, Siliguri - WBPCB",27-08-2025 22:00:00,26.6879226,88.4152495,NH3,9,10,9
India,Andhra_Pradesh,Anantapur,"Gulzarpet, Anantapur - APPCB",27-08-2025 22:00:00,14.675886,77.593027,NH3,5,6,5
India,Andhra_Pradesh,Anantapur,"Gulzarpet, Anantapur - APPCB",27-08-2025 22:00:00,14.675886,77.593027,CO,20,27,25
India,Andhra_Pradesh,Chittoor,"Gangineni Cheruvu, Chittoor - APPCB",27-08-2025 22:00:00,13.204880,79.097889,PM10,59,108,74
India,Andhra_Pradesh,Chittoor,"Gangineni Cheruvu, Chittoor - APPCB",27-08-2025 22:00:00,13.204880,79.097889,CO,28,60,35
India,Andhra_Pradesh,Kadapa,"Yerramukkapalli, Kadapa - APPCB",27-08-2025 22:00:00,14.465052,78.824187,PM10,NA,NA,NA
India,Andhra_Pradesh,Kadapa,"Yerramukkapalli, Kadapa - APPCB",27-08-2025 22:00:00,14.465052,78.824187,OZONE,32,41,37
India,Andhra_Pradesh,Rajamahendravaram,"Anand Kala Kshetram, Rajamahendravaram - APPCB",27-08-2025 22:00:00,16.9872867,81.7363176,PM10,4,36,16
India,Andhra_Pradesh,Rajamahendravaram,"Anand Kala Kshetram, Rajamahendravaram - APPCB",27-08-2025 22:00:00,16.9872867,81.7363176,OZONE,8,13,10
India,Andhra_Pradesh,Tirumala,"Toll Gate, Tirumala - APPCB",27-08-2025 22:00:00,13.67,79.35,NH3,1,1,1
India,Andhra_Pradesh,Tirumala,"Toll Gate, Tirumala - APPCB",27-08-2025 22:00:00,13.67,79.35,SO2,2,4,3
India,Bihar,Araria,"Kharahiya Basti, Araria - BSPCB",27-08-2025 22:00:00,26.146529,87.454184,NO2,NA,NA,NA
India,Bihar,Arrah,"New DM Office, Arrah - BSPCB",27-08-2025 22:00:00,25.5626095,84.663264,CO,42,84,56
India,Bihar,Aurangabad,"Gurdeo Nagar, Aurangabad - BSPCB",27-08-2025 22:00:00,24.75746,84.366208,NO2,7,8,8
India,Bihar,Aurangabad,"Gurdeo Nagar, Aurangabad - BSPCB",27-08-2025 22:00:00,24.75746,84.366208,NH3,1,2,1
India,Bihar,Aurangabad,"Gurdeo Nagar, Aurangabad - BSPCB",27-08-2025 22:00:00,24.75746,84.366208,SO2,7,13,10
India,Bihar,Begusarai,"Lohiyanagar, Begusarai - BSPCB",27-08-2025 22:00:00,25.42742023,86.13886079,PM2.5,32,69,45
India,Bihar,Bettiah,"Kamalnath Nagar, Bettiah - BSPCB",27-08-2025 22:00:00,26.80365,84.51954,OZONE,22,25,24
India,Bihar,Bhagalpur,"DM Office_Kachari Chowk, Bhagalpur - BSPCB",27-08-2025 22:00:00,25.251013,86.989001,NO2,16,22,20
India,Bihar,Bhagalpur,"Mayaganj, Bhagalpur - BSPCB",27-08-2025 22:00:00,25.265194,87.012947,CO,12,80,57
India,Bihar,Bhagalpur,"Mayaganj, Bhagalpur - BSPCB",27-08-2025 22:00:00,25.265194,87.012947,OZONE,5,13,10
India,Bihar,Bihar Sharif,"D M Colony, Bihar Sharif - BSPCB",27-08-2025 22:00:00,25.204762,85.514960,PM10,75,92,85
India,Bihar,Bihar Sharif,"D M Colony, Bihar Sharif - BSPCB",27-08-2025 22:00:00,25.204762,85.514960,NO2,8,10,9
India,Assam,Nagaon,"Christianpatty, Nagaon - PCBA",27-08-2025 22:00:00,26.349082,92.68449,OZONE,4,18,9
India,Assam,Nalbari,"Bata Chowk, Nalbari - PCBA",27-08-2025 22:00:00,26.446912,91.439057,PM2.5,30,200,51
India,Assam,Nalbari,"Bata Chowk, Nalbari - PCBA",27-08-2025 22:00:00,26.446912,91.439057,NO2,1,7,4
India,Assam,Silchar,"Tarapur, Silchar - PCBA",27-08-2025 22:00:00,24.82827,92.79525,OZONE,2,26,14
India,Assam,Sivasagar,"Girls College, Sivasagar - PCBA",27-08-2025 22:00:00,26.987634,94.636574,NH3,3,14,4
India,Assam,Sivasagar,"Girls College, Sivasagar - PCBA",27-08-2025 22:00:00,26.987634,94.636574,SO2,8,12,10
India,Assam,Byrnihat,"Central Academy for SFS, Byrnihat - PCBA",27-08-2025 22:00:00,26.071318,91.87488,PM2.5,NA,NA,NA
India,Assam,Guwahati,"IITG, Guwahati - PCBA",27-08-2025 22:00:00,26.2028636,91.70046436,PM10,15,75,38
India,Assam,Guwahati,"IITG, Guwahati - PCBA",27-08-2025 22:00:00,26.2028636,91.70046436,NH3,5,5,5
India,Assam,Guwahati,"LGBI Airport, Guwahati - PCBA",27-08-2025 22:00:00,26.10887,91.589544,CO,26,127,32
India,Assam,Guwahati,"LGBI Airport, Guwahati - PCBA",27-08-2025 22:00:00,26.10887,91.589544,OZONE,13,17,15
India,Andhra_Pradesh,Vijayawada,"Rajiv Nagar, Vijayawada - APPCB",27-08-2025 22:00:00,16.554731,80.649110,SO2,20,38,26
India,Andhra_Pradesh,Visakhapatnam,"GVM Corporation, Visakhapatnam - APPCB",27-08-2025 22:00:00,17.72,83.3,NO2,26,71,44
India,Andhra_Pradesh,Visakhapatnam,"GVM Corporation, Visakhapatnam - APPCB",27-08-2025 22:00:00,17.72,83.3,OZONE,8,14,12
India,Arunachal_Pradesh,Naharlagun,"Naharlagun, Naharlagun - APSPCB",27-08-2025 22:00:00,27.103358,93.679645,SO2,7,8,7
India,Andhra_Pradesh,Tirumala,"Toll Gate, Tirumala - APPCB",27-08-2025 22:00:00,13.67,79.35,OZONE,11,16,13
India,Andhra_Pradesh,Tirupati,"Vaikuntapuram, Tirupati - APPCB",27-08-2025 22:00:00,13.615387,79.409230,NO2,7,9,8
India,Andhra_Pradesh,Vijayawada,"HB Colony, Vijayawada - APPCB",27-08-2025 22:00:00,16.536107,80.594233,NH3,3,3,3
India,Andhra_Pradesh,Vijayawada,"HB Colony, Vijayawada - APPCB",27-08-2025 22:00:00,16.536107,80.594233,SO2,14,16,15
India,Bihar,Hajipur,"Industrial Area, Hajipur - BSPCB",27-08-2025 22:00:00,25.697189,85.245900,OZONE,11,81,14
India,Bihar,Katihar,"Mirchaibari, Katihar - BSPCB",27-08-2025 22:00:00,25.560083,87.553265,SO2,NA,NA,NA
India,Bihar,Manguraha,"Forest Rest House, Manguraha - BSPCB",27-08-2025 22:00:00,27.308328,84.531742,SO2,6,7,6
India,Bihar,Buxar,"Charitra Van, Buxar - BSPCB",27-08-2025 22:00:00,25.567520,83.966379,PM10,68,71,71
India,Bihar,Buxar,"Charitra Van, Buxar - BSPCB",27-08-2025 22:00:00,25.567520,83.966379,NH3,3,3,3
India,Bihar,Buxar,"Charitra Van, Buxar - BSPCB",27-08-2025 22:00:00,25.567520,83.966379,OZONE,1,173,33
India,Bihar,Gaya,"Kareemganj, Gaya - BSPCB",27-08-2025 22:00:00,24.792403,84.992416,NO2,3,7,5
India,Andhra_Pradesh,Amaravati,"Secretariat, Amaravati - APPCB",27-08-2025 22:00:00,16.5150833,80.5181667,NH3,4,5,5
India,Chandigarh,Chandigarh,"Sector-53, Chandigarh - CPCC",27-08-2025 22:00:00,30.719859,76.738637,OZONE,9,44,26
India,Chhattisgarh,Bhilai,"Hathkhoj, Bhilai - CECB",27-08-2025 22:00:00,21.224231,81.408350,PM2.5,4,53,26
India,Chhattisgarh,Bhilai,"Hathkhoj, Bhilai - CECB",27-08-2025 22:00:00,21.224231,81.408350,PM10,3,64,32
India,Chhattisgarh,Bhilai,"Hathkhoj, Bhilai - CECB",27-08-2025 22:00:00,21.224231,81.408350,NH3,3,4,4
India,Chhattisgarh,Bhilai,"Hathkhoj, Bhilai - CECB",27-08-2025 22:00:00,21.224231,81.408350,CO,10,68,25
India,Chhattisgarh,Bilaspur,"Mangala, Bilaspur - NTPC",27-08-2025 22:00:00,22.08815,82.13737,PM2.5,24,81,46
India,Chhattisgarh,Bilaspur,"Mangala, Bilaspur - NTPC",27-08-2025 22:00:00,22.08815,82.13737,NO2,10,163,28
India,Chhattisgarh,Bilaspur,"Mangala, Bilaspur - NTPC",27-08-2025 22:00:00,22.08815,82.13737,SO2,2,16,11
India,Chhattisgarh,Chhal,"Nawapara SECL Colony, Chhal - CECB",27-08-2025 22:00:00,22.118125,83.140608,PM10,NA,NA,NA
India,Chhattisgarh,Chhal,"Nawapara SECL Colony, Chhal - CECB",27-08-2025 22:00:00,22.118125,83.140608,NO2,NA,NA,NA
India,Bihar,Muzaffarpur,"Buddha Colony, Muzaffarpur - BSPCB",27-08-2025 22:00:00,26.11442,85.39813,PM10,47,92,66
India,Bihar,Muzaffarpur,"MIT-Daudpur Kothi, Muzaffarpur - BSPCB",27-08-2025 22:00:00,26.1403345,85.3650192,NO2,6,13,11
India,Bihar,Muzaffarpur,"MIT-Daudpur Kothi, Muzaffarpur - BSPCB",27-08-2025 22:00:00,26.1403345,85.3650192,SO2,5,10,9
India,Bihar,Muzaffarpur,"MIT-Daudpur Kothi, Muzaffarpur - BSPCB",27-08-2025 22:00:00,26.1403345,85.3650192,CO,24,67,65
India,Bihar,Patna,"DRM Office Danapur, Patna - BSPCB",27-08-2025 22:00:00,25.586562,85.043586,NO2,29,35,32
India,Bihar,Patna,"Govt. High School Shikarpur, Patna - BSPCB",27-08-2025 22:00:00,25.592539,85.227158,NO2,4,6,5
India,Chhattisgarh,Korba,"Rampur, Korba - CECB",27-08-2025 22:00:00,22.368195,82.746431,NO2,NA,NA,NA
India,Chhattisgarh,Korba,"Urja Nagar, Korba - CECB",27-08-2025 22:00:00,22.348441,82.549611,NO2,NA,NA,NA
India,Chhattisgarh,Korba,"Urja Nagar, Korba - CECB",27-08-2025 22:00:00,22.348441,82.549611,NH3,NA,NA,NA
India,Chhattisgarh,Kunjemura,"OP Jindal School, Kunjemura - CECB",27-08-2025 22:00:00,22.126650,83.483212,PM10,10,107,24
India,Chhattisgarh,Milupara,"Govt. Higher Secondary School, Milupara - CECB",27-08-2025 22:00:00,22.1910172,83.5197009,PM2.5,NA,NA,NA
India,Chhattisgarh,Milupara,"Govt. Higher Secondary School, Milupara - CECB",27-08-2025 22:00:00,22.1910172,83.5197009,PM10,NA,NA,NA
India,Chhattisgarh,Milupara,"Govt. Higher Secondary School, Milupara - CECB",27-08-2025 22:00:00,22.1910172,83.5197009,SO2,NA,NA,NA
India,Bihar,Patna,"IGSC Planetarium Complex, Patna - BSPCB",27-08-2025 22:00:00,25.610369,85.132568,SO2,1,26,22
India,Bihar,Patna,"Muradpur, Patna - BSPCB",27-08-2025 22:00:00,25.619651,85.147382,PM2.5,36,85,65
India,Bihar,Patna,"Muradpur, Patna - BSPCB",27-08-2025 22:00:00,25.619651,85.147382,PM10,51,279,130
India,Bihar,Patna,"Muradpur, Patna - BSPCB",27-08-2025 22:00:00,25.619651,85.147382,NH3,NA,NA,NA
India,Bihar,Patna,"Rajbansi Nagar, Patna - BSPCB",27-08-2025 22:00:00,25.599486,85.113666,OZONE,13,39,20
India,Bihar,Patna,"Samanpura, Patna - BSPCB",27-08-2025 22:00:00,25.596727,85.085624,SO2,1,1,1
India,Chhattisgarh,Milupara,"Govt. Higher Secondary School, Milupara - CECB",27-08-2025 22:00:00,22.1910172,83.5197009,OZONE,24,34,28
India,Chhattisgarh,Raipur,"Bhatagaon New ISBT, Raipur - CECB",27-08-2025 22:00:00,21.219665,81.630094,PM2.5,1,26,12
India,Chhattisgarh,Raipur,"Krishak Nagar, Raipur - CECB",27-08-2025 22:00:00,21.237755,81.705301,CO,11,18,14
India,Chhattisgarh,Raipur,"Siltara Phase-II, Raipur - CECB",27-08-2025 22:00:00,21.371751,81.664929,PM10,20,162,74
India,Bihar,Rajgir,"Dangi Tola, Rajgir - BSPCB",27-08-2025 22:00:00,25.03280,85.41948,SO2,18,26,21
India,Bihar,Saharsa,"Police Line, Saharsa - BSPCB",27-08-2025 22:00:00,25.892357,86.590325,OZONE,8,31,14
India,Bihar,Samastipur,"DM Office_Kasipur, Samastipur - BSPCB",27-08-2025 22:00:00,25.859655,85.77944,PM10,15,418,67
India,Bihar,Sasaram,"Dada Peer, Sasaram - BSPCB",27-08-2025 22:00:00,24.952822,84.002396,PM2.5,13,25,19
India,Chhattisgarh,Tumidih,"OP Jindal Industrial Park, Tumidih - CECB",27-08-2025 22:00:00,22.06631475,83.33820077,SO2,5,15,7
India,Chhattisgarh,Tumidih,"OP Jindal Industrial Park, Tumidih - CECB",27-08-2025 22:00:00,22.06631475,83.33820077,OZONE,4,27,14
India,Delhi,Delhi,"Alipur, Delhi - DPCC",27-08-2025 22:00:00,28.815329,77.153010,NO2,16,31,23
India,Delhi,Delhi,"Anand Vihar, Delhi - DPCC",27-08-2025 22:00:00,28.647622,77.3158090,OZONE,4,20,8
India,Chandigarh,Chandigarh,"Sector 22, Chandigarh - CPCC",27-08-2025 22:00:00,30.735567,76.775714,PM10,8,55,26
India,Chandigarh,Chandigarh,"Sector 22, Chandigarh - CPCC",27-08-2025 22:00:00,30.735567,76.775714,NO2,10,58,28
India,Chandigarh,Chandigarh,"Sector 22, Chandigarh - CPCC",27-08-2025 22:00:00,30.735567,76.775714,CO,27,86,66
India,Chandigarh,Chandigarh,"Sector 22, Chandigarh - CPCC",27-08-2025 22:00:00,30.735567,76.775714,OZONE,4,45,22
India,Chandigarh,Chandigarh,"Sector-25, Chandigarh - CPCC",27-08-2025 22:00:00,30.751462,76.762879,NO2,7,19,11
India,Chandigarh,Chandigarh,"Sector-25, Chandigarh - CPCC",27-08-2025 22:00:00,30.751462,76.762879,SO2,2,18,9
India,Bihar,Motihari,"Gandak Colony, Motihari - BSPCB",27-08-2025 22:00:00,26.63086,84.90051,PM10,18,454,127
India,Bihar,Motihari,"Gandak Colony, Motihari - BSPCB",27-08-2025 22:00:00,26.63086,84.90051,OZONE,NA,NA,NA
India,Bihar,Munger,"Town Hall, Munger - BSPCB",27-08-2025 22:00:00,25.376776,86.471523,PM2.5,10,382,69
India,Delhi,Delhi,"Sonia Vihar, Delhi - DPCC",27-08-2025 22:00:00,28.710508,77.249485,SO2,10,14,13
India,Delhi,Delhi,"Sonia Vihar, Delhi - DPCC",27-08-2025 22:00:00,28.710508,77.249485,OZONE,5,45,22
India,Delhi,Delhi,"Sri Aurobindo Marg, Delhi - DPCC",27-08-2025 22:00:00,28.531346,77.190156,PM2.5,10,48,23
India,Delhi,Delhi,"Sri Aurobindo Marg, Delhi - DPCC",27-08-2025 22:00:00,28.531346,77.190156,OZONE,6,19,14
India,Delhi,Delhi,"Vivek Vihar, Delhi - DPCC",27-08-2025 22:00:00,28.672342,77.315260,NH3,2,30,6
India,Delhi,Delhi,"Vivek Vihar, Delhi - DPCC",27-08-2025 22:00:00,28.672342,77.315260,SO2,5,9,7
India,Delhi,Delhi,"Wazirpur, Delhi - DPCC",27-08-2025 22:00:00,28.699793,77.165453,NO2,23,83,40
India,Gujarat,Ahmedabad,"Chandkheda, Ahmedabad - IITM",27-08-2025 22:00:00,23.107969,72.574648,PM2.5,22,62,35
India,Delhi,Delhi,"Dr. Karni Singh Shooting Range, Delhi - DPCC",27-08-2025 22:00:00,28.498571,77.264840,SO2,4,14,8
India,Delhi,Delhi,"Dr. Karni Singh Shooting Range, Delhi - DPCC",27-08-2025 22:00:00,28.498571,77.264840,CO,34,109,62
India,Delhi,Delhi,"Dr. Karni Singh Shooting Range, Delhi - DPCC",27-08-2025 22:00:00,28.498571,77.264840,OZONE,9,28,20
India,Delhi,Delhi,"Dwarka-Sector 8, Delhi - DPCC ",27-08-2025 22:00:00,28.5710274,77.0719006,NO2,30,85,53
India,Delhi,Delhi,"Dwarka-Sector 8, Delhi - DPCC ",27-08-2025 22:00:00,28.5710274,77.0719006,SO2,NA,NA,NA
India,Delhi,Delhi,"IHBAS, Dilshad Garden, Delhi - CPCB",27-08-2025 22:00:00,28.6811736,77.3025234,PM2.5,37,65,47
India,Delhi,Delhi,"IHBAS, Dilshad Garden, Delhi - CPCB",27-08-2025 22:00:00,28.6811736,77.3025234,SO2,7,18,11
India,Delhi,Delhi,"IHBAS, Dilshad Garden, Delhi - CPCB",27-08-2025 22:00:00,28.6811736,77.3025234,CO,24,102,63
India,Delhi,Delhi,"Narela, Delhi - DPCC",27-08-2025 22:00:00,28.822836,77.101981,SO2,5,10,6
India,Delhi,Delhi,"Narela, Delhi - DPCC",27-08-2025 22:00:00,28.822836,77.101981,OZONE,18,24,19
India,Delhi,Delhi,"Nehru Nagar, Delhi - DPCC",27-08-2025 22:00:00,28.567890,77.250515,PM2.5,10,253,73
India,Delhi,Delhi,"Nehru Nagar, Delhi - DPCC",27-08-2025 22:00:00,28.567890,77.250515,NH3,3,6,4
India,Delhi,Delhi,"North Campus, DU, Delhi - IMD",27-08-2025 22:00:00,28.6573814,77.1585447,OZONE,1,51,15
India,Delhi,Delhi,"Okhla Phase-2, Delhi - DPCC",27-08-2025 22:00:00,28.530785,77.271255,PM10,NA,NA,NA
India,Delhi,Delhi,"Okhla Phase-2, Delhi - DPCC",27-08-2025 22:00:00,28.530785,77.271255,NO2,NA,NA,NA
India,Delhi,Delhi,"Okhla Phase-2, Delhi - DPCC",27-08-2025 22:00:00,28.530785,77.271255,OZONE,16,30,21
India,Delhi,Delhi,"Bawana, Delhi - DPCC",27-08-2025 22:00:00,28.776200,77.051074,CO,30,92,62
India,Delhi,Delhi,"Bawana, Delhi - DPCC",27-08-2025 22:00:00,28.776200,77.051074,OZONE,3,28,14
India,Delhi,Delhi,"Burari Crossing, Delhi - IMD",27-08-2025 22:00:00,28.7256504,77.2011573,PM10,16,110,65
India,Delhi,Delhi,"Burari Crossing, Delhi - IMD",27-08-2025 22:00:00,28.7256504,77.2011573,CO,11,60,30
India,Delhi,Delhi,"Chandni Chowk, Delhi - IITM",27-08-2025 22:00:00,28.656756,77.227234,PM10,49,111,75
India,Delhi,Delhi,"Chandni Chowk, Delhi - IITM",27-08-2025 22:00:00,28.656756,77.227234,NH3,8,72,20
India,Delhi,Delhi,"Chandni Chowk, Delhi - IITM",27-08-2025 22:00:00,28.656756,77.227234,SO2,9,16,13
India,Delhi,Delhi,"DTU, Delhi - CPCB",27-08-2025 22:00:00,28.7500499,77.1112615,NH3,14,14,14
India,Delhi,Delhi,"Patparganj, Delhi - DPCC",27-08-2025 22:00:00,28.623763,77.287209,SO2,9,13,11
India,Delhi,Delhi,"Patparganj, Delhi - DPCC",27-08-2025 22:00:00,28.623763,77.287209,OZONE,12,21,16
India,Delhi,Delhi,"Pusa, Delhi - DPCC",27-08-2025 22:00:00,28.639652,77.146275,PM10,19,123,76
India,Delhi,Delhi,"Pusa, Delhi - DPCC",27-08-2025 22:00:00,28.639652,77.146275,NO2,18,66,40
India,Delhi,Delhi,"Pusa, Delhi - DPCC",27-08-2025 22:00:00,28.639652,77.146275,NH3,1,3,2
India,Delhi,Delhi,"Pusa, Delhi - DPCC",27-08-2025 22:00:00,28.639652,77.146275,OZONE,2,16,10
India,Delhi,Delhi,"Pusa, Delhi - IMD",27-08-2025 22:00:00,28.636110,77.173332,PM10,13,97,55
India,Delhi,Delhi,"R K Puram, Delhi - DPCC",27-08-2025 22:00:00,28.563262,77.186937,NO2,16,52,33
India,Delhi,Delhi,"Rohini, Delhi - DPCC",27-08-2025 22:00:00,28.732528,77.119920,SO2,3,5,4
India,Delhi,Delhi,"Shadipur, Delhi - CPCB",27-08-2025 22:00:00,28.6514781,77.1473105,PM2.5,43,135,72
India,Delhi,Delhi,"Shadipur, Delhi - CPCB",27-08-2025 22:00:00,28.6514781,77.1473105,NO2,57,104,75
India,Delhi,Delhi,"Shadipur, Delhi - CPCB",27-08-2025 22:00:00,28.6514781,77.1473105,SO2,4,12,10
India,Delhi,Delhi,"Sirifort, Delhi - CPCB",27-08-2025 22:00:00,28.5504249,77.2159377,PM2.5,1,67,40
India,Delhi,Delhi,"Sirifort, Delhi - CPCB",27-08-2025 22:00:00,28.5504249,77.2159377,OZONE,19,25,22
India,Delhi,Delhi,"Sonia Vihar, Delhi - DPCC",27-08-2025 22:00:00,28.710508,77.249485,PM10,20,155,77
India,Gujarat,Ahmedabad,"Chandkheda, Ahmedabad - IITM",27-08-2025 22:00:00,23.107969,72.574648,OZONE,2,26,19
India,Gujarat,Ahmedabad,"Gyaspur, Ahmedabad - IITM",27-08-2025 22:00:00,22.977134,72.553024,NH3,11,17,13
India,Gujarat,Ahmedabad,"Maninagar, Ahmedabad - GPCB",27-08-2025 22:00:00,23.002657,72.591912,SO2,14,27,23
India,Gujarat,Ahmedabad,"Maninagar, Ahmedabad - GPCB",27-08-2025 22:00:00,23.002657,72.591912,OZONE,12,42,31
India,Gujarat,Ahmedabad,"Raikhad, Ahmedabad - IITM",27-08-2025 22:00:00,23.020509,72.579261,PM10,44,79,61
India,Gujarat,Ahmedabad,"Raikhad, Ahmedabad - IITM",27-08-2025 22:00:00,23.020509,72.579261,OZONE,3,10,5
India,Delhi,Delhi,"Jahangirpuri, Delhi - DPCC",27-08-2025 22:00:00,28.732820,77.170633,SO2,5,12,8
India,Delhi,Delhi,"Jahangirpuri, Delhi - DPCC",27-08-2025 22:00:00,28.732820,77.170633,OZONE,52,60,58
India,Delhi,Delhi,"Jawaharlal Nehru Stadium, Delhi - DPCC",27-08-2025 22:00:00,28.580280,77.233829,NH3,NA,NA,NA
India,Delhi,Delhi,"Mandir Marg, Delhi - DPCC",27-08-2025 22:00:00,28.636429,77.201067,PM2.5,10,103,50
India,Delhi,Delhi,"NSIT Dwarka, Delhi - CPCB",27-08-2025 22:00:00,28.60909,77.0325413,CO,8,87,21
India,Delhi,Delhi,"Najafgarh, Delhi - DPCC",27-08-2025 22:00:00,28.570173,76.933762,OZONE,3,17,12
India,Karnataka,Kalaburagi,"Lal Bahadur Shastri Nagar, Kalaburagi - KSPCB",27-08-2025 22:00:00,17.321993,76.822628,NH3,NA,NA,NA
India,Karnataka,Kalaburagi,"Lal Bahadur Shastri Nagar, Kalaburagi - KSPCB",27-08-2025 22:00:00,17.321993,76.822628,CO,34,36,35
India,Karnataka,Kalaburagi,"Mahatma Basaveswar Colony, Kalaburgi - KSPCB",27-08-2025 22:00:00,17.336318,76.847397,PM2.5,15,30,21
India,Karnataka,Kalaburagi,"Mahatma Basaveswar Colony, Kalaburgi - KSPCB",27-08-2025 22:00:00,17.336318,76.847397,NO2,12,17,14
India,Karnataka,Kalaburagi,"Mahatma Basaveswar Colony, Kalaburgi - KSPCB",27-08-2025 22:00:00,17.336318,76.847397,CO,28,74,51
India,Karnataka,Kalaburagi,"Mahatma Basaveswar Colony, Kalaburgi - KSPCB",27-08-2025 22:00:00,17.336318,76.847397,OZONE,9,14,11
India,Karnataka,Karwar,"KHB Colony, Karwar - KSPCB",27-08-2025 22:00:00,14.816666,74.141003,SO2,18,24,20
India,Karnataka,Karwar,"KHB Colony, Karwar - KSPCB",27-08-2025 22:00:00,14.816666,74.141003,CO,7,10,8
India,Karnataka,Koppal,"Diwator Nagar, Koppal - KSPCB",27-08-2025 22:00:00,15.347630,76.181767,CO,49,54,53
India,Karnataka,Koppal,"Diwator Nagar, Koppal - KSPCB",27-08-2025 22:00:00,15.347630,76.181767,OZONE,4,8,6
India,Karnataka,Madikeri,"Stuart Hill, Madikeri - KSPCB",27-08-2025 22:00:00,12.415911,75.735050,PM2.5,7,22,14
India,Karnataka,Madikeri,"Stuart Hill, Madikeri - KSPCB",27-08-2025 22:00:00,12.415911,75.735050,PM10,12,20,16
India,Gujarat,Ahmedabad,"SAC ISRO Bopal, Ahmedabad - IITM",27-08-2025 22:00:00,23.041137,72.456691,SO2,1,3,2
India,Gujarat,Ahmedabad,"SAC ISRO Bopal, Ahmedabad - IITM",27-08-2025 22:00:00,23.041137,72.456691,CO,6,58,42
India,Gujarat,Ahmedabad,"SAC ISRO Satellite, Ahmedabad - IITM",27-08-2025 22:00:00,23.023389,72.515201,NH3,3,3,3
India,Gujarat,Ahmedabad,"SAC ISRO Satellite, Ahmedabad - IITM",27-08-2025 22:00:00,23.023389,72.515201,SO2,3,6,4
India,Gujarat,Ahmedabad,"SAC ISRO Satellite, Ahmedabad - IITM",27-08-2025 22:00:00,23.023389,72.515201,OZONE,5,27,18
India,Gujarat,Ahmedabad,"SVPI Airport Hansol, Ahmedabad - IITM",27-08-2025 22:00:00,23.076793,72.627874,PM2.5,9,29,17
India,Gujarat,Ahmedabad,"SVPI Airport Hansol, Ahmedabad - IITM",27-08-2025 22:00:00,23.076793,72.627874,PM10,39,72,49
India,Gujarat,Ahmedabad,"SVPI Airport Hansol, Ahmedabad - IITM",27-08-2025 22:00:00,23.076793,72.627874,CO,10,31,21
India,Gujarat,Ahmedabad,"SVPI Airport Hansol, Ahmedabad - IITM",27-08-2025 22:00:00,23.076793,72.627874,OZONE,3,31,20
India,Gujarat,Ahmedabad,"Sardar Vallabhbhai Patel Stadium, Ahmedabad - IITM",27-08-2025 22:00:00,23.043070,72.562968,PM2.5,16,59,33
India,Gujarat,Ahmedabad,"Sardar Vallabhbhai Patel Stadium, Ahmedabad - IITM",27-08-2025 22:00:00,23.043070,72.562968,OZONE,4,34,23
India,Karnataka,Chikkamagaluru,"Kalyana Nagara, Chikkamagaluru - KSPCB",27-08-2025 22:00:00,13.328028,75.797056,PM2.5,6,36,16
India,Karnataka,Chikkamagaluru,"Kalyana Nagara, Chikkamagaluru - KSPCB",27-08-2025 22:00:00,13.328028,75.797056,CO,11,11,11
India,Karnataka,Chikkamagaluru,"Kalyana Nagara, Chikkamagaluru - KSPCB",27-08-2025 22:00:00,13.328028,75.797056,OZONE,10,17,15
India,Karnataka,Davanagere,"Devaraj Urs Badavane, Davanagere - KSPCB",27-08-2025 22:00:00,14.475800,75.905200,NO2,9,16,13
India,Karnataka,Davanagere,"Devaraj Urs Badavane, Davanagere - KSPCB",27-08-2025 22:00:00,14.475800,75.905200,SO2,3,5,4
India,Karnataka,Davanagere,"Devaraj Urs Badavane, Davanagere - KSPCB",27-08-2025 22:00:00,14.475800,75.905200,OZONE,24,26,26
India,Karnataka,Dharwad,"Kalabhavan, Dharwad - KSPCB",27-08-2025 22:00:00,15.459706,75.008381,CO,28,50,44
India,Karnataka,Haveri,"Ashwini Nagar, Haveri - KSPCB",27-08-2025 22:00:00,14.791800,75.389600,NH3,NA,NA,NA
India,Karnataka,Haveri,"Ashwini Nagar, Haveri - KSPCB",27-08-2025 22:00:00,14.791800,75.389600,SO2,NA,NA,NA
India,Karnataka,Haveri,"Ashwini Nagar, Haveri - KSPCB",27-08-2025 22:00:00,14.791800,75.389600,CO,NA,NA,NA
India,Karnataka,Haveri,"Ashwini Nagar, Haveri - KSPCB",27-08-2025 22:00:00,14.791800,75.389600,OZONE,NA,NA,NA
India,Karnataka,Bengaluru,"RVCE-Mailasandra, Bengaluru - KSPCB",27-08-2025 22:00:00,12.921418,77.502466,OZONE,NA,NA,NA
India,Karnataka,Bengaluru,"Sanegurava Halli, Bengaluru - KSPCB",27-08-2025 22:00:00,12.990328,77.5431385,PM10,39,41,39
India,Karnataka,Bengaluru,"Shivapura_Peenya, Bengaluru - KSPCB",27-08-2025 22:00:00,13.0246342,77.5080115,PM2.5,36,73,56
India,Karnataka,Bengaluru,"Shivapura_Peenya, Bengaluru - KSPCB",27-08-2025 22:00:00,13.0246342,77.5080115,PM10,48,72,55
India,Karnataka,Bengaluru,"Silk Board, Bengaluru - KSPCB",27-08-2025 22:00:00,12.917348,77.622813,PM10,27,85,59
India,Karnataka,Bengaluru,"Silk Board, Bengaluru - KSPCB",27-08-2025 22:00:00,12.917348,77.622813,NH3,2,2,2
India,Karnataka,Bengaluru,"Silk Board, Bengaluru - KSPCB",27-08-2025 22:00:00,12.917348,77.622813,SO2,8,11,9
India,Karnataka,Chikkaballapur,"Chikkaballapur Rural, Chikkaballapur - KSPCB",27-08-2025 22:00:00,13.428828,77.731418,CO,11,16,13
India,Karnataka,Bengaluru,"Hombegowda Nagar, Bengaluru - KSPCB",27-08-2025 22:00:00,12.938539,77.590100,CO,8,20,15
India,Karnataka,Bengaluru,"Jayanagar 5th Block, Bengaluru - KSPCB",27-08-2025 22:00:00,12.920984,77.584908,CO,7,17,13
India,Karnataka,Bengaluru,"Jigani, Bengaluru - KSPCB",27-08-2025 22:00:00,12.7816279,77.6299145,PM2.5,33,38,36
India,Karnataka,Bengaluru,"Jigani, Bengaluru - KSPCB",27-08-2025 22:00:00,12.7816279,77.6299145,NH3,5,6,6
India,Karnataka,Bengaluru,"Peenya, Bengaluru - CPCB",27-08-2025 22:00:00,13.0270199,77.494094,NH3,2,3,3
India,Karnataka,Bengaluru,"Peenya, Bengaluru - CPCB",27-08-2025 22:00:00,13.0270199,77.494094,OZONE,24,26,25
India,Karnataka,Bengaluru,"RVCE-Mailasandra, Bengaluru - KSPCB",27-08-2025 22:00:00,12.921418,77.502466,NO2,NA,NA,NA
India,Gujarat,Surat,"Science Center, Surat - SMC",27-08-2025 22:00:00,21.170046,72.795405,PM2.5,2,35,19
India,Gujarat,Surat,"Science Center, Surat - SMC",27-08-2025 22:00:00,21.170046,72.795405,PM10,5,77,36
India,Gujarat,Vapi,"Phase-1 GIDC, Vapi - GPCB",27-08-2025 22:00:00,20.362421,72.918013,SO2,NA,NA,NA
India,Gujarat,Vatva,"Phase-4 GIDC, Vatva - GPCB",27-08-2025 22:00:00,22.969611,72.643500,SO2,18,24,20
India,Haryana,Panchgaon,"Amity University, Panchgaon - IITM",27-08-2025 22:00:00,28.3153,76.9143,PM10,11,232,68
India,Haryana,Panchgaon,"Amity University, Panchgaon - IITM",27-08-2025 22:00:00,28.3153,76.9143,NO2,3,12,8
India,Gujarat,Ankleshwar,"GIDC, Ankleshwar - GPCB",27-08-2025 22:00:00,21.613267,73.010555,NH3,6,6,6
India,Gujarat,Gandhinagar,"GIFT City, Gandhinagar - IITM",27-08-2025 22:00:00,23.163798,72.677768,PM2.5,18,71,42
India,Gujarat,Gandhinagar,"GIFT City, Gandhinagar - IITM",27-08-2025 22:00:00,23.163798,72.677768,CO,4,33,20
India,Gujarat,Gandhinagar,"GIFT City, Gandhinagar - IITM",27-08-2025 22:00:00,23.163798,72.677768,OZONE,9,19,13
India,Gujarat,Gandhinagar,"IIPHG Lekawada, Gandhinagar - IITM",27-08-2025 22:00:00,23.243639,72.68994,OZONE,1,24,13
India,Gujarat,Gandhinagar,"Sector-10, Gandhinagar - GPCB",27-08-2025 22:00:00,23.221714,72.654328,PM10,31,73,47
India,Haryana,Panchgaon,"Amity University, Panchgaon - IITM",27-08-2025 22:00:00,28.3153,76.9143,OZONE,8,42,16
India,Jharkhand,Dhanbad,"Sardar Patel Nagar, Dhanbad - JSPCB",27-08-2025 22:00:00,23.80569,86.44268,OZONE,3,50,22
India,Karnataka,Bagalkot,"Vidayagiri, Bagalkot - KSPCB",27-08-2025 22:00:00,16.172806,75.659694,SO2,7,7,7
India,Karnataka,Belgaum,"Ramteerth Nagar, Belgaum - KSPCB",27-08-2025 22:00:00,15.888653,74.541751,PM2.5,NA,NA,NA
India,Karnataka,Bengaluru,"BTM Layout, Bengaluru - CPCB",27-08-2025 22:00:00,12.9135218,77.5950804,NH3,4,5,4
India,Karnataka,Bengaluru,"Bapuji Nagar, Bengaluru - KSPCB",27-08-2025 22:00:00,12.951913,77.539784,OZONE,1,27,17
India,Karnataka,Bengaluru,"Hebbal, Bengaluru - KSPCB",27-08-2025 22:00:00,13.029152,77.585901,PM10,7,26,15
India,Madhya Pradesh,Singrauli,"Suryakiran Bhawan NCL, Singrauli - MPPCB",27-08-2025 22:00:00,24.108970,82.645580,PM2.5,51,270,108
India,Madhya Pradesh,Singrauli,"Suryakiran Bhawan NCL, Singrauli - MPPCB",27-08-2025 22:00:00,24.108970,82.645580,NO2,22,61,39
India,Madhya Pradesh,Singrauli,"Suryakiran Bhawan NCL, Singrauli - MPPCB",27-08-2025 22:00:00,24.108970,82.645580,OZONE,11,35,21
India,Maharashtra,Ahmednagar,"Tarakpur, Ahmednagar - MPCB",27-08-2025 22:00:00,19.10122,74.73339,PM10,5,36,23
India,Maharashtra,Ahmednagar,"Tarakpur, Ahmednagar - MPCB",27-08-2025 22:00:00,19.10122,74.73339,NH3,4,7,6
India,Maharashtra,Akola,"Ramdaspeth, Akola - MPCB",27-08-2025 22:00:00,20.719516,77.000253,NO2,13,23,20
India,Maharashtra,Akola,"Ramdaspeth, Akola - MPCB",27-08-2025 22:00:00,20.719516,77.000253,OZONE,10,27,18
India,Madhya Pradesh,Mandideep,"Sector-D Industrial Area, Mandideep - MPPCB",27-08-2025 22:00:00,23.108440,77.511428,PM10,54,97,74
India,Madhya Pradesh,Mandideep,"Sector-D Industrial Area, Mandideep - MPPCB",27-08-2025 22:00:00,23.108440,77.511428,CO,19,52,37
India,Madhya Pradesh,Pithampur,"Sector-2 Industrial Area, Pithampur - MPPCB",27-08-2025 22:00:00,22.624758,75.675238,SO2,12,26,15
India,Madhya Pradesh,Ratlam,"Shasthri Nagar, Ratlam - IPCA Lab",27-08-2025 22:00:00,23.331731,75.045981,PM2.5,1,72,30
India,Madhya Pradesh,Ratlam,"Shasthri Nagar, Ratlam - IPCA Lab",27-08-2025 22:00:00,23.331731,75.045981,SO2,31,33,32
India,Madhya Pradesh,Sagar,"Civil Lines, Sagar - MPPCB",27-08-2025 22:00:00,23.838586,78.759431,NO2,NA,NA,NA
India,Madhya Pradesh,Jabalpur,"Gupteshwar, Jabalpur - JMC",27-08-2025 22:00:00,23.142888,79.916147,CO,18,43,30
India,Madhya Pradesh,Jabalpur,"Marhatal, Jabalpur - MPPCB",27-08-2025 22:00:00,23.168606,79.932247,NO2,33,49,43
India,Madhya Pradesh,Jabalpur,"Marhatal, Jabalpur - MPPCB",27-08-2025 22:00:00,23.168606,79.932247,SO2,16,26,22
India,Madhya Pradesh,Jabalpur,"Suhagi, Jabalpur - JMC",27-08-2025 22:00:00,23.218135,79.957770,NO2,18,30,25
India,Madhya Pradesh,Jabalpur,"Suhagi, Jabalpur - JMC",27-08-2025 22:00:00,23.218135,79.957770,NH3,2,2,2
India,Madhya Pradesh,Jabalpur,"Suhagi, Jabalpur - JMC",27-08-2025 22:00:00,23.218135,79.957770,SO2,6,8,7
India,Madhya Pradesh,Jabalpur,"Suhagi, Jabalpur - JMC",27-08-2025 22:00:00,23.218135,79.957770,CO,2,71,13
India,Karnataka,Madikeri,"Stuart Hill, Madikeri - KSPCB",27-08-2025 22:00:00,12.415911,75.735050,SO2,7,7,7
India,Karnataka,Mysuru,"Hebbal 1st Stage, Mysuru - KSPCB",27-08-2025 22:00:00,12.21041,76.37376,SO2,1,24,11
India,Karnataka,Raichur,"Haji Colony, Raichur - KSPCB",27-08-2025 22:00:00,16.208139,77.348417,NO2,NA,NA,NA
India,Karnataka,Raichur,"Haji Colony, Raichur - KSPCB",27-08-2025 22:00:00,16.208139,77.348417,NH3,NA,NA,NA
India,Karnataka,Vijayapura,"Ibrahimpur, Vijayapura - KSPCB",27-08-2025 22:00:00,16.802639,75.722694,PM2.5,31,38,37
India,Madhya Pradesh,Indore,"Chhoti Gwaltoli, Indore - MPPCB",27-08-2025 22:00:00,22.4310,75.5213,CO,26,83,67
India,Madhya Pradesh,Indore,"Maguda Nagar, Indore - IMC",27-08-2025 22:00:00,22.7524,75.8872,PM10,1,33,21
India,Madhya Pradesh,Indore,"Residency Area, Indore - IMC",27-08-2025 22:00:00,22.7084,75.8815,PM10,12,39,28
India,Madhya Pradesh,Indore,"Residency Area, Indore - IMC",27-08-2025 22:00:00,22.7084,75.8815,SO2,35,37,36
India,Madhya Pradesh,Jabalpur,"Govindh Bhavan Colony, Jabalpur - JMC",27-08-2025 22:00:00,23.163174,79.973061,PM10,18,46,32
India,Madhya Pradesh,Gwalior,"Deen Dayal Nagar, Gwalior - MPPCB",27-08-2025 22:00:00,26.259242,78.216432,PM10,15,119,47
India,Madhya Pradesh,Gwalior,"Deen Dayal Nagar, Gwalior - MPPCB",27-08-2025 22:00:00,26.259242,78.216432,CO,16,34,22
India,Madhya Pradesh,Gwalior,"Maharaj Bada, Gwalior - MPPCB",27-08-2025 22:00:00,26.200388,78.147714,NO2,12,41,24
India,Madhya Pradesh,Gwalior,"Maharaj Bada, Gwalior - MPPCB",27-08-2025 22:00:00,26.200388,78.147714,NH3,1,2,1
India,Madhya Pradesh,Gwalior,"Maharaj Bada, Gwalior - MPPCB",27-08-2025 22:00:00,26.200388,78.147714,CO,26,50,35
India,Madhya Pradesh,Gwalior,"Maharaj Bada, Gwalior - MPPCB",27-08-2025 22:00:00,26.200388,78.147714,OZONE,15,44,25
India,Kerala,Thiruvananthapuram,"Plammoodu, Thiruvananthapuram - Kerala PCB",27-08-2025 22:00:00,8.5149093,76.9435879,NO2,51,96,69
India,Kerala,Thiruvananthapuram,"Plammoodu, Thiruvananthapuram - Kerala PCB",27-08-2025 22:00:00,8.5149093,76.9435879,SO2,10,29,20
India,Kerala,Thrissur,"Corporation Ground, Thrissur - Kerala PCB",27-08-2025 22:00:00,10.532400,76.215900,PM2.5,42,53,48
India,Kerala,Thrissur,"Corporation Ground, Thrissur - Kerala PCB",27-08-2025 22:00:00,10.532400,76.215900,PM10,45,53,50
India,Kerala,Eloor,"Udyogamandal, Eloor - Kerala PCB",27-08-2025 22:00:00,10.073232,76.302765,CO,1,134,97
India,Kerala,Kannur,"Thavakkara, Kannur - Kerala PCB",27-08-2025 22:00:00,11.875000,75.373200,NO2,13,14,14
India,Kerala,Kollam,"Polayathode, Kollam - Kerala PCB",27-08-2025 22:00:00,8.8787,76.6073,SO2,2,3,2
India,Madhya Pradesh,Bhopal,"Paryavaran Parisar, Bhopal - MPPCB",27-08-2025 22:00:00,23.210494,77.425409,PM2.5,17,38,27
India,Madhya Pradesh,Bhopal,"T T Nagar, Bhopal - MPPCB",27-08-2025 22:00:00,23.233584,77.400574,PM10,21,54,40
India,Madhya Pradesh,Damoh,"Shrivastav Colony, Damoh - MPPCB",27-08-2025 22:00:00,23.81748678,79.446246,PM2.5,5,71,23
