country,state,city,station,last_update,latitude,longitude,pollutant_id,min_value,max_value,avg_value
India,Andhra_Pradesh,Anantapur,"Gulzarpet, Anantapur - APPCB",06-03-2026 14:00:00,14.675886,77.593027,SO2,10,18,11
India,Andhra_Pradesh,Chittoor,"Gangineni Cheruvu, Chittoor - APPCB",06-03-2026 14:00:00,13.204880,79.097889,SO2,10,11,11
India,Andhra_Pradesh,Kadapa,"Yerramukkapalli, Kadapa - APPCB",06-03-2026 14:00:00,14.465052,78.824187,NO2,NA,NA,NA
India,Andhra_Pradesh,Kadapa,"Yerramukkapalli, Kadapa - APPCB",06-03-2026 14:00:00,14.465052,78.824187,OZONE,13,16,15
India,Andhra_Pradesh,Rajamahendravaram,"Anand Kala Kshetram, Rajamahendravaram - APPCB",06-03-2026 14:00:00,16.9872867,81.7363176,PM10,79,112,97
India,Andhra_Pradesh,Rajamahendravaram,"Anand Kala Kshetram, Rajamahendravaram - APPCB",06-03-2026 14:00:00,16.9872867,81.7363176,CO,14,44,33
India,Andhra_Pradesh,Tirumala,"Toll Gate, Tirumala - APPCB",06-03-2026 14:00:00,13.67,79.35,PM10,76,133,98
India,Andhra_Pradesh,Tirupati,"Vaikuntapuram, Tirupati - APPCB",06-03-2026 14:00:00,13.615387,79.409230,NH3,6,7,7
India,Andhra_Pradesh,Tirupati,"Vaikuntapuram, Tirupati - APPCB",06-03-2026 14:00:00,13.615387,79.409230,SO2,17,20,19
India,Andhra_Pradesh,Tirupati,"Vaikuntapuram, Tirupati - APPCB",06-03-2026 14:00:00,13.615387,79.409230,CO,20,25,22
India,Bihar,Bettiah,"Kamalnath Nagar, Bettiah - BSPCB",06-03-2026 14:00:00,26.80365,84.51954,PM2.5,22,140,64
India,Bihar,Bettiah,"Kamalnath Nagar, Bettiah - BSPCB",06-03-2026 14:00:00,26.80365,84.51954,SO2,11,18,15
India,Bihar,Bettiah,"Kamalnath Nagar, Bettiah - BSPCB",06-03-2026 14:00:00,26.80365,84.51954,OZONE,20,23,22
India,Bihar,Bhagalpur,"DM Office_Kachari Chowk, Bhagalpur - BSPCB",06-03-2026 14:00:00,25.251013,86.989001,PM2.5,57,210,134
India,Bihar,Bhagalpur,"DM Office_Kachari Chowk, Bhagalpur - BSPCB",06-03-2026 14:00:00,25.251013,86.989001,CO,12,28,20
India,Bihar,Bhagalpur,"DM Office_Kachari Chowk, Bhagalpur - BSPCB",06-03-2026 14:00:00,25.251013,86.989001,OZONE,10,25,18
India,Bihar,Bhagalpur,"Mayaganj, Bhagalpur - BSPCB",06-03-2026 14:00:00,25.265194,87.012947,NO2,5,8,7
India,Bihar,Bhagalpur,"Mayaganj, Bhagalpur - BSPCB",06-03-2026 14:00:00,25.265194,87.012947,NH3,5,6,6
India,Bihar,Bihar Sharif,"D M Colony, Bihar Sharif - BSPCB",06-03-2026 14:00:00,25.204762,85.514960,PM2.5,30,147,84
India,Bihar,Bihar Sharif,"D M Colony, Bihar Sharif - BSPCB",06-03-2026 14:00:00,25.204762,85.514960,NH3,3,4,3
India,Andhra_Pradesh,Vijayawada,"HB Colony, Vijayawada - APPCB",06-03-2026 14:00:00,16.536107,80.594233,PM2.5,51,97,68
India,Andhra_Pradesh,Vijayawada,"HB Colony, Vijayawada - APPCB",06-03-2026 14:00:00,16.536107,80.594233,OZONE,16,31,24
India,Andhra_Pradesh,Vijayawada,"Kanuru, Vijayawada - APPCB",06-03-2026 14:00:00,16.486692,80.699436,CO,36,56,44
India,Andhra_Pradesh,Vijayawada,"Rajiv Gandhi Park, Vijayawada - APPCB",06-03-2026 14:00:00,16.509717,80.612222,SO2,12,20,15
India,Andhra_Pradesh,Vijayawada,"Rajiv Nagar, Vijayawada - APPCB",06-03-2026 14:00:00,16.554731,80.649110,PM2.5,70,77,72
India,Andhra_Pradesh,Vijayawada,"Rajiv Nagar, Vijayawada - APPCB",06-03-2026 14:00:00,16.554731,80.649110,SO2,15,21,18
India,Andhra_Pradesh,Visakhapatnam,"GVM Corporation, Visakhapatnam - APPCB",06-03-2026 14:00:00,17.72,83.3,PM2.5,85,281,138
India,Assam,Silchar,"Tarapur, Silchar - PCBA",06-03-2026 14:00:00,24.82827,92.79525,NH3,1,1,1
India,Assam,Sivasagar,"Girls College, Sivasagar - PCBA",06-03-2026 14:00:00,26.987634,94.636574,CO,21,102,42
India,Bihar,Araria,"Kharahiya Basti, Araria - BSPCB",06-03-2026 14:00:00,26.146529,87.454184,NO2,NA,NA,NA
India,Bihar,Araria,"Kharahiya Basti, Araria - BSPCB",06-03-2026 14:00:00,26.146529,87.454184,NH3,4,5,4
India,Bihar,Arrah,"New DM Office, Arrah - BSPCB",06-03-2026 14:00:00,25.5626095,84.663264,PM2.5,58,267,136
India,Bihar,Arrah,"New DM Office, Arrah - BSPCB",06-03-2026 14:00:00,25.5626095,84.663264,NH3,1,2,2
India,Bihar,Aurangabad,"Gurdeo Nagar, Aurangabad - BSPCB",06-03-2026 14:00:00,24.75746,84.366208,PM2.5,NA,NA,NA
India,Bihar,Buxar,"Charitra Van, Buxar - BSPCB",06-03-2026 14:00:00,25.567520,83.966379,NO2,9,10,10
India,Bihar,Buxar,"Charitra Van, Buxar - BSPCB",06-03-2026 14:00:00,25.567520,83.966379,OZONE,3,71,33
India,Bihar,Gaya,"Collectorate, Gaya - BSPCB",06-03-2026 14:00:00,24.7955,84.9994,NO2,NA,NA,NA
India,Bihar,Gaya,"Collectorate, Gaya - BSPCB",06-03-2026 14:00:00,24.7955,84.9994,OZONE,18,18,18
India,Bihar,Gaya,"Kareemganj, Gaya - BSPCB",06-03-2026 14:00:00,24.792403,84.992416,PM2.5,63,327,144
India,Bihar,Gaya,"Kareemganj, Gaya - BSPCB",06-03-2026 14:00:00,24.792403,84.992416,OZONE,16,28,22
India,Bihar,Gaya,"SFTI Kusdihra, Gaya - BSPCB",06-03-2026 14:00:00,24.762518,84.982348,NO2,14,48,26
India,Assam,Byrnihat,"Central Academy for SFS, Byrnihat - PCBA",06-03-2026 14:00:00,26.071318,91.87488,PM2.5,87,416,188
India,Assam,Guwahati,"LGBI Airport, Guwahati - PCBA",06-03-2026 14:00:00,26.10887,91.589544,OZONE,10,15,13
India,Assam,Guwahati,"Pan Bazaar, Guwahati - PCBA",06-03-2026 14:00:00,26.187500,91.744194,SO2,44,77,61
India,Assam,Nagaon,"Christianpatty, Nagaon - PCBA",06-03-2026 14:00:00,26.349082,92.68449,PM2.5,67,168,120
India,Assam,Nagaon,"Christianpatty, Nagaon - PCBA",06-03-2026 14:00:00,26.349082,92.68449,NO2,1,9,3
India,Bihar,Gaya,"SFTI Kusdihra, Gaya - BSPCB",06-03-2026 14:00:00,24.762518,84.982348,SO2,8,13,10
India,Bihar,Hajipur,"Industrial Area, Hajipur - BSPCB",06-03-2026 14:00:00,25.697189,85.245900,PM2.5,79,307,209
India,Bihar,Hajipur,"Industrial Area, Hajipur - BSPCB",06-03-2026 14:00:00,25.697189,85.245900,NH3,20,23,22
India,Bihar,Hajipur,"Industrial Area, Hajipur - BSPCB",06-03-2026 14:00:00,25.697189,85.245900,OZONE,35,177,165
India,Bihar,Katihar,"Mirchaibari, Katihar - BSPCB",06-03-2026 14:00:00,25.560083,87.553265,PM2.5,40,130,87
India,Andhra_Pradesh,Amaravati,"Secretariat, Amaravati - APPCB",06-03-2026 14:00:00,16.5150833,80.5181667,PM2.5,49,157,97
India,Bihar,Begusarai,"Lohiyanagar, Begusarai - BSPCB",06-03-2026 14:00:00,25.42742023,86.13886079,CO,22,30,27
India,Assam,Nalbari,"Bata Chowk, Nalbari - PCBA",06-03-2026 14:00:00,26.446912,91.439057,CO,19,22,21
India,Bihar,Siwan,"Chitragupta Nagar, Siwan - BSPCB",06-03-2026 14:00:00,26.2271665,84.3570427,CO,28,122,73
India,Chandigarh,Chandigarh,"Sector 22, Chandigarh - CPCC",06-03-2026 14:00:00,30.735567,76.775714,PM10,52,111,83
India,Chandigarh,Chandigarh,"Sector 22, Chandigarh - CPCC",06-03-2026 14:00:00,30.735567,76.775714,OZONE,5,112,58
India,Chandigarh,Chandigarh,"Sector-25, Chandigarh - CPCC",06-03-2026 14:00:00,30.751462,76.762879,PM2.5,89,233,146
India,Chandigarh,Chandigarh,"Sector-25, Chandigarh - CPCC",06-03-2026 14:00:00,30.751462,76.762879,SO2,4,12,8
India,Chandigarh,Chandigarh,"Sector-53, Chandigarh - CPCC",06-03-2026 14:00:00,30.719859,76.738637,PM10,60,113,85
India,Chandigarh,Chandigarh,"Sector-53, Chandigarh - CPCC",06-03-2026 14:00:00,30.719859,76.738637,NH3,15,22,18
India,Chhattisgarh,Bhilai,"32Bungalows, Bhilai - CECB",06-03-2026 14:00:00,21.194815,81.314770,PM2.5,10,23,16
India,Chhattisgarh,Bhilai,"32Bungalows, Bhilai - CECB",06-03-2026 14:00:00,21.194815,81.314770,NH3,1,2,1
India,Chhattisgarh,Raipur,"Siltara Phase-II, Raipur - CECB",06-03-2026 14:00:00,21.371751,81.664929,CO,10,16,11
India,Chhattisgarh,Tumidih,"OP Jindal Industrial Park, Tumidih - CECB",06-03-2026 14:00:00,22.06631475,83.33820077,NH3,1,2,2
India,Delhi,Delhi,"Alipur, Delhi - DPCC",06-03-2026 14:00:00,28.815329,77.153010,NO2,12,49,26
India,Delhi,Delhi,"Alipur, Delhi - DPCC",06-03-2026 14:00:00,28.815329,77.153010,OZONE,1,67,28
India,Delhi,Delhi,"Ashok Vihar, Delhi - DPCC",06-03-2026 14:00:00,28.695381,77.181665,PM2.5,75,309,169
India,Delhi,Delhi,"Ashok Vihar, Delhi - DPCC",06-03-2026 14:00:00,28.695381,77.181665,NH3,15,17,16
India,Delhi,Delhi,"Aya Nagar, Delhi - IMD",06-03-2026 14:00:00,28.4706914,77.1099364,PM10,107,244,148
India,Chhattisgarh,Bhilai,"Civic Center, Bhilai - Bhilai Steel Plant",06-03-2026 14:00:00,21.185571,81.343175,PM10,17,32,24
India,Chhattisgarh,Bilaspur,"Mangala, Bilaspur - NTPC",06-03-2026 14:00:00,22.08815,82.13737,SO2,10,25,14
India,Chhattisgarh,Chhal,"Nawapara SECL Colony, Chhal - CECB",06-03-2026 14:00:00,22.118125,83.140608,PM2.5,36,61,44
India,Chhattisgarh,Chhal,"Nawapara SECL Colony, Chhal - CECB",06-03-2026 14:00:00,22.118125,83.140608,NH3,4,4,4
India,Chhattisgarh,Chhal,"Nawapara SECL Colony, Chhal - CECB",06-03-2026 14:00:00,22.118125,83.140608,CO,18,42,36
India,Chhattisgarh,Korba,"Rampur, Korba - CECB",06-03-2026 14:00:00,22.368195,82.746431,NO2,6,30,16
India,Delhi,Delhi,"Bawana, Delhi - DPCC",06-03-2026 14:00:00,28.776200,77.051074,PM2.5,48,315,186
India,Delhi,Delhi,"Bawana, Delhi - DPCC",06-03-2026 14:00:00,28.776200,77.051074,SO2,8,28,15
India,Delhi,Delhi,"Bawana, Delhi - DPCC",06-03-2026 14:00:00,28.776200,77.051074,CO,33,53,45
India,Delhi,Delhi,"Chandni Chowk, Delhi - IITM",06-03-2026 14:00:00,28.656756,77.227234,NO2,37,119,92
India,Delhi,Delhi,"Chandni Chowk, Delhi - IITM",06-03-2026 14:00:00,28.656756,77.227234,CO,26,94,84
India,Delhi,Delhi,"Chandni Chowk, Delhi - IITM",06-03-2026 14:00:00,28.656756,77.227234,OZONE,1,199,196
India,Delhi,Delhi,"Commonwealth Sports Complex, Delhi - DPCC",06-03-2026 14:00:00,28.615828 ,77.271992 ,PM10,117,206,149
India,Bihar,Patna,"Govt. High School Shikarpur, Patna - BSPCB",06-03-2026 14:00:00,25.592539,85.227158,PM2.5,30,44,37
India,Bihar,Patna,"IGSC Planetarium Complex, Patna - BSPCB",06-03-2026 14:00:00,25.610369,85.132568,NO2,1,2,1
India,Bihar,Patna,"Muradpur, Patna - BSPCB",06-03-2026 14:00:00,25.619651,85.147382,NO2,10,12,11
India,Bihar,Patna,"Rajbansi Nagar, Patna - BSPCB",06-03-2026 14:00:00,25.599486,85.113666,PM2.5,48,118,69
India,Bihar,Patna,"Rajbansi Nagar, Patna - BSPCB",06-03-2026 14:00:00,25.599486,85.113666,PM10,62,255,118
India,Bihar,Patna,"Rajbansi Nagar, Patna - BSPCB",06-03-2026 14:00:00,25.599486,85.113666,SO2,5,19,8
India,Chhattisgarh,Korba,"Urja Nagar, Korba - CECB",06-03-2026 14:00:00,22.348441,82.549611,OZONE,2,9,4
India,Chhattisgarh,Kunjemura,"OP Jindal School, Kunjemura - CECB",06-03-2026 14:00:00,22.126650,83.483212,NO2,13,75,36
India,Chhattisgarh,Milupara,"Govt. Higher Secondary School, Milupara - CECB",06-03-2026 14:00:00,22.1910172,83.5197009,NO2,11,60,27
India,Chhattisgarh,Raipur,"AIIMS, Raipur - CECB",06-03-2026 14:00:00,21.258815,81.578979,PM10,27,89,48
India,Bihar,Munger,"Town Hall, Munger - BSPCB",06-03-2026 14:00:00,25.376776,86.471523,SO2,11,93,52
India,Bihar,Munger,"Town Hall, Munger - BSPCB",06-03-2026 14:00:00,25.376776,86.471523,OZONE,9,11,10
India,Bihar,Muzaffarpur,"MIT-Daudpur Kothi, Muzaffarpur - BSPCB",06-03-2026 14:00:00,26.1403345,85.3650192,PM2.5,67,95,80
India,Bihar,Muzaffarpur,"MIT-Daudpur Kothi, Muzaffarpur - BSPCB",06-03-2026 14:00:00,26.1403345,85.3650192,CO,35,56,42
India,Bihar,Muzaffarpur,"Muzaffarpur Collectorate, Muzaffarpur - BSPCB",06-03-2026 14:00:00,26.1209,85.3647,CO,16,52,31
India,Bihar,Katihar,"Mirchaibari, Katihar - BSPCB",06-03-2026 14:00:00,25.560083,87.553265,OZONE,6,87,38
India,Bihar,Kishanganj,"SDM Office_Khagra, Kishanganj - BSPCB",06-03-2026 14:00:00,26.0881305,87.93840336,NO2,9,14,11
India,Bihar,Manguraha,"Forest Rest House, Manguraha - BSPCB",06-03-2026 14:00:00,27.308328,84.531742,PM10,105,187,134
India,Bihar,Manguraha,"Forest Rest House, Manguraha - BSPCB",06-03-2026 14:00:00,27.308328,84.531742,SO2,16,17,16
India,Bihar,Rajgir,"Dangi Tola, Rajgir - BSPCB",06-03-2026 14:00:00,25.03280,85.41948,PM10,24,122,72
India,Bihar,Saharsa,"Police Line, Saharsa - BSPCB",06-03-2026 14:00:00,25.892357,86.590325,CO,33,40,37
India,Bihar,Saharsa,"Police Line, Saharsa - BSPCB",06-03-2026 14:00:00,25.892357,86.590325,OZONE,7,14,10
India,Bihar,Sasaram,"Dada Peer, Sasaram - BSPCB",06-03-2026 14:00:00,24.952822,84.002396,PM10,72,140,98
India,Delhi,Delhi,"Patparganj, Delhi - DPCC",06-03-2026 14:00:00,28.623763,77.287209,OZONE,1,144,53
India,Delhi,Delhi,"Punjabi Bagh, Delhi - DPCC",06-03-2026 14:00:00,28.674045,77.131023,PM2.5,78,307,207
India,Delhi,Delhi,"Pusa, Delhi - DPCC",06-03-2026 14:00:00,28.639652,77.146275,PM10,111,370,202
India,Delhi,Delhi,"Pusa, Delhi - DPCC",06-03-2026 14:00:00,28.639652,77.146275,CO,2,131,86
India,Delhi,Delhi,"Pusa, Delhi - IMD",06-03-2026 14:00:00,28.636110,77.173332,PM2.5,52,210,112
India,Delhi,Delhi,"Pusa, Delhi - IMD",06-03-2026 14:00:00,28.636110,77.173332,PM10,90,245,146
India,Delhi,Delhi,"Pusa, Delhi - IMD",06-03-2026 14:00:00,28.636110,77.173332,OZONE,42,266,266
India,Delhi,Delhi,"R K Puram, Delhi - DPCC",06-03-2026 14:00:00,28.563262,77.186937,SO2,24,54,38
India,Delhi,Delhi,"R K Puram, Delhi - DPCC",06-03-2026 14:00:00,28.563262,77.186937,OZONE,7,153,153
India,Delhi,Delhi,"Rohini, Delhi - DPCC",06-03-2026 14:00:00,28.732528,77.119920,SO2,10,37,20
India,Delhi,Delhi,"Rohini, Delhi - DPCC",06-03-2026 14:00:00,28.732528,77.119920,CO,8,42,35
India,Delhi,Delhi,"Mundka, Delhi - DPCC",06-03-2026 14:00:00,28.684678,77.076574,NH3,8,12,10
India,Delhi,Delhi,"Mundka, Delhi - DPCC",06-03-2026 14:00:00,28.684678,77.076574,CO,50,77,62
India,Delhi,Delhi,"NSIT Dwarka, Delhi - CPCB",06-03-2026 14:00:00,28.60909,77.0325413,PM10,86,241,148
India,Delhi,Delhi,"NSUT Jaffarpur, Delhi - DPCC",06-03-2026 14:00:00,28.594004 ,76.909423 ,PM10,117,199,142
India,Delhi,Delhi,"NSUT Jaffarpur, Delhi - DPCC",06-03-2026 14:00:00,28.594004 ,76.909423 ,NO2,9,50,29
India,Delhi,Delhi,"NSUT Jaffarpur, Delhi - DPCC",06-03-2026 14:00:00,28.594004 ,76.909423 ,OZONE,9,103,60
India,Delhi,Delhi,"Najafgarh, Delhi - DPCC",06-03-2026 14:00:00,28.570173,76.933762,PM2.5,63,177,115
India,Delhi,Delhi,"Nehru Nagar, Delhi - DPCC",06-03-2026 14:00:00,28.567890,77.250515,PM10,112,185,150
India,Delhi,Delhi,"Jahangirpuri, Delhi - DPCC",06-03-2026 14:00:00,28.732820,77.170633,NO2,34,64,51
India,Delhi,Delhi,"Jahangirpuri, Delhi - DPCC",06-03-2026 14:00:00,28.732820,77.170633,OZONE,4,77,33
India,Delhi,Delhi,"Jawaharlal Nehru Stadium, Delhi - DPCC",06-03-2026 14:00:00,28.580280,77.233829,SO2,3,35,13
India,Delhi,Delhi,"Lodhi Road, Delhi - IMD",06-03-2026 14:00:00,28.5918245,77.2273074,PM10,100,218,143
India,Delhi,Delhi,"Lodhi Road, Delhi - IMD",06-03-2026 14:00:00,28.5918245,77.2273074,OZONE,10,152,152
India,Delhi,Delhi,"Major Dhyan Chand National Stadium, Delhi - DPCC",06-03-2026 14:00:00,28.611281,77.237738,OZONE,1,157,157
India,Delhi,Delhi,"Mandir Marg, Delhi - DPCC",06-03-2026 14:00:00,28.636429,77.201067,CO,34,109,94
India,Gujarat,Ahmedabad,"SAC ISRO Bopal, Ahmedabad - IITM",06-03-2026 14:00:00,23.041137,72.456691,PM2.5,37,96,65
India,Gujarat,Ahmedabad,"SAC ISRO Bopal, Ahmedabad - IITM",06-03-2026 14:00:00,23.041137,72.456691,NO2,6,22,15
India,Gujarat,Ahmedabad,"SAC ISRO Bopal, Ahmedabad - IITM",06-03-2026 14:00:00,23.041137,72.456691,SO2,5,10,7
India,Gujarat,Ahmedabad,"SAC ISRO Bopal, Ahmedabad - IITM",06-03-2026 14:00:00,23.041137,72.456691,OZONE,4,83,20
India,Gujarat,Ahmedabad,"SVPI Airport Hansol, Ahmedabad - IITM",06-03-2026 14:00:00,23.076793,72.627874,CO,6,34,17
India,Gujarat,Bhavnagar,"Vidhyanagar, Bhavnagar - Nexteng Enviro",06-03-2026 14:00:00,21.755417,72.139056,CO,97,102,98
India,Delhi,Delhi,"Shadipur, Delhi - CPCB",06-03-2026 14:00:00,28.6514781,77.1473105,OZONE,9,56,32
India,Delhi,Delhi,"Sonia Vihar, Delhi - DPCC",06-03-2026 14:00:00,28.710508,77.249485,PM10,118,257,157
India,Delhi,Delhi,"Sonia Vihar, Delhi - DPCC",06-03-2026 14:00:00,28.710508,77.249485,CO,32,106,94
India,Delhi,Delhi,"Sri Aurobindo Marg, Delhi - DPCC",06-03-2026 14:00:00,28.531346,77.190156,CO,14,47,31
India,Delhi,Delhi,"Commonwealth Sports Complex, Delhi - DPCC",06-03-2026 14:00:00,28.615828 ,77.271992 ,NH3,4,8,7
India,Delhi,Delhi,"Commonwealth Sports Complex, Delhi - DPCC",06-03-2026 14:00:00,28.615828 ,77.271992 ,OZONE,2,114,49
India,Delhi,Delhi,"DTU, Delhi - CPCB",06-03-2026 14:00:00,28.7500499,77.1112615,SO2,29,35,31
India,Delhi,Delhi,"DTU, Delhi - CPCB",06-03-2026 14:00:00,28.7500499,77.1112615,CO,9,40,33
India,Delhi,Delhi,"Vivek Vihar, Delhi - DPCC",06-03-2026 14:00:00,28.672342,77.315260,NH3,6,11,7
India,Delhi,Delhi,"Wazirpur, Delhi - DPCC",06-03-2026 14:00:00,28.699793,77.165453,NO2,39,86,60
India,Gujarat,Ahmedabad,"Raikhad, Ahmedabad - IITM",06-03-2026 14:00:00,23.020509,72.579261,NH3,13,42,25
India,Delhi,Delhi,"North Campus, DU, Delhi - IMD",06-03-2026 14:00:00,28.6573814,77.1585447,PM10,94,240,151
India,Delhi,Delhi,"North Campus, DU, Delhi - IMD",06-03-2026 14:00:00,28.6573814,77.1585447,CO,6,75,61
India,Delhi,Delhi,"Okhla Phase-2, Delhi - DPCC",06-03-2026 14:00:00,28.530785,77.271255,PM2.5,55,203,119
India,Delhi,Delhi,"IHBAS, Dilshad Garden, Delhi - CPCB",06-03-2026 14:00:00,28.6811736,77.3025234,SO2,9,31,16
India,Delhi,Delhi,"IIT Delhi, Delhi - IITM",06-03-2026 14:00:00,28.542460,77.191651,NO2,7,78,37
India,Gujarat,Surat,"Katargam, Surat - Nexteng Enviro",06-03-2026 14:00:00,21.217779 ,72.834787 ,CO,58,86,66
India,Gujarat,Surat,"Science Center, Surat - SMC",06-03-2026 14:00:00,21.170046,72.795405,PM10,96,229,137
India,Gujarat,Surat,"Science Center, Surat - SMC",06-03-2026 14:00:00,21.170046,72.795405,SO2,31,43,35
India,Gujarat,Vapi,"Phase-1 GIDC, Vapi - GPCB",06-03-2026 14:00:00,20.362421,72.918013,PM2.5,28,128,57
India,Gujarat,Vapi,"Phase-1 GIDC, Vapi - GPCB",06-03-2026 14:00:00,20.362421,72.918013,PM10,63,113,77
India,Gujarat,Vapi,"Phase-1 GIDC, Vapi - GPCB",06-03-2026 14:00:00,20.362421,72.918013,SO2,9,15,11
India,Gujarat,Vatva,"Phase-4 GIDC, Vatva - GPCB",06-03-2026 14:00:00,22.969611,72.643500,PM2.5,56,155,98
India,Gujarat,Vatva,"Phase-4 GIDC, Vatva - GPCB",06-03-2026 14:00:00,22.969611,72.643500,PM10,113,163,131
India,Gujarat,Vatva,"Phase-4 GIDC, Vatva - GPCB",06-03-2026 14:00:00,22.969611,72.643500,SO2,34,43,37
India,Haryana,Ambala,"Patti Mehar, Ambala - HSPCB",06-03-2026 14:00:00,30.379589,76.778328,NH3,7,8,8
India,Haryana,Ambala,"Patti Mehar, Ambala - HSPCB",06-03-2026 14:00:00,30.379589,76.778328,CO,21,48,27
India,Haryana,Bahadurgarh,"Arya Nagar, Bahadurgarh - HSPCB",06-03-2026 14:00:00,28.6701,76.9254,NH3,12,13,13
India,Haryana,Faridabad,"Sector 11, Faridabad - HSPCB",06-03-2026 14:00:00,28.376058,77.315741,CO,40,63,57
India,Haryana,Faridabad,"Sector 30, Faridabad - HSPCB",06-03-2026 14:00:00,28.4417,77.3217,PM2.5,103,103,103
India,Haryana,Fatehabad,"Huda Sector, Fatehabad - HSPCB",06-03-2026 14:00:00,29.503664,75.467934,OZONE,62,99,83
India,Haryana,Gurugram,"NISE Gwal Pahari, Gurugram - IMD",06-03-2026 14:00:00,28.422681,77.148944,CO,18,41,36
India,Haryana,Gurugram,"Sector-51, Gurugram - HSPCB",06-03-2026 14:00:00,28.4227,77.0667,NH3,6,10,8
India,Haryana,Gurugram,"Teri Gram, Gurugram - HSPCB",06-03-2026 14:00:00,28.4275,77.1465,PM10,74,452,142
India,Haryana,Gurugram,"Teri Gram, Gurugram - HSPCB",06-03-2026 14:00:00,28.4275,77.1465,NO2,42,75,59
India,Haryana,Gurugram,"Teri Gram, Gurugram - HSPCB",06-03-2026 14:00:00,28.4275,77.1465,CO,14,35,28
India,Haryana,Gurugram,"Vikas Sadan, Gurugram - HSPCB",06-03-2026 14:00:00,28.4501238,77.0263051,PM2.5,190,470,298
India,Haryana,Ballabgarh,"Nathu Colony, Ballabgarh - HSPCB",06-03-2026 14:00:00,28.3419248,77.319699,PM2.5,47,135,73
India,Haryana,Ballabgarh,"Nathu Colony, Ballabgarh - HSPCB",06-03-2026 14:00:00,28.3419248,77.319699,PM10,168,284,229
India,Haryana,Ballabgarh,"Nathu Colony, Ballabgarh - HSPCB",06-03-2026 14:00:00,28.3419248,77.319699,OZONE,6,6,6
India,Haryana,Bhiwani,"H.B. Colony, Bhiwani - HSPCB",06-03-2026 14:00:00,28.806223,76.141105,NO2,7,10,9
India,Haryana,Charkhi Dadri,"Mini Secretariat, Charkhi Dadri - HSPCB",06-03-2026 14:00:00,28.593883,76.270653,PM10,77,107,94
India,Haryana,Charkhi Dadri,"Mini Secretariat, Charkhi Dadri - HSPCB",06-03-2026 14:00:00,28.593883,76.270653,NH3,5,8,6
India,Haryana,Dharuhera,"Municipal Corporation Office, Dharuhera -  HSPCB",06-03-2026 14:00:00,28.206800,76.799700,NO2,15,56,41
India,Haryana,Dharuhera,"Municipal Corporation Office, Dharuhera -  HSPCB",06-03-2026 14:00:00,28.206800,76.799700,CO,54,102,62
India,Haryana,Faridabad,"New Industrial Town, Faridabad - HSPCB",06-03-2026 14:00:00,28.39072,77.30059,PM2.5,181,203,192
India,Haryana,Sirsa,"F-Block, Sirsa - HSPCB",06-03-2026 14:00:00,29.536400,75.015800,SO2,NA,NA,NA
India,Haryana,Sirsa,"F-Block, Sirsa - HSPCB",06-03-2026 14:00:00,29.536400,75.015800,OZONE,16,63,58
India,Haryana,Yamuna Nagar,"Gobind Pura, Yamuna Nagar - HSPCB",06-03-2026 14:00:00,30.1480566,77.2893471,PM2.5,121,307,214
India,Haryana,Yamuna Nagar,"Gobind Pura, Yamuna Nagar - HSPCB",06-03-2026 14:00:00,30.1480566,77.2893471,PM10,122,208,159
India,Himachal Pradesh,Baddi,"HIMUDA Complex Phase-1, Baddi - HPPCB",06-03-2026 14:00:00,30.943887,76.801991,PM2.5,88,277,153
India,Himachal Pradesh,Baddi,"HIMUDA Complex Phase-1, Baddi - HPPCB",06-03-2026 14:00:00,30.943887,76.801991,PM10,116,213,151
India,Jammu_and_Kashmir,Pampore,"Khrew, Pampore - JKPCC",06-03-2026 14:00:00,34.031606,75.009712,NO2,25,125,46
India,Haryana,Gurugram,"Vikas Sadan, Gurugram - HSPCB",06-03-2026 14:00:00,28.4501238,77.0263051,PM10,125,453,185
India,Haryana,Hisar,"Urban Estate-II, Hisar - HSPCB",06-03-2026 14:00:00,29.140560,75.744941,PM2.5,1,73,42
India,Haryana,Hisar,"Urban Estate-II, Hisar - HSPCB",06-03-2026 14:00:00,29.140560,75.744941,CO,28,50,35
India,Haryana,Kaithal,"Rishi Nagar, Kaithal - HSPCB",06-03-2026 14:00:00,29.8006,76.4155,PM2.5,66,155,92
India,Haryana,Kaithal,"Rishi Nagar, Kaithal - HSPCB",06-03-2026 14:00:00,29.8006,76.4155,NO2,18,33,30
India,Haryana,Kaithal,"Rishi Nagar, Kaithal - HSPCB",06-03-2026 14:00:00,29.8006,76.4155,NH3,3,6,6
India,Haryana,Karnal,"Sector-12, Karnal - HSPCB",06-03-2026 14:00:00,29.695300,77.002700,PM2.5,53,442,166
India,Jammu_and_Kashmir,Srinagar,"Rajbagh, Srinagar - JKPCC",06-03-2026 14:00:00,34.066206,74.819820,PM2.5,19,49,33
India,Jharkhand,Dhanbad,"Sardar Patel Nagar, Dhanbad - JSPCB",06-03-2026 14:00:00,23.80569,86.44268,CO,1,14,8
India,Karnataka,Bengaluru,"BTM Layout, Bengaluru - CPCB",06-03-2026 14:00:00,12.9135218,77.5950804,PM10,104,105,104
India,Karnataka,Bengaluru,"BWSSB Kadabesanahalli, Bengaluru - CPCB",06-03-2026 14:00:00,12.9352049,77.6814488,PM2.5,98,307,179
India,Gujarat,Gandhinagar,"GIFT City, Gandhinagar - IITM",06-03-2026 14:00:00,23.163798,72.677768,CO,NA,NA,NA
India,Gujarat,Gandhinagar,"Sector-10, Gandhinagar - GPCB",06-03-2026 14:00:00,23.221714,72.654328,PM10,54,101,78
India,Gujarat,Gandhinagar,"Sector-10, Gandhinagar - GPCB",06-03-2026 14:00:00,23.221714,72.654328,CO,31,42,38
India,Gujarat,Mehsana,"Sadanand Nagar, Mehsana - Nexteng Enviro",06-03-2026 14:00:00,23.593150,72.372792,CO,42,76,45
India,Gujarat,Rajkot,"Mavdi, Rajkot - Nexteng Enviro ",06-03-2026 14:00:00,22.248853,70.776774,CO,112,114,112
India,Karnataka,Bengaluru,"Hebbal, Bengaluru - KSPCB",06-03-2026 14:00:00,13.029152,77.585901,NO2,NA,NA,NA
India,Karnataka,Bengaluru,"Hombegowda Nagar, Bengaluru - KSPCB",06-03-2026 14:00:00,12.938539,77.590100,PM2.5,81,230,150
India,Karnataka,Bengaluru,"Jigani, Bengaluru - KSPCB",06-03-2026 14:00:00,12.7816279,77.6299145,PM2.5,46,374,90
India,Karnataka,Bengaluru,"Jigani, Bengaluru - KSPCB",06-03-2026 14:00:00,12.7816279,77.6299145,SO2,20,20,20
India,Karnataka,Bengaluru,"Peenya, Bengaluru - CPCB",06-03-2026 14:00:00,13.0270199,77.494094,OZONE,28,29,29
India,Haryana,Narnaul,"Shastri Nagar, Narnaul - HSPCB",06-03-2026 14:00:00,28.060249,76.113115,PM2.5,60,171,86
India,Haryana,Panchgaon,"Amity University, Panchgaon - IITM",06-03-2026 14:00:00,28.3153,76.9143,PM2.5,61,198,113
India,Haryana,Panchkula,"Sector-6, Panchkula - HSPCB ",06-03-2026 14:00:00,30.7057778,76.8531805555555,PM2.5,9,59,31
India,Haryana,Panchkula,"Sector-6, Panchkula - HSPCB ",06-03-2026 14:00:00,30.7057778,76.8531805555555,NO2,24,26,25
India,Madhya Pradesh,Gwalior,"Maharaj Bada, Gwalior - MPPCB",06-03-2026 14:00:00,26.200388,78.147714,NO2,9,33,18
India,Madhya Pradesh,Indore,"Airport Area, Indore - IMC",06-03-2026 14:00:00,22.7289,75.8076,SO2,2,3,2
India,Madhya Pradesh,Indore,"Chhoti Gwaltoli, Indore - MPPCB",06-03-2026 14:00:00,22.4310,75.5213,NH3,14,27,23
India,Madhya Pradesh,Indore,"Chhoti Gwaltoli, Indore - MPPCB",06-03-2026 14:00:00,22.4310,75.5213,CO,30,157,64
India,Madhya Pradesh,Indore,"Regional Park, Indore - IMC",06-03-2026 14:00:00,22.6780,75.8559,NO2,NA,NA,NA
India,Madhya Pradesh,Indore,"Regional Park, Indore - IMC",06-03-2026 14:00:00,22.6780,75.8559,CO,15,15,15
India,Madhya Pradesh,Indore,"Regional Park, Indore - IMC",06-03-2026 14:00:00,22.6780,75.8559,OZONE,8,8,8
India,Madhya Pradesh,Indore,"Residency Area, Indore - IMC",06-03-2026 14:00:00,22.7084,75.8815,PM2.5,27,259,83
India,Madhya Pradesh,Indore,"Residency Area, Indore - IMC",06-03-2026 14:00:00,22.7084,75.8815,PM10,30,167,75
India,Madhya Pradesh,Indore,"Residency Area, Indore - IMC",06-03-2026 14:00:00,22.7084,75.8815,OZONE,6,15,9
India,Madhya Pradesh,Jabalpur,"Govindh Bhavan Colony, Jabalpur - JMC",06-03-2026 14:00:00,23.163174,79.973061,PM2.5,35,72,51
India,Madhya Pradesh,Sagar,"Civil Lines, Sagar - MPPCB",06-03-2026 14:00:00,23.838586,78.759431,PM10,55,146,83
India,Madhya Pradesh,Sagar,"Civil Lines, Sagar - MPPCB",06-03-2026 14:00:00,23.838586,78.759431,NO2,6,33,13
India,Madhya Pradesh,Sagar,"Civil Lines, Sagar - MPPCB",06-03-2026 14:00:00,23.838586,78.759431,CO,12,37,20
India,Madhya Pradesh,Satna,"Bandhavgar Colony, Satna - Birla Cement",06-03-2026 14:00:00,24.58434363,80.8549414,PM2.5,49,52,50
India,Madhya Pradesh,Singrauli,"Suryakiran Bhawan NCL, Singrauli - MPPCB",06-03-2026 14:00:00,24.108970,82.645580,CO,40,88,52
India,Madhya Pradesh,Ujjain,"Mahashweta Nagar, Ujjain - MPPCB",06-03-2026 14:00:00,23.1633321,75.800225,NO2,22,128,60
India,Madhya Pradesh,Ujjain,"Mahashweta Nagar, Ujjain - MPPCB",06-03-2026 14:00:00,23.1633321,75.800225,SO2,1,7,3
India,Madhya Pradesh,Ujjain,"Mahashweta Nagar, Ujjain - MPPCB",06-03-2026 14:00:00,23.1633321,75.800225,CO,18,111,41
India,Maharashtra,Ahmednagar,"Tarakpur, Ahmednagar - MPCB",06-03-2026 14:00:00,19.10122,74.73339,PM2.5,36,112,68
India,Karnataka,Haveri,"Ashwini Nagar, Haveri - KSPCB",06-03-2026 14:00:00,14.791800,75.389600,NO2,NA,NA,NA
India,Karnataka,Hubballi,"Lingaraj Nagar, Hubballi - KSPCB",06-03-2026 14:00:00,15.3714823,75.1160168,PM10,58,79,61
India,Karnataka,Hubballi,"Lingaraj Nagar, Hubballi - KSPCB",06-03-2026 14:00:00,15.3714823,75.1160168,NO2,7,11,7
India,Karnataka,Kalaburagi,"Mahatma Basaveswar Colony, Kalaburgi - KSPCB",06-03-2026 14:00:00,17.336318,76.847397,PM10,26,118,67
India,Karnataka,Kalaburagi,"Mahatma Basaveswar Colony, Kalaburgi - KSPCB",06-03-2026 14:00:00,17.336318,76.847397,NO2,11,19,14
India,Karnataka,Madikeri,"Stuart Hill, Madikeri - KSPCB",06-03-2026 14:00:00,12.415911,75.735050,OZONE,1,7,3
India,Karnataka,Mysuru,"Hebbal 1st Stage, Mysuru - KSPCB",06-03-2026 14:00:00,12.21041,76.37376,PM2.5,22,66,48
India,Karnataka,Ramanagara,"Vijay Nagar, Ramanagara - KSPCB",06-03-2026 14:00:00,12.733409,77.298051,PM2.5,62,136,102
India,Karnataka,Bengaluru,"Shivapura_Peenya, Bengaluru - KSPCB",06-03-2026 14:00:00,13.0246342,77.5080115,PM2.5,NA,NA,NA
India,Karnataka,Bengaluru,"Shivapura_Peenya, Bengaluru - KSPCB",06-03-2026 14:00:00,13.0246342,77.5080115,NH3,NA,NA,NA
India,Karnataka,Bengaluru,"Silk Board, Bengaluru - KSPCB",06-03-2026 14:00:00,12.917348,77.622813,PM2.5,96,312,163
India,Karnataka,Chamarajanagar,"Urban, Chamarajanagar - KSPCB",06-03-2026 14:00:00,11.55358,76.55521,PM2.5,NA,NA,NA
India,Karnataka,Chikkamagaluru,"Kalyana Nagara, Chikkamagaluru - KSPCB",06-03-2026 14:00:00,13.328028,75.797056,SO2,3,9,6
India,Karnataka,Chikkamagaluru,"Kalyana Nagara, Chikkamagaluru - KSPCB",06-03-2026 14:00:00,13.328028,75.797056,CO,4,11,10
India,Karnataka,Dharwad,"Kalabhavan, Dharwad - KSPCB",06-03-2026 14:00:00,15.459706,75.008381,SO2,8,10,9
India,Maharashtra,Ahmednagar,"Tarakpur, Ahmednagar - MPCB",06-03-2026 14:00:00,19.10122,74.73339,PM10,NA,NA,NA
India,Maharashtra,Amravati,"Shivneri Colony, Amravati - MPCB",06-03-2026 14:00:00,20.9402359,77.7895248,PM10,43,100,61
India,Maharashtra,Amravati,"Shivneri Colony, Amravati - MPCB",06-03-2026 14:00:00,20.9402359,77.7895248,NH3,3,3,3
India,Maharashtra,Amravati,"Shivneri Colony, Amravati - MPCB",06-03-2026 14:00:00,20.9402359,77.7895248,SO2,3,16,6
India,Maharashtra,Amravati,"Shri Shivaji Science College, Amravati - MPCB",06-03-2026 14:00:00,20.939198,77.765701,PM10,52,109,82
India,Maharashtra,Amravati,"Shri Shivaji Science College, Amravati - MPCB",06-03-2026 14:00:00,20.939198,77.765701,SO2,11,49,16
India,Maharashtra,Aurangabad,"More Chowk Waluj, Aurangabad - MPCB",06-03-2026 14:00:00,19.8389439,75.244448,PM2.5,34,204,79
India,Madhya Pradesh,Jabalpur,"Govindh Bhavan Colony, Jabalpur - JMC",06-03-2026 14:00:00,23.163174,79.973061,CO,22,40,30
India,Madhya Pradesh,Jabalpur,"Gupteshwar, Jabalpur - JMC",06-03-2026 14:00:00,23.142888,79.916147,OZONE,12,99,67
India,Madhya Pradesh,Jabalpur,"Marhatal, Jabalpur - MPPCB",06-03-2026 14:00:00,23.168606,79.932247,NH3,2,3,2
India,Madhya Pradesh,Jabalpur,"Marhatal, Jabalpur - MPPCB",06-03-2026 14:00:00,23.168606,79.932247,SO2,19,27,23
India,Madhya Pradesh,Katni,"Gole Bazar, Katni - MPPCB",06-03-2026 14:00:00,23.50016,80.23284,PM10,64,183,104
India,Madhya Pradesh,Katni,"Gole Bazar, Katni - MPPCB",06-03-2026 14:00:00,23.50016,80.23284,NH3,4,10,6
India,Madhya Pradesh,Katni,"Gole Bazar, Katni - MPPCB",06-03-2026 14:00:00,23.50016,80.23284,OZONE,11,89,65
India,Karnataka,Ramanagara,"Vijay Nagar, Ramanagara - KSPCB",06-03-2026 14:00:00,12.733409,77.298051,CO,7,38,17
India,Karnataka,Shivamogga,"Vinoba Nagara, Shivamogga - KSPCB",06-03-2026 14:00:00,13.940000,75.555917,SO2,2,5,3
India,Karnataka,Vijayapura,"Ibrahimpur, Vijayapura - KSPCB",06-03-2026 14:00:00,16.802639,75.722694,OZONE,16,17,16
India,Kerala,Eloor,"Udyogamandal, Eloor - Kerala PCB",06-03-2026 14:00:00,10.073232,76.302765,PM10,NA,NA,NA
India,Madhya Pradesh,Dewas,"Bhopal Chauraha, Dewas - MPPCB",06-03-2026 14:00:00,22.9682591,76.064118,PM2.5,22,150,60
India,Madhya Pradesh,Gwalior,"City Center, Gwalior - MPPCB",06-03-2026 14:00:00,26.203442,78.193251,PM10,63,157,111
India,Madhya Pradesh,Gwalior,"City Center, Gwalior - MPPCB",06-03-2026 14:00:00,26.203442,78.193251,SO2,12,19,16
India,Madhya Pradesh,Gwalior,"Maharaj Bada, Gwalior - MPPCB",06-03-2026 14:00:00,26.200388,78.147714,PM10,83,223,128
India,Madhya Pradesh,Bhopal,"Idgah Hills, Bhopal - MPPCB",06-03-2026 14:00:00,23.264759,77.381568,PM2.5,23,92,52
India,Maharashtra,Chandrapur,"Chauhan Colony, Chandrapur - MPCB",06-03-2026 14:00:00,19.962900,79.298714,CO,24,36,31
India,Maharashtra,Chandrapur,"MIDC Khutala, Chandrapur - MPCB",06-03-2026 14:00:00,19.9775302,79.2337086,PM2.5,53,183,100
India,Maharashtra,Chandrapur,"MIDC Khutala, Chandrapur - MPCB",06-03-2026 14:00:00,19.9775302,79.2337086,PM10,61,195,127
India,Maharashtra,Chandrapur,"MIDC Khutala, Chandrapur - MPCB",06-03-2026 14:00:00,19.9775302,79.2337086,OZONE,1,123,62
India,Maharashtra,Dhule,"Deopur, Dhule - MPCB",06-03-2026 14:00:00,20.918946,74.776388,PM10,76,123,92
India,Maharashtra,Dhule,"Deopur, Dhule - MPCB",06-03-2026 14:00:00,20.918946,74.776388,NH3,2,3,2
India,Maharashtra,Dhule,"Deopur, Dhule - MPCB",06-03-2026 14:00:00,20.918946,74.776388,CO,6,44,13
India,Maharashtra,Jalgaon,"Prabhat Colony, Jalgaon - MPCB",06-03-2026 14:00:00,21.001264,75.565602,PM2.5,49,124,84
India,Maharashtra,Jalgaon,"Prabhat Colony, Jalgaon - MPCB",06-03-2026 14:00:00,21.001264,75.565602,NO2,3,33,9
India,Maharashtra,Jalgaon,"Prabhat Colony, Jalgaon - MPCB",06-03-2026 14:00:00,21.001264,75.565602,NH3,2,3,2
India,Maharashtra,Jalna,"Old MIDC, Jalna - MPCB",06-03-2026 14:00:00,19.854616,75.905894,NH3,3,4,4
India,Maharashtra,Kalyan,"Khadakpada, Kalyan - MPCB",06-03-2026 14:00:00,19.25292,73.142019,PM10,23,62,44
India,Maharashtra,Kalyan,"Khadakpada, Kalyan - MPCB",06-03-2026 14:00:00,19.25292,73.142019,NH3,1,1,1
India,Maharashtra,Kalyan,"Pimpleshwar Mandir, Kalyan - MPCB",06-03-2026 14:00:00,19.192056,72.9585188,PM10,NA,NA,NA
India,Maharashtra,Kalyan,"Pimpleshwar Mandir, Kalyan - MPCB",06-03-2026 14:00:00,19.192056,72.9585188,CO,30,38,35
India,Maharashtra,Kolhapur,"Shivaji University, Kolhapur - MPCB",06-03-2026 14:00:00,16.6870449,74.2505872,PM2.5,43,80,60
India,Maharashtra,Kolhapur,"Shivaji University, Kolhapur - MPCB",06-03-2026 14:00:00,16.6870449,74.2505872,NH3,3,5,4
India,Maharashtra,Kolhapur,"Sinchan Bhavan, Kolhapur - MPCB",06-03-2026 14:00:00,16.7143745,74.2426398,NO2,NA,NA,NA
India,Maharashtra,Kolhapur,"Sinchan Bhavan, Kolhapur - MPCB",06-03-2026 14:00:00,16.7143745,74.2426398,OZONE,10,48,34
India,Maharashtra,Latur,"Sawe Wadi, Latur - MPCB",06-03-2026 14:00:00,18.39963,76.57452,SO2,8,59,14
India,Maharashtra,Mahad,"Kamble Tarf Birwadi, Mahad - MPCB",06-03-2026 14:00:00,18.1023399,73.4783687,SO2,3,139,42
India,Maharashtra,Mahad,"Kamble Tarf Birwadi, Mahad - MPCB",06-03-2026 14:00:00,18.1023399,73.4783687,OZONE,20,81,42
India,Maharashtra,Malegaon,"Mahesh Nagar, Malegaon - MPCB",06-03-2026 14:00:00,20.555712,74.529236,CO,2,48,25
India,Maharashtra,Mira-Bhayandar,"Bhayandar West, Mira-Bhayandar - MPCB",06-03-2026 14:00:00,19.296481,72.840923,PM10,66,148,103
India,Maharashtra,Nagpur,"Ambazari, Nagpur - MPCB",06-03-2026 14:00:00,21.121801,79.04952,SO2,22,105,40
India,Maharashtra,Nagpur,"Ambazari, Nagpur - MPCB",06-03-2026 14:00:00,21.121801,79.04952,CO,2,68,9
India,Maharashtra,Nagpur,"Mahal, Nagpur - MPCB",06-03-2026 14:00:00,21.14472,79.107595,SO2,6,109,55
India,Maharashtra,Nagpur,"Opp GPO Civil Lines, Nagpur - MPCB",06-03-2026 14:00:00,21.152875,79.0517531,CO,2,118,10
India,Maharashtra,Nagpur,"Opp GPO Civil Lines, Nagpur - MPCB",06-03-2026 14:00:00,21.152875,79.0517531,OZONE,2,29,21
India,Maharashtra,Nagpur,"Ram Nagar, Nagpur - MPCB",06-03-2026 14:00:00,21.143383,79.048912,CO,7,69,13
India,Maharashtra,Nanded,"Sneh Nagar, Nanded - MPCB",06-03-2026 14:00:00,19.173852,77.296291,PM10,39,96,73
India,Maharashtra,Nanded,"Sneh Nagar, Nanded - MPCB",06-03-2026 14:00:00,19.173852,77.296291,OZONE,15,92,52
India,Maharashtra,Nashik,"Gangapur Road, Nashik - MPCB",06-03-2026 14:00:00,20.0073285,73.7762427,PM10,63,121,83
India,Maharashtra,Nashik,"Gangapur Road, Nashik - MPCB",06-03-2026 14:00:00,20.0073285,73.7762427,OZONE,11,29,29
India,Maharashtra,Nashik,"Hirawadi, Nashik - MPCB",06-03-2026 14:00:00,20.021503,73.813844,PM10,49,98,74
India,Maharashtra,Aurangabad,"More Chowk Waluj, Aurangabad - MPCB",06-03-2026 14:00:00,19.8389439,75.244448,SO2,15,35,20
India,Maharashtra,Aurangabad,"More Chowk Waluj, Aurangabad - MPCB",06-03-2026 14:00:00,19.8389439,75.244448,CO,2,107,32
India,Maharashtra,Aurangabad,"Rachnakar Colony, Aurangabad - MPCB",06-03-2026 14:00:00,19.863756,75.321188,SO2,8,41,26
India,Maharashtra,Aurangabad,"Rachnakar Colony, Aurangabad - MPCB",06-03-2026 14:00:00,19.863756,75.321188,OZONE,15,107,60
India,Maharashtra,Belapur,"CBD Belapur, Belapur - MPCB",06-03-2026 14:00:00,19.0243902,73.0406721,PM2.5,32,78,57
India,Maharashtra,Belapur,"CBD Belapur, Belapur - MPCB",06-03-2026 14:00:00,19.0243902,73.0406721,PM10,51,110,92
India,Maharashtra,Bhiwandi,"Gokul Nagar, Bhiwandi - MPCB",06-03-2026 14:00:00,19.309073,73.057223,CO,13,50,28
India,Maharashtra,Boisar,"Khaira, Boisar - MPCB",06-03-2026 14:00:00,19.786089,72.757971,PM2.5,2,84,40
India,Maharashtra,Boisar,"Khaira, Boisar - MPCB",06-03-2026 14:00:00,19.786089,72.757971,NO2,6,42,22
India,Maharashtra,Mumbai,"Siddharth Nagar-Worli, Mumbai - IITM",06-03-2026 14:00:00,19.000083,72.813993,NH3,3,3,3
India,Maharashtra,Mumbai,"Siddharth Nagar-Worli, Mumbai - IITM",06-03-2026 14:00:00,19.000083,72.813993,CO,26,46,37
India,Maharashtra,Mumbai,"Sion, Mumbai - MPCB",06-03-2026 14:00:00,19.047000,72.874600,SO2,1,15,4
India,Maharashtra,Mumbai,"Sion, Mumbai - MPCB",06-03-2026 14:00:00,19.047000,72.874600,CO,8,14,10
India,Maharashtra,Mumbai,"Vile Parle West, Mumbai - MPCB",06-03-2026 14:00:00,19.10861,72.83622,PM2.5,NA,NA,NA
India,Maharashtra,Mumbai,"Vile Parle West, Mumbai - MPCB",06-03-2026 14:00:00,19.10861,72.83622,PM10,NA,NA,NA
India,Maharashtra,Mumbai,"Vile Parle West, Mumbai - MPCB",06-03-2026 14:00:00,19.10861,72.83622,NH3,NA,NA,NA
India,Maharashtra,Mumbai,"Worli, Mumbai -MPCB",06-03-2026 14:00:00,18.9942180,72.8158167,OZONE,18,97,50
India,Maharashtra,Nagpur,"Ambazari, Nagpur - MPCB",06-03-2026 14:00:00,21.121801,79.04952,PM2.5,21,78,50
India,Maharashtra,Nagpur,"Ambazari, Nagpur - MPCB",06-03-2026 14:00:00,21.121801,79.04952,PM10,33,92,62
India,Maharashtra,Mumbai,"Kherwadi_Bandra East, Mumbai - MPCB",06-03-2026 14:00:00,19.0632143,72.8456324,PM10,43,113,74
India,Maharashtra,Mumbai,"Kherwadi_Bandra East, Mumbai - MPCB",06-03-2026 14:00:00,19.0632143,72.8456324,CO,2,122,25
India,Maharashtra,Mumbai,"Khindipada-Bhandup West, Mumbai - IITM",06-03-2026 14:00:00,19.1653323,72.922099,NO2,10,36,18
India,Maharashtra,Mumbai,"Khindipada-Bhandup West, Mumbai - IITM",06-03-2026 14:00:00,19.1653323,72.922099,NH3,3,4,3
India,Maharashtra,Mumbai,"Kurla, Mumbai - MPCB",06-03-2026 14:00:00,19.0863,72.8888,CO,13,30,14
India,Maharashtra,Mumbai,"Malad West, Mumbai - IITM",06-03-2026 14:00:00,19.19709,72.82204,PM10,69,112,96
India,Maharashtra,Mumbai,"Mazgaon, Mumbai - IITM",06-03-2026 14:00:00,18.96702,72.84214,NH3,NA,NA,NA
India,Maharashtra,Mumbai,"Mazgaon, Mumbai - IITM",06-03-2026 14:00:00,18.96702,72.84214,CO,21,83,42
India,Maharashtra,Mumbai,"Mindspace-Malad West, Mumbai - MPCB",06-03-2026 14:00:00,19.1878657,72.8304069,NH3,2,7,3
India,Maharashtra,Mumbai,"Mulund West, Mumbai - MPCB",06-03-2026 14:00:00,19.1750,72.9419,PM2.5,NA,NA,NA
India,Maharashtra,Mumbai,"Navy Nagar-Colaba, Mumbai - IITM",06-03-2026 14:00:00,18.897756,72.813320,PM2.5,59,114,81
India,Maharashtra,Mumbai,"Sewri, Mumbai - BMC",06-03-2026 14:00:00,19.000084,72.856730,PM10,NA,NA,NA
India,Maharashtra,Mumbai,"Sewri, Mumbai - BMC",06-03-2026 14:00:00,19.000084,72.856730,NH3,NA,NA,NA
India,Maharashtra,Mumbai,"Sewri, Mumbai - BMC",06-03-2026 14:00:00,19.000084,72.856730,SO2,NA,NA,NA
India,Maharashtra,Mumbai,"Shivaji Nagar, Mumbai - BMC",06-03-2026 14:00:00,19.060498,72.923356,SO2,1,20,11
India,Maharashtra,Mumbai,"Shivaji Nagar, Mumbai - BMC",06-03-2026 14:00:00,19.060498,72.923356,CO,6,106,16
India,Maharashtra,Mira-Bhayandar,"Bhayandar West, Mira-Bhayandar - MPCB",06-03-2026 14:00:00,19.296481,72.840923,NO2,21,85,42
India,Maharashtra,Mumbai,"Bandra Kurla Complex, Mumbai - IITM",06-03-2026 14:00:00,19.053536,72.84643,PM10,87,148,107
India,Maharashtra,Mumbai,"Bandra Kurla Complex, Mumbai - IITM",06-03-2026 14:00:00,19.053536,72.84643,NO2,40,82,58
India,Maharashtra,Mumbai,"Bandra Kurla Complex, Mumbai - IITM",06-03-2026 14:00:00,19.053536,72.84643,NH3,12,30,18
India,Maharashtra,Mumbai,"Bandra Kurla Complex, Mumbai - MPCB",06-03-2026 14:00:00,19.065931,72.862131,NH3,NA,NA,NA
India,Maharashtra,Mumbai,"Borivali East, Mumbai - IITM",06-03-2026 14:00:00,19.23241,72.86895,NH3,6,11,9
India,Maharashtra,Mumbai,"Byculla, Mumbai - BMC",06-03-2026 14:00:00,18.9767,72.8380,NH3,NA,NA,NA
India,Maharashtra,Mumbai,"Chakala-Andheri East, Mumbai - IITM",06-03-2026 14:00:00,19.11074,72.86084,CO,1,66,29
India,Maharashtra,Mumbai,"Chembur, Mumbai - MPCB",06-03-2026 14:00:00,19.0364585,72.8954371,OZONE,4,108,62
India,Maharashtra,Mumbai,"Chhatrapati Shivaji Intl. Airport (T2), Mumbai - MPCB",06-03-2026 14:00:00,19.10078,72.87462,PM10,NA,NA,NA
India,Maharashtra,Mumbai,"Deonar, Mumbai - IITM",06-03-2026 14:00:00,19.04946,72.9230,PM2.5,NA,NA,NA
India,Maharashtra,Mumbai,"Deonar, Mumbai - IITM",06-03-2026 14:00:00,19.04946,72.9230,OZONE,1,60,55
India,Maharashtra,Mumbai,"Kandivali East, Mumbai - MPCB",06-03-2026 14:00:00,19.205800,72.868200,CO,22,24,22
India,Odisha,Rourkela,"Raghunathpali, Rourkela - OSPCB",06-03-2026 14:00:00,22.220833,84.809444,PM10,79,174,140
India,Odisha,Rourkela,"Sector-2, Rourkela - OSPCB",06-03-2026 14:00:00,22.24500000,84.88111111,PM10,58,100,80
India,Odisha,Rourkela,"Sector-2, Rourkela - OSPCB",06-03-2026 14:00:00,22.24500000,84.88111111,NO2,6,13,10
India,Odisha,Suakati,"OMC Colony, Suakati - OSPCB",06-03-2026 14:00:00,21.606865,85.510538,SO2,NA,NA,NA
India,Odisha,Suakati,"OMC Colony, Suakati - OSPCB",06-03-2026 14:00:00,21.606865,85.510538,OZONE,16,191,94
India,Odisha,Talcher,"Talcher Coalfields,Talcher - OSPCB",06-03-2026 14:00:00,20.9360711,85.1707021,NO2,24,66,46
India,Odisha,Talcher,"Talcher Coalfields,Talcher - OSPCB",06-03-2026 14:00:00,20.9360711,85.1707021,NH3,6,9,7
India,Puducherry,Puducherry,"Jawahar Nagar, Puducherry - PPCC",06-03-2026 14:00:00,11.9309,79.8027,NH3,2,6,4
India,Puducherry,Puducherry,"Jawahar Nagar, Puducherry - PPCC",06-03-2026 14:00:00,11.9309,79.8027,CO,8,40,23
India,Puducherry,Puducherry,"Jawahar Nagar, Puducherry - PPCC",06-03-2026 14:00:00,11.9309,79.8027,OZONE,1,85,42
India,Punjab,Amritsar,"Golden Temple, Amritsar - PPCB",06-03-2026 14:00:00,31.620000,74.876512,NO2,7,103,62
India,Odisha,Baripada,"Meher Colony, Baripada - OSPCB",06-03-2026 14:00:00,21.941841,86.728318,NH3,3,7,6
India,Odisha,Bhubaneswar,"Lingraj Mandir, Bhubaneswar - OSPCB",06-03-2026 14:00:00,20.240790,85.836784,NO2,32,155,46
India,Odisha,Bhubaneswar,"Lingraj Mandir, Bhubaneswar - OSPCB",06-03-2026 14:00:00,20.240790,85.836784,OZONE,32,192,86
India,Odisha,Bhubaneswar,"Patia, Bhubaneswar - OSPCB",06-03-2026 14:00:00,20.34652,85.81630,SO2,4,24,10
India,Odisha,Bileipada,"Tata Township, Bileipada - OSPCB",06-03-2026 14:00:00,22.06156703,85.47409613,PM10,124,331,200
India,Odisha,Bileipada,"Tata Township, Bileipada - OSPCB",06-03-2026 14:00:00,22.06156703,85.47409613,NH3,6,6,6
India,Odisha,Bileipada,"Tata Township, Bileipada - OSPCB",06-03-2026 14:00:00,22.06156703,85.47409613,SO2,11,12,12
India,Odisha,Brajrajnagar,"GM Office, Brajrajnagar - OSPCB",06-03-2026 14:00:00,21.8004996,83.8396977,PM2.5,39,175,82
India,Odisha,Brajrajnagar,"GM Office, Brajrajnagar - OSPCB",06-03-2026 14:00:00,21.8004996,83.8396977,PM10,54,161,102
India,Odisha,Brajrajnagar,"GM Office, Brajrajnagar - OSPCB",06-03-2026 14:00:00,21.8004996,83.8396977,SO2,19,22,21
India,Odisha,Brajrajnagar,"GM Office, Brajrajnagar - OSPCB",06-03-2026 14:00:00,21.8004996,83.8396977,OZONE,27,169,169
India,Meghalaya,Shillong,"JN Stadium, Shillong - Meghalaya PCB",06-03-2026 14:00:00,25.5803419,91.8942571,SO2,27,32,31
India,Mizoram,Aizawl,"Sikulpuikawn, Aizawl - Mizoram PCB",06-03-2026 14:00:00,23.7176342,92.7192841,PM10,42,60,55
India,Mizoram,Aizawl,"Sikulpuikawn, Aizawl - Mizoram PCB",06-03-2026 14:00:00,23.7176342,92.7192841,SO2,16,18,17
India,Nagaland,Kohima,"PWD Junction, Kohima - NPCB",06-03-2026 14:00:00,25.6635413,94.0989878,NO2,3,4,4
India,Nagaland,Kohima,"PWD Junction, Kohima - NPCB",06-03-2026 14:00:00,25.6635413,94.0989878,CO,9,17,11
India,Nagaland,Kohima,"PWD Junction, Kohima - NPCB",06-03-2026 14:00:00,25.6635413,94.0989878,OZONE,1,30,11
India,Odisha,Angul,"Hakimapada, Angul - OSPCB",06-03-2026 14:00:00,20.832874,85.104082,CO,36,102,54
India,Odisha,Balasore,"Kalidaspur, Balasore - OSPCB",06-03-2026 14:00:00,21.51161,86.89088,CO,33,81,47
India,Odisha,Barbil,"Forest Office, Barbil - OSPCB",06-03-2026 14:00:00,22.1166054,85.3945546,PM2.5,58,352,191
India,Maharashtra,Nashik,"Hirawadi, Nashik - MPCB",06-03-2026 14:00:00,20.021503,73.813844,NO2,6,9,8
India,Maharashtra,Nashik,"MIDC Ambad, Nashik - MPCB",06-03-2026 14:00:00,19.950220,73.731480,SO2,NA,NA,NA
India,Maharashtra,Nashik,"Pandav Nagari, Nashik - MPCB",06-03-2026 14:00:00,19.9591346,73.7788008,PM10,44,95,60
India,Maharashtra,Nashik,"Pandav Nagari, Nashik - MPCB",06-03-2026 14:00:00,19.9591346,73.7788008,SO2,4,13,8
India,Maharashtra,Navi Mumbai,"Kopripada-Vashi, Navi Mumbai - MPCB",06-03-2026 14:00:00,19.090337,73.014232,OZONE,1,82,33
India,Maharashtra,Navi Mumbai,"Mahape, Navi Mumbai - MPCB",06-03-2026 14:00:00,19.1135051,73.008978,NO2,84,86,85
India,Maharashtra,Navi Mumbai,"Nerul, Navi Mumbai - MPCB",06-03-2026 14:00:00,19.008751,73.016620,SO2,NA,NA,NA
India,Maharashtra,Navi Mumbai,"Sanpada, Navi Mumbai - MPCB",06-03-2026 14:00:00,19.0575752,73.0151367,PM2.5,43,132,87
India,Maharashtra,Pimpri-Chinchwad,"Savta Mali Nagar, Pimpri-Chinchwad - IITM",06-03-2026 14:00:00,18.614767,73.799516,NO2,14,135,60
India,Maharashtra,Pimpri-Chinchwad,"Thergaon, Pimpri Chinchwad - MPCB",06-03-2026 14:00:00,18.616318,73.765797,PM10,43,153,103
India,Maharashtra,Pimpri-Chinchwad,"Thergaon, Pimpri Chinchwad - MPCB",06-03-2026 14:00:00,18.616318,73.765797,NO2,23,108,69
India,Maharashtra,Pune,"Bhumkar Nagar, Pune - IITM",06-03-2026 14:00:00,18.605770,73.749976,PM2.5,45,326,131
India,Maharashtra,Pune,"Bhumkar Nagar, Pune - IITM",06-03-2026 14:00:00,18.605770,73.749976,OZONE,2,89,44
India,Maharashtra,Pune,"Dhankawadi, Pune - IITM",06-03-2026 14:00:00,18.459883,73.852193,PM2.5,23,119,63
India,Maharashtra,Pune,"Hadapsar, Pune - IITM",06-03-2026 14:00:00,18.501793,73.927532,CO,14,130,79
India,Maharashtra,Pune,"Katraj Dairy, Pune - MPCB",06-03-2026 14:00:00,18.454450,73.854155,OZONE,12,49,30
India,Maharashtra,Thane,"Kasarvadavali, Thane - MPCB",06-03-2026 14:00:00,19.26777,72.97182,PM2.5,24,79,54
India,Maharashtra,Thane,"Kasarvadavali, Thane - MPCB",06-03-2026 14:00:00,19.26777,72.97182,NO2,20,92,46
India,Maharashtra,Thane,"Kasarvadavali, Thane - MPCB",06-03-2026 14:00:00,19.26777,72.97182,OZONE,2,122,58
India,Maharashtra,Thane,"Upvan Fort, Thane - MPCB",06-03-2026 14:00:00,19.222279,72.957979,NH3,3,4,3
India,Maharashtra,Ulhasnagar,"Sidhi Vinayak Nagar, Ulhasnagar - MPCB",06-03-2026 14:00:00,19.235581,73.159121,PM2.5,57,83,72
India,Maharashtra,Ulhasnagar,"Sidhi Vinayak Nagar, Ulhasnagar - MPCB",06-03-2026 14:00:00,19.235581,73.159121,PM10,68,111,99
India,Maharashtra,Ulhasnagar,"Sidhi Vinayak Nagar, Ulhasnagar - MPCB",06-03-2026 14:00:00,19.235581,73.159121,NO2,7,35,23
India,Maharashtra,Ulhasnagar,"Sidhi Vinayak Nagar, Ulhasnagar - MPCB",06-03-2026 14:00:00,19.235581,73.159121,CO,6,40,14
India,Maharashtra,Ulhasnagar,"Vithalwadi, Ulhasnagar - MPCB",06-03-2026 14:00:00,19.2307571 ,73.1551920,SO2,7,114,21
India,Maharashtra,Navi Mumbai,"Sector-2E Kalamboli, Navi Mumbai - MPCB",06-03-2026 14:00:00,19.02579,73.10297,PM10,40,100,67
India,Maharashtra,Navi Mumbai,"Sector-2E Kalamboli, Navi Mumbai - MPCB",06-03-2026 14:00:00,19.02579,73.10297,CO,18,76,33
India,Maharashtra,Navi Mumbai,"Tondare-Taloja, Navi Mumbai - MPCB",06-03-2026 14:00:00,19.0630,73.1209,PM10,57,88,76
India,Maharashtra,Navi Mumbai,"Tondare-Taloja, Navi Mumbai - MPCB",06-03-2026 14:00:00,19.0630,73.1209,CO,2,102,11
India,Maharashtra,Pimpri-Chinchwad,"Gavalinagar, Pimpri Chinchwad - MPCB",06-03-2026 14:00:00,18.63673,73.82487,NO2,NA,NA,NA
India,Maharashtra,Pimpri-Chinchwad,"Gavalinagar, Pimpri Chinchwad - MPCB",06-03-2026 14:00:00,18.63673,73.82487,SO2,1,4,2
India,Maharashtra,Pimpri-Chinchwad,"Park Street Wakad, Pimpri Chinchwad - MPCB",06-03-2026 14:00:00,18.59051,73.77946,PM2.5,36,88,65
India,Maharashtra,Pimpri-Chinchwad,"Park Street Wakad, Pimpri Chinchwad - MPCB",06-03-2026 14:00:00,18.59051,73.77946,OZONE,3,116,64
India,Maharashtra,Pune,"Panchawati_Pashan, Pune - IITM",06-03-2026 14:00:00,18.536457,73.805454,PM2.5,19,124,66
India,Maharashtra,Pune,"Panchawati_Pashan, Pune - IITM",06-03-2026 14:00:00,18.536457,73.805454,CO,5,26,16
India,Maharashtra,Pune,"Transport Nagar-Nigdi, Pune - IITM",06-03-2026 14:00:00,18.664282,73.763966,OZONE,1,36,18
India,Maharashtra,Sangli,"Vijay Nagar, Sangli - MPCB",06-03-2026 14:00:00, 16.5038,74.3623,PM2.5,62,300,128
India,Maharashtra,Solapur,"Dnyaneshwar Nagar, Solapur - MPCB",06-03-2026 14:00:00,17.6336264,75.9132495,NH3,6,41,17
India,Maharashtra,Solapur,"Ratandeep Housing Society, Solapur - MPCB",06-03-2026 14:00:00,17.65439,75.90649,PM10,79,173,122
India,Odisha,Byasanagar,"Ferro Chrome Colony, Byasanagar - OSPCB",06-03-2026 14:00:00,20.94185,86.11510,SO2,3,24,7
India,Odisha,Cuttack,"CDA Area, Cuttack - OSPCB",06-03-2026 14:00:00,20.48891     ,85.84768     ,CO,35,102,60
India,Punjab,Patiala,"Model Town, Patiala - PPCB",06-03-2026 14:00:00,30.349388,76.366642,CO,14,50,29
India,Punjab,Rupnagar,"Ratanpura, Rupnagar - Ambuja Cements",06-03-2026 14:00:00,31.0325454,76.5623046,SO2,9,18,13
India,Rajasthan,Ajmer,"Civil Lines,  Ajmer - RSPCB",06-03-2026 14:00:00,26.470859,74.646594,NO2,24,34,29
India,Rajasthan,Ajmer,"Civil Lines,  Ajmer - RSPCB",06-03-2026 14:00:00,26.470859,74.646594,NH3,3,4,4
India,Rajasthan,Ajmer,"Civil Lines,  Ajmer - RSPCB",06-03-2026 14:00:00,26.470859,74.646594,SO2,3,22,5
India,Rajasthan,Alwar,"Moti Doongri, Alwar - RSPCB",06-03-2026 14:00:00,27.554793,76.611536,SO2,8,49,20
India,Rajasthan,Alwar,"Moti Doongri, Alwar - RSPCB",06-03-2026 14:00:00,27.554793,76.611536,OZONE,3,107,53
India,Rajasthan,Baran,"Bamboliya, Baran - RSPCB",06-03-2026 14:00:00,25.106006,76.469948,PM2.5,3,58,29
India,Rajasthan,Baran,"Bamboliya, Baran - RSPCB",06-03-2026 14:00:00,25.106006,76.469948,PM10,58,127,90
India,Rajasthan,Baran,"Bamboliya, Baran - RSPCB",06-03-2026 14:00:00,25.106006,76.469948,NO2,8,73,24
India,Rajasthan,Baran,"Bamboliya, Baran - RSPCB",06-03-2026 14:00:00,25.106006,76.469948,NH3,3,9,5
India,Rajasthan,Baran,"Bamboliya, Baran - RSPCB",06-03-2026 14:00:00,25.106006,76.469948,SO2,6,28,15
India,Rajasthan,Baran,"Bamboliya, Baran - RSPCB",06-03-2026 14:00:00,25.106006,76.469948,CO,13,34,21
India,Rajasthan,Barmer,"Railway Colony, Barmer - RSPCB",06-03-2026 14:00:00,25.747299,71.393989,PM2.5,3,62,27
India,Rajasthan,Barmer,"Railway Colony, Barmer - RSPCB",06-03-2026 14:00:00,25.747299,71.393989,NO2,6,47,18
India,Rajasthan,Jaipur,"Sector-2 Murlipura, Jaipur - RSPCB",06-03-2026 14:00:00,26.960669,75.771817,OZONE,2,75,45
India,Rajasthan,Jaipur,"Shastri Nagar, Jaipur - RSPCB",06-03-2026 14:00:00,26.9502929,75.730943,NO2,36,121,63
India,Rajasthan,Jaisalmer,"Sadar Bazar, Jaisalmer - RSPCB",06-03-2026 14:00:00,26.912329,70.909168,PM2.5,5,55,31
India,Rajasthan,Jaisalmer,"Sadar Bazar, Jaisalmer - RSPCB",06-03-2026 14:00:00,26.912329,70.909168,SO2,1,10,4
India,Rajasthan,Jalore,"Mudtra Sili, Jalore - RSPCB",06-03-2026 14:00:00,25.344694,72.626208,PM2.5,NA,NA,NA
India,Rajasthan,Jalore,"Mudtra Sili, Jalore - RSPCB",06-03-2026 14:00:00,25.344694,72.626208,PM10,NA,NA,NA
India,Rajasthan,Jalore,"Mudtra Sili, Jalore - RSPCB",06-03-2026 14:00:00,25.344694,72.626208,OZONE,24,107,62
India,Rajasthan,Jhalawar,"Rajlaxmi Nagar, Jhalawar - RSPCB",06-03-2026 14:00:00,24.588397,76.172782,PM2.5,27,163,79
India,Rajasthan,Jhalawar,"Rajlaxmi Nagar, Jhalawar - RSPCB",06-03-2026 14:00:00,24.588397,76.172782,OZONE,3,100,64
India,Rajasthan,Jhunjhunu,"Indra Nagar, Jhunjhunu - RSPCB",06-03-2026 14:00:00,28.108988,75.386577,PM2.5,28,127,49
India,Rajasthan,Jhunjhunu,"Indra Nagar, Jhunjhunu - RSPCB",06-03-2026 14:00:00,28.108988,75.386577,NO2,7,39,21
India,Rajasthan,Jhunjhunu,"Indra Nagar, Jhunjhunu - RSPCB",06-03-2026 14:00:00,28.108988,75.386577,SO2,6,13,8
India,Rajasthan,Chittorgarh,"Shastri Nagar, Chittorgarh - RSPCB",06-03-2026 14:00:00,24.892047,74.623527,PM2.5,32,247,92
India,Rajasthan,Chittorgarh,"Shastri Nagar, Chittorgarh - RSPCB",06-03-2026 14:00:00,24.892047,74.623527,CO,4,80,18
India,Rajasthan,Churu,"Subash Chowk, Churu - RSPCB",06-03-2026 14:00:00,28.296139,74.961696,SO2,5,12,7
India,Rajasthan,Churu,"Subash Chowk, Churu - RSPCB",06-03-2026 14:00:00,28.296139,74.961696,OZONE,26,106,85
India,Rajasthan,Dausa,"Khatikan Mohalla, Dausa - RSPCB",06-03-2026 14:00:00,26.895552,76.334753,NO2,22,124,55
India,Rajasthan,Dausa,"Khatikan Mohalla, Dausa - RSPCB",06-03-2026 14:00:00,26.895552,76.334753,NH3,3,5,4
India,Rajasthan,Dholpur,"Raja Ganj, Dholpur - RSPCB",06-03-2026 14:00:00,26.699557,77.898881,PM10,58,140,97
India,Rajasthan,Dholpur,"Raja Ganj, Dholpur - RSPCB",06-03-2026 14:00:00,26.699557,77.898881,SO2,8,13,10
India,Rajasthan,Dholpur,"Raja Ganj, Dholpur - RSPCB",06-03-2026 14:00:00,26.699557,77.898881,CO,14,40,32
India,Rajasthan,Dungarpur,"Bhoiwada, Dungarpur - RSPCB",06-03-2026 14:00:00,23.837789,73.714926,NO2,13,24,17
India,Rajasthan,Kota,"Dhanmandi, Kota - RSPCB",06-03-2026 14:00:00,25.164090,75.858137,NH3,6,10,7
India,Rajasthan,Kota,"Dhanmandi, Kota - RSPCB",06-03-2026 14:00:00,25.164090,75.858137,OZONE,4,117,86
India,Rajasthan,Kota,"Shrinath Puram, Kota - RSPCB",06-03-2026 14:00:00,25.14389,75.821256,OZONE,8,43,33
India,Rajasthan,Nagaur,"Karni Colony, Nagaur - RSPCB",06-03-2026 14:00:00,27.213494,73.734444,PM2.5,17,120,43
India,Rajasthan,Nagaur,"Karni Colony, Nagaur - RSPCB",06-03-2026 14:00:00,27.213494,73.734444,SO2,4,20,9
India,Rajasthan,Nagaur,"Karni Colony, Nagaur - RSPCB",06-03-2026 14:00:00,27.213494,73.734444,OZONE,56,105,69
India,Rajasthan,Pali,"Indira Colony Vistar, Pali - RSPCB",06-03-2026 14:00:00,25.771061, 73.340227,PM10,67,158,101
India,Rajasthan,Pali,"Indira Colony Vistar, Pali - RSPCB",06-03-2026 14:00:00,25.771061, 73.340227,SO2,8,11,9
India,Rajasthan,Pratapgarh,"Pragati Nagar, Pratapgarh - RSPCB",06-03-2026 14:00:00,24.041198,74.780702,NO2,10,80,27
India,Rajasthan,Bharatpur,"Krishna Nagar, Bharatpur - RSPCB",06-03-2026 14:00:00,27.215415,77.50873,NO2,10,100,36
India,Rajasthan,Bharatpur,"Krishna Nagar, Bharatpur - RSPCB",06-03-2026 14:00:00,27.215415,77.50873,OZONE,6,124,72
India,Rajasthan,Bhilwara,"Pratap Nagar, Bhilwara - RSPCB",06-03-2026 14:00:00,25.339605,74.618883,NH3,5,21,9
India,Rajasthan,Bhiwadi,"RIICO Ind. Area III, Bhiwadi - RSPCB",06-03-2026 14:00:00,28.194909,76.862296,NO2,2,58,36
India,Rajasthan,Bhiwadi,"RIICO Ind. Area III, Bhiwadi - RSPCB",06-03-2026 14:00:00,28.194909,76.862296,SO2,13,22,16
India,Rajasthan,Bikaner,"MM Ground, Bikaner - RSPCB",06-03-2026 14:00:00,28.018792,73.292658,SO2,5,20,11
India,Rajasthan,Bundi,"New Colony, Bundi - RSPCB",06-03-2026 14:00:00,25.435774,75.644272,PM2.5,13,95,39
India,Rajasthan,Bundi,"New Colony, Bundi - RSPCB",06-03-2026 14:00:00,25.435774,75.644272,PM10,40,163,75
India,Rajasthan,Jodhpur,"Collectorate, Jodhpur - RSPCB",06-03-2026 14:00:00,26.268249,73.0193853,OZONE,11,99,54
India,Rajasthan,Jodhpur,"Digari Kalan, Jodhpur - RSPCB",06-03-2026 14:00:00,26.295810,73.082283,SO2,4,7,5
India,Rajasthan,Jodhpur,"Digari Kalan, Jodhpur - RSPCB",06-03-2026 14:00:00,26.295810,73.082283,CO,12,61,25
India,Rajasthan,Jodhpur,"Jhalamand, Jodhpur - RSPCB",06-03-2026 14:00:00,26.215415,73.070156,NO2,5,89,27
India,Rajasthan,Jodhpur,"Jhalamand, Jodhpur - RSPCB",06-03-2026 14:00:00,26.215415,73.070156,NH3,1,19,6
India,Rajasthan,Jodhpur,"Jhalamand, Jodhpur - RSPCB",06-03-2026 14:00:00,26.215415,73.070156,OZONE,16,78,48
India,Rajasthan,Jodhpur,"Samrat Ashok Udhyan, Jodhpur - RSPCB",06-03-2026 14:00:00,26.253384,72.976571,PM10,26,179,80
India,Rajasthan,Karauli,"Satyawati Vihar, Karauli - RSPCB",06-03-2026 14:00:00,26.506177,77.025989,NO2,13,64,28
India,Punjab,Jalandhar,"Civil Line, Jalandhar - PPCB",06-03-2026 14:00:00,31.321907,75.578914,PM2.5,32,129,94
India,Punjab,Khanna,"Kalal Majra, Khanna - PPCB",06-03-2026 14:00:00,30.736056 ,76.209694,PM10,79,167,120
India,Punjab,Khanna,"Kalal Majra, Khanna - PPCB",06-03-2026 14:00:00,30.736056 ,76.209694,NO2,26,30,28
India,Punjab,Ludhiana,"Punjab Agricultural University, Ludhiana - PPCB",06-03-2026 14:00:00,30.9028,75.8086,PM10,83,116,99
India,Punjab,Mandi Gobindgarh,"RIMT University, Mandi Gobindgarh - PPCB",06-03-2026 14:00:00,30.649961,76.331442,OZONE,32,32,32
India,Punjab,Patiala,"Model Town, Patiala - PPCB",06-03-2026 14:00:00,30.349388,76.366642,SO2,4,28,15
India,Rajasthan,Sawai Madhopur,"Sahu Nagar, Sawai Madhopur - RSPCB",06-03-2026 14:00:00,26.031443,76.359327,SO2,1,12,9
India,Rajasthan,Sawai Madhopur,"Sahu Nagar, Sawai Madhopur - RSPCB",06-03-2026 14:00:00,26.031443,76.359327,CO,4,67,19
India,Rajasthan,Sawai Madhopur,"Sahu Nagar, Sawai Madhopur - RSPCB",06-03-2026 14:00:00,26.031443,76.359327,OZONE,27,164,157
India,Rajasthan,Sirohi,"Vedhaynath Colony, Sirohi - RSPCB",06-03-2026 14:00:00,24.885261,72.857549,NO2,5,49,18
India,Rajasthan,Sirohi,"Vedhaynath Colony, Sirohi - RSPCB",06-03-2026 14:00:00,24.885261,72.857549,SO2,1,37,7
India,Rajasthan,Sri Ganganagar,"Old City, Sri Ganganagar - RSPCB",06-03-2026 14:00:00,29.931624,73.864511,NH3,4,10,6
India,Rajasthan,Hanumangarh,"Housing Board, Hanumangarh - RSPCB",06-03-2026 14:00:00,29.610750,74.283608,NH3,4,10,6
India,Rajasthan,Jaipur,"Adarsh Nagar, Jaipur - RSPCB",06-03-2026 14:00:00,26.902909,75.836858,NH3,10,24,16
India,Rajasthan,Jaipur,"Mansarovar Sector-12, Jaipur - RSPCB",06-03-2026 14:00:00,26.843698,75.766894,OZONE,2,131,92
India,Rajasthan,Jaipur,"Police Commissionerate, Jaipur - RSPCB",06-03-2026 14:00:00,26.9164092,75.7994901,CO,73,105,90
India,TamilNadu,Coimbatore,"SIDCO Kurichi, Coimbatore - TNPCB",06-03-2026 14:00:00,10.942451,76.978996,SO2,23,25,24
India,TamilNadu,Coimbatore,"SIDCO Kurichi, Coimbatore - TNPCB",06-03-2026 14:00:00,10.942451,76.978996,CO,20,25,20
India,TamilNadu,Coimbatore,"SIDCO Kurichi, Coimbatore - TNPCB",06-03-2026 14:00:00,10.942451,76.978996,OZONE,21,24,22
India,TamilNadu,Gummidipoondi,"Anthoni Pillai Nagar, Gummidipoondi - TNPCB",06-03-2026 14:00:00,13.4127,80.1081,PM10,67,322,132
India,TamilNadu,Gummidipoondi,"Anthoni Pillai Nagar, Gummidipoondi - TNPCB",06-03-2026 14:00:00,13.4127,80.1081,NH3,1,1,1
India,TamilNadu,Gummidipoondi,"Anthoni Pillai Nagar, Gummidipoondi - TNPCB",06-03-2026 14:00:00,13.4127,80.1081,SO2,14,25,19
India,TamilNadu,Perundurai,"SIPCOT Industrial Park, Perundurai - TNPCB",06-03-2026 14:00:00,11.258242,77.552761,SO2,11,16,15
India,TamilNadu,Ramanathapuram,"Chalai Bazaar, Ramanathapuram - TNPCB",06-03-2026 14:00:00,9.36399,78.831977,OZONE,8,8,8
India,TamilNadu,Thoothukudi,"Meelavittan, Thoothukudi - TNPCB",06-03-2026 14:00:00,8.816428 ,78.099039,PM10,48,107,71
India,TamilNadu,Thoothukudi,"Meelavittan, Thoothukudi - TNPCB",06-03-2026 14:00:00,8.816428 ,78.099039,SO2,2,17,11
India,Telangana,Hyderabad,"Central University, Hyderabad - TSPCB",06-03-2026 14:00:00,17.460103,78.334361,PM2.5,10,90,47
India,Telangana,Hyderabad,"Central University, Hyderabad - TSPCB",06-03-2026 14:00:00,17.460103,78.334361,OZONE,14,21,15
India,Telangana,Hyderabad,"ICRISAT Patancheru, Hyderabad - TSPCB",06-03-2026 14:00:00,17.518400,78.278777,PM2.5,21,182,97
India,Telangana,Hyderabad,"ICRISAT Patancheru, Hyderabad - TSPCB",06-03-2026 14:00:00,17.518400,78.278777,NO2,2,19,10
India,TamilNadu,Chennai,"Manali Village, Chennai - TNPCB",06-03-2026 14:00:00,13.1662,80.2584,SO2,15,18,16
India,TamilNadu,Chennai,"Manali, Chennai - CPCB",06-03-2026 14:00:00,13.164544,80.26285,NH3,6,7,7
India,TamilNadu,Chennai,"Manali, Chennai - CPCB",06-03-2026 14:00:00,13.164544,80.26285,SO2,4,24,19
India,TamilNadu,Chennai,"Perungudi, Chennai - TNPCB",06-03-2026 14:00:00,12.9533,80.2357,NO2,3,15,6
India,TamilNadu,Chennai,"Perungudi, Chennai - TNPCB",06-03-2026 14:00:00,12.9533,80.2357,SO2,2,8,6
India,TamilNadu,Chennai,"Perungudi, Chennai - TNPCB",06-03-2026 14:00:00,12.9533,80.2357,CO,33,53,37
India,TamilNadu,Chennai,"Perungudi, Chennai - TNPCB",06-03-2026 14:00:00,12.9533,80.2357,OZONE,1,14,5
India,TamilNadu,Chennai,"Royapuram, Chennai - TNPCB",06-03-2026 14:00:00,13.1036,80.2909,CO,38,62,55
India,TamilNadu,Coimbatore,"PSG College of Arts and Science, Coimbatore - TNPCB",06-03-2026 14:00:00,11.0328,77.0349,PM10,65,85,73
India,TamilNadu,Coimbatore,"PSG College of Arts and Science, Coimbatore - TNPCB",06-03-2026 14:00:00,11.0328,77.0349,NO2,10,11,10
India,TamilNadu,Coimbatore,"SIDCO Kurichi, Coimbatore - TNPCB",06-03-2026 14:00:00,10.942451,76.978996,PM2.5,32,122,79
India,Rajasthan,Tonk,"Shastri Nagar, Tonk - RSPCB",06-03-2026 14:00:00,26.159933,75.780517,PM10,85,220,122
India,Rajasthan,Udaipur,"Ashok Nagar, Udaipur - RSPCB",06-03-2026 14:00:00,24.5886166,73.6321397,PM2.5,32,107,74
India,Rajasthan,Udaipur,"Ashok Nagar, Udaipur - RSPCB",06-03-2026 14:00:00,24.5886166,73.6321397,NH3,4,6,5
India,Sikkim,Gangtok,"Zero Point GICI, Gangtok - SSPCB",06-03-2026 14:00:00,27.338530,88.614099,NO2,6,7,6
India,Sikkim,Gangtok,"Zero Point GICI, Gangtok - SSPCB",06-03-2026 14:00:00,27.338530,88.614099,NH3,1,107,6
India,Sikkim,Gangtok,"Zero Point GICI, Gangtok - SSPCB",06-03-2026 14:00:00,27.338530,88.614099,SO2,1,1,1
India,TamilNadu,Chennai,"Arumbakkam, Chennai - TNPCB",06-03-2026 14:00:00,13.0664,80.2112 ,PM2.5,34,136,69
India,TamilNadu,Chennai,"Arumbakkam, Chennai - TNPCB",06-03-2026 14:00:00,13.0664,80.2112 ,NH3,2,3,2
India,TamilNadu,Chennai,"Kodungaiyur, Chennai - TNPCB",06-03-2026 14:00:00,13.1278,80.2642,NO2,10,17,13
India,TamilNadu,Chennai,"Kodungaiyur, Chennai - TNPCB",06-03-2026 14:00:00,13.1278,80.2642,NH3,3,5,4
India,TamilNadu,Chennai,"Kodungaiyur, Chennai - TNPCB",06-03-2026 14:00:00,13.1278,80.2642,SO2,4,7,6
India,Uttar_Pradesh,Agra,"Shastripuram, Agra - UPPCB",06-03-2026 14:00:00,27.19862,77.92066,NH3,3,3,3
India,Uttar_Pradesh,Baghpat,"Sardar Patel Inter College, Baghpat - UPPCB",06-03-2026 14:00:00,28.964949,77.278761,PM2.5,54,253,135
India,Uttar_Pradesh,Baghpat,"Sardar Patel Inter College, Baghpat - UPPCB",06-03-2026 14:00:00,28.964949,77.278761,NO2,3,39,22
India,Uttar_Pradesh,Bareilly,"Civil Lines, Bareilly - UPPCB",06-03-2026 14:00:00,28.359581,79.414455,NO2,2,3,2
India,Uttar_Pradesh,Bareilly,"Civil Lines, Bareilly - UPPCB",06-03-2026 14:00:00,28.359581,79.414455,OZONE,24,185,42
India,Uttar_Pradesh,Bareilly,"Rajendra Nagar, Bareilly - UPPCB",06-03-2026 14:00:00,28.38910936,79.42963708,PM10,82,115,98
India,Uttar_Pradesh,Bareilly,"Rajendra Nagar, Bareilly - UPPCB",06-03-2026 14:00:00,28.38910936,79.42963708,SO2,39,42,40
India,Uttar_Pradesh,Bareilly,"Rajendra Nagar, Bareilly - UPPCB",06-03-2026 14:00:00,28.38910936,79.42963708,CO,16,39,26
India,Telangana,Hyderabad,"IDA Pashamylaram, Hyderabad - TSPCB",06-03-2026 14:00:00,17.5316895,78.218939,PM10,NA,NA,NA
India,Telangana,Hyderabad,"IITH Kandi, Hyderabad - TSPCB",06-03-2026 14:00:00,17.585705,78.126199,OZONE,16,33,23
India,Telangana,Hyderabad,"Kokapet, Hyderabad - TSPCB",06-03-2026 14:00:00,17.393559,78.339194,CO,26,40,31
India,Telangana,Hyderabad,"Kompally Municipal Office, Hyderabad - TSPCB",06-03-2026 14:00:00,17.544899,78.486949,PM2.5,41,58,49
India,Telangana,Hyderabad,"Kompally Municipal Office, Hyderabad - TSPCB",06-03-2026 14:00:00,17.544899,78.486949,SO2,4,11,7
India,Telangana,Hyderabad,"Kompally Municipal Office, Hyderabad - TSPCB",06-03-2026 14:00:00,17.544899,78.486949,CO,10,54,22
India,Telangana,Hyderabad,"Nacharam_TSIIC IALA, Hyderabad - TSPCB",06-03-2026 14:00:00,17.429398,78.569354,CO,9,40,28
India,Uttar_Pradesh,Firozabad,"Vibhab Nagar, Firozabad - UPPCB",06-03-2026 14:00:00,27.1594,78.3953,NO2,15,15,15
India,Uttar_Pradesh,Firozabad,"Vibhab Nagar, Firozabad - UPPCB",06-03-2026 14:00:00,27.1594,78.3953,CO,6,8,7
India,Uttar_Pradesh,Ghaziabad,"Loni, Ghaziabad - UPPCB",06-03-2026 14:00:00,28.757294,77.278792,CO,52,106,82
India,Uttar_Pradesh,Ghaziabad,"Loni, Ghaziabad - UPPCB",06-03-2026 14:00:00,28.757294,77.278792,OZONE,3,92,41
India,Uttar_Pradesh,Ghaziabad,"Vasundhara, Ghaziabad - UPPCB",06-03-2026 14:00:00,28.6603346,77.3572563,PM2.5,74,271,172
India,Uttar_Pradesh,Gorakhpur,"Madan Mohan Malaviya University of Technology, Gorakhpur - UPPCB",06-03-2026 14:00:00,26.730136,83.433859,PM10,42,146,87
India,Uttar_Pradesh,Greater Noida,"Knowledge Park - III, Greater Noida - UPPCB",06-03-2026 14:00:00,28.47272,77.482000,PM2.5,43,184,91
India,Uttar_Pradesh,Greater Noida,"Knowledge Park - III, Greater Noida - UPPCB",06-03-2026 14:00:00,28.47272,77.482000,SO2,8,27,15
India,Uttar_Pradesh,Greater Noida,"Knowledge Park - V, Greater Noida - UPPCB",06-03-2026 14:00:00,28.557054,77.453663,PM2.5,74,315,196
India,Uttar_Pradesh,Greater Noida,"Knowledge Park - V, Greater Noida - UPPCB",06-03-2026 14:00:00,28.557054,77.453663,OZONE,3,199,199
India,Uttar_Pradesh,Hapur,"Anand Vihar, Hapur - UPPCB",06-03-2026 14:00:00,28.725645,77.749675,PM2.5,65,345,203
India,Uttar_Pradesh,Jhansi,"Shivaji Nagar, Jhansi - UPPCB",06-03-2026 14:00:00,25.4547,78.6039,SO2,7,11,8
India,Uttar_Pradesh,Agra,"Manoharpur, Agra - UPPCB",06-03-2026 14:00:00,27.23711,78.01936,NH3,5,5,5
India,Uttar_Pradesh,Agra,"Rohta, Agra - UPPCB",06-03-2026 14:00:00,27.106972,78.000111,PM10,91,155,116
India,Uttar_Pradesh,Agra,"Rohta, Agra - UPPCB",06-03-2026 14:00:00,27.106972,78.000111,OZONE,11,14,13
India,Uttar_Pradesh,Agra,"Sanjay Palace, Agra - UPPCB",06-03-2026 14:00:00,27.19865833,78.00598056,OZONE,4,108,67
India,Uttar_Pradesh,Agra,"Shahjahan Garden, Agra - UPPCB",06-03-2026 14:00:00,27.169338,78.03582,PM10,95,186,131
India,Uttar_Pradesh,Agra,"Shahjahan Garden, Agra - UPPCB",06-03-2026 14:00:00,27.169338,78.03582,NH3,3,3,3
India,Uttar_Pradesh,Agra,"Shahjahan Garden, Agra - UPPCB",06-03-2026 14:00:00,27.169338,78.03582,SO2,50,71,60
India,Telangana,Hyderabad,"New Malakpet, Hyderabad - TSPCB",06-03-2026 14:00:00,17.37206,78.50864,NO2,14,18,16
India,Telangana,Hyderabad,"New Malakpet, Hyderabad - TSPCB",06-03-2026 14:00:00,17.37206,78.50864,CO,26,44,34
India,Telangana,Hyderabad,"Ramachandrapuram, Hyderabad - TSPCB",06-03-2026 14:00:00,17.528544,78.286195,PM2.5,39,54,50
India,Telangana,Hyderabad,"Ramachandrapuram, Hyderabad - TSPCB",06-03-2026 14:00:00,17.528544,78.286195,SO2,9,23,15
India,Telangana,Hyderabad,"Sanathnagar, Hyderabad - TSPCB",06-03-2026 14:00:00,17.4559458,78.4332152,OZONE,12,19,15
India,Telangana,Hyderabad,"Zoo Park, Hyderabad - TSPCB",06-03-2026 14:00:00,17.349694,78.451437,NH3,2,3,3
India,Uttar_Pradesh,Lucknow,"Kendriya Vidyalaya, Lucknow - CPCB",06-03-2026 14:00:00,26.906111,80.948222,CO,20,66,40
India,Uttar_Pradesh,Lucknow,"Kukrail Picnic Spot-1, Lucknow - UPPCB",06-03-2026 14:00:00,26.90723,80.98579,PM2.5,45,110,79
India,Uttar_Pradesh,Lucknow,"Kukrail Picnic Spot-1, Lucknow - UPPCB",06-03-2026 14:00:00,26.90723,80.98579,NH3,6,6,6
India,Uttar_Pradesh,Lucknow,"Kukrail Picnic Spot-1, Lucknow - UPPCB",06-03-2026 14:00:00,26.90723,80.98579,SO2,54,65,59
India,Uttar_Pradesh,Lucknow,"Kukrail Picnic Spot-1, Lucknow - UPPCB",06-03-2026 14:00:00,26.90723,80.98579,OZONE,9,74,31
India,Uttar_Pradesh,Lucknow,"Lalbagh, Lucknow - CPCB",06-03-2026 14:00:00,26.8458805,80.9365541,PM10,92,267,174
India,Uttar_Pradesh,Lucknow,"Lalbagh, Lucknow - CPCB",06-03-2026 14:00:00,26.8458805,80.9365541,NH3,13,21,17
India,Uttar_Pradesh,Lucknow,"Talkatora District Industries Center, Lucknow - CPCB",06-03-2026 14:00:00,26.83399722,80.8917361,NH3,5,7,5
India,Uttar_Pradesh,Lucknow,"Talkatora District Industries Center, Lucknow - CPCB",06-03-2026 14:00:00,26.83399722,80.8917361,OZONE,8,51,32
India,Uttar_Pradesh,Meerut,"Ganga Nagar, Meerut - UPPCB",06-03-2026 14:00:00,28.999264,77.7590354,CO,48,70,66
India,Uttar_Pradesh,Meerut,"Ganga Nagar, Meerut - UPPCB",06-03-2026 14:00:00,28.999264,77.7590354,OZONE,6,45,8
India,Uttar_Pradesh,Meerut,"Jai Bhim Nagar, Meerut - UPPCB",06-03-2026 14:00:00,28.9535882,77.7622941,NO2,22,62,39
India,Uttar_Pradesh,Kanpur,"FTI Kidwai Nagar, Kanpur - UPPCB",06-03-2026 14:00:00,26.428282,80.327067,OZONE,10,14,11
India,Uttar_Pradesh,Kanpur,"NSI Kalyanpur, Kanpur - UPPCB",06-03-2026 14:00:00,26.509954,80.249612,PM10,75,126,101
India,Uttar_Pradesh,Kanpur,"NSI Kalyanpur, Kanpur - UPPCB",06-03-2026 14:00:00,26.509954,80.249612,NH3,5,5,5
India,Uttar_Pradesh,Kanpur,"Nehru Nagar, Kanpur - UPPCB",06-03-2026 14:00:00,26.4703136,80.3229863,PM10,27,155,87
India,Uttar_Pradesh,Kanpur,"Nehru Nagar, Kanpur - UPPCB",06-03-2026 14:00:00,26.4703136,80.3229863,CO,38,69,53
India,Uttar_Pradesh,Khurja,"Kalindi Kunj, Khurja - UPPCB",06-03-2026 14:00:00,28.2348927,77.8683002,PM2.5,31,140,81
India,Uttar_Pradesh,Khurja,"Kalindi Kunj, Khurja - UPPCB",06-03-2026 14:00:00,28.2348927,77.8683002,NO2,6,7,7
India,Uttar_Pradesh,Lucknow,"Gomti Nagar, Lucknow - UPPCB",06-03-2026 14:00:00,26.868120,81.005119,PM2.5,90,250,163
India,Uttar_Pradesh,Lucknow,"Gomti Nagar, Lucknow - UPPCB",06-03-2026 14:00:00,26.868120,81.005119,OZONE,34,45,39
India,Uttar_Pradesh,Lucknow,"Kendriya Vidyalaya, Lucknow - CPCB",06-03-2026 14:00:00,26.906111,80.948222,NO2,49,54,52
India,Uttar_Pradesh,Moradabad,"Jigar Colony, Moradabad - UPPCB",06-03-2026 14:00:00,28.856664,78.772638,CO,40,40,40
India,Uttar_Pradesh,Moradabad,"Jigar Colony, Moradabad - UPPCB",06-03-2026 14:00:00,28.856664,78.772638,OZONE,16,23,17
India,Uttar_Pradesh,Moradabad,"Kashiram Nagar, Moradabad - UPPCB",06-03-2026 14:00:00,28.849399,78.742362,NH3,4,4,4
India,Uttar_Pradesh,Moradabad,"Kashiram Nagar, Moradabad - UPPCB",06-03-2026 14:00:00,28.849399,78.742362,SO2,107,116,111
India,Uttar_Pradesh,Moradabad,"Transport Nagar, Moradabad - UPPCB",06-03-2026 14:00:00,28.802625,78.753728,NH3,5,5,5
India,Uttar_Pradesh,Noida,"Sector - 125, Noida - UPPCB",06-03-2026 14:00:00,28.5447608,77.3231257,PM10,139,205,166
India,Uttar_Pradesh,Noida,"Sector - 125, Noida - UPPCB",06-03-2026 14:00:00,28.5447608,77.3231257,OZONE,9,177,177
India,Uttar_Pradesh,Noida,"Sector - 62, Noida - IMD",06-03-2026 14:00:00,28.6245479,77.3577104,CO,8,26,24
India,Uttar_Pradesh,Noida,"Sector-1, Noida - UPPCB",06-03-2026 14:00:00,28.5898,77.3101,PM2.5,68,298,175
India,Uttar_Pradesh,Noida,"Sector-1, Noida - UPPCB",06-03-2026 14:00:00,28.5898,77.3101,PM10,138,201,165
India,Uttar_Pradesh,Meerut,"Pallavpuram Phase 2, Meerut - UPPCB",06-03-2026 14:00:00,29.063510,77.709723,SO2,10,39,16
India,Uttar_Pradesh,Meerut,"Pallavpuram Phase 2, Meerut - UPPCB",06-03-2026 14:00:00,29.063510,77.709723,OZONE,5,128,45
India,Uttar_Pradesh,Moradabad,"Buddhi Vihar, Moradabad - UPPCB",06-03-2026 14:00:00,28.83526,78.74460,PM10,81,230,131
India,Uttar_Pradesh,Moradabad,"Buddhi Vihar, Moradabad - UPPCB",06-03-2026 14:00:00,28.83526,78.74460,CO,38,51,43
India,Uttar_Pradesh,Moradabad,"Eco Herbal Park, Moradabad - UPPCB",06-03-2026 14:00:00,28.840739,78.697531,PM2.5,112,204,164
India,Uttar_Pradesh,Moradabad,"Eco Herbal Park, Moradabad - UPPCB",06-03-2026 14:00:00,28.840739,78.697531,CO,47,110,58
India,Uttar_Pradesh,Moradabad,"Employment Office, Moradabad - UPPCB",06-03-2026 14:00:00,28.88528,78.73880,PM2.5,80,220,138
India,Uttar_Pradesh,Moradabad,"Employment Office, Moradabad - UPPCB",06-03-2026 14:00:00,28.88528,78.73880,SO2,24,29,25
India,Uttar_Pradesh,Moradabad,"Jigar Colony, Moradabad - UPPCB",06-03-2026 14:00:00,28.856664,78.772638,PM2.5,65,147,86
India,Uttar_Pradesh,Moradabad,"Jigar Colony, Moradabad - UPPCB",06-03-2026 14:00:00,28.856664,78.772638,NO2,25,25,25
India,Uttar_Pradesh,Varanasi,"Ardhali Bazar, Varanasi - UPPCB",06-03-2026 14:00:00,25.3505986,82.9083074,PM10,44,94,71
India,Uttar_Pradesh,Varanasi,"Ardhali Bazar, Varanasi - UPPCB",06-03-2026 14:00:00,25.3505986,82.9083074,NO2,39,44,41
India,Uttar_Pradesh,Varanasi,"Ardhali Bazar, Varanasi - UPPCB",06-03-2026 14:00:00,25.3505986,82.9083074,CO,11,18,16
India,Uttar_Pradesh,Varanasi,"Bhelupur, Varanasi - UPPCB",06-03-2026 14:00:00,25.301778,82.996789,NO2,8,8,8
India,Uttar_Pradesh,Varanasi,"IESD Banaras Hindu University, Varanasi - UPPCB",06-03-2026 14:00:00,25.262326,82.995408,OZONE,8,21,12
India,Uttar_Pradesh,Varanasi,"Maldahiya, Varanasi - UPPCB",06-03-2026 14:00:00,25.32393,82.99687,NO2,1,3,2
India,Uttar_Pradesh,Varanasi,"Maldahiya, Varanasi - UPPCB",06-03-2026 14:00:00,25.32393,82.99687,SO2,30,33,31
India,Uttar_Pradesh,Varanasi,"Maldahiya, Varanasi - UPPCB",06-03-2026 14:00:00,25.32393,82.99687,CO,21,45,37
India,Uttar_Pradesh,Varanasi,"Maldahiya, Varanasi - UPPCB",06-03-2026 14:00:00,25.32393,82.99687,OZONE,3,9,4
India,West_Bengal,Haldia,"Priyambada Housing Estate, Haldia - WBPCB",06-03-2026 14:00:00,22.06047,88.109737,PM2.5,58,189,98
India,West_Bengal,Haldia,"Priyambada Housing Estate, Haldia - WBPCB",06-03-2026 14:00:00,22.06047,88.109737,CO,36,56,44
India,West_Bengal,Howrah,"Botanical Garden, Howrah - WBPCB",06-03-2026 14:00:00,22.554954,88.292568,NO2,2,16,6
India,West_Bengal,Howrah,"Dasnagar, Howrah - WBPCB",06-03-2026 14:00:00,22.6025571,88.3105664,NH3,7,9,8
India,West_Bengal,Howrah,"Dasnagar, Howrah - WBPCB",06-03-2026 14:00:00,22.6025571,88.3105664,OZONE,21,184,64
India,West_Bengal,Howrah,"Ghusuri, Howrah - WBPCB",06-03-2026 14:00:00,22.611968,88.347422,PM10,85,185,137
India,West_Bengal,Howrah,"Ghusuri, Howrah - WBPCB",06-03-2026 14:00:00,22.611968,88.347422,NO2,27,68,36
India,West_Bengal,Barrackpore,"SVSPA Campus, Barrackpore - WBPCB",06-03-2026 14:00:00,22.7605581,88.3617589,SO2,11,14,12
India,West_Bengal,Barrackpore,"SVSPA Campus, Barrackpore - WBPCB",06-03-2026 14:00:00,22.7605581,88.3617589,CO,52,101,63
India,West_Bengal,Durgapur,"Mahishkapur Road_B-Zone, Durgapur - WBPCB",06-03-2026 14:00:00,23.567923,87.306843,NO2,3,47,20
India,West_Bengal,Durgapur,"Mahishkapur Road_B-Zone, Durgapur - WBPCB",06-03-2026 14:00:00,23.567923,87.306843,OZONE,4,85,35
India,West_Bengal,Durgapur,"PCBL Residential Complex, Durgapur - WBPCB",06-03-2026 14:00:00,23.5087640,87.3544400,PM10,83,146,103
India,Uttarakhand,Kashipur,"Govt. Girls Inter College, Kashipur - UKPCB",06-03-2026 14:00:00,29.2124114,78.9611753,PM2.5,98,205,133
India,Uttarakhand,Kashipur,"Govt. Girls Inter College, Kashipur - UKPCB",06-03-2026 14:00:00,29.2124114,78.9611753,NH3,2,4,3
India,Uttarakhand,Kashipur,"Govt. Girls Inter College, Kashipur - UKPCB",06-03-2026 14:00:00,29.2124114,78.9611753,OZONE,13,23,16
India,Uttarakhand,Rishikesh,"Shivaji Nagar, Rishikesh - UKPCB",06-03-2026 14:00:00,30.075911,78.2859547,NO2,19,29,22
India,Uttarakhand,Rishikesh,"Shivaji Nagar, Rishikesh - UKPCB",06-03-2026 14:00:00,30.075911,78.2859547,CO,37,37,37
India,Uttar_Pradesh,Noida,"Sector-116, Noida - UPPCB",06-03-2026 14:00:00,28.569230,77.393848,OZONE,13,20,17
India,Uttar_Pradesh,Prayagraj,"Motilal Nehru NIT, Prayagraj - UPPCB",06-03-2026 14:00:00,25.494,81.863,NO2,12,12,12
India,Uttar_Pradesh,Prayagraj,"Nagar Nigam, Prayagraj - UPPCB",06-03-2026 14:00:00,25.44919916 ,81.82735986 ,PM10,45,128,75
India,Uttar_Pradesh,Prayagraj,"Nagar Nigam, Prayagraj - UPPCB",06-03-2026 14:00:00,25.44919916 ,81.82735986 ,NH3,8,11,10
India,West_Bengal,Howrah,"Padmapukur, Howrah - WBPCB",06-03-2026 14:00:00,22.5687319,88.2797276,NH3,4,10,6
India,West_Bengal,Howrah,"Padmapukur, Howrah - WBPCB",06-03-2026 14:00:00,22.5687319,88.2797276,OZONE,8,45,23
India,West_Bengal,Kolkata,"Ballygunge, Kolkata - WBPCB",06-03-2026 14:00:00,22.5367507,88.3638022,CO,6,54,15
India,West_Bengal,Kolkata,"Bidhannagar, Kolkata - WBPCB",06-03-2026 14:00:00,22.58157048,88.41002457,PM2.5,63,158,103
India,West_Bengal,Kolkata,"Bidhannagar, Kolkata - WBPCB",06-03-2026 14:00:00,22.58157048,88.41002457,NH3,5,7,6
India,West_Bengal,Kolkata,"Bidhannagar, Kolkata - WBPCB",06-03-2026 14:00:00,22.58157048,88.41002457,SO2,2,9,6
India,West_Bengal,Kolkata,"Fort William, Kolkata - WBPCB",06-03-2026 14:00:00,22.556640,88.342674,PM2.5,49,161,82
India,West_Bengal,Kolkata,"Fort William, Kolkata - WBPCB",06-03-2026 14:00:00,22.556640,88.342674,NH3,9,12,10
India,West_Bengal,Kolkata,"Fort William, Kolkata - WBPCB",06-03-2026 14:00:00,22.556640,88.342674,OZONE,2,51,14
India,West_Bengal,Kolkata,"Jadavpur, Kolkata - WBPCB",06-03-2026 14:00:00,22.49929,88.36917,SO2,2,7,3
India,West_Bengal,Kolkata,"Rabindra Bharati University, Kolkata - WBPCB",06-03-2026 14:00:00,22.627847,88.380669,PM10,96,134,115
India,West_Bengal,Kolkata,"Rabindra Bharati University, Kolkata - WBPCB",06-03-2026 14:00:00,22.627847,88.380669,SO2,5,11,7
India,West_Bengal,Kolkata,"Rabindra Sarobar, Kolkata - WBPCB",06-03-2026 14:00:00,22.51106,88.35142,NO2,15,162,44
India,West_Bengal,Siliguri,"Ward-32 Bapupara, Siliguri - WBPCB",06-03-2026 14:00:00,26.6879226,88.4152495,PM10,98,223,146
India,West_Bengal,Siliguri,"Ward-32 Bapupara, Siliguri - WBPCB",06-03-2026 14:00:00,26.6879226,88.4152495,NO2,16,21,18
India,West_Bengal,Siliguri,"Ward-32 Bapupara, Siliguri - WBPCB",06-03-2026 14:00:00,26.6879226,88.4152495,SO2,14,23,18
India,Bihar,Bettiah,"Kamalnath Nagar, Bettiah - BSPCB",06-03-2026 14:00:00,26.80365,84.51954,PM10,26,129,74
India,Bihar,Bettiah,"Kamalnath Nagar, Bettiah - BSPCB",06-03-2026 14:00:00,26.80365,84.51954,NH3,1,1,1
India,Bihar,Bhagalpur,"DM Office_Kachari Chowk, Bhagalpur - BSPCB",06-03-2026 14:00:00,25.251013,86.989001,PM10,43,107,81
India,Bihar,Bhagalpur,"DM Office_Kachari Chowk, Bhagalpur - BSPCB",06-03-2026 14:00:00,25.251013,86.989001,NO2,6,10,8
India,Bihar,Bhagalpur,"Mayaganj, Bhagalpur - BSPCB",06-03-2026 14:00:00,25.265194,87.012947,PM2.5,17,62,36
India,Bihar,Bhagalpur,"Mayaganj, Bhagalpur - BSPCB",06-03-2026 14:00:00,25.265194,87.012947,PM10,79,189,129
India,Bihar,Bhagalpur,"Mayaganj, Bhagalpur - BSPCB",06-03-2026 14:00:00,25.265194,87.012947,CO,66,82,74
India,Bihar,Bihar Sharif,"D M Colony, Bihar Sharif - BSPCB",06-03-2026 14:00:00,25.204762,85.514960,PM10,23,97,62
India,Andhra_Pradesh,Vijayawada,"HB Colony, Vijayawada - APPCB",06-03-2026 14:00:00,16.536107,80.594233,SO2,19,28,21
India,Andhra_Pradesh,Vijayawada,"Kanuru, Vijayawada - APPCB",06-03-2026 14:00:00,16.486692,80.699436,PM10,59,76,66
India,Andhra_Pradesh,Vijayawada,"Kanuru, Vijayawada - APPCB",06-03-2026 14:00:00,16.486692,80.699436,NO2,20,22,20
India,Andhra_Pradesh,Vijayawada,"Kanuru, Vijayawada - APPCB",06-03-2026 14:00:00,16.486692,80.699436,SO2,16,25,19
India,Andhra_Pradesh,Vijayawada,"Kanuru, Vijayawada - APPCB",06-03-2026 14:00:00,16.486692,80.699436,OZONE,24,34,29
India,Andhra_Pradesh,Vijayawada,"Rajiv Gandhi Park, Vijayawada - APPCB",06-03-2026 14:00:00,16.509717,80.612222,NO2,20,78,44
India,Andhra_Pradesh,Vijayawada,"Rajiv Nagar, Vijayawada - APPCB",06-03-2026 14:00:00,16.554731,80.649110,NH3,3,5,3
India,Assam,Byrnihat,"Central Academy for SFS, Byrnihat - PCBA",06-03-2026 14:00:00,26.071318,91.87488,OZONE,13,68,34
India,Assam,Guwahati,"Pan Bazaar, Guwahati - PCBA",06-03-2026 14:00:00,26.187500,91.744194,PM2.5,57,238,137
India,Assam,Guwahati,"Pan Bazaar, Guwahati - PCBA",06-03-2026 14:00:00,26.187500,91.744194,NH3,1,1,1
India,Bihar,Gaya,"Collectorate, Gaya - BSPCB",06-03-2026 14:00:00,24.7955,84.9994,PM2.5,NA,NA,NA
India,Bihar,Gaya,"Kareemganj, Gaya - BSPCB",06-03-2026 14:00:00,24.792403,84.992416,PM10,103,276,155
India,Bihar,Gaya,"Kareemganj, Gaya - BSPCB",06-03-2026 14:00:00,24.792403,84.992416,NH3,1,2,1
India,Bihar,Gaya,"Kareemganj, Gaya - BSPCB",06-03-2026 14:00:00,24.792403,84.992416,SO2,40,46,44
India,Bihar,Gaya,"SFTI Kusdihra, Gaya - BSPCB",06-03-2026 14:00:00,24.762518,84.982348,PM10,67,113,92
India,Bihar,Bihar Sharif,"D M Colony, Bihar Sharif - BSPCB",06-03-2026 14:00:00,25.204762,85.514960,OZONE,2,2,2
India,Bihar,Buxar,"Charitra Van, Buxar - BSPCB",06-03-2026 14:00:00,25.567520,83.966379,NH3,3,3,3
India,Bihar,Chhapra,"Darshan Nagar, Chhapra - BSPCB",06-03-2026 14:00:00,25.7808257,84.7446768,PM2.5,38,203,104
India,Bihar,Chhapra,"Darshan Nagar, Chhapra - BSPCB",06-03-2026 14:00:00,25.7808257,84.7446768,NO2,2,2,2
India,Andhra_Pradesh,Amaravati,"Secretariat, Amaravati - APPCB",06-03-2026 14:00:00,16.5150833,80.5181667,OZONE,1,64,37
India,Andhra_Pradesh,Anantapur,"Gulzarpet, Anantapur - APPCB",06-03-2026 14:00:00,14.675886,77.593027,NO2,17,24,18
India,Andhra_Pradesh,Chittoor,"Gangineni Cheruvu, Chittoor - APPCB",06-03-2026 14:00:00,13.204880,79.097889,PM10,60,80,69
India,Bihar,Arrah,"New DM Office, Arrah - BSPCB",06-03-2026 14:00:00,25.5626095,84.663264,OZONE,5,11,7
India,Bihar,Begusarai,"Lohiyanagar, Begusarai - BSPCB",06-03-2026 14:00:00,25.42742023,86.13886079,NO2,11,17,13
India,Bihar,Begusarai,"Lohiyanagar, Begusarai - BSPCB",06-03-2026 14:00:00,25.42742023,86.13886079,NH3,3,4,4
India,Bihar,Begusarai,"Lohiyanagar, Begusarai - BSPCB",06-03-2026 14:00:00,25.42742023,86.13886079,OZONE,32,48,39
India,Assam,Silchar,"Tarapur, Silchar - PCBA",06-03-2026 14:00:00,24.82827,92.79525,PM2.5,23,92,59
India,Assam,Silchar,"Tarapur, Silchar - PCBA",06-03-2026 14:00:00,24.82827,92.79525,CO,22,64,26
India,Assam,Sivasagar,"Girls College, Sivasagar - PCBA",06-03-2026 14:00:00,26.987634,94.636574,PM2.5,33,97,65
India,Assam,Sivasagar,"Girls College, Sivasagar - PCBA",06-03-2026 14:00:00,26.987634,94.636574,NH3,5,20,10
India,Assam,Guwahati,"Railway Colony, Guwahati - PCBA",06-03-2026 14:00:00,26.181742,91.78063,NO2,NA,NA,NA
India,Assam,Nalbari,"Bata Chowk, Nalbari - PCBA",06-03-2026 14:00:00,26.446912,91.439057,NH3,6,7,6
India,Assam,Nalbari,"Bata Chowk, Nalbari - PCBA",06-03-2026 14:00:00,26.446912,91.439057,SO2,4,8,8
India,Bihar,Gaya,"SFTI Kusdihra, Gaya - BSPCB",06-03-2026 14:00:00,24.762518,84.982348,NH3,4,5,4
India,Chhattisgarh,Milupara,"Govt. Higher Secondary School, Milupara - CECB",06-03-2026 14:00:00,22.1910172,83.5197009,NH3,1,2,2
India,Chhattisgarh,Raipur,"AIIMS, Raipur - CECB",06-03-2026 14:00:00,21.258815,81.578979,SO2,3,8,5
India,Chhattisgarh,Raipur,"AIIMS, Raipur - CECB",06-03-2026 14:00:00,21.258815,81.578979,CO,16,28,24
India,Chhattisgarh,Raipur,"Bhatagaon New ISBT, Raipur - CECB",06-03-2026 14:00:00,21.219665,81.630094,PM2.5,6,41,22
India,Chhattisgarh,Raipur,"Bhatagaon New ISBT, Raipur - CECB",06-03-2026 14:00:00,21.219665,81.630094,NH3,2,2,2
India,Chhattisgarh,Raipur,"Bhatagaon New ISBT, Raipur - CECB",06-03-2026 14:00:00,21.219665,81.630094,CO,14,48,36
India,Chhattisgarh,Raipur,"Siltara Phase-II, Raipur - CECB",06-03-2026 14:00:00,21.371751,81.664929,PM10,67,118,99
India,Chhattisgarh,Raipur,"Siltara Phase-II, Raipur - CECB",06-03-2026 14:00:00,21.371751,81.664929,NO2,7,22,14
India,Chhattisgarh,Tumidih,"OP Jindal Industrial Park, Tumidih - CECB",06-03-2026 14:00:00,22.06631475,83.33820077,PM2.5,39,84,66
India,Bihar,Katihar,"Mirchaibari, Katihar - BSPCB",06-03-2026 14:00:00,25.560083,87.553265,NH3,1,1,1
India,Bihar,Katihar,"Mirchaibari, Katihar - BSPCB",06-03-2026 14:00:00,25.560083,87.553265,SO2,16,24,20
India,Bihar,Kishanganj,"SDM Office_Khagra, Kishanganj - BSPCB",06-03-2026 14:00:00,26.0881305,87.93840336,SO2,5,9,7
India,Bihar,Kishanganj,"SDM Office_Khagra, Kishanganj - BSPCB",06-03-2026 14:00:00,26.0881305,87.93840336,CO,16,26,22
India,Bihar,Manguraha,"Forest Rest House, Manguraha - BSPCB",06-03-2026 14:00:00,27.308328,84.531742,CO,32,32,32
India,Bihar,Motihari,"Gandak Colony, Motihari - BSPCB",06-03-2026 14:00:00,26.63086,84.90051,PM2.5,37,327,131
India,Bihar,Motihari,"Gandak Colony, Motihari - BSPCB",06-03-2026 14:00:00,26.63086,84.90051,NH3,3,3,3
India,Bihar,Motihari,"Gandak Colony, Motihari - BSPCB",06-03-2026 14:00:00,26.63086,84.90051,OZONE,2,9,5
India,Bihar,Munger,"Town Hall, Munger - BSPCB",06-03-2026 14:00:00,25.376776,86.471523,PM10,28,101,52
India,Chandigarh,Chandigarh,"Sector 22, Chandigarh - CPCC",06-03-2026 14:00:00,30.735567,76.775714,PM2.5,37,117,77
India,Chandigarh,Chandigarh,"Sector 22, Chandigarh - CPCC",06-03-2026 14:00:00,30.735567,76.775714,CO,51,105,71
India,Chandigarh,Chandigarh,"Sector-25, Chandigarh - CPCC",06-03-2026 14:00:00,30.751462,76.762879,NO2,11,27,18
India,Chandigarh,Chandigarh,"Sector-25, Chandigarh - CPCC",06-03-2026 14:00:00,30.751462,76.762879,CO,16,46,38
India,Chandigarh,Chandigarh,"Sector-25, Chandigarh - CPCC",06-03-2026 14:00:00,30.751462,76.762879,OZONE,1,74,27
India,Chandigarh,Chandigarh,"Sector-53, Chandigarh - CPCC",06-03-2026 14:00:00,30.719859,76.738637,PM2.5,38,117,74
India,Chandigarh,Chandigarh,"Sector-53, Chandigarh - CPCC",06-03-2026 14:00:00,30.719859,76.738637,CO,40,89,56
India,Chhattisgarh,Bhilai,"Civic Center, Bhilai - Bhilai Steel Plant",06-03-2026 14:00:00,21.185571,81.343175,PM2.5,6,34,17
India,Chhattisgarh,Bhilai,"Civic Center, Bhilai - Bhilai Steel Plant",06-03-2026 14:00:00,21.185571,81.343175,NO2,11,11,11
India,Chhattisgarh,Bhilai,"Civic Center, Bhilai - Bhilai Steel Plant",06-03-2026 14:00:00,21.185571,81.343175,CO,27,34,31
India,Bihar,Munger,"Town Hall, Munger - BSPCB",06-03-2026 14:00:00,25.376776,86.471523,NH3,2,3,3
India,Bihar,Muzaffarpur,"Buddha Colony, Muzaffarpur - BSPCB",06-03-2026 14:00:00,26.11442,85.39813,NO2,27,57,37
India,Bihar,Muzaffarpur,"Buddha Colony, Muzaffarpur - BSPCB",06-03-2026 14:00:00,26.11442,85.39813,NH3,6,20,16
India,Bihar,Muzaffarpur,"Buddha Colony, Muzaffarpur - BSPCB",06-03-2026 14:00:00,26.11442,85.39813,OZONE,50,345,92
India,Bihar,Muzaffarpur,"MIT-Daudpur Kothi, Muzaffarpur - BSPCB",06-03-2026 14:00:00,26.1403345,85.3650192,NH3,1,1,1
India,Bihar,Muzaffarpur,"Muzaffarpur Collectorate, Muzaffarpur - BSPCB",06-03-2026 14:00:00,26.1209,85.3647,NO2,9,17,10
India,Bihar,Patna,"DRM Office Danapur, Patna - BSPCB",06-03-2026 14:00:00,25.586562,85.043586,NH3,10,11,11
India,Bihar,Patna,"DRM Office Danapur, Patna - BSPCB",06-03-2026 14:00:00,25.586562,85.043586,SO2,4,9,6
India,Bihar,Rajgir,"Dangi Tola, Rajgir - BSPCB",06-03-2026 14:00:00,25.03280,85.41948,PM2.5,30,157,80
India,Bihar,Rajgir,"Dangi Tola, Rajgir - BSPCB",06-03-2026 14:00:00,25.03280,85.41948,NO2,13,14,14
India,Bihar,Rajgir,"Dangi Tola, Rajgir - BSPCB",06-03-2026 14:00:00,25.03280,85.41948,NH3,3,3,3
India,Bihar,Rajgir,"Dangi Tola, Rajgir - BSPCB",06-03-2026 14:00:00,25.03280,85.41948,OZONE,24,27,26
India,Bihar,Saharsa,"Police Line, Saharsa - BSPCB",06-03-2026 14:00:00,25.892357,86.590325,PM2.5,45,319,176
India,Bihar,Samastipur,"DM Office_Kasipur, Samastipur - BSPCB",06-03-2026 14:00:00,25.859655,85.77944,NH3,1,1,1
India,Bihar,Sasaram,"Dada Peer, Sasaram - BSPCB",06-03-2026 14:00:00,24.952822,84.002396,NH3,2,10,3
India,Bihar,Sasaram,"Dada Peer, Sasaram - BSPCB",06-03-2026 14:00:00,24.952822,84.002396,CO,45,112,51
India,Bihar,Patna,"IGSC Planetarium Complex, Patna - BSPCB",06-03-2026 14:00:00,25.610369,85.132568,OZONE,47,50,48
India,Bihar,Patna,"Muradpur, Patna - BSPCB",06-03-2026 14:00:00,25.619651,85.147382,CO,28,64,47
India,Bihar,Patna,"Muradpur, Patna - BSPCB",06-03-2026 14:00:00,25.619651,85.147382,OZONE,15,100,52
India,Bihar,Patna,"Samanpura, Patna - BSPCB",06-03-2026 14:00:00,25.596727,85.085624,SO2,4,5,4
India,Bihar,Patna,"Samanpura, Patna - BSPCB",06-03-2026 14:00:00,25.596727,85.085624,OZONE,22,142,98
India,Bihar,Purnia,"Mariam Nagar, Purnia - BSPCB",06-03-2026 14:00:00,25.366336,87.117468,PM2.5,77,127,96
India,Bihar,Purnia,"Mariam Nagar, Purnia - BSPCB",06-03-2026 14:00:00,25.366336,87.117468,SO2,16,18,17
India,Chhattisgarh,Bhilai,"Hathkhoj, Bhilai - CECB",06-03-2026 14:00:00,21.224231,81.408350,CO,13,30,26
India,Chhattisgarh,Bilaspur,"Mangala, Bilaspur - NTPC",06-03-2026 14:00:00,22.08815,82.13737,PM2.5,27,69,48
India,Chhattisgarh,Korba,"Rampur, Korba - CECB",06-03-2026 14:00:00,22.368195,82.746431,PM2.5,14,42,27
India,Chhattisgarh,Korba,"Urja Nagar, Korba - CECB",06-03-2026 14:00:00,22.348441,82.549611,PM10,34,73,51
India,Chhattisgarh,Kunjemura,"OP Jindal School, Kunjemura - CECB",06-03-2026 14:00:00,22.126650,83.483212,PM2.5,33,140,80
India,Delhi,Delhi,"Anand Vihar, Delhi - DPCC",06-03-2026 14:00:00,28.647622,77.3158090,PM2.5,83,308,189
India,Delhi,Delhi,"Anand Vihar, Delhi - DPCC",06-03-2026 14:00:00,28.647622,77.3158090,NO2,16,67,45
India,Delhi,Delhi,"Ashok Vihar, Delhi - DPCC",06-03-2026 14:00:00,28.695381,77.181665,SO2,18,47,29
India,Delhi,Delhi,"Aya Nagar, Delhi - IMD",06-03-2026 14:00:00,28.4706914,77.1099364,CO,6,52,37
India,Delhi,Delhi,"Bawana, Delhi - DPCC",06-03-2026 14:00:00,28.776200,77.051074,NO2,6,25,14
India,Bihar,Hajipur,"Industrial Area, Hajipur - BSPCB",06-03-2026 14:00:00,25.697189,85.245900,CO,24,62,46
India,Bihar,Katihar,"Mirchaibari, Katihar - BSPCB",06-03-2026 14:00:00,25.560083,87.553265,NO2,9,10,9
India,Delhi,Delhi,"Talkatora Garden, Delhi - DPCC",06-03-2026 14:00:00,28.621810,77.1944633,NH3,6,9,7
India,Delhi,Delhi,"Talkatora Garden, Delhi - DPCC",06-03-2026 14:00:00,28.621810,77.1944633,SO2,83,106,99
India,Delhi,Delhi,"Talkatora Garden, Delhi - DPCC",06-03-2026 14:00:00,28.621810,77.1944633,OZONE,1,19,10
India,Delhi,Delhi,"Vivek Vihar, Delhi - DPCC",06-03-2026 14:00:00,28.672342,77.315260,PM10,128,287,170
India,Delhi,Delhi,"Vivek Vihar, Delhi - DPCC",06-03-2026 14:00:00,28.672342,77.315260,CO,56,92,79
India,Delhi,Delhi,"Wazirpur, Delhi - DPCC",06-03-2026 14:00:00,28.699793,77.165453,PM10,126,350,213
India,Delhi,Delhi,"Wazirpur, Delhi - DPCC",06-03-2026 14:00:00,28.699793,77.165453,NH3,11,17,14
India,Delhi,Delhi,"Wazirpur, Delhi - DPCC",06-03-2026 14:00:00,28.699793,77.165453,CO,46,98,82
India,Gujarat,Ahmedabad,"Chandkheda, Ahmedabad - IITM",06-03-2026 14:00:00,23.107969,72.574648,PM2.5,22,101,49
India,Gujarat,Ahmedabad,"Chandkheda, Ahmedabad - IITM",06-03-2026 14:00:00,23.107969,72.574648,NH3,NA,NA,NA
India,Gujarat,Ahmedabad,"Gyaspur, Ahmedabad - IITM",06-03-2026 14:00:00,22.977134,72.553024,NH3,2,12,4
India,Gujarat,Ahmedabad,"Gyaspur, Ahmedabad - IITM",06-03-2026 14:00:00,22.977134,72.553024,CO,18,52,36
India,Gujarat,Ahmedabad,"Maninagar, Ahmedabad - GPCB",06-03-2026 14:00:00,23.002657,72.591912,PM10,74,119,96
India,Delhi,Delhi,"NSIT Dwarka, Delhi - CPCB",06-03-2026 14:00:00,28.60909,77.0325413,CO,33,75,59
India,Delhi,Delhi,"NSUT Jaffarpur, Delhi - DPCC",06-03-2026 14:00:00,28.594004 ,76.909423 ,PM2.5,79,307,179
India,Delhi,Delhi,"Najafgarh, Delhi - DPCC",06-03-2026 14:00:00,28.570173,76.933762,NO2,27,100,72
India,Delhi,Delhi,"Najafgarh, Delhi - DPCC",06-03-2026 14:00:00,28.570173,76.933762,NH3,10,12,11
India,Delhi,Delhi,"Narela, Delhi - DPCC",06-03-2026 14:00:00,28.822836,77.101981,PM10,110,184,137
India,Delhi,Delhi,"Nehru Nagar, Delhi - DPCC",06-03-2026 14:00:00,28.567890,77.250515,PM2.5,67,240,135
India,Delhi,Delhi,"Nehru Nagar, Delhi - DPCC",06-03-2026 14:00:00,28.567890,77.250515,NO2,22,63,43
India,Delhi,Delhi,"Nehru Nagar, Delhi - DPCC",06-03-2026 14:00:00,28.567890,77.250515,OZONE,3,288,252
India,Delhi,Delhi,"North Campus, DU, Delhi - IMD",06-03-2026 14:00:00,28.6573814,77.1585447,NO2,24,109,74
India,Delhi,Delhi,"North Campus, DU, Delhi - IMD",06-03-2026 14:00:00,28.6573814,77.1585447,OZONE,11,204,44
India,Delhi,Delhi,"Okhla Phase-2, Delhi - DPCC",06-03-2026 14:00:00,28.530785,77.271255,PM10,134,255,170
India,Delhi,Delhi,"DTU, Delhi - CPCB",06-03-2026 14:00:00,28.7500499,77.1112615,OZONE,23,35,24
India,Delhi,Delhi,"Dr. Karni Singh Shooting Range, Delhi - DPCC",06-03-2026 14:00:00,28.498571,77.264840,PM2.5,67,233,129
India,Delhi,Delhi,"Dr. Karni Singh Shooting Range, Delhi - DPCC",06-03-2026 14:00:00,28.498571,77.264840,PM10,86,173,129
India,Delhi,Delhi,"Dwarka-Sector 8, Delhi - DPCC ",06-03-2026 14:00:00,28.5710274,77.0719006,PM2.5,78,253,147
India,Delhi,Delhi,"Dwarka-Sector 8, Delhi - DPCC ",06-03-2026 14:00:00,28.5710274,77.0719006,PM10,123,309,194
India,Delhi,Delhi,"Dwarka-Sector 8, Delhi - DPCC ",06-03-2026 14:00:00,28.5710274,77.0719006,NO2,32,129,68
India,Delhi,Delhi,"IGI Airport (T3), Delhi - IMD",06-03-2026 14:00:00,28.5627763,77.1180053,PM10,112,198,146
India,Delhi,Delhi,"IGNOU_Maidan Garhi, Delhi - DPCC",06-03-2026 14:00:00,28.493624 ,77.201159 ,PM2.5,74,249,153
India,Delhi,Delhi,"IGNOU_Maidan Garhi, Delhi - DPCC",06-03-2026 14:00:00,28.493624 ,77.201159 ,SO2,59,66,62
India,Delhi,Delhi,"IHBAS, Dilshad Garden, Delhi - CPCB",06-03-2026 14:00:00,28.6811736,77.3025234,PM2.5,64,188,108
India,Delhi,Delhi,"IHBAS, Dilshad Garden, Delhi - CPCB",06-03-2026 14:00:00,28.6811736,77.3025234,PM10,93,161,121
India,Delhi,Delhi,"IHBAS, Dilshad Garden, Delhi - CPCB",06-03-2026 14:00:00,28.6811736,77.3025234,NH3,8,13,10
India,Delhi,Delhi,"IIT Delhi, Delhi - IITM",06-03-2026 14:00:00,28.542460,77.191651,CO,29,62,47
India,Delhi,Delhi,"IIT Delhi, Delhi - IITM",06-03-2026 14:00:00,28.542460,77.191651,OZONE,1,48,25
India,Delhi,Delhi,"ITO, Delhi - CPCB",06-03-2026 14:00:00,28.628624,77.241060,CO,12,52,35
India,Delhi,Delhi,"JNU, Delhi - DPCC",06-03-2026 14:00:00,28.540721 ,77.168544 ,NH3,3,8,5
India,Delhi,Delhi,"JNU, Delhi - DPCC",06-03-2026 14:00:00,28.540721 ,77.168544 ,SO2,18,20,19
India,Delhi,Delhi,"JNU, Delhi - DPCC",06-03-2026 14:00:00,28.540721 ,77.168544 ,OZONE,2,32,16
India,Delhi,Delhi,"Jahangirpuri, Delhi - DPCC",06-03-2026 14:00:00,28.732820,77.170633,SO2,37,60,44
India,Delhi,Delhi,"Jahangirpuri, Delhi - DPCC",06-03-2026 14:00:00,28.732820,77.170633,CO,31,82,74
India,Delhi,Delhi,"Jawaharlal Nehru Stadium, Delhi - DPCC",06-03-2026 14:00:00,28.580280,77.233829,PM2.5,57,203,118
India,Delhi,Delhi,"Jawaharlal Nehru Stadium, Delhi - DPCC",06-03-2026 14:00:00,28.580280,77.233829,PM10,123,201,157
India,Delhi,Delhi,"Burari Crossing, Delhi - IMD",06-03-2026 14:00:00,28.7256504,77.2011573,OZONE,10,317,309
India,Delhi,Delhi,"CRRI Mathura Road, Delhi - IMD",06-03-2026 14:00:00,28.5512005,77.2735737,PM10,125,178,147
India,Delhi,Delhi,"Cantonment Area, Delhi - DPCC ",06-03-2026 14:00:00,28.594169 ,77.125100 ,PM10,123,180,147
India,Delhi,Delhi,"Cantonment Area, Delhi - DPCC ",06-03-2026 14:00:00,28.594169 ,77.125100 ,CO,84,111,107
India,Delhi,Delhi,"Chandni Chowk, Delhi - IITM",06-03-2026 14:00:00,28.656756,77.227234,PM2.5,98,368,155
India,Delhi,Delhi,"Chandni Chowk, Delhi - IITM",06-03-2026 14:00:00,28.656756,77.227234,PM10,128,287,192
India,Delhi,Delhi,"Commonwealth Sports Complex, Delhi - DPCC",06-03-2026 14:00:00,28.615828 ,77.271992 ,PM2.5,64,224,141
India,Delhi,Delhi,"DTU, Delhi - CPCB",06-03-2026 14:00:00,28.7500499,77.1112615,PM2.5,57,291,148
India,Delhi,Delhi,"Jawaharlal Nehru Stadium, Delhi - DPCC",06-03-2026 14:00:00,28.580280,77.233829,OZONE,1,177,177
India,Delhi,Delhi,"Major Dhyan Chand National Stadium, Delhi - DPCC",06-03-2026 14:00:00,28.611281,77.237738,NO2,26,109,66
India,Delhi,Delhi,"Mandir Marg, Delhi - DPCC",06-03-2026 14:00:00,28.636429,77.201067,PM2.5,52,277,132
India,Delhi,Delhi,"Mandir Marg, Delhi - DPCC",06-03-2026 14:00:00,28.636429,77.201067,PM10,97,228,147
India,Delhi,Delhi,"Mundka, Delhi - DPCC",06-03-2026 14:00:00,28.684678,77.076574,SO2,19,41,26
India,Delhi,Delhi,"NSIT Dwarka, Delhi - CPCB",06-03-2026 14:00:00,28.60909,77.0325413,NO2,20,243,72
India,Delhi,Delhi,"R K Puram, Delhi - DPCC",06-03-2026 14:00:00,28.563262,77.186937,CO,12,111,89
India,Delhi,Delhi,"Shadipur, Delhi - CPCB",06-03-2026 14:00:00,28.6514781,77.1473105,NO2,46,91,62
India,Delhi,Delhi,"Sirifort, Delhi - CPCB",06-03-2026 14:00:00,28.5504249,77.2159377,CO,6,29,25
India,Delhi,Delhi,"Sirifort, Delhi - CPCB",06-03-2026 14:00:00,28.5504249,77.2159377,OZONE,6,28,15
India,Delhi,Delhi,"Sonia Vihar, Delhi - DPCC",06-03-2026 14:00:00,28.710508,77.249485,SO2,34,68,44
India,Delhi,Delhi,"Sri Aurobindo Marg, Delhi - DPCC",06-03-2026 14:00:00,28.531346,77.190156,SO2,1,5,4
India,Delhi,Delhi,"Patparganj, Delhi - DPCC",06-03-2026 14:00:00,28.623763,77.287209,PM10,127,254,165
India,Delhi,Delhi,"Patparganj, Delhi - DPCC",06-03-2026 14:00:00,28.623763,77.287209,NO2,14,88,54
India,Delhi,Delhi,"Patparganj, Delhi - DPCC",06-03-2026 14:00:00,28.623763,77.287209,CO,70,105,88
India,Delhi,Delhi,"Pusa, Delhi - DPCC",06-03-2026 14:00:00,28.639652,77.146275,SO2,11,25,16
India,Delhi,Delhi,"R K Puram, Delhi - DPCC",06-03-2026 14:00:00,28.563262,77.186937,NO2,3,90,51
India,Gujarat,Ahmedabad,"Raikhad, Ahmedabad - IITM",06-03-2026 14:00:00,23.020509,72.579261,PM2.5,40,77,57
India,Gujarat,Ahmedabad,"Raikhad, Ahmedabad - IITM",06-03-2026 14:00:00,23.020509,72.579261,NO2,25,99,60
India,Gujarat,Ahmedabad,"Raikhad, Ahmedabad - IITM",06-03-2026 14:00:00,23.020509,72.579261,SO2,10,32,20
India,Gujarat,Ahmedabad,"Rakhial, Ahmedabad - IITM",06-03-2026 14:00:00,23.016834,72.625775,PM10,74,144,109
India,Gujarat,Ahmedabad,"Rakhial, Ahmedabad - IITM",06-03-2026 14:00:00,23.016834,72.625775,OZONE,3,63,28
India,Gujarat,Ankleshwar,"GIDC, Ankleshwar - GPCB",06-03-2026 14:00:00,21.613267,73.010555,CO,46,108,65
India,Gujarat,Bhavnagar,"Vidhyanagar, Bhavnagar - Nexteng Enviro",06-03-2026 14:00:00,21.755417,72.139056,PM2.5,9,79,46
India,Gujarat,Bhavnagar,"Vidhyanagar, Bhavnagar - Nexteng Enviro",06-03-2026 14:00:00,21.755417,72.139056,NH3,3,6,5
India,Gujarat,Gandhinagar,"GIFT City, Gandhinagar - IITM",06-03-2026 14:00:00,23.163798,72.677768,NO2,14,55,26
India,Gujarat,Gandhinagar,"GIFT City, Gandhinagar - IITM",06-03-2026 14:00:00,23.163798,72.677768,SO2,4,15,8
India,Gujarat,Gandhinagar,"GIFT City, Gandhinagar - IITM",06-03-2026 14:00:00,23.163798,72.677768,OZONE,2,58,23
India,Gujarat,Gandhinagar,"IIPHG Lekawada, Gandhinagar - IITM",06-03-2026 14:00:00,23.243639,72.68994,NO2,8,34,17
India,Gujarat,Gandhinagar,"IIPHG Lekawada, Gandhinagar - IITM",06-03-2026 14:00:00,23.243639,72.68994,NH3,1,4,2
India,Gujarat,Gandhinagar,"IIPHG Lekawada, Gandhinagar - IITM",06-03-2026 14:00:00,23.243639,72.68994,SO2,3,9,5
India,Gujarat,Gandhinagar,"IIPHG Lekawada, Gandhinagar - IITM",06-03-2026 14:00:00,23.243639,72.68994,CO,1,40,16
India,Gujarat,Gandhinagar,"Sector-10, Gandhinagar - GPCB",06-03-2026 14:00:00,23.221714,72.654328,PM2.5,47,98,69
India,Gujarat,Gandhinagar,"Sector-10, Gandhinagar - GPCB",06-03-2026 14:00:00,23.221714,72.654328,NH3,2,4,3
India,Gujarat,Mehsana,"Sadanand Nagar, Mehsana - Nexteng Enviro",06-03-2026 14:00:00,23.593150,72.372792,SO2,NA,NA,NA
India,Gujarat,Mehsana,"Sadanand Nagar, Mehsana - Nexteng Enviro",06-03-2026 14:00:00,23.593150,72.372792,OZONE,9,11,9
India,Gujarat,Nandesari,"GIDC, Nandesari - Nandesari Ind. Association",06-03-2026 14:00:00,22.410802,73.097923,PM10,96,407,185
India,Gujarat,Rajkot,"Mavdi, Rajkot - Nexteng Enviro ",06-03-2026 14:00:00,22.248853,70.776774,PM2.5,5,96,50
India,Gujarat,Rajkot,"Mavdi, Rajkot - Nexteng Enviro ",06-03-2026 14:00:00,22.248853,70.776774,PM10,38,108,69
India,Gujarat,Rajkot,"Mavdi, Rajkot - Nexteng Enviro ",06-03-2026 14:00:00,22.248853,70.776774,NO2,6,14,10
India,Gujarat,Rajkot,"Mavdi, Rajkot - Nexteng Enviro ",06-03-2026 14:00:00,22.248853,70.776774,OZONE,8,21,11
India,Gujarat,Surat,"Katargam, Surat - Nexteng Enviro",06-03-2026 14:00:00,21.217779 ,72.834787 ,PM2.5,16,96,53
India,Gujarat,Surat,"Katargam, Surat - Nexteng Enviro",06-03-2026 14:00:00,21.217779 ,72.834787 ,NO2,9,84,33
India,Gujarat,Surat,"Katargam, Surat - Nexteng Enviro",06-03-2026 14:00:00,21.217779 ,72.834787 ,SO2,17,55,29
India,Gujarat,Vapi,"Phase-1 GIDC, Vapi - GPCB",06-03-2026 14:00:00,20.362421,72.918013,NH3,3,5,5
India,Gujarat,Vatva,"Phase-4 GIDC, Vatva - GPCB",06-03-2026 14:00:00,22.969611,72.643500,NO2,46,124,105
India,Haryana,Kaithal,"Rishi Nagar, Kaithal - HSPCB",06-03-2026 14:00:00,29.8006,76.4155,OZONE,5,39,19
India,Haryana,Karnal,"Sector-12, Karnal - HSPCB",06-03-2026 14:00:00,29.695300,77.002700,PM10,41,406,127
India,Haryana,Kurukshetra,"Sector-7, Kurukshetra - HSPCB",06-03-2026 14:00:00,29.966942,76.875879,PM2.5,160,307,214
India,Haryana,Kurukshetra,"Sector-7, Kurukshetra - HSPCB",06-03-2026 14:00:00,29.966942,76.875879,PM10,145,262,180
India,Haryana,Kurukshetra,"Sector-7, Kurukshetra - HSPCB",06-03-2026 14:00:00,29.966942,76.875879,NH3,5,8,7
India,Haryana,Kurukshetra,"Sector-7, Kurukshetra - HSPCB",06-03-2026 14:00:00,29.966942,76.875879,OZONE,9,63,26
India,Haryana,Mandikhera,"General Hospital, Mandikhera(Nuh) - HSPCB",06-03-2026 14:00:00,27.9002,76.9938,CO,52,93,74
India,Haryana,Narnaul,"Shastri Nagar, Narnaul - HSPCB",06-03-2026 14:00:00,28.060249,76.113115,PM10,55,117,73
India,Haryana,Narnaul,"Shastri Nagar, Narnaul - HSPCB",06-03-2026 14:00:00,28.060249,76.113115,NO2,32,57,46
India,Haryana,Narnaul,"Shastri Nagar, Narnaul - HSPCB",06-03-2026 14:00:00,28.060249,76.113115,CO,72,88,82
India,Haryana,Palwal,"Shyam Nagar, Palwal - HSPCB",06-03-2026 14:00:00,28.1485564,77.3320667,PM10,40,66,55
India,Haryana,Gurugram,"Sector-51, Gurugram - HSPCB",06-03-2026 14:00:00,28.4227,77.0667,PM10,135,168,150
India,Haryana,Gurugram,"Sector-51, Gurugram - HSPCB",06-03-2026 14:00:00,28.4227,77.0667,CO,22,52,35
India,Haryana,Gurugram,"Teri Gram, Gurugram - HSPCB",06-03-2026 14:00:00,28.4275,77.1465,SO2,5,19,13
India,Haryana,Gurugram,"Teri Gram, Gurugram - HSPCB",06-03-2026 14:00:00,28.4275,77.1465,OZONE,10,37,21
India,Haryana,Gurugram,"Vikas Sadan, Gurugram - HSPCB",06-03-2026 14:00:00,28.4501238,77.0263051,OZONE,4,31,20
India,Haryana,Hisar,"Urban Estate-II, Hisar - HSPCB",06-03-2026 14:00:00,29.140560,75.744941,NH3,10,11,11
India,Haryana,Hisar,"Urban Estate-II, Hisar - HSPCB",06-03-2026 14:00:00,29.140560,75.744941,SO2,7,15,11
India,Haryana,Jind,"Police Lines, Jind - HSPCB",06-03-2026 14:00:00,29.307814,76.337619,NH3,2,6,5
India,Haryana,Kaithal,"Rishi Nagar, Kaithal - HSPCB",06-03-2026 14:00:00,29.8006,76.4155,PM10,81,137,103
India,Haryana,Palwal,"Shyam Nagar, Palwal - HSPCB",06-03-2026 14:00:00,28.1485564,77.3320667,OZONE,8,9,8
India,Haryana,Panchkula,"Sector-6, Panchkula - HSPCB ",06-03-2026 14:00:00,30.7057778,76.8531805555555,CO,4,18,10
India,Haryana,Panipat,"Sector-18, Panipat - HSPCB",06-03-2026 14:00:00,29.432304,76.972765,PM2.5,98,307,159
India,Haryana,Panipat,"Sector-18, Panipat - HSPCB",06-03-2026 14:00:00,29.432304,76.972765,NO2,31,32,31
India,Haryana,Panipat,"Sector-18, Panipat - HSPCB",06-03-2026 14:00:00,29.432304,76.972765,SO2,11,11,11
India,Haryana,Sirsa,"F-Block, Sirsa - HSPCB",06-03-2026 14:00:00,29.536400,75.015800,NO2,22,31,27
India,Haryana,Sirsa,"F-Block, Sirsa - HSPCB",06-03-2026 14:00:00,29.536400,75.015800,NH3,15,20,18
India,Haryana,Sonipat,"Murthal, Sonipat - HSPCB",06-03-2026 14:00:00,29.027200,77.062100,SO2,2,12,7
