country,state,city,station,last_update,latitude,longitude,pollutant_id,min_value,max_value,avg_value
India,Bihar,Gaya,"SFTI Kusdihra, Gaya - BSPCB",17-04-2026 09:00:00,24.762518,84.982348,CO,10,59,44
India,Bihar,Hajipur,"Industrial Area, Hajipur - BSPCB",17-04-2026 09:00:00,25.697189,85.245900,PM2.5,NA,NA,NA
India,Bihar,Hajipur,"Industrial Area, Hajipur - BSPCB",17-04-2026 09:00:00,25.697189,85.245900,NO2,NA,NA,NA
India,Bihar,Katihar,"Mirchaibari, Katihar - BSPCB",17-04-2026 09:00:00,25.560083,87.553265,NH3,1,1,1
India,Bihar,Kishanganj,"SDM Office_Khagra, Kishanganj - BSPCB",17-04-2026 09:00:00,26.0881305,87.93840336,CO,14,16,14
India,Bihar,Kishanganj,"SDM Office_Khagra, Kishanganj - BSPCB",17-04-2026 09:00:00,26.0881305,87.93840336,OZONE,32,35,33
India,Bihar,Manguraha,"Forest Rest House, Manguraha - BSPCB",17-04-2026 09:00:00,27.308328,84.531742,PM2.5,NA,NA,NA
India,Bihar,Manguraha,"Forest Rest House, Manguraha - BSPCB",17-04-2026 09:00:00,27.308328,84.531742,NH3,1,1,1
India,Bihar,Motihari,"Gandak Colony, Motihari - BSPCB",17-04-2026 09:00:00,26.63086,84.90051,NO2,3,4,3
India,Bihar,Motihari,"Gandak Colony, Motihari - BSPCB",17-04-2026 09:00:00,26.63086,84.90051,SO2,2,3,3
India,Andhra_Pradesh,Amaravati,"Secretariat, Amaravati - APPCB",17-04-2026 09:00:00,16.5150833,80.5181667,CO,10,16,14
India,Andhra_Pradesh,Anantapur,"Gulzarpet, Anantapur - APPCB",17-04-2026 09:00:00,14.675886,77.593027,PM2.5,45,305,95
India,Andhra_Pradesh,Anantapur,"Gulzarpet, Anantapur - APPCB",17-04-2026 09:00:00,14.675886,77.593027,SO2,8,17,16
India,Andhra_Pradesh,Chittoor,"Gangineni Cheruvu, Chittoor - APPCB",17-04-2026 09:00:00,13.204880,79.097889,SO2,8,19,10
India,Andhra_Pradesh,Eluru,"District Court, Eluru - APPCB",17-04-2026 09:00:00,16.711754,81.092095,PM2.5,35,72,49
India,Andhra_Pradesh,Guntur,"Rajendra Nagar North, Guntur - APPCB",17-04-2026 09:00:00,16.316553,80.413302,PM2.5,40,99,53
India,Andhra_Pradesh,Guntur,"Rajendra Nagar North, Guntur - APPCB",17-04-2026 09:00:00,16.316553,80.413302,NO2,4,16,9
India,Andhra_Pradesh,Guntur,"Rajendra Nagar North, Guntur - APPCB",17-04-2026 09:00:00,16.316553,80.413302,CO,10,32,17
India,Bihar,Munger,"Town Hall, Munger - BSPCB",17-04-2026 09:00:00,25.376776,86.471523,PM10,14,58,36
India,Bihar,Munger,"Town Hall, Munger - BSPCB",17-04-2026 09:00:00,25.376776,86.471523,SO2,1,119,63
India,Bihar,Munger,"Town Hall, Munger - BSPCB",17-04-2026 09:00:00,25.376776,86.471523,CO,23,34,28
India,Bihar,Muzaffarpur,"Buddha Colony, Muzaffarpur - BSPCB",17-04-2026 09:00:00,26.11442,85.39813,CO,22,36,26
India,Bihar,Muzaffarpur,"Muzaffarpur Collectorate, Muzaffarpur - BSPCB",17-04-2026 09:00:00,26.1209,85.3647,PM2.5,77,117,92
India,Bihar,Muzaffarpur,"Muzaffarpur Collectorate, Muzaffarpur - BSPCB",17-04-2026 09:00:00,26.1209,85.3647,NO2,10,21,14
India,Bihar,Patna,"DRM Office Danapur, Patna - BSPCB",17-04-2026 09:00:00,25.586562,85.043586,PM10,78,101,91
India,Bihar,Patna,"Govt. High School Shikarpur, Patna - BSPCB",17-04-2026 09:00:00,25.592539,85.227158,PM2.5,68,81,76
India,Arunachal_Pradesh,Naharlagun,"Naharlagun, Naharlagun - APSPCB",17-04-2026 09:00:00,27.103358,93.679645,NH3,1,1,1
India,Arunachal_Pradesh,Naharlagun,"Naharlagun, Naharlagun - APSPCB",17-04-2026 09:00:00,27.103358,93.679645,SO2,10,11,11
India,Assam,Byrnihat,"Central Academy for SFS, Byrnihat - PCBA",17-04-2026 09:00:00,26.071318,91.87488,PM10,55,164,91
India,Assam,Byrnihat,"Central Academy for SFS, Byrnihat - PCBA",17-04-2026 09:00:00,26.071318,91.87488,CO,42,103,65
India,Assam,Guwahati,"IITG, Guwahati - PCBA",17-04-2026 09:00:00,26.2028636,91.70046436,CO,3,11,8
India,Assam,Guwahati,"LGBI Airport, Guwahati - PCBA",17-04-2026 09:00:00,26.10887,91.589544,PM10,29,46,40
India,Assam,Guwahati,"LGBI Airport, Guwahati - PCBA",17-04-2026 09:00:00,26.10887,91.589544,NH3,1,10,5
India,Assam,Guwahati,"Railway Colony, Guwahati - PCBA",17-04-2026 09:00:00,26.181742,91.78063,NO2,3,3,3
India,Bihar,Bhagalpur,"Mayaganj, Bhagalpur - BSPCB",17-04-2026 09:00:00,25.265194,87.012947,OZONE,7,31,10
India,Bihar,Bihar Sharif,"D M Colony, Bihar Sharif - BSPCB",17-04-2026 09:00:00,25.204762,85.514960,NO2,9,10,9
India,Bihar,Buxar,"Charitra Van, Buxar - BSPCB",17-04-2026 09:00:00,25.567520,83.966379,SO2,29,35,33
India,Bihar,Buxar,"Charitra Van, Buxar - BSPCB",17-04-2026 09:00:00,25.567520,83.966379,CO,20,31,25
India,Bihar,Gaya,"Collectorate, Gaya - BSPCB",17-04-2026 09:00:00,24.7955,84.9994,PM2.5,47,309,102
India,Bihar,Gaya,"Kareemganj, Gaya - BSPCB",17-04-2026 09:00:00,24.792403,84.992416,CO,1,28,14
India,Bihar,Gaya,"SFTI Kusdihra, Gaya - BSPCB",17-04-2026 09:00:00,24.762518,84.982348,SO2,7,8,8
India,Andhra_Pradesh,Kadapa,"Yerramukkapalli, Kadapa - APPCB",17-04-2026 09:00:00,14.465052,78.824187,OZONE,22,39,26
India,Andhra_Pradesh,Machilipatnam,"Srinivas Nagar Colony, Machilipatnam - APPCB",17-04-2026 09:00:00,16.186555,81.13219,NH3,2,6,4
India,Andhra_Pradesh,Nellore,"Ambedkar Nagar, Nellore - APPCB ",17-04-2026 09:00:00,14.438164 ,79.966814 ,NO2,20,27,26
India,Andhra_Pradesh,Nellore,"Ambedkar Nagar, Nellore - APPCB ",17-04-2026 09:00:00,14.438164 ,79.966814 ,NH3,3,7,4
India,Andhra_Pradesh,Nellore,"Ambedkar Nagar, Nellore - APPCB ",17-04-2026 09:00:00,14.438164 ,79.966814 ,OZONE,4,26,6
India,Andhra_Pradesh,Tirupati,"Vaikuntapuram, Tirupati - APPCB",17-04-2026 09:00:00,13.615387,79.409230,PM2.5,52,66,58
India,Andhra_Pradesh,Vijayawada,"Kanuru, Vijayawada - APPCB",17-04-2026 09:00:00,16.486692,80.699436,NO2,23,32,26
India,Andhra_Pradesh,Vijayawada,"Rajiv Gandhi Park, Vijayawada - APPCB",17-04-2026 09:00:00,16.509717,80.612222,SO2,17,18,18
India,Andhra_Pradesh,Vijayawada,"Rajiv Gandhi Park, Vijayawada - APPCB",17-04-2026 09:00:00,16.509717,80.612222,CO,38,53,40
India,Andhra_Pradesh,Vijayawada,"Rajiv Nagar, Vijayawada - APPCB",17-04-2026 09:00:00,16.554731,80.649110,PM2.5,36,77,63
India,Andhra_Pradesh,Visakhapatnam,"GVM Corporation, Visakhapatnam - APPCB",17-04-2026 09:00:00,17.72,83.3,PM2.5,8,75,33
India,Bihar,Aurangabad,"Gurdeo Nagar, Aurangabad - BSPCB",17-04-2026 09:00:00,24.75746,84.366208,NO2,7,9,8
India,Bihar,Bettiah,"Kamalnath Nagar, Bettiah - BSPCB",17-04-2026 09:00:00,26.80365,84.51954,SO2,44,59,53
India,Bihar,Bhagalpur,"DM Office_Kachari Chowk, Bhagalpur - BSPCB",17-04-2026 09:00:00,25.251013,86.989001,PM2.5,38,68,48
India,Bihar,Bhagalpur,"DM Office_Kachari Chowk, Bhagalpur - BSPCB",17-04-2026 09:00:00,25.251013,86.989001,SO2,NA,NA,NA
India,Bihar,Bhagalpur,"DM Office_Kachari Chowk, Bhagalpur - BSPCB",17-04-2026 09:00:00,25.251013,86.989001,OZONE,9,26,15
India,Bihar,Patna,"Muradpur, Patna - BSPCB",17-04-2026 09:00:00,25.619651,85.147382,CO,4,86,27
India,Bihar,Patna,"Rajbansi Nagar, Patna - BSPCB",17-04-2026 09:00:00,25.599486,85.113666,PM2.5,45,93,63
India,Bihar,Patna,"Rajbansi Nagar, Patna - BSPCB",17-04-2026 09:00:00,25.599486,85.113666,PM10,59,93,76
India,Bihar,Patna,"Rajbansi Nagar, Patna - BSPCB",17-04-2026 09:00:00,25.599486,85.113666,SO2,10,26,15
India,Bihar,Purnia,"Mariam Nagar, Purnia - BSPCB",17-04-2026 09:00:00,25.366336,87.117468,NH3,2,2,2
India,Bihar,Purnia,"Mariam Nagar, Purnia - BSPCB",17-04-2026 09:00:00,25.366336,87.117468,SO2,17,17,17
India,Assam,Sivasagar,"Girls College, Sivasagar - PCBA",17-04-2026 09:00:00,26.987634,94.636574,OZONE,9,91,24
India,Bihar,Araria,"Kharahiya Basti, Araria - BSPCB",17-04-2026 09:00:00,26.146529,87.454184,NO2,10,16,14
India,Bihar,Araria,"Kharahiya Basti, Araria - BSPCB",17-04-2026 09:00:00,26.146529,87.454184,SO2,44,62,53
India,Bihar,Arrah,"New DM Office, Arrah - BSPCB",17-04-2026 09:00:00,25.5626095,84.663264,SO2,4,6,5
India,Chhattisgarh,Bhilai,"Hathkhoj, Bhilai - CECB",17-04-2026 09:00:00,21.224231,81.408350,SO2,17,99,35
India,Chhattisgarh,Bhilai,"Hathkhoj, Bhilai - CECB",17-04-2026 09:00:00,21.224231,81.408350,OZONE,7,22,11
India,Chhattisgarh,Bilaspur,"Mangala, Bilaspur - NTPC",17-04-2026 09:00:00,22.08815,82.13737,PM10,44,119,79
India,Chhattisgarh,Chhal,"Nawapara SECL Colony, Chhal - CECB",17-04-2026 09:00:00,22.118125,83.140608,PM10,57,102,77
India,Chhattisgarh,Chhal,"Nawapara SECL Colony, Chhal - CECB",17-04-2026 09:00:00,22.118125,83.140608,NO2,8,33,16
India,Chhattisgarh,Chhal,"Nawapara SECL Colony, Chhal - CECB",17-04-2026 09:00:00,22.118125,83.140608,CO,20,54,44
India,Chhattisgarh,Korba,"Rampur, Korba - CECB",17-04-2026 09:00:00,22.368195,82.746431,CO,12,54,39
India,Chhattisgarh,Korba,"Rampur, Korba - CECB",17-04-2026 09:00:00,22.368195,82.746431,OZONE,5,16,9
India,Chhattisgarh,Korba,"Urja Nagar, Korba - CECB",17-04-2026 09:00:00,22.348441,82.549611,PM10,30,87,48
India,Chhattisgarh,Kunjemura,"OP Jindal School, Kunjemura - CECB",17-04-2026 09:00:00,22.126650,83.483212,NH3,2,2,2
India,Chhattisgarh,Milupara,"Govt. Higher Secondary School, Milupara - CECB",17-04-2026 09:00:00,22.1910172,83.5197009,NO2,NA,NA,NA
India,Chhattisgarh,Milupara,"Govt. Higher Secondary School, Milupara - CECB",17-04-2026 09:00:00,22.1910172,83.5197009,SO2,NA,NA,NA
India,Chhattisgarh,Raipur,"AIIMS, Raipur - CECB",17-04-2026 09:00:00,21.258815,81.578979,NH3,3,4,3
India,Chhattisgarh,Raipur,"Bhatagaon New ISBT, Raipur - CECB",17-04-2026 09:00:00,21.219665,81.630094,SO2,2,65,17
India,Chhattisgarh,Raipur,"Krishak Nagar, Raipur - CECB",17-04-2026 09:00:00,21.237755,81.705301,NH3,2,2,2
India,Chhattisgarh,Raipur,"Krishak Nagar, Raipur - CECB",17-04-2026 09:00:00,21.237755,81.705301,SO2,6,59,18
India,Chhattisgarh,Raipur,"Krishak Nagar, Raipur - CECB",17-04-2026 09:00:00,21.237755,81.705301,CO,8,42,36
India,Chhattisgarh,Raipur,"Krishak Nagar, Raipur - CECB",17-04-2026 09:00:00,21.237755,81.705301,OZONE,3,126,8
India,Chhattisgarh,Raipur,"Siltara Phase-II, Raipur - CECB",17-04-2026 09:00:00,21.371751,81.664929,NH3,3,3,3
India,Chhattisgarh,Raipur,"Siltara Phase-II, Raipur - CECB",17-04-2026 09:00:00,21.371751,81.664929,OZONE,5,53,14
India,Bihar,Rajgir,"Dangi Tola, Rajgir - BSPCB",17-04-2026 09:00:00,25.03280,85.41948,PM2.5,NA,NA,NA
India,Bihar,Rajgir,"Dangi Tola, Rajgir - BSPCB",17-04-2026 09:00:00,25.03280,85.41948,PM10,NA,NA,NA
India,Bihar,Rajgir,"Dangi Tola, Rajgir - BSPCB",17-04-2026 09:00:00,25.03280,85.41948,NH3,NA,NA,NA
India,Bihar,Saharsa,"Police Line, Saharsa - BSPCB",17-04-2026 09:00:00,25.892357,86.590325,NO2,NA,NA,NA
India,Bihar,Samastipur,"DM Office_Kasipur, Samastipur - BSPCB",17-04-2026 09:00:00,25.859655,85.77944,NO2,8,9,8
India,Bihar,Samastipur,"DM Office_Kasipur, Samastipur - BSPCB",17-04-2026 09:00:00,25.859655,85.77944,CO,4,12,10
India,Bihar,Sasaram,"Dada Peer, Sasaram - BSPCB",17-04-2026 09:00:00,24.952822,84.002396,PM2.5,22,73,46
India,Bihar,Sasaram,"Dada Peer, Sasaram - BSPCB",17-04-2026 09:00:00,24.952822,84.002396,NO2,1,11,3
India,Bihar,Siwan,"Chitragupta Nagar, Siwan - BSPCB",17-04-2026 09:00:00,26.2271665,84.3570427,PM10,23,123,68
India,Chandigarh,Chandigarh,"Sector 22, Chandigarh - CPCC",17-04-2026 09:00:00,30.735567,76.775714,CO,52,117,62
India,Chandigarh,Chandigarh,"Sector 22, Chandigarh - CPCC",17-04-2026 09:00:00,30.735567,76.775714,OZONE,3,91,36
India,Chandigarh,Chandigarh,"Sector-25, Chandigarh - CPCC",17-04-2026 09:00:00,30.751462,76.762879,PM10,NA,NA,NA
India,Chandigarh,Chandigarh,"Sector-25, Chandigarh - CPCC",17-04-2026 09:00:00,30.751462,76.762879,NH3,NA,NA,NA
India,Chandigarh,Chandigarh,"Sector-53, Chandigarh - CPCC",17-04-2026 09:00:00,30.719859,76.738637,NH3,6,7,7
India,Chandigarh,Chandigarh,"Sector-53, Chandigarh - CPCC",17-04-2026 09:00:00,30.719859,76.738637,SO2,6,6,6
India,Chhattisgarh,Bhilai,"Civic Center, Bhilai - Bhilai Steel Plant",17-04-2026 09:00:00,21.185571,81.343175,NO2,13,14,13
India,Chhattisgarh,Bhilai,"Civic Center, Bhilai - Bhilai Steel Plant",17-04-2026 09:00:00,21.185571,81.343175,NH3,1,2,1
India,Chhattisgarh,Bhilai,"Civic Center, Bhilai - Bhilai Steel Plant",17-04-2026 09:00:00,21.185571,81.343175,OZONE,10,15,11
India,Delhi,Delhi,"Alipur, Delhi - DPCC",17-04-2026 09:00:00,28.815329,77.153010,OZONE,3,43,4
India,Delhi,Delhi,"Anand Vihar, Delhi - DPCC",17-04-2026 09:00:00,28.647622,77.3158090,PM10,NA,NA,NA
India,Delhi,Delhi,"Anand Vihar, Delhi - DPCC",17-04-2026 09:00:00,28.647622,77.3158090,NO2,55,222,121
India,Delhi,Delhi,"Anand Vihar, Delhi - DPCC",17-04-2026 09:00:00,28.647622,77.3158090,CO,32,122,119
India,Delhi,Delhi,"Ashok Vihar, Delhi - DPCC",17-04-2026 09:00:00,28.695381,77.181665,PM10,117,479,281
India,Delhi,Delhi,"Aya Nagar, Delhi - IMD",17-04-2026 09:00:00,28.4706914,77.1099364,PM2.5,27,315,154
India,Delhi,Delhi,"Bawana, Delhi - DPCC",17-04-2026 09:00:00,28.776200,77.051074,CO,32,124,104
India,Delhi,Delhi,"Bawana, Delhi - DPCC",17-04-2026 09:00:00,28.776200,77.051074,OZONE,4,70,5
India,Delhi,Delhi,"IHBAS, Dilshad Garden, Delhi - CPCB",17-04-2026 09:00:00,28.6811736,77.3025234,PM2.5,65,346,203
India,Delhi,Delhi,"IHBAS, Dilshad Garden, Delhi - CPCB",17-04-2026 09:00:00,28.6811736,77.3025234,PM10,103,271,184
India,Delhi,Delhi,"IHBAS, Dilshad Garden, Delhi - CPCB",17-04-2026 09:00:00,28.6811736,77.3025234,OZONE,13,83,17
India,Delhi,Delhi,"IIT Delhi, Delhi - IITM",17-04-2026 09:00:00,28.542460,77.191651,PM10,112,416,182
India,Delhi,Delhi,"ITO, Delhi - CPCB",17-04-2026 09:00:00,28.628624,77.241060,NO2,32,162,73
India,Delhi,Delhi,"ITO, Delhi - CPCB",17-04-2026 09:00:00,28.628624,77.241060,SO2,21,38,28
India,Delhi,Delhi,"ITO, Delhi - CPCB",17-04-2026 09:00:00,28.628624,77.241060,OZONE,19,84,22
India,Delhi,Delhi,"Chandni Chowk, Delhi - IITM",17-04-2026 09:00:00,28.656756,77.227234,PM10,103,397,207
India,Delhi,Delhi,"Commonwealth Sports Complex, Delhi - DPCC",17-04-2026 09:00:00,28.615828 ,77.271992 ,NO2,19,190,102
India,Delhi,Delhi,"Dr. Karni Singh Shooting Range, Delhi - DPCC",17-04-2026 09:00:00,28.498571,77.264840,SO2,13,48,26
India,Delhi,Delhi,"Dwarka-Sector 8, Delhi - DPCC ",17-04-2026 09:00:00,28.5710274,77.0719006,PM2.5,27,332,201
India,Delhi,Delhi,"Dwarka-Sector 8, Delhi - DPCC ",17-04-2026 09:00:00,28.5710274,77.0719006,CO,42,153,100
India,Delhi,Delhi,"CRRI Mathura Road, Delhi - IMD",17-04-2026 09:00:00,28.5512005,77.2735737,CO,37,160,132
India,Delhi,Delhi,"CRRI Mathura Road, Delhi - IMD",17-04-2026 09:00:00,28.5512005,77.2735737,OZONE,21,121,23
India,Delhi,Delhi,"CRRI Mathura Road, Delhi - IMD",17-04-2026 09:00:00,28.5512005,77.2735737,PM2.5,29,350,205
India,Delhi,Delhi,"Sonia Vihar, Delhi - DPCC",17-04-2026 09:00:00,28.710508,77.249485,PM2.5,27,388,254
India,Delhi,Delhi,"Sonia Vihar, Delhi - DPCC",17-04-2026 09:00:00,28.710508,77.249485,NO2,14,104,56
India,Delhi,Delhi,"Sonia Vihar, Delhi - DPCC",17-04-2026 09:00:00,28.710508,77.249485,NH3,7,13,9
India,Delhi,Delhi,"Sonia Vihar, Delhi - DPCC",17-04-2026 09:00:00,28.710508,77.249485,CO,12,190,139
India,Delhi,Delhi,"Sri Aurobindo Marg, Delhi - DPCC",17-04-2026 09:00:00,28.531346,77.190156,NH3,3,8,6
India,Delhi,Delhi,"Talkatora Garden, Delhi - DPCC",17-04-2026 09:00:00,28.621810,77.1944633,SO2,17,34,25
India,Delhi,Delhi,"Talkatora Garden, Delhi - DPCC",17-04-2026 09:00:00,28.621810,77.1944633,CO,36,120,118
India,Delhi,Delhi,"Vivek Vihar, Delhi - DPCC",17-04-2026 09:00:00,28.672342,77.315260,PM10,98,435,293
India,Delhi,Delhi,"Vivek Vihar, Delhi - DPCC",17-04-2026 09:00:00,28.672342,77.315260,OZONE,7,114,7
India,Delhi,Delhi,"Wazirpur, Delhi - DPCC",17-04-2026 09:00:00,28.699793,77.165453,PM10,158,500,355
India,Delhi,Delhi,"Wazirpur, Delhi - DPCC",17-04-2026 09:00:00,28.699793,77.165453,SO2,8,39,19
India,Delhi,Delhi,"Wazirpur, Delhi - DPCC",17-04-2026 09:00:00,28.699793,77.165453,OZONE,1,85,3
India,Gujarat,Ahmedabad,"SAC ISRO Satellite, Ahmedabad - IITM",17-04-2026 09:00:00,23.023389,72.515201,PM2.5,67,220,99
India,Gujarat,Ahmedabad,"SAC ISRO Satellite, Ahmedabad - IITM",17-04-2026 09:00:00,23.023389,72.515201,NO2,5,23,11
India,Gujarat,Ahmedabad,"SVPI Airport Hansol, Ahmedabad - IITM",17-04-2026 09:00:00,23.076793,72.627874,PM2.5,43,84,55
India,Gujarat,Ahmedabad,"SVPI Airport Hansol, Ahmedabad - IITM",17-04-2026 09:00:00,23.076793,72.627874,PM10,96,220,116
India,Gujarat,Ahmedabad,"SVPI Airport Hansol, Ahmedabad - IITM",17-04-2026 09:00:00,23.076793,72.627874,NH3,1,5,2
India,Gujarat,Ahmedabad,"SVPI Airport Hansol, Ahmedabad - IITM",17-04-2026 09:00:00,23.076793,72.627874,CO,16,88,23
India,Gujarat,Bhavnagar,"Vidhyanagar, Bhavnagar - Nexteng Enviro",17-04-2026 09:00:00,21.755417,72.139056,SO2,6,8,7
India,Gujarat,Bhavnagar,"Vidhyanagar, Bhavnagar - Nexteng Enviro",17-04-2026 09:00:00,21.755417,72.139056,CO,106,110,108
India,Gujarat,Gandhinagar,"GIFT City, Gandhinagar - IITM",17-04-2026 09:00:00,23.163798,72.677768,PM2.5,38,75,53
India,Gujarat,Gandhinagar,"GIFT City, Gandhinagar - IITM",17-04-2026 09:00:00,23.163798,72.677768,NH3,5,12,7
India,Gujarat,Gandhinagar,"GIFT City, Gandhinagar - IITM",17-04-2026 09:00:00,23.163798,72.677768,CO,22,67,48
India,Gujarat,Ahmedabad,"Chandkheda, Ahmedabad - IITM",17-04-2026 09:00:00,23.107969,72.574648,OZONE,1,102,20
India,Gujarat,Ahmedabad,"Gyaspur, Ahmedabad - IITM",17-04-2026 09:00:00,22.977134,72.553024,PM2.5,37,155,71
India,Gujarat,Ahmedabad,"Gyaspur, Ahmedabad - IITM",17-04-2026 09:00:00,22.977134,72.553024,SO2,2,105,55
India,Gujarat,Ahmedabad,"Gyaspur, Ahmedabad - IITM",17-04-2026 09:00:00,22.977134,72.553024,CO,NA,NA,NA
India,Gujarat,Ahmedabad,"Maninagar, Ahmedabad - GPCB",17-04-2026 09:00:00,23.002657,72.591912,PM2.5,50,263,109
India,Gujarat,Ahmedabad,"Maninagar, Ahmedabad - GPCB",17-04-2026 09:00:00,23.002657,72.591912,NO2,82,89,82
India,Gujarat,Ahmedabad,"Raikhad, Ahmedabad - IITM",17-04-2026 09:00:00,23.020509,72.579261,NO2,NA,NA,NA
India,Gujarat,Ahmedabad,"Raikhad, Ahmedabad - IITM",17-04-2026 09:00:00,23.020509,72.579261,OZONE,8,49,13
India,Gujarat,Ahmedabad,"Rakhial, Ahmedabad - IITM",17-04-2026 09:00:00,23.016834,72.625775,PM2.5,37,70,52
India,Gujarat,Ahmedabad,"Rakhial, Ahmedabad - IITM",17-04-2026 09:00:00,23.016834,72.625775,NH3,2,4,3
India,Gujarat,Ahmedabad,"Rakhial, Ahmedabad - IITM",17-04-2026 09:00:00,23.016834,72.625775,SO2,19,122,52
India,Delhi,Delhi,"NSIT Dwarka, Delhi - CPCB",17-04-2026 09:00:00,28.60909,77.0325413,NO2,67,242,143
India,Delhi,Delhi,"NSUT Jaffarpur, Delhi - DPCC",17-04-2026 09:00:00,28.594004 ,76.909423 ,NO2,5,148,75
India,Delhi,Delhi,"Najafgarh, Delhi - DPCC",17-04-2026 09:00:00,28.570173,76.933762,PM10,66,309,162
India,Delhi,Delhi,"Narela, Delhi - DPCC",17-04-2026 09:00:00,28.822836,77.101981,PM10,105,474,328
India,Delhi,Delhi,"Narela, Delhi - DPCC",17-04-2026 09:00:00,28.822836,77.101981,OZONE,8,64,11
India,Delhi,Delhi,"Nehru Nagar, Delhi - DPCC",17-04-2026 09:00:00,28.567890,77.250515,NH3,6,11,8
India,Delhi,Delhi,"North Campus, DU, Delhi - IMD",17-04-2026 09:00:00,28.6573814,77.1585447,NO2,8,137,73
India,Gujarat,Gandhinagar,"IIPHG Lekawada, Gandhinagar - IITM",17-04-2026 09:00:00,23.243639,72.68994,OZONE,2,30,6
India,Gujarat,Gandhinagar,"Sector-10, Gandhinagar - GPCB",17-04-2026 09:00:00,23.221714,72.654328,PM2.5,56,100,75
India,Gujarat,Mehsana,"Sadanand Nagar, Mehsana - Nexteng Enviro",17-04-2026 09:00:00,23.593150,72.372792,PM10,64,185,117
India,Gujarat,Nandesari,"GIDC, Nandesari - Nandesari Ind. Association",17-04-2026 09:00:00,22.410802,73.097923,NO2,6,142,33
India,Gujarat,Rajkot,"Mavdi, Rajkot - Nexteng Enviro ",17-04-2026 09:00:00,22.248853,70.776774,PM10,62,120,94
India,Gujarat,Rajkot,"Mavdi, Rajkot - Nexteng Enviro ",17-04-2026 09:00:00,22.248853,70.776774,OZONE,4,16,5
India,Delhi,Delhi,"Okhla Phase-2, Delhi - DPCC",17-04-2026 09:00:00,28.530785,77.271255,NO2,36,164,104
India,Delhi,Delhi,"Okhla Phase-2, Delhi - DPCC",17-04-2026 09:00:00,28.530785,77.271255,CO,2,112,83
India,Delhi,Delhi,"Patparganj, Delhi - DPCC",17-04-2026 09:00:00,28.623763,77.287209,OZONE,2,90,4
India,Delhi,Delhi,"Punjabi Bagh, Delhi - DPCC",17-04-2026 09:00:00,28.674045,77.131023,NH3,1,29,7
India,Delhi,Delhi,"Pusa, Delhi - DPCC",17-04-2026 09:00:00,28.639652,77.146275,PM2.5,NA,NA,NA
India,Delhi,Delhi,"Pusa, Delhi - IMD",17-04-2026 09:00:00,28.636110,77.173332,PM2.5,31,333,141
India,Gujarat,Surat,"Science Center, Surat - SMC",17-04-2026 09:00:00,21.170046,72.795405,CO,36,60,44
India,Gujarat,Vadodara,"Bapunagar, Vadodara - Nexteng Enviro",17-04-2026 09:00:00,22.320153,73.216285,PM10,60,170,101
India,Gujarat,Vadodara,"Bapunagar, Vadodara - Nexteng Enviro",17-04-2026 09:00:00,22.320153,73.216285,NH3,2,3,3
India,Gujarat,Vatva,"Phase-4 GIDC, Vatva - GPCB",17-04-2026 09:00:00,22.969611,72.643500,PM2.5,86,234,143
India,Delhi,Delhi,"Pusa, Delhi - IMD",17-04-2026 09:00:00,28.636110,77.173332,PM10,98,407,207
India,Delhi,Delhi,"R K Puram, Delhi - DPCC",17-04-2026 09:00:00,28.563262,77.186937,CO,4,140,99
India,Delhi,Delhi,"Shadipur, Delhi - CPCB",17-04-2026 09:00:00,28.6514781,77.1473105,SO2,1,25,14
India,Delhi,Delhi,"Sirifort, Delhi - CPCB",17-04-2026 09:00:00,28.5504249,77.2159377,SO2,33,39,36
India,Delhi,Delhi,"Lodhi Road, Delhi - IMD",17-04-2026 09:00:00,28.5918245,77.2273074,NO2,12,52,32
India,Delhi,Delhi,"Lodhi Road, Delhi - IMD",17-04-2026 09:00:00,28.5918245,77.2273074,OZONE,21,179,24
India,Delhi,Delhi,"Major Dhyan Chand National Stadium, Delhi - DPCC",17-04-2026 09:00:00,28.611281,77.237738,PM2.5,20,346,169
India,Delhi,Delhi,"Mandir Marg, Delhi - DPCC",17-04-2026 09:00:00,28.636429,77.201067,NO2,32,119,72
India,Gujarat,Vatva,"Phase-4 GIDC, Vatva - GPCB",17-04-2026 09:00:00,22.969611,72.643500,SO2,27,87,55
India,Haryana,Ambala,"Patti Mehar, Ambala - HSPCB",17-04-2026 09:00:00,30.379589,76.778328,NH3,7,8,8
India,Haryana,Ambala,"Patti Mehar, Ambala - HSPCB",17-04-2026 09:00:00,30.379589,76.778328,CO,22,48,23
India,Haryana,Bahadurgarh,"Arya Nagar, Bahadurgarh - HSPCB",17-04-2026 09:00:00,28.6701,76.9254,PM10,99,116,109
India,Haryana,Bahadurgarh,"Arya Nagar, Bahadurgarh - HSPCB",17-04-2026 09:00:00,28.6701,76.9254,NO2,12,14,13
India,Haryana,Bahadurgarh,"Arya Nagar, Bahadurgarh - HSPCB",17-04-2026 09:00:00,28.6701,76.9254,SO2,5,7,6
India,Haryana,Bahadurgarh,"Arya Nagar, Bahadurgarh - HSPCB",17-04-2026 09:00:00,28.6701,76.9254,CO,33,50,48
India,Haryana,Ballabgarh,"Nathu Colony, Ballabgarh - HSPCB",17-04-2026 09:00:00,28.3419248,77.319699,CO,4,112,67
India,Haryana,Bhiwani,"H.B. Colony, Bhiwani - HSPCB",17-04-2026 09:00:00,28.806223,76.141105,PM10,24,32,26
India,Haryana,Bhiwani,"H.B. Colony, Bhiwani - HSPCB",17-04-2026 09:00:00,28.806223,76.141105,NO2,3,21,9
India,Haryana,Charkhi Dadri,"Mini Secretariat, Charkhi Dadri - HSPCB",17-04-2026 09:00:00,28.593883,76.270653,PM10,79,301,162
India,Haryana,Mandikhera,"General Hospital, Mandikhera(Nuh) - HSPCB",17-04-2026 09:00:00,27.9002,76.9938,NO2,18,23,22
India,Haryana,Mandikhera,"General Hospital, Mandikhera(Nuh) - HSPCB",17-04-2026 09:00:00,27.9002,76.9938,SO2,31,36,34
India,Haryana,Manesar,"Sector-2 IMT, Manesar - HSPCB",17-04-2026 09:00:00,28.360699,76.936090,SO2,NA,NA,NA
India,Haryana,Narnaul,"Shastri Nagar, Narnaul - HSPCB",17-04-2026 09:00:00,28.060249,76.113115,SO2,8,9,8
India,Haryana,Palwal,"Shyam Nagar, Palwal - HSPCB",17-04-2026 09:00:00,28.1485564,77.3320667,PM2.5,52,88,70
India,Haryana,Palwal,"Shyam Nagar, Palwal - HSPCB",17-04-2026 09:00:00,28.1485564,77.3320667,NH3,8,9,9
India,Haryana,Palwal,"Shyam Nagar, Palwal - HSPCB",17-04-2026 09:00:00,28.1485564,77.3320667,SO2,12,13,13
India,Haryana,Panchgaon,"Amity University, Panchgaon - IITM",17-04-2026 09:00:00,28.3153,76.9143,NH3,2,4,3
India,Haryana,Panchgaon,"Amity University, Panchgaon - IITM",17-04-2026 09:00:00,28.3153,76.9143,OZONE,21,127,35
India,Haryana,Panipat,"Sector-18, Panipat - HSPCB",17-04-2026 09:00:00,29.432304,76.972765,PM2.5,NA,NA,NA
India,Haryana,Panipat,"Sector-18, Panipat - HSPCB",17-04-2026 09:00:00,29.432304,76.972765,NO2,NA,NA,NA
India,Haryana,Rohtak,"MD University, Rohtak - HSPCB",17-04-2026 09:00:00,28.52123,76.37138,OZONE,38,40,39
India,Haryana,Sirsa,"F-Block, Sirsa - HSPCB",17-04-2026 09:00:00,29.536400,75.015800,SO2,NA,NA,NA
India,Haryana,Sirsa,"F-Block, Sirsa - HSPCB",17-04-2026 09:00:00,29.536400,75.015800,CO,NA,NA,NA
India,Haryana,Sonipat,"Murthal, Sonipat - HSPCB",17-04-2026 09:00:00,29.027200,77.062100,NO2,12,13,12
India,Haryana,Sonipat,"Murthal, Sonipat - HSPCB",17-04-2026 09:00:00,29.027200,77.062100,SO2,3,15,9
India,Haryana,Yamuna Nagar,"Gobind Pura, Yamuna Nagar - HSPCB",17-04-2026 09:00:00,30.1480566,77.2893471,PM2.5,NA,NA,NA
India,Himachal Pradesh,Baddi,"HIMUDA Complex Phase-1, Baddi - HPPCB",17-04-2026 09:00:00,30.943887,76.801991,SO2,16,17,16
India,Haryana,Jind,"Police Lines, Jind - HSPCB",17-04-2026 09:00:00,29.307814,76.337619,SO2,1,6,3
India,Haryana,Kaithal,"Rishi Nagar, Kaithal - HSPCB",17-04-2026 09:00:00,29.8006,76.4155,PM2.5,36,132,84
India,Haryana,Kaithal,"Rishi Nagar, Kaithal - HSPCB",17-04-2026 09:00:00,29.8006,76.4155,NO2,30,33,32
India,Haryana,Karnal,"Sector-12, Karnal - HSPCB",17-04-2026 09:00:00,29.695300,77.002700,PM10,59,148,106
India,Haryana,Kurukshetra,"Sector-7, Kurukshetra - HSPCB",17-04-2026 09:00:00,29.966942,76.875879,PM10,115,184,153
India,Haryana,Kurukshetra,"Sector-7, Kurukshetra - HSPCB",17-04-2026 09:00:00,29.966942,76.875879,NO2,4,4,4
India,Haryana,Kurukshetra,"Sector-7, Kurukshetra - HSPCB",17-04-2026 09:00:00,29.966942,76.875879,NH3,6,7,6
India,Haryana,Kurukshetra,"Sector-7, Kurukshetra - HSPCB",17-04-2026 09:00:00,29.966942,76.875879,SO2,15,25,19
India,Haryana,Kurukshetra,"Sector-7, Kurukshetra - HSPCB",17-04-2026 09:00:00,29.966942,76.875879,CO,4,42,20
India,Jammu_and_Kashmir,Pampore,"Khrew, Pampore - JKPCC",17-04-2026 09:00:00,34.031606,75.009712,NO2,8,21,14
India,Jammu_and_Kashmir,Srinagar,"Khunmoh, Srinagar - JKPCC",17-04-2026 09:00:00,34.06313,74.96017,SO2,NA,NA,NA
India,Jammu_and_Kashmir,Srinagar,"Rajbagh, Srinagar - JKPCC",17-04-2026 09:00:00,34.066206,74.819820,CO,10,22,12
India,Jharkhand,Dhanbad,"Sardar Patel Nagar, Dhanbad - JSPCB",17-04-2026 09:00:00,23.80569,86.44268,PM10,32,123,82
India,Jharkhand,Jorapokhar,"Tata Stadium, Jorapokhar - JSPCB",17-04-2026 09:00:00,23.707909,86.414670,PM10,43,334,95
India,Karnataka,Belgaum,"Ramteerth Nagar, Belgaum - KSPCB",17-04-2026 09:00:00,15.888653,74.541751,PM10,23,101,56
India,Haryana,Dharuhera,"Municipal Corporation Office, Dharuhera -  HSPCB",17-04-2026 09:00:00,28.206800,76.799700,NO2,15,52,38
India,Haryana,Faridabad,"New Industrial Town, Faridabad - HSPCB",17-04-2026 09:00:00,28.39072,77.30059,CO,4,103,101
India,Haryana,Faridabad,"Sector 11, Faridabad - HSPCB",17-04-2026 09:00:00,28.376058,77.315741,SO2,3,4,3
India,Haryana,Faridabad,"Sector 30, Faridabad - HSPCB",17-04-2026 09:00:00,28.4417,77.3217,NO2,36,39,37
India,Haryana,Gurugram,"NISE Gwal Pahari, Gurugram - IMD",17-04-2026 09:00:00,28.422681,77.148944,OZONE,12,90,16
India,Haryana,Gurugram,"Sector-51, Gurugram - HSPCB",17-04-2026 09:00:00,28.4227,77.0667,PM10,83,500,255
India,Karnataka,Belgaum,"Ramteerth Nagar, Belgaum - KSPCB",17-04-2026 09:00:00,15.888653,74.541751,SO2,37,51,43
India,Karnataka,Bengaluru,"BWSSB Kadabesanahalli, Bengaluru - CPCB",17-04-2026 09:00:00,12.9352049,77.6814488,PM2.5,9,46,31
India,Karnataka,Bengaluru,"BWSSB Kadabesanahalli, Bengaluru - CPCB",17-04-2026 09:00:00,12.9352049,77.6814488,OZONE,15,35,18
India,Karnataka,Bengaluru,"Bapuji Nagar, Bengaluru - KSPCB",17-04-2026 09:00:00,12.951913,77.539784,SO2,8,30,19
India,Karnataka,Bengaluru,"City Railway Station, Bengaluru - KSPCB",17-04-2026 09:00:00,12.9756843,77.5660749,PM10,103,108,106
India,Karnataka,Bengaluru,"Hebbal, Bengaluru - KSPCB",17-04-2026 09:00:00,13.029152,77.585901,CO,3,42,16
India,Karnataka,Bengaluru,"Jigani, Bengaluru - KSPCB",17-04-2026 09:00:00,12.7816279,77.6299145,PM10,44,500,148
India,Karnataka,Bengaluru,"Jigani, Bengaluru - KSPCB",17-04-2026 09:00:00,12.7816279,77.6299145,NO2,17,19,18
India,Karnataka,Bengaluru,"Jigani, Bengaluru - KSPCB",17-04-2026 09:00:00,12.7816279,77.6299145,CO,27,29,28
India,Karnataka,Bengaluru,"Kasturi Nagar, Bengaluru - KSPCB",17-04-2026 09:00:00,13.003872,77.664217,CO,42,59,46
India,Karnataka,Bengaluru,"Kasturi Nagar, Bengaluru - KSPCB",17-04-2026 09:00:00,13.003872,77.664217,OZONE,20,21,21
India,Karnataka,Bengaluru,"Silk Board, Bengaluru - KSPCB",17-04-2026 09:00:00,12.917348,77.622813,CO,12,36,17
India,Karnataka,Bengaluru,"Silk Board, Bengaluru - KSPCB",17-04-2026 09:00:00,12.917348,77.622813,OZONE,13,78,25
India,Haryana,Gurugram,"Sector-51, Gurugram - HSPCB",17-04-2026 09:00:00,28.4227,77.0667,CO,10,104,68
India,Haryana,Gurugram,"Teri Gram, Gurugram - HSPCB",17-04-2026 09:00:00,28.4275,77.1465,CO,22,55,46
India,Haryana,Hisar,"Urban Estate-II, Hisar - HSPCB",17-04-2026 09:00:00,29.140560,75.744941,NO2,31,33,32
India,Haryana,Hisar,"Urban Estate-II, Hisar - HSPCB",17-04-2026 09:00:00,29.140560,75.744941,NH3,13,13,13
India,Haryana,Hisar,"Urban Estate-II, Hisar - HSPCB",17-04-2026 09:00:00,29.140560,75.744941,SO2,2,24,12
India,Madhya Pradesh,Bhopal,"T T Nagar, Bhopal - MPPCB",17-04-2026 09:00:00,23.233584,77.400574,OZONE,21,266,76
India,Madhya Pradesh,Damoh,"Shrivastav Colony, Damoh - MPPCB",17-04-2026 09:00:00,23.81748678,79.446246,PM10,NA,NA,NA
India,Madhya Pradesh,Dewas,"Bhopal Chauraha, Dewas - MPPCB",17-04-2026 09:00:00,22.9682591,76.064118,PM2.5,41,111,72
India,Madhya Pradesh,Dewas,"Bhopal Chauraha, Dewas - MPPCB",17-04-2026 09:00:00,22.9682591,76.064118,NH3,3,4,4
India,Madhya Pradesh,Dewas,"Bhopal Chauraha, Dewas - MPPCB",17-04-2026 09:00:00,22.9682591,76.064118,CO,29,62,33
India,Madhya Pradesh,Dewas,"Bhopal Chauraha, Dewas - MPPCB",17-04-2026 09:00:00,22.9682591,76.064118,OZONE,11,126,12
India,Madhya Pradesh,Gwalior,"City Center, Gwalior - MPPCB",17-04-2026 09:00:00,26.203442,78.193251,CO,14,168,64
India,Madhya Pradesh,Gwalior,"City Center, Gwalior - MPPCB",17-04-2026 09:00:00,26.203442,78.193251,OZONE,80,168,89
India,Madhya Pradesh,Gwalior,"Deen Dayal Nagar, Gwalior - MPPCB",17-04-2026 09:00:00,26.259242,78.216432,SO2,8,46,16
India,Madhya Pradesh,Gwalior,"Maharaj Bada, Gwalior - MPPCB",17-04-2026 09:00:00,26.200388,78.147714,NO2,21,141,44
India,Madhya Pradesh,Indore,"Airport Area, Indore - IMC",17-04-2026 09:00:00,22.7289,75.8076,PM2.5,77,323,127
India,Madhya Pradesh,Indore,"Airport Area, Indore - IMC",17-04-2026 09:00:00,22.7289,75.8076,SO2,14,32,16
India,Karnataka,Kalaburagi,"Mahatma Basaveswar Colony, Kalaburgi - KSPCB",17-04-2026 09:00:00,17.336318,76.847397,PM2.5,23,59,42
India,Karnataka,Koppal,"Diwator Nagar, Koppal - KSPCB",17-04-2026 09:00:00,15.347630,76.181767,NH3,7,8,8
India,Karnataka,Madikeri,"Stuart Hill, Madikeri - KSPCB",17-04-2026 09:00:00,12.415911,75.735050,PM10,25,52,35
India,Karnataka,Madikeri,"Stuart Hill, Madikeri - KSPCB",17-04-2026 09:00:00,12.415911,75.735050,SO2,6,7,7
India,Karnataka,Madikeri,"Stuart Hill, Madikeri - KSPCB",17-04-2026 09:00:00,12.415911,75.735050,OZONE,1,6,3
India,Karnataka,Mangalore,"Kadri, Mangalore - KSPCB",17-04-2026 09:00:00,12.889250,74.853000,NO2,6,9,8
India,Karnataka,Mangalore,"Kadri, Mangalore - KSPCB",17-04-2026 09:00:00,12.889250,74.853000,OZONE,29,68,36
India,Karnataka,Mysuru,"Hebbal 1st Stage, Mysuru - KSPCB",17-04-2026 09:00:00,12.21041,76.37376,NO2,5,27,17
India,Karnataka,Ramanagara,"Vijay Nagar, Ramanagara - KSPCB",17-04-2026 09:00:00,12.733409,77.298051,CO,12,30,25
India,Karnataka,Ramanagara,"Vijay Nagar, Ramanagara - KSPCB",17-04-2026 09:00:00,12.733409,77.298051,OZONE,12,60,20
India,Karnataka,Shivamogga,"Vinoba Nagara, Shivamogga - KSPCB",17-04-2026 09:00:00,13.940000,75.555917,PM10,43,69,52
India,Karnataka,Tumakuru,"Thimmalapura, Tumakuru - KSPCB",17-04-2026 09:00:00,13.377516,77.099072,PM10,NA,NA,NA
India,Karnataka,Tumakuru,"Thimmalapura, Tumakuru - KSPCB",17-04-2026 09:00:00,13.377516,77.099072,OZONE,NA,NA,NA
India,Karnataka,Vijayapura,"Ibrahimpur, Vijayapura - KSPCB",17-04-2026 09:00:00,16.802639,75.722694,PM10,38,39,39
India,Karnataka,Yadgir,"Collector Office, Yadgir - KSPCB",17-04-2026 09:00:00,16.7602,77.1428,NO2,10,21,14
India,Karnataka,Yadgir,"Collector Office, Yadgir - KSPCB",17-04-2026 09:00:00,16.7602,77.1428,NH3,1,2,1
India,Karnataka,Yadgir,"Collector Office, Yadgir - KSPCB",17-04-2026 09:00:00,16.7602,77.1428,SO2,5,15,11
India,Kerala,Kannur,"Thavakkara, Kannur - Kerala PCB",17-04-2026 09:00:00,11.875000,75.373200,PM2.5,NA,NA,NA
India,Kerala,Kannur,"Thavakkara, Kannur - Kerala PCB",17-04-2026 09:00:00,11.875000,75.373200,PM10,63,71,66
India,Kerala,Kannur,"Thavakkara, Kannur - Kerala PCB",17-04-2026 09:00:00,11.875000,75.373200,NH3,1,2,1
India,Kerala,Kollam,"Polayathode, Kollam - Kerala PCB",17-04-2026 09:00:00,8.8787,76.6073,NO2,NA,NA,NA
India,Kerala,Kollam,"Polayathode, Kollam - Kerala PCB",17-04-2026 09:00:00,8.8787,76.6073,NH3,NA,NA,NA
India,Kerala,Kollam,"Polayathode, Kollam - Kerala PCB",17-04-2026 09:00:00,8.8787,76.6073,SO2,NA,NA,NA
India,Kerala,Kollam,"Polayathode, Kollam - Kerala PCB",17-04-2026 09:00:00,8.8787,76.6073,CO,NA,NA,NA
India,Madhya Pradesh,Jabalpur,"Suhagi, Jabalpur - JMC",17-04-2026 09:00:00,23.218135,79.957770,NH3,NA,NA,NA
India,Madhya Pradesh,Katni,"Gole Bazar, Katni - MPPCB",17-04-2026 09:00:00,23.50016,80.23284,SO2,9,47,29
India,Madhya Pradesh,Katni,"Gole Bazar, Katni - MPPCB",17-04-2026 09:00:00,23.50016,80.23284,CO,22,98,30
India,Madhya Pradesh,Mandideep,"Sector-D Industrial Area, Mandideep - MPPCB",17-04-2026 09:00:00,23.108440,77.511428,SO2,17,134,58
India,Madhya Pradesh,Pithampur,"Sector-2 Industrial Area, Pithampur - MPPCB",17-04-2026 09:00:00,22.624758,75.675238,PM2.5,48,164,73
India,Madhya Pradesh,Pithampur,"Sector-2 Industrial Area, Pithampur - MPPCB",17-04-2026 09:00:00,22.624758,75.675238,NO2,13,41,21
India,Madhya Pradesh,Pithampur,"Sector-2 Industrial Area, Pithampur - MPPCB",17-04-2026 09:00:00,22.624758,75.675238,SO2,11,58,22
India,Madhya Pradesh,Sagar,"Civil Lines, Sagar - MPPCB",17-04-2026 09:00:00,23.838586,78.759431,PM2.5,29,69,43
India,Madhya Pradesh,Sagar,"Civil Lines, Sagar - MPPCB",17-04-2026 09:00:00,23.838586,78.759431,NO2,8,57,21
India,Madhya Pradesh,Sagar,"Civil Lines, Sagar - MPPCB",17-04-2026 09:00:00,23.838586,78.759431,CO,11,48,17
India,Madhya Pradesh,Satna,"Bandhavgar Colony, Satna - Birla Cement",17-04-2026 09:00:00,24.58434363,80.8549414,SO2,21,38,24
India,Madhya Pradesh,Singrauli,"Suryakiran Bhawan NCL, Singrauli - MPPCB",17-04-2026 09:00:00,24.108970,82.645580,NH3,1,3,2
India,Maharashtra,Ahmednagar,"Tarakpur, Ahmednagar - MPCB",17-04-2026 09:00:00,19.10122,74.73339,SO2,2,9,5
India,Maharashtra,Akola,"Ramdaspeth, Akola - MPCB",17-04-2026 09:00:00,20.719516,77.000253,PM2.5,37,168,63
India,Maharashtra,Akola,"Ramdaspeth, Akola - MPCB",17-04-2026 09:00:00,20.719516,77.000253,PM10,45,167,85
India,Maharashtra,Ambernath,"Chinchpada, Ambernath - MPCB",17-04-2026 09:00:00,19.2157840,73.1997810,PM2.5,17,52,31
India,Maharashtra,Ambernath,"Chinchpada, Ambernath - MPCB",17-04-2026 09:00:00,19.2157840,73.1997810,NO2,21,80,46
India,Karnataka,Chamarajanagar,"Urban, Chamarajanagar - KSPCB",17-04-2026 09:00:00,11.55358,76.55521,PM2.5,26,39,31
India,Karnataka,Chamarajanagar,"Urban, Chamarajanagar - KSPCB",17-04-2026 09:00:00,11.55358,76.55521,NO2,14,29,19
India,Karnataka,Chamarajanagar,"Urban, Chamarajanagar - KSPCB",17-04-2026 09:00:00,11.55358,76.55521,SO2,NA,NA,NA
India,Karnataka,Dharwad,"Kalabhavan, Dharwad - KSPCB",17-04-2026 09:00:00,15.459706,75.008381,NO2,28,31,29
India,Karnataka,Dharwad,"Kalabhavan, Dharwad - KSPCB",17-04-2026 09:00:00,15.459706,75.008381,NH3,7,8,7
India,Karnataka,Dharwad,"Kalabhavan, Dharwad - KSPCB",17-04-2026 09:00:00,15.459706,75.008381,SO2,7,8,7
India,Karnataka,Hubballi,"Lingaraj Nagar, Hubballi - KSPCB",17-04-2026 09:00:00,15.3714823,75.1160168,NH3,NA,NA,NA
India,Karnataka,Kalaburagi,"Lal Bahadur Shastri Nagar, Kalaburagi - KSPCB",17-04-2026 09:00:00,17.321993,76.822628,PM10,NA,NA,NA
India,Kerala,Kollam,"Polayathode, Kollam - Kerala PCB",17-04-2026 09:00:00,8.8787,76.6073,OZONE,NA,NA,NA
India,Kerala,Thrissur,"Corporation Ground, Thrissur - Kerala PCB",17-04-2026 09:00:00,10.532400,76.215900,PM2.5,45,61,50
India,Kerala,Thrissur,"Corporation Ground, Thrissur - Kerala PCB",17-04-2026 09:00:00,10.532400,76.215900,OZONE,29,29,29
India,Madhya Pradesh,Bhopal,"Paryavaran Parisar, Bhopal - MPPCB",17-04-2026 09:00:00,23.210494,77.425409,NO2,22,117,54
India,Madhya Pradesh,Bhopal,"Paryavaran Parisar, Bhopal - MPPCB",17-04-2026 09:00:00,23.210494,77.425409,SO2,22,33,27
India,Madhya Pradesh,Bhopal,"T T Nagar, Bhopal - MPPCB",17-04-2026 09:00:00,23.233584,77.400574,SO2,7,30,16
India,Madhya Pradesh,Indore,"Maguda Nagar, Indore - IMC",17-04-2026 09:00:00,22.7524,75.8872,PM2.5,36,96,61
India,Madhya Pradesh,Indore,"Maguda Nagar, Indore - IMC",17-04-2026 09:00:00,22.7524,75.8872,OZONE,12,17,13
India,Madhya Pradesh,Indore,"Regional Park, Indore - IMC",17-04-2026 09:00:00,22.6780,75.8559,PM10,42,95,59
India,Madhya Pradesh,Jabalpur,"Govindh Bhavan Colony, Jabalpur - JMC",17-04-2026 09:00:00,23.163174,79.973061,SO2,2,4,3
India,Madhya Pradesh,Jabalpur,"Govindh Bhavan Colony, Jabalpur - JMC",17-04-2026 09:00:00,23.163174,79.973061,OZONE,8,107,10
India,Madhya Pradesh,Jabalpur,"Marhatal, Jabalpur - MPPCB",17-04-2026 09:00:00,23.168606,79.932247,PM2.5,29,171,84
India,Madhya Pradesh,Jabalpur,"Marhatal, Jabalpur - MPPCB",17-04-2026 09:00:00,23.168606,79.932247,NH3,6,11,8
India,Madhya Pradesh,Jabalpur,"Marhatal, Jabalpur - MPPCB",17-04-2026 09:00:00,23.168606,79.932247,CO,60,119,104
India,Maharashtra,Ambernath,"Chinchpada, Ambernath - MPCB",17-04-2026 09:00:00,19.2157840,73.1997810,OZONE,1,58,4
India,Maharashtra,Amravati,"Shivneri Colony, Amravati - MPCB",17-04-2026 09:00:00,20.9402359,77.7895248,SO2,8,18,12
India,Maharashtra,Amravati,"Shivneri Colony, Amravati - MPCB",17-04-2026 09:00:00,20.9402359,77.7895248,OZONE,5,70,20
India,Maharashtra,Amravati,"Shri Shivaji Science College, Amravati - MPCB",17-04-2026 09:00:00,20.939198,77.765701,NO2,4,47,18
India,Maharashtra,Amravati,"Shri Shivaji Science College, Amravati - MPCB",17-04-2026 09:00:00,20.939198,77.765701,SO2,14,28,19
India,Maharashtra,Amravati,"Shri Shivaji Science College, Amravati - MPCB",17-04-2026 09:00:00,20.939198,77.765701,CO,19,57,41
India,Maharashtra,Aurangabad,"MIDC Chilkalthana, Aurangabad - MPCB",17-04-2026 09:00:00,19.875620,75.387310,NO2,7,68,27
India,Maharashtra,Aurangabad,"More Chowk Waluj, Aurangabad - MPCB",17-04-2026 09:00:00,19.8389439,75.244448,PM2.5,26,297,73
India,Maharashtra,Aurangabad,"More Chowk Waluj, Aurangabad - MPCB",17-04-2026 09:00:00,19.8389439,75.244448,SO2,17,32,24
India,Maharashtra,Aurangabad,"More Chowk Waluj, Aurangabad - MPCB",17-04-2026 09:00:00,19.8389439,75.244448,CO,12,107,48
India,Maharashtra,Aurangabad,"Rachnakar Colony, Aurangabad - MPCB",17-04-2026 09:00:00,19.863756,75.321188,PM2.5,42,211,64
India,Maharashtra,Aurangabad,"Rachnakar Colony, Aurangabad - MPCB",17-04-2026 09:00:00,19.863756,75.321188,CO,22,83,34
India,Maharashtra,Badlapur,"Katrap, Badlapur - MPCB",17-04-2026 09:00:00,19.16485,73.23409,PM2.5,43,85,55
India,Maharashtra,Kalyan,"Khadakpada, Kalyan - MPCB",17-04-2026 09:00:00,19.25292,73.142019,OZONE,8,8,8
India,Maharashtra,Kolhapur,"Shivaji University, Kolhapur - MPCB",17-04-2026 09:00:00,16.6870449,74.2505872,SO2,1,3,2
India,Maharashtra,Kolhapur,"Sinchan Bhavan, Kolhapur - MPCB",17-04-2026 09:00:00,16.7143745,74.2426398,PM2.5,NA,NA,NA
India,Maharashtra,Kolhapur,"Sinchan Bhavan, Kolhapur - MPCB",17-04-2026 09:00:00,16.7143745,74.2426398,SO2,NA,NA,NA
India,Maharashtra,Latur,"Sawe Wadi, Latur - MPCB",17-04-2026 09:00:00,18.39963,76.57452,CO,3,60,22
India,Maharashtra,Mahad,"Kamble Tarf Birwadi, Mahad - MPCB",17-04-2026 09:00:00,18.1023399,73.4783687,NO2,5,45,19
India,Maharashtra,Mahad,"Kamble Tarf Birwadi, Mahad - MPCB",17-04-2026 09:00:00,18.1023399,73.4783687,SO2,13,136,35
India,Maharashtra,Mumbai,"Sion, Mumbai - MPCB",17-04-2026 09:00:00,19.047000,72.874600,CO,13,18,18
India,Maharashtra,Mumbai,"Vile Parle West, Mumbai - MPCB",17-04-2026 09:00:00,19.10861,72.83622,NH3,6,6,6
India,Maharashtra,Mumbai,"Vile Parle West, Mumbai - MPCB",17-04-2026 09:00:00,19.10861,72.83622,CO,30,30,30
India,Maharashtra,Mumbai,"Worli, Mumbai -MPCB",17-04-2026 09:00:00,18.9942180,72.8158167,NH3,3,3,3
India,Maharashtra,Mumbai,"Worli, Mumbai -MPCB",17-04-2026 09:00:00,18.9942180,72.8158167,SO2,24,29,26
India,Maharashtra,Nagpur,"Ambazari, Nagpur - MPCB",17-04-2026 09:00:00,21.121801,79.04952,PM10,69,156,98
India,Maharashtra,Nagpur,"Ambazari, Nagpur - MPCB",17-04-2026 09:00:00,21.121801,79.04952,OZONE,4,92,28
India,Maharashtra,Nagpur,"Opp GPO Civil Lines, Nagpur - MPCB",17-04-2026 09:00:00,21.152875,79.0517531,SO2,9,29,17
India,Maharashtra,Malegaon,"Mahesh Nagar, Malegaon - MPCB",17-04-2026 09:00:00,20.555712,74.529236,NH3,NA,NA,NA
India,Maharashtra,Malegaon,"Mahesh Nagar, Malegaon - MPCB",17-04-2026 09:00:00,20.555712,74.529236,CO,18,40,26
India,Maharashtra,Mira-Bhayandar,"Bhayandar West, Mira-Bhayandar - MPCB",17-04-2026 09:00:00,19.296481,72.840923,PM2.5,NA,NA,NA
India,Maharashtra,Mumbai,"Bandra Kurla Complex, Mumbai - MPCB",17-04-2026 09:00:00,19.065931,72.862131,NH3,2,5,3
India,Maharashtra,Mumbai,"Bandra Kurla Complex, Mumbai - MPCB",17-04-2026 09:00:00,19.065931,72.862131,SO2,2,4,3
India,Maharashtra,Mumbai,"Borivali East, Mumbai - IITM",17-04-2026 09:00:00,19.23241,72.86895,PM10,52,118,77
India,Maharashtra,Mumbai,"Borivali East, Mumbai - MPCB",17-04-2026 09:00:00,19.2243333,72.8658113,NO2,NA,NA,NA
India,Maharashtra,Badlapur,"Katrap, Badlapur - MPCB",17-04-2026 09:00:00,19.16485,73.23409,CO,28,47,39
India,Maharashtra,Belapur,"CBD Belapur, Belapur - MPCB",17-04-2026 09:00:00,19.0243902,73.0406721,PM10,73,128,96
India,Maharashtra,Bhiwandi,"Gokul Nagar, Bhiwandi - MPCB",17-04-2026 09:00:00,19.309073,73.057223,PM2.5,21,75,52
India,Maharashtra,Chandrapur,"Chauhan Colony, Chandrapur - MPCB",17-04-2026 09:00:00,19.962900,79.298714,NO2,32,44,37
India,Maharashtra,Chandrapur,"Chauhan Colony, Chandrapur - MPCB",17-04-2026 09:00:00,19.962900,79.298714,NH3,NA,NA,NA
India,Maharashtra,Chandrapur,"Chauhan Colony, Chandrapur - MPCB",17-04-2026 09:00:00,19.962900,79.298714,CO,21,36,22
India,Maharashtra,Dhule,"Deopur, Dhule - MPCB",17-04-2026 09:00:00,20.918946,74.776388,PM2.5,42,125,72
India,Maharashtra,Dhule,"Deopur, Dhule - MPCB",17-04-2026 09:00:00,20.918946,74.776388,NH3,1,1,1
India,Maharashtra,Jalgaon,"Prabhat Colony, Jalgaon - MPCB",17-04-2026 09:00:00,21.001264,75.565602,PM2.5,42,88,61
India,Maharashtra,Jalgaon,"Prabhat Colony, Jalgaon - MPCB",17-04-2026 09:00:00,21.001264,75.565602,NH3,1,2,1
India,Maharashtra,Jalgaon,"Prabhat Colony, Jalgaon - MPCB",17-04-2026 09:00:00,21.001264,75.565602,OZONE,37,87,47
India,Maharashtra,Jalna,"Old MIDC, Jalna - MPCB",17-04-2026 09:00:00,19.854616,75.905894,PM2.5,19,93,52
India,Maharashtra,Jalna,"Old MIDC, Jalna - MPCB",17-04-2026 09:00:00,19.854616,75.905894,PM10,42,143,82
India,Maharashtra,Jalna,"Old MIDC, Jalna - MPCB",17-04-2026 09:00:00,19.854616,75.905894,NH3,3,5,4
India,Maharashtra,Jalna,"Old MIDC, Jalna - MPCB",17-04-2026 09:00:00,19.854616,75.905894,CO,4,42,17
India,Maharashtra,Mumbai,"Ghatkopar, Mumbai - BMC",17-04-2026 09:00:00,19.083694,72.920967,CO,10,31,18
India,Maharashtra,Mumbai,"Kherwadi_Bandra East, Mumbai - MPCB",17-04-2026 09:00:00,19.0632143,72.8456324,PM10,39,93,59
India,Maharashtra,Mumbai,"Kherwadi_Bandra East, Mumbai - MPCB",17-04-2026 09:00:00,19.0632143,72.8456324,SO2,2,5,4
India,Maharashtra,Mumbai,"Kurla, Mumbai - MPCB",17-04-2026 09:00:00,19.0863,72.8888,OZONE,NA,NA,NA
India,Maharashtra,Mumbai,"Malad West, Mumbai - IITM",17-04-2026 09:00:00,19.19709,72.82204,PM10,47,96,67
India,Maharashtra,Mumbai,"Powai, Mumbai - MPCB",17-04-2026 09:00:00,19.137500,72.915056,NO2,7,8,7
India,Maharashtra,Mumbai,"Sewri, Mumbai - BMC",17-04-2026 09:00:00,19.000084,72.856730,SO2,1,7,4
India,Maharashtra,Mumbai,"Shivaji Nagar, Mumbai - BMC",17-04-2026 09:00:00,19.060498,72.923356,OZONE,2,34,6
India,Maharashtra,Mumbai,"Siddharth Nagar-Worli, Mumbai - IITM",17-04-2026 09:00:00,19.000083,72.813993,PM2.5,12,42,22
India,Maharashtra,Mumbai,"Chakala-Andheri East, Mumbai - IITM",17-04-2026 09:00:00,19.11074,72.86084,NH3,3,5,4
India,Maharashtra,Mumbai,"Chakala-Andheri East, Mumbai - IITM",17-04-2026 09:00:00,19.11074,72.86084,OZONE,14,68,33
India,Maharashtra,Mumbai,"Chembur, Mumbai - MPCB",17-04-2026 09:00:00,19.0364585,72.8954371,SO2,3,7,5
India,Meghalaya,Byrnihat,"15th Mile-Nongthymmai, Byrnihat - Meghalaya PCB",17-04-2026 09:00:00,26.05374,91.86796,PM10,61,269,122
India,Meghalaya,Shillong,"JN Stadium, Shillong - Meghalaya PCB",17-04-2026 09:00:00,25.5803419,91.8942571,CO,22,57,32
India,Meghalaya,Shillong,"Lumpyngngad, Shillong - Meghalaya PCB",17-04-2026 09:00:00,25.5586,91.8985,CO,NA,NA,NA
India,Nagaland,Kohima,"PWD Junction, Kohima - NPCB",17-04-2026 09:00:00,25.6635413,94.0989878,PM10,25,68,35
India,Nagaland,Kohima,"PWD Junction, Kohima - NPCB",17-04-2026 09:00:00,25.6635413,94.0989878,NO2,3,4,3
India,Odisha,Angul,"Hakimapada, Angul - OSPCB",17-04-2026 09:00:00,20.832874,85.104082,PM10,2,77,32
India,Odisha,Angul,"Hakimapada, Angul - OSPCB",17-04-2026 09:00:00,20.832874,85.104082,NH3,3,4,3
India,Odisha,Angul,"Hakimapada, Angul - OSPCB",17-04-2026 09:00:00,20.832874,85.104082,OZONE,2,79,7
India,Odisha,Balasore,"Kalidaspur, Balasore - OSPCB",17-04-2026 09:00:00,21.51161,86.89088,NO2,1,15,6
India,Odisha,Balasore,"Kalidaspur, Balasore - OSPCB",17-04-2026 09:00:00,21.51161,86.89088,NH3,1,6,2
India,Odisha,Balasore,"Kalidaspur, Balasore - OSPCB",17-04-2026 09:00:00,21.51161,86.89088,CO,36,47,39
India,Odisha,Barbil,"Forest Office, Barbil - OSPCB",17-04-2026 09:00:00,22.1166054,85.3945546,OZONE,11,173,18
India,Odisha,Baripada,"Meher Colony, Baripada - OSPCB",17-04-2026 09:00:00,21.941841,86.728318,SO2,1,13,7
India,Odisha,Bhubaneswar,"Lingraj Mandir, Bhubaneswar - OSPCB",17-04-2026 09:00:00,20.240790,85.836784,PM10,13,50,32
India,Odisha,Bhubaneswar,"Lingraj Mandir, Bhubaneswar - OSPCB",17-04-2026 09:00:00,20.240790,85.836784,NO2,1,12,7
India,Odisha,Bhubaneswar,"Lingraj Mandir, Bhubaneswar - OSPCB",17-04-2026 09:00:00,20.240790,85.836784,OZONE,11,33,18
India,Odisha,Bhubaneswar,"Patia, Bhubaneswar - OSPCB",17-04-2026 09:00:00,20.34652,85.81630,PM2.5,5,48,26
India,Odisha,Bhubaneswar,"Patia, Bhubaneswar - OSPCB",17-04-2026 09:00:00,20.34652,85.81630,SO2,5,7,6
India,Odisha,Bileipada,"Tata Township, Bileipada - OSPCB",17-04-2026 09:00:00,22.06156703,85.47409613,CO,15,29,18
India,Odisha,Brajrajnagar,"GM Office, Brajrajnagar - OSPCB",17-04-2026 09:00:00,21.8004996,83.8396977,CO,2,44,38
India,Maharashtra,Solapur,"Ratandeep Housing Society, Solapur - MPCB",17-04-2026 09:00:00,17.65439,75.90649,NH3,3,14,6
India,Maharashtra,Thane,"Kasarvadavali, Thane - MPCB",17-04-2026 09:00:00,19.26777,72.97182,PM2.5,30,66,44
India,Maharashtra,Thane,"Kasarvadavali, Thane - MPCB",17-04-2026 09:00:00,19.26777,72.97182,NH3,4,6,5
India,Maharashtra,Thane,"Kasarvadavali, Thane - MPCB",17-04-2026 09:00:00,19.26777,72.97182,SO2,1,4,2
India,Maharashtra,Thane,"Upvan Fort, Thane - MPCB",17-04-2026 09:00:00,19.222279,72.957979,PM10,29,215,86
India,Maharashtra,Thane,"Upvan Fort, Thane - MPCB",17-04-2026 09:00:00,19.222279,72.957979,NO2,3,20,6
India,Maharashtra,Thane,"Upvan Fort, Thane - MPCB",17-04-2026 09:00:00,19.222279,72.957979,SO2,1,15,9
India,Maharashtra,Virar,"Bolinj, Virar - MPCB",17-04-2026 09:00:00,19.4458210,72.7988231,PM2.5,26,59,40
India,Maharashtra,Virar,"Bolinj, Virar - MPCB",17-04-2026 09:00:00,19.4458210,72.7988231,NH3,2,21,6
India,Maharashtra,Virar,"Bolinj, Virar - MPCB",17-04-2026 09:00:00,19.4458210,72.7988231,CO,6,104,32
India,Maharashtra,Virar,"Bolinj, Virar - MPCB",17-04-2026 09:00:00,19.4458210,72.7988231,OZONE,2,41,6
India,Maharashtra,Nagpur,"Ram Nagar, Nagpur - MPCB",17-04-2026 09:00:00,21.143383,79.048912,PM10,81,134,102
India,Maharashtra,Nagpur,"Ram Nagar, Nagpur - MPCB",17-04-2026 09:00:00,21.143383,79.048912,SO2,11,48,27
India,Maharashtra,Nanded,"Sneh Nagar, Nanded - MPCB",17-04-2026 09:00:00,19.173852,77.296291,PM2.5,NA,NA,NA
India,Maharashtra,Nanded,"Sneh Nagar, Nanded - MPCB",17-04-2026 09:00:00,19.173852,77.296291,CO,NA,NA,NA
India,Maharashtra,Nashik,"Hirawadi, Nashik - MPCB",17-04-2026 09:00:00,20.021503,73.813844,NH3,2,7,4
India,Maharashtra,Nashik,"MIDC Ambad, Nashik - MPCB",17-04-2026 09:00:00,19.950220,73.731480,PM10,57,95,72
India,Maharashtra,Nashik,"Pandav Nagari, Nashik - MPCB",17-04-2026 09:00:00,19.9591346,73.7788008,PM10,47,92,74
India,Maharashtra,Nashik,"Pandav Nagari, Nashik - MPCB",17-04-2026 09:00:00,19.9591346,73.7788008,NO2,8,28,13
India,Maharashtra,Navi Mumbai,"Kopripada-Vashi, Navi Mumbai - MPCB",17-04-2026 09:00:00,19.090337,73.014232,SO2,2,5,3
India,Maharashtra,Navi Mumbai,"Mahape, Navi Mumbai - MPCB",17-04-2026 09:00:00,19.1135051,73.008978,SO2,17,19,18
India,Maharashtra,Navi Mumbai,"Sanpada, Navi Mumbai - MPCB",17-04-2026 09:00:00,19.0575752,73.0151367,NO2,8,26,15
India,Maharashtra,Navi Mumbai,"Sector-2E Kalamboli, Navi Mumbai - MPCB",17-04-2026 09:00:00,19.02579,73.10297,PM2.5,27,84,52
India,Maharashtra,Navi Mumbai,"Sector-2E Kalamboli, Navi Mumbai - MPCB",17-04-2026 09:00:00,19.02579,73.10297,NH3,4,6,5
India,Maharashtra,Navi Mumbai,"Sector-2E Kalamboli, Navi Mumbai - MPCB",17-04-2026 09:00:00,19.02579,73.10297,OZONE,1,63,2
India,Maharashtra,Navi Mumbai,"Tondare-Taloja, Navi Mumbai - MPCB",17-04-2026 09:00:00,19.0630,73.1209,PM10,75,115,98
India,Maharashtra,Pimpri-Chinchwad,"Thergaon, Pimpri Chinchwad - MPCB",17-04-2026 09:00:00,18.616318,73.765797,PM10,19,125,62
India,Maharashtra,Pimpri-Chinchwad,"Thergaon, Pimpri Chinchwad - MPCB",17-04-2026 09:00:00,18.616318,73.765797,NO2,20,62,45
India,Maharashtra,Pimpri-Chinchwad,"Thergaon, Pimpri Chinchwad - MPCB",17-04-2026 09:00:00,18.616318,73.765797,OZONE,22,100,28
India,Maharashtra,Pimpri-Chinchwad,"Transport Nagar-Nigdi, Pune - IITM",17-04-2026 09:00:00,18.664282,73.763966,NO2,17,75,32
India,Maharashtra,Pimpri-Chinchwad,"Transport Nagar-Nigdi, Pune - IITM",17-04-2026 09:00:00,18.664282,73.763966,CO,14,83,58
India,Maharashtra,Pune,"Hadapsar, Pune - IITM",17-04-2026 09:00:00,18.501793,73.927532,CO,NA,NA,NA
India,Maharashtra,Pune,"Mhada Colony, Pune - IITM",17-04-2026 09:00:00,18.573040,73.927715,PM2.5,44,85,64
India,Maharashtra,Pune,"Revenue Colony-Shivajinagar, Pune - IITM",17-04-2026 09:00:00,18.530085,73.849598,OZONE,5,74,15
India,Maharashtra,Pune,"Savitribai Phule Pune University, Pune - MPCB",17-04-2026 09:00:00,18.547056,73.826908,NH3,2,8,1
India,Maharashtra,Pune,"Savitribai Phule Pune University, Pune - MPCB",17-04-2026 09:00:00,18.547056,73.826908,SO2,2,8,5
India,Maharashtra,Pune,"Savitribai Phule Pune University, Pune - MPCB",17-04-2026 09:00:00,18.547056,73.826908,CO,8,38,26
India,Maharashtra,Sangli,"Vijay Nagar, Sangli - MPCB",17-04-2026 09:00:00, 16.5038,74.3623,NO2,2,35,13
India,Maharashtra,Solapur,"Dnyaneshwar Nagar, Solapur - MPCB",17-04-2026 09:00:00,17.6336264,75.9132495,PM2.5,45,71,56
India,Maharashtra,Parbhani,"Masoom Colony, Parbhani - MPCB",17-04-2026 09:00:00,19.265594,76.761463,NH3,3,5,4
India,Maharashtra,Parbhani,"Masoom Colony, Parbhani - MPCB",17-04-2026 09:00:00,19.265594,76.761463,CO,7,15,12
India,Maharashtra,Parbhani,"Masoom Colony, Parbhani - MPCB",17-04-2026 09:00:00,19.265594,76.761463,OZONE,5,8,7
India,Maharashtra,Pimpri-Chinchwad,"Gavalinagar, Pimpri Chinchwad - MPCB",17-04-2026 09:00:00,18.63673,73.82487,NH3,4,9,6
India,Maharashtra,Pimpri-Chinchwad,"Park Street Wakad, Pimpri Chinchwad - MPCB",17-04-2026 09:00:00,18.59051,73.77946,NO2,29,83,47
India,Maharashtra,Pimpri-Chinchwad,"Park Street Wakad, Pimpri Chinchwad - MPCB",17-04-2026 09:00:00,18.59051,73.77946,CO,12,68,39
India,Maharashtra,Solapur,"Dnyaneshwar Nagar, Solapur - MPCB",17-04-2026 09:00:00,17.6336264,75.9132495,SO2,4,12,7
India,Rajasthan,Dungarpur,"Bhoiwada, Dungarpur - RSPCB",17-04-2026 09:00:00,23.837789,73.714926,NO2,9,19,14
India,Rajasthan,Dungarpur,"Bhoiwada, Dungarpur - RSPCB",17-04-2026 09:00:00,23.837789,73.714926,SO2,8,20,12
India,Rajasthan,Dungarpur,"Bhoiwada, Dungarpur - RSPCB",17-04-2026 09:00:00,23.837789,73.714926,OZONE,26,92,34
India,Rajasthan,Jaipur,"Adarsh Nagar, Jaipur - RSPCB",17-04-2026 09:00:00,26.902909,75.836858,CO,6,77,38
India,Rajasthan,Jaipur,"Adarsh Nagar, Jaipur - RSPCB",17-04-2026 09:00:00,26.902909,75.836858,OZONE,3,44,13
India,Rajasthan,Jaipur,"Mansarovar Sector-12, Jaipur - RSPCB",17-04-2026 09:00:00,26.843698,75.766894,NO2,19,88,37
India,Rajasthan,Jaipur,"Mansarovar Sector-12, Jaipur - RSPCB",17-04-2026 09:00:00,26.843698,75.766894,OZONE,10,206,72
India,Rajasthan,Jaipur,"Police Commissionerate, Jaipur - RSPCB",17-04-2026 09:00:00,26.9164092,75.7994901,NO2,1,75,23
India,Rajasthan,Jaipur,"Police Commissionerate, Jaipur - RSPCB",17-04-2026 09:00:00,26.9164092,75.7994901,SO2,34,51,42
India,Rajasthan,Jaipur,"Police Commissionerate, Jaipur - RSPCB",17-04-2026 09:00:00,26.9164092,75.7994901,CO,36,82,53
India,Rajasthan,Jaipur,"RIICO Sitapura, Jaipur - RSPCB",17-04-2026 09:00:00,26.786682,75.827928,PM10,42,409,179
India,Rajasthan,Jaipur,"RIICO Sitapura, Jaipur - RSPCB",17-04-2026 09:00:00,26.786682,75.827928,NO2,28,210,82
India,Rajasthan,Jaipur,"RIICO Sitapura, Jaipur - RSPCB",17-04-2026 09:00:00,26.786682,75.827928,SO2,8,18,14
India,Odisha,Rourkela,"Sector-2, Rourkela - OSPCB",17-04-2026 09:00:00,22.24500000,84.88111111,PM10,88,88,88
India,Odisha,Suakati,"OMC Colony, Suakati - OSPCB",17-04-2026 09:00:00,21.606865,85.510538,PM10,NA,NA,NA
India,Odisha,Suakati,"OMC Colony, Suakati - OSPCB",17-04-2026 09:00:00,21.606865,85.510538,NH3,NA,NA,NA
India,Odisha,Talcher,"Talcher Coalfields,Talcher - OSPCB",17-04-2026 09:00:00,20.9360711,85.1707021,NO2,24,63,39
India,Odisha,Talcher,"Talcher Coalfields,Talcher - OSPCB",17-04-2026 09:00:00,20.9360711,85.1707021,OZONE,20,37,24
India,Odisha,Tensa,"Barsua Iron Ore Mines, Tensa - OSPCB",17-04-2026 09:00:00,21.869985,85.167016,PM2.5,27,78,46
India,Odisha,Tensa,"Barsua Iron Ore Mines, Tensa - OSPCB",17-04-2026 09:00:00,21.869985,85.167016,PM10,NA,NA,NA
India,Odisha,Tensa,"Barsua Iron Ore Mines, Tensa - OSPCB",17-04-2026 09:00:00,21.869985,85.167016,OZONE,7,97,8
India,Puducherry,Puducherry,"Jawahar Nagar, Puducherry - PPCC",17-04-2026 09:00:00,11.9309,79.8027,PM2.5,2,18,7
India,Puducherry,Puducherry,"Jawahar Nagar, Puducherry - PPCC",17-04-2026 09:00:00,11.9309,79.8027,PM10,6,23,15
India,Punjab,Amritsar,"Golden Temple, Amritsar - PPCB",17-04-2026 09:00:00,31.620000,74.876512,NH3,5,6,6
India,Punjab,Amritsar,"Golden Temple, Amritsar - PPCB",17-04-2026 09:00:00,31.620000,74.876512,OZONE,41,61,50
India,Punjab,Bathinda,"Hardev Nagar, Bathinda - PPCB",17-04-2026 09:00:00,30.233011,74.907758,CO,47,80,78
India,Punjab,Jalandhar,"Civil Line, Jalandhar - PPCB",17-04-2026 09:00:00,31.321907,75.578914,CO,43,52,46
India,Punjab,Khanna,"Kalal Majra, Khanna - PPCB",17-04-2026 09:00:00,30.736056 ,76.209694,NH3,7,8,7
India,Punjab,Khanna,"Kalal Majra, Khanna - PPCB",17-04-2026 09:00:00,30.736056 ,76.209694,CO,12,36,14
India,Punjab,Ludhiana,"Punjab Agricultural University, Ludhiana - PPCB",17-04-2026 09:00:00,30.9028,75.8086,SO2,11,41,18
India,Punjab,Mandi Gobindgarh,"RIMT University, Mandi Gobindgarh - PPCB",17-04-2026 09:00:00,30.649961,76.331442,PM10,NA,NA,NA
India,Punjab,Mandi Gobindgarh,"RIMT University, Mandi Gobindgarh - PPCB",17-04-2026 09:00:00,30.649961,76.331442,SO2,NA,NA,NA
India,Punjab,Mandi Gobindgarh,"RIMT University, Mandi Gobindgarh - PPCB",17-04-2026 09:00:00,30.649961,76.331442,CO,NA,NA,NA
India,Rajasthan,Bikaner,"MM Ground, Bikaner - RSPCB",17-04-2026 09:00:00,28.018792,73.292658,SO2,2,15,8
India,Rajasthan,Bundi,"New Colony, Bundi - RSPCB",17-04-2026 09:00:00,25.435774,75.644272,PM10,77,192,121
India,Rajasthan,Bundi,"New Colony, Bundi - RSPCB",17-04-2026 09:00:00,25.435774,75.644272,NO2,3,70,44
India,Rajasthan,Chittorgarh,"Shastri Nagar, Chittorgarh - RSPCB",17-04-2026 09:00:00,24.892047,74.623527,OZONE,4,130,28
India,Rajasthan,Churu,"Subash Chowk, Churu - RSPCB",17-04-2026 09:00:00,28.296139,74.961696,PM10,77,188,124
India,Rajasthan,Churu,"Subash Chowk, Churu - RSPCB",17-04-2026 09:00:00,28.296139,74.961696,NO2,11,48,22
India,Rajasthan,Churu,"Subash Chowk, Churu - RSPCB",17-04-2026 09:00:00,28.296139,74.961696,CO,9,46,22
India,Rajasthan,Dausa,"Khatikan Mohalla, Dausa - RSPCB",17-04-2026 09:00:00,26.895552,76.334753,PM2.5,10,260,60
India,Rajasthan,Dausa,"Khatikan Mohalla, Dausa - RSPCB",17-04-2026 09:00:00,26.895552,76.334753,SO2,5,10,7
India,Odisha,Byasanagar,"Ferro Chrome Colony, Byasanagar - OSPCB",17-04-2026 09:00:00,20.94185,86.11510,NO2,4,15,6
India,Odisha,Byasanagar,"Ferro Chrome Colony, Byasanagar - OSPCB",17-04-2026 09:00:00,20.94185,86.11510,SO2,2,11,8
India,Odisha,Cuttack,"CDA Area, Cuttack - OSPCB",17-04-2026 09:00:00,20.48891     ,85.84768     ,OZONE,5,54,19
India,Odisha,Keonjhar,"Jagamohanpur, Keonjhar - OSPCB",17-04-2026 09:00:00,21.643900,85.599355,NH3,2,3,2
India,Odisha,Keonjhar,"Jagamohanpur, Keonjhar - OSPCB",17-04-2026 09:00:00,21.643900,85.599355,SO2,5,18,10
India,Odisha,Nayagarh,"Dabuna, Nayagarh - OSPCB",17-04-2026 09:00:00,21.847279,85.416905,NH3,6,6,6
India,Odisha,Nayagarh,"Dabuna, Nayagarh - OSPCB",17-04-2026 09:00:00,21.847279,85.416905,SO2,11,13,12
India,Odisha,Rairangpur,"Divisional Forest Office, Rairangpur - OSPCB",17-04-2026 09:00:00,22.265816,86.174829,PM10,24,92,56
India,Punjab,Patiala,"Model Town, Patiala - PPCB",17-04-2026 09:00:00,30.349388,76.366642,NO2,16,19,17
India,Punjab,Patiala,"Model Town, Patiala - PPCB",17-04-2026 09:00:00,30.349388,76.366642,CO,4,100,23
India,Punjab,Patiala,"Model Town, Patiala - PPCB",17-04-2026 09:00:00,30.349388,76.366642,OZONE,15,53,16
India,Rajasthan,Ajmer,"Civil Lines,  Ajmer - RSPCB",17-04-2026 09:00:00,26.470859,74.646594,PM10,92,144,117
India,Rajasthan,Ajmer,"Civil Lines,  Ajmer - RSPCB",17-04-2026 09:00:00,26.470859,74.646594,NO2,22,36,28
India,Rajasthan,Ajmer,"Civil Lines,  Ajmer - RSPCB",17-04-2026 09:00:00,26.470859,74.646594,CO,17,100,40
India,Rajasthan,Alwar,"Moti Doongri, Alwar - RSPCB",17-04-2026 09:00:00,27.554793,76.611536,OZONE,8,86,11
India,Rajasthan,Banswara,"Rati Talai, Banswara - RSPCB",17-04-2026 09:00:00,23.555190,74.440010,PM2.5,10,163,58
India,Rajasthan,Banswara,"Rati Talai, Banswara - RSPCB",17-04-2026 09:00:00,23.555190,74.440010,CO,11,22,14
India,Rajasthan,Barmer,"Railway Colony, Barmer - RSPCB",17-04-2026 09:00:00,25.747299,71.393989,NO2,4,25,12
India,Rajasthan,Barmer,"Railway Colony, Barmer - RSPCB",17-04-2026 09:00:00,25.747299,71.393989,CO,8,32,12
India,Rajasthan,Bharatpur,"Krishna Nagar, Bharatpur - RSPCB",17-04-2026 09:00:00,27.215415,77.50873,PM10,54,184,108
India,Rajasthan,Bharatpur,"Krishna Nagar, Bharatpur - RSPCB",17-04-2026 09:00:00,27.215415,77.50873,OZONE,23,200,58
India,Rajasthan,Bhilwara,"Pratap Nagar, Bhilwara - RSPCB",17-04-2026 09:00:00,25.339605,74.618883,PM2.5,28,103,53
India,Rajasthan,Bhilwara,"Pratap Nagar, Bhilwara - RSPCB",17-04-2026 09:00:00,25.339605,74.618883,CO,26,111,43
India,Rajasthan,Bikaner,"MM Ground, Bikaner - RSPCB",17-04-2026 09:00:00,28.018792,73.292658,PM10,82,228,136
India,Rajasthan,Jaisalmer,"Sadar Bazar, Jaisalmer - RSPCB",17-04-2026 09:00:00,26.912329,70.909168,CO,9,22,12
India,Rajasthan,Jalore,"Mudtra Sili, Jalore - RSPCB",17-04-2026 09:00:00,25.344694,72.626208,PM2.5,12,60,36
India,Rajasthan,Jalore,"Mudtra Sili, Jalore - RSPCB",17-04-2026 09:00:00,25.344694,72.626208,NO2,4,38,19
India,Rajasthan,Jalore,"Mudtra Sili, Jalore - RSPCB",17-04-2026 09:00:00,25.344694,72.626208,CO,8,34,16
India,Rajasthan,Jhalawar,"Rajlaxmi Nagar, Jhalawar - RSPCB",17-04-2026 09:00:00,24.588397,76.172782,PM2.5,22,107,66
India,Rajasthan,Jhalawar,"Rajlaxmi Nagar, Jhalawar - RSPCB",17-04-2026 09:00:00,24.588397,76.172782,NO2,27,44,33
India,Rajasthan,Jhalawar,"Rajlaxmi Nagar, Jhalawar - RSPCB",17-04-2026 09:00:00,24.588397,76.172782,NH3,7,14,9
India,Rajasthan,Jaipur,"RIICO Sitapura, Jaipur - RSPCB",17-04-2026 09:00:00,26.786682,75.827928,OZONE,6,139,19
India,Rajasthan,Jaipur,"Sector-2 Murlipura, Jaipur - RSPCB",17-04-2026 09:00:00,26.960669,75.771817,NO2,21,111,56
India,Rajasthan,Jaipur,"Shastri Nagar, Jaipur - RSPCB",17-04-2026 09:00:00,26.9502929,75.730943,PM2.5,53,181,107
India,Rajasthan,Jaipur,"Shastri Nagar, Jaipur - RSPCB",17-04-2026 09:00:00,26.9502929,75.730943,SO2,4,53,19
India,Rajasthan,Jaisalmer,"Sadar Bazar, Jaisalmer - RSPCB",17-04-2026 09:00:00,26.912329,70.909168,NH3,12,16,13
India,Rajasthan,Jhunjhunu,"Indra Nagar, Jhunjhunu - RSPCB",17-04-2026 09:00:00,28.108988,75.386577,PM10,66,219,143
India,Rajasthan,Jodhpur,"Collectorate, Jodhpur - RSPCB",17-04-2026 09:00:00,26.268249,73.0193853,PM10,61,133,98
India,Rajasthan,Jodhpur,"Collectorate, Jodhpur - RSPCB",17-04-2026 09:00:00,26.268249,73.0193853,CO,5,72,33
India,Rajasthan,Jodhpur,"Collectorate, Jodhpur - RSPCB",17-04-2026 09:00:00,26.268249,73.0193853,OZONE,15,87,35
India,Rajasthan,Jodhpur,"Digari Kalan, Jodhpur - RSPCB",17-04-2026 09:00:00,26.295810,73.082283,PM2.5,NA,NA,NA
India,Rajasthan,Jodhpur,"Jhalamand, Jodhpur - RSPCB",17-04-2026 09:00:00,26.215415,73.070156,PM10,54,123,86
India,Rajasthan,Jodhpur,"Mandor, Jodhpur - RSPCB",17-04-2026 09:00:00,26.358805,73.047444,NH3,4,8,5
India,Rajasthan,Jodhpur,"Samrat Ashok Udhyan, Jodhpur - RSPCB",17-04-2026 09:00:00,26.253384,72.976571,PM10,61,196,109
India,Rajasthan,Jodhpur,"Samrat Ashok Udhyan, Jodhpur - RSPCB",17-04-2026 09:00:00,26.253384,72.976571,NO2,3,22,9
India,Rajasthan,Nagaur,"Karni Colony, Nagaur - RSPCB",17-04-2026 09:00:00,27.213494,73.734444,CO,10,46,13
India,Rajasthan,Pali,"Indira Colony Vistar, Pali - RSPCB",17-04-2026 09:00:00,25.771061, 73.340227,NH3,1,12,4
India,Rajasthan,Pratapgarh,"Pragati Nagar, Pratapgarh - RSPCB",17-04-2026 09:00:00,24.041198,74.780702,OZONE,19,123,33
India,Rajasthan,Rajsamand,"Dhoinda, Rajsamand - RSPCB",17-04-2026 09:00:00,25.036360,73.883502,SO2,6,23,11
India,Rajasthan,Sawai Madhopur,"Sahu Nagar, Sawai Madhopur - RSPCB",17-04-2026 09:00:00,26.031443,76.359327,NH3,3,6,5
India,Rajasthan,Sawai Madhopur,"Sahu Nagar, Sawai Madhopur - RSPCB",17-04-2026 09:00:00,26.031443,76.359327,CO,11,90,52
India,Rajasthan,Sikar,"Radhakishan Pura, Sikar - RSPCB",17-04-2026 09:00:00,27.608912,75.153302,OZONE,21,123,50
India,TamilNadu,Chennai,"Velachery Res. Area, Chennai - CPCB",17-04-2026 09:00:00,13.0052189,80.2398125,NH3,2,3,3
India,TamilNadu,Chennai,"Velachery Res. Area, Chennai - CPCB",17-04-2026 09:00:00,13.0052189,80.2398125,SO2,5,7,6
India,TamilNadu,Coimbatore,"SIDCO Kurichi, Coimbatore - TNPCB",17-04-2026 09:00:00,10.942451,76.978996,SO2,24,25,24
India,TamilNadu,Coimbatore,"SIDCO Kurichi, Coimbatore - TNPCB",17-04-2026 09:00:00,10.942451,76.978996,CO,27,38,32
India,TamilNadu,Madurai,"Uchapatti, Madurai - TNPCB",17-04-2026 09:00:00,9.865935,78.022669,CO,NA,NA,NA
India,TamilNadu,Perundurai,"SIPCOT Industrial Park, Perundurai - TNPCB",17-04-2026 09:00:00,11.258242,77.552761,NO2,11,13,12
India,TamilNadu,Thoothukudi,"Meelavittan, Thoothukudi - TNPCB",17-04-2026 09:00:00,8.816428 ,78.099039,SO2,2,18,9
India,Telangana,Hyderabad,"Kokapet, Hyderabad - TSPCB",17-04-2026 09:00:00,17.393559,78.339194,PM2.5,54,78,63
India,Telangana,Hyderabad,"Kokapet, Hyderabad - TSPCB",17-04-2026 09:00:00,17.393559,78.339194,NO2,13,17,14
India,Telangana,Hyderabad,"Kokapet, Hyderabad - TSPCB",17-04-2026 09:00:00,17.393559,78.339194,SO2,11,17,14
India,Telangana,Hyderabad,"Kompally Municipal Office, Hyderabad - TSPCB",17-04-2026 09:00:00,17.544899,78.486949,NO2,17,19,19
India,Telangana,Hyderabad,"Kompally Municipal Office, Hyderabad - TSPCB",17-04-2026 09:00:00,17.544899,78.486949,NH3,2,4,3
India,Telangana,Hyderabad,"Kompally Municipal Office, Hyderabad - TSPCB",17-04-2026 09:00:00,17.544899,78.486949,SO2,7,10,9
India,Telangana,Hyderabad,"Nacharam_TSIIC IALA, Hyderabad - TSPCB",17-04-2026 09:00:00,17.429398,78.569354,PM2.5,43,69,58
India,Telangana,Hyderabad,"Sanathnagar, Hyderabad - TSPCB",17-04-2026 09:00:00,17.4559458,78.4332152,NO2,39,60,51
India,Telangana,Hyderabad,"Sanathnagar, Hyderabad - TSPCB",17-04-2026 09:00:00,17.4559458,78.4332152,SO2,3,18,10
India,TamilNadu,Thoothukudi,"Meelavittan, Thoothukudi - TNPCB",17-04-2026 09:00:00,8.816428 ,78.099039,CO,4,48,32
India,Telangana,Hyderabad,"Central University, Hyderabad - TSPCB",17-04-2026 09:00:00,17.460103,78.334361,PM2.5,NA,NA,NA
India,Telangana,Hyderabad,"Central University, Hyderabad - TSPCB",17-04-2026 09:00:00,17.460103,78.334361,NH3,NA,NA,NA
India,Telangana,Hyderabad,"Central University, Hyderabad - TSPCB",17-04-2026 09:00:00,17.460103,78.334361,SO2,NA,NA,NA
India,Telangana,Hyderabad,"ECIL Kapra, Hyderabad - TSPCB",17-04-2026 09:00:00,17.470431,78.566959,PM2.5,17,66,35
India,Telangana,Hyderabad,"ECIL Kapra, Hyderabad - TSPCB",17-04-2026 09:00:00,17.470431,78.566959,NO2,4,44,19
India,Telangana,Hyderabad,"ICRISAT Patancheru, Hyderabad - TSPCB",17-04-2026 09:00:00,17.518400,78.278777,CO,38,64,49
India,Telangana,Hyderabad,"IITH Kandi, Hyderabad - TSPCB",17-04-2026 09:00:00,17.585705,78.126199,PM10,63,66,64
India,Rajasthan,Sirohi,"Vedhaynath Colony, Sirohi - RSPCB",17-04-2026 09:00:00,24.885261,72.857549,PM10,42,116,85
India,Rajasthan,Sirohi,"Vedhaynath Colony, Sirohi - RSPCB",17-04-2026 09:00:00,24.885261,72.857549,NO2,5,39,11
India,Rajasthan,Tonk,"Shastri Nagar, Tonk - RSPCB",17-04-2026 09:00:00,26.159933,75.780517,SO2,4,13,7
India,Rajasthan,Udaipur,"Ashok Nagar, Udaipur - RSPCB",17-04-2026 09:00:00,24.5886166,73.6321397,OZONE,3,76,6
India,Sikkim,Gangtok,"Zero Point GICI, Gangtok - SSPCB",17-04-2026 09:00:00,27.338530,88.614099,CO,6,16,8
India,TamilNadu,Chennai,"Arumbakkam, Chennai - TNPCB",17-04-2026 09:00:00,13.0664,80.2112 ,PM2.5,1,82,17
India,Rajasthan,Kota,"Nayapura, Kota - RSPCB",17-04-2026 09:00:00,25.196024,75.855668,PM2.5,28,312,98
India,Rajasthan,Kota,"Nayapura, Kota - RSPCB",17-04-2026 09:00:00,25.196024,75.855668,NO2,15,160,77
India,Rajasthan,Kota,"Nayapura, Kota - RSPCB",17-04-2026 09:00:00,25.196024,75.855668,CO,8,114,46
India,Rajasthan,Kota,"Shrinath Puram, Kota - RSPCB",17-04-2026 09:00:00,25.14389,75.821256,PM2.5,93,250,163
India,Rajasthan,Kota,"Shrinath Puram, Kota - RSPCB",17-04-2026 09:00:00,25.14389,75.821256,NO2,16,91,30
India,Rajasthan,Kota,"Shrinath Puram, Kota - RSPCB",17-04-2026 09:00:00,25.14389,75.821256,NH3,3,42,8
India,Rajasthan,Nagaur,"Karni Colony, Nagaur - RSPCB",17-04-2026 09:00:00,27.213494,73.734444,NH3,7,14,10
India,TamilNadu,Chennai,"Kodungaiyur, Chennai - TNPCB",17-04-2026 09:00:00,13.1278,80.2642,NO2,12,15,14
India,TamilNadu,Chennai,"Perungudi, Chennai - TNPCB",17-04-2026 09:00:00,12.9533,80.2357,NO2,3,6,4
India,TamilNadu,Chennai,"Royapuram, Chennai - TNPCB",17-04-2026 09:00:00,13.1036,80.2909,PM2.5,1,42,14
India,TamilNadu,Chennai,"Royapuram, Chennai - TNPCB",17-04-2026 09:00:00,13.1036,80.2909,SO2,4,8,6
India,TamilNadu,Chennai,"Velachery Res. Area, Chennai - CPCB",17-04-2026 09:00:00,13.0052189,80.2398125,PM10,32,81,48
India,Rajasthan,Jodhpur,"Samrat Ashok Udhyan, Jodhpur - RSPCB",17-04-2026 09:00:00,26.253384,72.976571,SO2,2,10,4
India,Rajasthan,Karauli,"Satyawati Vihar, Karauli - RSPCB",17-04-2026 09:00:00,26.506177,77.025989,NH3,4,17,11
India,Rajasthan,Karauli,"Satyawati Vihar, Karauli - RSPCB",17-04-2026 09:00:00,26.506177,77.025989,OZONE,1,127,46
India,Rajasthan,Kota,"Dhanmandi, Kota - RSPCB",17-04-2026 09:00:00,25.164090,75.858137,PM2.5,30,377,143
India,Rajasthan,Kota,"Dhanmandi, Kota - RSPCB",17-04-2026 09:00:00,25.164090,75.858137,PM10,101,322,175
India,Uttar_Pradesh,Lucknow,"Kendriya Vidyalaya, Lucknow - CPCB",17-04-2026 09:00:00,26.906111,80.948222,SO2,1,40,15
India,Uttar_Pradesh,Lucknow,"Lalbagh, Lucknow - CPCB",17-04-2026 09:00:00,26.8458805,80.9365541,CO,25,116,44
India,Uttar_Pradesh,Lucknow,"Talkatora District Industries Center, Lucknow - CPCB",17-04-2026 09:00:00,26.83399722,80.8917361,PM2.5,115,333,257
India,Uttar_Pradesh,Lucknow,"Talkatora District Industries Center, Lucknow - CPCB",17-04-2026 09:00:00,26.83399722,80.8917361,NH3,7,11,10
India,Uttar_Pradesh,Lucknow,"Talkatora District Industries Center, Lucknow - CPCB",17-04-2026 09:00:00,26.83399722,80.8917361,SO2,3,79,17
India,Uttar_Pradesh,Meerut,"Ganga Nagar, Meerut - UPPCB",17-04-2026 09:00:00,28.999264,77.7590354,SO2,16,49,37
India,Uttar_Pradesh,Meerut,"Jai Bhim Nagar, Meerut - UPPCB",17-04-2026 09:00:00,28.9535882,77.7622941,NO2,8,81,36
India,Uttar_Pradesh,Meerut,"Jai Bhim Nagar, Meerut - UPPCB",17-04-2026 09:00:00,28.9535882,77.7622941,CO,12,102,73
India,Uttar_Pradesh,Meerut,"Jai Bhim Nagar, Meerut - UPPCB",17-04-2026 09:00:00,28.9535882,77.7622941,OZONE,1,166,11
India,Uttar_Pradesh,Meerut,"Pallavpuram Phase 2, Meerut - UPPCB",17-04-2026 09:00:00,29.063510,77.709723,PM2.5,25,230,115
India,Uttar_Pradesh,Meerut,"Pallavpuram Phase 2, Meerut - UPPCB",17-04-2026 09:00:00,29.063510,77.709723,NO2,24,136,77
India,Uttar_Pradesh,Hapur,"Anand Vihar, Hapur - UPPCB",17-04-2026 09:00:00,28.725645,77.749675,PM2.5,33,326,213
India,Uttar_Pradesh,Hapur,"Anand Vihar, Hapur - UPPCB",17-04-2026 09:00:00,28.725645,77.749675,NO2,100,128,114
India,Uttar_Pradesh,Hapur,"Anand Vihar, Hapur - UPPCB",17-04-2026 09:00:00,28.725645,77.749675,OZONE,9,78,10
India,Uttar_Pradesh,Jhansi,"Shivaji Nagar, Jhansi - UPPCB",17-04-2026 09:00:00,25.4547,78.6039,PM10,45,135,82
India,Uttar_Pradesh,Jhansi,"Shivaji Nagar, Jhansi - UPPCB",17-04-2026 09:00:00,25.4547,78.6039,NO2,6,6,6
India,Uttar_Pradesh,Kanpur,"FTI Kidwai Nagar, Kanpur - UPPCB",17-04-2026 09:00:00,26.428282,80.327067,CO,33,62,47
India,Uttar_Pradesh,Kanpur,"NSI Kalyanpur, Kanpur - UPPCB",17-04-2026 09:00:00,26.509954,80.249612,OZONE,16,17,16
India,Uttar_Pradesh,Kanpur,"Nehru Nagar, Kanpur - UPPCB",17-04-2026 09:00:00,26.4703136,80.3229863,PM2.5,38,500,214
India,Uttar_Pradesh,Agra,"Shahjahan Garden, Agra - UPPCB",17-04-2026 09:00:00,27.169338,78.03582,PM2.5,4,110,39
India,Uttar_Pradesh,Agra,"Shahjahan Garden, Agra - UPPCB",17-04-2026 09:00:00,27.169338,78.03582,PM10,56,232,134
India,Uttar_Pradesh,Agra,"Shahjahan Garden, Agra - UPPCB",17-04-2026 09:00:00,27.169338,78.03582,NH3,3,3,3
India,Uttar_Pradesh,Agra,"Shastripuram, Agra - UPPCB",17-04-2026 09:00:00,27.19862,77.92066,NO2,10,10,10
India,Uttar_Pradesh,Baghpat,"Sardar Patel Inter College, Baghpat - UPPCB",17-04-2026 09:00:00,28.964949,77.278761,PM2.5,38,319,192
India,Uttar_Pradesh,Bareilly,"Civil Lines, Bareilly - UPPCB",17-04-2026 09:00:00,28.359581,79.414455,OZONE,8,56,16
India,Uttar_Pradesh,Bareilly,"Rajendra Nagar, Bareilly - UPPCB",17-04-2026 09:00:00,28.38910936,79.42963708,PM2.5,9,58,37
India,Telangana,Hyderabad,"Somajiguda, Hyderabad - TSPCB",17-04-2026 09:00:00,17.417094,78.457437,OZONE,10,42,17
India,Telangana,Hyderabad,"Zoo Park, Hyderabad - TSPCB",17-04-2026 09:00:00,17.349694,78.451437,OZONE,23,29,24
India,Uttar_Pradesh,Agra,"Manoharpur, Agra - UPPCB",17-04-2026 09:00:00,27.23711,78.01936,PM10,9,362,157
India,Uttar_Pradesh,Agra,"Manoharpur, Agra - UPPCB",17-04-2026 09:00:00,27.23711,78.01936,SO2,14,47,26
India,Uttar_Pradesh,Agra,"Manoharpur, Agra - UPPCB",17-04-2026 09:00:00,27.23711,78.01936,OZONE,5,24,6
India,Uttar_Pradesh,Agra,"Sanjay Palace, Agra - UPPCB",17-04-2026 09:00:00,27.19865833,78.00598056,PM10,115,332,168
India,Uttar_Pradesh,Agra,"Sanjay Palace, Agra - UPPCB",17-04-2026 09:00:00,27.19865833,78.00598056,CO,32,34,34
India,Uttar_Pradesh,Bulandshahr,"Yamunapuram, Bulandshahr - UPPCB",17-04-2026 09:00:00,28.406963,77.849831,OZONE,2,79,5
India,Uttar_Pradesh,Ghaziabad,"Indirapuram, Ghaziabad - UPPCB",17-04-2026 09:00:00,28.646233,77.358075,NH3,14,17,15
India,Uttar_Pradesh,Ghaziabad,"Indirapuram, Ghaziabad - UPPCB",17-04-2026 09:00:00,28.646233,77.358075,SO2,16,31,25
India,Uttar_Pradesh,Ghaziabad,"Indirapuram, Ghaziabad - UPPCB",17-04-2026 09:00:00,28.646233,77.358075,CO,20,159,76
India,Uttar_Pradesh,Ghaziabad,"Sanjay Nagar, Ghaziabad - UPPCB",17-04-2026 09:00:00,28.685382,77.453839,PM2.5,35,382,216
India,Uttar_Pradesh,Ghaziabad,"Sanjay Nagar, Ghaziabad - UPPCB",17-04-2026 09:00:00,28.685382,77.453839,PM10,115,497,285
India,Uttar_Pradesh,Ghaziabad,"Sanjay Nagar, Ghaziabad - UPPCB",17-04-2026 09:00:00,28.685382,77.453839,NO2,27,156,91
India,Uttar_Pradesh,Ghaziabad,"Vasundhara, Ghaziabad - UPPCB",17-04-2026 09:00:00,28.6603346,77.3572563,NO2,37,202,115
India,Uttar_Pradesh,Ghaziabad,"Ved Vihar-Loni, Ghaziabad - UPPCB",17-04-2026 09:00:00,28.739153 ,77.273668 ,PM2.5,180,491,358
India,Uttar_Pradesh,Greater Noida,"Knowledge Park - III, Greater Noida - UPPCB",17-04-2026 09:00:00,28.47272,77.482000,NO2,16,130,81
India,Uttar_Pradesh,Greater Noida,"Knowledge Park - III, Greater Noida - UPPCB",17-04-2026 09:00:00,28.47272,77.482000,NH3,5,16,9
India,Uttar_Pradesh,Greater Noida,"Knowledge Park - III, Greater Noida - UPPCB",17-04-2026 09:00:00,28.47272,77.482000,SO2,4,28,14
India,Uttar_Pradesh,Greater Noida,"Knowledge Park - III, Greater Noida - UPPCB",17-04-2026 09:00:00,28.47272,77.482000,OZONE,1,300,3
India,Uttar_Pradesh,Modinagar,"SRM University, Modinagar - UPPCB",17-04-2026 09:00:00,28.798171 ,77.540243 ,CO,25,102,98
India,Uttar_Pradesh,Modinagar,"SRM University, Modinagar - UPPCB",17-04-2026 09:00:00,28.798171 ,77.540243 ,OZONE,7,97,12
India,Uttar_Pradesh,Moradabad,"Buddhi Vihar, Moradabad - UPPCB",17-04-2026 09:00:00,28.83526,78.74460,CO,30,50,44
India,Uttar_Pradesh,Moradabad,"Eco Herbal Park, Moradabad - UPPCB",17-04-2026 09:00:00,28.840739,78.697531,NH3,3,6,5
India,Uttar_Pradesh,Moradabad,"Employment Office, Moradabad - UPPCB",17-04-2026 09:00:00,28.88528,78.73880,PM10,39,201,127
India,Uttar_Pradesh,Moradabad,"Kashiram Nagar, Moradabad - UPPCB",17-04-2026 09:00:00,28.849399,78.742362,OZONE,4,151,12
India,Uttar_Pradesh,Moradabad,"Transport Nagar, Moradabad - UPPCB",17-04-2026 09:00:00,28.802625,78.753728,CO,52,101,55
India,Uttar_Pradesh,Noida,"Sector - 62, Noida - IMD",17-04-2026 09:00:00,28.6245479,77.3577104,CO,59,118,116
India,Uttar_Pradesh,Noida,"Sector-116, Noida - UPPCB",17-04-2026 09:00:00,28.569230,77.393848,PM2.5,35,379,238
India,Uttar_Pradesh,Lucknow,"B R Ambedkar University, Lucknow - UPPCB",17-04-2026 09:00:00,26.766433,80.927299,NO2,12,12,12
India,Uttar_Pradesh,Lucknow,"B R Ambedkar University, Lucknow - UPPCB",17-04-2026 09:00:00,26.766433,80.927299,CO,24,32,31
India,Uttar_Pradesh,Lucknow,"Kendriya Vidyalaya, Lucknow - CPCB",17-04-2026 09:00:00,26.906111,80.948222,NH3,11,20,16
India,Uttar_Pradesh,Noida,"Sector-116, Noida - UPPCB",17-04-2026 09:00:00,28.569230,77.393848,NO2,26,147,94
India,Uttar_Pradesh,Prayagraj,"Motilal Nehru NIT, Prayagraj - UPPCB",17-04-2026 09:00:00,25.494,81.863,PM2.5,17,106,52
India,Uttar_Pradesh,Prayagraj,"Motilal Nehru NIT, Prayagraj - UPPCB",17-04-2026 09:00:00,25.494,81.863,CO,10,40,30
India,Uttar_Pradesh,Prayagraj,"Nagar Nigam, Prayagraj - UPPCB",17-04-2026 09:00:00,25.44919916 ,81.82735986 ,NH3,6,14,9
India,Uttar_Pradesh,Raebareli," Indira Nagar, Raebareli - NTPC Unchahar",17-04-2026 09:00:00,26.207781,81.245571,NH3,8,12,9
India,Uttar_Pradesh,Raebareli," Indira Nagar, Raebareli - NTPC Unchahar",17-04-2026 09:00:00,26.207781,81.245571,SO2,13,15,14
India,Uttar_Pradesh,Varanasi,"Ardhali Bazar, Varanasi - UPPCB",17-04-2026 09:00:00,25.3505986,82.9083074,OZONE,14,35,22
India,Uttar_Pradesh,Varanasi,"Bhelupur, Varanasi - UPPCB",17-04-2026 09:00:00,25.301778,82.996789,SO2,25,28,26
India,Uttar_Pradesh,Varanasi,"Bhelupur, Varanasi - UPPCB",17-04-2026 09:00:00,25.301778,82.996789,OZONE,5,31,6
India,Uttar_Pradesh,Varanasi,"IESD Banaras Hindu University, Varanasi - UPPCB",17-04-2026 09:00:00,25.262326,82.995408,NH3,1,5,2
India,Uttar_Pradesh,Varanasi,"IESD Banaras Hindu University, Varanasi - UPPCB",17-04-2026 09:00:00,25.262326,82.995408,CO,3,15,9
India,Uttar_Pradesh,Varanasi,"Maldahiya, Varanasi - UPPCB",17-04-2026 09:00:00,25.32393,82.99687,PM2.5,47,318,160
India,Uttar_Pradesh,Varanasi,"Maldahiya, Varanasi - UPPCB",17-04-2026 09:00:00,25.32393,82.99687,CO,20,92,35
India,Uttar_Pradesh,Vrindavan,"Omex Eternity, Vrindavan - UPPCB",17-04-2026 09:00:00,27.5714090,77.6557570,PM2.5,15,94,46
India,Uttar_Pradesh,Vrindavan,"Omex Eternity, Vrindavan - UPPCB",17-04-2026 09:00:00,27.5714090,77.6557570,OZONE,15,16,16
India,Uttarakhand,Dehradun,"Doon University, Dehradun - UKPCB",17-04-2026 09:00:00,30.269444,78.044167,PM10,NA,NA,NA
India,Uttarakhand,Kashipur,"Govt. Girls Inter College, Kashipur - UKPCB",17-04-2026 09:00:00,29.2124114,78.9611753,NO2,NA,NA,NA
India,Uttarakhand,Rishikesh,"Shivaji Nagar, Rishikesh - UKPCB",17-04-2026 09:00:00,30.075911,78.2859547,PM10,28,44,38
India,Uttarakhand,Rishikesh,"Shivaji Nagar, Rishikesh - UKPCB",17-04-2026 09:00:00,30.075911,78.2859547,CO,37,37,37
India,West_Bengal,Asansol,"Asansol Court Area, Asansol - WBPCB",17-04-2026 09:00:00,23.685297,86.945968,PM2.5,47,100,67
India,West_Bengal,Asansol,"Asansol Court Area, Asansol - WBPCB",17-04-2026 09:00:00,23.685297,86.945968,SO2,10,22,13
India,West_Bengal,Asansol,"Evelyn Lodge, Asansol - WBPCB",17-04-2026 09:00:00,23.6979360,86.9443950,PM2.5,NA,NA,NA
India,West_Bengal,Asansol,"Evelyn Lodge, Asansol - WBPCB",17-04-2026 09:00:00,23.6979360,86.9443950,PM10,NA,NA,NA
India,West_Bengal,Asansol,"Evelyn Lodge, Asansol - WBPCB",17-04-2026 09:00:00,23.6979360,86.9443950,SO2,67,74,68
India,West_Bengal,Asansol,"Mahabir Colliery, Asansol - WBPCB",17-04-2026 09:00:00,23.6181830,87.1057180,NO2,7,16,9
India,West_Bengal,Asansol,"Mahabir Colliery, Asansol - WBPCB",17-04-2026 09:00:00,23.6181830,87.1057180,NH3,1,2,1
India,West_Bengal,Asansol,"Mahabir Colliery, Asansol - WBPCB",17-04-2026 09:00:00,23.6181830,87.1057180,CO,43,105,72
India,West_Bengal,Asansol,"Trivenidevi Bhalotia College, Asansol - WBPCB",17-04-2026 09:00:00,23.616515,87.119133,PM2.5,28,84,48
India,West_Bengal,Durgapur,"PCBL Residential Complex, Durgapur - WBPCB",17-04-2026 09:00:00,23.5087640,87.3544400,NO2,26,35,30
India,West_Bengal,Durgapur,"PCBL Residential Complex, Durgapur - WBPCB",17-04-2026 09:00:00,23.5087640,87.3544400,OZONE,1,13,2
India,West_Bengal,Haldia,"Priyambada Housing Estate, Haldia - WBPCB",17-04-2026 09:00:00,22.06047,88.109737,PM2.5,13,46,26
India,West_Bengal,Haldia,"Priyambada Housing Estate, Haldia - WBPCB",17-04-2026 09:00:00,22.06047,88.109737,SO2,3,20,12
India,West_Bengal,Haldia,"Priyambada Housing Estate, Haldia - WBPCB",17-04-2026 09:00:00,22.06047,88.109737,OZONE,11,46,15
India,West_Bengal,Howrah,"Belur Math, Howrah - WBPCB",17-04-2026 09:00:00,22.629801,88.352017,PM10,40,66,51
India,West_Bengal,Howrah,"Belur Math, Howrah - WBPCB",17-04-2026 09:00:00,22.629801,88.352017,NH3,4,5,5
India,West_Bengal,Howrah,"Belur Math, Howrah - WBPCB",17-04-2026 09:00:00,22.629801,88.352017,SO2,5,8,7
India,West_Bengal,Howrah,"Botanical Garden, Howrah - WBPCB",17-04-2026 09:00:00,22.554954,88.292568,NH3,1,1,1
India,West_Bengal,Howrah,"Padmapukur, Howrah - WBPCB",17-04-2026 09:00:00,22.5687319,88.2797276,SO2,6,39,12
India,West_Bengal,Kolkata,"Ballygunge, Kolkata - WBPCB",17-04-2026 09:00:00,22.5367507,88.3638022,NH3,7,8,7
India,West_Bengal,Kolkata,"Ballygunge, Kolkata - WBPCB",17-04-2026 09:00:00,22.5367507,88.3638022,SO2,14,19,16
India,West_Bengal,Kolkata,"Ballygunge, Kolkata - WBPCB",17-04-2026 09:00:00,22.5367507,88.3638022,OZONE,10,30,15
India,West_Bengal,Kolkata,"Bidhannagar, Kolkata - WBPCB",17-04-2026 09:00:00,22.58157048,88.41002457,NO2,13,18,16
India,West_Bengal,Kolkata,"Bidhannagar, Kolkata - WBPCB",17-04-2026 09:00:00,22.58157048,88.41002457,NH3,5,6,5
India,West_Bengal,Kolkata,"Fort William, Kolkata - WBPCB",17-04-2026 09:00:00,22.556640,88.342674,NH3,9,9,9
India,West_Bengal,Kolkata,"Jadavpur, Kolkata - WBPCB",17-04-2026 09:00:00,22.49929,88.36917,PM10,24,46,36
India,West_Bengal,Kolkata,"Jadavpur, Kolkata - WBPCB",17-04-2026 09:00:00,22.49929,88.36917,SO2,4,5,4
India,West_Bengal,Kolkata,"Jadavpur, Kolkata - WBPCB",17-04-2026 09:00:00,22.49929,88.36917,OZONE,6,24,8
India,West_Bengal,Kolkata,"Rabindra Bharati University, Kolkata - WBPCB",17-04-2026 09:00:00,22.627847,88.380669,PM10,30,58,45
India,West_Bengal,Kolkata,"Rabindra Bharati University, Kolkata - WBPCB",17-04-2026 09:00:00,22.627847,88.380669,OZONE,18,63,28
India,West_Bengal,Kolkata,"Victoria, Kolkata - WBPCB",17-04-2026 09:00:00,22.5448082,88.3403691,NO2,25,33,29
India,West_Bengal,Kolkata,"Victoria, Kolkata - WBPCB",17-04-2026 09:00:00,22.5448082,88.3403691,NH3,7,8,8
India,West_Bengal,Siliguri,"Ward-32 Bapupara, Siliguri - WBPCB",17-04-2026 09:00:00,26.6879226,88.4152495,SO2,13,19,16
India,Bihar,Bhagalpur,"DM Office_Kachari Chowk, Bhagalpur - BSPCB",17-04-2026 09:00:00,25.251013,86.989001,CO,22,55,32
India,Bihar,Bhagalpur,"Mayaganj, Bhagalpur - BSPCB",17-04-2026 09:00:00,25.265194,87.012947,PM10,61,179,106
India,Bihar,Bhagalpur,"Mayaganj, Bhagalpur - BSPCB",17-04-2026 09:00:00,25.265194,87.012947,NH3,6,8,7
India,Bihar,Bhagalpur,"Mayaganj, Bhagalpur - BSPCB",17-04-2026 09:00:00,25.265194,87.012947,CO,79,98,85
India,Bihar,Bihar Sharif,"D M Colony, Bihar Sharif - BSPCB",17-04-2026 09:00:00,25.204762,85.514960,PM2.5,23,52,38
India,Bihar,Bihar Sharif,"D M Colony, Bihar Sharif - BSPCB",17-04-2026 09:00:00,25.204762,85.514960,PM10,18,39,29
India,Bihar,Bihar Sharif,"D M Colony, Bihar Sharif - BSPCB",17-04-2026 09:00:00,25.204762,85.514960,SO2,10,10,10
India,Bihar,Bihar Sharif,"D M Colony, Bihar Sharif - BSPCB",17-04-2026 09:00:00,25.204762,85.514960,OZONE,1,2,2
India,Bihar,Buxar,"Charitra Van, Buxar - BSPCB",17-04-2026 09:00:00,25.567520,83.966379,PM10,41,77,56
India,Bihar,Buxar,"Charitra Van, Buxar - BSPCB",17-04-2026 09:00:00,25.567520,83.966379,NO2,9,10,9
India,Bihar,Chhapra,"Darshan Nagar, Chhapra - BSPCB",17-04-2026 09:00:00,25.7808257,84.7446768,OZONE,4,25,5
India,Bihar,Gaya,"Collectorate, Gaya - BSPCB",17-04-2026 09:00:00,24.7955,84.9994,OZONE,18,19,18
India,Bihar,Gaya,"Kareemganj, Gaya - BSPCB",17-04-2026 09:00:00,24.792403,84.992416,PM10,113,341,171
India,Andhra_Pradesh,Visakhapatnam,"GVM Corporation, Visakhapatnam - APPCB",17-04-2026 09:00:00,17.72,83.3,NH3,3,3,3
India,Andhra_Pradesh,Visakhapatnam,"GVM Corporation, Visakhapatnam - APPCB",17-04-2026 09:00:00,17.72,83.3,SO2,12,102,42
India,Andhra_Pradesh,Visakhapatnam,"GVM Corporation, Visakhapatnam - APPCB",17-04-2026 09:00:00,17.72,83.3,CO,5,63,18
India,Arunachal_Pradesh,Naharlagun,"Naharlagun, Naharlagun - APSPCB",17-04-2026 09:00:00,27.103358,93.679645,PM10,29,140,72
India,Arunachal_Pradesh,Naharlagun,"Naharlagun, Naharlagun - APSPCB",17-04-2026 09:00:00,27.103358,93.679645,CO,10,22,12
India,Assam,Byrnihat,"Central Academy for SFS, Byrnihat - PCBA",17-04-2026 09:00:00,26.071318,91.87488,NO2,6,15,9
India,Assam,Byrnihat,"Central Academy for SFS, Byrnihat - PCBA",17-04-2026 09:00:00,26.071318,91.87488,SO2,18,33,30
India,Assam,Byrnihat,"Central Academy for SFS, Byrnihat - PCBA",17-04-2026 09:00:00,26.071318,91.87488,OZONE,14,48,18
India,Assam,Guwahati,"IITG, Guwahati - PCBA",17-04-2026 09:00:00,26.2028636,91.70046436,PM2.5,10,59,42
India,Assam,Guwahati,"IITG, Guwahati - PCBA",17-04-2026 09:00:00,26.2028636,91.70046436,SO2,32,35,34
India,Assam,Guwahati,"Railway Colony, Guwahati - PCBA",17-04-2026 09:00:00,26.181742,91.78063,PM10,31,96,56
India,Bihar,Arrah,"New DM Office, Arrah - BSPCB",17-04-2026 09:00:00,25.5626095,84.663264,PM10,41,69,53
India,Bihar,Aurangabad,"Gurdeo Nagar, Aurangabad - BSPCB",17-04-2026 09:00:00,24.75746,84.366208,PM2.5,13,50,30
India,Bihar,Aurangabad,"Gurdeo Nagar, Aurangabad - BSPCB",17-04-2026 09:00:00,24.75746,84.366208,PM10,27,126,81
India,Bihar,Begusarai,"Lohiyanagar, Begusarai - BSPCB",17-04-2026 09:00:00,25.42742023,86.13886079,PM2.5,27,45,37
India,Bihar,Begusarai,"Lohiyanagar, Begusarai - BSPCB",17-04-2026 09:00:00,25.42742023,86.13886079,SO2,34,41,37
India,Bihar,Begusarai,"Lohiyanagar, Begusarai - BSPCB",17-04-2026 09:00:00,25.42742023,86.13886079,CO,16,21,17
India,Bihar,Begusarai,"Lohiyanagar, Begusarai - BSPCB",17-04-2026 09:00:00,25.42742023,86.13886079,OZONE,37,50,40
India,Bihar,Bettiah,"Kamalnath Nagar, Bettiah - BSPCB",17-04-2026 09:00:00,26.80365,84.51954,NO2,6,12,8
India,Bihar,Bettiah,"Kamalnath Nagar, Bettiah - BSPCB",17-04-2026 09:00:00,26.80365,84.51954,CO,17,60,38
India,Bihar,Bhagalpur,"DM Office_Kachari Chowk, Bhagalpur - BSPCB",17-04-2026 09:00:00,25.251013,86.989001,PM10,40,103,59
India,Bihar,Bhagalpur,"DM Office_Kachari Chowk, Bhagalpur - BSPCB",17-04-2026 09:00:00,25.251013,86.989001,NH3,1,1,1
India,Assam,Nagaon,"Christianpatty, Nagaon - PCBA",17-04-2026 09:00:00,26.349082,92.68449,NH3,NA,NA,NA
India,Assam,Nalbari,"Bata Chowk, Nalbari - PCBA",17-04-2026 09:00:00,26.446912,91.439057,PM10,26,54,41
India,Assam,Nalbari,"Bata Chowk, Nalbari - PCBA",17-04-2026 09:00:00,26.446912,91.439057,SO2,4,8,8
India,Assam,Nalbari,"Bata Chowk, Nalbari - PCBA",17-04-2026 09:00:00,26.446912,91.439057,OZONE,8,16,15
India,Assam,Silchar,"Tarapur, Silchar - PCBA",17-04-2026 09:00:00,24.82827,92.79525,NO2,23,27,25
India,Assam,Silchar,"Tarapur, Silchar - PCBA",17-04-2026 09:00:00,24.82827,92.79525,NH3,1,1,1
India,Assam,Silchar,"Tarapur, Silchar - PCBA",17-04-2026 09:00:00,24.82827,92.79525,SO2,5,8,6
India,Assam,Silchar,"Tarapur, Silchar - PCBA",17-04-2026 09:00:00,24.82827,92.79525,OZONE,2,4,2
India,Bihar,Araria,"Kharahiya Basti, Araria - BSPCB",17-04-2026 09:00:00,26.146529,87.454184,PM2.5,8,150,51
India,Bihar,Motihari,"Gandak Colony, Motihari - BSPCB",17-04-2026 09:00:00,26.63086,84.90051,CO,12,18,15
India,Bihar,Munger,"Town Hall, Munger - BSPCB",17-04-2026 09:00:00,25.376776,86.471523,PM2.5,15,60,37
India,Bihar,Munger,"Town Hall, Munger - BSPCB",17-04-2026 09:00:00,25.376776,86.471523,NO2,4,5,5
India,Bihar,Muzaffarpur,"Buddha Colony, Muzaffarpur - BSPCB",17-04-2026 09:00:00,26.11442,85.39813,OZONE,28,62,35
India,Bihar,Muzaffarpur,"MIT-Daudpur Kothi, Muzaffarpur - BSPCB",17-04-2026 09:00:00,26.1403345,85.3650192,PM2.5,67,77,71
India,Bihar,Muzaffarpur,"Muzaffarpur Collectorate, Muzaffarpur - BSPCB",17-04-2026 09:00:00,26.1209,85.3647,SO2,4,10,6
India,Bihar,Muzaffarpur,"Muzaffarpur Collectorate, Muzaffarpur - BSPCB",17-04-2026 09:00:00,26.1209,85.3647,CO,28,67,28
India,Andhra_Pradesh,Kadapa,"Yerramukkapalli, Kadapa - APPCB",17-04-2026 09:00:00,14.465052,78.824187,PM2.5,67,88,78
India,Andhra_Pradesh,Kadapa,"Yerramukkapalli, Kadapa - APPCB",17-04-2026 09:00:00,14.465052,78.824187,SO2,9,17,12
India,Andhra_Pradesh,Machilipatnam,"Srinivas Nagar Colony, Machilipatnam - APPCB",17-04-2026 09:00:00,16.186555,81.13219,PM10,47,172,70
India,Andhra_Pradesh,Rajamahendravaram,"Anand Kala Kshetram, Rajamahendravaram - APPCB",17-04-2026 09:00:00,16.9872867,81.7363176,PM2.5,NA,NA,NA
India,Andhra_Pradesh,Rajamahendravaram,"Anand Kala Kshetram, Rajamahendravaram - APPCB",17-04-2026 09:00:00,16.9872867,81.7363176,NH3,NA,NA,NA
India,Andhra_Pradesh,Tirumala,"Toll Gate, Tirumala - APPCB",17-04-2026 09:00:00,13.67,79.35,SO2,1,18,8
India,Andhra_Pradesh,Tirupati,"Vaikuntapuram, Tirupati - APPCB",17-04-2026 09:00:00,13.615387,79.409230,PM10,53,66,58
India,Andhra_Pradesh,Vijayawada,"HB Colony, Vijayawada - APPCB",17-04-2026 09:00:00,16.536107,80.594233,PM2.5,43,195,73
India,Andhra_Pradesh,Vijayawada,"HB Colony, Vijayawada - APPCB",17-04-2026 09:00:00,16.536107,80.594233,NH3,4,6,4
India,Andhra_Pradesh,Vijayawada,"HB Colony, Vijayawada - APPCB",17-04-2026 09:00:00,16.536107,80.594233,OZONE,19,43,19
India,Andhra_Pradesh,Vijayawada,"Kanuru, Vijayawada - APPCB",17-04-2026 09:00:00,16.486692,80.699436,PM10,42,69,52
India,Andhra_Pradesh,Vijayawada,"Kanuru, Vijayawada - APPCB",17-04-2026 09:00:00,16.486692,80.699436,CO,36,46,36
India,Andhra_Pradesh,Vijayawada,"Kanuru, Vijayawada - APPCB",17-04-2026 09:00:00,16.486692,80.699436,OZONE,NA,NA,NA
India,Bihar,Katihar,"Mirchaibari, Katihar - BSPCB",17-04-2026 09:00:00,25.560083,87.553265,OZONE,5,18,6
India,Bihar,Kishanganj,"SDM Office_Khagra, Kishanganj - BSPCB",17-04-2026 09:00:00,26.0881305,87.93840336,PM2.5,28,47,37
India,Bihar,Manguraha,"Forest Rest House, Manguraha - BSPCB",17-04-2026 09:00:00,27.308328,84.531742,CO,16,34,32
India,Bihar,Patna,"DRM Office Danapur, Patna - BSPCB",17-04-2026 09:00:00,25.586562,85.043586,NO2,34,41,38
India,Bihar,Patna,"DRM Office Danapur, Patna - BSPCB",17-04-2026 09:00:00,25.586562,85.043586,NH3,8,9,8
India,Bihar,Patna,"DRM Office Danapur, Patna - BSPCB",17-04-2026 09:00:00,25.586562,85.043586,CO,28,51,42
India,Bihar,Patna,"Rajbansi Nagar, Patna - BSPCB",17-04-2026 09:00:00,25.599486,85.113666,CO,22,90,58
India,Andhra_Pradesh,Anantapur,"Gulzarpet, Anantapur - APPCB",17-04-2026 09:00:00,14.675886,77.593027,NO2,19,27,25
India,Andhra_Pradesh,Anantapur,"Gulzarpet, Anantapur - APPCB",17-04-2026 09:00:00,14.675886,77.593027,OZONE,28,44,36
India,Chhattisgarh,Korba,"Urja Nagar, Korba - CECB",17-04-2026 09:00:00,22.348441,82.549611,NH3,1,1,1
India,Chhattisgarh,Korba,"Urja Nagar, Korba - CECB",17-04-2026 09:00:00,22.348441,82.549611,OZONE,2,7,3
India,Chhattisgarh,Kunjemura,"OP Jindal School, Kunjemura - CECB",17-04-2026 09:00:00,22.126650,83.483212,PM2.5,28,60,43
India,Chhattisgarh,Kunjemura,"OP Jindal School, Kunjemura - CECB",17-04-2026 09:00:00,22.126650,83.483212,OZONE,5,35,10
India,Chhattisgarh,Milupara,"Govt. Higher Secondary School, Milupara - CECB",17-04-2026 09:00:00,22.1910172,83.5197009,NH3,NA,NA,NA
India,Chhattisgarh,Milupara,"Govt. Higher Secondary School, Milupara - CECB",17-04-2026 09:00:00,22.1910172,83.5197009,CO,NA,NA,NA
India,Chhattisgarh,Milupara,"Govt. Higher Secondary School, Milupara - CECB",17-04-2026 09:00:00,22.1910172,83.5197009,OZONE,37,153,37
India,Chhattisgarh,Raipur,"AIIMS, Raipur - CECB",17-04-2026 09:00:00,21.258815,81.578979,NO2,26,41,33
India,Chhattisgarh,Raipur,"AIIMS, Raipur - CECB",17-04-2026 09:00:00,21.258815,81.578979,OZONE,7,52,8
India,Chhattisgarh,Raipur,"Bhatagaon New ISBT, Raipur - CECB",17-04-2026 09:00:00,21.219665,81.630094,PM10,36,103,73
India,Chhattisgarh,Raipur,"Bhatagaon New ISBT, Raipur - CECB",17-04-2026 09:00:00,21.219665,81.630094,NO2,27,51,34
India,Chhattisgarh,Raipur,"Krishak Nagar, Raipur - CECB",17-04-2026 09:00:00,21.237755,81.705301,PM2.5,38,183,65
India,Chhattisgarh,Raipur,"Krishak Nagar, Raipur - CECB",17-04-2026 09:00:00,21.237755,81.705301,PM10,43,155,74
India,Chhattisgarh,Raipur,"Krishak Nagar, Raipur - CECB",17-04-2026 09:00:00,21.237755,81.705301,NO2,7,27,14
India,Chhattisgarh,Raipur,"Siltara Phase-II, Raipur - CECB",17-04-2026 09:00:00,21.371751,81.664929,PM10,42,166,101
India,Chhattisgarh,Raipur,"Siltara Phase-II, Raipur - CECB",17-04-2026 09:00:00,21.371751,81.664929,CO,17,26,20
India,Chhattisgarh,Tumidih,"OP Jindal Industrial Park, Tumidih - CECB",17-04-2026 09:00:00,22.06631475,83.33820077,PM10,28,113,65
India,Chhattisgarh,Tumidih,"OP Jindal Industrial Park, Tumidih - CECB",17-04-2026 09:00:00,22.06631475,83.33820077,NO2,31,97,66
India,Delhi,Delhi,"Alipur, Delhi - DPCC",17-04-2026 09:00:00,28.815329,77.153010,NH3,11,17,13
India,Delhi,Delhi,"Alipur, Delhi - DPCC",17-04-2026 09:00:00,28.815329,77.153010,SO2,7,63,24
India,Delhi,Delhi,"Anand Vihar, Delhi - DPCC",17-04-2026 09:00:00,28.647622,77.3158090,PM2.5,13,424,269
India,Delhi,Delhi,"Anand Vihar, Delhi - DPCC",17-04-2026 09:00:00,28.647622,77.3158090,OZONE,NA,NA,NA
India,Delhi,Delhi,"Ashok Vihar, Delhi - DPCC",17-04-2026 09:00:00,28.695381,77.181665,PM2.5,23,433,233
India,Delhi,Delhi,"Ashok Vihar, Delhi - DPCC",17-04-2026 09:00:00,28.695381,77.181665,SO2,8,58,28
India,Delhi,Delhi,"Aya Nagar, Delhi - IMD",17-04-2026 09:00:00,28.4706914,77.1099364,OZONE,5,120,15
India,Delhi,Delhi,"Cantonment Area, Delhi - DPCC ",17-04-2026 09:00:00,28.594169 ,77.125100 ,PM10,85,329,172
India,Delhi,Delhi,"Cantonment Area, Delhi - DPCC ",17-04-2026 09:00:00,28.594169 ,77.125100 ,NO2,10,131,77
India,Delhi,Delhi,"Commonwealth Sports Complex, Delhi - DPCC",17-04-2026 09:00:00,28.615828 ,77.271992 ,SO2,27,52,34
India,Delhi,Delhi,"Commonwealth Sports Complex, Delhi - DPCC",17-04-2026 09:00:00,28.615828 ,77.271992 ,CO,31,113,108
India,Delhi,Delhi,"DTU, Delhi - CPCB",17-04-2026 09:00:00,28.7500499,77.1112615,PM2.5,27,450,249
India,Delhi,Delhi,"DTU, Delhi - CPCB",17-04-2026 09:00:00,28.7500499,77.1112615,NO2,27,31,29
India,Delhi,Delhi,"DTU, Delhi - CPCB",17-04-2026 09:00:00,28.7500499,77.1112615,SO2,24,33,28
India,Delhi,Delhi,"Dr. Karni Singh Shooting Range, Delhi - DPCC",17-04-2026 09:00:00,28.498571,77.264840,PM10,77,278,201
India,Delhi,Delhi,"Dr. Karni Singh Shooting Range, Delhi - DPCC",17-04-2026 09:00:00,28.498571,77.264840,NO2,12,119,55
India,Bihar,Siwan,"Chitragupta Nagar, Siwan - BSPCB",17-04-2026 09:00:00,26.2271665,84.3570427,NO2,2,2,2
India,Chandigarh,Chandigarh,"Sector 22, Chandigarh - CPCC",17-04-2026 09:00:00,30.735567,76.775714,PM10,29,152,75
India,Chandigarh,Chandigarh,"Sector 22, Chandigarh - CPCC",17-04-2026 09:00:00,30.735567,76.775714,NH3,8,28,18
India,Chandigarh,Chandigarh,"Sector 22, Chandigarh - CPCC",17-04-2026 09:00:00,30.735567,76.775714,SO2,2,22,10
India,Chandigarh,Chandigarh,"Sector-25, Chandigarh - CPCC",17-04-2026 09:00:00,30.751462,76.762879,NO2,NA,NA,NA
India,Chhattisgarh,Bhilai,"32Bungalows, Bhilai - CECB",17-04-2026 09:00:00,21.194815,81.314770,PM2.5,27,45,37
India,Chhattisgarh,Bhilai,"32Bungalows, Bhilai - CECB",17-04-2026 09:00:00,21.194815,81.314770,PM10,32,59,45
India,Chhattisgarh,Bhilai,"32Bungalows, Bhilai - CECB",17-04-2026 09:00:00,21.194815,81.314770,NH3,4,4,4
India,Bihar,Purnia,"Mariam Nagar, Purnia - BSPCB",17-04-2026 09:00:00,25.366336,87.117468,PM2.5,57,72,65
India,Bihar,Purnia,"Mariam Nagar, Purnia - BSPCB",17-04-2026 09:00:00,25.366336,87.117468,PM10,46,57,52
India,Bihar,Saharsa,"Police Line, Saharsa - BSPCB",17-04-2026 09:00:00,25.892357,86.590325,PM2.5,NA,NA,NA
India,Bihar,Saharsa,"Police Line, Saharsa - BSPCB",17-04-2026 09:00:00,25.892357,86.590325,PM10,NA,NA,NA
India,Bihar,Samastipur,"DM Office_Kasipur, Samastipur - BSPCB",17-04-2026 09:00:00,25.859655,85.77944,NH3,1,2,1
India,Delhi,Delhi,"IGI Airport (T3), Delhi - IMD",17-04-2026 09:00:00,28.5627763,77.1180053,PM10,86,370,196
India,Delhi,Delhi,"IGI Airport (T3), Delhi - IMD",17-04-2026 09:00:00,28.5627763,77.1180053,CO,40,105,91
India,Delhi,Delhi,"IIT Delhi, Delhi - IITM",17-04-2026 09:00:00,28.542460,77.191651,PM2.5,16,284,123
India,Delhi,Delhi,"IIT Delhi, Delhi - IITM",17-04-2026 09:00:00,28.542460,77.191651,NO2,26,109,68
India,Delhi,Delhi,"ITO, Delhi - CPCB",17-04-2026 09:00:00,28.628624,77.241060,PM2.5,34,340,207
India,Chhattisgarh,Bhilai,"Hathkhoj, Bhilai - CECB",17-04-2026 09:00:00,21.224231,81.408350,NO2,15,76,42
India,Chhattisgarh,Chhal,"Nawapara SECL Colony, Chhal - CECB",17-04-2026 09:00:00,22.118125,83.140608,SO2,6,50,18
India,Chhattisgarh,Korba,"Rampur, Korba - CECB",17-04-2026 09:00:00,22.368195,82.746431,NO2,15,84,32
India,Chhattisgarh,Korba,"Rampur, Korba - CECB",17-04-2026 09:00:00,22.368195,82.746431,NH3,1,1,1
India,Delhi,Delhi,"Bawana, Delhi - DPCC",17-04-2026 09:00:00,28.776200,77.051074,NO2,7,109,55
India,Delhi,Delhi,"Bawana, Delhi - DPCC",17-04-2026 09:00:00,28.776200,77.051074,NH3,5,7,6
India,Delhi,Delhi,"Burari Crossing, Delhi - IMD",17-04-2026 09:00:00,28.7256504,77.2011573,NO2,16,111,57
India,Delhi,Delhi,"CRRI Mathura Road, Delhi - IMD",17-04-2026 09:00:00,28.5512005,77.2735737,PM10,85,443,261
India,Delhi,Delhi,"Nehru Nagar, Delhi - DPCC",17-04-2026 09:00:00,28.567890,77.250515,PM10,109,442,291
India,Delhi,Delhi,"North Campus, DU, Delhi - IMD",17-04-2026 09:00:00,28.6573814,77.1585447,OZONE,5,152,8
India,Delhi,Delhi,"Okhla Phase-2, Delhi - DPCC",17-04-2026 09:00:00,28.530785,77.271255,PM2.5,33,407,210
India,Delhi,Delhi,"Okhla Phase-2, Delhi - DPCC",17-04-2026 09:00:00,28.530785,77.271255,OZONE,4,72,5
India,Delhi,Delhi,"Patparganj, Delhi - DPCC",17-04-2026 09:00:00,28.623763,77.287209,PM2.5,30,367,211
India,Delhi,Delhi,"Patparganj, Delhi - DPCC",17-04-2026 09:00:00,28.623763,77.287209,NO2,20,169,98
India,Delhi,Delhi,"Patparganj, Delhi - DPCC",17-04-2026 09:00:00,28.623763,77.287209,SO2,12,96,28
India,Delhi,Delhi,"Punjabi Bagh, Delhi - DPCC",17-04-2026 09:00:00,28.674045,77.131023,PM10,75,417,238
India,Delhi,Delhi,"Punjabi Bagh, Delhi - DPCC",17-04-2026 09:00:00,28.674045,77.131023,CO,36,106,68
India,Delhi,Delhi,"Pusa, Delhi - DPCC",17-04-2026 09:00:00,28.639652,77.146275,PM10,NA,NA,NA
India,Delhi,Delhi,"Mandir Marg, Delhi - DPCC",17-04-2026 09:00:00,28.636429,77.201067,OZONE,4,65,5
India,Delhi,Delhi,"Mundka, Delhi - DPCC",17-04-2026 09:00:00,28.684678,77.076574,PM10,122,500,339
India,Delhi,Delhi,"Mundka, Delhi - DPCC",17-04-2026 09:00:00,28.684678,77.076574,NO2,35,121,76
India,Delhi,Delhi,"Mundka, Delhi - DPCC",17-04-2026 09:00:00,28.684678,77.076574,CO,32,110,109
India,Delhi,Delhi,"NSIT Dwarka, Delhi - CPCB",17-04-2026 09:00:00,28.60909,77.0325413,PM2.5,50,143,88
India,Delhi,Delhi,"NSUT Jaffarpur, Delhi - DPCC",17-04-2026 09:00:00,28.594004 ,76.909423 ,SO2,14,38,23
India,Delhi,Delhi,"Narela, Delhi - DPCC",17-04-2026 09:00:00,28.822836,77.101981,NH3,3,9,7
India,Delhi,Delhi,"Narela, Delhi - DPCC",17-04-2026 09:00:00,28.822836,77.101981,SO2,4,69,32
India,Delhi,Delhi,"Narela, Delhi - DPCC",17-04-2026 09:00:00,28.822836,77.101981,CO,4,82,60
India,Delhi,Delhi,"Nehru Nagar, Delhi - DPCC",17-04-2026 09:00:00,28.567890,77.250515,PM2.5,2,410,230
India,Gujarat,Bhavnagar,"Vidhyanagar, Bhavnagar - Nexteng Enviro",17-04-2026 09:00:00,21.755417,72.139056,OZONE,4,31,7
India,Gujarat,Gandhinagar,"GIFT City, Gandhinagar - IITM",17-04-2026 09:00:00,23.163798,72.677768,SO2,2,30,14
India,Gujarat,Gandhinagar,"IIPHG Lekawada, Gandhinagar - IITM",17-04-2026 09:00:00,23.243639,72.68994,PM2.5,36,84,57
India,Gujarat,Gandhinagar,"IIPHG Lekawada, Gandhinagar - IITM",17-04-2026 09:00:00,23.243639,72.68994,NH3,1,2,2
India,Gujarat,Gandhinagar,"Sector-10, Gandhinagar - GPCB",17-04-2026 09:00:00,23.221714,72.654328,SO2,4,52,17
India,Gujarat,Mehsana,"Sadanand Nagar, Mehsana - Nexteng Enviro",17-04-2026 09:00:00,23.593150,72.372792,PM2.5,25,88,46
India,Gujarat,Mehsana,"Sadanand Nagar, Mehsana - Nexteng Enviro",17-04-2026 09:00:00,23.593150,72.372792,NH3,2,5,3
India,Gujarat,Nandesari,"GIDC, Nandesari - Nandesari Ind. Association",17-04-2026 09:00:00,22.410802,73.097923,PM10,62,307,121
India,Delhi,Delhi,"Vivek Vihar, Delhi - DPCC",17-04-2026 09:00:00,28.672342,77.315260,CO,30,130,87
India,Delhi,Delhi,"Wazirpur, Delhi - DPCC",17-04-2026 09:00:00,28.699793,77.165453,NH3,8,12,9
India,Gujarat,Ahmedabad,"Chandkheda, Ahmedabad - IITM",17-04-2026 09:00:00,23.107969,72.574648,NO2,8,116,27
India,Gujarat,Ahmedabad,"Chandkheda, Ahmedabad - IITM",17-04-2026 09:00:00,23.107969,72.574648,CO,42,118,48
India,Gujarat,Ahmedabad,"Gyaspur, Ahmedabad - IITM",17-04-2026 09:00:00,22.977134,72.553024,PM10,99,253,141
India,Gujarat,Ahmedabad,"Maninagar, Ahmedabad - GPCB",17-04-2026 09:00:00,23.002657,72.591912,CO,14,40,26
India,Gujarat,Ahmedabad,"Raikhad, Ahmedabad - IITM",17-04-2026 09:00:00,23.020509,72.579261,CO,10,105,17
India,Delhi,Delhi,"Sirifort, Delhi - CPCB",17-04-2026 09:00:00,28.5504249,77.2159377,NO2,22,39,32
India,Delhi,Delhi,"Sirifort, Delhi - CPCB",17-04-2026 09:00:00,28.5504249,77.2159377,CO,4,125,113
India,Delhi,Delhi,"Sri Aurobindo Marg, Delhi - DPCC",17-04-2026 09:00:00,28.531346,77.190156,NO2,2,99,53
India,Delhi,Delhi,"Talkatora Garden, Delhi - DPCC",17-04-2026 09:00:00,28.621810,77.1944633,PM10,53,410,182
India,Delhi,Delhi,"Talkatora Garden, Delhi - DPCC",17-04-2026 09:00:00,28.621810,77.1944633,OZONE,1,32,2
India,Delhi,Delhi,"Vivek Vihar, Delhi - DPCC",17-04-2026 09:00:00,28.672342,77.315260,NO2,29,233,108
India,Delhi,Delhi,"Vivek Vihar, Delhi - DPCC",17-04-2026 09:00:00,28.672342,77.315260,NH3,7,12,9
India,Delhi,Delhi,"Vivek Vihar, Delhi - DPCC",17-04-2026 09:00:00,28.672342,77.315260,SO2,21,130,42
India,Delhi,Delhi,"JNU, Delhi - DPCC",17-04-2026 09:00:00,28.540721 ,77.168544 ,PM2.5,44,334,193
India,Delhi,Delhi,"JNU, Delhi - DPCC",17-04-2026 09:00:00,28.540721 ,77.168544 ,OZONE,2,67,10
India,Delhi,Delhi,"Jahangirpuri, Delhi - DPCC",17-04-2026 09:00:00,28.732820,77.170633,PM10,111,493,321
India,Delhi,Delhi,"Jawaharlal Nehru Stadium, Delhi - DPCC",17-04-2026 09:00:00,28.580280,77.233829,NO2,29,164,95
India,Delhi,Delhi,"Jawaharlal Nehru Stadium, Delhi - DPCC",17-04-2026 09:00:00,28.580280,77.233829,OZONE,1,71,1
India,Delhi,Delhi,"Major Dhyan Chand National Stadium, Delhi - DPCC",17-04-2026 09:00:00,28.611281,77.237738,OZONE,2,91,2
India,Delhi,Delhi,"Mandir Marg, Delhi - DPCC",17-04-2026 09:00:00,28.636429,77.201067,PM2.5,53,382,213
India,Gujarat,Rajkot,"Mavdi, Rajkot - Nexteng Enviro ",17-04-2026 09:00:00,22.248853,70.776774,NH3,1,2,1
India,Gujarat,Rajkot,"Mavdi, Rajkot - Nexteng Enviro ",17-04-2026 09:00:00,22.248853,70.776774,SO2,9,77,26
India,Gujarat,Rajkot,"Mavdi, Rajkot - Nexteng Enviro ",17-04-2026 09:00:00,22.248853,70.776774,CO,86,97,93
India,Gujarat,Surat,"Katargam, Surat - Nexteng Enviro",17-04-2026 09:00:00,21.217779 ,72.834787 ,PM2.5,2,195,71
