country,state,city,station,last_update,latitude,longitude,pollutant_id,min_value,max_value,avg_value
India,Arunachal_Pradesh,Naharlagun,"Naharlagun, Naharlagun - APSPCB",18-04-2026 09:00:00,27.103358,93.679645,PM2.5,2,184,66
India,Arunachal_Pradesh,Naharlagun,"Naharlagun, Naharlagun - APSPCB",18-04-2026 09:00:00,27.103358,93.679645,SO2,10,12,11
India,Assam,Byrnihat,"Central Academy for SFS, Byrnihat - PCBA",18-04-2026 09:00:00,26.071318,91.87488,CO,14,120,68
India,Assam,Byrnihat,"Central Academy for SFS, Byrnihat - PCBA",18-04-2026 09:00:00,26.071318,91.87488,OZONE,17,59,19
India,Assam,Guwahati,"IITG, Guwahati - PCBA",18-04-2026 09:00:00,26.2028636,91.70046436,PM10,31,111,67
India,Assam,Guwahati,"IITG, Guwahati - PCBA",18-04-2026 09:00:00,26.2028636,91.70046436,NH3,5,5,5
India,Assam,Guwahati,"IITG, Guwahati - PCBA",18-04-2026 09:00:00,26.2028636,91.70046436,SO2,33,39,35
India,Assam,Guwahati,"LGBI Airport, Guwahati - PCBA",18-04-2026 09:00:00,26.10887,91.589544,OZONE,10,14,13
India,Assam,Guwahati,"Railway Colony, Guwahati - PCBA",18-04-2026 09:00:00,26.181742,91.78063,PM10,43,139,91
India,Assam,Guwahati,"Railway Colony, Guwahati - PCBA",18-04-2026 09:00:00,26.181742,91.78063,NO2,3,3,3
India,Assam,Guwahati,"Railway Colony, Guwahati - PCBA",18-04-2026 09:00:00,26.181742,91.78063,NH3,1,1,1
India,Andhra_Pradesh,Machilipatnam,"Srinivas Nagar Colony, Machilipatnam - APPCB",18-04-2026 09:00:00,16.186555,81.13219,PM2.5,42,67,55
India,Andhra_Pradesh,Nellore,"Ambedkar Nagar, Nellore - APPCB ",18-04-2026 09:00:00,14.438164 ,79.966814 ,OZONE,3,28,6
India,Andhra_Pradesh,Rajamahendravaram,"Anand Kala Kshetram, Rajamahendravaram - APPCB",18-04-2026 09:00:00,16.9872867,81.7363176,NO2,4,16,9
India,Andhra_Pradesh,Tirumala,"Toll Gate, Tirumala - APPCB",18-04-2026 09:00:00,13.67,79.35,CO,16,34,20
India,Andhra_Pradesh,Tirupati,"Vaikuntapuram, Tirupati - APPCB",18-04-2026 09:00:00,13.615387,79.409230,NO2,19,32,23
India,Bihar,Bhagalpur,"Mayaganj, Bhagalpur - BSPCB",18-04-2026 09:00:00,25.265194,87.012947,NH3,6,9,7
India,Bihar,Bhagalpur,"Mayaganj, Bhagalpur - BSPCB",18-04-2026 09:00:00,25.265194,87.012947,CO,76,104,89
India,Bihar,Buxar,"Charitra Van, Buxar - BSPCB",18-04-2026 09:00:00,25.567520,83.966379,PM2.5,45,92,69
India,Bihar,Buxar,"Charitra Van, Buxar - BSPCB",18-04-2026 09:00:00,25.567520,83.966379,PM10,41,92,68
India,Bihar,Gaya,"Kareemganj, Gaya - BSPCB",18-04-2026 09:00:00,24.792403,84.992416,NO2,10,12,12
India,Bihar,Gaya,"Kareemganj, Gaya - BSPCB",18-04-2026 09:00:00,24.792403,84.992416,NH3,1,2,1
India,Bihar,Gaya,"Kareemganj, Gaya - BSPCB",18-04-2026 09:00:00,24.792403,84.992416,SO2,41,46,43
India,Andhra_Pradesh,Vijayawada,"HB Colony, Vijayawada - APPCB",18-04-2026 09:00:00,16.536107,80.594233,SO2,6,20,9
India,Andhra_Pradesh,Vijayawada,"HB Colony, Vijayawada - APPCB",18-04-2026 09:00:00,16.536107,80.594233,OZONE,22,50,24
India,Andhra_Pradesh,Vijayawada,"Kanuru, Vijayawada - APPCB",18-04-2026 09:00:00,16.486692,80.699436,SO2,8,18,15
India,Andhra_Pradesh,Vijayawada,"Kanuru, Vijayawada - APPCB",18-04-2026 09:00:00,16.486692,80.699436,OZONE,41,67,43
India,Andhra_Pradesh,Vijayawada,"Rajiv Gandhi Park, Vijayawada - APPCB",18-04-2026 09:00:00,16.509717,80.612222,NO2,16,26,20
India,Andhra_Pradesh,Vijayawada,"Rajiv Nagar, Vijayawada - APPCB",18-04-2026 09:00:00,16.554731,80.649110,NO2,17,27,24
India,Bihar,Arrah,"New DM Office, Arrah - BSPCB",18-04-2026 09:00:00,25.5626095,84.663264,NO2,6,10,7
India,Bihar,Arrah,"New DM Office, Arrah - BSPCB",18-04-2026 09:00:00,25.5626095,84.663264,CO,48,72,54
India,Bihar,Arrah,"New DM Office, Arrah - BSPCB",18-04-2026 09:00:00,25.5626095,84.663264,OZONE,4,29,9
India,Bihar,Aurangabad,"Gurdeo Nagar, Aurangabad - BSPCB",18-04-2026 09:00:00,24.75746,84.366208,CO,60,102,102
India,Bihar,Begusarai,"Lohiyanagar, Begusarai - BSPCB",18-04-2026 09:00:00,25.42742023,86.13886079,PM10,56,88,72
India,Andhra_Pradesh,Chittoor,"Gangineni Cheruvu, Chittoor - APPCB",18-04-2026 09:00:00,13.204880,79.097889,CO,8,24,10
India,Andhra_Pradesh,Chittoor,"Gangineni Cheruvu, Chittoor - APPCB",18-04-2026 09:00:00,13.204880,79.097889,OZONE,18,44,21
India,Andhra_Pradesh,Eluru,"District Court, Eluru - APPCB",18-04-2026 09:00:00,16.711754,81.092095,PM2.5,37,68,50
India,Andhra_Pradesh,Eluru,"District Court, Eluru - APPCB",18-04-2026 09:00:00,16.711754,81.092095,NH3,1,1,1
India,Andhra_Pradesh,Guntur,"Rajendra Nagar North, Guntur - APPCB",18-04-2026 09:00:00,16.316553,80.413302,CO,6,35,15
India,Assam,Nagaon,"Christianpatty, Nagaon - PCBA",18-04-2026 09:00:00,26.349082,92.68449,CO,12,25,22
India,Assam,Silchar,"Tarapur, Silchar - PCBA",18-04-2026 09:00:00,24.82827,92.79525,NO2,19,26,24
India,Assam,Sivasagar,"Girls College, Sivasagar - PCBA",18-04-2026 09:00:00,26.987634,94.636574,NO2,28,52,35
India,Bihar,Araria,"Kharahiya Basti, Araria - BSPCB",18-04-2026 09:00:00,26.146529,87.454184,CO,4,51,20
India,Bihar,Kishanganj,"SDM Office_Khagra, Kishanganj - BSPCB",18-04-2026 09:00:00,26.0881305,87.93840336,NH3,3,4,3
India,Bihar,Manguraha,"Forest Rest House, Manguraha - BSPCB",18-04-2026 09:00:00,27.308328,84.531742,PM2.5,90,500,230
India,Andhra_Pradesh,Kadapa,"Yerramukkapalli, Kadapa - APPCB",18-04-2026 09:00:00,14.465052,78.824187,NO2,17,27,24
India,Andhra_Pradesh,Kadapa,"Yerramukkapalli, Kadapa - APPCB",18-04-2026 09:00:00,14.465052,78.824187,SO2,11,18,16
India,Bihar,Bettiah,"Kamalnath Nagar, Bettiah - BSPCB",18-04-2026 09:00:00,26.80365,84.51954,SO2,42,54,50
India,Bihar,Bettiah,"Kamalnath Nagar, Bettiah - BSPCB",18-04-2026 09:00:00,26.80365,84.51954,CO,26,49,34
India,Delhi,Delhi,"Chandni Chowk, Delhi - IITM",18-04-2026 09:00:00,28.656756,77.227234,NH3,8,24,14
India,Delhi,Delhi,"Chandni Chowk, Delhi - IITM",18-04-2026 09:00:00,28.656756,77.227234,SO2,11,36,18
India,Delhi,Delhi,"Commonwealth Sports Complex, Delhi - DPCC",18-04-2026 09:00:00,28.615828 ,77.271992 ,PM2.5,2,334,87
India,Delhi,Delhi,"Commonwealth Sports Complex, Delhi - DPCC",18-04-2026 09:00:00,28.615828 ,77.271992 ,NO2,22,149,81
India,Delhi,Delhi,"Commonwealth Sports Complex, Delhi - DPCC",18-04-2026 09:00:00,28.615828 ,77.271992 ,CO,32,106,66
India,Delhi,Delhi,"Commonwealth Sports Complex, Delhi - DPCC",18-04-2026 09:00:00,28.615828 ,77.271992 ,OZONE,5,303,8
India,Delhi,Delhi,"DTU, Delhi - CPCB",18-04-2026 09:00:00,28.7500499,77.1112615,PM2.5,23,418,162
India,Delhi,Delhi,"DTU, Delhi - CPCB",18-04-2026 09:00:00,28.7500499,77.1112615,SO2,20,28,24
India,Delhi,Delhi,"Dr. Karni Singh Shooting Range, Delhi - DPCC",18-04-2026 09:00:00,28.498571,77.264840,CO,28,101,79
India,Delhi,Delhi,"IGI Airport (T3), Delhi - IMD",18-04-2026 09:00:00,28.5627763,77.1180053,PM10,8,251,131
India,Delhi,Delhi,"IGNOU_Maidan Garhi, Delhi - DPCC",18-04-2026 09:00:00,28.493624 ,77.201159 ,NO2,6,118,45
India,Bihar,Muzaffarpur,"MIT-Daudpur Kothi, Muzaffarpur - BSPCB",18-04-2026 09:00:00,26.1403345,85.3650192,SO2,6,15,11
India,Bihar,Muzaffarpur,"Muzaffarpur Collectorate, Muzaffarpur - BSPCB",18-04-2026 09:00:00,26.1209,85.3647,PM2.5,72,107,84
India,Bihar,Patna,"DRM Office Danapur, Patna - BSPCB",18-04-2026 09:00:00,25.586562,85.043586,PM2.5,26,176,59
India,Bihar,Patna,"DRM Office Danapur, Patna - BSPCB",18-04-2026 09:00:00,25.586562,85.043586,PM10,85,109,96
India,Bihar,Patna,"Govt. High School Shikarpur, Patna - BSPCB",18-04-2026 09:00:00,25.592539,85.227158,NO2,7,14,10
India,Bihar,Patna,"IGSC Planetarium Complex, Patna - BSPCB",18-04-2026 09:00:00,25.610369,85.132568,PM2.5,64,107,84
India,Bihar,Patna,"IGSC Planetarium Complex, Patna - BSPCB",18-04-2026 09:00:00,25.610369,85.132568,NO2,2,2,2
India,Bihar,Patna,"Muradpur, Patna - BSPCB",18-04-2026 09:00:00,25.619651,85.147382,NO2,10,12,11
India,Chhattisgarh,Raipur,"Krishak Nagar, Raipur - CECB",18-04-2026 09:00:00,21.237755,81.705301,PM2.5,59,187,80
India,Chhattisgarh,Tumidih,"OP Jindal Industrial Park, Tumidih - CECB",18-04-2026 09:00:00,22.06631475,83.33820077,PM2.5,33,80,52
India,Delhi,Delhi,"Alipur, Delhi - DPCC",18-04-2026 09:00:00,28.815329,77.153010,SO2,NA,NA,NA
India,Delhi,Delhi,"Alipur, Delhi - DPCC",18-04-2026 09:00:00,28.815329,77.153010,CO,NA,NA,NA
India,Delhi,Delhi,"Alipur, Delhi - DPCC",18-04-2026 09:00:00,28.815329,77.153010,OZONE,NA,NA,NA
India,Delhi,Delhi,"Anand Vihar, Delhi - DPCC",18-04-2026 09:00:00,28.647622,77.3158090,NH3,10,20,13
India,Delhi,Delhi,"Anand Vihar, Delhi - DPCC",18-04-2026 09:00:00,28.647622,77.3158090,SO2,22,50,30
India,Delhi,Delhi,"Ashok Vihar, Delhi - DPCC",18-04-2026 09:00:00,28.695381,77.181665,PM10,46,455,193
India,Bihar,Sasaram,"Dada Peer, Sasaram - BSPCB",18-04-2026 09:00:00,24.952822,84.002396,CO,30,106,52
India,Bihar,Siwan,"Chitragupta Nagar, Siwan - BSPCB",18-04-2026 09:00:00,26.2271665,84.3570427,PM2.5,27,75,42
India,Bihar,Siwan,"Chitragupta Nagar, Siwan - BSPCB",18-04-2026 09:00:00,26.2271665,84.3570427,NO2,2,2,2
India,Bihar,Siwan,"Chitragupta Nagar, Siwan - BSPCB",18-04-2026 09:00:00,26.2271665,84.3570427,NH3,1,2,1
India,Bihar,Siwan,"Chitragupta Nagar, Siwan - BSPCB",18-04-2026 09:00:00,26.2271665,84.3570427,SO2,5,8,6
India,Bihar,Siwan,"Chitragupta Nagar, Siwan - BSPCB",18-04-2026 09:00:00,26.2271665,84.3570427,CO,52,106,58
India,Chandigarh,Chandigarh,"Sector-25, Chandigarh - CPCC",18-04-2026 09:00:00,30.751462,76.762879,CO,6,43,18
India,Chandigarh,Chandigarh,"Sector-53, Chandigarh - CPCC",18-04-2026 09:00:00,30.719859,76.738637,PM2.5,17,157,63
India,Chhattisgarh,Korba,"Rampur, Korba - CECB",18-04-2026 09:00:00,22.368195,82.746431,SO2,17,99,53
India,Chhattisgarh,Korba,"Rampur, Korba - CECB",18-04-2026 09:00:00,22.368195,82.746431,CO,12,52,33
India,Chhattisgarh,Korba,"Urja Nagar, Korba - CECB",18-04-2026 09:00:00,22.348441,82.549611,NH3,1,1,1
India,Chhattisgarh,Korba,"Urja Nagar, Korba - CECB",18-04-2026 09:00:00,22.348441,82.549611,OZONE,2,27,2
India,Chhattisgarh,Milupara,"Govt. Higher Secondary School, Milupara - CECB",18-04-2026 09:00:00,22.1910172,83.5197009,PM10,70,166,97
India,Chhattisgarh,Milupara,"Govt. Higher Secondary School, Milupara - CECB",18-04-2026 09:00:00,22.1910172,83.5197009,SO2,12,16,14
India,Chhattisgarh,Raipur,"Bhatagaon New ISBT, Raipur - CECB",18-04-2026 09:00:00,21.219665,81.630094,NH3,2,2,2
India,Delhi,Delhi,"Aya Nagar, Delhi - IMD",18-04-2026 09:00:00,28.4706914,77.1099364,NO2,16,73,37
India,Delhi,Delhi,"Bawana, Delhi - DPCC",18-04-2026 09:00:00,28.776200,77.051074,NH3,5,9,6
India,Delhi,Delhi,"Burari Crossing, Delhi - IMD",18-04-2026 09:00:00,28.7256504,77.2011573,NO2,14,76,38
India,Delhi,Delhi,"CRRI Mathura Road, Delhi - IMD",18-04-2026 09:00:00,28.5512005,77.2735737,PM10,56,403,200
India,Delhi,Delhi,"Cantonment Area, Delhi - DPCC ",18-04-2026 09:00:00,28.594169 ,77.125100 ,SO2,21,27,23
India,Delhi,Delhi,"Cantonment Area, Delhi - DPCC ",18-04-2026 09:00:00,28.594169 ,77.125100 ,OZONE,3,54,5
India,Bihar,Purnia,"Mariam Nagar, Purnia - BSPCB",18-04-2026 09:00:00,25.366336,87.117468,SO2,17,30,22
India,Bihar,Purnia,"Mariam Nagar, Purnia - BSPCB",18-04-2026 09:00:00,25.366336,87.117468,OZONE,3,81,15
India,Bihar,Rajgir,"Dangi Tola, Rajgir - BSPCB",18-04-2026 09:00:00,25.03280,85.41948,PM2.5,38,200,89
India,Bihar,Saharsa,"Police Line, Saharsa - BSPCB",18-04-2026 09:00:00,25.892357,86.590325,PM2.5,8,203,58
India,Chhattisgarh,Bhilai,"Civic Center, Bhilai - Bhilai Steel Plant",18-04-2026 09:00:00,21.185571,81.343175,PM10,46,73,50
India,Chhattisgarh,Bhilai,"Civic Center, Bhilai - Bhilai Steel Plant",18-04-2026 09:00:00,21.185571,81.343175,SO2,7,10,8
India,Chhattisgarh,Chhal,"Nawapara SECL Colony, Chhal - CECB",18-04-2026 09:00:00,22.118125,83.140608,NH3,5,5,5
India,Bihar,Munger,"Town Hall, Munger - BSPCB",18-04-2026 09:00:00,25.376776,86.471523,PM10,23,57,37
India,Bihar,Munger,"Town Hall, Munger - BSPCB",18-04-2026 09:00:00,25.376776,86.471523,CO,25,32,28
India,Bihar,Muzaffarpur,"Buddha Colony, Muzaffarpur - BSPCB",18-04-2026 09:00:00,26.11442,85.39813,PM10,55,119,88
India,Gujarat,Ahmedabad,"SVPI Airport Hansol, Ahmedabad - IITM",18-04-2026 09:00:00,23.076793,72.627874,NO2,14,106,45
India,Gujarat,Ahmedabad,"SVPI Airport Hansol, Ahmedabad - IITM",18-04-2026 09:00:00,23.076793,72.627874,SO2,8,125,36
India,Gujarat,Ahmedabad,"SVPI Airport Hansol, Ahmedabad - IITM",18-04-2026 09:00:00,23.076793,72.627874,OZONE,4,87,15
India,Gujarat,Gandhinagar,"GIFT City, Gandhinagar - IITM",18-04-2026 09:00:00,23.163798,72.677768,PM2.5,25,82,54
India,Gujarat,Gandhinagar,"GIFT City, Gandhinagar - IITM",18-04-2026 09:00:00,23.163798,72.677768,PM10,122,338,173
India,Gujarat,Gandhinagar,"GIFT City, Gandhinagar - IITM",18-04-2026 09:00:00,23.163798,72.677768,SO2,6,68,17
India,Gujarat,Gandhinagar,"GIFT City, Gandhinagar - IITM",18-04-2026 09:00:00,23.163798,72.677768,CO,1,60,42
India,Gujarat,Gandhinagar,"IIPHG Lekawada, Gandhinagar - IITM",18-04-2026 09:00:00,23.243639,72.68994,CO,20,98,55
India,Gujarat,Gandhinagar,"Sector-10, Gandhinagar - GPCB",18-04-2026 09:00:00,23.221714,72.654328,NO2,11,40,20
India,Delhi,Delhi,"IGNOU_Maidan Garhi, Delhi - DPCC",18-04-2026 09:00:00,28.493624 ,77.201159 ,SO2,3,23,10
India,Delhi,Delhi,"IHBAS, Dilshad Garden, Delhi - CPCB",18-04-2026 09:00:00,28.6811736,77.3025234,CO,42,101,55
India,Delhi,Delhi,"ITO, Delhi - CPCB",18-04-2026 09:00:00,28.628624,77.241060,NO2,1,91,46
India,Delhi,Delhi,"ITO, Delhi - CPCB",18-04-2026 09:00:00,28.628624,77.241060,OZONE,17,72,18
India,Delhi,Delhi,"JNU, Delhi - DPCC",18-04-2026 09:00:00,28.540721 ,77.168544 ,PM2.5,27,268,128
India,Delhi,Delhi,"Jahangirpuri, Delhi - DPCC",18-04-2026 09:00:00,28.732820,77.170633,CO,2,102,12
India,Delhi,Delhi,"Jawaharlal Nehru Stadium, Delhi - DPCC",18-04-2026 09:00:00,28.580280,77.233829,PM2.5,12,333,138
India,Delhi,Delhi,"Rohini, Delhi - DPCC",18-04-2026 09:00:00,28.732528,77.119920,NH3,11,16,14
India,Delhi,Delhi,"Shadipur, Delhi - CPCB",18-04-2026 09:00:00,28.6514781,77.1473105,PM10,25,170,83
India,Delhi,Delhi,"Shadipur, Delhi - CPCB",18-04-2026 09:00:00,28.6514781,77.1473105,NH3,6,11,7
India,Delhi,Delhi,"Sirifort, Delhi - CPCB",18-04-2026 09:00:00,28.5504249,77.2159377,SO2,27,40,31
India,Delhi,Delhi,"Sri Aurobindo Marg, Delhi - DPCC",18-04-2026 09:00:00,28.531346,77.190156,NH3,6,11,8
India,Delhi,Delhi,"Sri Aurobindo Marg, Delhi - DPCC",18-04-2026 09:00:00,28.531346,77.190156,SO2,6,33,13
India,Delhi,Delhi,"Sri Aurobindo Marg, Delhi - DPCC",18-04-2026 09:00:00,28.531346,77.190156,CO,6,80,32
India,Delhi,Delhi,"Talkatora Garden, Delhi - DPCC",18-04-2026 09:00:00,28.621810,77.1944633,PM2.5,2,321,133
India,Gujarat,Ahmedabad,"Maninagar, Ahmedabad - GPCB",18-04-2026 09:00:00,23.002657,72.591912,SO2,35,86,63
India,Gujarat,Ahmedabad,"Maninagar, Ahmedabad - GPCB",18-04-2026 09:00:00,23.002657,72.591912,OZONE,42,100,48
India,Gujarat,Ahmedabad,"Raikhad, Ahmedabad - IITM",18-04-2026 09:00:00,23.020509,72.579261,NO2,15,124,51
India,Gujarat,Ahmedabad,"Raikhad, Ahmedabad - IITM",18-04-2026 09:00:00,23.020509,72.579261,NH3,5,14,8
India,Gujarat,Ahmedabad,"Raikhad, Ahmedabad - IITM",18-04-2026 09:00:00,23.020509,72.579261,OZONE,1,44,11
India,Gujarat,Ahmedabad,"Rakhial, Ahmedabad - IITM",18-04-2026 09:00:00,23.016834,72.625775,OZONE,3,75,6
India,Gujarat,Ahmedabad,"SAC ISRO Bopal, Ahmedabad - IITM",18-04-2026 09:00:00,23.041137,72.456691,SO2,6,13,9
India,Gujarat,Ahmedabad,"SAC ISRO Satellite, Ahmedabad - IITM",18-04-2026 09:00:00,23.023389,72.515201,NO2,6,31,13
India,Delhi,Delhi,"Jawaharlal Nehru Stadium, Delhi - DPCC",18-04-2026 09:00:00,28.580280,77.233829,SO2,14,40,22
India,Delhi,Delhi,"Lodhi Road, Delhi - IMD",18-04-2026 09:00:00,28.5918245,77.2273074,PM2.5,4,321,101
India,Delhi,Delhi,"Lodhi Road, Delhi - IMD",18-04-2026 09:00:00,28.5918245,77.2273074,OZONE,21,233,26
India,Delhi,Delhi,"Major Dhyan Chand National Stadium, Delhi - DPCC",18-04-2026 09:00:00,28.611281,77.237738,PM2.5,2,325,102
India,Delhi,Delhi,"Mandir Marg, Delhi - DPCC",18-04-2026 09:00:00,28.636429,77.201067,PM2.5,NA,NA,NA
India,Delhi,Delhi,"Mandir Marg, Delhi - DPCC",18-04-2026 09:00:00,28.636429,77.201067,NO2,1,158,42
India,Delhi,Delhi,"Mundka, Delhi - DPCC",18-04-2026 09:00:00,28.684678,77.076574,NO2,42,111,63
India,Delhi,Delhi,"Patparganj, Delhi - DPCC",18-04-2026 09:00:00,28.623763,77.287209,NH3,10,14,12
India,Delhi,Delhi,"Patparganj, Delhi - DPCC",18-04-2026 09:00:00,28.623763,77.287209,SO2,2,42,16
India,Delhi,Delhi,"Pusa, Delhi - DPCC",18-04-2026 09:00:00,28.639652,77.146275,CO,11,103,76
India,Delhi,Delhi,"Pusa, Delhi - IMD",18-04-2026 09:00:00,28.636110,77.173332,PM2.5,6,299,96
India,Delhi,Delhi,"Pusa, Delhi - IMD",18-04-2026 09:00:00,28.636110,77.173332,NO2,16,98,44
India,Delhi,Delhi,"R K Puram, Delhi - DPCC",18-04-2026 09:00:00,28.563262,77.186937,OZONE,7,89,8
India,Delhi,Delhi,"Nehru Nagar, Delhi - DPCC",18-04-2026 09:00:00,28.567890,77.250515,SO2,12,110,30
India,Delhi,Delhi,"North Campus, DU, Delhi - IMD",18-04-2026 09:00:00,28.6573814,77.1585447,NO2,16,138,51
India,Delhi,Delhi,"Okhla Phase-2, Delhi - DPCC",18-04-2026 09:00:00,28.530785,77.271255,NH3,11,33,19
India,Delhi,Delhi,"Patparganj, Delhi - DPCC",18-04-2026 09:00:00,28.623763,77.287209,PM10,47,426,183
India,Delhi,Delhi,"Vivek Vihar, Delhi - DPCC",18-04-2026 09:00:00,28.672342,77.315260,NO2,37,143,70
India,Gujarat,Ahmedabad,"Gyaspur, Ahmedabad - IITM",18-04-2026 09:00:00,22.977134,72.553024,NH3,5,57,19
India,Delhi,Delhi,"NSUT Jaffarpur, Delhi - DPCC",18-04-2026 09:00:00,28.594004 ,76.909423 ,PM2.5,22,356,175
India,Delhi,Delhi,"NSUT Jaffarpur, Delhi - DPCC",18-04-2026 09:00:00,28.594004 ,76.909423 ,NO2,7,83,35
India,Haryana,Gurugram,"Sector-51, Gurugram - HSPCB",18-04-2026 09:00:00,28.4227,77.0667,NH3,6,10,8
India,Haryana,Gurugram,"Teri Gram, Gurugram - HSPCB",18-04-2026 09:00:00,28.4275,77.1465,PM10,107,136,119
India,Haryana,Gurugram,"Teri Gram, Gurugram - HSPCB",18-04-2026 09:00:00,28.4275,77.1465,CO,20,55,23
India,Haryana,Gurugram,"Vikas Sadan, Gurugram - HSPCB",18-04-2026 09:00:00,28.4501238,77.0263051,PM10,100,160,117
India,Haryana,Hisar,"Urban Estate-II, Hisar - HSPCB",18-04-2026 09:00:00,29.140560,75.744941,PM2.5,5,48,20
India,Haryana,Hisar,"Urban Estate-II, Hisar - HSPCB",18-04-2026 09:00:00,29.140560,75.744941,SO2,3,25,13
India,Haryana,Hisar,"Urban Estate-II, Hisar - HSPCB",18-04-2026 09:00:00,29.140560,75.744941,CO,25,48,32
India,Haryana,Jind,"Police Lines, Jind - HSPCB",18-04-2026 09:00:00,29.307814,76.337619,NH3,4,6,5
India,Haryana,Jind,"Police Lines, Jind - HSPCB",18-04-2026 09:00:00,29.307814,76.337619,CO,6,38,25
India,Haryana,Sirsa,"F-Block, Sirsa - HSPCB",18-04-2026 09:00:00,29.536400,75.015800,NO2,NA,NA,NA
India,Haryana,Sirsa,"F-Block, Sirsa - HSPCB",18-04-2026 09:00:00,29.536400,75.015800,NH3,NA,NA,NA
India,Haryana,Yamuna Nagar,"Gobind Pura, Yamuna Nagar - HSPCB",18-04-2026 09:00:00,30.1480566,77.2893471,PM10,NA,NA,NA
India,Himachal Pradesh,Baddi,"HIMUDA Complex Phase-1, Baddi - HPPCB",18-04-2026 09:00:00,30.943887,76.801991,PM10,36,295,131
India,Himachal Pradesh,Baddi,"HIMUDA Complex Phase-1, Baddi - HPPCB",18-04-2026 09:00:00,30.943887,76.801991,OZONE,42,130,78
India,Jammu_and_Kashmir,Pampore,"Khrew, Pampore - JKPCC",18-04-2026 09:00:00,34.031606,75.009712,PM2.5,5,30,18
India,Jammu_and_Kashmir,Srinagar,"Khunmoh, Srinagar - JKPCC",18-04-2026 09:00:00,34.06313,74.96017,PM2.5,NA,NA,NA
India,Jammu_and_Kashmir,Srinagar,"Khunmoh, Srinagar - JKPCC",18-04-2026 09:00:00,34.06313,74.96017,PM10,NA,NA,NA
India,Jammu_and_Kashmir,Srinagar,"Rajbagh, Srinagar - JKPCC",18-04-2026 09:00:00,34.066206,74.819820,CO,6,22,14
India,Jharkhand,Jorapokhar,"Tata Stadium, Jorapokhar - JSPCB",18-04-2026 09:00:00,23.707909,86.414670,NO2,8,8,8
India,Karnataka,Bagalkot,"Vidayagiri, Bagalkot - KSPCB",18-04-2026 09:00:00,16.172806,75.659694,NH3,1,1,1
India,Karnataka,Bagalkot,"Vidayagiri, Bagalkot - KSPCB",18-04-2026 09:00:00,16.172806,75.659694,OZONE,12,12,12
India,Karnataka,Belgaum,"Ramteerth Nagar, Belgaum - KSPCB",18-04-2026 09:00:00,15.888653,74.541751,OZONE,18,20,19
India,Karnataka,Bengaluru,"BTM Layout, Bengaluru - CPCB",18-04-2026 09:00:00,12.9135218,77.5950804,PM10,88,89,89
India,Karnataka,Bengaluru,"BTM Layout, Bengaluru - CPCB",18-04-2026 09:00:00,12.9135218,77.5950804,SO2,18,18,18
India,Haryana,Kaithal,"Rishi Nagar, Kaithal - HSPCB",18-04-2026 09:00:00,29.8006,76.4155,PM2.5,108,245,157
India,Haryana,Karnal,"Sector-12, Karnal - HSPCB",18-04-2026 09:00:00,29.695300,77.002700,NO2,6,7,6
India,Haryana,Karnal,"Sector-12, Karnal - HSPCB",18-04-2026 09:00:00,29.695300,77.002700,SO2,5,10,7
India,Haryana,Kurukshetra,"Sector-7, Kurukshetra - HSPCB",18-04-2026 09:00:00,29.966942,76.875879,NH3,6,7,6
India,Haryana,Mandikhera,"General Hospital, Mandikhera(Nuh) - HSPCB",18-04-2026 09:00:00,27.9002,76.9938,NH3,9,10,10
India,Haryana,Mandikhera,"General Hospital, Mandikhera(Nuh) - HSPCB",18-04-2026 09:00:00,27.9002,76.9938,SO2,33,38,35
India,Haryana,Manesar,"Sector-2 IMT, Manesar - HSPCB",18-04-2026 09:00:00,28.360699,76.936090,PM2.5,70,344,142
India,Haryana,Manesar,"Sector-2 IMT, Manesar - HSPCB",18-04-2026 09:00:00,28.360699,76.936090,OZONE,10,50,15
India,Gujarat,Gandhinagar,"Sector-10, Gandhinagar - GPCB",18-04-2026 09:00:00,23.221714,72.654328,NH3,1,3,1
India,Gujarat,Mehsana,"Sadanand Nagar, Mehsana - Nexteng Enviro",18-04-2026 09:00:00,23.593150,72.372792,CO,52,78,56
India,Gujarat,Rajkot,"Mavdi, Rajkot - Nexteng Enviro ",18-04-2026 09:00:00,22.248853,70.776774,PM2.5,44,91,70
India,Gujarat,Rajkot,"Mavdi, Rajkot - Nexteng Enviro ",18-04-2026 09:00:00,22.248853,70.776774,NH3,1,2,1
India,Gujarat,Rajkot,"Mavdi, Rajkot - Nexteng Enviro ",18-04-2026 09:00:00,22.248853,70.776774,SO2,12,115,29
India,Gujarat,Surat,"Katargam, Surat - Nexteng Enviro",18-04-2026 09:00:00,21.217779 ,72.834787 ,CO,38,66,42
India,Gujarat,Surat,"Science Center, Surat - SMC",18-04-2026 09:00:00,21.170046,72.795405,PM10,NA,NA,NA
India,Gujarat,Vapi,"Phase-1 GIDC, Vapi - GPCB",18-04-2026 09:00:00,20.362421,72.918013,NH3,3,5,4
India,Gujarat,Vapi,"Phase-1 GIDC, Vapi - GPCB",18-04-2026 09:00:00,20.362421,72.918013,SO2,22,31,25
India,Gujarat,Vatva,"Phase-4 GIDC, Vatva - GPCB",18-04-2026 09:00:00,22.969611,72.643500,CO,10,92,21
India,Haryana,Ambala,"Patti Mehar, Ambala - HSPCB",18-04-2026 09:00:00,30.379589,76.778328,PM2.5,85,316,164
India,Haryana,Bahadurgarh,"Arya Nagar, Bahadurgarh - HSPCB",18-04-2026 09:00:00,28.6701,76.9254,NO2,12,14,13
India,Haryana,Bahadurgarh,"Arya Nagar, Bahadurgarh - HSPCB",18-04-2026 09:00:00,28.6701,76.9254,SO2,6,7,6
India,Haryana,Bahadurgarh,"Arya Nagar, Bahadurgarh - HSPCB",18-04-2026 09:00:00,28.6701,76.9254,OZONE,23,27,24
India,Haryana,Palwal,"Shyam Nagar, Palwal - HSPCB",18-04-2026 09:00:00,28.1485564,77.3320667,NH3,9,9,9
India,Haryana,Palwal,"Shyam Nagar, Palwal - HSPCB",18-04-2026 09:00:00,28.1485564,77.3320667,SO2,12,13,13
India,Haryana,Palwal,"Shyam Nagar, Palwal - HSPCB",18-04-2026 09:00:00,28.1485564,77.3320667,CO,10,28,28
India,Haryana,Panchgaon,"Amity University, Panchgaon - IITM",18-04-2026 09:00:00,28.3153,76.9143,PM2.5,38,381,124
India,Haryana,Panchgaon,"Amity University, Panchgaon - IITM",18-04-2026 09:00:00,28.3153,76.9143,OZONE,2,103,4
India,Haryana,Panipat,"Sector-18, Panipat - HSPCB",18-04-2026 09:00:00,29.432304,76.972765,NH3,2,3,2
India,Haryana,Rohtak,"MD University, Rohtak - HSPCB",18-04-2026 09:00:00,28.52123,76.37138,SO2,10,14,12
India,Haryana,Faridabad,"New Industrial Town, Faridabad - HSPCB",18-04-2026 09:00:00,28.39072,77.30059,CO,52,100,63
India,Haryana,Faridabad,"New Industrial Town, Faridabad - HSPCB",18-04-2026 09:00:00,28.39072,77.30059,OZONE,13,17,15
India,Haryana,Faridabad,"Sector 11, Faridabad - HSPCB",18-04-2026 09:00:00,28.376058,77.315741,PM10,40,500,203
India,Haryana,Faridabad,"Sector 30, Faridabad - HSPCB",18-04-2026 09:00:00,28.4417,77.3217,PM2.5,53,82,60
India,Haryana,Gurugram,"NISE Gwal Pahari, Gurugram - IMD",18-04-2026 09:00:00,28.422681,77.148944,CO,48,76,55
India,Haryana,Ballabgarh,"Nathu Colony, Ballabgarh - HSPCB",18-04-2026 09:00:00,28.3419248,77.319699,SO2,4,7,5
India,Haryana,Ballabgarh,"Nathu Colony, Ballabgarh - HSPCB",18-04-2026 09:00:00,28.3419248,77.319699,CO,1,81,63
India,Haryana,Charkhi Dadri,"Mini Secretariat, Charkhi Dadri - HSPCB",18-04-2026 09:00:00,28.593883,76.270653,PM10,17,293,136
India,Haryana,Charkhi Dadri,"Mini Secretariat, Charkhi Dadri - HSPCB",18-04-2026 09:00:00,28.593883,76.270653,CO,10,25,15
India,Haryana,Dharuhera,"Municipal Corporation Office, Dharuhera -  HSPCB",18-04-2026 09:00:00,28.206800,76.799700,PM2.5,71,170,98
India,Madhya Pradesh,Dewas,"Bhopal Chauraha, Dewas - MPPCB",18-04-2026 09:00:00,22.9682591,76.064118,CO,24,72,35
India,Madhya Pradesh,Gwalior,"City Center, Gwalior - MPPCB",18-04-2026 09:00:00,26.203442,78.193251,PM2.5,15,67,36
India,Madhya Pradesh,Gwalior,"City Center, Gwalior - MPPCB",18-04-2026 09:00:00,26.203442,78.193251,OZONE,69,103,85
India,Madhya Pradesh,Gwalior,"Deen Dayal Nagar, Gwalior - MPPCB",18-04-2026 09:00:00,26.259242,78.216432,NH3,5,9,6
India,Madhya Pradesh,Gwalior,"Maharaj Bada, Gwalior - MPPCB",18-04-2026 09:00:00,26.200388,78.147714,PM2.5,25,257,79
India,Madhya Pradesh,Gwalior,"Maharaj Bada, Gwalior - MPPCB",18-04-2026 09:00:00,26.200388,78.147714,NO2,16,80,41
India,Madhya Pradesh,Gwalior,"Maharaj Bada, Gwalior - MPPCB",18-04-2026 09:00:00,26.200388,78.147714,OZONE,1,188,69
India,Madhya Pradesh,Indore,"Airport Area, Indore - IMC",18-04-2026 09:00:00,22.7289,75.8076,NO2,4,7,5
India,Madhya Pradesh,Indore,"Chhoti Gwaltoli, Indore - MPPCB",18-04-2026 09:00:00,22.4310,75.5213,NH3,5,22,17
India,Karnataka,Vijayapura,"Ibrahimpur, Vijayapura - KSPCB",18-04-2026 09:00:00,16.802639,75.722694,OZONE,11,17,16
India,Karnataka,Yadgir,"Collector Office, Yadgir - KSPCB",18-04-2026 09:00:00,16.7602,77.1428,NO2,9,19,12
India,Karnataka,Yadgir,"Collector Office, Yadgir - KSPCB",18-04-2026 09:00:00,16.7602,77.1428,NH3,1,1,1
India,Karnataka,Yadgir,"Collector Office, Yadgir - KSPCB",18-04-2026 09:00:00,16.7602,77.1428,CO,18,32,24
India,Karnataka,Yadgir,"Collector Office, Yadgir - KSPCB",18-04-2026 09:00:00,16.7602,77.1428,OZONE,9,31,29
India,Kerala,Kannur,"Thavakkara, Kannur - Kerala PCB",18-04-2026 09:00:00,11.875000,75.373200,NH3,1,1,1
India,Kerala,Kollam,"Polayathode, Kollam - Kerala PCB",18-04-2026 09:00:00,8.8787,76.6073,PM10,70,82,75
India,Kerala,Kollam,"Polayathode, Kollam - Kerala PCB",18-04-2026 09:00:00,8.8787,76.6073,NO2,8,9,9
India,Kerala,Thiruvananthapuram,"Kariavattom, Thiruvananthapuram - Kerala PCB",18-04-2026 09:00:00,8.563700,76.886500,PM2.5,NA,NA,NA
India,Madhya Pradesh,Indore,"Maguda Nagar, Indore - IMC",18-04-2026 09:00:00,22.7524,75.8872,PM2.5,28,128,58
India,Madhya Pradesh,Indore,"Regional Park, Indore - IMC",18-04-2026 09:00:00,22.6780,75.8559,PM10,10,76,40
India,Madhya Pradesh,Indore,"Residency Area, Indore - IMC",18-04-2026 09:00:00,22.7084,75.8815,PM2.5,25,85,50
India,Madhya Pradesh,Indore,"Residency Area, Indore - IMC",18-04-2026 09:00:00,22.7084,75.8815,CO,29,62,43
India,Madhya Pradesh,Jabalpur,"Govindh Bhavan Colony, Jabalpur - JMC",18-04-2026 09:00:00,23.163174,79.973061,OZONE,5,293,7
India,Madhya Pradesh,Jabalpur,"Gupteshwar, Jabalpur - JMC",18-04-2026 09:00:00,23.142888,79.916147,PM10,69,163,112
India,Karnataka,Chikkamagaluru,"Kalyana Nagara, Chikkamagaluru - KSPCB",18-04-2026 09:00:00,13.328028,75.797056,PM2.5,9,83,34
India,Karnataka,Chikkamagaluru,"Kalyana Nagara, Chikkamagaluru - KSPCB",18-04-2026 09:00:00,13.328028,75.797056,NO2,20,27,23
India,Karnataka,Chikkamagaluru,"Kalyana Nagara, Chikkamagaluru - KSPCB",18-04-2026 09:00:00,13.328028,75.797056,OZONE,12,57,44
India,Karnataka,Dharwad,"Kalabhavan, Dharwad - KSPCB",18-04-2026 09:00:00,15.459706,75.008381,OZONE,40,41,40
India,Karnataka,Hubballi,"Lingaraj Nagar, Hubballi - KSPCB",18-04-2026 09:00:00,15.3714823,75.1160168,OZONE,23,30,24
India,Karnataka,Kalaburagi,"Mahatma Basaveswar Colony, Kalaburgi - KSPCB",18-04-2026 09:00:00,17.336318,76.847397,PM2.5,22,59,40
India,Karnataka,Bengaluru,"Bapuji Nagar, Bengaluru - KSPCB",18-04-2026 09:00:00,12.951913,77.539784,NO2,26,38,29
India,Karnataka,Bengaluru,"Bapuji Nagar, Bengaluru - KSPCB",18-04-2026 09:00:00,12.951913,77.539784,NH3,1,3,2
India,Karnataka,Bengaluru,"Hombegowda Nagar, Bengaluru - KSPCB",18-04-2026 09:00:00,12.938539,77.590100,PM2.5,63,99,81
India,Karnataka,Bengaluru,"Hombegowda Nagar, Bengaluru - KSPCB",18-04-2026 09:00:00,12.938539,77.590100,NO2,21,79,33
India,Karnataka,Bengaluru,"Hombegowda Nagar, Bengaluru - KSPCB",18-04-2026 09:00:00,12.938539,77.590100,NH3,2,4,3
India,Karnataka,Bengaluru,"Jayanagar 5th Block, Bengaluru - KSPCB",18-04-2026 09:00:00,12.920984,77.584908,NO2,14,18,16
India,Karnataka,Bengaluru,"Jigani, Bengaluru - KSPCB",18-04-2026 09:00:00,12.7816279,77.6299145,NH3,3,3,3
India,Karnataka,Bengaluru,"Kasturi Nagar, Bengaluru - KSPCB",18-04-2026 09:00:00,13.003872,77.664217,SO2,8,9,9
India,Karnataka,Bengaluru,"RVCE-Mailasandra, Bengaluru - KSPCB",18-04-2026 09:00:00,12.921418,77.502466,NH3,3,4,4
India,Karnataka,Bengaluru,"Shivapura_Peenya, Bengaluru - KSPCB",18-04-2026 09:00:00,13.0246342,77.5080115,OZONE,26,27,26
India,Karnataka,Chamarajanagar,"Urban, Chamarajanagar - KSPCB",18-04-2026 09:00:00,11.55358,76.55521,PM10,NA,NA,NA
India,Karnataka,Chamarajanagar,"Urban, Chamarajanagar - KSPCB",18-04-2026 09:00:00,11.55358,76.55521,NO2,14,29,19
India,Kerala,Thiruvananthapuram,"Plammoodu, Thiruvananthapuram - Kerala PCB",18-04-2026 09:00:00,8.5149093,76.9435879,OZONE,15,39,23
India,Kerala,Thrissur,"Corporation Ground, Thrissur - Kerala PCB",18-04-2026 09:00:00,10.532400,76.215900,SO2,NA,NA,NA
India,Madhya Pradesh,Bhopal,"Paryavaran Parisar, Bhopal - MPPCB",18-04-2026 09:00:00,23.210494,77.425409,NO2,18,83,30
India,Madhya Pradesh,Bhopal,"T T Nagar, Bhopal - MPPCB",18-04-2026 09:00:00,23.233584,77.400574,OZONE,46,268,72
India,Karnataka,Koppal,"Diwator Nagar, Koppal - KSPCB",18-04-2026 09:00:00,15.347630,76.181767,NO2,NA,NA,NA
India,Karnataka,Koppal,"Diwator Nagar, Koppal - KSPCB",18-04-2026 09:00:00,15.347630,76.181767,NH3,NA,NA,NA
India,Karnataka,Mangalore,"Kadri, Mangalore - KSPCB",18-04-2026 09:00:00,12.889250,74.853000,PM2.5,22,67,39
India,Karnataka,Ramanagara,"Vijay Nagar, Ramanagara - KSPCB",18-04-2026 09:00:00,12.733409,77.298051,PM10,NA,NA,NA
India,Karnataka,Shivamogga,"Vinoba Nagara, Shivamogga - KSPCB",18-04-2026 09:00:00,13.940000,75.555917,CO,18,35,34
India,Madhya Pradesh,Jabalpur,"Gupteshwar, Jabalpur - JMC",18-04-2026 09:00:00,23.142888,79.916147,CO,28,107,56
India,Madhya Pradesh,Jabalpur,"Marhatal, Jabalpur - MPPCB",18-04-2026 09:00:00,23.168606,79.932247,SO2,15,22,19
India,Madhya Pradesh,Jabalpur,"Suhagi, Jabalpur - JMC",18-04-2026 09:00:00,23.218135,79.957770,NH3,3,3,3
India,Maharashtra,Ahmednagar,"Tarakpur, Ahmednagar - MPCB",18-04-2026 09:00:00,19.10122,74.73339,NO2,NA,NA,NA
India,Maharashtra,Akola,"Ramdaspeth, Akola - MPCB",18-04-2026 09:00:00,20.719516,77.000253,SO2,19,56,31
India,Maharashtra,Akola,"Ramdaspeth, Akola - MPCB",18-04-2026 09:00:00,20.719516,77.000253,CO,18,29,20
India,Maharashtra,Ambernath,"Chinchpada, Ambernath - MPCB",18-04-2026 09:00:00,19.2157840,73.1997810,PM2.5,25,53,32
India,Maharashtra,Ambernath,"Chinchpada, Ambernath - MPCB",18-04-2026 09:00:00,19.2157840,73.1997810,SO2,3,23,8
India,Maharashtra,Ambernath,"Chinchpada, Ambernath - MPCB",18-04-2026 09:00:00,19.2157840,73.1997810,CO,2,16,6
India,Maharashtra,Ambernath,"Chinchpada, Ambernath - MPCB",18-04-2026 09:00:00,19.2157840,73.1997810,OZONE,3,41,5
India,Maharashtra,Amravati,"Shivneri Colony, Amravati - MPCB",18-04-2026 09:00:00,20.9402359,77.7895248,NO2,7,62,21
India,Maharashtra,Amravati,"Shri Shivaji Science College, Amravati - MPCB",18-04-2026 09:00:00,20.939198,77.765701,NO2,6,94,34
India,Maharashtra,Amravati,"Shri Shivaji Science College, Amravati - MPCB",18-04-2026 09:00:00,20.939198,77.765701,CO,24,117,51
India,Maharashtra,Mumbai,"Kherwadi_Bandra East, Mumbai - MPCB",18-04-2026 09:00:00,19.0632143,72.8456324,PM2.5,25,58,36
India,Maharashtra,Mumbai,"Kherwadi_Bandra East, Mumbai - MPCB",18-04-2026 09:00:00,19.0632143,72.8456324,NO2,2,21,9
India,Maharashtra,Mumbai,"Kherwadi_Bandra East, Mumbai - MPCB",18-04-2026 09:00:00,19.0632143,72.8456324,NH3,5,16,11
India,Maharashtra,Mumbai,"Kherwadi_Bandra East, Mumbai - MPCB",18-04-2026 09:00:00,19.0632143,72.8456324,SO2,4,5,4
India,Maharashtra,Mumbai,"Khindipada-Bhandup West, Mumbai - IITM",18-04-2026 09:00:00,19.1653323,72.922099,SO2,6,17,10
India,Maharashtra,Mumbai,"Khindipada-Bhandup West, Mumbai - IITM",18-04-2026 09:00:00,19.1653323,72.922099,CO,8,34,16
India,Maharashtra,Mumbai,"Malad West, Mumbai - IITM",18-04-2026 09:00:00,19.19709,72.82204,NO2,19,39,28
India,Maharashtra,Mumbai,"Malad West, Mumbai - IITM",18-04-2026 09:00:00,19.19709,72.82204,OZONE,6,39,12
India,Maharashtra,Mumbai,"Mazgaon, Mumbai - IITM",18-04-2026 09:00:00,18.96702,72.84214,PM2.5,39,81,59
India,Maharashtra,Dombivli,"Kalu Nagar, Dombivli - MPCB",18-04-2026 09:00:00,19.2268427 ,73.0788456 ,CO,9,24,16
India,Maharashtra,Dombivli,"Kalu Nagar, Dombivli - MPCB",18-04-2026 09:00:00,19.2268427 ,73.0788456 ,OZONE,1,35,4
India,Maharashtra,Hingoli,"Ashta Vinayak Nagar, Hingoli - MPCB",18-04-2026 09:00:00,19.710842,77.151824,CO,15,69,32
India,Maharashtra,Hingoli,"Ashta Vinayak Nagar, Hingoli - MPCB",18-04-2026 09:00:00,19.710842,77.151824,OZONE,32,218,68
India,Maharashtra,Jalna,"Old MIDC, Jalna - MPCB",18-04-2026 09:00:00,19.854616,75.905894,NO2,18,26,20
India,Maharashtra,Jalna,"Old MIDC, Jalna - MPCB",18-04-2026 09:00:00,19.854616,75.905894,OZONE,11,73,41
India,Maharashtra,Kolhapur,"Shivaji University, Kolhapur - MPCB",18-04-2026 09:00:00,16.6870449,74.2505872,PM2.5,20,50,39
India,Maharashtra,Kolhapur,"Shivaji University, Kolhapur - MPCB",18-04-2026 09:00:00,16.6870449,74.2505872,NO2,NA,NA,NA
India,Maharashtra,Kolhapur,"Sinchan Bhavan, Kolhapur - MPCB",18-04-2026 09:00:00,16.7143745,74.2426398,OZONE,8,91,18
India,Maharashtra,Latur,"Sawe Wadi, Latur - MPCB",18-04-2026 09:00:00,18.39963,76.57452,SO2,1,12,6
India,Maharashtra,Mahad,"Kamble Tarf Birwadi, Mahad - MPCB",18-04-2026 09:00:00,18.1023399,73.4783687,PM2.5,35,75,53
India,Maharashtra,Mahad,"Kamble Tarf Birwadi, Mahad - MPCB",18-04-2026 09:00:00,18.1023399,73.4783687,NO2,8,37,18
India,Maharashtra,Mira-Bhayandar,"Bhayandar West, Mira-Bhayandar - MPCB",18-04-2026 09:00:00,19.296481,72.840923,PM2.5,25,72,43
India,Maharashtra,Mira-Bhayandar,"Bhayandar West, Mira-Bhayandar - MPCB",18-04-2026 09:00:00,19.296481,72.840923,CO,16,43,24
India,Maharashtra,Mumbai,"Chakala-Andheri East, Mumbai - IITM",18-04-2026 09:00:00,19.11074,72.86084,SO2,1,19,7
India,Maharashtra,Mumbai,"Chakala-Andheri East, Mumbai - IITM",18-04-2026 09:00:00,19.11074,72.86084,CO,15,42,27
India,Maharashtra,Mumbai,"Chakala-Andheri East, Mumbai - IITM",18-04-2026 09:00:00,19.11074,72.86084,OZONE,9,69,34
India,Maharashtra,Mumbai,"Chembur, Mumbai - MPCB",18-04-2026 09:00:00,19.0364585,72.8954371,NH3,5,8,6
India,Maharashtra,Mumbai,"Chembur, Mumbai - MPCB",18-04-2026 09:00:00,19.0364585,72.8954371,SO2,4,11,6
India,Maharashtra,Mumbai,"Ghatkopar, Mumbai - BMC",18-04-2026 09:00:00,19.083694,72.920967,NO2,8,24,14
India,Maharashtra,Mumbai,"Ghatkopar, Mumbai - BMC",18-04-2026 09:00:00,19.083694,72.920967,NH3,5,16,10
India,Maharashtra,Bhiwandi,"Gokul Nagar, Bhiwandi - MPCB",18-04-2026 09:00:00,19.309073,73.057223,PM2.5,32,96,52
India,Maharashtra,Bhiwandi,"Gokul Nagar, Bhiwandi - MPCB",18-04-2026 09:00:00,19.309073,73.057223,PM10,43,118,68
India,Maharashtra,Chandrapur,"MIDC Khutala, Chandrapur - MPCB",18-04-2026 09:00:00,19.9775302,79.2337086,NO2,5,17,11
India,Maharashtra,Chandrapur,"MIDC Khutala, Chandrapur - MPCB",18-04-2026 09:00:00,19.9775302,79.2337086,OZONE,3,150,26
India,Maharashtra,Dhule,"Deopur, Dhule - MPCB",18-04-2026 09:00:00,20.918946,74.776388,PM2.5,48,99,69
India,Maharashtra,Dhule,"Deopur, Dhule - MPCB",18-04-2026 09:00:00,20.918946,74.776388,NO2,3,35,15
India,Maharashtra,Aurangabad,"MIDC Chilkalthana, Aurangabad - MPCB",18-04-2026 09:00:00,19.875620,75.387310,PM10,57,152,80
India,Maharashtra,Aurangabad,"MIDC Chilkalthana, Aurangabad - MPCB",18-04-2026 09:00:00,19.875620,75.387310,SO2,4,32,13
India,Maharashtra,Aurangabad,"More Chowk Waluj, Aurangabad - MPCB",18-04-2026 09:00:00,19.8389439,75.244448,OZONE,18,69,28
India,Maharashtra,Aurangabad,"Rachnakar Colony, Aurangabad - MPCB",18-04-2026 09:00:00,19.863756,75.321188,NH3,2,6,4
India,Maharashtra,Beed,"Bir, Beed - MPCB",18-04-2026 09:00:00,18.988474,75.753873,NH3,2,10,7
India,Madhya Pradesh,Sagar,"Civil Lines, Sagar - MPPCB",18-04-2026 09:00:00,23.838586,78.759431,PM2.5,30,98,65
India,Madhya Pradesh,Sagar,"Civil Lines, Sagar - MPPCB",18-04-2026 09:00:00,23.838586,78.759431,PM10,74,153,106
India,Madhya Pradesh,Sagar,"Deen Dayal Nagar, Sagar - MPPCB",18-04-2026 09:00:00,23.8640158,78.80289321,SO2,4,7,6
India,Madhya Pradesh,Singrauli,"Suryakiran Bhawan NCL, Singrauli - MPPCB",18-04-2026 09:00:00,24.108970,82.645580,PM2.5,20,323,197
India,Madhya Pradesh,Singrauli,"Suryakiran Bhawan NCL, Singrauli - MPPCB",18-04-2026 09:00:00,24.108970,82.645580,CO,18,114,45
India,Maharashtra,Mumbai,"Bandra Kurla Complex, Mumbai - IITM",18-04-2026 09:00:00,19.053536,72.84643,NO2,9,66,34
India,Maharashtra,Mumbai,"Bandra Kurla Complex, Mumbai - MPCB",18-04-2026 09:00:00,19.065931,72.862131,SO2,NA,NA,NA
India,Maharashtra,Mumbai,"Borivali East, Mumbai - IITM",18-04-2026 09:00:00,19.23241,72.86895,NO2,12,38,21
India,Maharashtra,Mumbai,"Borivali East, Mumbai - MPCB",18-04-2026 09:00:00,19.2243333,72.8658113,CO,12,18,15
India,Maharashtra,Mumbai,"Mazgaon, Mumbai - IITM",18-04-2026 09:00:00,18.96702,72.84214,OZONE,14,76,28
India,Maharashtra,Mumbai,"Mindspace-Malad West, Mumbai - MPCB",18-04-2026 09:00:00,19.1878657,72.8304069,CO,6,22,10
India,Maharashtra,Mumbai,"Navy Nagar-Colaba, Mumbai - IITM",18-04-2026 09:00:00,18.897756,72.813320,SO2,4,13,9
India,Maharashtra,Mumbai,"Powai, Mumbai - MPCB",18-04-2026 09:00:00,19.137500,72.915056,PM2.5,26,54,36
India,Maharashtra,Mumbai,"Powai, Mumbai - MPCB",18-04-2026 09:00:00,19.137500,72.915056,PM10,33,68,46
India,Maharashtra,Mumbai,"Powai, Mumbai - MPCB",18-04-2026 09:00:00,19.137500,72.915056,OZONE,9,9,9
India,Maharashtra,Mumbai,"Sewri, Mumbai - BMC",18-04-2026 09:00:00,19.000084,72.856730,PM2.5,9,78,33
India,Maharashtra,Mumbai,"Sewri, Mumbai - BMC",18-04-2026 09:00:00,19.000084,72.856730,NH3,6,14,9
India,Maharashtra,Mumbai,"Sewri, Mumbai - BMC",18-04-2026 09:00:00,19.000084,72.856730,SO2,1,11,5
India,Maharashtra,Mumbai,"Shivaji Nagar, Mumbai - BMC",18-04-2026 09:00:00,19.060498,72.923356,PM10,46,112,80
India,Maharashtra,Mumbai,"Shivaji Nagar, Mumbai - BMC",18-04-2026 09:00:00,19.060498,72.923356,NH3,2,5,4
India,Maharashtra,Mumbai,"Siddharth Nagar-Worli, Mumbai - IITM",18-04-2026 09:00:00,19.000083,72.813993,NO2,48,97,79
India,Maharashtra,Navi Mumbai,"Tondare-Taloja, Navi Mumbai - MPCB",18-04-2026 09:00:00,19.0630,73.1209,NH3,2,4,3
India,Maharashtra,Navi Mumbai,"Tondare-Taloja, Navi Mumbai - MPCB",18-04-2026 09:00:00,19.0630,73.1209,CO,10,32,24
India,Maharashtra,Parbhani,"Masoom Colony, Parbhani - MPCB",18-04-2026 09:00:00,19.265594,76.761463,CO,9,15,11
India,Maharashtra,Pimpri-Chinchwad,"Bhosari,Pimpri-Chinchwad - IITM",18-04-2026 09:00:00,18.640051,73.848956,NO2,19,26,22
India,Maharashtra,Pimpri-Chinchwad,"Bhumkar Nagar, Pimpri-Chinchwad - IITM",18-04-2026 09:00:00,18.605770,73.749976,NO2,9,38,17
India,Maharashtra,Pimpri-Chinchwad,"Gavalinagar, Pimpri Chinchwad - MPCB",18-04-2026 09:00:00,18.63673,73.82487,NO2,11,67,30
India,Maharashtra,Pimpri-Chinchwad,"Gavalinagar, Pimpri Chinchwad - MPCB",18-04-2026 09:00:00,18.63673,73.82487,NH3,4,8,6
India,Maharashtra,Pimpri-Chinchwad,"Park Street Wakad, Pimpri Chinchwad - MPCB",18-04-2026 09:00:00,18.59051,73.77946,PM2.5,44,168,81
India,Maharashtra,Pimpri-Chinchwad,"Park Street Wakad, Pimpri Chinchwad - MPCB",18-04-2026 09:00:00,18.59051,73.77946,PM10,88,127,108
India,Maharashtra,Pimpri-Chinchwad,"Park Street Wakad, Pimpri Chinchwad - MPCB",18-04-2026 09:00:00,18.59051,73.77946,NO2,29,131,56
India,Maharashtra,Nagpur,"Opp GPO Civil Lines, Nagpur - MPCB",18-04-2026 09:00:00,21.152875,79.0517531,OZONE,6,88,44
India,Maharashtra,Nagpur,"Ram Nagar, Nagpur - MPCB",18-04-2026 09:00:00,21.143383,79.048912,NH3,4,4,4
India,Maharashtra,Nagpur,"Ram Nagar, Nagpur - MPCB",18-04-2026 09:00:00,21.143383,79.048912,OZONE,23,79,36
India,Maharashtra,Nanded,"Sneh Nagar, Nanded - MPCB",18-04-2026 09:00:00,19.173852,77.296291,PM2.5,34,112,73
India,Maharashtra,Nanded,"Sneh Nagar, Nanded - MPCB",18-04-2026 09:00:00,19.173852,77.296291,NH3,3,5,4
India,Maharashtra,Nashik,"Gangapur Road, Nashik - MPCB",18-04-2026 09:00:00,20.0073285,73.7762427,PM2.5,42,118,79
India,Maharashtra,Nashik,"Gangapur Road, Nashik - MPCB",18-04-2026 09:00:00,20.0073285,73.7762427,SO2,8,13,10
India,Maharashtra,Nashik,"Gangapur Road, Nashik - MPCB",18-04-2026 09:00:00,20.0073285,73.7762427,OZONE,9,42,37
India,Maharashtra,Nashik,"Hirawadi, Nashik - MPCB",18-04-2026 09:00:00,20.021503,73.813844,CO,14,34,29
India,Maharashtra,Pimpri-Chinchwad,"Park Street Wakad, Pimpri Chinchwad - MPCB",18-04-2026 09:00:00,18.59051,73.77946,SO2,1,18,7
India,Maharashtra,Pimpri-Chinchwad,"Thergaon, Pimpri Chinchwad - MPCB",18-04-2026 09:00:00,18.616318,73.765797,PM2.5,38,218,81
India,Maharashtra,Pimpri-Chinchwad,"Thergaon, Pimpri Chinchwad - MPCB",18-04-2026 09:00:00,18.616318,73.765797,SO2,1,19,4
India,Maharashtra,Pimpri-Chinchwad,"Transport Nagar-Nigdi, Pimpri-Chinchwad- IITM",18-04-2026 09:00:00,18.664282,73.763966,NO2,16,59,30
India,Maharashtra,Pimpri-Chinchwad,"Transport Nagar-Nigdi, Pimpri-Chinchwad- IITM",18-04-2026 09:00:00,18.664282,73.763966,OZONE,1,31,3
India,Maharashtra,Pune,"Dhankawadi, Pune - IITM",18-04-2026 09:00:00,18.459883,73.852193,OZONE,10,107,16
India,Maharashtra,Pune,"Mhada Colony, Pune - IITM",18-04-2026 09:00:00,18.573040,73.927715,NO2,17,55,38
India,Maharashtra,Pune,"Panchawati_Pashan, Pune - IITM",18-04-2026 09:00:00,18.536457,73.805454,CO,18,102,90
India,Maharashtra,Pune,"Revenue Colony-Shivajinagar, Pune - IITM",18-04-2026 09:00:00,18.530085,73.849598,CO,26,74,50
India,Maharashtra,Pune,"Savitribai Phule Pune University, Pune - MPCB",18-04-2026 09:00:00,18.547056,73.826908,PM2.5,34,69,52
India,Maharashtra,Pune,"Savitribai Phule Pune University, Pune - MPCB",18-04-2026 09:00:00,18.547056,73.826908,PM10,54,123,75
India,Maharashtra,Sangli,"Vijay Nagar, Sangli - MPCB",18-04-2026 09:00:00, 16.5038,74.3623,CO,12,39,23
India,Maharashtra,Solapur,"Dnyaneshwar Nagar, Solapur - MPCB",18-04-2026 09:00:00,17.6336264,75.9132495,CO,10,52,31
India,Maharashtra,Solapur,"Ratandeep Housing Society, Solapur - MPCB",18-04-2026 09:00:00,17.65439,75.90649,NO2,18,129,51
India,Maharashtra,Solapur,"Ratandeep Housing Society, Solapur - MPCB",18-04-2026 09:00:00,17.65439,75.90649,SO2,3,18,7
India,Maharashtra,Thane,"Kasarvadavali, Thane - MPCB",18-04-2026 09:00:00,19.26777,72.97182,PM10,65,94,77
India,Maharashtra,Thane,"Upvan Fort, Thane - MPCB",18-04-2026 09:00:00,19.222279,72.957979,PM10,NA,NA,NA
India,Maharashtra,Ulhasnagar,"Sidhi Vinayak Nagar, Ulhasnagar - MPCB",18-04-2026 09:00:00,19.235581,73.159121,PM10,1,500,109
India,Maharashtra,Ulhasnagar,"Vithalwadi, Ulhasnagar - MPCB",18-04-2026 09:00:00,19.2307571 ,73.1551920,SO2,1,46,9
India,Maharashtra,Navi Mumbai,"Mahape, Navi Mumbai - MPCB",18-04-2026 09:00:00,19.1135051,73.008978,NO2,57,60,59
India,Maharashtra,Navi Mumbai,"Mahape, Navi Mumbai - MPCB",18-04-2026 09:00:00,19.1135051,73.008978,SO2,17,19,18
India,Maharashtra,Navi Mumbai,"Sanpada, Navi Mumbai - MPCB",18-04-2026 09:00:00,19.0575752,73.0151367,PM10,55,91,70
India,Maharashtra,Navi Mumbai,"Sanpada, Navi Mumbai - MPCB",18-04-2026 09:00:00,19.0575752,73.0151367,NO2,6,23,14
India,Maharashtra,Navi Mumbai,"Sector-2E Kalamboli, Navi Mumbai - MPCB",18-04-2026 09:00:00,19.02579,73.10297,NH3,5,7,6
India,Maharashtra,Mumbai,"Siddharth Nagar-Worli, Mumbai - IITM",18-04-2026 09:00:00,19.000083,72.813993,NH3,1,5,3
India,Maharashtra,Mumbai,"Siddharth Nagar-Worli, Mumbai - IITM",18-04-2026 09:00:00,19.000083,72.813993,CO,2,65,10
India,Maharashtra,Nagpur,"Ambazari, Nagpur - MPCB",18-04-2026 09:00:00,21.121801,79.04952,SO2,6,93,24
India,Maharashtra,Nagpur,"Opp GPO Civil Lines, Nagpur - MPCB",18-04-2026 09:00:00,21.152875,79.0517531,PM2.5,36,142,71
India,Maharashtra,Mumbai,"Mazgaon, Mumbai - IITM",18-04-2026 09:00:00,18.96702,72.84214,NH3,6,9,7
India,Odisha,Angul,"Hakimapada, Angul - OSPCB",18-04-2026 09:00:00,20.832874,85.104082,NH3,2,4,3
India,Odisha,Angul,"Hakimapada, Angul - OSPCB",18-04-2026 09:00:00,20.832874,85.104082,OZONE,1,85,8
India,Odisha,Balasore,"Kalidaspur, Balasore - OSPCB",18-04-2026 09:00:00,21.51161,86.89088,PM2.5,2,31,13
India,Odisha,Balasore,"Kalidaspur, Balasore - OSPCB",18-04-2026 09:00:00,21.51161,86.89088,NO2,3,16,8
India,Odisha,Balasore,"Kalidaspur, Balasore - OSPCB",18-04-2026 09:00:00,21.51161,86.89088,CO,32,54,34
India,Odisha,Barbil,"Forest Office, Barbil - OSPCB",18-04-2026 09:00:00,22.1166054,85.3945546,SO2,9,48,21
India,Odisha,Baripada,"Meher Colony, Baripada - OSPCB",18-04-2026 09:00:00,21.941841,86.728318,NO2,1,29,7
India,Odisha,Bhubaneswar,"Lingraj Mandir, Bhubaneswar - OSPCB",18-04-2026 09:00:00,20.240790,85.836784,PM10,12,60,37
India,Odisha,Bhubaneswar,"Patia, Bhubaneswar - OSPCB",18-04-2026 09:00:00,20.34652,85.81630,PM2.5,17,57,36
India,Odisha,Bhubaneswar,"Patia, Bhubaneswar - OSPCB",18-04-2026 09:00:00,20.34652,85.81630,NO2,4,12,8
India,Odisha,Bhubaneswar,"Patia, Bhubaneswar - OSPCB",18-04-2026 09:00:00,20.34652,85.81630,NH3,4,7,5
India,Odisha,Keonjhar,"Jagamohanpur, Keonjhar - OSPCB",18-04-2026 09:00:00,21.643900,85.599355,SO2,NA,NA,NA
India,Odisha,Keonjhar,"Jagamohanpur, Keonjhar - OSPCB",18-04-2026 09:00:00,21.643900,85.599355,CO,NA,NA,NA
India,Odisha,Nayagarh,"Dabuna, Nayagarh - OSPCB",18-04-2026 09:00:00,21.847279,85.416905,PM10,42,146,85
India,Odisha,Rairangpur,"Divisional Forest Office, Rairangpur - OSPCB",18-04-2026 09:00:00,22.265816,86.174829,PM2.5,12,20,15
India,Odisha,Rairangpur,"Divisional Forest Office, Rairangpur - OSPCB",18-04-2026 09:00:00,22.265816,86.174829,SO2,6,7,7
India,Odisha,Rairangpur,"Divisional Forest Office, Rairangpur - OSPCB",18-04-2026 09:00:00,22.265816,86.174829,OZONE,3,22,5
India,Odisha,Rourkela,"Raghunathpali, Rourkela - OSPCB",18-04-2026 09:00:00,22.220833,84.809444,PM2.5,49,149,80
India,Odisha,Suakati,"OMC Colony, Suakati - OSPCB",18-04-2026 09:00:00,21.606865,85.510538,PM10,26,130,88
India,Odisha,Suakati,"OMC Colony, Suakati - OSPCB",18-04-2026 09:00:00,21.606865,85.510538,NH3,4,4,4
India,Rajasthan,Bharatpur,"Krishna Nagar, Bharatpur - RSPCB",18-04-2026 09:00:00,27.215415,77.50873,PM10,42,457,98
India,Rajasthan,Bharatpur,"Krishna Nagar, Bharatpur - RSPCB",18-04-2026 09:00:00,27.215415,77.50873,SO2,6,28,12
India,Rajasthan,Bhilwara,"Pratap Nagar, Bhilwara - RSPCB",18-04-2026 09:00:00,25.339605,74.618883,NO2,7,92,29
India,Rajasthan,Bhilwara,"Pratap Nagar, Bhilwara - RSPCB",18-04-2026 09:00:00,25.339605,74.618883,SO2,5,40,15
India,Rajasthan,Bhiwadi,"RIICO Ind. Area III, Bhiwadi - RSPCB",18-04-2026 09:00:00,28.194909,76.862296,PM2.5,76,288,123
India,Rajasthan,Bhiwadi,"Vasundhara Nagar_UIT, Bhiwadi - RSPCB",18-04-2026 09:00:00,28.207266,76.829265,CO,24,60,38
India,Rajasthan,Bikaner,"MM Ground, Bikaner - RSPCB",18-04-2026 09:00:00,28.018792,73.292658,PM2.5,13,91,40
India,Punjab,Ludhiana,"Punjab Agricultural University, Ludhiana - PPCB",18-04-2026 09:00:00,30.9028,75.8086,SO2,8,29,17
India,Punjab,Ludhiana,"Punjab Agricultural University, Ludhiana - PPCB",18-04-2026 09:00:00,30.9028,75.8086,CO,20,77,47
India,Punjab,Mandi Gobindgarh,"RIMT University, Mandi Gobindgarh - PPCB",18-04-2026 09:00:00,30.649961,76.331442,PM2.5,33,296,132
India,Punjab,Mandi Gobindgarh,"RIMT University, Mandi Gobindgarh - PPCB",18-04-2026 09:00:00,30.649961,76.331442,NO2,23,25,24
India,Punjab,Mandi Gobindgarh,"RIMT University, Mandi Gobindgarh - PPCB",18-04-2026 09:00:00,30.649961,76.331442,NH3,6,6,6
India,Punjab,Patiala,"Model Town, Patiala - PPCB",18-04-2026 09:00:00,30.349388,76.366642,NH3,6,7,6
India,Punjab,Patiala,"Model Town, Patiala - PPCB",18-04-2026 09:00:00,30.349388,76.366642,CO,2,57,29
India,Maharashtra,Virar,"Bolinj, Virar - MPCB",18-04-2026 09:00:00,19.4458210,72.7988231,PM10,NA,NA,NA
India,Maharashtra,Virar,"Bolinj, Virar - MPCB",18-04-2026 09:00:00,19.4458210,72.7988231,NH3,NA,NA,NA
India,Maharashtra,Virar,"Bolinj, Virar - MPCB",18-04-2026 09:00:00,19.4458210,72.7988231,CO,4,26,15
India,Meghalaya,Shillong,"Lumpyngngad, Shillong - Meghalaya PCB",18-04-2026 09:00:00,25.5586,91.8985,NO2,NA,NA,NA
India,Odisha,Angul,"Hakimapada, Angul - OSPCB",18-04-2026 09:00:00,20.832874,85.104082,PM2.5,11,229,77
India,Odisha,Angul,"Hakimapada, Angul - OSPCB",18-04-2026 09:00:00,20.832874,85.104082,PM10,8,122,54
India,Punjab,Rupnagar,"Ratanpura, Rupnagar - Ambuja Cements",18-04-2026 09:00:00,31.0325454,76.5623046,SO2,13,20,15
India,Rajasthan,Alwar,"Moti Doongri, Alwar - RSPCB",18-04-2026 09:00:00,27.554793,76.611536,SO2,10,27,18
India,Rajasthan,Banswara,"Rati Talai, Banswara - RSPCB",18-04-2026 09:00:00,23.555190,74.440010,NH3,2,10,5
India,Rajasthan,Banswara,"Rati Talai, Banswara - RSPCB",18-04-2026 09:00:00,23.555190,74.440010,OZONE,13,127,42
India,Puducherry,Puducherry,"Jawahar Nagar, Puducherry - PPCC",18-04-2026 09:00:00,11.9309,79.8027,SO2,4,12,8
India,Punjab,Amritsar,"Golden Temple, Amritsar - PPCB",18-04-2026 09:00:00,31.620000,74.876512,SO2,15,69,29
India,Punjab,Amritsar,"Golden Temple, Amritsar - PPCB",18-04-2026 09:00:00,31.620000,74.876512,OZONE,39,59,50
India,Punjab,Khanna,"Kalal Majra, Khanna - PPCB",18-04-2026 09:00:00,30.736056 ,76.209694,PM2.5,37,75,58
India,Rajasthan,Bundi,"New Colony, Bundi - RSPCB",18-04-2026 09:00:00,25.435774,75.644272,OZONE,5,129,44
India,Rajasthan,Dausa,"Khatikan Mohalla, Dausa - RSPCB",18-04-2026 09:00:00,26.895552,76.334753,NO2,8,158,49
India,Rajasthan,Dausa,"Khatikan Mohalla, Dausa - RSPCB",18-04-2026 09:00:00,26.895552,76.334753,NH3,8,52,16
India,Odisha,Byasanagar,"Ferro Chrome Colony, Byasanagar - OSPCB",18-04-2026 09:00:00,20.94185,86.11510,PM2.5,15,70,39
India,Odisha,Byasanagar,"Ferro Chrome Colony, Byasanagar - OSPCB",18-04-2026 09:00:00,20.94185,86.11510,PM10,26,85,54
India,Rajasthan,Tonk,"Shastri Nagar, Tonk - RSPCB",18-04-2026 09:00:00,26.159933,75.780517,PM10,106,463,200
India,Rajasthan,Udaipur,"Ashok Nagar, Udaipur - RSPCB",18-04-2026 09:00:00,24.5886166,73.6321397,SO2,4,19,8
India,Rajasthan,Udaipur,"Ashok Nagar, Udaipur - RSPCB",18-04-2026 09:00:00,24.5886166,73.6321397,CO,7,82,12
India,Sikkim,Gangtok,"Zero Point GICI, Gangtok - SSPCB",18-04-2026 09:00:00,27.338530,88.614099,NO2,6,7,6
India,TamilNadu,Chennai,"Arumbakkam, Chennai - TNPCB",18-04-2026 09:00:00,13.0664,80.2112 ,PM10,19,67,37
India,TamilNadu,Chennai,"Arumbakkam, Chennai - TNPCB",18-04-2026 09:00:00,13.0664,80.2112 ,NH3,2,2,2
India,TamilNadu,Chennai,"Kodungaiyur, Chennai - TNPCB",18-04-2026 09:00:00,13.1278,80.2642,PM10,9,188,54
India,TamilNadu,Chennai,"Kodungaiyur, Chennai - TNPCB",18-04-2026 09:00:00,13.1278,80.2642,SO2,5,7,6
India,TamilNadu,Chennai,"Manali Village, Chennai - TNPCB",18-04-2026 09:00:00,13.1662,80.2584,PM10,16,50,26
India,Rajasthan,Jaipur,"Police Commissionerate, Jaipur - RSPCB",18-04-2026 09:00:00,26.9164092,75.7994901,PM2.5,66,121,85
India,Rajasthan,Jaipur,"Police Commissionerate, Jaipur - RSPCB",18-04-2026 09:00:00,26.9164092,75.7994901,CO,41,66,58
India,Rajasthan,Jaipur,"Police Commissionerate, Jaipur - RSPCB",18-04-2026 09:00:00,26.9164092,75.7994901,OZONE,19,102,48
India,Rajasthan,Jaipur,"RIICO Sitapura, Jaipur - RSPCB",18-04-2026 09:00:00,26.786682,75.827928,PM2.5,33,317,94
India,Rajasthan,Jaipur,"RIICO Sitapura, Jaipur - RSPCB",18-04-2026 09:00:00,26.786682,75.827928,NO2,16,129,52
India,Rajasthan,Jaipur,"RIICO Sitapura, Jaipur - RSPCB",18-04-2026 09:00:00,26.786682,75.827928,OZONE,9,134,50
India,Rajasthan,Jaipur,"Sector-2 Murlipura, Jaipur - RSPCB",18-04-2026 09:00:00,26.960669,75.771817,PM2.5,43,304,136
India,Rajasthan,Jaipur,"Sector-2 Murlipura, Jaipur - RSPCB",18-04-2026 09:00:00,26.960669,75.771817,PM10,42,233,123
India,Rajasthan,Jaipur,"Sector-2 Murlipura, Jaipur - RSPCB",18-04-2026 09:00:00,26.960669,75.771817,NO2,4,131,41
India,Rajasthan,Jaipur,"Sector-2 Murlipura, Jaipur - RSPCB",18-04-2026 09:00:00,26.960669,75.771817,NH3,4,7,5
India,Rajasthan,Jaipur,"Sector-2 Murlipura, Jaipur - RSPCB",18-04-2026 09:00:00,26.960669,75.771817,SO2,5,39,12
India,Rajasthan,Rajsamand,"Dhoinda, Rajsamand - RSPCB",18-04-2026 09:00:00,25.036360,73.883502,NO2,12,39,24
India,Rajasthan,Rajsamand,"Dhoinda, Rajsamand - RSPCB",18-04-2026 09:00:00,25.036360,73.883502,NH3,7,18,11
India,Rajasthan,Sawai Madhopur,"Sahu Nagar, Sawai Madhopur - RSPCB",18-04-2026 09:00:00,26.031443,76.359327,NH3,2,6,5
India,Rajasthan,Sikar,"Radhakishan Pura, Sikar - RSPCB",18-04-2026 09:00:00,27.608912,75.153302,NO2,10,56,25
India,Rajasthan,Sikar,"Radhakishan Pura, Sikar - RSPCB",18-04-2026 09:00:00,27.608912,75.153302,SO2,4,11,6
India,Rajasthan,Sikar,"Radhakishan Pura, Sikar - RSPCB",18-04-2026 09:00:00,27.608912,75.153302,OZONE,43,113,91
India,Rajasthan,Sirohi,"Vedhaynath Colony, Sirohi - RSPCB",18-04-2026 09:00:00,24.885261,72.857549,NH3,1,65,7
India,Rajasthan,Sri Ganganagar,"Old City, Sri Ganganagar - RSPCB",18-04-2026 09:00:00,29.931624,73.864511,PM2.5,33,94,58
India,Rajasthan,Sri Ganganagar,"Old City, Sri Ganganagar - RSPCB",18-04-2026 09:00:00,29.931624,73.864511,NO2,8,24,14
India,Rajasthan,Jalore,"Mudtra Sili, Jalore - RSPCB",18-04-2026 09:00:00,25.344694,72.626208,PM10,48,120,76
India,Rajasthan,Jalore,"Mudtra Sili, Jalore - RSPCB",18-04-2026 09:00:00,25.344694,72.626208,OZONE,39,82,50
India,Rajasthan,Jhalawar,"Rajlaxmi Nagar, Jhalawar - RSPCB",18-04-2026 09:00:00,24.588397,76.172782,NO2,29,42,34
India,Rajasthan,Jhunjhunu,"Indra Nagar, Jhunjhunu - RSPCB",18-04-2026 09:00:00,28.108988,75.386577,PM2.5,38,114,62
India,Rajasthan,Jhunjhunu,"Indra Nagar, Jhunjhunu - RSPCB",18-04-2026 09:00:00,28.108988,75.386577,NH3,1,47,14
India,Rajasthan,Jodhpur,"Collectorate, Jodhpur - RSPCB",18-04-2026 09:00:00,26.268249,73.0193853,CO,5,76,36
India,Rajasthan,Jodhpur,"Collectorate, Jodhpur - RSPCB",18-04-2026 09:00:00,26.268249,73.0193853,OZONE,14,64,33
India,Rajasthan,Jodhpur,"Digari Kalan, Jodhpur - RSPCB",18-04-2026 09:00:00,26.295810,73.082283,NO2,14,66,28
India,Rajasthan,Jodhpur,"Digari Kalan, Jodhpur - RSPCB",18-04-2026 09:00:00,26.295810,73.082283,CO,4,26,17
India,Rajasthan,Jodhpur,"Jhalamand, Jodhpur - RSPCB",18-04-2026 09:00:00,26.215415,73.070156,CO,6,35,14
India,Rajasthan,Jodhpur,"Mandor, Jodhpur - RSPCB",18-04-2026 09:00:00,26.358805,73.047444,SO2,4,12,7
India,Rajasthan,Jodhpur,"Mandor, Jodhpur - RSPCB",18-04-2026 09:00:00,26.358805,73.047444,OZONE,22,82,44
India,Rajasthan,Jodhpur,"Samrat Ashok Udhyan, Jodhpur - RSPCB",18-04-2026 09:00:00,26.253384,72.976571,PM10,37,156,83
India,Rajasthan,Jodhpur,"Samrat Ashok Udhyan, Jodhpur - RSPCB",18-04-2026 09:00:00,26.253384,72.976571,CO,13,22,17
India,Rajasthan,Karauli,"Satyawati Vihar, Karauli - RSPCB",18-04-2026 09:00:00,26.506177,77.025989,OZONE,26,180,63
India,Rajasthan,Kota,"Dhanmandi, Kota - RSPCB",18-04-2026 09:00:00,25.164090,75.858137,CO,NA,NA,NA
India,Rajasthan,Kota,"Dhanmandi, Kota - RSPCB",18-04-2026 09:00:00,25.164090,75.858137,OZONE,NA,NA,NA
India,Rajasthan,Kota,"Nayapura, Kota - RSPCB",18-04-2026 09:00:00,25.196024,75.855668,NH3,NA,NA,NA
India,Rajasthan,Kota,"Nayapura, Kota - RSPCB",18-04-2026 09:00:00,25.196024,75.855668,OZONE,4,163,57
India,Rajasthan,Kota,"Shrinath Puram, Kota - RSPCB",18-04-2026 09:00:00,25.14389,75.821256,PM10,90,137,114
India,Rajasthan,Kota,"Shrinath Puram, Kota - RSPCB",18-04-2026 09:00:00,25.14389,75.821256,NH3,3,20,9
India,Rajasthan,Kota,"Shrinath Puram, Kota - RSPCB",18-04-2026 09:00:00,25.14389,75.821256,CO,18,108,31
India,Rajasthan,Nagaur,"Karni Colony, Nagaur - RSPCB",18-04-2026 09:00:00,27.213494,73.734444,PM2.5,13,73,40
India,Rajasthan,Nagaur,"Karni Colony, Nagaur - RSPCB",18-04-2026 09:00:00,27.213494,73.734444,NO2,9,46,21
India,Rajasthan,Pratapgarh,"Pragati Nagar, Pratapgarh - RSPCB",18-04-2026 09:00:00,24.041198,74.780702,PM2.5,28,75,48
India,TamilNadu,Chennai,"Manali, Chennai - CPCB",18-04-2026 09:00:00,13.164544,80.26285,PM2.5,9,43,15
India,TamilNadu,Chennai,"Manali, Chennai - CPCB",18-04-2026 09:00:00,13.164544,80.26285,PM10,20,56,36
India,TamilNadu,Chennai,"Manali, Chennai - CPCB",18-04-2026 09:00:00,13.164544,80.26285,NO2,10,11,10
India,TamilNadu,Chennai,"Manali, Chennai - CPCB",18-04-2026 09:00:00,13.164544,80.26285,NH3,6,7,6
India,TamilNadu,Chennai,"Manali, Chennai - CPCB",18-04-2026 09:00:00,13.164544,80.26285,OZONE,24,109,42
India,TamilNadu,Chennai,"Perungudi, Chennai - TNPCB",18-04-2026 09:00:00,12.9533,80.2357,NO2,2,7,4
India,TamilNadu,Chennai,"Perungudi, Chennai - TNPCB",18-04-2026 09:00:00,12.9533,80.2357,CO,24,56,29
India,TamilNadu,Chennai,"Perungudi, Chennai - TNPCB",18-04-2026 09:00:00,12.9533,80.2357,OZONE,1,4,2
India,TamilNadu,Coimbatore,"SIDCO Kurichi, Coimbatore - TNPCB",18-04-2026 09:00:00,10.942451,76.978996,OZONE,19,20,20
India,Rajasthan,Dungarpur,"Bhoiwada, Dungarpur - RSPCB",18-04-2026 09:00:00,23.837789,73.714926,OZONE,25,63,39
India,Rajasthan,Hanumangarh,"Housing Board, Hanumangarh - RSPCB",18-04-2026 09:00:00,29.610750,74.283608,OZONE,19,129,24
India,Rajasthan,Jaipur,"Adarsh Nagar, Jaipur - RSPCB",18-04-2026 09:00:00,26.902909,75.836858,NO2,11,77,25
India,Rajasthan,Jaipur,"Adarsh Nagar, Jaipur - RSPCB",18-04-2026 09:00:00,26.902909,75.836858,NH3,5,15,7
India,Rajasthan,Jaipur,"Mansarovar Sector-12, Jaipur - RSPCB",18-04-2026 09:00:00,26.843698,75.766894,CO,12,86,30
India,Rajasthan,Jaipur,"Mansarovar Sector-12, Jaipur - RSPCB",18-04-2026 09:00:00,26.843698,75.766894,OZONE,3,255,24
India,Rajasthan,Dholpur,"Raja Ganj, Dholpur - RSPCB",18-04-2026 09:00:00,26.699557,77.898881,CO,12,39,24
India,TamilNadu,Gummidipoondi,"Anthoni Pillai Nagar, Gummidipoondi - TNPCB",18-04-2026 09:00:00,13.4127,80.1081,PM10,70,118,90
India,TamilNadu,Gummidipoondi,"Anthoni Pillai Nagar, Gummidipoondi - TNPCB",18-04-2026 09:00:00,13.4127,80.1081,SO2,6,35,19
India,TamilNadu,Madurai,"Uchapatti, Madurai - TNPCB",18-04-2026 09:00:00,9.865935,78.022669,CO,34,34,34
India,TamilNadu,Madurai,"Uchapatti, Madurai - TNPCB",18-04-2026 09:00:00,9.865935,78.022669,OZONE,1,1,1
India,TamilNadu,Perundurai,"SIPCOT Industrial Park, Perundurai - TNPCB",18-04-2026 09:00:00,11.258242,77.552761,PM2.5,31,70,52
India,TamilNadu,Perundurai,"SIPCOT Industrial Park, Perundurai - TNPCB",18-04-2026 09:00:00,11.258242,77.552761,OZONE,17,30,30
India,TamilNadu,Thoothukudi,"Meelavittan, Thoothukudi - TNPCB",18-04-2026 09:00:00,8.816428 ,78.099039,NO2,17,20,18
India,TamilNadu,Thoothukudi,"Meelavittan, Thoothukudi - TNPCB",18-04-2026 09:00:00,8.816428 ,78.099039,CO,22,44,37
India,Telangana,Hyderabad,"Central University, Hyderabad - TSPCB",18-04-2026 09:00:00,17.460103,78.334361,PM2.5,NA,NA,NA
India,Telangana,Hyderabad,"Central University, Hyderabad - TSPCB",18-04-2026 09:00:00,17.460103,78.334361,PM10,NA,NA,NA
India,Telangana,Hyderabad,"Central University, Hyderabad - TSPCB",18-04-2026 09:00:00,17.460103,78.334361,NH3,NA,NA,NA
India,Telangana,Hyderabad,"Central University, Hyderabad - TSPCB",18-04-2026 09:00:00,17.460103,78.334361,CO,NA,NA,NA
India,Uttar_Pradesh,Firozabad,"Vibhab Nagar, Firozabad - UPPCB",18-04-2026 09:00:00,27.1594,78.3953,SO2,3,4,3
India,Uttar_Pradesh,Firozabad,"Vibhab Nagar, Firozabad - UPPCB",18-04-2026 09:00:00,27.1594,78.3953,CO,12,18,16
India,Uttar_Pradesh,Ghaziabad,"Govindpuram, Ghaziabad - UPPCB",18-04-2026 09:00:00,28.694528 ,77.494705 ,OZONE,12,143,33
India,Uttar_Pradesh,Ghaziabad,"Indirapuram, Ghaziabad - UPPCB",18-04-2026 09:00:00,28.646233,77.358075,PM2.5,18,362,150
India,Uttar_Pradesh,Ghaziabad,"Indirapuram, Ghaziabad - UPPCB",18-04-2026 09:00:00,28.646233,77.358075,NO2,32,118,63
India,Uttar_Pradesh,Ghaziabad,"Loni, Ghaziabad - UPPCB",18-04-2026 09:00:00,28.757294,77.278792,NH3,1,13,4
India,Uttar_Pradesh,Ghaziabad,"Loni, Ghaziabad - UPPCB",18-04-2026 09:00:00,28.757294,77.278792,OZONE,1,197,9
India,Uttar_Pradesh,Ghaziabad,"Sanjay Nagar, Ghaziabad - UPPCB",18-04-2026 09:00:00,28.685382,77.453839,SO2,12,53,25
India,Uttar_Pradesh,Ghaziabad,"Vasundhara, Ghaziabad - UPPCB",18-04-2026 09:00:00,28.6603346,77.3572563,PM2.5,12,362,161
India,Uttar_Pradesh,Kanpur,"NSI Kalyanpur, Kanpur - UPPCB",18-04-2026 09:00:00,26.509954,80.249612,CO,11,56,28
India,Uttar_Pradesh,Kanpur,"Nehru Nagar, Kanpur - UPPCB",18-04-2026 09:00:00,26.4703136,80.3229863,NO2,40,48,44
India,Uttar_Pradesh,Kanpur,"Nehru Nagar, Kanpur - UPPCB",18-04-2026 09:00:00,26.4703136,80.3229863,OZONE,5,26,6
India,Uttar_Pradesh,Khora,"Prashant Garden, Khora - UPPCB",18-04-2026 09:00:00,28.61119,77.34206,PM2.5,166,413,330
India,Uttar_Pradesh,Khora,"Prashant Garden, Khora - UPPCB",18-04-2026 09:00:00,28.61119,77.34206,PM10,90,426,243
India,Uttar_Pradesh,Khora,"Prashant Garden, Khora - UPPCB",18-04-2026 09:00:00,28.61119,77.34206,NO2,94,152,126
India,Uttar_Pradesh,Khora,"Prashant Garden, Khora - UPPCB",18-04-2026 09:00:00,28.61119,77.34206,CO,24,106,103
India,Uttar_Pradesh,Khurja,"Kalindi Kunj, Khurja - UPPCB",18-04-2026 09:00:00,28.2348927,77.8683002,PM10,29,383,127
India,Uttar_Pradesh,Lucknow,"B R Ambedkar University, Lucknow - UPPCB",18-04-2026 09:00:00,26.766433,80.927299,NH3,4,5,4
India,Uttar_Pradesh,Lucknow,"B R Ambedkar University, Lucknow - UPPCB",18-04-2026 09:00:00,26.766433,80.927299,CO,27,39,31
India,Uttar_Pradesh,Lucknow,"Gomti Nagar, Lucknow - UPPCB",18-04-2026 09:00:00,26.868120,81.005119,NO2,9,12,10
India,Uttar_Pradesh,Lucknow,"Gomti Nagar, Lucknow - UPPCB",18-04-2026 09:00:00,26.868120,81.005119,SO2,11,12,12
India,Uttar_Pradesh,Lucknow,"Kendriya Vidyalaya, Lucknow - CPCB",18-04-2026 09:00:00,26.906111,80.948222,PM10,148,293,208
India,Uttar_Pradesh,Lucknow,"Lalbagh, Lucknow - CPCB",18-04-2026 09:00:00,26.8458805,80.9365541,PM2.5,64,379,183
India,Uttar_Pradesh,Lucknow,"Lalbagh, Lucknow - CPCB",18-04-2026 09:00:00,26.8458805,80.9365541,PM10,102,403,196
India,Uttar_Pradesh,Lucknow,"Lalbagh, Lucknow - CPCB",18-04-2026 09:00:00,26.8458805,80.9365541,CO,25,113,44
India,Uttar_Pradesh,Gorakhpur,"Madan Mohan Malaviya University of Technology, Gorakhpur - UPPCB",18-04-2026 09:00:00,26.730136,83.433859,PM10,44,140,98
India,Uttar_Pradesh,Gorakhpur,"Madan Mohan Malaviya University of Technology, Gorakhpur - UPPCB",18-04-2026 09:00:00,26.730136,83.433859,CO,3,5,5
India,Uttar_Pradesh,Greater Noida,"Knowledge Park - III, Greater Noida - UPPCB",18-04-2026 09:00:00,28.47272,77.482000,SO2,7,28,13
India,Uttar_Pradesh,Greater Noida,"Knowledge Park - V, Greater Noida - UPPCB",18-04-2026 09:00:00,28.557054,77.453663,PM2.5,14,425,133
India,Uttar_Pradesh,Greater Noida,"Knowledge Park - V, Greater Noida - UPPCB",18-04-2026 09:00:00,28.557054,77.453663,NO2,28,95,58
India,Uttar_Pradesh,Hapur,"Anand Vihar, Hapur - UPPCB",18-04-2026 09:00:00,28.725645,77.749675,OZONE,10,74,16
India,Telangana,Hyderabad,"Nacharam_TSIIC IALA, Hyderabad - TSPCB",18-04-2026 09:00:00,17.429398,78.569354,NH3,5,7,6
India,Telangana,Hyderabad,"Ramachandrapuram, Hyderabad - TSPCB",18-04-2026 09:00:00,17.528544,78.286195,PM2.5,45,54,50
India,Telangana,Hyderabad,"Ramachandrapuram, Hyderabad - TSPCB",18-04-2026 09:00:00,17.528544,78.286195,OZONE,20,28,21
India,Telangana,Hyderabad,"Sanathnagar, Hyderabad - TSPCB",18-04-2026 09:00:00,17.4559458,78.4332152,CO,34,50,44
India,Telangana,Hyderabad,"Sanathnagar, Hyderabad - TSPCB",18-04-2026 09:00:00,17.4559458,78.4332152,OZONE,10,18,17
India,Telangana,Hyderabad,"Somajiguda, Hyderabad - TSPCB",18-04-2026 09:00:00,17.417094,78.457437,NH3,5,6,5
India,Telangana,Hyderabad,"Somajiguda, Hyderabad - TSPCB",18-04-2026 09:00:00,17.417094,78.457437,SO2,16,20,18
India,Tripura,Agartala,"Bardowali, Agartala - Tripura SPCB",18-04-2026 09:00:00,23.8175497,91.2726974,SO2,3,4,3
India,Uttar_Pradesh,Agra,"Manoharpur, Agra - UPPCB",18-04-2026 09:00:00,27.23711,78.01936,PM10,57,409,172
India,Uttar_Pradesh,Agra,"Sector-3B Avas Vikas Colony, Agra - UPPCB",18-04-2026 09:00:00,27.19412,77.96237,PM2.5,57,352,143
India,Uttar_Pradesh,Agra,"Sector-3B Avas Vikas Colony, Agra - UPPCB",18-04-2026 09:00:00,27.19412,77.96237,NO2,35,36,36
India,Uttar_Pradesh,Agra,"Sector-3B Avas Vikas Colony, Agra - UPPCB",18-04-2026 09:00:00,27.19412,77.96237,OZONE,2,21,2
India,Telangana,Hyderabad,"ICRISAT Patancheru, Hyderabad - TSPCB",18-04-2026 09:00:00,17.518400,78.278777,OZONE,26,75,34
India,Telangana,Hyderabad,"IDA Pashamylaram, Hyderabad - TSPCB",18-04-2026 09:00:00,17.5316895,78.218939,NO2,6,8,7
India,Uttar_Pradesh,Firozabad,"Nagla Bhau, Firozabad - UPPCB",18-04-2026 09:00:00,27.168897,78.376960,NH3,2,2,2
India,Uttar_Pradesh,Firozabad,"Nagla Bhau, Firozabad - UPPCB",18-04-2026 09:00:00,27.168897,78.376960,OZONE,9,13,11
India,West_Bengal,Asansol,"Trivenidevi Bhalotia College, Asansol - WBPCB",18-04-2026 09:00:00,23.616515,87.119133,NH3,4,4,4
India,West_Bengal,Asansol,"Trivenidevi Bhalotia College, Asansol - WBPCB",18-04-2026 09:00:00,23.616515,87.119133,OZONE,6,23,7
India,West_Bengal,Barrackpore,"SVSPA Campus, Barrackpore - WBPCB",18-04-2026 09:00:00,22.7605581,88.3617589,PM10,28,64,45
India,West_Bengal,Durgapur,"Mahishkapur Road_B-Zone, Durgapur - WBPCB",18-04-2026 09:00:00,23.567923,87.306843,PM2.5,27,51,41
India,West_Bengal,Durgapur,"PCBL Residential Complex, Durgapur - WBPCB",18-04-2026 09:00:00,23.5087640,87.3544400,PM2.5,34,74,44
India,West_Bengal,Durgapur,"PCBL Residential Complex, Durgapur - WBPCB",18-04-2026 09:00:00,23.5087640,87.3544400,NO2,24,50,34
India,West_Bengal,Durgapur,"Womens College_City Center, Durgapur - WBPCB",18-04-2026 09:00:00,23.549395,87.300496,NH3,1,4,2
India,West_Bengal,Haldia,"Priyambada Housing Estate, Haldia - WBPCB",18-04-2026 09:00:00,22.06047,88.109737,SO2,5,28,14
India,West_Bengal,Haldia,"Priyambada Housing Estate, Haldia - WBPCB",18-04-2026 09:00:00,22.06047,88.109737,CO,20,24,21
India,Uttarakhand,Kashipur,"Govt. Girls Inter College, Kashipur - UKPCB",18-04-2026 09:00:00,29.2124114,78.9611753,CO,12,26,16
India,Uttarakhand,Kashipur,"Govt. Girls Inter College, Kashipur - UKPCB",18-04-2026 09:00:00,29.2124114,78.9611753,OZONE,NA,NA,NA
India,Uttarakhand,Rishikesh,"Shivaji Nagar, Rishikesh - UKPCB",18-04-2026 09:00:00,30.075911,78.2859547,NO2,NA,NA,NA
India,Uttarakhand,Rishikesh,"Shivaji Nagar, Rishikesh - UKPCB",18-04-2026 09:00:00,30.075911,78.2859547,SO2,NA,NA,NA
India,Uttarakhand,Rishikesh,"Shivaji Nagar, Rishikesh - UKPCB",18-04-2026 09:00:00,30.075911,78.2859547,CO,NA,NA,NA
India,Uttarakhand,Rishikesh,"Shivaji Nagar, Rishikesh - UKPCB",18-04-2026 09:00:00,30.075911,78.2859547,OZONE,NA,NA,NA
India,West_Bengal,Asansol,"Asansol Court Area, Asansol - WBPCB",18-04-2026 09:00:00,23.685297,86.945968,NH3,3,6,4
India,West_Bengal,Asansol,"Evelyn Lodge, Asansol - WBPCB",18-04-2026 09:00:00,23.6979360,86.9443950,PM10,32,72,48
India,West_Bengal,Asansol,"Evelyn Lodge, Asansol - WBPCB",18-04-2026 09:00:00,23.6979360,86.9443950,OZONE,9,54,13
India,West_Bengal,Asansol,"Trivenidevi Bhalotia College, Asansol - WBPCB",18-04-2026 09:00:00,23.616515,87.119133,PM2.5,13,85,42
India,West_Bengal,Asansol,"Trivenidevi Bhalotia College, Asansol - WBPCB",18-04-2026 09:00:00,23.616515,87.119133,PM10,1,80,40
India,Uttar_Pradesh,Lucknow,"Talkatora District Industries Center, Lucknow - CPCB",18-04-2026 09:00:00,26.83399722,80.8917361,CO,33,103,43
India,Uttar_Pradesh,Meerut,"Jai Bhim Nagar, Meerut - UPPCB",18-04-2026 09:00:00,28.9535882,77.7622941,NH3,8,18,11
India,Uttar_Pradesh,Meerut,"MIET College, Meerut - UPPCB",18-04-2026 09:00:00,28.972677 ,77.641018 ,OZONE,8,178,32
India,Uttar_Pradesh,Meerut,"Pallavpuram Phase 2, Meerut - UPPCB",18-04-2026 09:00:00,29.063510,77.709723,NO2,NA,NA,NA
India,Uttar_Pradesh,Meerut,"Pallavpuram Phase 2, Meerut - UPPCB",18-04-2026 09:00:00,29.063510,77.709723,NH3,NA,NA,NA
India,Uttar_Pradesh,Meerut,"Pallavpuram Phase 2, Meerut - UPPCB",18-04-2026 09:00:00,29.063510,77.709723,SO2,NA,NA,NA
India,Uttar_Pradesh,Meerut,"Pallavpuram Phase 2, Meerut - UPPCB",18-04-2026 09:00:00,29.063510,77.709723,CO,8,30,10
India,Uttar_Pradesh,Modinagar,"SRM University, Modinagar - UPPCB",18-04-2026 09:00:00,28.798171 ,77.540243 ,NH3,3,4,3
India,Uttar_Pradesh,Modinagar,"SRM University, Modinagar - UPPCB",18-04-2026 09:00:00,28.798171 ,77.540243 ,SO2,12,100,30
India,Uttar_Pradesh,Modinagar,"SRM University, Modinagar - UPPCB",18-04-2026 09:00:00,28.798171 ,77.540243 ,CO,37,80,57
India,Uttar_Pradesh,Noida,"Sector-116, Noida - UPPCB",18-04-2026 09:00:00,28.569230,77.393848,NO2,NA,NA,NA
India,Uttar_Pradesh,Noida,"Sector-116, Noida - UPPCB",18-04-2026 09:00:00,28.569230,77.393848,CO,NA,NA,NA
India,Uttar_Pradesh,Prayagraj,"Jhunsi, Prayagraj - UPPCB",18-04-2026 09:00:00,25.425602,81.917152,PM2.5,NA,NA,NA
India,Uttar_Pradesh,Prayagraj,"Jhunsi, Prayagraj - UPPCB",18-04-2026 09:00:00,25.425602,81.917152,PM10,59,126,102
India,Uttar_Pradesh,Prayagraj,"Motilal Nehru NIT, Prayagraj - UPPCB",18-04-2026 09:00:00,25.494,81.863,PM10,55,166,100
India,Uttar_Pradesh,Prayagraj,"Motilal Nehru NIT, Prayagraj - UPPCB",18-04-2026 09:00:00,25.494,81.863,CO,14,36,28
India,Uttar_Pradesh,Prayagraj,"Nagar Nigam, Prayagraj - UPPCB",18-04-2026 09:00:00,25.44919916 ,81.82735986 ,PM10,42,127,79
India,Uttar_Pradesh,Prayagraj,"Nagar Nigam, Prayagraj - UPPCB",18-04-2026 09:00:00,25.44919916 ,81.82735986 ,CO,20,70,47
India,Uttar_Pradesh,Raebareli," Indira Nagar, Raebareli - NTPC Unchahar",18-04-2026 09:00:00,26.207781,81.245571,PM2.5,NA,NA,NA
India,Uttar_Pradesh,Varanasi,"Ardhali Bazar, Varanasi - UPPCB",18-04-2026 09:00:00,25.3505986,82.9083074,PM10,99,215,140
India,West_Bengal,Kolkata,"Bidhannagar, Kolkata - WBPCB",18-04-2026 09:00:00,22.58157048,88.41002457,NH3,4,5,5
India,West_Bengal,Kolkata,"Fort William, Kolkata - WBPCB",18-04-2026 09:00:00,22.556640,88.342674,PM2.5,19,37,26
India,West_Bengal,Kolkata,"Fort William, Kolkata - WBPCB",18-04-2026 09:00:00,22.556640,88.342674,NO2,18,24,20
India,West_Bengal,Kolkata,"Fort William, Kolkata - WBPCB",18-04-2026 09:00:00,22.556640,88.342674,NH3,9,9,9
India,West_Bengal,Kolkata,"Fort William, Kolkata - WBPCB",18-04-2026 09:00:00,22.556640,88.342674,OZONE,3,19,5
India,West_Bengal,Kolkata,"Jadavpur, Kolkata - WBPCB",18-04-2026 09:00:00,22.49929,88.36917,PM2.5,28,49,37
India,West_Bengal,Kolkata,"Jadavpur, Kolkata - WBPCB",18-04-2026 09:00:00,22.49929,88.36917,NO2,8,19,11
India,West_Bengal,Kolkata,"Jadavpur, Kolkata - WBPCB",18-04-2026 09:00:00,22.49929,88.36917,SO2,4,5,4
India,West_Bengal,Kolkata,"Jadavpur, Kolkata - WBPCB",18-04-2026 09:00:00,22.49929,88.36917,OZONE,6,33,9
India,West_Bengal,Kolkata,"Rabindra Bharati University, Kolkata - WBPCB",18-04-2026 09:00:00,22.627847,88.380669,NO2,23,63,47
India,West_Bengal,Kolkata,"Rabindra Sarobar, Kolkata - WBPCB",18-04-2026 09:00:00,22.51106,88.35142,NO2,15,42,22
India,Uttar_Pradesh,Moradabad,"Buddhi Vihar, Moradabad - UPPCB",18-04-2026 09:00:00,28.83526,78.74460,NO2,28,29,29
India,Uttar_Pradesh,Moradabad,"Buddhi Vihar, Moradabad - UPPCB",18-04-2026 09:00:00,28.83526,78.74460,OZONE,15,53,19
India,Uttar_Pradesh,Moradabad,"Eco Herbal Park, Moradabad - UPPCB",18-04-2026 09:00:00,28.840739,78.697531,NH3,4,34,7
India,Uttar_Pradesh,Moradabad,"Eco Herbal Park, Moradabad - UPPCB",18-04-2026 09:00:00,28.840739,78.697531,SO2,6,21,13
India,Uttar_Pradesh,Moradabad,"Eco Herbal Park, Moradabad - UPPCB",18-04-2026 09:00:00,28.840739,78.697531,CO,11,105,18
India,Uttar_Pradesh,Moradabad,"Eco Herbal Park, Moradabad - UPPCB",18-04-2026 09:00:00,28.840739,78.697531,OZONE,32,148,45
India,Uttar_Pradesh,Moradabad,"Employment Office, Moradabad - UPPCB",18-04-2026 09:00:00,28.88528,78.73880,NH3,4,4,4
India,Uttar_Pradesh,Moradabad,"Jigar Colony, Moradabad - UPPCB",18-04-2026 09:00:00,28.856664,78.772638,PM10,30,176,97
India,Uttar_Pradesh,Moradabad,"Kashiram Nagar, Moradabad - UPPCB",18-04-2026 09:00:00,28.849399,78.742362,PM2.5,5,60,34
India,Uttar_Pradesh,Moradabad,"Transport Nagar, Moradabad - UPPCB",18-04-2026 09:00:00,28.802625,78.753728,PM10,20,121,69
India,Uttar_Pradesh,Muzaffarnagar,"New Mandi, Muzaffarnagar - UPPCB",18-04-2026 09:00:00,29.4723508,77.7194031,SO2,15,64,34
India,Uttar_Pradesh,Noida,"Sector - 125, Noida - UPPCB",18-04-2026 09:00:00,28.5447608,77.3231257,PM10,40,433,180
India,Uttar_Pradesh,Noida,"Sector - 125, Noida - UPPCB",18-04-2026 09:00:00,28.5447608,77.3231257,CO,28,108,66
India,Uttar_Pradesh,Noida,"Sector-1, Noida - UPPCB",18-04-2026 09:00:00,28.5898,77.3101,PM2.5,11,327,127
India,Uttar_Pradesh,Noida,"Sector-1, Noida - UPPCB",18-04-2026 09:00:00,28.5898,77.3101,PM10,51,444,199
India,Uttar_Pradesh,Noida,"Sector-116, Noida - UPPCB",18-04-2026 09:00:00,28.569230,77.393848,PM2.5,NA,NA,NA
India,Uttar_Pradesh,Noida,"Sector-116, Noida - UPPCB",18-04-2026 09:00:00,28.569230,77.393848,PM10,NA,NA,NA
India,West_Bengal,Howrah,"Belur Math, Howrah - WBPCB",18-04-2026 09:00:00,22.629801,88.352017,PM10,50,70,57
India,West_Bengal,Howrah,"Botanical Garden, Howrah - WBPCB",18-04-2026 09:00:00,22.554954,88.292568,PM10,35,60,45
India,West_Bengal,Howrah,"Botanical Garden, Howrah - WBPCB",18-04-2026 09:00:00,22.554954,88.292568,OZONE,8,29,11
India,West_Bengal,Howrah,"Dasnagar, Howrah - WBPCB",18-04-2026 09:00:00,22.6025571,88.3105664,PM2.5,5,84,41
India,West_Bengal,Howrah,"Dasnagar, Howrah - WBPCB",18-04-2026 09:00:00,22.6025571,88.3105664,SO2,9,10,10
India,West_Bengal,Howrah,"Ghusuri, Howrah - WBPCB",18-04-2026 09:00:00,22.611968,88.347422,PM2.5,30,57,43
India,West_Bengal,Howrah,"Ghusuri, Howrah - WBPCB",18-04-2026 09:00:00,22.611968,88.347422,PM10,45,102,64
India,West_Bengal,Howrah,"Ghusuri, Howrah - WBPCB",18-04-2026 09:00:00,22.611968,88.347422,NH3,2,10,4
India,Uttar_Pradesh,Varanasi,"IESD Banaras Hindu University, Varanasi - UPPCB",18-04-2026 09:00:00,25.262326,82.995408,NO2,2,2,2
India,Uttarakhand,Dehradun,"Doon University, Dehradun - UKPCB",18-04-2026 09:00:00,30.269444,78.044167,PM2.5,32,99,60
India,Uttarakhand,Dehradun,"Doon University, Dehradun - UKPCB",18-04-2026 09:00:00,30.269444,78.044167,PM10,34,125,55
India,Uttarakhand,Kashipur,"Govt. Girls Inter College, Kashipur - UKPCB",18-04-2026 09:00:00,29.2124114,78.9611753,PM2.5,NA,NA,NA
India,West_Bengal,Kolkata,"Rabindra Sarobar, Kolkata - WBPCB",18-04-2026 09:00:00,22.51106,88.35142,OZONE,9,22,10
India,West_Bengal,Kolkata,"Victoria, Kolkata - WBPCB",18-04-2026 09:00:00,22.5448082,88.3403691,PM2.5,16,45,31
India,West_Bengal,Kolkata,"Victoria, Kolkata - WBPCB",18-04-2026 09:00:00,22.5448082,88.3403691,NO2,26,36,28
India,West_Bengal,Siliguri,"Ward-32 Bapupara, Siliguri - WBPCB",18-04-2026 09:00:00,26.6879226,88.4152495,NO2,NA,NA,NA
India,West_Bengal,Siliguri,"Ward-32 Bapupara, Siliguri - WBPCB",18-04-2026 09:00:00,26.6879226,88.4152495,SO2,NA,NA,NA
India,West_Bengal,Siliguri,"Ward-32 Bapupara, Siliguri - WBPCB",18-04-2026 09:00:00,26.6879226,88.4152495,CO,NA,NA,NA
India,Bihar,Bihar Sharif,"D M Colony, Bihar Sharif - BSPCB",18-04-2026 09:00:00,25.204762,85.514960,NO2,9,10,9
India,Bihar,Bihar Sharif,"D M Colony, Bihar Sharif - BSPCB",18-04-2026 09:00:00,25.204762,85.514960,NH3,3,4,3
India,Bihar,Bihar Sharif,"D M Colony, Bihar Sharif - BSPCB",18-04-2026 09:00:00,25.204762,85.514960,SO2,10,10,10
India,Bihar,Buxar,"Charitra Van, Buxar - BSPCB",18-04-2026 09:00:00,25.567520,83.966379,OZONE,1,23,6
India,Bihar,Chhapra,"Darshan Nagar, Chhapra - BSPCB",18-04-2026 09:00:00,25.7808257,84.7446768,NO2,2,9,4
India,Bihar,Chhapra,"Darshan Nagar, Chhapra - BSPCB",18-04-2026 09:00:00,25.7808257,84.7446768,NH3,8,11,9
India,Bihar,Gaya,"Collectorate, Gaya - BSPCB",18-04-2026 09:00:00,24.7955,84.9994,PM2.5,70,225,116
India,Bihar,Gaya,"SFTI Kusdihra, Gaya - BSPCB",18-04-2026 09:00:00,24.762518,84.982348,PM10,54,94,69
India,Bihar,Gaya,"SFTI Kusdihra, Gaya - BSPCB",18-04-2026 09:00:00,24.762518,84.982348,NH3,2,5,3
India,Andhra_Pradesh,Visakhapatnam,"GVM Corporation, Visakhapatnam - APPCB",18-04-2026 09:00:00,17.72,83.3,NH3,3,3,3
India,Andhra_Pradesh,Visakhapatnam,"GVM Corporation, Visakhapatnam - APPCB",18-04-2026 09:00:00,17.72,83.3,SO2,11,110,38
India,Arunachal_Pradesh,Naharlagun,"Naharlagun, Naharlagun - APSPCB",18-04-2026 09:00:00,27.103358,93.679645,NO2,7,8,8
India,Arunachal_Pradesh,Naharlagun,"Naharlagun, Naharlagun - APSPCB",18-04-2026 09:00:00,27.103358,93.679645,NH3,1,1,1
India,Arunachal_Pradesh,Naharlagun,"Naharlagun, Naharlagun - APSPCB",18-04-2026 09:00:00,27.103358,93.679645,CO,9,31,13
India,Assam,Byrnihat,"Central Academy for SFS, Byrnihat - PCBA",18-04-2026 09:00:00,26.071318,91.87488,PM2.5,71,323,147
India,Assam,Guwahati,"LGBI Airport, Guwahati - PCBA",18-04-2026 09:00:00,26.10887,91.589544,PM2.5,17,61,42
India,Assam,Guwahati,"LGBI Airport, Guwahati - PCBA",18-04-2026 09:00:00,26.10887,91.589544,NO2,13,178,28
India,Andhra_Pradesh,Machilipatnam,"Srinivas Nagar Colony, Machilipatnam - APPCB",18-04-2026 09:00:00,16.186555,81.13219,NO2,8,18,12
India,Andhra_Pradesh,Nellore,"Ambedkar Nagar, Nellore - APPCB ",18-04-2026 09:00:00,14.438164 ,79.966814 ,NH3,3,7,4
India,Andhra_Pradesh,Rajamahendravaram,"Anand Kala Kshetram, Rajamahendravaram - APPCB",18-04-2026 09:00:00,16.9872867,81.7363176,PM10,13,45,25
India,Andhra_Pradesh,Tirumala,"Toll Gate, Tirumala - APPCB",18-04-2026 09:00:00,13.67,79.35,PM10,41,99,67
India,Andhra_Pradesh,Tirumala,"Toll Gate, Tirumala - APPCB",18-04-2026 09:00:00,13.67,79.35,NH3,3,4,3
India,Andhra_Pradesh,Tirupati,"Vaikuntapuram, Tirupati - APPCB",18-04-2026 09:00:00,13.615387,79.409230,PM10,49,74,55
India,Andhra_Pradesh,Tirupati,"Vaikuntapuram, Tirupati - APPCB",18-04-2026 09:00:00,13.615387,79.409230,SO2,8,18,10
India,Bihar,Gaya,"SFTI Kusdihra, Gaya - BSPCB",18-04-2026 09:00:00,24.762518,84.982348,OZONE,6,71,13
India,Bihar,Katihar,"Mirchaibari, Katihar - BSPCB",18-04-2026 09:00:00,25.560083,87.553265,PM2.5,15,53,35
India,Bihar,Katihar,"Mirchaibari, Katihar - BSPCB",18-04-2026 09:00:00,25.560083,87.553265,PM10,15,67,42
India,Bihar,Katihar,"Mirchaibari, Katihar - BSPCB",18-04-2026 09:00:00,25.560083,87.553265,NO2,9,10,9
India,Bihar,Kishanganj,"SDM Office_Khagra, Kishanganj - BSPCB",18-04-2026 09:00:00,26.0881305,87.93840336,PM10,32,53,43
India,Bihar,Kishanganj,"SDM Office_Khagra, Kishanganj - BSPCB",18-04-2026 09:00:00,26.0881305,87.93840336,SO2,7,10,9
India,Bihar,Kishanganj,"SDM Office_Khagra, Kishanganj - BSPCB",18-04-2026 09:00:00,26.0881305,87.93840336,OZONE,31,36,33
India,Bihar,Manguraha,"Forest Rest House, Manguraha - BSPCB",18-04-2026 09:00:00,27.308328,84.531742,NO2,3,36,14
India,Andhra_Pradesh,Amaravati,"Secretariat, Amaravati - APPCB",18-04-2026 09:00:00,16.5150833,80.5181667,CO,8,16,13
India,Andhra_Pradesh,Anantapur,"Gulzarpet, Anantapur - APPCB",18-04-2026 09:00:00,14.675886,77.593027,PM10,53,85,64
India,Andhra_Pradesh,Anantapur,"Gulzarpet, Anantapur - APPCB",18-04-2026 09:00:00,14.675886,77.593027,NH3,5,7,5
India,Andhra_Pradesh,Chittoor,"Gangineni Cheruvu, Chittoor - APPCB",18-04-2026 09:00:00,13.204880,79.097889,NO2,12,23,14
India,Andhra_Pradesh,Guntur,"Rajendra Nagar North, Guntur - APPCB",18-04-2026 09:00:00,16.316553,80.413302,PM10,56,115,73
India,Andhra_Pradesh,Kadapa,"Yerramukkapalli, Kadapa - APPCB",18-04-2026 09:00:00,14.465052,78.824187,PM10,51,87,74
India,Assam,Nagaon,"Christianpatty, Nagaon - PCBA",18-04-2026 09:00:00,26.349082,92.68449,PM2.5,41,78,60
India,Assam,Nalbari,"Bata Chowk, Nalbari - PCBA",18-04-2026 09:00:00,26.446912,91.439057,PM2.5,23,46,37
India,Assam,Nalbari,"Bata Chowk, Nalbari - PCBA",18-04-2026 09:00:00,26.446912,91.439057,CO,16,24,21
India,Assam,Silchar,"Tarapur, Silchar - PCBA",18-04-2026 09:00:00,24.82827,92.79525,PM2.5,27,56,44
India,Assam,Silchar,"Tarapur, Silchar - PCBA",18-04-2026 09:00:00,24.82827,92.79525,NH3,1,1,1
India,Assam,Silchar,"Tarapur, Silchar - PCBA",18-04-2026 09:00:00,24.82827,92.79525,SO2,5,7,6
India,Bihar,Araria,"Kharahiya Basti, Araria - BSPCB",18-04-2026 09:00:00,26.146529,87.454184,SO2,43,61,52
India,Andhra_Pradesh,Vijayawada,"Rajiv Gandhi Park, Vijayawada - APPCB",18-04-2026 09:00:00,16.509717,80.612222,PM10,40,62,49
India,Andhra_Pradesh,Vijayawada,"Rajiv Gandhi Park, Vijayawada - APPCB",18-04-2026 09:00:00,16.509717,80.612222,CO,35,46,37
India,Andhra_Pradesh,Vijayawada,"Rajiv Nagar, Vijayawada - APPCB",18-04-2026 09:00:00,16.554731,80.649110,PM2.5,40,70,48
India,Andhra_Pradesh,Vijayawada,"Rajiv Nagar, Vijayawada - APPCB",18-04-2026 09:00:00,16.554731,80.649110,CO,20,30,22
India,Andhra_Pradesh,Visakhapatnam,"GVM Corporation, Visakhapatnam - APPCB",18-04-2026 09:00:00,17.72,83.3,PM2.5,8,70,27
India,Bihar,Aurangabad,"Gurdeo Nagar, Aurangabad - BSPCB",18-04-2026 09:00:00,24.75746,84.366208,PM2.5,3,63,39
India,Bihar,Aurangabad,"Gurdeo Nagar, Aurangabad - BSPCB",18-04-2026 09:00:00,24.75746,84.366208,OZONE,1,47,6
India,Bihar,Begusarai,"Lohiyanagar, Begusarai - BSPCB",18-04-2026 09:00:00,25.42742023,86.13886079,NO2,10,16,13
India,Bihar,Munger,"Town Hall, Munger - BSPCB",18-04-2026 09:00:00,25.376776,86.471523,SO2,28,118,84
India,Bihar,Munger,"Town Hall, Munger - BSPCB",18-04-2026 09:00:00,25.376776,86.471523,OZONE,9,10,10
India,Bihar,Muzaffarpur,"Buddha Colony, Muzaffarpur - BSPCB",18-04-2026 09:00:00,26.11442,85.39813,NO2,26,39,30
India,Bihar,Begusarai,"Lohiyanagar, Begusarai - BSPCB",18-04-2026 09:00:00,25.42742023,86.13886079,OZONE,37,45,40
India,Bihar,Bhagalpur,"DM Office_Kachari Chowk, Bhagalpur - BSPCB",18-04-2026 09:00:00,25.251013,86.989001,CO,11,55,16
India,Bihar,Patna,"Muradpur, Patna - BSPCB",18-04-2026 09:00:00,25.619651,85.147382,CO,20,113,26
India,Bihar,Patna,"Rajbansi Nagar, Patna - BSPCB",18-04-2026 09:00:00,25.599486,85.113666,PM2.5,53,68,61
India,Bihar,Patna,"Samanpura, Patna - BSPCB",18-04-2026 09:00:00,25.596727,85.085624,PM2.5,57,71,64
India,Bihar,Patna,"Samanpura, Patna - BSPCB",18-04-2026 09:00:00,25.596727,85.085624,NO2,31,71,36
India,Bihar,Purnia,"Mariam Nagar, Purnia - BSPCB",18-04-2026 09:00:00,25.366336,87.117468,PM2.5,67,82,72
India,Bihar,Purnia,"Mariam Nagar, Purnia - BSPCB",18-04-2026 09:00:00,25.366336,87.117468,NO2,5,6,6
India,Bihar,Rajgir,"Dangi Tola, Rajgir - BSPCB",18-04-2026 09:00:00,25.03280,85.41948,NO2,13,16,14
India,Bihar,Rajgir,"Dangi Tola, Rajgir - BSPCB",18-04-2026 09:00:00,25.03280,85.41948,NH3,3,3,3
India,Bihar,Rajgir,"Dangi Tola, Rajgir - BSPCB",18-04-2026 09:00:00,25.03280,85.41948,SO2,2,3,3
India,Bihar,Saharsa,"Police Line, Saharsa - BSPCB",18-04-2026 09:00:00,25.892357,86.590325,NO2,4,9,7
India,Bihar,Saharsa,"Police Line, Saharsa - BSPCB",18-04-2026 09:00:00,25.892357,86.590325,NH3,4,4,4
India,Bihar,Saharsa,"Police Line, Saharsa - BSPCB",18-04-2026 09:00:00,25.892357,86.590325,OZONE,6,27,18
India,Chandigarh,Chandigarh,"Sector-53, Chandigarh - CPCC",18-04-2026 09:00:00,30.719859,76.738637,NH3,6,8,7
India,Chandigarh,Chandigarh,"Sector-53, Chandigarh - CPCC",18-04-2026 09:00:00,30.719859,76.738637,CO,18,137,33
India,Chhattisgarh,Bhilai,"32Bungalows, Bhilai - CECB",18-04-2026 09:00:00,21.194815,81.314770,PM10,38,82,59
India,Chhattisgarh,Bhilai,"32Bungalows, Bhilai - CECB",18-04-2026 09:00:00,21.194815,81.314770,NO2,5,80,31
India,Chhattisgarh,Bhilai,"32Bungalows, Bhilai - CECB",18-04-2026 09:00:00,21.194815,81.314770,SO2,17,47,30
India,Chhattisgarh,Bhilai,"Civic Center, Bhilai - Bhilai Steel Plant",18-04-2026 09:00:00,21.185571,81.343175,NO2,13,14,13
India,Chhattisgarh,Bhilai,"Hathkhoj, Bhilai - CECB",18-04-2026 09:00:00,21.224231,81.408350,PM10,37,113,75
India,Chhattisgarh,Bilaspur,"Mangala, Bilaspur - NTPC",18-04-2026 09:00:00,22.08815,82.13737,SO2,8,51,21
India,Chhattisgarh,Chhal,"Nawapara SECL Colony, Chhal - CECB",18-04-2026 09:00:00,22.118125,83.140608,PM2.5,66,88,78
India,Chhattisgarh,Chhal,"Nawapara SECL Colony, Chhal - CECB",18-04-2026 09:00:00,22.118125,83.140608,PM10,58,123,85
India,Bihar,Muzaffarpur,"MIT-Daudpur Kothi, Muzaffarpur - BSPCB",18-04-2026 09:00:00,26.1403345,85.3650192,PM2.5,53,88,63
India,Bihar,Muzaffarpur,"MIT-Daudpur Kothi, Muzaffarpur - BSPCB",18-04-2026 09:00:00,26.1403345,85.3650192,NO2,1,7,3
India,Bihar,Muzaffarpur,"MIT-Daudpur Kothi, Muzaffarpur - BSPCB",18-04-2026 09:00:00,26.1403345,85.3650192,OZONE,12,66,13
India,Bihar,Patna,"DRM Office Danapur, Patna - BSPCB",18-04-2026 09:00:00,25.586562,85.043586,NO2,33,41,38
India,Bihar,Patna,"DRM Office Danapur, Patna - BSPCB",18-04-2026 09:00:00,25.586562,85.043586,CO,36,52,38
India,Bihar,Patna,"Govt. High School Shikarpur, Patna - BSPCB",18-04-2026 09:00:00,25.592539,85.227158,NH3,4,6,5
India,Bihar,Patna,"Govt. High School Shikarpur, Patna - BSPCB",18-04-2026 09:00:00,25.592539,85.227158,CO,52,102,61
India,Bihar,Patna,"IGSC Planetarium Complex, Patna - BSPCB",18-04-2026 09:00:00,25.610369,85.132568,CO,27,32,32
India,Bihar,Patna,"Muradpur, Patna - BSPCB",18-04-2026 09:00:00,25.619651,85.147382,SO2,5,13,10
India,Delhi,Delhi,"DTU, Delhi - CPCB",18-04-2026 09:00:00,28.7500499,77.1112615,PM10,39,410,158
India,Delhi,Delhi,"Dr. Karni Singh Shooting Range, Delhi - DPCC",18-04-2026 09:00:00,28.498571,77.264840,NH3,7,10,8
India,Delhi,Delhi,"Dr. Karni Singh Shooting Range, Delhi - DPCC",18-04-2026 09:00:00,28.498571,77.264840,SO2,9,46,21
India,Delhi,Delhi,"Dr. Karni Singh Shooting Range, Delhi - DPCC",18-04-2026 09:00:00,28.498571,77.264840,OZONE,4,107,12
India,Delhi,Delhi,"Dwarka-Sector 8, Delhi - DPCC ",18-04-2026 09:00:00,28.5710274,77.0719006,NO2,25,142,74
India,Delhi,Delhi,"IGI Airport (T3), Delhi - IMD",18-04-2026 09:00:00,28.5627763,77.1180053,CO,18,78,57
India,Delhi,Delhi,"IGI Airport (T3), Delhi - IMD",18-04-2026 09:00:00,28.5627763,77.1180053,OZONE,13,109,14
India,Delhi,Delhi,"IGNOU_Maidan Garhi, Delhi - DPCC",18-04-2026 09:00:00,28.493624 ,77.201159 ,PM10,30,267,133
India,Delhi,Delhi,"Bawana, Delhi - DPCC",18-04-2026 09:00:00,28.776200,77.051074,CO,18,82,55
India,Delhi,Delhi,"Bawana, Delhi - DPCC",18-04-2026 09:00:00,28.776200,77.051074,OZONE,4,116,5
India,Delhi,Delhi,"Burari Crossing, Delhi - IMD",18-04-2026 09:00:00,28.7256504,77.2011573,CO,22,65,41
India,Delhi,Delhi,"Burari Crossing, Delhi - IMD",18-04-2026 09:00:00,28.7256504,77.2011573,OZONE,27,303,28
India,Delhi,Delhi,"CRRI Mathura Road, Delhi - IMD",18-04-2026 09:00:00,28.5512005,77.2735737,NO2,26,104,49
India,Delhi,Delhi,"Cantonment Area, Delhi - DPCC ",18-04-2026 09:00:00,28.594169 ,77.125100 ,PM2.5,7,101,40
India,Delhi,Delhi,"Cantonment Area, Delhi - DPCC ",18-04-2026 09:00:00,28.594169 ,77.125100 ,CO,39,114,60
India,Bihar,Samastipur,"DM Office_Kasipur, Samastipur - BSPCB",18-04-2026 09:00:00,25.859655,85.77944,PM10,NA,NA,NA
India,Bihar,Siwan,"Chitragupta Nagar, Siwan - BSPCB",18-04-2026 09:00:00,26.2271665,84.3570427,PM10,51,127,77
India,Chandigarh,Chandigarh,"Sector 22, Chandigarh - CPCC",18-04-2026 09:00:00,30.735567,76.775714,PM10,33,143,86
India,Chandigarh,Chandigarh,"Sector 22, Chandigarh - CPCC",18-04-2026 09:00:00,30.735567,76.775714,OZONE,6,67,45
India,Chandigarh,Chandigarh,"Sector-25, Chandigarh - CPCC",18-04-2026 09:00:00,30.751462,76.762879,NO2,NA,NA,NA
India,Chandigarh,Chandigarh,"Sector-25, Chandigarh - CPCC",18-04-2026 09:00:00,30.751462,76.762879,OZONE,7,58,16
India,Delhi,Delhi,"IGNOU_Maidan Garhi, Delhi - DPCC",18-04-2026 09:00:00,28.493624 ,77.201159 ,CO,26,98,49
India,Delhi,Delhi,"IHBAS, Dilshad Garden, Delhi - CPCB",18-04-2026 09:00:00,28.6811736,77.3025234,OZONE,12,88,17
India,Delhi,Delhi,"IIT Delhi, Delhi - IITM",18-04-2026 09:00:00,28.542460,77.191651,PM10,22,440,172
India,Delhi,Delhi,"ITO, Delhi - CPCB",18-04-2026 09:00:00,28.628624,77.241060,PM10,45,341,157
India,Delhi,Delhi,"JNU, Delhi - DPCC",18-04-2026 09:00:00,28.540721 ,77.168544 ,PM10,54,204,126
India,Delhi,Delhi,"JNU, Delhi - DPCC",18-04-2026 09:00:00,28.540721 ,77.168544 ,CO,49,120,97
India,Chhattisgarh,Raipur,"Krishak Nagar, Raipur - CECB",18-04-2026 09:00:00,21.237755,81.705301,PM10,62,147,88
India,Chhattisgarh,Raipur,"Krishak Nagar, Raipur - CECB",18-04-2026 09:00:00,21.237755,81.705301,NH3,2,2,2
India,Chhattisgarh,Raipur,"Krishak Nagar, Raipur - CECB",18-04-2026 09:00:00,21.237755,81.705301,CO,19,38,25
India,Chhattisgarh,Raipur,"Siltara Phase-II, Raipur - CECB",18-04-2026 09:00:00,21.371751,81.664929,NH3,3,3,3
India,Delhi,Delhi,"Alipur, Delhi - DPCC",18-04-2026 09:00:00,28.815329,77.153010,NH3,10,16,12
India,Delhi,Delhi,"Ashok Vihar, Delhi - DPCC",18-04-2026 09:00:00,28.695381,77.181665,NO2,21,141,59
India,Chhattisgarh,Kunjemura,"OP Jindal School, Kunjemura - CECB",18-04-2026 09:00:00,22.126650,83.483212,CO,28,82,61
India,Chhattisgarh,Milupara,"Govt. Higher Secondary School, Milupara - CECB",18-04-2026 09:00:00,22.1910172,83.5197009,NO2,12,64,32
India,Chhattisgarh,Milupara,"Govt. Higher Secondary School, Milupara - CECB",18-04-2026 09:00:00,22.1910172,83.5197009,CO,4,56,24
India,Chhattisgarh,Milupara,"Govt. Higher Secondary School, Milupara - CECB",18-04-2026 09:00:00,22.1910172,83.5197009,OZONE,10,134,22
India,Chhattisgarh,Raipur,"AIIMS, Raipur - CECB",18-04-2026 09:00:00,21.258815,81.578979,PM2.5,30,107,60
India,Delhi,Delhi,"Najafgarh, Delhi - DPCC",18-04-2026 09:00:00,28.570173,76.933762,OZONE,4,77,10
India,Delhi,Delhi,"Narela, Delhi - DPCC",18-04-2026 09:00:00,28.822836,77.101981,PM10,68,465,219
India,Delhi,Delhi,"Narela, Delhi - DPCC",18-04-2026 09:00:00,28.822836,77.101981,NO2,7,102,31
India,Delhi,Delhi,"Nehru Nagar, Delhi - DPCC",18-04-2026 09:00:00,28.567890,77.250515,NO2,35,105,53
India,Delhi,Delhi,"Nehru Nagar, Delhi - DPCC",18-04-2026 09:00:00,28.567890,77.250515,OZONE,2,74,4
India,Delhi,Delhi,"New Moti Bagh, Delhi - MHUA",18-04-2026 09:00:00,28.57834,77.18400,CO,6,106,41
India,Delhi,Delhi,"North Campus, DU, Delhi - IMD",18-04-2026 09:00:00,28.6573814,77.1585447,PM10,33,403,176
India,Delhi,Delhi,"Okhla Phase-2, Delhi - DPCC",18-04-2026 09:00:00,28.530785,77.271255,PM10,33,437,184
India,Delhi,Delhi,"Okhla Phase-2, Delhi - DPCC",18-04-2026 09:00:00,28.530785,77.271255,SO2,16,74,31
India,Delhi,Delhi,"Okhla Phase-2, Delhi - DPCC",18-04-2026 09:00:00,28.530785,77.271255,OZONE,3,72,5
India,Delhi,Delhi,"Shadipur, Delhi - CPCB",18-04-2026 09:00:00,28.6514781,77.1473105,NO2,31,227,72
India,Delhi,Delhi,"Shadipur, Delhi - CPCB",18-04-2026 09:00:00,28.6514781,77.1473105,SO2,1,19,13
India,Delhi,Delhi,"Sirifort, Delhi - CPCB",18-04-2026 09:00:00,28.5504249,77.2159377,NO2,26,39,30
India,Delhi,Delhi,"Sirifort, Delhi - CPCB",18-04-2026 09:00:00,28.5504249,77.2159377,CO,18,107,28
India,Delhi,Delhi,"Sonia Vihar, Delhi - DPCC",18-04-2026 09:00:00,28.710508,77.249485,PM10,25,424,130
India,Delhi,Delhi,"Sonia Vihar, Delhi - DPCC",18-04-2026 09:00:00,28.710508,77.249485,NH3,7,14,10
India,Delhi,Delhi,"Sonia Vihar, Delhi - DPCC",18-04-2026 09:00:00,28.710508,77.249485,SO2,40,102,58
India,Delhi,Delhi,"Sri Aurobindo Marg, Delhi - DPCC",18-04-2026 09:00:00,28.531346,77.190156,PM10,25,318,133
India,Delhi,Delhi,"Talkatora Garden, Delhi - DPCC",18-04-2026 09:00:00,28.621810,77.1944633,PM10,14,262,129
India,Delhi,Delhi,"Talkatora Garden, Delhi - DPCC",18-04-2026 09:00:00,28.621810,77.1944633,SO2,16,33,25
India,Delhi,Delhi,"Vivek Vihar, Delhi - DPCC",18-04-2026 09:00:00,28.672342,77.315260,OZONE,6,94,6
India,Delhi,Delhi,"Wazirpur, Delhi - DPCC",18-04-2026 09:00:00,28.699793,77.165453,PM10,79,466,265
India,Delhi,Delhi,"Wazirpur, Delhi - DPCC",18-04-2026 09:00:00,28.699793,77.165453,NO2,64,185,105
India,Delhi,Delhi,"Wazirpur, Delhi - DPCC",18-04-2026 09:00:00,28.699793,77.165453,SO2,9,28,17
India,Gujarat,Ahmedabad,"Chandkheda, Ahmedabad - IITM",18-04-2026 09:00:00,23.107969,72.574648,OZONE,1,88,20
India,Gujarat,Ahmedabad,"Gyaspur, Ahmedabad - IITM",18-04-2026 09:00:00,22.977134,72.553024,SO2,31,120,90
India,Delhi,Delhi,"Patparganj, Delhi - DPCC",18-04-2026 09:00:00,28.623763,77.287209,CO,2,84,73
India,Delhi,Delhi,"Patparganj, Delhi - DPCC",18-04-2026 09:00:00,28.623763,77.287209,OZONE,2,82,5
India,Delhi,Delhi,"Punjabi Bagh, Delhi - DPCC",18-04-2026 09:00:00,28.674045,77.131023,CO,38,74,54
India,Delhi,Delhi,"Pusa, Delhi - DPCC",18-04-2026 09:00:00,28.639652,77.146275,PM2.5,13,311,81
India,Delhi,Delhi,"Pusa, Delhi - DPCC",18-04-2026 09:00:00,28.639652,77.146275,NO2,38,136,65
India,Delhi,Delhi,"Pusa, Delhi - IMD",18-04-2026 09:00:00,28.636110,77.173332,CO,98,118,105
India,Delhi,Delhi,"R K Puram, Delhi - DPCC",18-04-2026 09:00:00,28.563262,77.186937,PM2.5,13,350,153
India,Delhi,Delhi,"R K Puram, Delhi - DPCC",18-04-2026 09:00:00,28.563262,77.186937,SO2,34,39,35
India,Gujarat,Ahmedabad,"SVPI Airport Hansol, Ahmedabad - IITM",18-04-2026 09:00:00,23.076793,72.627874,NH3,1,7,3
India,Gujarat,Ankleshwar,"GIDC, Ankleshwar - GPCB",18-04-2026 09:00:00,21.613267,73.010555,SO2,17,26,19
India,Gujarat,Bhavnagar,"Vidhyanagar, Bhavnagar - Nexteng Enviro",18-04-2026 09:00:00,21.755417,72.139056,OZONE,2,35,11
India,Gujarat,Gandhinagar,"IIPHG Lekawada, Gandhinagar - IITM",18-04-2026 09:00:00,23.243639,72.68994,PM2.5,31,132,67
India,Gujarat,Gandhinagar,"IIPHG Lekawada, Gandhinagar - IITM",18-04-2026 09:00:00,23.243639,72.68994,SO2,4,50,9
India,Delhi,Delhi,"Lodhi Road, Delhi - IMD",18-04-2026 09:00:00,28.5918245,77.2273074,NO2,12,64,26
India,Delhi,Delhi,"Lodhi Road, Delhi - IMD",18-04-2026 09:00:00,28.5918245,77.2273074,CO,27,70,36
India,Delhi,Delhi,"Major Dhyan Chand National Stadium, Delhi - DPCC",18-04-2026 09:00:00,28.611281,77.237738,CO,24,94,76
India,Delhi,Delhi,"Mandir Marg, Delhi - DPCC",18-04-2026 09:00:00,28.636429,77.201067,SO2,14,128,56
India,Delhi,Delhi,"NSIT Dwarka, Delhi - CPCB",18-04-2026 09:00:00,28.60909,77.0325413,CO,12,102,50
India,Delhi,Delhi,"NSIT Dwarka, Delhi - CPCB",18-04-2026 09:00:00,28.60909,77.0325413,OZONE,14,106,27
India,Delhi,Delhi,"Najafgarh, Delhi - DPCC",18-04-2026 09:00:00,28.570173,76.933762,NO2,11,97,34
India,Delhi,Delhi,"Najafgarh, Delhi - DPCC",18-04-2026 09:00:00,28.570173,76.933762,NH3,11,13,12
India,Gujarat,Ahmedabad,"Gyaspur, Ahmedabad - IITM",18-04-2026 09:00:00,22.977134,72.553024,OZONE,1,40,3
India,Gujarat,Ahmedabad,"Rakhial, Ahmedabad - IITM",18-04-2026 09:00:00,23.016834,72.625775,NO2,1,39,7
India,Gujarat,Ahmedabad,"Rakhial, Ahmedabad - IITM",18-04-2026 09:00:00,23.016834,72.625775,SO2,4,135,53
India,Delhi,Delhi,"NSIT Dwarka, Delhi - CPCB",18-04-2026 09:00:00,28.60909,77.0325413,PM2.5,61,212,100
India,Delhi,Delhi,"NSIT Dwarka, Delhi - CPCB",18-04-2026 09:00:00,28.60909,77.0325413,PM10,22,500,192
India,Delhi,Delhi,"NSIT Dwarka, Delhi - CPCB",18-04-2026 09:00:00,28.60909,77.0325413,NO2,34,137,90
India,Haryana,Kaithal,"Rishi Nagar, Kaithal - HSPCB",18-04-2026 09:00:00,29.8006,76.4155,CO,4,60,31
India,Haryana,Kaithal,"Rishi Nagar, Kaithal - HSPCB",18-04-2026 09:00:00,29.8006,76.4155,OZONE,7,22,10
India,Haryana,Karnal,"Sector-12, Karnal - HSPCB",18-04-2026 09:00:00,29.695300,77.002700,PM10,107,160,128
India,Haryana,Kurukshetra,"Sector-7, Kurukshetra - HSPCB",18-04-2026 09:00:00,29.966942,76.875879,SO2,8,22,15
India,Haryana,Kurukshetra,"Sector-7, Kurukshetra - HSPCB",18-04-2026 09:00:00,29.966942,76.875879,OZONE,21,76,26
India,Haryana,Mandikhera,"General Hospital, Mandikhera(Nuh) - HSPCB",18-04-2026 09:00:00,27.9002,76.9938,PM2.5,31,88,55
India,Haryana,Manesar,"Sector-2 IMT, Manesar - HSPCB",18-04-2026 09:00:00,28.360699,76.936090,PM10,65,222,107
India,Haryana,Manesar,"Sector-2 IMT, Manesar - HSPCB",18-04-2026 09:00:00,28.360699,76.936090,NH3,7,17,13
India,Haryana,Manesar,"Sector-2 IMT, Manesar - HSPCB",18-04-2026 09:00:00,28.360699,76.936090,CO,4,36,16
India,Haryana,Narnaul,"Shastri Nagar, Narnaul - HSPCB",18-04-2026 09:00:00,28.060249,76.113115,PM2.5,79,271,138
India,Haryana,Narnaul,"Shastri Nagar, Narnaul - HSPCB",18-04-2026 09:00:00,28.060249,76.113115,PM10,71,145,100
India,Gujarat,Vadodara,"Bapunagar, Vadodara - Nexteng Enviro",18-04-2026 09:00:00,22.320153,73.216285,NH3,2,3,2
India,Gujarat,Vatva,"Phase-4 GIDC, Vatva - GPCB",18-04-2026 09:00:00,22.969611,72.643500,PM2.5,43,302,115
India,Gujarat,Vatva,"Phase-4 GIDC, Vatva - GPCB",18-04-2026 09:00:00,22.969611,72.643500,PM10,37,290,116
India,Gujarat,Vatva,"Phase-4 GIDC, Vatva - GPCB",18-04-2026 09:00:00,22.969611,72.643500,NH3,10,32,25
India,Gujarat,Vatva,"Phase-4 GIDC, Vatva - GPCB",18-04-2026 09:00:00,22.969611,72.643500,SO2,43,66,55
India,Gujarat,Vatva,"Phase-4 GIDC, Vatva - GPCB",18-04-2026 09:00:00,22.969611,72.643500,OZONE,30,47,30
India,Haryana,Ambala,"Patti Mehar, Ambala - HSPCB",18-04-2026 09:00:00,30.379589,76.778328,NH3,7,8,8
India,Haryana,Bahadurgarh,"Arya Nagar, Bahadurgarh - HSPCB",18-04-2026 09:00:00,28.6701,76.9254,CO,45,51,47
India,Haryana,Ballabgarh,"Nathu Colony, Ballabgarh - HSPCB",18-04-2026 09:00:00,28.3419248,77.319699,PM2.5,41,243,81
India,Haryana,Ballabgarh,"Nathu Colony, Ballabgarh - HSPCB",18-04-2026 09:00:00,28.3419248,77.319699,PM10,104,337,201
India,Haryana,Ballabgarh,"Nathu Colony, Ballabgarh - HSPCB",18-04-2026 09:00:00,28.3419248,77.319699,NO2,19,21,20
India,Haryana,Rohtak,"MD University, Rohtak - HSPCB",18-04-2026 09:00:00,28.52123,76.37138,CO,22,38,36
India,Haryana,Rohtak,"MD University, Rohtak - HSPCB",18-04-2026 09:00:00,28.52123,76.37138,OZONE,39,40,39
India,Haryana,Sirsa,"F-Block, Sirsa - HSPCB",18-04-2026 09:00:00,29.536400,75.015800,OZONE,71,132,112
India,Haryana,Sonipat,"Murthal, Sonipat - HSPCB",18-04-2026 09:00:00,29.027200,77.062100,NH3,21,21,21
India,Haryana,Sonipat,"Murthal, Sonipat - HSPCB",18-04-2026 09:00:00,29.027200,77.062100,CO,40,76,46
India,Haryana,Yamuna Nagar,"Gobind Pura, Yamuna Nagar - HSPCB",18-04-2026 09:00:00,30.1480566,77.2893471,NO2,NA,NA,NA
India,Haryana,Yamuna Nagar,"Gobind Pura, Yamuna Nagar - HSPCB",18-04-2026 09:00:00,30.1480566,77.2893471,NH3,NA,NA,NA
India,Haryana,Yamuna Nagar,"Gobind Pura, Yamuna Nagar - HSPCB",18-04-2026 09:00:00,30.1480566,77.2893471,SO2,NA,NA,NA
India,Jammu_and_Kashmir,Pampore,"Khrew, Pampore - JKPCC",18-04-2026 09:00:00,34.031606,75.009712,PM10,5,32,19
India,Jammu_and_Kashmir,Pampore,"Khrew, Pampore - JKPCC",18-04-2026 09:00:00,34.031606,75.009712,NO2,8,20,14
India,Jammu_and_Kashmir,Srinagar,"Khunmoh, Srinagar - JKPCC",18-04-2026 09:00:00,34.06313,74.96017,SO2,NA,NA,NA
India,Gujarat,Mehsana,"Sadanand Nagar, Mehsana - Nexteng Enviro",18-04-2026 09:00:00,23.593150,72.372792,PM10,72,183,115
India,Gujarat,Mehsana,"Sadanand Nagar, Mehsana - Nexteng Enviro",18-04-2026 09:00:00,23.593150,72.372792,OZONE,8,15,10
India,Gujarat,Nandesari,"GIDC, Nandesari - Nandesari Ind. Association",18-04-2026 09:00:00,22.410802,73.097923,PM2.5,46,359,186
India,Gujarat,Nandesari,"GIDC, Nandesari - Nandesari Ind. Association",18-04-2026 09:00:00,22.410802,73.097923,SO2,3,24,7
India,Gujarat,Surat,"Katargam, Surat - Nexteng Enviro",18-04-2026 09:00:00,21.217779 ,72.834787 ,PM2.5,23,125,64
India,Gujarat,Surat,"Katargam, Surat - Nexteng Enviro",18-04-2026 09:00:00,21.217779 ,72.834787 ,NH3,NA,NA,NA
India,Gujarat,Surat,"Katargam, Surat - Nexteng Enviro",18-04-2026 09:00:00,21.217779 ,72.834787 ,SO2,4,7,6
India,Gujarat,Surat,"Katargam, Surat - Nexteng Enviro",18-04-2026 09:00:00,21.217779 ,72.834787 ,OZONE,11,12,11
India,Gujarat,Surat,"Science Center, Surat - SMC",18-04-2026 09:00:00,21.170046,72.795405,PM2.5,NA,NA,NA
India,Gujarat,Surat,"Science Center, Surat - SMC",18-04-2026 09:00:00,21.170046,72.795405,SO2,NA,NA,NA
India,Gujarat,Surat,"Science Center, Surat - SMC",18-04-2026 09:00:00,21.170046,72.795405,CO,NA,NA,NA
India,Jharkhand,Dhanbad,"Sardar Patel Nagar, Dhanbad - JSPCB",18-04-2026 09:00:00,23.80569,86.44268,NO2,NA,NA,NA
India,Jharkhand,Dhanbad,"Sardar Patel Nagar, Dhanbad - JSPCB",18-04-2026 09:00:00,23.80569,86.44268,CO,NA,NA,NA
India,Karnataka,Bagalkot,"Vidayagiri, Bagalkot - KSPCB",18-04-2026 09:00:00,16.172806,75.659694,PM2.5,35,36,35
India,Karnataka,Bagalkot,"Vidayagiri, Bagalkot - KSPCB",18-04-2026 09:00:00,16.172806,75.659694,NO2,11,12,12
India,Karnataka,Belgaum,"Ramteerth Nagar, Belgaum - KSPCB",18-04-2026 09:00:00,15.888653,74.541751,CO,1,2,1
India,Karnataka,Bengaluru,"BTM Layout, Bengaluru - CPCB",18-04-2026 09:00:00,12.9135218,77.5950804,OZONE,23,24,24
India,Karnataka,Bengaluru,"BWSSB Kadabesanahalli, Bengaluru - CPCB",18-04-2026 09:00:00,12.9352049,77.6814488,CO,34,52,36
India,Haryana,Dharuhera,"Municipal Corporation Office, Dharuhera -  HSPCB",18-04-2026 09:00:00,28.206800,76.799700,NH3,9,26,19
India,Haryana,Faridabad,"New Industrial Town, Faridabad - HSPCB",18-04-2026 09:00:00,28.39072,77.30059,NH3,11,12,11
India,Haryana,Faridabad,"New Industrial Town, Faridabad - HSPCB",18-04-2026 09:00:00,28.39072,77.30059,SO2,8,8,8
India,Haryana,Faridabad,"Sector 11, Faridabad - HSPCB",18-04-2026 09:00:00,28.376058,77.315741,OZONE,14,16,15
India,Haryana,Faridabad,"Sector 30, Faridabad - HSPCB",18-04-2026 09:00:00,28.4417,77.3217,NO2,36,39,38
