country,state,city,station,last_update,latitude,longitude,pollutant_id,min_value,max_value,avg_value
India,Andhra_Pradesh,Vijayawada,"HB Colony, Vijayawada - APPCB",07-04-2026 09:00:00,16.536107,80.594233,PM10,48,100,65
India,Andhra_Pradesh,Vijayawada,"HB Colony, Vijayawada - APPCB",07-04-2026 09:00:00,16.536107,80.594233,NO2,15,27,25
India,Andhra_Pradesh,Vijayawada,"Kanuru, Vijayawada - APPCB",07-04-2026 09:00:00,16.486692,80.699436,PM2.5,54,97,66
India,Andhra_Pradesh,Vijayawada,"Kanuru, Vijayawada - APPCB",07-04-2026 09:00:00,16.486692,80.699436,PM10,53,90,63
India,Andhra_Pradesh,Vijayawada,"Kanuru, Vijayawada - APPCB",07-04-2026 09:00:00,16.486692,80.699436,SO2,4,21,10
India,Andhra_Pradesh,Vijayawada,"Rajiv Nagar, Vijayawada - APPCB",07-04-2026 09:00:00,16.554731,80.649110,SO2,19,28,24
India,Andhra_Pradesh,Vijayawada,"Rajiv Nagar, Vijayawada - APPCB",07-04-2026 09:00:00,16.554731,80.649110,OZONE,27,40,30
India,Andhra_Pradesh,Visakhapatnam,"GVM Corporation, Visakhapatnam - APPCB",07-04-2026 09:00:00,17.72,83.3,PM2.5,7,77,44
India,Andhra_Pradesh,Visakhapatnam,"GVM Corporation, Visakhapatnam - APPCB",07-04-2026 09:00:00,17.72,83.3,OZONE,4,32,5
India,Arunachal_Pradesh,Naharlagun,"Naharlagun, Naharlagun - APSPCB",07-04-2026 09:00:00,27.103358,93.679645,NO2,7,8,7
India,Arunachal_Pradesh,Naharlagun,"Naharlagun, Naharlagun - APSPCB",07-04-2026 09:00:00,27.103358,93.679645,SO2,10,11,10
India,Andhra_Pradesh,Kadapa,"Yerramukkapalli, Kadapa - APPCB",07-04-2026 09:00:00,14.465052,78.824187,PM2.5,52,99,74
India,Andhra_Pradesh,Kadapa,"Yerramukkapalli, Kadapa - APPCB",07-04-2026 09:00:00,14.465052,78.824187,NO2,13,31,20
India,Andhra_Pradesh,Kadapa,"Yerramukkapalli, Kadapa - APPCB",07-04-2026 09:00:00,14.465052,78.824187,OZONE,18,41,26
India,Andhra_Pradesh,Machilipatnam,"Srinivas Nagar Colony, Machilipatnam - APPCB",07-04-2026 09:00:00,16.186555,81.13219,CO,4,52,21
India,Andhra_Pradesh,Nellore,"Ambedkar Nagar, Nellore - APPCB ",07-04-2026 09:00:00,14.438164 ,79.966814 ,PM2.5,44,87,66
India,Andhra_Pradesh,Nellore,"Ambedkar Nagar, Nellore - APPCB ",07-04-2026 09:00:00,14.438164 ,79.966814 ,OZONE,15,33,20
India,Andhra_Pradesh,Rajamahendravaram,"Anand Kala Kshetram, Rajamahendravaram - APPCB",07-04-2026 09:00:00,16.9872867,81.7363176,PM2.5,14,35,23
India,Andhra_Pradesh,Rajamahendravaram,"Anand Kala Kshetram, Rajamahendravaram - APPCB",07-04-2026 09:00:00,16.9872867,81.7363176,NH3,1,4,2
India,Andhra_Pradesh,Tirumala,"Toll Gate, Tirumala - APPCB",07-04-2026 09:00:00,13.67,79.35,PM2.5,63,121,82
India,Andhra_Pradesh,Tirumala,"Toll Gate, Tirumala - APPCB",07-04-2026 09:00:00,13.67,79.35,PM10,59,104,80
India,Assam,Byrnihat,"Central Academy for SFS, Byrnihat - PCBA",07-04-2026 09:00:00,26.071318,91.87488,PM10,36,269,141
India,Assam,Byrnihat,"Central Academy for SFS, Byrnihat - PCBA",07-04-2026 09:00:00,26.071318,91.87488,NO2,2,26,10
India,Assam,Byrnihat,"Central Academy for SFS, Byrnihat - PCBA",07-04-2026 09:00:00,26.071318,91.87488,CO,18,123,70
India,Assam,Guwahati,"IITG, Guwahati - PCBA",07-04-2026 09:00:00,26.2028636,91.70046436,PM2.5,34,140,76
India,Assam,Guwahati,"IITG, Guwahati - PCBA",07-04-2026 09:00:00,26.2028636,91.70046436,NO2,1,4,2
India,Assam,Guwahati,"IITG, Guwahati - PCBA",07-04-2026 09:00:00,26.2028636,91.70046436,CO,7,20,15
India,Assam,Guwahati,"Railway Colony, Guwahati - PCBA",07-04-2026 09:00:00,26.181742,91.78063,PM10,32,136,92
India,Assam,Nagaon,"Christianpatty, Nagaon - PCBA",07-04-2026 09:00:00,26.349082,92.68449,NO2,1,59,17
India,Andhra_Pradesh,Chittoor,"Gangineni Cheruvu, Chittoor - APPCB",07-04-2026 09:00:00,13.204880,79.097889,PM10,52,85,61
India,Andhra_Pradesh,Chittoor,"Gangineni Cheruvu, Chittoor - APPCB",07-04-2026 09:00:00,13.204880,79.097889,NH3,5,7,6
India,Andhra_Pradesh,Eluru,"District Court, Eluru - APPCB",07-04-2026 09:00:00,16.711754,81.092095,SO2,8,13,11
India,Andhra_Pradesh,Eluru,"District Court, Eluru - APPCB",07-04-2026 09:00:00,16.711754,81.092095,OZONE,NA,NA,NA
India,Andhra_Pradesh,Guntur,"Rajendra Nagar North, Guntur - APPCB",07-04-2026 09:00:00,16.316553,80.413302,SO2,9,18,12
India,Andhra_Pradesh,Guntur,"Rajendra Nagar North, Guntur - APPCB",07-04-2026 09:00:00,16.316553,80.413302,CO,15,40,19
India,Assam,Nagaon,"Christianpatty, Nagaon - PCBA",07-04-2026 09:00:00,26.349082,92.68449,NH3,4,4,4
India,Assam,Nagaon,"Christianpatty, Nagaon - PCBA",07-04-2026 09:00:00,26.349082,92.68449,SO2,10,14,13
India,Assam,Nalbari,"Bata Chowk, Nalbari - PCBA",07-04-2026 09:00:00,26.446912,91.439057,OZONE,3,16,14
India,Assam,Silchar,"Tarapur, Silchar - PCBA",07-04-2026 09:00:00,24.82827,92.79525,CO,24,54,48
India,Bihar,Arrah,"New DM Office, Arrah - BSPCB",07-04-2026 09:00:00,25.5626095,84.663264,OZONE,5,16,8
India,Bihar,Aurangabad,"Gurdeo Nagar, Aurangabad - BSPCB",07-04-2026 09:00:00,24.75746,84.366208,PM2.5,10,55,25
India,Bihar,Aurangabad,"Gurdeo Nagar, Aurangabad - BSPCB",07-04-2026 09:00:00,24.75746,84.366208,PM10,35,203,80
India,Andhra_Pradesh,Amaravati,"Secretariat, Amaravati - APPCB",07-04-2026 09:00:00,16.5150833,80.5181667,PM2.5,30,72,51
India,Andhra_Pradesh,Amaravati,"Secretariat, Amaravati - APPCB",07-04-2026 09:00:00,16.5150833,80.5181667,PM10,45,500,97
India,Andhra_Pradesh,Amaravati,"Secretariat, Amaravati - APPCB",07-04-2026 09:00:00,16.5150833,80.5181667,NH3,1,2,2
India,Assam,Sivasagar,"Girls College, Sivasagar - PCBA",07-04-2026 09:00:00,26.987634,94.636574,OZONE,23,91,48
India,Bihar,Araria,"Kharahiya Basti, Araria - BSPCB",07-04-2026 09:00:00,26.146529,87.454184,PM2.5,47,345,171
India,Andaman and Nicobar,Sri Vijaya Puram,"Police Line, Sri Vijaya Puram - ANPCC",07-04-2026 09:00:00,11.654054,92.734055,PM2.5,NA,NA,NA
India,Andaman and Nicobar,Sri Vijaya Puram,"Police Line, Sri Vijaya Puram - ANPCC",07-04-2026 09:00:00,11.654054,92.734055,NO2,NA,NA,NA
India,Andhra_Pradesh,Tirupati,"Vaikuntapuram, Tirupati - APPCB",07-04-2026 09:00:00,13.615387,79.409230,PM10,39,62,48
India,Andhra_Pradesh,Tirupati,"Vaikuntapuram, Tirupati - APPCB",07-04-2026 09:00:00,13.615387,79.409230,CO,24,40,25
India,Chhattisgarh,Bhilai,"Civic Center, Bhilai - Bhilai Steel Plant",07-04-2026 09:00:00,21.185571,81.343175,NH3,3,3,3
India,Chhattisgarh,Bhilai,"Civic Center, Bhilai - Bhilai Steel Plant",07-04-2026 09:00:00,21.185571,81.343175,SO2,7,10,8
India,Chhattisgarh,Bhilai,"Hathkhoj, Bhilai - CECB",07-04-2026 09:00:00,21.224231,81.408350,PM2.5,25,46,36
India,Chhattisgarh,Bhilai,"Hathkhoj, Bhilai - CECB",07-04-2026 09:00:00,21.224231,81.408350,PM10,35,77,51
India,Chhattisgarh,Bhilai,"Hathkhoj, Bhilai - CECB",07-04-2026 09:00:00,21.224231,81.408350,NO2,19,64,35
India,Chhattisgarh,Bhilai,"Hathkhoj, Bhilai - CECB",07-04-2026 09:00:00,21.224231,81.408350,NH3,4,6,5
India,Chhattisgarh,Bhilai,"Hathkhoj, Bhilai - CECB",07-04-2026 09:00:00,21.224231,81.408350,SO2,8,39,18
India,Chhattisgarh,Bilaspur,"Mangala, Bilaspur - NTPC",07-04-2026 09:00:00,22.08815,82.13737,NO2,15,105,22
India,Chhattisgarh,Chhal,"Nawapara SECL Colony, Chhal - CECB",07-04-2026 09:00:00,22.118125,83.140608,PM2.5,39,70,58
India,Chhattisgarh,Chhal,"Nawapara SECL Colony, Chhal - CECB",07-04-2026 09:00:00,22.118125,83.140608,PM10,25,104,69
India,Chhattisgarh,Chhal,"Nawapara SECL Colony, Chhal - CECB",07-04-2026 09:00:00,22.118125,83.140608,OZONE,NA,NA,NA
India,Chhattisgarh,Korba,"Rampur, Korba - CECB",07-04-2026 09:00:00,22.368195,82.746431,PM10,38,53,44
India,Chhattisgarh,Korba,"Rampur, Korba - CECB",07-04-2026 09:00:00,22.368195,82.746431,NH3,1,1,1
India,Chhattisgarh,Korba,"Rampur, Korba - CECB",07-04-2026 09:00:00,22.368195,82.746431,OZONE,6,19,11
India,Bihar,Gaya,"Collectorate, Gaya - BSPCB",07-04-2026 09:00:00,24.7955,84.9994,NO2,NA,NA,NA
India,Bihar,Gaya,"Kareemganj, Gaya - BSPCB",07-04-2026 09:00:00,24.792403,84.992416,NO2,11,12,12
India,Bihar,Gaya,"SFTI Kusdihra, Gaya - BSPCB",07-04-2026 09:00:00,24.762518,84.982348,PM2.5,22,41,32
India,Bihar,Gaya,"SFTI Kusdihra, Gaya - BSPCB",07-04-2026 09:00:00,24.762518,84.982348,NH3,2,8,5
India,Bihar,Gaya,"SFTI Kusdihra, Gaya - BSPCB",07-04-2026 09:00:00,24.762518,84.982348,SO2,7,8,8
India,Bihar,Hajipur,"Industrial Area, Hajipur - BSPCB",07-04-2026 09:00:00,25.697189,85.245900,NO2,27,77,46
India,Bihar,Katihar,"Mirchaibari, Katihar - BSPCB",07-04-2026 09:00:00,25.560083,87.553265,PM2.5,10,68,34
India,Bihar,Katihar,"Mirchaibari, Katihar - BSPCB",07-04-2026 09:00:00,25.560083,87.553265,PM10,24,167,89
India,Bihar,Katihar,"Mirchaibari, Katihar - BSPCB",07-04-2026 09:00:00,25.560083,87.553265,SO2,18,22,20
India,Bihar,Katihar,"Mirchaibari, Katihar - BSPCB",07-04-2026 09:00:00,25.560083,87.553265,OZONE,5,48,6
India,Bihar,Kishanganj,"SDM Office_Khagra, Kishanganj - BSPCB",07-04-2026 09:00:00,26.0881305,87.93840336,SO2,5,9,6
India,Bihar,Muzaffarpur,"Buddha Colony, Muzaffarpur - BSPCB",07-04-2026 09:00:00,26.11442,85.39813,CO,10,86,18
India,Bihar,Patna,"DRM Office Danapur, Patna - BSPCB",07-04-2026 09:00:00,25.586562,85.043586,OZONE,1,26,1
India,Bihar,Patna,"Govt. High School Shikarpur, Patna - BSPCB",07-04-2026 09:00:00,25.592539,85.227158,PM2.5,71,83,76
India,Bihar,Patna,"Govt. High School Shikarpur, Patna - BSPCB",07-04-2026 09:00:00,25.592539,85.227158,NH3,4,5,5
India,Bihar,Patna,"Govt. High School Shikarpur, Patna - BSPCB",07-04-2026 09:00:00,25.592539,85.227158,SO2,3,7,5
India,Bihar,Patna,"Govt. High School Shikarpur, Patna - BSPCB",07-04-2026 09:00:00,25.592539,85.227158,CO,1,106,16
India,Bihar,Patna,"IGSC Planetarium Complex, Patna - BSPCB",07-04-2026 09:00:00,25.610369,85.132568,NO2,1,2,2
India,Bihar,Patna,"IGSC Planetarium Complex, Patna - BSPCB",07-04-2026 09:00:00,25.610369,85.132568,SO2,1,17,11
India,Bihar,Patna,"IGSC Planetarium Complex, Patna - BSPCB",07-04-2026 09:00:00,25.610369,85.132568,OZONE,59,61,60
India,Bihar,Patna,"Samanpura, Patna - BSPCB",07-04-2026 09:00:00,25.596727,85.085624,CO,40,54,46
India,Bihar,Rajgir,"Dangi Tola, Rajgir - BSPCB",07-04-2026 09:00:00,25.03280,85.41948,NO2,13,15,14
India,Bihar,Rajgir,"Dangi Tola, Rajgir - BSPCB",07-04-2026 09:00:00,25.03280,85.41948,SO2,2,3,3
India,Bihar,Rajgir,"Dangi Tola, Rajgir - BSPCB",07-04-2026 09:00:00,25.03280,85.41948,OZONE,22,29,26
India,Bihar,Saharsa,"Police Line, Saharsa - BSPCB",07-04-2026 09:00:00,25.892357,86.590325,CO,32,43,35
India,Bihar,Samastipur,"DM Office_Kasipur, Samastipur - BSPCB",07-04-2026 09:00:00,25.859655,85.77944,PM10,NA,NA,NA
India,Bihar,Sasaram,"Dada Peer, Sasaram - BSPCB",07-04-2026 09:00:00,24.952822,84.002396,PM2.5,NA,NA,NA
India,Chhattisgarh,Korba,"Urja Nagar, Korba - CECB",07-04-2026 09:00:00,22.348441,82.549611,CO,20,38,34
India,Chhattisgarh,Korba,"Urja Nagar, Korba - CECB",07-04-2026 09:00:00,22.348441,82.549611,OZONE,2,4,2
India,Chhattisgarh,Milupara,"Govt. Higher Secondary School, Milupara - CECB",07-04-2026 09:00:00,22.1910172,83.5197009,PM10,NA,NA,NA
India,Chhattisgarh,Raipur,"AIIMS, Raipur - CECB",07-04-2026 09:00:00,21.258815,81.578979,NH3,3,4,3
India,Chhattisgarh,Raipur,"Bhatagaon New ISBT, Raipur - CECB",07-04-2026 09:00:00,21.219665,81.630094,NO2,21,44,28
India,Chhattisgarh,Raipur,"Krishak Nagar, Raipur - CECB",07-04-2026 09:00:00,21.237755,81.705301,SO2,4,11,6
India,Bihar,Siwan,"Chitragupta Nagar, Siwan - BSPCB",07-04-2026 09:00:00,26.2271665,84.3570427,SO2,8,8,8
India,Chandigarh,Chandigarh,"Sector 22, Chandigarh - CPCC",07-04-2026 09:00:00,30.735567,76.775714,NH3,11,25,19
India,Chandigarh,Chandigarh,"Sector-25, Chandigarh - CPCC",07-04-2026 09:00:00,30.751462,76.762879,NO2,2,29,11
India,Chandigarh,Chandigarh,"Sector-53, Chandigarh - CPCC",07-04-2026 09:00:00,30.719859,76.738637,CO,28,112,35
India,Chhattisgarh,Bhilai,"32Bungalows, Bhilai - CECB",07-04-2026 09:00:00,21.194815,81.314770,PM2.5,28,58,38
India,Bihar,Begusarai,"Lohiyanagar, Begusarai - BSPCB",07-04-2026 09:00:00,25.42742023,86.13886079,CO,10,18,16
India,Bihar,Bettiah,"Kamalnath Nagar, Bettiah - BSPCB",07-04-2026 09:00:00,26.80365,84.51954,PM2.5,3,42,15
India,Bihar,Bhagalpur,"DM Office_Kachari Chowk, Bhagalpur - BSPCB",07-04-2026 09:00:00,25.251013,86.989001,PM2.5,15,75,37
India,Bihar,Bhagalpur,"DM Office_Kachari Chowk, Bhagalpur - BSPCB",07-04-2026 09:00:00,25.251013,86.989001,NH3,1,1,1
India,Bihar,Bhagalpur,"DM Office_Kachari Chowk, Bhagalpur - BSPCB",07-04-2026 09:00:00,25.251013,86.989001,CO,1,22,10
India,Bihar,Bihar Sharif,"D M Colony, Bihar Sharif - BSPCB",07-04-2026 09:00:00,25.204762,85.514960,PM10,9,48,27
India,Bihar,Buxar,"Charitra Van, Buxar - BSPCB",07-04-2026 09:00:00,25.567520,83.966379,NO2,9,10,9
India,Bihar,Buxar,"Charitra Van, Buxar - BSPCB",07-04-2026 09:00:00,25.567520,83.966379,NH3,3,3,3
India,Bihar,Chhapra,"Darshan Nagar, Chhapra - BSPCB",07-04-2026 09:00:00,25.7808257,84.7446768,NH3,6,10,8
India,Bihar,Manguraha,"Forest Rest House, Manguraha - BSPCB",07-04-2026 09:00:00,27.308328,84.531742,SO2,16,17,16
India,Bihar,Munger,"Town Hall, Munger - BSPCB",07-04-2026 09:00:00,25.376776,86.471523,NH3,2,3,3
India,Bihar,Muzaffarpur,"Buddha Colony, Muzaffarpur - BSPCB",07-04-2026 09:00:00,26.11442,85.39813,NH3,15,23,19
India,Delhi,Delhi,"Chandni Chowk, Delhi - IITM",07-04-2026 09:00:00,28.656756,77.227234,PM2.5,NA,NA,NA
India,Delhi,Delhi,"Chandni Chowk, Delhi - IITM",07-04-2026 09:00:00,28.656756,77.227234,SO2,11,20,15
India,Delhi,Delhi,"Chandni Chowk, Delhi - IITM",07-04-2026 09:00:00,28.656756,77.227234,CO,103,130,108
India,Delhi,Delhi,"Chandni Chowk, Delhi - IITM",07-04-2026 09:00:00,28.656756,77.227234,OZONE,7,89,30
India,Delhi,Delhi,"Commonwealth Sports Complex, Delhi - DPCC",07-04-2026 09:00:00,28.615828 ,77.271992 ,CO,22,54,36
India,Delhi,Delhi,"DTU, Delhi - CPCB",07-04-2026 09:00:00,28.7500499,77.1112615,PM2.5,16,347,75
India,Delhi,Delhi,"Dr. Karni Singh Shooting Range, Delhi - DPCC",07-04-2026 09:00:00,28.498571,77.264840,PM2.5,5,200,48
India,Delhi,Delhi,"Dr. Karni Singh Shooting Range, Delhi - DPCC",07-04-2026 09:00:00,28.498571,77.264840,NH3,3,4,4
India,Delhi,Delhi,"Dwarka-Sector 8, Delhi - DPCC ",07-04-2026 09:00:00,28.5710274,77.0719006,PM10,83,459,189
India,Delhi,Delhi,"Dwarka-Sector 8, Delhi - DPCC ",07-04-2026 09:00:00,28.5710274,77.0719006,CO,46,117,48
India,Delhi,Delhi,"Major Dhyan Chand National Stadium, Delhi - DPCC",07-04-2026 09:00:00,28.611281,77.237738,NO2,23,140,58
India,Delhi,Delhi,"Major Dhyan Chand National Stadium, Delhi - DPCC",07-04-2026 09:00:00,28.611281,77.237738,NH3,13,15,14
India,Delhi,Delhi,"Major Dhyan Chand National Stadium, Delhi - DPCC",07-04-2026 09:00:00,28.611281,77.237738,SO2,10,23,14
India,Delhi,Delhi,"Mandir Marg, Delhi - DPCC",07-04-2026 09:00:00,28.636429,77.201067,SO2,3,39,21
India,Delhi,Delhi,"Mundka, Delhi - DPCC",07-04-2026 09:00:00,28.684678,77.076574,PM10,68,443,151
India,Delhi,Delhi,"Mundka, Delhi - DPCC",07-04-2026 09:00:00,28.684678,77.076574,OZONE,5,74,31
India,Delhi,Delhi,"NSUT Jaffarpur, Delhi - DPCC",07-04-2026 09:00:00,28.594004 ,76.909423 ,PM10,17,176,85
India,Delhi,Delhi,"NSUT Jaffarpur, Delhi - DPCC",07-04-2026 09:00:00,28.594004 ,76.909423 ,SO2,69,81,74
India,Delhi,Delhi,"NSUT Jaffarpur, Delhi - DPCC",07-04-2026 09:00:00,28.594004 ,76.909423 ,CO,70,90,80
India,Delhi,Delhi,"Najafgarh, Delhi - DPCC",07-04-2026 09:00:00,28.570173,76.933762,SO2,21,53,25
India,Delhi,Delhi,"IGI Airport (T3), Delhi - IMD",07-04-2026 09:00:00,28.5627763,77.1180053,NO2,19,57,35
India,Delhi,Delhi,"IGNOU_Maidan Garhi, Delhi - DPCC",07-04-2026 09:00:00,28.493624 ,77.201159 ,NO2,7,15,11
India,Delhi,Delhi,"IGNOU_Maidan Garhi, Delhi - DPCC",07-04-2026 09:00:00,28.493624 ,77.201159 ,NH3,3,16,7
India,Delhi,Delhi,"IGNOU_Maidan Garhi, Delhi - DPCC",07-04-2026 09:00:00,28.493624 ,77.201159 ,CO,38,141,41
India,Delhi,Delhi,"IHBAS, Dilshad Garden, Delhi - CPCB",07-04-2026 09:00:00,28.6811736,77.3025234,PM2.5,26,285,89
India,Delhi,Delhi,"IHBAS, Dilshad Garden, Delhi - CPCB",07-04-2026 09:00:00,28.6811736,77.3025234,PM10,62,138,93
India,Delhi,Delhi,"IIT Delhi, Delhi - IITM",07-04-2026 09:00:00,28.542460,77.191651,PM2.5,21,63,40
India,Delhi,Delhi,"Punjabi Bagh, Delhi - DPCC",07-04-2026 09:00:00,28.674045,77.131023,SO2,36,51,42
India,Delhi,Delhi,"Pusa, Delhi - DPCC",07-04-2026 09:00:00,28.639652,77.146275,SO2,13,45,23
India,Delhi,Delhi,"Pusa, Delhi - IMD",07-04-2026 09:00:00,28.636110,77.173332,PM2.5,11,107,43
India,Delhi,Delhi,"Pusa, Delhi - IMD",07-04-2026 09:00:00,28.636110,77.173332,OZONE,13,310,98
India,Delhi,Delhi,"R K Puram, Delhi - DPCC",07-04-2026 09:00:00,28.563262,77.186937,PM10,27,224,106
India,Delhi,Delhi,"R K Puram, Delhi - DPCC",07-04-2026 09:00:00,28.563262,77.186937,NO2,12,110,42
India,Delhi,Delhi,"Ashok Vihar, Delhi - DPCC",07-04-2026 09:00:00,28.695381,77.181665,PM2.5,22,270,65
India,Delhi,Delhi,"Bawana, Delhi - DPCC",07-04-2026 09:00:00,28.776200,77.051074,OZONE,7,99,30
India,Delhi,Delhi,"Burari Crossing, Delhi - IMD",07-04-2026 09:00:00,28.7256504,77.2011573,PM10,42,349,101
India,Delhi,Delhi,"Burari Crossing, Delhi - IMD",07-04-2026 09:00:00,28.7256504,77.2011573,CO,1,42,21
India,Delhi,Delhi,"Cantonment Area, Delhi - DPCC ",07-04-2026 09:00:00,28.594169 ,77.125100 ,PM2.5,9,57,23
India,Delhi,Delhi,"Narela, Delhi - DPCC",07-04-2026 09:00:00,28.822836,77.101981,SO2,6,37,15
India,Delhi,Delhi,"Narela, Delhi - DPCC",07-04-2026 09:00:00,28.822836,77.101981,CO,27,76,48
India,Delhi,Delhi,"Okhla Phase-2, Delhi - DPCC",07-04-2026 09:00:00,28.530785,77.271255,NO2,30,103,58
India,Delhi,Delhi,"Okhla Phase-2, Delhi - DPCC",07-04-2026 09:00:00,28.530785,77.271255,OZONE,18,101,32
India,Delhi,Delhi,"Patparganj, Delhi - DPCC",07-04-2026 09:00:00,28.623763,77.287209,NO2,16,110,47
India,Delhi,Delhi,"ITO, Delhi - CPCB",07-04-2026 09:00:00,28.628624,77.241060,CO,21,73,42
India,Delhi,Delhi,"JNU, Delhi - DPCC",07-04-2026 09:00:00,28.540721 ,77.168544 ,CO,110,119,114
India,Delhi,Delhi,"JNU, Delhi - DPCC",07-04-2026 09:00:00,28.540721 ,77.168544 ,OZONE,5,37,8
India,Delhi,Delhi,"Major Dhyan Chand National Stadium, Delhi - DPCC",07-04-2026 09:00:00,28.611281,77.237738,PM2.5,8,150,36
India,Delhi,Delhi,"Major Dhyan Chand National Stadium, Delhi - DPCC",07-04-2026 09:00:00,28.611281,77.237738,PM10,35,152,91
India,Delhi,Delhi,"Jawaharlal Nehru Stadium, Delhi - DPCC",07-04-2026 09:00:00,28.580280,77.233829,PM2.5,18,183,53
India,Delhi,Delhi,"Jawaharlal Nehru Stadium, Delhi - DPCC",07-04-2026 09:00:00,28.580280,77.233829,NO2,22,108,54
India,Gujarat,Ahmedabad,"Raikhad, Ahmedabad - IITM",07-04-2026 09:00:00,23.020509,72.579261,SO2,5,137,29
India,Gujarat,Ahmedabad,"Rakhial, Ahmedabad - IITM",07-04-2026 09:00:00,23.016834,72.625775,NO2,30,175,73
India,Gujarat,Ahmedabad,"Rakhial, Ahmedabad - IITM",07-04-2026 09:00:00,23.016834,72.625775,NH3,6,14,9
India,Gujarat,Ahmedabad,"Rakhial, Ahmedabad - IITM",07-04-2026 09:00:00,23.016834,72.625775,CO,22,68,48
India,Gujarat,Ahmedabad,"SAC ISRO Bopal, Ahmedabad - IITM",07-04-2026 09:00:00,23.041137,72.456691,PM10,26,89,54
India,Gujarat,Ahmedabad,"SAC ISRO Bopal, Ahmedabad - IITM",07-04-2026 09:00:00,23.041137,72.456691,NH3,2,6,4
India,Gujarat,Ahmedabad,"SAC ISRO Satellite, Ahmedabad - IITM",07-04-2026 09:00:00,23.023389,72.515201,PM10,14,73,30
India,Gujarat,Ahmedabad,"SAC ISRO Satellite, Ahmedabad - IITM",07-04-2026 09:00:00,23.023389,72.515201,SO2,7,22,12
India,Gujarat,Ahmedabad,"SVPI Airport Hansol, Ahmedabad - IITM",07-04-2026 09:00:00,23.076793,72.627874,NH3,1,3,2
India,Gujarat,Ankleshwar,"GIDC, Ankleshwar - GPCB",07-04-2026 09:00:00,21.613267,73.010555,PM10,64,103,81
India,Gujarat,Nandesari,"GIDC, Nandesari - Nandesari Ind. Association",07-04-2026 09:00:00,22.410802,73.097923,NO2,5,38,22
India,Gujarat,Rajkot,"Mavdi, Rajkot - Nexteng Enviro ",07-04-2026 09:00:00,22.248853,70.776774,NO2,5,13,8
India,Gujarat,Surat,"Katargam, Surat - Nexteng Enviro",07-04-2026 09:00:00,21.217779 ,72.834787 ,OZONE,11,11,11
India,Gujarat,Surat,"Science Center, Surat - SMC",07-04-2026 09:00:00,21.170046,72.795405,CO,29,51,30
India,Gujarat,Vadodara,"Bapunagar, Vadodara - Nexteng Enviro",07-04-2026 09:00:00,22.320153,73.216285,PM10,59,129,90
India,Gujarat,Vadodara,"Bapunagar, Vadodara - Nexteng Enviro",07-04-2026 09:00:00,22.320153,73.216285,CO,66,76,69
India,Gujarat,Vapi,"Phase-1 GIDC, Vapi - GPCB",07-04-2026 09:00:00,20.362421,72.918013,PM10,64,97,74
India,Gujarat,Ankleshwar,"GIDC, Ankleshwar - GPCB",07-04-2026 09:00:00,21.613267,73.010555,NH3,5,7,7
India,Gujarat,Ankleshwar,"GIDC, Ankleshwar - GPCB",07-04-2026 09:00:00,21.613267,73.010555,CO,28,68,52
India,Gujarat,Bhavnagar,"Vidhyanagar, Bhavnagar - Nexteng Enviro",07-04-2026 09:00:00,21.755417,72.139056,PM2.5,15,56,31
India,Gujarat,Bhavnagar,"Vidhyanagar, Bhavnagar - Nexteng Enviro",07-04-2026 09:00:00,21.755417,72.139056,NO2,57,84,66
India,Gujarat,Gandhinagar,"GIFT City, Gandhinagar - IITM",07-04-2026 09:00:00,23.163798,72.677768,NH3,4,7,5
India,Gujarat,Gandhinagar,"GIFT City, Gandhinagar - IITM",07-04-2026 09:00:00,23.163798,72.677768,CO,55,84,70
India,Gujarat,Gandhinagar,"Sector-10, Gandhinagar - GPCB",07-04-2026 09:00:00,23.221714,72.654328,PM10,52,89,66
India,Delhi,Delhi,"Rohini, Delhi - DPCC",07-04-2026 09:00:00,28.732528,77.119920,PM10,53,354,128
India,Delhi,Delhi,"Sirifort, Delhi - CPCB",07-04-2026 09:00:00,28.5504249,77.2159377,SO2,23,31,29
India,Delhi,Delhi,"Sonia Vihar, Delhi - DPCC",07-04-2026 09:00:00,28.710508,77.249485,NH3,5,8,6
India,Delhi,Delhi,"Sonia Vihar, Delhi - DPCC",07-04-2026 09:00:00,28.710508,77.249485,SO2,20,49,30
India,Delhi,Delhi,"Sri Aurobindo Marg, Delhi - DPCC",07-04-2026 09:00:00,28.531346,77.190156,PM2.5,27,230,51
India,Haryana,Ambala,"Patti Mehar, Ambala - HSPCB",07-04-2026 09:00:00,30.379589,76.778328,SO2,15,31,22
India,Haryana,Bahadurgarh,"Arya Nagar, Bahadurgarh - HSPCB",07-04-2026 09:00:00,28.6701,76.9254,PM10,51,77,64
India,Haryana,Ballabgarh,"Nathu Colony, Ballabgarh - HSPCB",07-04-2026 09:00:00,28.3419248,77.319699,NO2,19,21,20
India,Haryana,Ballabgarh,"Nathu Colony, Ballabgarh - HSPCB",07-04-2026 09:00:00,28.3419248,77.319699,CO,16,76,61
India,Delhi,Delhi,"Wazirpur, Delhi - DPCC",07-04-2026 09:00:00,28.699793,77.165453,NO2,39,136,65
India,Gujarat,Ahmedabad,"Chandkheda, Ahmedabad - IITM",07-04-2026 09:00:00,23.107969,72.574648,NO2,5,28,11
India,Gujarat,Ahmedabad,"Gyaspur, Ahmedabad - IITM",07-04-2026 09:00:00,22.977134,72.553024,SO2,30,84,54
India,Haryana,Bhiwani,"H.B. Colony, Bhiwani - HSPCB",07-04-2026 09:00:00,28.806223,76.141105,SO2,1,102,13
India,Haryana,Charkhi Dadri,"Mini Secretariat, Charkhi Dadri - HSPCB",07-04-2026 09:00:00,28.593883,76.270653,CO,12,31,16
India,Haryana,Faridabad,"New Industrial Town, Faridabad - HSPCB",07-04-2026 09:00:00,28.39072,77.30059,CO,9,12,11
India,Delhi,Delhi,"Vivek Vihar, Delhi - DPCC",07-04-2026 09:00:00,28.672342,77.315260,OZONE,13,145,35
India,Haryana,Rohtak,"MD University, Rohtak - HSPCB",07-04-2026 09:00:00,28.52123,76.37138,PM10,17,79,50
India,Haryana,Sirsa,"F-Block, Sirsa - HSPCB",07-04-2026 09:00:00,29.536400,75.015800,PM2.5,11,61,26
India,Haryana,Sirsa,"F-Block, Sirsa - HSPCB",07-04-2026 09:00:00,29.536400,75.015800,NO2,15,96,22
India,Haryana,Sirsa,"F-Block, Sirsa - HSPCB",07-04-2026 09:00:00,29.536400,75.015800,OZONE,1,16,13
India,Haryana,Sonipat,"Murthal, Sonipat - HSPCB",07-04-2026 09:00:00,29.027200,77.062100,OZONE,25,26,26
India,Haryana,Yamuna Nagar,"Gobind Pura, Yamuna Nagar - HSPCB",07-04-2026 09:00:00,30.1480566,77.2893471,NO2,11,20,15
India,Haryana,Yamuna Nagar,"Gobind Pura, Yamuna Nagar - HSPCB",07-04-2026 09:00:00,30.1480566,77.2893471,NH3,1,6,4
India,Haryana,Yamuna Nagar,"Gobind Pura, Yamuna Nagar - HSPCB",07-04-2026 09:00:00,30.1480566,77.2893471,SO2,10,15,12
India,Haryana,Yamuna Nagar,"Gobind Pura, Yamuna Nagar - HSPCB",07-04-2026 09:00:00,30.1480566,77.2893471,OZONE,8,33,14
India,Himachal Pradesh,Baddi,"HIMUDA Complex Phase-1, Baddi - HPPCB",07-04-2026 09:00:00,30.943887,76.801991,PM10,35,111,66
India,Jammu_and_Kashmir,Pampore,"Khrew, Pampore - JKPCC",07-04-2026 09:00:00,34.031606,75.009712,SO2,3,4,3
India,Jammu_and_Kashmir,Srinagar,"Khunmoh, Srinagar - JKPCC",07-04-2026 09:00:00,34.06313,74.96017,NO2,5,22,12
India,Jammu_and_Kashmir,Srinagar,"Rajbagh, Srinagar - JKPCC",07-04-2026 09:00:00,34.066206,74.819820,PM2.5,13,31,19
India,Jammu_and_Kashmir,Srinagar,"Rajbagh, Srinagar - JKPCC",07-04-2026 09:00:00,34.066206,74.819820,PM10,20,48,30
India,Jharkhand,Dhanbad,"Sardar Patel Nagar, Dhanbad - JSPCB",07-04-2026 09:00:00,23.80569,86.44268,CO,2,71,33
India,Jharkhand,Dhanbad,"Sardar Patel Nagar, Dhanbad - JSPCB",07-04-2026 09:00:00,23.80569,86.44268,OZONE,1,55,2
India,Jharkhand,Jorapokhar,"Tata Stadium, Jorapokhar - JSPCB",07-04-2026 09:00:00,23.707909,86.414670,PM2.5,40,73,49
India,Jharkhand,Jorapokhar,"Tata Stadium, Jorapokhar - JSPCB",07-04-2026 09:00:00,23.707909,86.414670,NH3,3,3,3
India,Jharkhand,Jorapokhar,"Tata Stadium, Jorapokhar - JSPCB",07-04-2026 09:00:00,23.707909,86.414670,SO2,4,4,4
India,Jharkhand,Jorapokhar,"Tata Stadium, Jorapokhar - JSPCB",07-04-2026 09:00:00,23.707909,86.414670,CO,38,40,39
India,Karnataka,Bengaluru,"BWSSB Kadabesanahalli, Bengaluru - CPCB",07-04-2026 09:00:00,12.9352049,77.6814488,NH3,1,1,1
India,Haryana,Manesar,"Sector-2 IMT, Manesar - HSPCB",07-04-2026 09:00:00,28.360699,76.936090,SO2,1,15,9
India,Haryana,Narnaul,"Shastri Nagar, Narnaul - HSPCB",07-04-2026 09:00:00,28.060249,76.113115,NH3,4,6,5
India,Haryana,Narnaul,"Shastri Nagar, Narnaul - HSPCB",07-04-2026 09:00:00,28.060249,76.113115,CO,21,38,31
India,Haryana,Palwal,"Shyam Nagar, Palwal - HSPCB",07-04-2026 09:00:00,28.1485564,77.3320667,PM2.5,34,80,47
India,Haryana,Palwal,"Shyam Nagar, Palwal - HSPCB",07-04-2026 09:00:00,28.1485564,77.3320667,CO,26,28,28
India,Haryana,Gurugram,"Teri Gram, Gurugram - HSPCB",07-04-2026 09:00:00,28.4275,77.1465,PM2.5,122,244,201
India,Haryana,Gurugram,"Teri Gram, Gurugram - HSPCB",07-04-2026 09:00:00,28.4275,77.1465,NH3,11,20,15
India,Haryana,Gurugram,"Teri Gram, Gurugram - HSPCB",07-04-2026 09:00:00,28.4275,77.1465,SO2,5,18,9
India,Haryana,Gurugram,"Vikas Sadan, Gurugram - HSPCB",07-04-2026 09:00:00,28.4501238,77.0263051,CO,66,114,97
India,Haryana,Hisar,"Urban Estate-II, Hisar - HSPCB",07-04-2026 09:00:00,29.140560,75.744941,NO2,32,33,32
India,Haryana,Hisar,"Urban Estate-II, Hisar - HSPCB",07-04-2026 09:00:00,29.140560,75.744941,CO,28,48,29
India,Haryana,Jind,"Police Lines, Jind - HSPCB",07-04-2026 09:00:00,29.307814,76.337619,PM10,25,122,57
India,Haryana,Jind,"Police Lines, Jind - HSPCB",07-04-2026 09:00:00,29.307814,76.337619,NH3,3,7,5
India,Haryana,Kaithal,"Rishi Nagar, Kaithal - HSPCB",07-04-2026 09:00:00,29.8006,76.4155,PM2.5,20,84,40
India,Haryana,Faridabad,"Sector 30, Faridabad - HSPCB",07-04-2026 09:00:00,28.4417,77.3217,OZONE,10,10,10
India,Haryana,Fatehabad,"Huda Sector, Fatehabad - HSPCB",07-04-2026 09:00:00,29.503664,75.467934,SO2,10,11,11
India,Haryana,Gurugram,"NISE Gwal Pahari, Gurugram - IMD",07-04-2026 09:00:00,28.422681,77.148944,NO2,6,34,19
India,Haryana,Gurugram,"NISE Gwal Pahari, Gurugram - IMD",07-04-2026 09:00:00,28.422681,77.148944,OZONE,16,83,24
India,Haryana,Kaithal,"Rishi Nagar, Kaithal - HSPCB",07-04-2026 09:00:00,29.8006,76.4155,PM10,24,102,49
India,Haryana,Kaithal,"Rishi Nagar, Kaithal - HSPCB",07-04-2026 09:00:00,29.8006,76.4155,NH3,5,7,6
India,Haryana,Karnal,"Sector-12, Karnal - HSPCB",07-04-2026 09:00:00,29.695300,77.002700,PM10,25,120,68
India,Haryana,Karnal,"Sector-12, Karnal - HSPCB",07-04-2026 09:00:00,29.695300,77.002700,CO,12,16,12
India,Haryana,Panchgaon,"Amity University, Panchgaon - IITM",07-04-2026 09:00:00,28.3153,76.9143,NH3,2,3,3
India,Haryana,Panchkula,"Sector-6, Panchkula - HSPCB ",07-04-2026 09:00:00,30.7057778,76.8531805555555,CO,8,39,27
India,Haryana,Faridabad,"Sector 11, Faridabad - HSPCB",07-04-2026 09:00:00,28.376058,77.315741,CO,39,42,40
India,Karnataka,Vijayapura,"Ibrahimpur, Vijayapura - KSPCB",07-04-2026 09:00:00,16.802639,75.722694,NH3,4,4,4
India,Karnataka,Yadgir,"Collector Office, Yadgir - KSPCB",07-04-2026 09:00:00,16.7602,77.1428,PM10,48,104,68
India,Karnataka,Yadgir,"Collector Office, Yadgir - KSPCB",07-04-2026 09:00:00,16.7602,77.1428,NH3,NA,NA,NA
India,Kerala,Kannur,"Thavakkara, Kannur - Kerala PCB",07-04-2026 09:00:00,11.875000,75.373200,SO2,1,4,1
India,Kerala,Kannur,"Thavakkara, Kannur - Kerala PCB",07-04-2026 09:00:00,11.875000,75.373200,CO,11,14,13
India,Kerala,Kollam,"Polayathode, Kollam - Kerala PCB",07-04-2026 09:00:00,8.8787,76.6073,NH3,1,1,1
India,Kerala,Kollam,"Polayathode, Kollam - Kerala PCB",07-04-2026 09:00:00,8.8787,76.6073,CO,14,18,16
India,Kerala,Thiruvananthapuram,"Plammoodu, Thiruvananthapuram - Kerala PCB",07-04-2026 09:00:00,8.5149093,76.9435879,SO2,7,25,16
India,Kerala,Thiruvananthapuram,"Plammoodu, Thiruvananthapuram - Kerala PCB",07-04-2026 09:00:00,8.5149093,76.9435879,CO,6,54,8
India,Kerala,Thrissur,"Corporation Ground, Thrissur - Kerala PCB",07-04-2026 09:00:00,10.532400,76.215900,PM10,59,80,70
India,Kerala,Thrissur,"Corporation Ground, Thrissur - Kerala PCB",07-04-2026 09:00:00,10.532400,76.215900,SO2,NA,NA,NA
India,Kerala,Thrissur,"Corporation Ground, Thrissur - Kerala PCB",07-04-2026 09:00:00,10.532400,76.215900,OZONE,31,32,31
India,Karnataka,Dharwad,"Kalabhavan, Dharwad - KSPCB",07-04-2026 09:00:00,15.459706,75.008381,PM2.5,40,58,50
India,Karnataka,Dharwad,"Kalabhavan, Dharwad - KSPCB",07-04-2026 09:00:00,15.459706,75.008381,PM10,52,77,65
India,Karnataka,Dharwad,"Kalabhavan, Dharwad - KSPCB",07-04-2026 09:00:00,15.459706,75.008381,NH3,6,7,6
India,Karnataka,Hubballi,"Lingaraj Nagar, Hubballi - KSPCB",07-04-2026 09:00:00,15.3714823,75.1160168,NH3,1,2,1
India,Karnataka,Hubballi,"Lingaraj Nagar, Hubballi - KSPCB",07-04-2026 09:00:00,15.3714823,75.1160168,SO2,1,2,2
India,Karnataka,Kalaburagi,"Mahatma Basaveswar Colony, Kalaburgi - KSPCB",07-04-2026 09:00:00,17.336318,76.847397,PM10,20,73,56
India,Karnataka,Kalaburagi,"Mahatma Basaveswar Colony, Kalaburgi - KSPCB",07-04-2026 09:00:00,17.336318,76.847397,NH3,2,3,3
India,Karnataka,Kalaburagi,"Mahatma Basaveswar Colony, Kalaburgi - KSPCB",07-04-2026 09:00:00,17.336318,76.847397,CO,28,61,37
India,Karnataka,Madikeri,"Stuart Hill, Madikeri - KSPCB",07-04-2026 09:00:00,12.415911,75.735050,OZONE,1,6,2
India,Karnataka,Mysuru,"Hebbal 1st Stage, Mysuru - KSPCB",07-04-2026 09:00:00,12.21041,76.37376,PM10,35,75,53
India,Karnataka,Mysuru,"Hebbal 1st Stage, Mysuru - KSPCB",07-04-2026 09:00:00,12.21041,76.37376,NO2,8,25,18
India,Karnataka,Bengaluru,"BWSSB Kadabesanahalli, Bengaluru - CPCB",07-04-2026 09:00:00,12.9352049,77.6814488,SO2,2,7,5
India,Karnataka,Bengaluru,"Bapuji Nagar, Bengaluru - KSPCB",07-04-2026 09:00:00,12.951913,77.539784,SO2,11,30,20
India,Karnataka,Bengaluru,"City Railway Station, Bengaluru - KSPCB",07-04-2026 09:00:00,12.9756843,77.5660749,NO2,45,53,49
India,Karnataka,Bengaluru,"Hebbal, Bengaluru - KSPCB",07-04-2026 09:00:00,13.029152,77.585901,PM2.5,16,79,38
India,Karnataka,Bengaluru,"Hebbal, Bengaluru - KSPCB",07-04-2026 09:00:00,13.029152,77.585901,PM10,36,115,62
India,Karnataka,Bengaluru,"Hombegowda Nagar, Bengaluru - KSPCB",07-04-2026 09:00:00,12.938539,77.590100,PM2.5,30,105,50
India,Karnataka,Bengaluru,"Hombegowda Nagar, Bengaluru - KSPCB",07-04-2026 09:00:00,12.938539,77.590100,PM10,32,135,65
India,Karnataka,Bengaluru,"Hombegowda Nagar, Bengaluru - KSPCB",07-04-2026 09:00:00,12.938539,77.590100,SO2,3,13,7
India,Karnataka,Bengaluru,"Jayanagar 5th Block, Bengaluru - KSPCB",07-04-2026 09:00:00,12.920984,77.584908,NO2,5,31,13
India,Madhya Pradesh,Bhopal,"Idgah Hills, Bhopal - MPPCB",07-04-2026 09:00:00,23.264759,77.381568,NH3,5,7,6
India,Madhya Pradesh,Bhopal,"Paryavaran Parisar, Bhopal - MPPCB",07-04-2026 09:00:00,23.210494,77.425409,PM10,40,216,93
India,Madhya Pradesh,Bhopal,"Paryavaran Parisar, Bhopal - MPPCB",07-04-2026 09:00:00,23.210494,77.425409,NO2,22,137,54
India,Madhya Pradesh,Bhopal,"T T Nagar, Bhopal - MPPCB",07-04-2026 09:00:00,23.233584,77.400574,NH3,3,6,5
India,Madhya Pradesh,Damoh,"Shrivastav Colony, Damoh - MPPCB",07-04-2026 09:00:00,23.81748678,79.446246,PM10,38,443,144
India,Madhya Pradesh,Dewas,"Bhopal Chauraha, Dewas - MPPCB",07-04-2026 09:00:00,22.9682591,76.064118,PM2.5,26,389,168
India,Madhya Pradesh,Dewas,"Bhopal Chauraha, Dewas - MPPCB",07-04-2026 09:00:00,22.9682591,76.064118,NH3,4,6,5
India,Madhya Pradesh,Gwalior,"City Center, Gwalior - MPPCB",07-04-2026 09:00:00,26.203442,78.193251,CO,10,67,16
India,Karnataka,Bengaluru,"Silk Board, Bengaluru - KSPCB",07-04-2026 09:00:00,12.917348,77.622813,OZONE,1,37,11
India,Karnataka,Bidar,"Naubad, Bidar - KSPCB",07-04-2026 09:00:00,17.930306,77.482194,NH3,4,5,4
India,Karnataka,Chamarajanagar,"Urban, Chamarajanagar - KSPCB",07-04-2026 09:00:00,11.55358,76.55521,NO2,14,36,24
India,Karnataka,Chamarajanagar,"Urban, Chamarajanagar - KSPCB",07-04-2026 09:00:00,11.55358,76.55521,SO2,3,6,4
India,Karnataka,Chamarajanagar,"Urban, Chamarajanagar - KSPCB",07-04-2026 09:00:00,11.55358,76.55521,OZONE,12,38,18
India,Karnataka,Chikkaballapur,"Chikkaballapur Rural, Chikkaballapur - KSPCB",07-04-2026 09:00:00,13.428828,77.731418,NO2,8,58,21
India,Karnataka,Chikkaballapur,"Chikkaballapur Rural, Chikkaballapur - KSPCB",07-04-2026 09:00:00,13.428828,77.731418,NH3,3,14,5
India,Karnataka,Chikkamagaluru,"Kalyana Nagara, Chikkamagaluru - KSPCB",07-04-2026 09:00:00,13.328028,75.797056,PM10,15,34,29
India,Karnataka,Bengaluru,"Kasturi Nagar, Bengaluru - KSPCB",07-04-2026 09:00:00,13.003872,77.664217,PM2.5,NA,NA,NA
India,Karnataka,Bengaluru,"Kasturi Nagar, Bengaluru - KSPCB",07-04-2026 09:00:00,13.003872,77.664217,OZONE,NA,NA,NA
India,Karnataka,Bengaluru,"Peenya, Bengaluru - CPCB",07-04-2026 09:00:00,13.0270199,77.494094,PM2.5,NA,NA,NA
India,Karnataka,Bengaluru,"Peenya, Bengaluru - CPCB",07-04-2026 09:00:00,13.0270199,77.494094,NH3,2,5,4
India,Karnataka,Bengaluru,"RVCE-Mailasandra, Bengaluru - KSPCB",07-04-2026 09:00:00,12.921418,77.502466,PM2.5,NA,NA,NA
India,Karnataka,Bengaluru,"RVCE-Mailasandra, Bengaluru - KSPCB",07-04-2026 09:00:00,12.921418,77.502466,PM10,NA,NA,NA
India,Karnataka,Bengaluru,"RVCE-Mailasandra, Bengaluru - KSPCB",07-04-2026 09:00:00,12.921418,77.502466,NH3,3,4,4
India,Karnataka,Bengaluru,"RVCE-Mailasandra, Bengaluru - KSPCB",07-04-2026 09:00:00,12.921418,77.502466,CO,1,62,24
India,Karnataka,Bengaluru,"Silk Board, Bengaluru - KSPCB",07-04-2026 09:00:00,12.917348,77.622813,SO2,3,13,6
India,Karnataka,Ramanagara,"Vijay Nagar, Ramanagara - KSPCB",07-04-2026 09:00:00,12.733409,77.298051,OZONE,8,43,19
India,Karnataka,Shivamogga,"Vinoba Nagara, Shivamogga - KSPCB",07-04-2026 09:00:00,13.940000,75.555917,PM10,30,50,46
India,Karnataka,Shivamogga,"Vinoba Nagara, Shivamogga - KSPCB",07-04-2026 09:00:00,13.940000,75.555917,SO2,3,4,3
India,Madhya Pradesh,Gwalior,"Deen Dayal Nagar, Gwalior - MPPCB",07-04-2026 09:00:00,26.259242,78.216432,OZONE,49,141,89
India,Madhya Pradesh,Gwalior,"Maharaj Bada, Gwalior - MPPCB",07-04-2026 09:00:00,26.200388,78.147714,PM2.5,3,180,55
India,Madhya Pradesh,Gwalior,"Maharaj Bada, Gwalior - MPPCB",07-04-2026 09:00:00,26.200388,78.147714,PM10,14,195,88
India,Karnataka,Vijayapura,"Ibrahimpur, Vijayapura - KSPCB",07-04-2026 09:00:00,16.802639,75.722694,PM2.5,30,31,30
India,Maharashtra,Amravati,"Shri Shivaji Science College, Amravati - MPCB",07-04-2026 09:00:00,20.939198,77.765701,CO,10,38,21
India,Maharashtra,Aurangabad,"MIDC Chilkalthana, Aurangabad - MPCB",07-04-2026 09:00:00,19.875620,75.387310,PM2.5,13,23,18
India,Maharashtra,Aurangabad,"MIDC Chilkalthana, Aurangabad - MPCB",07-04-2026 09:00:00,19.875620,75.387310,NH3,1,4,3
India,Maharashtra,Aurangabad,"MIDC Chilkalthana, Aurangabad - MPCB",07-04-2026 09:00:00,19.875620,75.387310,SO2,1,14,10
India,Maharashtra,Aurangabad,"MIDC Chilkalthana, Aurangabad - MPCB",07-04-2026 09:00:00,19.875620,75.387310,CO,7,14,11
India,Maharashtra,Aurangabad,"More Chowk Waluj, Aurangabad - MPCB",07-04-2026 09:00:00,19.8389439,75.244448,OZONE,8,62,24
India,Maharashtra,Aurangabad,"Rachnakar Colony, Aurangabad - MPCB",07-04-2026 09:00:00,19.863756,75.321188,NO2,12,85,26
India,Maharashtra,Aurangabad,"Rachnakar Colony, Aurangabad - MPCB",07-04-2026 09:00:00,19.863756,75.321188,CO,16,74,39
India,Maharashtra,Badlapur,"Katrap, Badlapur - MPCB",07-04-2026 09:00:00,19.16485,73.23409,NO2,9,31,19
India,Maharashtra,Badlapur,"Katrap, Badlapur - MPCB",07-04-2026 09:00:00,19.16485,73.23409,SO2,3,13,9
India,Maharashtra,Jalna,"Old MIDC, Jalna - MPCB",07-04-2026 09:00:00,19.854616,75.905894,NO2,17,20,18
India,Maharashtra,Jalna,"Old MIDC, Jalna - MPCB",07-04-2026 09:00:00,19.854616,75.905894,SO2,8,13,10
India,Maharashtra,Jalna,"Old MIDC, Jalna - MPCB",07-04-2026 09:00:00,19.854616,75.905894,CO,6,22,18
India,Maharashtra,Kalyan,"Khadakpada, Kalyan - MPCB",07-04-2026 09:00:00,19.25292,73.142019,NO2,36,36,36
India,Maharashtra,Kalyan,"Khadakpada, Kalyan - MPCB",07-04-2026 09:00:00,19.25292,73.142019,OZONE,8,8,8
India,Maharashtra,Kalyan,"Pimpleshwar Mandir, Kalyan - MPCB",07-04-2026 09:00:00,19.192056,72.9585188,PM2.5,13,52,28
India,Maharashtra,Kalyan,"Pimpleshwar Mandir, Kalyan - MPCB",07-04-2026 09:00:00,19.192056,72.9585188,SO2,8,14,10
India,Maharashtra,Kolhapur,"Shivaji University, Kolhapur - MPCB",07-04-2026 09:00:00,16.6870449,74.2505872,PM2.5,15,51,26
India,Maharashtra,Kolhapur,"Shivaji University, Kolhapur - MPCB",07-04-2026 09:00:00,16.6870449,74.2505872,CO,9,26,13
India,Maharashtra,Kolhapur,"Sinchan Bhavan, Kolhapur - MPCB",07-04-2026 09:00:00,16.7143745,74.2426398,PM2.5,NA,NA,NA
India,Maharashtra,Kolhapur,"Sinchan Bhavan, Kolhapur - MPCB",07-04-2026 09:00:00,16.7143745,74.2426398,NO2,NA,NA,NA
India,Madhya Pradesh,Singrauli,"Suryakiran Bhawan NCL, Singrauli - MPPCB",07-04-2026 09:00:00,24.108970,82.645580,CO,21,122,71
India,Madhya Pradesh,Ujjain,"Mahashweta Nagar, Ujjain - MPPCB",07-04-2026 09:00:00,23.1633321,75.800225,PM10,NA,NA,NA
India,Maharashtra,Ahmednagar,"Tarakpur, Ahmednagar - MPCB",07-04-2026 09:00:00,19.10122,74.73339,NH3,5,7,6
India,Maharashtra,Akola,"Ramdaspeth, Akola - MPCB",07-04-2026 09:00:00,20.719516,77.000253,NO2,10,29,15
India,Maharashtra,Akola,"Ramdaspeth, Akola - MPCB",07-04-2026 09:00:00,20.719516,77.000253,NH3,1,8,4
India,Maharashtra,Ambernath,"Chinchpada, Ambernath - MPCB",07-04-2026 09:00:00,19.2157840,73.1997810,PM2.5,15,33,22
India,Maharashtra,Ambernath,"Chinchpada, Ambernath - MPCB",07-04-2026 09:00:00,19.2157840,73.1997810,NH3,2,4,3
India,Maharashtra,Beed,"Bir, Beed - MPCB",07-04-2026 09:00:00,18.988474,75.753873,PM10,47,92,61
India,Maharashtra,Belapur,"CBD Belapur, Belapur - MPCB",07-04-2026 09:00:00,19.0243902,73.0406721,NO2,9,22,15
India,Maharashtra,Belapur,"CBD Belapur, Belapur - MPCB",07-04-2026 09:00:00,19.0243902,73.0406721,NH3,4,9,6
India,Maharashtra,Belapur,"CBD Belapur, Belapur - MPCB",07-04-2026 09:00:00,19.0243902,73.0406721,CO,29,43,36
India,Maharashtra,Boisar,"Khaira, Boisar - MPCB",07-04-2026 09:00:00,19.786089,72.757971,CO,2,89,37
India,Maharashtra,Boisar,"Khaira, Boisar - MPCB",07-04-2026 09:00:00,19.786089,72.757971,OZONE,2,27,6
India,Maharashtra,Chandrapur,"Chauhan Colony, Chandrapur - MPCB",07-04-2026 09:00:00,19.962900,79.298714,PM10,61,177,119
India,Maharashtra,Chandrapur,"Chauhan Colony, Chandrapur - MPCB",07-04-2026 09:00:00,19.962900,79.298714,NO2,34,43,37
India,Maharashtra,Chandrapur,"Chauhan Colony, Chandrapur - MPCB",07-04-2026 09:00:00,19.962900,79.298714,SO2,21,55,28
India,Madhya Pradesh,Mandideep,"Sector-D Industrial Area, Mandideep - MPPCB",07-04-2026 09:00:00,23.108440,77.511428,PM2.5,40,336,118
India,Madhya Pradesh,Mandideep,"Sector-D Industrial Area, Mandideep - MPPCB",07-04-2026 09:00:00,23.108440,77.511428,SO2,16,55,23
India,Madhya Pradesh,Pithampur,"Sector-2 Industrial Area, Pithampur - MPPCB",07-04-2026 09:00:00,22.624758,75.675238,PM10,64,183,126
India,Madhya Pradesh,Pithampur,"Sector-2 Industrial Area, Pithampur - MPPCB",07-04-2026 09:00:00,22.624758,75.675238,OZONE,29,155,43
India,Madhya Pradesh,Sagar,"Civil Lines, Sagar - MPPCB",07-04-2026 09:00:00,23.838586,78.759431,OZONE,23,188,38
India,Madhya Pradesh,Sagar,"Deen Dayal Nagar, Sagar - MPPCB",07-04-2026 09:00:00,23.8640158,78.80289321,SO2,2,9,4
India,Madhya Pradesh,Jabalpur,"Govindh Bhavan Colony, Jabalpur - JMC",07-04-2026 09:00:00,23.163174,79.973061,PM2.5,20,90,42
India,Madhya Pradesh,Jabalpur,"Gupteshwar, Jabalpur - JMC",07-04-2026 09:00:00,23.142888,79.916147,OZONE,1,34,7
India,Madhya Pradesh,Jabalpur,"Marhatal, Jabalpur - MPPCB",07-04-2026 09:00:00,23.168606,79.932247,CO,46,145,112
India,Madhya Pradesh,Jabalpur,"Marhatal, Jabalpur - MPPCB",07-04-2026 09:00:00,23.168606,79.932247,OZONE,20,39,32
India,Madhya Pradesh,Jabalpur,"Suhagi, Jabalpur - JMC",07-04-2026 09:00:00,23.218135,79.957770,SO2,10,22,15
India,Madhya Pradesh,Katni,"Gole Bazar, Katni - MPPCB",07-04-2026 09:00:00,23.50016,80.23284,NH3,2,8,6
India,Maharashtra,Chandrapur,"MIDC Khutala, Chandrapur - MPCB",07-04-2026 09:00:00,19.9775302,79.2337086,NO2,6,28,16
India,Maharashtra,Hingoli,"Ashta Vinayak Nagar, Hingoli - MPCB",07-04-2026 09:00:00,19.710842,77.151824,NH3,3,4,3
India,Maharashtra,Hingoli,"Ashta Vinayak Nagar, Hingoli - MPCB",07-04-2026 09:00:00,19.710842,77.151824,CO,8,34,25
India,Maharashtra,Jalgaon,"Prabhat Colony, Jalgaon - MPCB",07-04-2026 09:00:00,21.001264,75.565602,NH3,1,2,2
India,Maharashtra,Mahad,"Kamble Tarf Birwadi, Mahad - MPCB",07-04-2026 09:00:00,18.1023399,73.4783687,OZONE,21,73,26
India,Maharashtra,Malegaon,"Mahesh Nagar, Malegaon - MPCB",07-04-2026 09:00:00,20.555712,74.529236,SO2,14,21,18
India,Madhya Pradesh,Indore,"Maguda Nagar, Indore - IMC",07-04-2026 09:00:00,22.7524,75.8872,SO2,51,75,62
India,Maharashtra,Mumbai,"Mulund West, Mumbai - MPCB",07-04-2026 09:00:00,19.1750,72.9419,NH3,3,4,3
India,Maharashtra,Mumbai,"Sewri, Mumbai - BMC",07-04-2026 09:00:00,19.000084,72.856730,PM2.5,9,48,23
India,Maharashtra,Mumbai,"Sewri, Mumbai - BMC",07-04-2026 09:00:00,19.000084,72.856730,CO,8,44,16
India,Maharashtra,Mumbai,"Sewri, Mumbai - BMC",07-04-2026 09:00:00,19.000084,72.856730,OZONE,6,71,24
India,Maharashtra,Mumbai,"Siddharth Nagar-Worli, Mumbai - IITM",07-04-2026 09:00:00,19.000083,72.813993,PM10,23,49,29
India,Maharashtra,Mumbai,"Khindipada-Bhandup West, Mumbai - IITM",07-04-2026 09:00:00,19.1653323,72.922099,SO2,4,29,12
India,Maharashtra,Mumbai,"Khindipada-Bhandup West, Mumbai - IITM",07-04-2026 09:00:00,19.1653323,72.922099,CO,4,34,8
India,Maharashtra,Mumbai,"Malad West, Mumbai - IITM",07-04-2026 09:00:00,19.19709,72.82204,SO2,3,19,9
India,Maharashtra,Mumbai,"Mindspace-Malad West, Mumbai - MPCB",07-04-2026 09:00:00,19.1878657,72.8304069,NO2,3,38,9
India,Maharashtra,Mumbai,"Sion, Mumbai - MPCB",07-04-2026 09:00:00,19.047000,72.874600,NO2,27,31,29
India,Maharashtra,Mumbai,"Vile Parle West, Mumbai - MPCB",07-04-2026 09:00:00,19.10861,72.83622,NH3,6,6,6
India,Maharashtra,Mumbai,"Vile Parle West, Mumbai - MPCB",07-04-2026 09:00:00,19.10861,72.83622,CO,30,30,30
India,Maharashtra,Nagpur,"Mahal, Nagpur - MPCB",07-04-2026 09:00:00,21.14472,79.107595,NH3,6,9,7
India,Maharashtra,Mumbai,"Bandra Kurla Complex, Mumbai - MPCB",07-04-2026 09:00:00,19.065931,72.862131,PM10,14,259,87
India,Maharashtra,Mumbai,"Bandra Kurla Complex, Mumbai - MPCB",07-04-2026 09:00:00,19.065931,72.862131,NH3,2,6,4
India,Maharashtra,Mumbai,"Bandra Kurla Complex, Mumbai - MPCB",07-04-2026 09:00:00,19.065931,72.862131,SO2,1,4,3
India,Maharashtra,Mumbai,"Borivali East, Mumbai - IITM",07-04-2026 09:00:00,19.23241,72.86895,OZONE,16,78,26
India,Maharashtra,Mumbai,"Chembur, Mumbai - MPCB",07-04-2026 09:00:00,19.0364585,72.8954371,PM2.5,16,44,28
India,Maharashtra,Mumbai,"Chembur, Mumbai - MPCB",07-04-2026 09:00:00,19.0364585,72.8954371,NH3,9,14,12
India,Maharashtra,Mumbai,"Colaba, Mumbai - MPCB",07-04-2026 09:00:00,18.910000,72.820000,PM2.5,7,50,19
India,Maharashtra,Mumbai,"Colaba, Mumbai - MPCB",07-04-2026 09:00:00,18.910000,72.820000,PM10,8,60,23
India,Maharashtra,Mumbai,"Deonar, Mumbai - IITM",07-04-2026 09:00:00,19.04946,72.9230,PM2.5,NA,NA,NA
India,Maharashtra,Mumbai,"Deonar, Mumbai - IITM",07-04-2026 09:00:00,19.04946,72.9230,PM10,NA,NA,NA
India,Maharashtra,Mumbai,"Deonar, Mumbai - IITM",07-04-2026 09:00:00,19.04946,72.9230,NH3,NA,NA,NA
India,Maharashtra,Mumbai,"Khindipada-Bhandup West, Mumbai - IITM",07-04-2026 09:00:00,19.1653323,72.922099,PM10,12,109,42
India,Maharashtra,Mumbai,"Kherwadi_Bandra East, Mumbai - MPCB",07-04-2026 09:00:00,19.0632143,72.8456324,OZONE,8,52,30
India,Maharashtra,Mumbai,"Mindspace-Malad West, Mumbai - MPCB",07-04-2026 09:00:00,19.1878657,72.8304069,NH3,2,6,2
India,Maharashtra,Pimpri-Chinchwad,"Transport Nagar-Nigdi, Pune - IITM",07-04-2026 09:00:00,18.664282,73.763966,PM2.5,8,58,31
India,Maharashtra,Pune,"Dhankawadi, Pune - IITM",07-04-2026 09:00:00,18.459883,73.852193,PM2.5,16,73,38
India,Maharashtra,Pune,"Dhankawadi, Pune - IITM",07-04-2026 09:00:00,18.459883,73.852193,NO2,17,30,22
India,Maharashtra,Pune,"Dhankawadi, Pune - IITM",07-04-2026 09:00:00,18.459883,73.852193,CO,43,115,108
India,Maharashtra,Pune,"Dhankawadi, Pune - IITM",07-04-2026 09:00:00,18.459883,73.852193,OZONE,14,67,21
India,Maharashtra,Pune,"Hadapsar, Pune - IITM",07-04-2026 09:00:00,18.501793,73.927532,PM2.5,NA,NA,NA
India,Maharashtra,Pune,"Hadapsar, Pune - IITM",07-04-2026 09:00:00,18.501793,73.927532,PM10,NA,NA,NA
India,Maharashtra,Pune,"Hadapsar, Pune - IITM",07-04-2026 09:00:00,18.501793,73.927532,CO,NA,NA,NA
India,Maharashtra,Pune,"Katraj Dairy, Pune - MPCB",07-04-2026 09:00:00,18.454450,73.854155,PM2.5,3,48,10
India,Maharashtra,Pune,"Katraj Dairy, Pune - MPCB",07-04-2026 09:00:00,18.454450,73.854155,NH3,1,8,3
India,Maharashtra,Solapur,"Ratandeep Housing Society, Solapur - MPCB",07-04-2026 09:00:00,17.65439,75.90649,CO,12,104,21
India,Maharashtra,Thane,"Kasarvadavali, Thane - MPCB",07-04-2026 09:00:00,19.26777,72.97182,OZONE,2,39,4
India,Maharashtra,Thane,"Upvan Fort, Thane - MPCB",07-04-2026 09:00:00,19.222279,72.957979,PM10,1,121,81
India,Maharashtra,Ulhasnagar,"Sidhi Vinayak Nagar, Ulhasnagar - MPCB",07-04-2026 09:00:00,19.235581,73.159121,CO,6,17,14
India,Maharashtra,Ulhasnagar,"Vithalwadi, Ulhasnagar - MPCB",07-04-2026 09:00:00,19.2307571 ,73.1551920,PM2.5,12,28,19
India,Maharashtra,Ulhasnagar,"Vithalwadi, Ulhasnagar - MPCB",07-04-2026 09:00:00,19.2307571 ,73.1551920,NH3,2,3,3
India,Maharashtra,Pune,"Mhada Colony, Pune - IITM",07-04-2026 09:00:00,18.573040,73.927715,NO2,NA,NA,NA
India,Maharashtra,Pune,"Panchawati_Pashan, Pune - IITM",07-04-2026 09:00:00,18.536457,73.805454,CO,27,82,70
India,Maharashtra,Pune,"Revenue Colony-Shivajinagar, Pune - IITM",07-04-2026 09:00:00,18.530085,73.849598,PM10,26,62,45
India,Maharashtra,Pune,"Revenue Colony-Shivajinagar, Pune - IITM",07-04-2026 09:00:00,18.530085,73.849598,NO2,16,52,31
India,Maharashtra,Pune,"Savitribai Phule Pune University, Pune - MPCB",07-04-2026 09:00:00,18.547056,73.826908,PM2.5,14,24,19
India,Maharashtra,Solapur,"Dnyaneshwar Nagar, Solapur - MPCB",07-04-2026 09:00:00,17.6336264,75.9132495,NH3,9,38,16
India,Maharashtra,Navi Mumbai,"Sector-2E Kalamboli, Navi Mumbai - MPCB",07-04-2026 09:00:00,19.02579,73.10297,CO,13,24,20
India,Maharashtra,Navi Mumbai,"Tondare-Taloja, Navi Mumbai - MPCB",07-04-2026 09:00:00,19.0630,73.1209,NH3,3,8,4
India,Maharashtra,Navi Mumbai,"Tondare-Taloja, Navi Mumbai - MPCB",07-04-2026 09:00:00,19.0630,73.1209,SO2,2,3,2
India,Maharashtra,Parbhani,"Masoom Colony, Parbhani - MPCB",07-04-2026 09:00:00,19.265594,76.761463,SO2,1,17,14
India,Maharashtra,Pimpri-Chinchwad,"Bhumkar Nagar, Pune - IITM",07-04-2026 09:00:00,18.605770,73.749976,PM2.5,NA,NA,NA
India,Meghalaya,Byrnihat,"15th Mile-Nongthymmai, Byrnihat - Meghalaya PCB",07-04-2026 09:00:00,26.05374,91.86796,SO2,NA,NA,NA
India,Meghalaya,Shillong,"JN Stadium, Shillong - Meghalaya PCB",07-04-2026 09:00:00,25.5803419,91.8942571,PM2.5,12,78,30
India,Mizoram,Aizawl,"Sikulpuikawn, Aizawl - Mizoram PCB",07-04-2026 09:00:00,23.7176342,92.7192841,PM2.5,6,55,38
India,Maharashtra,Nagpur,"Mahal, Nagpur - MPCB",07-04-2026 09:00:00,21.14472,79.107595,OZONE,13,49,16
India,Maharashtra,Nagpur,"Opp GPO Civil Lines, Nagpur - MPCB",07-04-2026 09:00:00,21.152875,79.0517531,NO2,14,108,39
India,Maharashtra,Nagpur,"Opp GPO Civil Lines, Nagpur - MPCB",07-04-2026 09:00:00,21.152875,79.0517531,CO,NA,NA,NA
India,Maharashtra,Nagpur,"Ram Nagar, Nagpur - MPCB",07-04-2026 09:00:00,21.143383,79.048912,CO,11,38,17
India,Maharashtra,Nashik,"Pandav Nagari, Nashik - MPCB",07-04-2026 09:00:00,19.9591346,73.7788008,PM2.5,22,58,45
India,Maharashtra,Nashik,"Pandav Nagari, Nashik - MPCB",07-04-2026 09:00:00,19.9591346,73.7788008,NO2,8,13,11
India,Maharashtra,Navi Mumbai,"Kopripada-Vashi, Navi Mumbai - MPCB",07-04-2026 09:00:00,19.090337,73.014232,NH3,2,9,5
India,Maharashtra,Nashik,"Gangapur Road, Nashik - MPCB",07-04-2026 09:00:00,20.0073285,73.7762427,CO,25,27,26
India,Maharashtra,Nashik,"Hirawadi, Nashik - MPCB",07-04-2026 09:00:00,20.021503,73.813844,SO2,4,12,7
India,Maharashtra,Nashik,"MIDC Ambad, Nashik - MPCB",07-04-2026 09:00:00,19.950220,73.731480,PM2.5,15,87,57
India,Maharashtra,Pimpri-Chinchwad,"Savta Mali Nagar, Pimpri-Chinchwad - IITM",07-04-2026 09:00:00,18.614767,73.799516,PM10,NA,NA,NA
India,Maharashtra,Pimpri-Chinchwad,"Thergaon, Pimpri Chinchwad - MPCB",07-04-2026 09:00:00,18.616318,73.765797,NO2,11,43,25
India,Odisha,Bhubaneswar,"Patia, Bhubaneswar - OSPCB",07-04-2026 09:00:00,20.34652,85.81630,OZONE,10,59,14
India,Odisha,Bileipada,"Tata Township, Bileipada - OSPCB",07-04-2026 09:00:00,22.06156703,85.47409613,PM2.5,31,193,101
India,Odisha,Bileipada,"Tata Township, Bileipada - OSPCB",07-04-2026 09:00:00,22.06156703,85.47409613,PM10,68,149,106
India,Odisha,Bileipada,"Tata Township, Bileipada - OSPCB",07-04-2026 09:00:00,22.06156703,85.47409613,NO2,8,9,8
India,Odisha,Bileipada,"Tata Township, Bileipada - OSPCB",07-04-2026 09:00:00,22.06156703,85.47409613,OZONE,14,20,15
India,Odisha,Brajrajnagar,"GM Office, Brajrajnagar - OSPCB",07-04-2026 09:00:00,21.8004996,83.8396977,PM2.5,1,51,24
India,Odisha,Brajrajnagar,"GM Office, Brajrajnagar - OSPCB",07-04-2026 09:00:00,21.8004996,83.8396977,PM10,2,72,33
India,Odisha,Byasanagar,"Ferro Chrome Colony, Byasanagar - OSPCB",07-04-2026 09:00:00,20.94185,86.11510,NH3,2,3,2
India,Odisha,Byasanagar,"Ferro Chrome Colony, Byasanagar - OSPCB",07-04-2026 09:00:00,20.94185,86.11510,CO,6,24,11
India,Odisha,Cuttack,"CDA Area, Cuttack - OSPCB",07-04-2026 09:00:00,20.48891     ,85.84768     ,PM2.5,23,50,37
India,Odisha,Cuttack,"CDA Area, Cuttack - OSPCB",07-04-2026 09:00:00,20.48891     ,85.84768     ,CO,57,90,71
India,Odisha,Keonjhar,"Jagamohanpur, Keonjhar - OSPCB",07-04-2026 09:00:00,21.643900,85.599355,PM2.5,13,59,43
India,Punjab,Khanna,"Kalal Majra, Khanna - PPCB",07-04-2026 09:00:00,30.736056 ,76.209694,CO,10,30,14
India,Punjab,Ludhiana,"Punjab Agricultural University, Ludhiana - PPCB",07-04-2026 09:00:00,30.9028,75.8086,PM10,69,94,86
India,Punjab,Ludhiana,"Punjab Agricultural University, Ludhiana - PPCB",07-04-2026 09:00:00,30.9028,75.8086,NO2,31,36,33
India,Punjab,Ludhiana,"Punjab Agricultural University, Ludhiana - PPCB",07-04-2026 09:00:00,30.9028,75.8086,OZONE,41,76,60
India,Punjab,Mandi Gobindgarh,"RIMT University, Mandi Gobindgarh - PPCB",07-04-2026 09:00:00,30.649961,76.331442,NO2,23,24,24
India,Punjab,Patiala,"Model Town, Patiala - PPCB",07-04-2026 09:00:00,30.349388,76.366642,PM2.5,14,65,32
India,Punjab,Patiala,"Model Town, Patiala - PPCB",07-04-2026 09:00:00,30.349388,76.366642,NO2,16,19,18
India,Rajasthan,Ajmer,"Civil Lines,  Ajmer - RSPCB",07-04-2026 09:00:00,26.470859,74.646594,SO2,3,4,3
India,Rajasthan,Alwar,"Moti Doongri, Alwar - RSPCB",07-04-2026 09:00:00,27.554793,76.611536,PM10,67,109,84
India,Odisha,Suakati,"OMC Colony, Suakati - OSPCB",07-04-2026 09:00:00,21.606865,85.510538,OZONE,21,104,35
India,Odisha,Talcher,"Talcher Coalfields,Talcher - OSPCB",07-04-2026 09:00:00,20.9360711,85.1707021,OZONE,32,79,43
India,Odisha,Tensa,"Barsua Iron Ore Mines, Tensa - OSPCB",07-04-2026 09:00:00,21.869985,85.167016,PM2.5,18,37,25
India,Odisha,Tensa,"Barsua Iron Ore Mines, Tensa - OSPCB",07-04-2026 09:00:00,21.869985,85.167016,CO,15,50,38
India,Punjab,Bathinda,"Hardev Nagar, Bathinda - PPCB",07-04-2026 09:00:00,30.233011,74.907758,CO,46,80,79
India,Odisha,Balasore,"Kalidaspur, Balasore - OSPCB",07-04-2026 09:00:00,21.51161,86.89088,PM10,20,83,46
India,Odisha,Balasore,"Kalidaspur, Balasore - OSPCB",07-04-2026 09:00:00,21.51161,86.89088,SO2,6,15,8
India,Odisha,Baripada,"Meher Colony, Baripada - OSPCB",07-04-2026 09:00:00,21.941841,86.728318,NO2,1,13,6
India,Odisha,Baripada,"Meher Colony, Baripada - OSPCB",07-04-2026 09:00:00,21.941841,86.728318,CO,17,46,25
India,Odisha,Bhubaneswar,"Lingraj Mandir, Bhubaneswar - OSPCB",07-04-2026 09:00:00,20.240790,85.836784,NO2,NA,NA,NA
India,Odisha,Bhubaneswar,"Lingraj Mandir, Bhubaneswar - OSPCB",07-04-2026 09:00:00,20.240790,85.836784,OZONE,NA,NA,NA
India,Rajasthan,Baran,"Bamboliya, Baran - RSPCB",07-04-2026 09:00:00,25.106006,76.469948,PM10,48,273,103
India,Rajasthan,Baran,"Bamboliya, Baran - RSPCB",07-04-2026 09:00:00,25.106006,76.469948,SO2,4,32,11
India,Rajasthan,Barmer,"Railway Colony, Barmer - RSPCB",07-04-2026 09:00:00,25.747299,71.393989,PM10,50,147,82
India,Rajasthan,Barmer,"Railway Colony, Barmer - RSPCB",07-04-2026 09:00:00,25.747299,71.393989,OZONE,26,77,31
India,Rajasthan,Bharatpur,"Krishna Nagar, Bharatpur - RSPCB",07-04-2026 09:00:00,27.215415,77.50873,PM10,23,113,47
India,Odisha,Nayagarh,"Dabuna, Nayagarh - OSPCB",07-04-2026 09:00:00,21.847279,85.416905,PM10,29,73,50
India,Odisha,Nayagarh,"Dabuna, Nayagarh - OSPCB",07-04-2026 09:00:00,21.847279,85.416905,NO2,4,7,5
India,Odisha,Rourkela,"Fertilizer Township, Rourkela - OSPCB",07-04-2026 09:00:00,22.18972222,84.86277778,PM10,41,87,52
India,Odisha,Rourkela,"Raghunathpali, Rourkela - OSPCB",07-04-2026 09:00:00,22.220833,84.809444,NH3,1,2,1
India,Odisha,Rourkela,"Raghunathpali, Rourkela - OSPCB",07-04-2026 09:00:00,22.220833,84.809444,CO,32,104,77
India,Rajasthan,Bharatpur,"Krishna Nagar, Bharatpur - RSPCB",07-04-2026 09:00:00,27.215415,77.50873,CO,8,34,18
India,Rajasthan,Bhilwara,"Pratap Nagar, Bhilwara - RSPCB",07-04-2026 09:00:00,25.339605,74.618883,CO,28,66,33
India,Rajasthan,Bhilwara,"Pratap Nagar, Bhilwara - RSPCB",07-04-2026 09:00:00,25.339605,74.618883,OZONE,48,86,54
India,Rajasthan,Alwar,"Moti Doongri, Alwar - RSPCB",07-04-2026 09:00:00,27.554793,76.611536,NH3,8,15,12
India,Rajasthan,Alwar,"Moti Doongri, Alwar - RSPCB",07-04-2026 09:00:00,27.554793,76.611536,SO2,15,45,28
India,Rajasthan,Alwar,"Moti Doongri, Alwar - RSPCB",07-04-2026 09:00:00,27.554793,76.611536,CO,20,44,30
India,Odisha,Angul,"Hakimapada, Angul - OSPCB",07-04-2026 09:00:00,20.832874,85.104082,PM2.5,32,483,150
India,Rajasthan,Kota,"Nayapura, Kota - RSPCB",07-04-2026 09:00:00,25.196024,75.855668,NO2,14,111,45
India,Rajasthan,Kota,"Nayapura, Kota - RSPCB",07-04-2026 09:00:00,25.196024,75.855668,NH3,3,6,4
India,Rajasthan,Kota,"Shrinath Puram, Kota - RSPCB",07-04-2026 09:00:00,25.14389,75.821256,PM2.5,41,88,62
India,Rajasthan,Kota,"Shrinath Puram, Kota - RSPCB",07-04-2026 09:00:00,25.14389,75.821256,PM10,28,440,83
India,Rajasthan,Kota,"Shrinath Puram, Kota - RSPCB",07-04-2026 09:00:00,25.14389,75.821256,OZONE,7,42,11
India,Rajasthan,Nagaur,"Karni Colony, Nagaur - RSPCB",07-04-2026 09:00:00,27.213494,73.734444,PM2.5,2,33,16
India,Rajasthan,Nagaur,"Karni Colony, Nagaur - RSPCB",07-04-2026 09:00:00,27.213494,73.734444,PM10,16,165,69
India,Rajasthan,Nagaur,"Karni Colony, Nagaur - RSPCB",07-04-2026 09:00:00,27.213494,73.734444,NH3,4,8,6
India,Rajasthan,Nagaur,"Karni Colony, Nagaur - RSPCB",07-04-2026 09:00:00,27.213494,73.734444,CO,4,26,8
India,Rajasthan,Nagaur,"Karni Colony, Nagaur - RSPCB",07-04-2026 09:00:00,27.213494,73.734444,OZONE,64,118,76
India,Rajasthan,Pali,"Indira Colony Vistar, Pali - RSPCB",07-04-2026 09:00:00,25.771061, 73.340227,PM2.5,45,88,63
India,Rajasthan,Pali,"Indira Colony Vistar, Pali - RSPCB",07-04-2026 09:00:00,25.771061, 73.340227,NH3,2,8,4
India,Rajasthan,Pali,"Indira Colony Vistar, Pali - RSPCB",07-04-2026 09:00:00,25.771061, 73.340227,SO2,6,11,9
India,Rajasthan,Pratapgarh,"Pragati Nagar, Pratapgarh - RSPCB",07-04-2026 09:00:00,24.041198,74.780702,NH3,2,5,4
India,Rajasthan,Jaisalmer,"Sadar Bazar, Jaisalmer - RSPCB",07-04-2026 09:00:00,26.912329,70.909168,SO2,1,3,1
India,Rajasthan,Jalore,"Mudtra Sili, Jalore - RSPCB",07-04-2026 09:00:00,25.344694,72.626208,PM2.5,13,38,27
India,Rajasthan,Jalore,"Mudtra Sili, Jalore - RSPCB",07-04-2026 09:00:00,25.344694,72.626208,PM10,46,115,62
India,Rajasthan,Jalore,"Mudtra Sili, Jalore - RSPCB",07-04-2026 09:00:00,25.344694,72.626208,NO2,1,18,8
India,Rajasthan,Jalore,"Mudtra Sili, Jalore - RSPCB",07-04-2026 09:00:00,25.344694,72.626208,SO2,3,8,5
India,Rajasthan,Jhalawar,"Rajlaxmi Nagar, Jhalawar - RSPCB",07-04-2026 09:00:00,24.588397,76.172782,OZONE,20,111,54
India,Rajasthan,Jhunjhunu,"Indra Nagar, Jhunjhunu - RSPCB",07-04-2026 09:00:00,28.108988,75.386577,SO2,3,14,5
India,Rajasthan,Jodhpur,"Collectorate, Jodhpur - RSPCB",07-04-2026 09:00:00,26.268249,73.0193853,PM10,61,112,76
India,Rajasthan,Jodhpur,"Collectorate, Jodhpur - RSPCB",07-04-2026 09:00:00,26.268249,73.0193853,NH3,4,12,8
India,Rajasthan,Jodhpur,"Digari Kalan, Jodhpur - RSPCB",07-04-2026 09:00:00,26.295810,73.082283,CO,8,22,16
India,Rajasthan,Jaipur,"Adarsh Nagar, Jaipur - RSPCB",07-04-2026 09:00:00,26.902909,75.836858,NO2,12,37,18
India,Rajasthan,Jaipur,"Adarsh Nagar, Jaipur - RSPCB",07-04-2026 09:00:00,26.902909,75.836858,CO,8,40,27
India,Rajasthan,Jaipur,"Adarsh Nagar, Jaipur - RSPCB",07-04-2026 09:00:00,26.902909,75.836858,OZONE,44,86,55
India,Rajasthan,Jaipur,"Mansarovar Sector-12, Jaipur - RSPCB",07-04-2026 09:00:00,26.843698,75.766894,OZONE,NA,NA,NA
India,Rajasthan,Jaipur,"Police Commissionerate, Jaipur - RSPCB",07-04-2026 09:00:00,26.9164092,75.7994901,NO2,104,191,140
India,Rajasthan,Jaipur,"Police Commissionerate, Jaipur - RSPCB",07-04-2026 09:00:00,26.9164092,75.7994901,NH3,32,54,42
India,Rajasthan,Jaipur,"RIICO Sitapura, Jaipur - RSPCB",07-04-2026 09:00:00,26.786682,75.827928,NH3,2,6,3
India,Rajasthan,Jodhpur,"Jhalamand, Jodhpur - RSPCB",07-04-2026 09:00:00,26.215415,73.070156,CO,6,18,10
India,Rajasthan,Jodhpur,"Mandor, Jodhpur - RSPCB",07-04-2026 09:00:00,26.358805,73.047444,PM2.5,13,70,27
India,Rajasthan,Jodhpur,"Samrat Ashok Udhyan, Jodhpur - RSPCB",07-04-2026 09:00:00,26.253384,72.976571,PM2.5,15,55,26
India,Rajasthan,Jaipur,"Shastri Nagar, Jaipur - RSPCB",07-04-2026 09:00:00,26.9502929,75.730943,PM2.5,35,81,55
India,Rajasthan,Jaipur,"Shastri Nagar, Jaipur - RSPCB",07-04-2026 09:00:00,26.9502929,75.730943,PM10,39,100,66
India,Rajasthan,Jaisalmer,"Sadar Bazar, Jaisalmer - RSPCB",07-04-2026 09:00:00,26.912329,70.909168,PM2.5,8,50,29
India,Rajasthan,Churu,"Subash Chowk, Churu - RSPCB",07-04-2026 09:00:00,28.296139,74.961696,SO2,2,7,3
India,Rajasthan,Dholpur,"Raja Ganj, Dholpur - RSPCB",07-04-2026 09:00:00,26.699557,77.898881,PM2.5,28,133,64
India,Rajasthan,Dholpur,"Raja Ganj, Dholpur - RSPCB",07-04-2026 09:00:00,26.699557,77.898881,PM10,23,121,54
India,Rajasthan,Bhiwadi,"RIICO Ind. Area III, Bhiwadi - RSPCB",07-04-2026 09:00:00,28.194909,76.862296,NH3,6,23,14
India,Rajasthan,Bhiwadi,"RIICO Ind. Area III, Bhiwadi - RSPCB",07-04-2026 09:00:00,28.194909,76.862296,OZONE,5,233,6
India,Rajasthan,Bikaner,"MM Ground, Bikaner - RSPCB",07-04-2026 09:00:00,28.018792,73.292658,NO2,4,46,19
India,Rajasthan,Bundi,"New Colony, Bundi - RSPCB",07-04-2026 09:00:00,25.435774,75.644272,NO2,10,127,30
India,Rajasthan,Chittorgarh,"Shastri Nagar, Chittorgarh - RSPCB",07-04-2026 09:00:00,24.892047,74.623527,SO2,5,16,8
India,Rajasthan,Dungarpur,"Bhoiwada, Dungarpur - RSPCB",07-04-2026 09:00:00,23.837789,73.714926,NH3,7,11,10
India,Rajasthan,Hanumangarh,"Housing Board, Hanumangarh - RSPCB",07-04-2026 09:00:00,29.610750,74.283608,NH3,3,6,5
India,Rajasthan,Tonk,"Shastri Nagar, Tonk - RSPCB",07-04-2026 09:00:00,26.159933,75.780517,OZONE,57,198,81
India,Rajasthan,Udaipur,"Ashok Nagar, Udaipur - RSPCB",07-04-2026 09:00:00,24.5886166,73.6321397,PM10,51,88,67
India,Rajasthan,Udaipur,"Ashok Nagar, Udaipur - RSPCB",07-04-2026 09:00:00,24.5886166,73.6321397,CO,8,40,14
India,Sikkim,Gangtok,"Zero Point GICI, Gangtok - SSPCB",07-04-2026 09:00:00,27.338530,88.614099,PM2.5,15,37,25
India,TamilNadu,Chennai,"Arumbakkam, Chennai - TNPCB",07-04-2026 09:00:00,13.0664,80.2112 ,PM2.5,12,131,52
India,TamilNadu,Chennai,"Arumbakkam, Chennai - TNPCB",07-04-2026 09:00:00,13.0664,80.2112 ,PM10,33,202,83
India,TamilNadu,Chennai,"Arumbakkam, Chennai - TNPCB",07-04-2026 09:00:00,13.0664,80.2112 ,NH3,2,2,2
India,TamilNadu,Chennai,"Kodungaiyur, Chennai - TNPCB",07-04-2026 09:00:00,13.1278,80.2642,PM10,22,144,62
India,TamilNadu,Chennai,"Manali Village, Chennai - TNPCB",07-04-2026 09:00:00,13.1662,80.2584,NO2,6,13,8
India,Telangana,Hyderabad,"Somajiguda, Hyderabad - TSPCB",07-04-2026 09:00:00,17.417094,78.457437,CO,8,48,16
India,Telangana,Hyderabad,"Zoo Park, Hyderabad - TSPCB",07-04-2026 09:00:00,17.349694,78.451437,PM2.5,29,133,63
India,Telangana,Hyderabad,"Zoo Park, Hyderabad - TSPCB",07-04-2026 09:00:00,17.349694,78.451437,CO,2,46,7
India,Tripura,Agartala,"Bardowali, Agartala - Tripura SPCB",07-04-2026 09:00:00,23.8175497,91.2726974,PM2.5,60,265,137
India,Uttar_Pradesh,Agra,"Manoharpur, Agra - UPPCB",07-04-2026 09:00:00,27.23711,78.01936,SO2,9,77,13
India,Uttar_Pradesh,Agra,"Sanjay Palace, Agra - UPPCB",07-04-2026 09:00:00,27.19865833,78.00598056,NO2,8,11,9
India,Uttar_Pradesh,Agra,"Sanjay Palace, Agra - UPPCB",07-04-2026 09:00:00,27.19865833,78.00598056,OZONE,18,100,40
India,Rajasthan,Pratapgarh,"Pragati Nagar, Pratapgarh - RSPCB",07-04-2026 09:00:00,24.041198,74.780702,SO2,2,10,5
India,Rajasthan,Rajsamand,"Dhoinda, Rajsamand - RSPCB",07-04-2026 09:00:00,25.036360,73.883502,PM10,24,69,42
India,Rajasthan,Sawai Madhopur,"Sahu Nagar, Sawai Madhopur - RSPCB",07-04-2026 09:00:00,26.031443,76.359327,PM2.5,3,93,26
India,Rajasthan,Sawai Madhopur,"Sahu Nagar, Sawai Madhopur - RSPCB",07-04-2026 09:00:00,26.031443,76.359327,PM10,36,287,102
India,Rajasthan,Sirohi,"Vedhaynath Colony, Sirohi - RSPCB",07-04-2026 09:00:00,24.885261,72.857549,CO,6,26,20
India,Telangana,Hyderabad,"Kokapet, Hyderabad - TSPCB",07-04-2026 09:00:00,17.393559,78.339194,PM10,88,103,94
India,Telangana,Hyderabad,"Kompally Municipal Office, Hyderabad - TSPCB",07-04-2026 09:00:00,17.544899,78.486949,PM2.5,39,53,46
India,Telangana,Hyderabad,"Nacharam_TSIIC IALA, Hyderabad - TSPCB",07-04-2026 09:00:00,17.429398,78.569354,CO,9,32,30
India,Telangana,Hyderabad,"New Malakpet, Hyderabad - TSPCB",07-04-2026 09:00:00,17.37206,78.50864,PM2.5,37,112,53
India,Telangana,Hyderabad,"New Malakpet, Hyderabad - TSPCB",07-04-2026 09:00:00,17.37206,78.50864,OZONE,9,45,12
India,TamilNadu,Gummidipoondi,"Anthoni Pillai Nagar, Gummidipoondi - TNPCB",07-04-2026 09:00:00,13.4127,80.1081,SO2,9,49,26
India,Telangana,Hyderabad,"Central University, Hyderabad - TSPCB",07-04-2026 09:00:00,17.460103,78.334361,PM10,4,21,12
India,Telangana,Hyderabad,"Central University, Hyderabad - TSPCB",07-04-2026 09:00:00,17.460103,78.334361,OZONE,14,18,16
India,Telangana,Hyderabad,"ECIL Kapra, Hyderabad - TSPCB",07-04-2026 09:00:00,17.470431,78.566959,OZONE,14,36,14
India,TamilNadu,Chennai,"Manali, Chennai - CPCB",07-04-2026 09:00:00,13.164544,80.26285,SO2,11,23,16
India,TamilNadu,Chennai,"Royapuram, Chennai - TNPCB",07-04-2026 09:00:00,13.1036,80.2909,NO2,10,16,14
India,TamilNadu,Chennai,"Royapuram, Chennai - TNPCB",07-04-2026 09:00:00,13.1036,80.2909,NH3,4,5,4
India,TamilNadu,Coimbatore,"SIDCO Kurichi, Coimbatore - TNPCB",07-04-2026 09:00:00,10.942451,76.978996,PM2.5,21,69,40
India,Telangana,Hyderabad,"Sanathnagar, Hyderabad - TSPCB",07-04-2026 09:00:00,17.4559458,78.4332152,NO2,7,32,20
India,Telangana,Hyderabad,"Somajiguda, Hyderabad - TSPCB",07-04-2026 09:00:00,17.417094,78.457437,NO2,11,16,13
India,Telangana,Hyderabad,"Somajiguda, Hyderabad - TSPCB",07-04-2026 09:00:00,17.417094,78.457437,SO2,15,24,18
India,Uttar_Pradesh,Meerut,"Ganga Nagar, Meerut - UPPCB",07-04-2026 09:00:00,28.999264,77.7590354,PM10,54,286,137
India,Uttar_Pradesh,Meerut,"Jai Bhim Nagar, Meerut - UPPCB",07-04-2026 09:00:00,28.9535882,77.7622941,NO2,16,59,33
India,Uttar_Pradesh,Meerut,"Jai Bhim Nagar, Meerut - UPPCB",07-04-2026 09:00:00,28.9535882,77.7622941,NH3,6,10,8
India,Uttar_Pradesh,Meerut,"Pallavpuram Phase 2, Meerut - UPPCB",07-04-2026 09:00:00,29.063510,77.709723,SO2,1,50,25
India,Uttar_Pradesh,Moradabad,"Buddhi Vihar, Moradabad - UPPCB",07-04-2026 09:00:00,28.83526,78.74460,NO2,28,29,29
India,Uttar_Pradesh,Moradabad,"Buddhi Vihar, Moradabad - UPPCB",07-04-2026 09:00:00,28.83526,78.74460,NH3,5,5,5
India,Uttar_Pradesh,Moradabad,"Eco Herbal Park, Moradabad - UPPCB",07-04-2026 09:00:00,28.840739,78.697531,PM2.5,8,139,45
India,Uttar_Pradesh,Moradabad,"Eco Herbal Park, Moradabad - UPPCB",07-04-2026 09:00:00,28.840739,78.697531,NO2,14,49,31
India,Uttar_Pradesh,Moradabad,"Eco Herbal Park, Moradabad - UPPCB",07-04-2026 09:00:00,28.840739,78.697531,NH3,4,6,5
India,Uttar_Pradesh,Moradabad,"Eco Herbal Park, Moradabad - UPPCB",07-04-2026 09:00:00,28.840739,78.697531,CO,36,84,44
India,Uttar_Pradesh,Noida,"Sector - 62, Noida - IMD",07-04-2026 09:00:00,28.6245479,77.3577104,NO2,5,37,12
India,Uttar_Pradesh,Noida,"Sector - 62, Noida - IMD",07-04-2026 09:00:00,28.6245479,77.3577104,OZONE,19,113,40
India,Uttar_Pradesh,Noida,"Sector-1, Noida - UPPCB",07-04-2026 09:00:00,28.5898,77.3101,PM2.5,25,182,59
India,Uttar_Pradesh,Noida,"Sector-1, Noida - UPPCB",07-04-2026 09:00:00,28.5898,77.3101,NH3,6,15,11
India,Uttar_Pradesh,Noida,"Sector-116, Noida - UPPCB",07-04-2026 09:00:00,28.569230,77.393848,NO2,52,206,82
India,Uttar_Pradesh,Noida,"Sector-116, Noida - UPPCB",07-04-2026 09:00:00,28.569230,77.393848,CO,16,114,49
India,Uttar_Pradesh,Noida,"Sector-116, Noida - UPPCB",07-04-2026 09:00:00,28.569230,77.393848,OZONE,5,28,8
India,Uttar_Pradesh,Prayagraj,"Jhunsi, Prayagraj - UPPCB",07-04-2026 09:00:00,25.425602,81.917152,NH3,5,5,5
India,Uttar_Pradesh,Prayagraj,"Motilal Nehru NIT, Prayagraj - UPPCB",07-04-2026 09:00:00,25.494,81.863,PM2.5,10,76,42
India,Uttar_Pradesh,Prayagraj,"Motilal Nehru NIT, Prayagraj - UPPCB",07-04-2026 09:00:00,25.494,81.863,PM10,21,238,76
India,Uttar_Pradesh,Greater Noida,"Knowledge Park - III, Greater Noida - UPPCB",07-04-2026 09:00:00,28.47272,77.482000,SO2,5,28,14
India,Uttar_Pradesh,Greater Noida,"Knowledge Park - V, Greater Noida - UPPCB",07-04-2026 09:00:00,28.557054,77.453663,PM2.5,26,308,100
India,Uttar_Pradesh,Greater Noida,"Knowledge Park - V, Greater Noida - UPPCB",07-04-2026 09:00:00,28.557054,77.453663,PM10,119,431,200
India,Uttar_Pradesh,Hapur,"Anand Vihar, Hapur - UPPCB",07-04-2026 09:00:00,28.725645,77.749675,OZONE,15,49,19
India,Uttar_Pradesh,Jhansi,"Shivaji Nagar, Jhansi - UPPCB",07-04-2026 09:00:00,25.4547,78.6039,PM2.5,14,54,28
India,Uttar_Pradesh,Jhansi,"Shivaji Nagar, Jhansi - UPPCB",07-04-2026 09:00:00,25.4547,78.6039,NH3,4,4,4
India,Uttar_Pradesh,Kanpur,"FTI Kidwai Nagar, Kanpur - UPPCB",07-04-2026 09:00:00,26.428282,80.327067,CO,24,54,43
India,Uttar_Pradesh,Kanpur,"NSI Kalyanpur, Kanpur - UPPCB",07-04-2026 09:00:00,26.509954,80.249612,PM10,8,238,84
India,Uttar_Pradesh,Firozabad,"Vibhab Nagar, Firozabad - UPPCB",07-04-2026 09:00:00,27.1594,78.3953,SO2,2,3,3
India,Uttar_Pradesh,Ghaziabad,"Indirapuram, Ghaziabad - UPPCB",07-04-2026 09:00:00,28.646233,77.358075,CO,18,75,50
India,Uttar_Pradesh,Ghaziabad,"Sanjay Nagar, Ghaziabad - UPPCB",07-04-2026 09:00:00,28.685382,77.453839,NO2,28,135,60
India,Uttar_Pradesh,Ghaziabad,"Vasundhara, Ghaziabad - UPPCB",07-04-2026 09:00:00,28.6603346,77.3572563,CO,17,108,43
India,Uttar_Pradesh,Gorakhpur,"Madan Mohan Malaviya University of Technology, Gorakhpur - UPPCB",07-04-2026 09:00:00,26.730136,83.433859,PM2.5,30,61,45
India,Uttar_Pradesh,Gorakhpur,"Madan Mohan Malaviya University of Technology, Gorakhpur - UPPCB",07-04-2026 09:00:00,26.730136,83.433859,PM10,17,123,64
India,Uttar_Pradesh,Gorakhpur,"Madan Mohan Malaviya University of Technology, Gorakhpur - UPPCB",07-04-2026 09:00:00,26.730136,83.433859,NH3,1,1,1
India,Uttar_Pradesh,Agra,"Sector-3B Avas Vikas Colony, Agra - UPPCB",07-04-2026 09:00:00,27.19412,77.96237,SO2,12,13,13
India,Uttar_Pradesh,Agra,"Shastripuram, Agra - UPPCB",07-04-2026 09:00:00,27.19862,77.92066,PM2.5,4,54,22
India,Uttar_Pradesh,Agra,"Shastripuram, Agra - UPPCB",07-04-2026 09:00:00,27.19862,77.92066,NH3,3,3,3
India,Uttar_Pradesh,Bareilly,"Civil Lines, Bareilly - UPPCB",07-04-2026 09:00:00,28.359581,79.414455,PM10,33,58,42
India,Uttar_Pradesh,Bareilly,"Rajendra Nagar, Bareilly - UPPCB",07-04-2026 09:00:00,28.38910936,79.42963708,PM2.5,13,36,23
India,Uttar_Pradesh,Lucknow,"Kendriya Vidyalaya, Lucknow - CPCB",07-04-2026 09:00:00,26.906111,80.948222,PM10,51,136,94
India,Uttar_Pradesh,Lucknow,"Lalbagh, Lucknow - CPCB",07-04-2026 09:00:00,26.8458805,80.9365541,PM10,64,133,107
India,Uttar_Pradesh,Lucknow,"Lalbagh, Lucknow - CPCB",07-04-2026 09:00:00,26.8458805,80.9365541,NO2,42,51,46
India,Uttar_Pradesh,Lucknow,"Talkatora District Industries Center, Lucknow - CPCB",07-04-2026 09:00:00,26.83399722,80.8917361,CO,18,60,25
India,Uttar_Pradesh,Bareilly,"Rajendra Nagar, Bareilly - UPPCB",07-04-2026 09:00:00,28.38910936,79.42963708,NO2,9,10,9
India,Uttar_Pradesh,Bareilly,"Rajendra Nagar, Bareilly - UPPCB",07-04-2026 09:00:00,28.38910936,79.42963708,SO2,40,47,42
India,Uttar_Pradesh,Bareilly,"Rajendra Nagar, Bareilly - UPPCB",07-04-2026 09:00:00,28.38910936,79.42963708,OZONE,1,28,1
India,Uttar_Pradesh,Bulandshahr,"Yamunapuram, Bulandshahr - UPPCB",07-04-2026 09:00:00,28.406963,77.849831,NH3,6,10,8
India,Uttar_Pradesh,Kanpur,"Nehru Nagar, Kanpur - UPPCB",07-04-2026 09:00:00,26.4703136,80.3229863,PM10,4,167,86
India,Uttar_Pradesh,Kanpur,"Nehru Nagar, Kanpur - UPPCB",07-04-2026 09:00:00,26.4703136,80.3229863,CO,2,75,48
India,Uttar_Pradesh,Kanpur,"Nehru Nagar, Kanpur - UPPCB",07-04-2026 09:00:00,26.4703136,80.3229863,OZONE,6,31,6
India,Uttar_Pradesh,Khurja,"Kalindi Kunj, Khurja - UPPCB",07-04-2026 09:00:00,28.2348927,77.8683002,NO2,12,13,12
India,Uttar_Pradesh,Moradabad,"Kashiram Nagar, Moradabad - UPPCB",07-04-2026 09:00:00,28.849399,78.742362,SO2,78,122,101
India,Uttar_Pradesh,Moradabad,"Transport Nagar, Moradabad - UPPCB",07-04-2026 09:00:00,28.802625,78.753728,NH3,5,5,5
India,West_Bengal,Kolkata,"Rabindra Bharati University, Kolkata - WBPCB",07-04-2026 09:00:00,22.627847,88.380669,SO2,5,11,8
India,West_Bengal,Kolkata,"Rabindra Sarobar, Kolkata - WBPCB",07-04-2026 09:00:00,22.51106,88.35142,NO2,26,133,55
India,West_Bengal,Kolkata,"Rabindra Sarobar, Kolkata - WBPCB",07-04-2026 09:00:00,22.51106,88.35142,CO,2,31,16
India,West_Bengal,Kolkata,"Victoria, Kolkata - WBPCB",07-04-2026 09:00:00,22.5448082,88.3403691,PM2.5,20,80,46
India,West_Bengal,Kolkata,"Victoria, Kolkata - WBPCB",07-04-2026 09:00:00,22.5448082,88.3403691,PM10,33,81,62
India,West_Bengal,Kolkata,"Victoria, Kolkata - WBPCB",07-04-2026 09:00:00,22.5448082,88.3403691,SO2,10,61,24
India,West_Bengal,Kolkata,"Victoria, Kolkata - WBPCB",07-04-2026 09:00:00,22.5448082,88.3403691,OZONE,6,87,17
India,West_Bengal,Siliguri,"Ward-32 Bapupara, Siliguri - WBPCB",07-04-2026 09:00:00,26.6879226,88.4152495,NO2,48,163,94
India,West_Bengal,Siliguri,"Ward-32 Bapupara, Siliguri - WBPCB",07-04-2026 09:00:00,26.6879226,88.4152495,NH3,8,23,12
India,West_Bengal,Siliguri,"Ward-32 Bapupara, Siliguri - WBPCB",07-04-2026 09:00:00,26.6879226,88.4152495,CO,23,109,41
India,West_Bengal,Siliguri,"Ward-32 Bapupara, Siliguri - WBPCB",07-04-2026 09:00:00,26.6879226,88.4152495,OZONE,10,87,20
India,Uttar_Pradesh,Prayagraj,"Nagar Nigam, Prayagraj - UPPCB",07-04-2026 09:00:00,25.44919916 ,81.82735986 ,CO,15,42,34
India,Uttar_Pradesh,Raebareli," Indira Nagar, Raebareli - NTPC Unchahar",07-04-2026 09:00:00,26.207781,81.245571,NO2,16,24,19
India,Uttar_Pradesh,Varanasi,"Ardhali Bazar, Varanasi - UPPCB",07-04-2026 09:00:00,25.3505986,82.9083074,CO,6,22,12
India,Uttar_Pradesh,Varanasi,"Bhelupur, Varanasi - UPPCB",07-04-2026 09:00:00,25.301778,82.996789,PM10,14,147,74
India,Uttar_Pradesh,Varanasi,"Bhelupur, Varanasi - UPPCB",07-04-2026 09:00:00,25.301778,82.996789,SO2,22,24,22
India,Uttar_Pradesh,Varanasi,"Bhelupur, Varanasi - UPPCB",07-04-2026 09:00:00,25.301778,82.996789,OZONE,6,23,8
India,Uttar_Pradesh,Varanasi,"IESD Banaras Hindu University, Varanasi - UPPCB",07-04-2026 09:00:00,25.262326,82.995408,NO2,2,2,2
India,Uttar_Pradesh,Varanasi,"IESD Banaras Hindu University, Varanasi - UPPCB",07-04-2026 09:00:00,25.262326,82.995408,CO,2,14,9
India,Uttar_Pradesh,Varanasi,"Maldahiya, Varanasi - UPPCB",07-04-2026 09:00:00,25.32393,82.99687,NO2,1,3,2
India,Uttar_Pradesh,Vrindavan,"Omex Eternity, Vrindavan - UPPCB",07-04-2026 09:00:00,27.5714090,77.6557570,OZONE,15,16,15
India,Uttarakhand,Kashipur,"Govt. Girls Inter College, Kashipur - UKPCB",07-04-2026 09:00:00,29.2124114,78.9611753,PM10,20,62,35
India,Uttarakhand,Rishikesh,"Shivaji Nagar, Rishikesh - UKPCB",07-04-2026 09:00:00,30.075911,78.2859547,PM10,3,17,4
India,West_Bengal,Asansol,"Mahabir Colliery, Asansol - WBPCB",07-04-2026 09:00:00,23.6181830,87.1057180,NH3,1,2,1
India,West_Bengal,Asansol,"Mahabir Colliery, Asansol - WBPCB",07-04-2026 09:00:00,23.6181830,87.1057180,OZONE,9,42,17
India,West_Bengal,Durgapur,"Mahishkapur Road_B-Zone, Durgapur - WBPCB",07-04-2026 09:00:00,23.567923,87.306843,OZONE,1,54,8
India,West_Bengal,Howrah,"Belur Math, Howrah - WBPCB",07-04-2026 09:00:00,22.629801,88.352017,NO2,31,91,51
India,West_Bengal,Howrah,"Belur Math, Howrah - WBPCB",07-04-2026 09:00:00,22.629801,88.352017,SO2,11,27,18
India,West_Bengal,Howrah,"Belur Math, Howrah - WBPCB",07-04-2026 09:00:00,22.629801,88.352017,OZONE,3,43,10
India,West_Bengal,Howrah,"Ghusuri, Howrah - WBPCB",07-04-2026 09:00:00,22.611968,88.347422,NH3,5,24,11
India,West_Bengal,Kolkata,"Bidhannagar, Kolkata - WBPCB",07-04-2026 09:00:00,22.58157048,88.41002457,NH3,5,5,5
India,West_Bengal,Kolkata,"Bidhannagar, Kolkata - WBPCB",07-04-2026 09:00:00,22.58157048,88.41002457,OZONE,3,63,12
India,West_Bengal,Kolkata,"Fort William, Kolkata - WBPCB",07-04-2026 09:00:00,22.556640,88.342674,SO2,4,41,10
India,West_Bengal,Howrah,"Padmapukur, Howrah - WBPCB",07-04-2026 09:00:00,22.5687319,88.2797276,OZONE,7,62,16
India,West_Bengal,Kolkata,"Ballygunge, Kolkata - WBPCB",07-04-2026 09:00:00,22.5367507,88.3638022,NH3,7,16,9
India,West_Bengal,Kolkata,"Ballygunge, Kolkata - WBPCB",07-04-2026 09:00:00,22.5367507,88.3638022,CO,11,30,17
India,West_Bengal,Asansol,"Asansol Court Area, Asansol - WBPCB",07-04-2026 09:00:00,23.685297,86.945968,NO2,24,41,35
India,West_Bengal,Asansol,"Asansol Court Area, Asansol - WBPCB",07-04-2026 09:00:00,23.685297,86.945968,OZONE,15,36,22
India,West_Bengal,Durgapur,"Womens College_City Center, Durgapur - WBPCB",07-04-2026 09:00:00,23.549395,87.300496,SO2,27,28,27
India,Assam,Byrnihat,"Central Academy for SFS, Byrnihat - PCBA",07-04-2026 09:00:00,26.071318,91.87488,PM2.5,33,368,207
India,Assam,Byrnihat,"Central Academy for SFS, Byrnihat - PCBA",07-04-2026 09:00:00,26.071318,91.87488,SO2,16,32,31
India,Assam,Guwahati,"IITG, Guwahati - PCBA",07-04-2026 09:00:00,26.2028636,91.70046436,NH3,5,5,5
India,Assam,Guwahati,"LGBI Airport, Guwahati - PCBA",07-04-2026 09:00:00,26.10887,91.589544,NO2,12,305,30
India,Assam,Guwahati,"LGBI Airport, Guwahati - PCBA",07-04-2026 09:00:00,26.10887,91.589544,NH3,2,8,4
India,Assam,Guwahati,"Pan Bazaar, Guwahati - PCBA",07-04-2026 09:00:00,26.187500,91.744194,CO,23,80,38
India,Assam,Guwahati,"Railway Colony, Guwahati - PCBA",07-04-2026 09:00:00,26.181742,91.78063,CO,NA,NA,NA
India,Assam,Guwahati,"Railway Colony, Guwahati - PCBA",07-04-2026 09:00:00,26.181742,91.78063,OZONE,1,45,2
India,Assam,Nagaon,"Christianpatty, Nagaon - PCBA",07-04-2026 09:00:00,26.349082,92.68449,PM2.5,19,48,38
India,Andhra_Pradesh,Kadapa,"Yerramukkapalli, Kadapa - APPCB",07-04-2026 09:00:00,14.465052,78.824187,PM10,51,101,72
India,Andhra_Pradesh,Machilipatnam,"Srinivas Nagar Colony, Machilipatnam - APPCB",07-04-2026 09:00:00,16.186555,81.13219,OZONE,28,346,33
India,Andhra_Pradesh,Nellore,"Ambedkar Nagar, Nellore - APPCB ",07-04-2026 09:00:00,14.438164 ,79.966814 ,PM10,41,92,63
India,Andhra_Pradesh,Nellore,"Ambedkar Nagar, Nellore - APPCB ",07-04-2026 09:00:00,14.438164 ,79.966814 ,NO2,14,19,17
India,Andhra_Pradesh,Nellore,"Ambedkar Nagar, Nellore - APPCB ",07-04-2026 09:00:00,14.438164 ,79.966814 ,CO,10,27,18
India,Andhra_Pradesh,Rajamahendravaram,"Anand Kala Kshetram, Rajamahendravaram - APPCB",07-04-2026 09:00:00,16.9872867,81.7363176,CO,24,56,31
India,Andhra_Pradesh,Tirumala,"Toll Gate, Tirumala - APPCB",07-04-2026 09:00:00,13.67,79.35,CO,20,39,25
India,Andhra_Pradesh,Anantapur,"Gulzarpet, Anantapur - APPCB",07-04-2026 09:00:00,14.675886,77.593027,PM10,49,68,54
India,Andhra_Pradesh,Chittoor,"Gangineni Cheruvu, Chittoor - APPCB",07-04-2026 09:00:00,13.204880,79.097889,PM2.5,54,90,64
India,Andhra_Pradesh,Eluru,"District Court, Eluru - APPCB",07-04-2026 09:00:00,16.711754,81.092095,PM10,33,72,49
India,Andhra_Pradesh,Eluru,"District Court, Eluru - APPCB",07-04-2026 09:00:00,16.711754,81.092095,NH3,1,4,2
India,Andhra_Pradesh,Eluru,"District Court, Eluru - APPCB",07-04-2026 09:00:00,16.711754,81.092095,CO,12,66,20
India,Andhra_Pradesh,Guntur,"Rajendra Nagar North, Guntur - APPCB",07-04-2026 09:00:00,16.316553,80.413302,NO2,20,31,24
India,Andhra_Pradesh,Guntur,"Rajendra Nagar North, Guntur - APPCB",07-04-2026 09:00:00,16.316553,80.413302,NH3,4,7,5
India,Andhra_Pradesh,Vijayawada,"HB Colony, Vijayawada - APPCB",07-04-2026 09:00:00,16.536107,80.594233,NH3,3,5,4
India,Andhra_Pradesh,Vijayawada,"Kanuru, Vijayawada - APPCB",07-04-2026 09:00:00,16.486692,80.699436,NO2,18,27,20
India,Andhra_Pradesh,Vijayawada,"Kanuru, Vijayawada - APPCB",07-04-2026 09:00:00,16.486692,80.699436,NH3,4,6,4
India,Andhra_Pradesh,Vijayawada,"Kanuru, Vijayawada - APPCB",07-04-2026 09:00:00,16.486692,80.699436,CO,29,44,39
India,Andhra_Pradesh,Vijayawada,"Rajiv Gandhi Park, Vijayawada - APPCB",07-04-2026 09:00:00,16.509717,80.612222,PM10,42,92,63
India,Andhra_Pradesh,Vijayawada,"Rajiv Gandhi Park, Vijayawada - APPCB",07-04-2026 09:00:00,16.509717,80.612222,OZONE,42,64,45
India,Arunachal_Pradesh,Naharlagun,"Naharlagun, Naharlagun - APSPCB",07-04-2026 09:00:00,27.103358,93.679645,NH3,1,1,1
India,Bihar,Begusarai,"Lohiyanagar, Begusarai - BSPCB",07-04-2026 09:00:00,25.42742023,86.13886079,NH3,3,4,4
India,Bihar,Bettiah,"Kamalnath Nagar, Bettiah - BSPCB",07-04-2026 09:00:00,26.80365,84.51954,NH3,1,1,1
India,Bihar,Bettiah,"Kamalnath Nagar, Bettiah - BSPCB",07-04-2026 09:00:00,26.80365,84.51954,OZONE,7,20,16
India,Bihar,Bhagalpur,"DM Office_Kachari Chowk, Bhagalpur - BSPCB",07-04-2026 09:00:00,25.251013,86.989001,PM10,27,127,62
India,Bihar,Bhagalpur,"Mayaganj, Bhagalpur - BSPCB",07-04-2026 09:00:00,25.265194,87.012947,PM2.5,48,93,64
India,Assam,Nalbari,"Bata Chowk, Nalbari - PCBA",07-04-2026 09:00:00,26.446912,91.439057,PM2.5,10,314,108
India,Assam,Nalbari,"Bata Chowk, Nalbari - PCBA",07-04-2026 09:00:00,26.446912,91.439057,PM10,9,150,64
India,Assam,Nalbari,"Bata Chowk, Nalbari - PCBA",07-04-2026 09:00:00,26.446912,91.439057,NO2,14,15,14
India,Assam,Silchar,"Tarapur, Silchar - PCBA",07-04-2026 09:00:00,24.82827,92.79525,OZONE,2,5,3
India,Bihar,Arrah,"New DM Office, Arrah - BSPCB",07-04-2026 09:00:00,25.5626095,84.663264,NH3,2,2,2
India,Bihar,Aurangabad,"Gurdeo Nagar, Aurangabad - BSPCB",07-04-2026 09:00:00,24.75746,84.366208,CO,101,103,102
India,Andhra_Pradesh,Tirumala,"Toll Gate, Tirumala - APPCB",07-04-2026 09:00:00,13.67,79.35,OZONE,36,78,57
India,Andhra_Pradesh,Vijayawada,"HB Colony, Vijayawada - APPCB",07-04-2026 09:00:00,16.536107,80.594233,PM2.5,54,110,70
India,Andaman and Nicobar,Sri Vijaya Puram,"Police Line, Sri Vijaya Puram - ANPCC",07-04-2026 09:00:00,11.654054,92.734055,PM10,NA,NA,NA
India,Andhra_Pradesh,Amaravati,"Secretariat, Amaravati - APPCB",07-04-2026 09:00:00,16.5150833,80.5181667,NO2,8,13,10
India,Bihar,Patna,"Samanpura, Patna - BSPCB",07-04-2026 09:00:00,25.596727,85.085624,PM2.5,81,197,125
India,Bihar,Patna,"Samanpura, Patna - BSPCB",07-04-2026 09:00:00,25.596727,85.085624,SO2,4,6,5
India,Bihar,Purnia,"Mariam Nagar, Purnia - BSPCB",07-04-2026 09:00:00,25.366336,87.117468,PM2.5,55,93,71
India,Bihar,Purnia,"Mariam Nagar, Purnia - BSPCB",07-04-2026 09:00:00,25.366336,87.117468,SO2,10,17,16
India,Bihar,Purnia,"Mariam Nagar, Purnia - BSPCB",07-04-2026 09:00:00,25.366336,87.117468,OZONE,16,42,21
India,Bihar,Rajgir,"Dangi Tola, Rajgir - BSPCB",07-04-2026 09:00:00,25.03280,85.41948,PM10,18,73,39
India,Bihar,Rajgir,"Dangi Tola, Rajgir - BSPCB",07-04-2026 09:00:00,25.03280,85.41948,NH3,3,3,3
India,Bihar,Saharsa,"Police Line, Saharsa - BSPCB",07-04-2026 09:00:00,25.892357,86.590325,SO2,14,19,16
India,Bihar,Samastipur,"DM Office_Kasipur, Samastipur - BSPCB",07-04-2026 09:00:00,25.859655,85.77944,CO,NA,NA,NA
India,Bihar,Sasaram,"Dada Peer, Sasaram - BSPCB",07-04-2026 09:00:00,24.952822,84.002396,NO2,NA,NA,NA
India,Chhattisgarh,Kunjemura,"OP Jindal School, Kunjemura - CECB",07-04-2026 09:00:00,22.126650,83.483212,PM2.5,2,41,19
India,Chhattisgarh,Kunjemura,"OP Jindal School, Kunjemura - CECB",07-04-2026 09:00:00,22.126650,83.483212,PM10,34,81,46
India,Chhattisgarh,Kunjemura,"OP Jindal School, Kunjemura - CECB",07-04-2026 09:00:00,22.126650,83.483212,NO2,17,54,30
India,Chhattisgarh,Milupara,"Govt. Higher Secondary School, Milupara - CECB",07-04-2026 09:00:00,22.1910172,83.5197009,NH3,NA,NA,NA
India,Chhattisgarh,Raipur,"AIIMS, Raipur - CECB",07-04-2026 09:00:00,21.258815,81.578979,PM2.5,26,57,38
India,Chhattisgarh,Raipur,"Bhatagaon New ISBT, Raipur - CECB",07-04-2026 09:00:00,21.219665,81.630094,SO2,1,7,3
India,Chhattisgarh,Raipur,"Bhatagaon New ISBT, Raipur - CECB",07-04-2026 09:00:00,21.219665,81.630094,OZONE,2,10,3
India,Chhattisgarh,Raipur,"Krishak Nagar, Raipur - CECB",07-04-2026 09:00:00,21.237755,81.705301,PM10,25,52,37
India,Chhattisgarh,Raipur,"Krishak Nagar, Raipur - CECB",07-04-2026 09:00:00,21.237755,81.705301,CO,15,30,16
India,Bihar,Manguraha,"Forest Rest House, Manguraha - BSPCB",07-04-2026 09:00:00,27.308328,84.531742,NO2,2,11,5
India,Bihar,Motihari,"Gandak Colony, Motihari - BSPCB",07-04-2026 09:00:00,26.63086,84.90051,PM2.5,15,260,66
India,Bihar,Motihari,"Gandak Colony, Motihari - BSPCB",07-04-2026 09:00:00,26.63086,84.90051,PM10,16,166,64
India,Bihar,Munger,"Town Hall, Munger - BSPCB",07-04-2026 09:00:00,25.376776,86.471523,PM10,13,115,40
India,Bihar,Munger,"Town Hall, Munger - BSPCB",07-04-2026 09:00:00,25.376776,86.471523,SO2,NA,NA,NA
India,Bihar,Munger,"Town Hall, Munger - BSPCB",07-04-2026 09:00:00,25.376776,86.471523,CO,26,30,28
India,Bihar,Munger,"Town Hall, Munger - BSPCB",07-04-2026 09:00:00,25.376776,86.471523,OZONE,9,10,10
India,Bihar,Muzaffarpur,"Buddha Colony, Muzaffarpur - BSPCB",07-04-2026 09:00:00,26.11442,85.39813,PM10,64,218,132
India,Bihar,Muzaffarpur,"Buddha Colony, Muzaffarpur - BSPCB",07-04-2026 09:00:00,26.11442,85.39813,NO2,28,93,47
India,Bihar,Muzaffarpur,"Buddha Colony, Muzaffarpur - BSPCB",07-04-2026 09:00:00,26.11442,85.39813,SO2,4,13,8
India,Bihar,Sasaram,"Dada Peer, Sasaram - BSPCB",07-04-2026 09:00:00,24.952822,84.002396,CO,19,60,53
India,Bihar,Siwan,"Chitragupta Nagar, Siwan - BSPCB",07-04-2026 09:00:00,26.2271665,84.3570427,PM10,26,98,56
India,Bihar,Siwan,"Chitragupta Nagar, Siwan - BSPCB",07-04-2026 09:00:00,26.2271665,84.3570427,NH3,1,1,1
India,Chandigarh,Chandigarh,"Sector 22, Chandigarh - CPCC",07-04-2026 09:00:00,30.735567,76.775714,PM10,12,62,29
India,Chandigarh,Chandigarh,"Sector 22, Chandigarh - CPCC",07-04-2026 09:00:00,30.735567,76.775714,OZONE,22,110,78
India,Chandigarh,Chandigarh,"Sector-25, Chandigarh - CPCC",07-04-2026 09:00:00,30.751462,76.762879,PM2.5,24,59,39
India,Chandigarh,Chandigarh,"Sector-53, Chandigarh - CPCC",07-04-2026 09:00:00,30.719859,76.738637,PM2.5,8,38,21
India,Chhattisgarh,Bhilai,"32Bungalows, Bhilai - CECB",07-04-2026 09:00:00,21.194815,81.314770,NH3,1,2,1
India,Bihar,Muzaffarpur,"MIT-Daudpur Kothi, Muzaffarpur - BSPCB",07-04-2026 09:00:00,26.1403345,85.3650192,NO2,5,11,7
India,Bihar,Muzaffarpur,"MIT-Daudpur Kothi, Muzaffarpur - BSPCB",07-04-2026 09:00:00,26.1403345,85.3650192,SO2,12,34,18
India,Bihar,Muzaffarpur,"MIT-Daudpur Kothi, Muzaffarpur - BSPCB",07-04-2026 09:00:00,26.1403345,85.3650192,OZONE,9,50,18
India,Bihar,Muzaffarpur,"Muzaffarpur Collectorate, Muzaffarpur - BSPCB",07-04-2026 09:00:00,26.1209,85.3647,SO2,4,6,5
India,Bihar,Muzaffarpur,"Muzaffarpur Collectorate, Muzaffarpur - BSPCB",07-04-2026 09:00:00,26.1209,85.3647,OZONE,6,21,7
India,Bihar,Patna,"DRM Office Danapur, Patna - BSPCB",07-04-2026 09:00:00,25.586562,85.043586,CO,34,94,48
India,Bihar,Patna,"IGSC Planetarium Complex, Patna - BSPCB",07-04-2026 09:00:00,25.610369,85.132568,CO,6,34,24
India,Chhattisgarh,Bhilai,"Civic Center, Bhilai - Bhilai Steel Plant",07-04-2026 09:00:00,21.185571,81.343175,OZONE,9,13,10
India,Chhattisgarh,Bilaspur,"Mangala, Bilaspur - NTPC",07-04-2026 09:00:00,22.08815,82.13737,SO2,11,28,19
India,Chhattisgarh,Bilaspur,"Mangala, Bilaspur - NTPC",07-04-2026 09:00:00,22.08815,82.13737,CO,12,66,33
India,Chhattisgarh,Chhal,"Nawapara SECL Colony, Chhal - CECB",07-04-2026 09:00:00,22.118125,83.140608,CO,21,37,31
India,Chhattisgarh,Korba,"Rampur, Korba - CECB",07-04-2026 09:00:00,22.368195,82.746431,PM2.5,8,25,13
India,Chhattisgarh,Korba,"Urja Nagar, Korba - CECB",07-04-2026 09:00:00,22.348441,82.549611,PM10,21,61,43
India,Bihar,Bhagalpur,"Mayaganj, Bhagalpur - BSPCB",07-04-2026 09:00:00,25.265194,87.012947,CO,64,80,73
India,Bihar,Bhagalpur,"Mayaganj, Bhagalpur - BSPCB",07-04-2026 09:00:00,25.265194,87.012947,OZONE,6,20,8
India,Bihar,Bihar Sharif,"D M Colony, Bihar Sharif - BSPCB",07-04-2026 09:00:00,25.204762,85.514960,OZONE,1,3,2
India,Bihar,Buxar,"Charitra Van, Buxar - BSPCB",07-04-2026 09:00:00,25.567520,83.966379,PM2.5,35,68,50
India,Bihar,Chhapra,"Darshan Nagar, Chhapra - BSPCB",07-04-2026 09:00:00,25.7808257,84.7446768,PM10,69,95,79
India,Bihar,Chhapra,"Darshan Nagar, Chhapra - BSPCB",07-04-2026 09:00:00,25.7808257,84.7446768,NO2,3,4,3
India,Bihar,Gaya,"Kareemganj, Gaya - BSPCB",07-04-2026 09:00:00,24.792403,84.992416,SO2,43,46,44
India,Bihar,Gaya,"SFTI Kusdihra, Gaya - BSPCB",07-04-2026 09:00:00,24.762518,84.982348,CO,10,35,26
India,Bihar,Kishanganj,"SDM Office_Khagra, Kishanganj - BSPCB",07-04-2026 09:00:00,26.0881305,87.93840336,PM10,28,75,46
India,Bihar,Kishanganj,"SDM Office_Khagra, Kishanganj - BSPCB",07-04-2026 09:00:00,26.0881305,87.93840336,OZONE,32,34,33
India,Bihar,Patna,"Muradpur, Patna - BSPCB",07-04-2026 09:00:00,25.619651,85.147382,PM10,79,160,124
India,Bihar,Patna,"Muradpur, Patna - BSPCB",07-04-2026 09:00:00,25.619651,85.147382,NH3,4,5,5
India,Delhi,Delhi,"Anand Vihar, Delhi - DPCC",07-04-2026 09:00:00,28.647622,77.3158090,NH3,3,3,3
India,Delhi,Delhi,"Anand Vihar, Delhi - DPCC",07-04-2026 09:00:00,28.647622,77.3158090,CO,23,78,41
India,Delhi,Delhi,"Ashok Vihar, Delhi - DPCC",07-04-2026 09:00:00,28.695381,77.181665,CO,3,86,20
India,Delhi,Delhi,"Bawana, Delhi - DPCC",07-04-2026 09:00:00,28.776200,77.051074,PM2.5,28,375,108
India,Delhi,Delhi,"Bawana, Delhi - DPCC",07-04-2026 09:00:00,28.776200,77.051074,NO2,6,88,21
India,Delhi,Delhi,"Burari Crossing, Delhi - IMD",07-04-2026 09:00:00,28.7256504,77.2011573,PM2.5,6,123,58
India,Delhi,Delhi,"Burari Crossing, Delhi - IMD",07-04-2026 09:00:00,28.7256504,77.2011573,NO2,9,60,27
India,Delhi,Delhi,"CRRI Mathura Road, Delhi - IMD",07-04-2026 09:00:00,28.5512005,77.2735737,PM10,59,193,104
India,Delhi,Delhi,"CRRI Mathura Road, Delhi - IMD",07-04-2026 09:00:00,28.5512005,77.2735737,CO,27,79,37
India,Delhi,Delhi,"CRRI Mathura Road, Delhi - IMD",07-04-2026 09:00:00,28.5512005,77.2735737,OZONE,22,71,37
India,Chhattisgarh,Raipur,"Siltara Phase-II, Raipur - CECB",07-04-2026 09:00:00,21.371751,81.664929,PM10,25,106,66
India,Chhattisgarh,Raipur,"Siltara Phase-II, Raipur - CECB",07-04-2026 09:00:00,21.371751,81.664929,NH3,3,3,3
India,Chhattisgarh,Raipur,"Siltara Phase-II, Raipur - CECB",07-04-2026 09:00:00,21.371751,81.664929,SO2,1,36,11
India,Chhattisgarh,Tumidih,"OP Jindal Industrial Park, Tumidih - CECB",07-04-2026 09:00:00,22.06631475,83.33820077,NH3,1,3,2
India,Chhattisgarh,Tumidih,"OP Jindal Industrial Park, Tumidih - CECB",07-04-2026 09:00:00,22.06631475,83.33820077,CO,20,50,28
India,Delhi,Delhi,"Alipur, Delhi - DPCC",07-04-2026 09:00:00,28.815329,77.153010,PM10,47,385,129
India,Delhi,Delhi,"Alipur, Delhi - DPCC",07-04-2026 09:00:00,28.815329,77.153010,NH3,11,14,12
India,Delhi,Delhi,"Alipur, Delhi - DPCC",07-04-2026 09:00:00,28.815329,77.153010,SO2,7,23,10
India,Delhi,Delhi,"Anand Vihar, Delhi - DPCC",07-04-2026 09:00:00,28.647622,77.3158090,PM2.5,3,270,94
India,Delhi,Delhi,"Chandni Chowk, Delhi - IITM",07-04-2026 09:00:00,28.656756,77.227234,PM10,57,188,130
India,Delhi,Delhi,"Commonwealth Sports Complex, Delhi - DPCC",07-04-2026 09:00:00,28.615828 ,77.271992 ,PM10,53,146,104
India,Delhi,Delhi,"Commonwealth Sports Complex, Delhi - DPCC",07-04-2026 09:00:00,28.615828 ,77.271992 ,OZONE,6,99,22
India,Delhi,Delhi,"Dr. Karni Singh Shooting Range, Delhi - DPCC",07-04-2026 09:00:00,28.498571,77.264840,NO2,7,40,19
India,Delhi,Delhi,"Dwarka-Sector 8, Delhi - DPCC ",07-04-2026 09:00:00,28.5710274,77.0719006,PM2.5,27,385,86
India,Delhi,Delhi,"Dwarka-Sector 8, Delhi - DPCC ",07-04-2026 09:00:00,28.5710274,77.0719006,NO2,25,131,54
India,Delhi,Delhi,"Dwarka-Sector 8, Delhi - DPCC ",07-04-2026 09:00:00,28.5710274,77.0719006,SO2,14,54,24
India,Delhi,Delhi,"Dwarka-Sector 8, Delhi - DPCC ",07-04-2026 09:00:00,28.5710274,77.0719006,OZONE,15,132,64
India,Delhi,Delhi,"Narela, Delhi - DPCC",07-04-2026 09:00:00,28.822836,77.101981,NO2,6,63,20
India,Delhi,Delhi,"Nehru Nagar, Delhi - DPCC",07-04-2026 09:00:00,28.567890,77.250515,NO2,27,70,44
India,Delhi,Delhi,"North Campus, DU, Delhi - IMD",07-04-2026 09:00:00,28.6573814,77.1585447,NO2,4,113,30
India,Delhi,Delhi,"North Campus, DU, Delhi - IMD",07-04-2026 09:00:00,28.6573814,77.1585447,CO,18,105,36
India,Delhi,Delhi,"North Campus, DU, Delhi - IMD",07-04-2026 09:00:00,28.6573814,77.1585447,OZONE,5,97,23
India,Delhi,Delhi,"Okhla Phase-2, Delhi - DPCC",07-04-2026 09:00:00,28.530785,77.271255,PM10,62,223,110
India,Delhi,Delhi,"Okhla Phase-2, Delhi - DPCC",07-04-2026 09:00:00,28.530785,77.271255,CO,4,48,38
India,Delhi,Delhi,"Punjabi Bagh, Delhi - DPCC",07-04-2026 09:00:00,28.674045,77.131023,PM2.5,2,322,74
India,Delhi,Delhi,"Mandir Marg, Delhi - DPCC",07-04-2026 09:00:00,28.636429,77.201067,NO2,29,89,48
India,Delhi,Delhi,"NSIT Dwarka, Delhi - CPCB",07-04-2026 09:00:00,28.60909,77.0325413,PM2.5,48,135,75
India,Delhi,Delhi,"NSIT Dwarka, Delhi - CPCB",07-04-2026 09:00:00,28.60909,77.0325413,PM10,59,229,115
India,Delhi,Delhi,"NSIT Dwarka, Delhi - CPCB",07-04-2026 09:00:00,28.60909,77.0325413,SO2,5,11,9
India,Delhi,Delhi,"NSUT Jaffarpur, Delhi - DPCC",07-04-2026 09:00:00,28.594004 ,76.909423 ,PM2.5,4,303,60
India,Delhi,Delhi,"IIT Delhi, Delhi - IITM",07-04-2026 09:00:00,28.542460,77.191651,CO,60,92,71
India,Delhi,Delhi,"ITO, Delhi - CPCB",07-04-2026 09:00:00,28.628624,77.241060,NO2,25,88,46
India,Delhi,Delhi,"ITO, Delhi - CPCB",07-04-2026 09:00:00,28.628624,77.241060,SO2,18,32,24
India,Delhi,Delhi,"IGNOU_Maidan Garhi, Delhi - DPCC",07-04-2026 09:00:00,28.493624 ,77.201159 ,PM2.5,NA,NA,NA
India,Delhi,Delhi,"IHBAS, Dilshad Garden, Delhi - CPCB",07-04-2026 09:00:00,28.6811736,77.3025234,SO2,2,26,13
India,Delhi,Delhi,"Lodhi Road, Delhi - IMD",07-04-2026 09:00:00,28.5918245,77.2273074,PM10,50,168,89
India,Delhi,Delhi,"Lodhi Road, Delhi - IMD",07-04-2026 09:00:00,28.5918245,77.2273074,OZONE,22,124,46
India,Delhi,Delhi,"Jawaharlal Nehru Stadium, Delhi - DPCC",07-04-2026 09:00:00,28.580280,77.233829,NH3,9,11,10
India,Gujarat,Ankleshwar,"GIDC, Ankleshwar - GPCB",07-04-2026 09:00:00,21.613267,73.010555,SO2,18,27,20
India,Gujarat,Ankleshwar,"GIDC, Ankleshwar - GPCB",07-04-2026 09:00:00,21.613267,73.010555,OZONE,12,35,16
India,Gujarat,Bhavnagar,"Vidhyanagar, Bhavnagar - Nexteng Enviro",07-04-2026 09:00:00,21.755417,72.139056,NH3,3,3,3
India,Gujarat,Gandhinagar,"IIPHG Lekawada, Gandhinagar - IITM",07-04-2026 09:00:00,23.243639,72.68994,PM10,40,87,64
India,Gujarat,Gandhinagar,"IIPHG Lekawada, Gandhinagar - IITM",07-04-2026 09:00:00,23.243639,72.68994,NO2,7,15,9
India,Gujarat,Gandhinagar,"Sector-10, Gandhinagar - GPCB",07-04-2026 09:00:00,23.221714,72.654328,NH3,1,2,1
India,Gujarat,Gandhinagar,"Sector-10, Gandhinagar - GPCB",07-04-2026 09:00:00,23.221714,72.654328,CO,12,33,28
India,Gujarat,Gandhinagar,"Sector-10, Gandhinagar - GPCB",07-04-2026 09:00:00,23.221714,72.654328,OZONE,5,49,13
India,Gujarat,Mehsana,"Sadanand Nagar, Mehsana - Nexteng Enviro",07-04-2026 09:00:00,23.593150,72.372792,CO,52,56,54
India,Gujarat,Vapi,"Phase-1 GIDC, Vapi - GPCB",07-04-2026 09:00:00,20.362421,72.918013,OZONE,5,24,5
India,Gujarat,Vatva,"Phase-4 GIDC, Vatva - GPCB",07-04-2026 09:00:00,22.969611,72.643500,NO2,45,75,61
India,Gujarat,Vatva,"Phase-4 GIDC, Vatva - GPCB",07-04-2026 09:00:00,22.969611,72.643500,OZONE,29,47,29
India,Haryana,Ambala,"Patti Mehar, Ambala - HSPCB",07-04-2026 09:00:00,30.379589,76.778328,PM2.5,26,160,71
India,Haryana,Ambala,"Patti Mehar, Ambala - HSPCB",07-04-2026 09:00:00,30.379589,76.778328,NH3,7,8,8
India,Haryana,Ambala,"Patti Mehar, Ambala - HSPCB",07-04-2026 09:00:00,30.379589,76.778328,OZONE,15,27,23
India,Haryana,Bahadurgarh,"Arya Nagar, Bahadurgarh - HSPCB",07-04-2026 09:00:00,28.6701,76.9254,PM2.5,47,76,60
India,Haryana,Bahadurgarh,"Arya Nagar, Bahadurgarh - HSPCB",07-04-2026 09:00:00,28.6701,76.9254,NO2,12,14,13
India,Haryana,Bahadurgarh,"Arya Nagar, Bahadurgarh - HSPCB",07-04-2026 09:00:00,28.6701,76.9254,CO,36,51,48
India,Haryana,Bahadurgarh,"Arya Nagar, Bahadurgarh - HSPCB",07-04-2026 09:00:00,28.6701,76.9254,OZONE,22,28,25
India,Gujarat,Ahmedabad,"Raikhad, Ahmedabad - IITM",07-04-2026 09:00:00,23.020509,72.579261,PM2.5,34,115,64
India,Gujarat,Ahmedabad,"Raikhad, Ahmedabad - IITM",07-04-2026 09:00:00,23.020509,72.579261,NH3,6,11,9
India,Gujarat,Ahmedabad,"Rakhial, Ahmedabad - IITM",07-04-2026 09:00:00,23.016834,72.625775,PM2.5,18,55,32
India,Gujarat,Ahmedabad,"SAC ISRO Bopal, Ahmedabad - IITM",07-04-2026 09:00:00,23.041137,72.456691,PM2.5,22,78,46
India,Gujarat,Ahmedabad,"SAC ISRO Bopal, Ahmedabad - IITM",07-04-2026 09:00:00,23.041137,72.456691,SO2,5,17,8
India,Gujarat,Ahmedabad,"SAC ISRO Bopal, Ahmedabad - IITM",07-04-2026 09:00:00,23.041137,72.456691,CO,12,33,26
India,Gujarat,Ahmedabad,"SAC ISRO Satellite, Ahmedabad - IITM",07-04-2026 09:00:00,23.023389,72.515201,NH3,1,5,2
India,Gujarat,Ahmedabad,"SAC ISRO Satellite, Ahmedabad - IITM",07-04-2026 09:00:00,23.023389,72.515201,CO,10,43,23
India,Gujarat,Ahmedabad,"SVPI Airport Hansol, Ahmedabad - IITM",07-04-2026 09:00:00,23.076793,72.627874,CO,5,46,31
India,Delhi,Delhi,"Wazirpur, Delhi - DPCC",07-04-2026 09:00:00,28.699793,77.165453,NH3,8,11,9
India,Delhi,Delhi,"Wazirpur, Delhi - DPCC",07-04-2026 09:00:00,28.699793,77.165453,OZONE,3,89,33
India,Gujarat,Ahmedabad,"Chandkheda, Ahmedabad - IITM",07-04-2026 09:00:00,23.107969,72.574648,PM2.5,14,47,29
India,Gujarat,Ahmedabad,"Gyaspur, Ahmedabad - IITM",07-04-2026 09:00:00,22.977134,72.553024,PM2.5,21,73,44
India,Gujarat,Ahmedabad,"Maninagar, Ahmedabad - GPCB",07-04-2026 09:00:00,23.002657,72.591912,NO2,82,90,86
India,Gujarat,Vadodara,"Bapunagar, Vadodara - Nexteng Enviro",07-04-2026 09:00:00,22.320153,73.216285,PM2.5,36,83,57
India,Gujarat,Vadodara,"Bapunagar, Vadodara - Nexteng Enviro",07-04-2026 09:00:00,22.320153,73.216285,NO2,1,5,2
India,Gujarat,Vadodara,"Bapunagar, Vadodara - Nexteng Enviro",07-04-2026 09:00:00,22.320153,73.216285,NH3,2,3,3
India,Gujarat,Vadodara,"Bapunagar, Vadodara - Nexteng Enviro",07-04-2026 09:00:00,22.320153,73.216285,OZONE,3,10,4
India,Gujarat,Vapi,"Phase-1 GIDC, Vapi - GPCB",07-04-2026 09:00:00,20.362421,72.918013,NH3,3,4,4
India,Gujarat,Vapi,"Phase-1 GIDC, Vapi - GPCB",07-04-2026 09:00:00,20.362421,72.918013,SO2,15,23,17
India,Delhi,Delhi,"Rohini, Delhi - DPCC",07-04-2026 09:00:00,28.732528,77.119920,SO2,9,42,16
India,Delhi,Delhi,"Rohini, Delhi - DPCC",07-04-2026 09:00:00,28.732528,77.119920,CO,9,60,23
India,Delhi,Delhi,"Sri Aurobindo Marg, Delhi - DPCC",07-04-2026 09:00:00,28.531346,77.190156,CO,7,39,20
India,Delhi,Delhi,"Talkatora Garden, Delhi - DPCC",07-04-2026 09:00:00,28.621810,77.1944633,PM10,36,134,82
India,Delhi,Delhi,"Punjabi Bagh, Delhi - DPCC",07-04-2026 09:00:00,28.674045,77.131023,NO2,11,73,29
India,Delhi,Delhi,"Pusa, Delhi - DPCC",07-04-2026 09:00:00,28.639652,77.146275,CO,22,113,60
India,Delhi,Delhi,"Pusa, Delhi - DPCC",07-04-2026 09:00:00,28.639652,77.146275,OZONE,11,86,47
India,Delhi,Delhi,"R K Puram, Delhi - DPCC",07-04-2026 09:00:00,28.563262,77.186937,SO2,3,56,26
India,Haryana,Bhiwani,"H.B. Colony, Bhiwani - HSPCB",07-04-2026 09:00:00,28.806223,76.141105,NO2,1,47,11
India,Haryana,Dharuhera,"Municipal Corporation Office, Dharuhera -  HSPCB",07-04-2026 09:00:00,28.206800,76.799700,PM10,37,126,59
India,Delhi,Delhi,"Vivek Vihar, Delhi - DPCC",07-04-2026 09:00:00,28.672342,77.315260,NH3,6,8,7
India,Delhi,Delhi,"Vivek Vihar, Delhi - DPCC",07-04-2026 09:00:00,28.672342,77.315260,SO2,11,34,18
India,Haryana,Manesar,"Sector-2 IMT, Manesar - HSPCB",07-04-2026 09:00:00,28.360699,76.936090,NO2,26,31,29
India,Haryana,Manesar,"Sector-2 IMT, Manesar - HSPCB",07-04-2026 09:00:00,28.360699,76.936090,CO,4,18,10
India,Haryana,Manesar,"Sector-2 IMT, Manesar - HSPCB",07-04-2026 09:00:00,28.360699,76.936090,OZONE,7,8,7
India,Haryana,Narnaul,"Shastri Nagar, Narnaul - HSPCB",07-04-2026 09:00:00,28.060249,76.113115,PM2.5,40,217,70
India,Haryana,Narnaul,"Shastri Nagar, Narnaul - HSPCB",07-04-2026 09:00:00,28.060249,76.113115,PM10,36,129,58
India,Haryana,Narnaul,"Shastri Nagar, Narnaul - HSPCB",07-04-2026 09:00:00,28.060249,76.113115,SO2,7,8,8
India,Haryana,Narnaul,"Shastri Nagar, Narnaul - HSPCB",07-04-2026 09:00:00,28.060249,76.113115,OZONE,17,42,18
India,Haryana,Palwal,"Shyam Nagar, Palwal - HSPCB",07-04-2026 09:00:00,28.1485564,77.3320667,PM10,43,100,59
India,Haryana,Palwal,"Shyam Nagar, Palwal - HSPCB",07-04-2026 09:00:00,28.1485564,77.3320667,SO2,11,13,12
India,Haryana,Kaithal,"Rishi Nagar, Kaithal - HSPCB",07-04-2026 09:00:00,29.8006,76.4155,NO2,30,35,32
India,Haryana,Kaithal,"Rishi Nagar, Kaithal - HSPCB",07-04-2026 09:00:00,29.8006,76.4155,OZONE,7,13,10
India,Haryana,Kurukshetra,"Sector-7, Kurukshetra - HSPCB",07-04-2026 09:00:00,29.966942,76.875879,PM2.5,40,95,63
India,Haryana,Kurukshetra,"Sector-7, Kurukshetra - HSPCB",07-04-2026 09:00:00,29.966942,76.875879,PM10,62,131,88
India,Haryana,Kurukshetra,"Sector-7, Kurukshetra - HSPCB",07-04-2026 09:00:00,29.966942,76.875879,NH3,6,7,6
India,Haryana,Kurukshetra,"Sector-7, Kurukshetra - HSPCB",07-04-2026 09:00:00,29.966942,76.875879,SO2,1,63,13
India,Haryana,Kurukshetra,"Sector-7, Kurukshetra - HSPCB",07-04-2026 09:00:00,29.966942,76.875879,OZONE,8,38,20
India,Haryana,Fatehabad,"Huda Sector, Fatehabad - HSPCB",07-04-2026 09:00:00,29.503664,75.467934,PM2.5,24,77,39
India,Haryana,Fatehabad,"Huda Sector, Fatehabad - HSPCB",07-04-2026 09:00:00,29.503664,75.467934,PM10,31,101,51
India,Haryana,Fatehabad,"Huda Sector, Fatehabad - HSPCB",07-04-2026 09:00:00,29.503664,75.467934,NH3,13,15,14
India,Haryana,Gurugram,"NISE Gwal Pahari, Gurugram - IMD",07-04-2026 09:00:00,28.422681,77.148944,PM2.5,3,306,55
India,Haryana,Gurugram,"NISE Gwal Pahari, Gurugram - IMD",07-04-2026 09:00:00,28.422681,77.148944,CO,20,44,33
India,Haryana,Gurugram,"Sector-51, Gurugram - HSPCB",07-04-2026 09:00:00,28.4227,77.0667,PM2.5,85,373,138
India,Haryana,Gurugram,"Sector-51, Gurugram - HSPCB",07-04-2026 09:00:00,28.4227,77.0667,SO2,4,7,5
India,Haryana,Gurugram,"Sector-51, Gurugram - HSPCB",07-04-2026 09:00:00,28.4227,77.0667,CO,4,23,16
India,Haryana,Gurugram,"Teri Gram, Gurugram - HSPCB",07-04-2026 09:00:00,28.4275,77.1465,CO,24,34,25
India,Haryana,Gurugram,"Teri Gram, Gurugram - HSPCB",07-04-2026 09:00:00,28.4275,77.1465,OZONE,9,38,12
India,Haryana,Gurugram,"Vikas Sadan, Gurugram - HSPCB",07-04-2026 09:00:00,28.4501238,77.0263051,PM10,46,234,123
India,Haryana,Panchgaon,"Amity University, Panchgaon - IITM",07-04-2026 09:00:00,28.3153,76.9143,SO2,3,21,10
India,Haryana,Panchkula,"Sector-6, Panchkula - HSPCB ",07-04-2026 09:00:00,30.7057778,76.8531805555555,PM2.5,18,80,43
India,Haryana,Panchkula,"Sector-6, Panchkula - HSPCB ",07-04-2026 09:00:00,30.7057778,76.8531805555555,NO2,23,25,24
India,Haryana,Faridabad,"New Industrial Town, Faridabad - HSPCB",07-04-2026 09:00:00,28.39072,77.30059,PM2.5,114,139,130
