country,state,city,station,last_update,latitude,longitude,pollutant_id,min_value,max_value,avg_value
India,Bihar,Bhagalpur,"DM Office_Kachari Chowk, Bhagalpur - BSPCB",03-04-2026 08:00:00,25.251013,86.989001,NO2,7,10,8
India,Bihar,Bhagalpur,"Mayaganj, Bhagalpur - BSPCB",03-04-2026 08:00:00,25.265194,87.012947,OZONE,6,18,9
India,Bihar,Bihar Sharif,"D M Colony, Bihar Sharif - BSPCB",03-04-2026 08:00:00,25.204762,85.514960,PM2.5,13,57,27
India,Bihar,Bihar Sharif,"D M Colony, Bihar Sharif - BSPCB",03-04-2026 08:00:00,25.204762,85.514960,NO2,9,10,9
India,Bihar,Bihar Sharif,"D M Colony, Bihar Sharif - BSPCB",03-04-2026 08:00:00,25.204762,85.514960,NH3,3,3,3
India,Bihar,Buxar,"Charitra Van, Buxar - BSPCB",03-04-2026 08:00:00,25.567520,83.966379,PM2.5,42,70,56
India,Bihar,Buxar,"Charitra Van, Buxar - BSPCB",03-04-2026 08:00:00,25.567520,83.966379,SO2,27,36,32
India,Bihar,Buxar,"Charitra Van, Buxar - BSPCB",03-04-2026 08:00:00,25.567520,83.966379,CO,20,28,25
India,Bihar,Chhapra,"Darshan Nagar, Chhapra - BSPCB",03-04-2026 08:00:00,25.7808257,84.7446768,PM10,NA,NA,NA
India,Bihar,Chhapra,"Darshan Nagar, Chhapra - BSPCB",03-04-2026 08:00:00,25.7808257,84.7446768,NO2,3,4,4
India,Bihar,Chhapra,"Darshan Nagar, Chhapra - BSPCB",03-04-2026 08:00:00,25.7808257,84.7446768,NH3,7,14,9
India,Andhra_Pradesh,Vijayawada,"Rajiv Nagar, Vijayawada - APPCB",03-04-2026 08:00:00,16.554731,80.649110,NH3,3,7,4
India,Andhra_Pradesh,Visakhapatnam,"GVM Corporation, Visakhapatnam - APPCB",03-04-2026 08:00:00,17.72,83.3,PM10,50,188,91
India,Andhra_Pradesh,Visakhapatnam,"GVM Corporation, Visakhapatnam - APPCB",03-04-2026 08:00:00,17.72,83.3,NH3,3,3,3
India,Arunachal_Pradesh,Naharlagun,"Naharlagun, Naharlagun - APSPCB",03-04-2026 08:00:00,27.103358,93.679645,NH3,1,1,1
India,Assam,Byrnihat,"Central Academy for SFS, Byrnihat - PCBA",03-04-2026 08:00:00,26.071318,91.87488,PM10,97,174,117
India,Assam,Byrnihat,"Central Academy for SFS, Byrnihat - PCBA",03-04-2026 08:00:00,26.071318,91.87488,NH3,4,4,4
India,Assam,Guwahati,"IITG, Guwahati - PCBA",03-04-2026 08:00:00,26.2028636,91.70046436,NO2,1,4,1
India,Assam,Guwahati,"IITG, Guwahati - PCBA",03-04-2026 08:00:00,26.2028636,91.70046436,OZONE,12,91,37
India,Bihar,Araria,"Kharahiya Basti, Araria - BSPCB",03-04-2026 08:00:00,26.146529,87.454184,PM2.5,83,365,191
India,Bihar,Araria,"Kharahiya Basti, Araria - BSPCB",03-04-2026 08:00:00,26.146529,87.454184,SO2,NA,NA,NA
India,Bihar,Arrah,"New DM Office, Arrah - BSPCB",03-04-2026 08:00:00,25.5626095,84.663264,PM2.5,20,93,51
India,Bihar,Arrah,"New DM Office, Arrah - BSPCB",03-04-2026 08:00:00,25.5626095,84.663264,PM10,17,83,45
India,Bihar,Aurangabad,"Gurdeo Nagar, Aurangabad - BSPCB",03-04-2026 08:00:00,24.75746,84.366208,NH3,1,2,2
India,Bihar,Begusarai,"Lohiyanagar, Begusarai - BSPCB",03-04-2026 08:00:00,25.42742023,86.13886079,OZONE,41,62,46
India,Bihar,Bettiah,"Kamalnath Nagar, Bettiah - BSPCB",03-04-2026 08:00:00,26.80365,84.51954,PM10,NA,NA,NA
India,Bihar,Bettiah,"Kamalnath Nagar, Bettiah - BSPCB",03-04-2026 08:00:00,26.80365,84.51954,OZONE,NA,NA,NA
India,Assam,Guwahati,"LGBI Airport, Guwahati - PCBA",03-04-2026 08:00:00,26.10887,91.589544,CO,24,74,32
India,Assam,Guwahati,"Pan Bazaar, Guwahati - PCBA",03-04-2026 08:00:00,26.187500,91.744194,SO2,10,15,11
India,Assam,Nagaon,"Christianpatty, Nagaon - PCBA",03-04-2026 08:00:00,26.349082,92.68449,NH3,1,4,4
India,Assam,Nagaon,"Christianpatty, Nagaon - PCBA",03-04-2026 08:00:00,26.349082,92.68449,SO2,4,16,12
India,Assam,Nalbari,"Bata Chowk, Nalbari - PCBA",03-04-2026 08:00:00,26.446912,91.439057,CO,20,22,22
India,Assam,Silchar,"Tarapur, Silchar - PCBA",03-04-2026 08:00:00,24.82827,92.79525,PM10,48,68,55
India,Assam,Silchar,"Tarapur, Silchar - PCBA",03-04-2026 08:00:00,24.82827,92.79525,NH3,1,1,1
India,Andhra_Pradesh,Kadapa,"Yerramukkapalli, Kadapa - APPCB",03-04-2026 08:00:00,14.465052,78.824187,OZONE,20,31,22
India,Andhra_Pradesh,Machilipatnam,"Srinivas Nagar Colony, Machilipatnam - APPCB",03-04-2026 08:00:00,16.186555,81.13219,PM2.5,47,64,57
India,Andhra_Pradesh,Machilipatnam,"Srinivas Nagar Colony, Machilipatnam - APPCB",03-04-2026 08:00:00,16.186555,81.13219,PM10,53,71,63
India,Andhra_Pradesh,Nellore,"Ambedkar Nagar, Nellore - APPCB ",03-04-2026 08:00:00,14.438164 ,79.966814 ,PM2.5,35,60,46
India,Andhra_Pradesh,Nellore,"Ambedkar Nagar, Nellore - APPCB ",03-04-2026 08:00:00,14.438164 ,79.966814 ,NO2,15,20,17
India,Andhra_Pradesh,Nellore,"Ambedkar Nagar, Nellore - APPCB ",03-04-2026 08:00:00,14.438164 ,79.966814 ,CO,8,27,13
India,Andhra_Pradesh,Tirumala,"Toll Gate, Tirumala - APPCB",03-04-2026 08:00:00,13.67,79.35,PM2.5,14,56,29
India,Andhra_Pradesh,Tirumala,"Toll Gate, Tirumala - APPCB",03-04-2026 08:00:00,13.67,79.35,CO,14,42,18
India,Andhra_Pradesh,Vijayawada,"Kanuru, Vijayawada - APPCB",03-04-2026 08:00:00,16.486692,80.699436,PM2.5,52,84,62
India,Andhra_Pradesh,Vijayawada,"Kanuru, Vijayawada - APPCB",03-04-2026 08:00:00,16.486692,80.699436,NH3,4,6,4
India,Andhra_Pradesh,Vijayawada,"Rajiv Gandhi Park, Vijayawada - APPCB",03-04-2026 08:00:00,16.509717,80.612222,NO2,21,46,34
India,Andhra_Pradesh,Vijayawada,"Rajiv Gandhi Park, Vijayawada - APPCB",03-04-2026 08:00:00,16.509717,80.612222,SO2,11,19,16
India,Bihar,Chhapra,"Darshan Nagar, Chhapra - BSPCB",03-04-2026 08:00:00,25.7808257,84.7446768,CO,4,16,10
India,Bihar,Chhapra,"Darshan Nagar, Chhapra - BSPCB",03-04-2026 08:00:00,25.7808257,84.7446768,OZONE,5,20,8
India,Bihar,Gaya,"Collectorate, Gaya - BSPCB",03-04-2026 08:00:00,24.7955,84.9994,PM2.5,33,238,92
India,Bihar,Gaya,"Collectorate, Gaya - BSPCB",03-04-2026 08:00:00,24.7955,84.9994,NO2,9,9,9
India,Bihar,Hajipur,"Industrial Area, Hajipur - BSPCB",03-04-2026 08:00:00,25.697189,85.245900,NO2,24,52,36
India,Andhra_Pradesh,Eluru,"District Court, Eluru - APPCB",03-04-2026 08:00:00,16.711754,81.092095,PM10,29,63,42
India,Andhra_Pradesh,Eluru,"District Court, Eluru - APPCB",03-04-2026 08:00:00,16.711754,81.092095,NH3,6,10,8
India,Andhra_Pradesh,Eluru,"District Court, Eluru - APPCB",03-04-2026 08:00:00,16.711754,81.092095,CO,14,30,16
India,Andhra_Pradesh,Eluru,"District Court, Eluru - APPCB",03-04-2026 08:00:00,16.711754,81.092095,OZONE,1,25,2
India,Andhra_Pradesh,Guntur,"Rajendra Nagar North, Guntur - APPCB",03-04-2026 08:00:00,16.316553,80.413302,PM10,39,66,52
India,Andhra_Pradesh,Guntur,"Rajendra Nagar North, Guntur - APPCB",03-04-2026 08:00:00,16.316553,80.413302,SO2,7,20,11
India,Andhra_Pradesh,Anantapur,"Gulzarpet, Anantapur - APPCB",03-04-2026 08:00:00,14.675886,77.593027,PM10,67,92,80
India,Andhra_Pradesh,Anantapur,"Gulzarpet, Anantapur - APPCB",03-04-2026 08:00:00,14.675886,77.593027,NH3,4,8,5
India,Andhra_Pradesh,Anantapur,"Gulzarpet, Anantapur - APPCB",03-04-2026 08:00:00,14.675886,77.593027,SO2,6,15,9
India,Andhra_Pradesh,Anantapur,"Gulzarpet, Anantapur - APPCB",03-04-2026 08:00:00,14.675886,77.593027,OZONE,35,67,35
India,Andhra_Pradesh,Chittoor,"Gangineni Cheruvu, Chittoor - APPCB",03-04-2026 08:00:00,13.204880,79.097889,SO2,9,22,13
India,Assam,Sivasagar,"Girls College, Sivasagar - PCBA",03-04-2026 08:00:00,26.987634,94.636574,PM2.5,12,22,17
India,Chhattisgarh,Raipur,"Krishak Nagar, Raipur - CECB",03-04-2026 08:00:00,21.237755,81.705301,NH3,2,2,2
India,Chhattisgarh,Raipur,"Krishak Nagar, Raipur - CECB",03-04-2026 08:00:00,21.237755,81.705301,OZONE,1,75,2
India,Chhattisgarh,Raipur,"Siltara Phase-II, Raipur - CECB",03-04-2026 08:00:00,21.371751,81.664929,SO2,2,28,11
India,Chhattisgarh,Raipur,"Siltara Phase-II, Raipur - CECB",03-04-2026 08:00:00,21.371751,81.664929,CO,10,18,18
India,Chhattisgarh,Raipur,"Siltara Phase-II, Raipur - CECB",03-04-2026 08:00:00,21.371751,81.664929,OZONE,3,34,3
India,Chhattisgarh,Tumidih,"OP Jindal Industrial Park, Tumidih - CECB",03-04-2026 08:00:00,22.06631475,83.33820077,SO2,6,21,8
India,Delhi,Delhi,"Anand Vihar, Delhi - DPCC",03-04-2026 08:00:00,28.647622,77.3158090,CO,27,106,90
India,Delhi,Delhi,"Anand Vihar, Delhi - DPCC",03-04-2026 08:00:00,28.647622,77.3158090,OZONE,4,130,6
India,Chhattisgarh,Korba,"Urja Nagar, Korba - CECB",03-04-2026 08:00:00,22.348441,82.549611,NH3,1,1,1
India,Chhattisgarh,Korba,"Urja Nagar, Korba - CECB",03-04-2026 08:00:00,22.348441,82.549611,CO,13,110,61
India,Chhattisgarh,Kunjemura,"OP Jindal School, Kunjemura - CECB",03-04-2026 08:00:00,22.126650,83.483212,NO2,15,67,42
India,Chhattisgarh,Kunjemura,"OP Jindal School, Kunjemura - CECB",03-04-2026 08:00:00,22.126650,83.483212,CO,10,66,44
India,Chhattisgarh,Milupara,"Govt. Higher Secondary School, Milupara - CECB",03-04-2026 08:00:00,22.1910172,83.5197009,NH3,1,2,1
India,Chhattisgarh,Milupara,"Govt. Higher Secondary School, Milupara - CECB",03-04-2026 08:00:00,22.1910172,83.5197009,SO2,14,37,18
India,Chhattisgarh,Raipur,"AIIMS, Raipur - CECB",03-04-2026 08:00:00,21.258815,81.578979,PM2.5,8,30,21
India,Bihar,Patna,"Muradpur, Patna - BSPCB",03-04-2026 08:00:00,25.619651,85.147382,NH3,5,6,6
India,Bihar,Patna,"Muradpur, Patna - BSPCB",03-04-2026 08:00:00,25.619651,85.147382,CO,25,128,42
India,Bihar,Patna,"Samanpura, Patna - BSPCB",03-04-2026 08:00:00,25.596727,85.085624,PM2.5,79,204,125
India,Bihar,Patna,"Samanpura, Patna - BSPCB",03-04-2026 08:00:00,25.596727,85.085624,NH3,2,4,3
India,Bihar,Patna,"Samanpura, Patna - BSPCB",03-04-2026 08:00:00,25.596727,85.085624,SO2,4,6,5
India,Bihar,Purnia,"Mariam Nagar, Purnia - BSPCB",03-04-2026 08:00:00,25.366336,87.117468,CO,10,60,56
India,Bihar,Rajgir,"Dangi Tola, Rajgir - BSPCB",03-04-2026 08:00:00,25.03280,85.41948,PM10,18,54,40
India,Bihar,Rajgir,"Dangi Tola, Rajgir - BSPCB",03-04-2026 08:00:00,25.03280,85.41948,NH3,3,3,3
India,Bihar,Katihar,"Mirchaibari, Katihar - BSPCB",03-04-2026 08:00:00,25.560083,87.553265,NH3,1,1,1
India,Bihar,Kishanganj,"SDM Office_Khagra, Kishanganj - BSPCB",03-04-2026 08:00:00,26.0881305,87.93840336,NH3,2,3,3
India,Bihar,Kishanganj,"SDM Office_Khagra, Kishanganj - BSPCB",03-04-2026 08:00:00,26.0881305,87.93840336,CO,17,19,18
India,Bihar,Manguraha,"Forest Rest House, Manguraha - BSPCB",03-04-2026 08:00:00,27.308328,84.531742,SO2,16,18,17
India,Bihar,Munger,"Town Hall, Munger - BSPCB",03-04-2026 08:00:00,25.376776,86.471523,NO2,4,5,5
India,Bihar,Munger,"Town Hall, Munger - BSPCB",03-04-2026 08:00:00,25.376776,86.471523,NH3,3,3,3
India,Chandigarh,Chandigarh,"Sector-53, Chandigarh - CPCC",03-04-2026 08:00:00,30.719859,76.738637,NO2,13,127,66
India,Chandigarh,Chandigarh,"Sector-53, Chandigarh - CPCC",03-04-2026 08:00:00,30.719859,76.738637,SO2,6,6,6
India,Chandigarh,Chandigarh,"Sector-53, Chandigarh - CPCC",03-04-2026 08:00:00,30.719859,76.738637,CO,23,103,36
India,Chhattisgarh,Bhilai,"32Bungalows, Bhilai - CECB",03-04-2026 08:00:00,21.194815,81.314770,NH3,1,1,1
India,Chhattisgarh,Bhilai,"32Bungalows, Bhilai - CECB",03-04-2026 08:00:00,21.194815,81.314770,CO,8,72,24
India,Chhattisgarh,Bhilai,"Civic Center, Bhilai - Bhilai Steel Plant",03-04-2026 08:00:00,21.185571,81.343175,PM2.5,9,50,26
India,Chhattisgarh,Bhilai,"Hathkhoj, Bhilai - CECB",03-04-2026 08:00:00,21.224231,81.408350,OZONE,5,18,9
India,Chhattisgarh,Bilaspur,"Mangala, Bilaspur - NTPC",03-04-2026 08:00:00,22.08815,82.13737,PM10,25,97,54
India,Chhattisgarh,Chhal,"Nawapara SECL Colony, Chhal - CECB",03-04-2026 08:00:00,22.118125,83.140608,PM2.5,NA,NA,NA
India,Chhattisgarh,Chhal,"Nawapara SECL Colony, Chhal - CECB",03-04-2026 08:00:00,22.118125,83.140608,CO,10,54,15
India,Chhattisgarh,Korba,"Rampur, Korba - CECB",03-04-2026 08:00:00,22.368195,82.746431,SO2,21,94,45
India,Bihar,Muzaffarpur,"MIT-Daudpur Kothi, Muzaffarpur - BSPCB",03-04-2026 08:00:00,26.1403345,85.3650192,OZONE,9,65,12
India,Bihar,Patna,"DRM Office Danapur, Patna - BSPCB",03-04-2026 08:00:00,25.586562,85.043586,PM10,92,171,127
India,Bihar,Patna,"IGSC Planetarium Complex, Patna - BSPCB",03-04-2026 08:00:00,25.610369,85.132568,NO2,2,2,2
India,Bihar,Samastipur,"DM Office_Kasipur, Samastipur - BSPCB",03-04-2026 08:00:00,25.859655,85.77944,NO2,8,8,8
India,Bihar,Sasaram,"Dada Peer, Sasaram - BSPCB",03-04-2026 08:00:00,24.952822,84.002396,OZONE,15,27,18
India,Bihar,Siwan,"Chitragupta Nagar, Siwan - BSPCB",03-04-2026 08:00:00,26.2271665,84.3570427,CO,63,96,68
India,Bihar,Siwan,"Chitragupta Nagar, Siwan - BSPCB",03-04-2026 08:00:00,26.2271665,84.3570427,OZONE,11,15,13
India,Delhi,Delhi,"Commonwealth Sports Complex, Delhi - DPCC",03-04-2026 08:00:00,28.615828 ,77.271992 ,PM10,84,463,219
India,Delhi,Delhi,"Commonwealth Sports Complex, Delhi - DPCC",03-04-2026 08:00:00,28.615828 ,77.271992 ,OZONE,2,137,10
India,Delhi,Delhi,"Dr. Karni Singh Shooting Range, Delhi - DPCC",03-04-2026 08:00:00,28.498571,77.264840,NO2,3,122,39
India,Delhi,Delhi,"Dr. Karni Singh Shooting Range, Delhi - DPCC",03-04-2026 08:00:00,28.498571,77.264840,CO,22,104,53
India,Delhi,Delhi,"Dwarka-Sector 8, Delhi - DPCC ",03-04-2026 08:00:00,28.5710274,77.0719006,OZONE,2,150,19
India,Delhi,Delhi,"IGI Airport (T3), Delhi - IMD",03-04-2026 08:00:00,28.5627763,77.1180053,CO,NA,NA,NA
India,Delhi,Delhi,"IGNOU_Maidan Garhi, Delhi - DPCC",03-04-2026 08:00:00,28.493624 ,77.201159 ,PM10,65,430,165
India,Delhi,Delhi,"IHBAS, Dilshad Garden, Delhi - CPCB",03-04-2026 08:00:00,28.6811736,77.3025234,PM2.5,33,430,195
India,Delhi,Delhi,"IHBAS, Dilshad Garden, Delhi - CPCB",03-04-2026 08:00:00,28.6811736,77.3025234,SO2,4,59,22
India,Delhi,Delhi,"Shadipur, Delhi - CPCB",03-04-2026 08:00:00,28.6514781,77.1473105,OZONE,7,63,13
India,Delhi,Delhi,"Sirifort, Delhi - CPCB",03-04-2026 08:00:00,28.5504249,77.2159377,PM10,111,500,242
India,Delhi,Delhi,"Sirifort, Delhi - CPCB",03-04-2026 08:00:00,28.5504249,77.2159377,NH3,10,24,14
India,Delhi,Delhi,"Sirifort, Delhi - CPCB",03-04-2026 08:00:00,28.5504249,77.2159377,OZONE,10,49,11
India,Delhi,Delhi,"Sonia Vihar, Delhi - DPCC",03-04-2026 08:00:00,28.710508,77.249485,PM2.5,40,387,235
India,Delhi,Delhi,"Sonia Vihar, Delhi - DPCC",03-04-2026 08:00:00,28.710508,77.249485,NO2,17,82,44
India,Delhi,Delhi,"Sri Aurobindo Marg, Delhi - DPCC",03-04-2026 08:00:00,28.531346,77.190156,CO,7,116,57
India,Delhi,Delhi,"Vivek Vihar, Delhi - DPCC",03-04-2026 08:00:00,28.672342,77.315260,PM2.5,50,355,219
India,Delhi,Delhi,"Vivek Vihar, Delhi - DPCC",03-04-2026 08:00:00,28.672342,77.315260,PM10,95,359,216
India,Delhi,Delhi,"Vivek Vihar, Delhi - DPCC",03-04-2026 08:00:00,28.672342,77.315260,CO,28,113,73
India,Delhi,Delhi,"ITO, Delhi - CPCB",03-04-2026 08:00:00,28.628624,77.241060,PM2.5,57,322,204
India,Delhi,Delhi,"ITO, Delhi - CPCB",03-04-2026 08:00:00,28.628624,77.241060,PM10,94,500,198
India,Delhi,Delhi,"ITO, Delhi - CPCB",03-04-2026 08:00:00,28.628624,77.241060,SO2,17,39,27
India,Delhi,Delhi,"JNU, Delhi - DPCC",03-04-2026 08:00:00,28.540721 ,77.168544 ,PM10,84,486,174
India,Delhi,Delhi,"Jahangirpuri, Delhi - DPCC",03-04-2026 08:00:00,28.732820,77.170633,OZONE,9,287,18
India,Delhi,Delhi,"Jawaharlal Nehru Stadium, Delhi - DPCC",03-04-2026 08:00:00,28.580280,77.233829,PM2.5,65,337,194
India,Delhi,Delhi,"Jawaharlal Nehru Stadium, Delhi - DPCC",03-04-2026 08:00:00,28.580280,77.233829,NH3,10,13,11
India,Delhi,Delhi,"Lodhi Road, Delhi - IMD",03-04-2026 08:00:00,28.5918245,77.2273074,PM2.5,79,357,186
India,Delhi,Delhi,"Lodhi Road, Delhi - IMD",03-04-2026 08:00:00,28.5918245,77.2273074,NO2,14,65,35
India,Delhi,Delhi,"Najafgarh, Delhi - DPCC",03-04-2026 08:00:00,28.570173,76.933762,SO2,19,91,26
India,Delhi,Delhi,"Narela, Delhi - DPCC",03-04-2026 08:00:00,28.822836,77.101981,NO2,7,60,33
India,Delhi,Delhi,"Narela, Delhi - DPCC",03-04-2026 08:00:00,28.822836,77.101981,SO2,8,37,21
India,Delhi,Delhi,"Narela, Delhi - DPCC",03-04-2026 08:00:00,28.822836,77.101981,OZONE,1,166,6
India,Delhi,Delhi,"Nehru Nagar, Delhi - DPCC",03-04-2026 08:00:00,28.567890,77.250515,PM10,111,500,254
India,Delhi,Delhi,"Okhla Phase-2, Delhi - DPCC",03-04-2026 08:00:00,28.530785,77.271255,NH3,10,18,12
India,Delhi,Delhi,"Okhla Phase-2, Delhi - DPCC",03-04-2026 08:00:00,28.530785,77.271255,CO,4,124,57
India,Delhi,Delhi,"Okhla Phase-2, Delhi - DPCC",03-04-2026 08:00:00,28.530785,77.271255,OZONE,6,163,18
India,Delhi,Delhi,"Patparganj, Delhi - DPCC",03-04-2026 08:00:00,28.623763,77.287209,NH3,8,10,9
India,Delhi,Delhi,"Major Dhyan Chand National Stadium, Delhi - DPCC",03-04-2026 08:00:00,28.611281,77.237738,CO,7,130,73
India,Delhi,Delhi,"Major Dhyan Chand National Stadium, Delhi - DPCC",03-04-2026 08:00:00,28.611281,77.237738,OZONE,4,205,14
India,Delhi,Delhi,"Mundka, Delhi - DPCC",03-04-2026 08:00:00,28.684678,77.076574,PM10,107,492,305
India,Delhi,Delhi,"Mundka, Delhi - DPCC",03-04-2026 08:00:00,28.684678,77.076574,CO,39,105,82
India,Delhi,Delhi,"NSIT Dwarka, Delhi - CPCB",03-04-2026 08:00:00,28.60909,77.0325413,NO2,19,187,71
India,Delhi,Delhi,"NSIT Dwarka, Delhi - CPCB",03-04-2026 08:00:00,28.60909,77.0325413,NH3,1,32,13
India,Delhi,Delhi,"NSUT Jaffarpur, Delhi - DPCC",03-04-2026 08:00:00,28.594004 ,76.909423 ,NO2,4,150,58
India,Delhi,Delhi,"Ashok Vihar, Delhi - DPCC",03-04-2026 08:00:00,28.695381,77.181665,NH3,6,7,7
India,Delhi,Delhi,"Bawana, Delhi - DPCC",03-04-2026 08:00:00,28.776200,77.051074,OZONE,4,209,9
India,Delhi,Delhi,"Burari Crossing, Delhi - IMD",03-04-2026 08:00:00,28.7256504,77.2011573,PM2.5,39,340,222
India,Delhi,Delhi,"Burari Crossing, Delhi - IMD",03-04-2026 08:00:00,28.7256504,77.2011573,PM10,77,475,206
India,Delhi,Delhi,"Chandni Chowk, Delhi - IITM",03-04-2026 08:00:00,28.656756,77.227234,NO2,28,195,97
India,Delhi,Delhi,"Punjabi Bagh, Delhi - DPCC",03-04-2026 08:00:00,28.674045,77.131023,PM10,105,500,247
India,Delhi,Delhi,"Pusa, Delhi - IMD",03-04-2026 08:00:00,28.636110,77.173332,CO,12,122,56
India,Delhi,Delhi,"R K Puram, Delhi - DPCC",03-04-2026 08:00:00,28.563262,77.186937,NH3,6,10,8
India,Delhi,Delhi,"R K Puram, Delhi - DPCC",03-04-2026 08:00:00,28.563262,77.186937,OZONE,1,103,7
India,Delhi,Delhi,"Rohini, Delhi - DPCC",03-04-2026 08:00:00,28.732528,77.119920,PM2.5,45,335,218
India,Delhi,Delhi,"Wazirpur, Delhi - DPCC",03-04-2026 08:00:00,28.699793,77.165453,OZONE,3,170,12
India,Gujarat,Ahmedabad,"Gyaspur, Ahmedabad - IITM",03-04-2026 08:00:00,22.977134,72.553024,CO,56,100,76
India,Gujarat,Ahmedabad,"Raikhad, Ahmedabad - IITM",03-04-2026 08:00:00,23.020509,72.579261,NH3,6,8,7
India,Gujarat,Ahmedabad,"SAC ISRO Satellite, Ahmedabad - IITM",03-04-2026 08:00:00,23.023389,72.515201,PM10,69,158,104
India,Haryana,Bahadurgarh,"Arya Nagar, Bahadurgarh - HSPCB",03-04-2026 08:00:00,28.6701,76.9254,PM2.5,46,284,89
India,Haryana,Bahadurgarh,"Arya Nagar, Bahadurgarh - HSPCB",03-04-2026 08:00:00,28.6701,76.9254,NO2,12,14,13
India,Haryana,Bahadurgarh,"Arya Nagar, Bahadurgarh - HSPCB",03-04-2026 08:00:00,28.6701,76.9254,NH3,12,13,13
India,Haryana,Bahadurgarh,"Arya Nagar, Bahadurgarh - HSPCB",03-04-2026 08:00:00,28.6701,76.9254,SO2,5,7,6
India,Haryana,Ballabgarh,"Nathu Colony, Ballabgarh - HSPCB",03-04-2026 08:00:00,28.3419248,77.319699,CO,15,72,32
India,Haryana,Bhiwani,"H.B. Colony, Bhiwani - HSPCB",03-04-2026 08:00:00,28.806223,76.141105,PM2.5,41,500,144
India,Haryana,Bhiwani,"H.B. Colony, Bhiwani - HSPCB",03-04-2026 08:00:00,28.806223,76.141105,PM10,35,469,106
India,Haryana,Bhiwani,"H.B. Colony, Bhiwani - HSPCB",03-04-2026 08:00:00,28.806223,76.141105,NH3,7,13,10
India,Haryana,Bhiwani,"H.B. Colony, Bhiwani - HSPCB",03-04-2026 08:00:00,28.806223,76.141105,SO2,1,10,5
India,Haryana,Bhiwani,"H.B. Colony, Bhiwani - HSPCB",03-04-2026 08:00:00,28.806223,76.141105,CO,24,30,25
India,Haryana,Charkhi Dadri,"Mini Secretariat, Charkhi Dadri - HSPCB",03-04-2026 08:00:00,28.593883,76.270653,CO,14,29,20
India,Haryana,Dharuhera,"Municipal Corporation Office, Dharuhera -  HSPCB",03-04-2026 08:00:00,28.206800,76.799700,PM2.5,NA,NA,NA
India,Haryana,Dharuhera,"Municipal Corporation Office, Dharuhera -  HSPCB",03-04-2026 08:00:00,28.206800,76.799700,NH3,NA,NA,NA
India,Haryana,Dharuhera,"Municipal Corporation Office, Dharuhera -  HSPCB",03-04-2026 08:00:00,28.206800,76.799700,CO,54,102,54
India,Gujarat,Rajkot,"Mavdi, Rajkot - Nexteng Enviro ",03-04-2026 08:00:00,22.248853,70.776774,OZONE,4,15,5
India,Gujarat,Surat,"Katargam, Surat - Nexteng Enviro",03-04-2026 08:00:00,21.217779 ,72.834787 ,CO,34,42,37
India,Gujarat,Surat,"Katargam, Surat - Nexteng Enviro",03-04-2026 08:00:00,21.217779 ,72.834787 ,OZONE,11,11,11
India,Gujarat,Surat,"Science Center, Surat - SMC",03-04-2026 08:00:00,21.170046,72.795405,NO2,15,19,17
India,Gujarat,Vadodara,"Bapunagar, Vadodara - Nexteng Enviro",03-04-2026 08:00:00,22.320153,73.216285,OZONE,3,11,4
India,Gujarat,Vapi,"Phase-1 GIDC, Vapi - GPCB",03-04-2026 08:00:00,20.362421,72.918013,NO2,15,29,26
India,Gujarat,Vapi,"Phase-1 GIDC, Vapi - GPCB",03-04-2026 08:00:00,20.362421,72.918013,NH3,2,4,4
India,Gujarat,Vatva,"Phase-4 GIDC, Vatva - GPCB",03-04-2026 08:00:00,22.969611,72.643500,PM10,75,194,116
India,Gujarat,Vatva,"Phase-4 GIDC, Vatva - GPCB",03-04-2026 08:00:00,22.969611,72.643500,NH3,13,41,29
India,Gujarat,Vatva,"Phase-4 GIDC, Vatva - GPCB",03-04-2026 08:00:00,22.969611,72.643500,OZONE,30,46,30
India,Haryana,Ambala,"Patti Mehar, Ambala - HSPCB",03-04-2026 08:00:00,30.379589,76.778328,PM2.5,27,275,159
India,Haryana,Faridabad,"Sector 11, Faridabad - HSPCB",03-04-2026 08:00:00,28.376058,77.315741,SO2,3,3,3
India,Haryana,Faridabad,"Sector 30, Faridabad - HSPCB",03-04-2026 08:00:00,28.4417,77.3217,NH3,11,12,11
India,Haryana,Faridabad,"Sector 30, Faridabad - HSPCB",03-04-2026 08:00:00,28.4417,77.3217,CO,46,66,62
India,Haryana,Fatehabad,"Huda Sector, Fatehabad - HSPCB",03-04-2026 08:00:00,29.503664,75.467934,NO2,18,21,19
India,Haryana,Fatehabad,"Huda Sector, Fatehabad - HSPCB",03-04-2026 08:00:00,29.503664,75.467934,SO2,10,11,10
India,Haryana,Gurugram,"NISE Gwal Pahari, Gurugram - IMD",03-04-2026 08:00:00,28.422681,77.148944,PM2.5,31,346,201
India,Haryana,Gurugram,"NISE Gwal Pahari, Gurugram - IMD",03-04-2026 08:00:00,28.422681,77.148944,PM10,73,470,187
India,Haryana,Gurugram,"Sector-51, Gurugram - HSPCB",03-04-2026 08:00:00,28.4227,77.0667,OZONE,10,46,11
India,Haryana,Gurugram,"Vikas Sadan, Gurugram - HSPCB",03-04-2026 08:00:00,28.4501238,77.0263051,PM10,78,467,203
India,Haryana,Hisar,"Urban Estate-II, Hisar - HSPCB",03-04-2026 08:00:00,29.140560,75.744941,NO2,12,33,30
India,Haryana,Hisar,"Urban Estate-II, Hisar - HSPCB",03-04-2026 08:00:00,29.140560,75.744941,SO2,6,13,10
India,Haryana,Jind,"Police Lines, Jind - HSPCB",03-04-2026 08:00:00,29.307814,76.337619,PM2.5,59,500,128
India,Haryana,Jind,"Police Lines, Jind - HSPCB",03-04-2026 08:00:00,29.307814,76.337619,NO2,28,46,36
India,Haryana,Kaithal,"Rishi Nagar, Kaithal - HSPCB",03-04-2026 08:00:00,29.8006,76.4155,PM2.5,47,370,83
India,Haryana,Karnal,"Sector-12, Karnal - HSPCB",03-04-2026 08:00:00,29.695300,77.002700,NH3,6,6,6
India,Haryana,Manesar,"Sector-2 IMT, Manesar - HSPCB",03-04-2026 08:00:00,28.360699,76.936090,NO2,26,30,28
India,Haryana,Manesar,"Sector-2 IMT, Manesar - HSPCB",03-04-2026 08:00:00,28.360699,76.936090,CO,4,35,19
India,Haryana,Manesar,"Sector-2 IMT, Manesar - HSPCB",03-04-2026 08:00:00,28.360699,76.936090,OZONE,7,8,7
India,Haryana,Narnaul,"Shastri Nagar, Narnaul - HSPCB",03-04-2026 08:00:00,28.060249,76.113115,SO2,7,8,8
India,Haryana,Narnaul,"Shastri Nagar, Narnaul - HSPCB",03-04-2026 08:00:00,28.060249,76.113115,OZONE,12,43,21
India,Haryana,Palwal,"Shyam Nagar, Palwal - HSPCB",03-04-2026 08:00:00,28.1485564,77.3320667,CO,18,28,28
India,Haryana,Panchgaon,"Amity University, Panchgaon - IITM",03-04-2026 08:00:00,28.3153,76.9143,PM2.5,56,500,117
India,Gujarat,Ahmedabad,"SAC ISRO Satellite, Ahmedabad - IITM",03-04-2026 08:00:00,23.023389,72.515201,SO2,7,65,17
India,Gujarat,Ahmedabad,"SVPI Airport Hansol, Ahmedabad - IITM",03-04-2026 08:00:00,23.076793,72.627874,SO2,6,38,13
India,Gujarat,Ankleshwar,"GIDC, Ankleshwar - GPCB",03-04-2026 08:00:00,21.613267,73.010555,NH3,6,8,8
India,Gujarat,Ankleshwar,"GIDC, Ankleshwar - GPCB",03-04-2026 08:00:00,21.613267,73.010555,SO2,12,22,20
India,Gujarat,Ankleshwar,"GIDC, Ankleshwar - GPCB",03-04-2026 08:00:00,21.613267,73.010555,OZONE,10,50,15
India,Gujarat,Bhavnagar,"Vidhyanagar, Bhavnagar - Nexteng Enviro",03-04-2026 08:00:00,21.755417,72.139056,PM2.5,25,201,51
India,Gujarat,Gandhinagar,"IIPHG Lekawada, Gandhinagar - IITM",03-04-2026 08:00:00,23.243639,72.68994,CO,18,36,30
India,Gujarat,Gandhinagar,"Sector-10, Gandhinagar - GPCB",03-04-2026 08:00:00,23.221714,72.654328,NO2,11,22,17
India,Gujarat,Gandhinagar,"Sector-10, Gandhinagar - GPCB",03-04-2026 08:00:00,23.221714,72.654328,NH3,1,2,1
India,Gujarat,Nandesari,"GIDC, Nandesari - Nandesari Ind. Association",03-04-2026 08:00:00,22.410802,73.097923,PM2.5,25,183,86
India,Gujarat,Rajkot,"Mavdi, Rajkot - Nexteng Enviro ",03-04-2026 08:00:00,22.248853,70.776774,PM2.5,25,170,86
India,Haryana,Sirsa,"F-Block, Sirsa - HSPCB",03-04-2026 08:00:00,29.536400,75.015800,NO2,19,21,19
India,Haryana,Sirsa,"F-Block, Sirsa - HSPCB",03-04-2026 08:00:00,29.536400,75.015800,SO2,1,16,8
India,Haryana,Sonipat,"Murthal, Sonipat - HSPCB",03-04-2026 08:00:00,29.027200,77.062100,NO2,12,13,12
India,Haryana,Sonipat,"Murthal, Sonipat - HSPCB",03-04-2026 08:00:00,29.027200,77.062100,OZONE,25,26,26
India,Haryana,Yamuna Nagar,"Gobind Pura, Yamuna Nagar - HSPCB",03-04-2026 08:00:00,30.1480566,77.2893471,NO2,11,20,16
India,Haryana,Faridabad,"New Industrial Town, Faridabad - HSPCB",03-04-2026 08:00:00,28.39072,77.30059,SO2,8,9,8
India,Karnataka,Bengaluru,"Jigani, Bengaluru - KSPCB",03-04-2026 08:00:00,12.7816279,77.6299145,NH3,6,6,6
India,Karnataka,Bengaluru,"Jigani, Bengaluru - KSPCB",03-04-2026 08:00:00,12.7816279,77.6299145,SO2,17,20,19
India,Karnataka,Bengaluru,"Jigani, Bengaluru - KSPCB",03-04-2026 08:00:00,12.7816279,77.6299145,CO,32,44,33
India,Karnataka,Bengaluru,"Kasturi Nagar, Bengaluru - KSPCB",03-04-2026 08:00:00,13.003872,77.664217,NO2,32,34,33
India,Karnataka,Bengaluru,"Kasturi Nagar, Bengaluru - KSPCB",03-04-2026 08:00:00,13.003872,77.664217,SO2,8,9,9
India,Karnataka,Bengaluru,"Peenya, Bengaluru - CPCB",03-04-2026 08:00:00,13.0270199,77.494094,PM2.5,NA,NA,NA
India,Karnataka,Bengaluru,"Peenya, Bengaluru - CPCB",03-04-2026 08:00:00,13.0270199,77.494094,NH3,3,5,3
India,Karnataka,Bengaluru,"RVCE-Mailasandra, Bengaluru - KSPCB",03-04-2026 08:00:00,12.921418,77.502466,NO2,20,26,25
India,Karnataka,Bengaluru,"RVCE-Mailasandra, Bengaluru - KSPCB",03-04-2026 08:00:00,12.921418,77.502466,OZONE,24,30,28
India,Karnataka,Bengaluru,"Shivapura_Peenya, Bengaluru - KSPCB",03-04-2026 08:00:00,13.0246342,77.5080115,NO2,NA,NA,NA
India,Karnataka,Bengaluru,"Shivapura_Peenya, Bengaluru - KSPCB",03-04-2026 08:00:00,13.0246342,77.5080115,CO,NA,NA,NA
India,Karnataka,Bengaluru,"Silk Board, Bengaluru - KSPCB",03-04-2026 08:00:00,12.917348,77.622813,NH3,2,5,4
India,Himachal Pradesh,Baddi,"HIMUDA Complex Phase-1, Baddi - HPPCB",03-04-2026 08:00:00,30.943887,76.801991,PM2.5,28,220,60
India,Himachal Pradesh,Baddi,"HIMUDA Complex Phase-1, Baddi - HPPCB",03-04-2026 08:00:00,30.943887,76.801991,PM10,52,239,96
India,Jammu_and_Kashmir,Pampore,"Khrew, Pampore - JKPCC",03-04-2026 08:00:00,34.031606,75.009712,PM2.5,NA,NA,NA
India,Jammu_and_Kashmir,Srinagar,"Rajbagh, Srinagar - JKPCC",03-04-2026 08:00:00,34.066206,74.819820,CO,10,18,12
India,Jharkhand,Dhanbad,"Sardar Patel Nagar, Dhanbad - JSPCB",03-04-2026 08:00:00,23.80569,86.44268,CO,NA,NA,NA
India,Jharkhand,Jorapokhar,"Tata Stadium, Jorapokhar - JSPCB",03-04-2026 08:00:00,23.707909,86.414670,PM10,67,271,128
India,Karnataka,Bagalkot,"Vidayagiri, Bagalkot - KSPCB",03-04-2026 08:00:00,16.172806,75.659694,PM10,46,50,49
India,Madhya Pradesh,Indore,"Maguda Nagar, Indore - IMC",03-04-2026 08:00:00,22.7524,75.8872,CO,26,76,38
India,Madhya Pradesh,Indore,"Maguda Nagar, Indore - IMC",03-04-2026 08:00:00,22.7524,75.8872,OZONE,11,16,12
India,Madhya Pradesh,Indore,"Regional Park, Indore - IMC",03-04-2026 08:00:00,22.6780,75.8559,PM2.5,1,73,29
India,Madhya Pradesh,Indore,"Regional Park, Indore - IMC",03-04-2026 08:00:00,22.6780,75.8559,NO2,15,24,20
India,Madhya Pradesh,Indore,"Regional Park, Indore - IMC",03-04-2026 08:00:00,22.6780,75.8559,CO,12,20,14
India,Madhya Pradesh,Jabalpur,"Govindh Bhavan Colony, Jabalpur - JMC",03-04-2026 08:00:00,23.163174,79.973061,SO2,5,8,6
India,Madhya Pradesh,Jabalpur,"Govindh Bhavan Colony, Jabalpur - JMC",03-04-2026 08:00:00,23.163174,79.973061,CO,18,121,23
India,Madhya Pradesh,Jabalpur,"Govindh Bhavan Colony, Jabalpur - JMC",03-04-2026 08:00:00,23.163174,79.973061,OZONE,2,47,4
India,Madhya Pradesh,Jabalpur,"Marhatal, Jabalpur - MPPCB",03-04-2026 08:00:00,23.168606,79.932247,CO,48,114,84
India,Madhya Pradesh,Gwalior,"City Center, Gwalior - MPPCB",03-04-2026 08:00:00,26.203442,78.193251,PM10,26,175,102
India,Madhya Pradesh,Gwalior,"City Center, Gwalior - MPPCB",03-04-2026 08:00:00,26.203442,78.193251,NO2,8,112,44
India,Madhya Pradesh,Gwalior,"City Center, Gwalior - MPPCB",03-04-2026 08:00:00,26.203442,78.193251,NH3,2,6,5
India,Madhya Pradesh,Gwalior,"Deen Dayal Nagar, Gwalior - MPPCB",03-04-2026 08:00:00,26.259242,78.216432,NH3,3,8,6
India,Madhya Pradesh,Gwalior,"Deen Dayal Nagar, Gwalior - MPPCB",03-04-2026 08:00:00,26.259242,78.216432,SO2,11,61,20
India,Madhya Pradesh,Gwalior,"Deen Dayal Nagar, Gwalior - MPPCB",03-04-2026 08:00:00,26.259242,78.216432,OZONE,25,125,66
India,Madhya Pradesh,Indore,"Airport Area, Indore - IMC",03-04-2026 08:00:00,22.7289,75.8076,OZONE,5,20,6
India,Madhya Pradesh,Indore,"Chhoti Gwaltoli, Indore - MPPCB",03-04-2026 08:00:00,22.4310,75.5213,PM10,25,178,82
India,Karnataka,Shivamogga,"Vinoba Nagara, Shivamogga - KSPCB",03-04-2026 08:00:00,13.940000,75.555917,NO2,25,29,25
India,Karnataka,Yadgir,"Collector Office, Yadgir - KSPCB",03-04-2026 08:00:00,16.7602,77.1428,NH3,1,2,1
India,Karnataka,Yadgir,"Collector Office, Yadgir - KSPCB",03-04-2026 08:00:00,16.7602,77.1428,OZONE,7,16,13
India,Kerala,Kollam,"Polayathode, Kollam - Kerala PCB",03-04-2026 08:00:00,8.8787,76.6073,PM2.5,42,54,46
India,Kerala,Kollam,"Polayathode, Kollam - Kerala PCB",03-04-2026 08:00:00,8.8787,76.6073,PM10,72,84,76
India,Kerala,Kollam,"Polayathode, Kollam - Kerala PCB",03-04-2026 08:00:00,8.8787,76.6073,SO2,2,3,2
India,Kerala,Thiruvananthapuram,"Kariavattom, Thiruvananthapuram - Kerala PCB",03-04-2026 08:00:00,8.563700,76.886500,NO2,6,7,6
India,Karnataka,Bengaluru,"Silk Board, Bengaluru - KSPCB",03-04-2026 08:00:00,12.917348,77.622813,SO2,2,14,7
India,Karnataka,Chamarajanagar,"Urban, Chamarajanagar - KSPCB",03-04-2026 08:00:00,11.55358,76.55521,PM2.5,26,63,39
India,Karnataka,Chikkaballapur,"Chikkaballapur Rural, Chikkaballapur - KSPCB",03-04-2026 08:00:00,13.428828,77.731418,PM10,28,75,48
India,Karnataka,Chikkamagaluru,"Kalyana Nagara, Chikkamagaluru - KSPCB",03-04-2026 08:00:00,13.328028,75.797056,OZONE,13,51,14
India,Karnataka,Dharwad,"Kalabhavan, Dharwad - KSPCB",03-04-2026 08:00:00,15.459706,75.008381,NO2,28,32,30
India,Karnataka,Dharwad,"Kalabhavan, Dharwad - KSPCB",03-04-2026 08:00:00,15.459706,75.008381,CO,34,54,36
India,Kerala,Thiruvananthapuram,"Plammoodu, Thiruvananthapuram - Kerala PCB",03-04-2026 08:00:00,8.5149093,76.9435879,SO2,8,22,13
India,Madhya Pradesh,Bhopal,"Idgah Hills, Bhopal - MPPCB",03-04-2026 08:00:00,23.264759,77.381568,NH3,6,12,8
India,Madhya Pradesh,Bhopal,"Idgah Hills, Bhopal - MPPCB",03-04-2026 08:00:00,23.264759,77.381568,OZONE,23,62,33
India,Madhya Pradesh,Bhopal,"Paryavaran Parisar, Bhopal - MPPCB",03-04-2026 08:00:00,23.210494,77.425409,SO2,20,30,25
India,Madhya Pradesh,Bhopal,"Paryavaran Parisar, Bhopal - MPPCB",03-04-2026 08:00:00,23.210494,77.425409,OZONE,15,45,31
India,Madhya Pradesh,Bhopal,"T T Nagar, Bhopal - MPPCB",03-04-2026 08:00:00,23.233584,77.400574,SO2,7,21,15
India,Madhya Pradesh,Bhopal,"T T Nagar, Bhopal - MPPCB",03-04-2026 08:00:00,23.233584,77.400574,OZONE,35,134,62
India,Karnataka,Bagalkot,"Vidayagiri, Bagalkot - KSPCB",03-04-2026 08:00:00,16.172806,75.659694,OZONE,11,12,12
India,Karnataka,Bengaluru,"BTM Layout, Bengaluru - CPCB",03-04-2026 08:00:00,12.9135218,77.5950804,PM10,104,105,104
India,Karnataka,Bengaluru,"Bapuji Nagar, Bengaluru - KSPCB",03-04-2026 08:00:00,12.951913,77.539784,NO2,25,42,30
India,Karnataka,Bengaluru,"Bapuji Nagar, Bengaluru - KSPCB",03-04-2026 08:00:00,12.951913,77.539784,NH3,1,3,2
India,Karnataka,Bengaluru,"Hombegowda Nagar, Bengaluru - KSPCB",03-04-2026 08:00:00,12.938539,77.590100,NH3,3,5,4
India,Karnataka,Bengaluru,"Jayanagar 5th Block, Bengaluru - KSPCB",03-04-2026 08:00:00,12.920984,77.584908,PM10,51,147,102
India,Karnataka,Kalaburagi,"Mahatma Basaveswar Colony, Kalaburgi - KSPCB",03-04-2026 08:00:00,17.336318,76.847397,PM10,19,68,45
India,Karnataka,Koppal,"Diwator Nagar, Koppal - KSPCB",03-04-2026 08:00:00,15.347630,76.181767,PM10,16,59,33
India,Karnataka,Madikeri,"Stuart Hill, Madikeri - KSPCB",03-04-2026 08:00:00,12.415911,75.735050,OZONE,2,5,3
India,Karnataka,Mangalore,"Kadri, Mangalore - KSPCB",03-04-2026 08:00:00,12.889250,74.853000,NO2,7,10,9
India,Maharashtra,Akola,"Ramdaspeth, Akola - MPCB",03-04-2026 08:00:00,20.719516,77.000253,CO,18,29,18
India,Maharashtra,Akola,"Ramdaspeth, Akola - MPCB",03-04-2026 08:00:00,20.719516,77.000253,OZONE,19,85,29
India,Maharashtra,Ambernath,"Chinchpada, Ambernath - MPCB",03-04-2026 08:00:00,19.2157840,73.1997810,PM10,30,122,52
India,Maharashtra,Ambernath,"Chinchpada, Ambernath - MPCB",03-04-2026 08:00:00,19.2157840,73.1997810,NO2,22,47,31
India,Maharashtra,Ambernath,"Chinchpada, Ambernath - MPCB",03-04-2026 08:00:00,19.2157840,73.1997810,CO,8,18,11
India,Maharashtra,Amravati,"Shivneri Colony, Amravati - MPCB",03-04-2026 08:00:00,20.9402359,77.7895248,PM10,26,57,37
India,Maharashtra,Amravati,"Shivneri Colony, Amravati - MPCB",03-04-2026 08:00:00,20.9402359,77.7895248,SO2,6,14,8
India,Maharashtra,Amravati,"Shri Shivaji Science College, Amravati - MPCB",03-04-2026 08:00:00,20.939198,77.765701,SO2,19,23,20
India,Maharashtra,Aurangabad,"MIDC Chilkalthana, Aurangabad - MPCB",03-04-2026 08:00:00,19.875620,75.387310,PM2.5,43,56,49
India,Maharashtra,Aurangabad,"MIDC Chilkalthana, Aurangabad - MPCB",03-04-2026 08:00:00,19.875620,75.387310,NH3,1,3,2
India,Maharashtra,Aurangabad,"MIDC Chilkalthana, Aurangabad - MPCB",03-04-2026 08:00:00,19.875620,75.387310,SO2,1,2,1
India,Maharashtra,Aurangabad,"More Chowk Waluj, Aurangabad - MPCB",03-04-2026 08:00:00,19.8389439,75.244448,OZONE,6,45,20
India,Maharashtra,Aurangabad,"Rachnakar Colony, Aurangabad - MPCB",03-04-2026 08:00:00,19.863756,75.321188,NO2,11,38,19
India,Maharashtra,Latur,"Sawe Wadi, Latur - MPCB",03-04-2026 08:00:00,18.39963,76.57452,SO2,1,8,4
India,Maharashtra,Latur,"Sawe Wadi, Latur - MPCB",03-04-2026 08:00:00,18.39963,76.57452,CO,10,55,21
India,Maharashtra,Latur,"Sawe Wadi, Latur - MPCB",03-04-2026 08:00:00,18.39963,76.57452,OZONE,15,33,19
India,Maharashtra,Malegaon,"Mahesh Nagar, Malegaon - MPCB",03-04-2026 08:00:00,20.555712,74.529236,NH3,NA,NA,NA
India,Maharashtra,Mira-Bhayandar,"Bhayandar West, Mira-Bhayandar - MPCB",03-04-2026 08:00:00,19.296481,72.840923,NH3,1,10,4
India,Maharashtra,Mira-Bhayandar,"Bhayandar West, Mira-Bhayandar - MPCB",03-04-2026 08:00:00,19.296481,72.840923,OZONE,1,58,2
India,Maharashtra,Mumbai,"Bandra Kurla Complex, Mumbai - IITM",03-04-2026 08:00:00,19.053536,72.84643,PM2.5,28,100,55
India,Maharashtra,Mumbai,"Bandra Kurla Complex, Mumbai - IITM",03-04-2026 08:00:00,19.053536,72.84643,NO2,17,26,22
India,Maharashtra,Mumbai,"Bandra Kurla Complex, Mumbai - MPCB",03-04-2026 08:00:00,19.065931,72.862131,PM10,45,267,92
India,Maharashtra,Mumbai,"Bandra Kurla Complex, Mumbai - MPCB",03-04-2026 08:00:00,19.065931,72.862131,SO2,3,5,4
India,Madhya Pradesh,Sagar,"Civil Lines, Sagar - MPPCB",03-04-2026 08:00:00,23.838586,78.759431,NO2,5,83,17
India,Madhya Pradesh,Sagar,"Civil Lines, Sagar - MPPCB",03-04-2026 08:00:00,23.838586,78.759431,CO,12,86,16
India,Madhya Pradesh,Sagar,"Deen Dayal Nagar, Sagar - MPPCB",03-04-2026 08:00:00,23.8640158,78.80289321,CO,75,103,96
India,Madhya Pradesh,Satna,"Bandhavgar Colony, Satna - Birla Cement",03-04-2026 08:00:00,24.58434363,80.8549414,PM10,69,71,70
India,Madhya Pradesh,Satna,"Bandhavgar Colony, Satna - Birla Cement",03-04-2026 08:00:00,24.58434363,80.8549414,NO2,12,13,12
India,Madhya Pradesh,Singrauli,"Suryakiran Bhawan NCL, Singrauli - MPPCB",03-04-2026 08:00:00,24.108970,82.645580,PM10,35,438,225
India,Madhya Pradesh,Singrauli,"Suryakiran Bhawan NCL, Singrauli - MPPCB",03-04-2026 08:00:00,24.108970,82.645580,SO2,42,77,60
India,Madhya Pradesh,Ujjain,"Mahashweta Nagar, Ujjain - MPPCB",03-04-2026 08:00:00,23.1633321,75.800225,CO,NA,NA,NA
India,Madhya Pradesh,Ujjain,"Mahashweta Nagar, Ujjain - MPPCB",03-04-2026 08:00:00,23.1633321,75.800225,OZONE,NA,NA,NA
India,Maharashtra,Aurangabad,"Rachnakar Colony, Aurangabad - MPCB",03-04-2026 08:00:00,19.863756,75.321188,OZONE,13,87,15
India,Maharashtra,Badlapur,"Katrap, Badlapur - MPCB",03-04-2026 08:00:00,19.16485,73.23409,NH3,3,8,5
India,Maharashtra,Beed,"Bir, Beed - MPCB",03-04-2026 08:00:00,18.988474,75.753873,PM10,16,68,29
India,Maharashtra,Belapur,"CBD Belapur, Belapur - MPCB",03-04-2026 08:00:00,19.0243902,73.0406721,PM2.5,47,68,58
India,Maharashtra,Bhiwandi,"Gokul Nagar, Bhiwandi - MPCB",03-04-2026 08:00:00,19.309073,73.057223,PM2.5,39,80,60
India,Maharashtra,Bhiwandi,"Gokul Nagar, Bhiwandi - MPCB",03-04-2026 08:00:00,19.309073,73.057223,NO2,15,41,26
India,Maharashtra,Boisar,"Khaira, Boisar - MPCB",03-04-2026 08:00:00,19.786089,72.757971,NO2,8,20,14
India,Maharashtra,Chandrapur,"MIDC Khutala, Chandrapur - MPCB",03-04-2026 08:00:00,19.9775302,79.2337086,OZONE,13,145,27
India,Maharashtra,Dhule,"Deopur, Dhule - MPCB",03-04-2026 08:00:00,20.918946,74.776388,PM2.5,NA,NA,NA
India,Maharashtra,Dhule,"Deopur, Dhule - MPCB",03-04-2026 08:00:00,20.918946,74.776388,PM10,NA,NA,NA
India,Maharashtra,Dombivli,"Kalu Nagar, Dombivli - MPCB",03-04-2026 08:00:00,19.2268427 ,73.0788456 ,NO2,12,52,24
India,Maharashtra,Hingoli,"Ashta Vinayak Nagar, Hingoli - MPCB",03-04-2026 08:00:00,19.710842,77.151824,SO2,1,4,2
India,Maharashtra,Jalgaon,"Prabhat Colony, Jalgaon - MPCB",03-04-2026 08:00:00,21.001264,75.565602,PM2.5,1,100,57
India,Maharashtra,Jalgaon,"Prabhat Colony, Jalgaon - MPCB",03-04-2026 08:00:00,21.001264,75.565602,PM10,58,118,85
India,Maharashtra,Jalna,"Old MIDC, Jalna - MPCB",03-04-2026 08:00:00,19.854616,75.905894,NH3,NA,NA,NA
India,Maharashtra,Kalyan,"Pimpleshwar Mandir, Kalyan - MPCB",03-04-2026 08:00:00,19.192056,72.9585188,NO2,11,12,12
India,Maharashtra,Kalyan,"Pimpleshwar Mandir, Kalyan - MPCB",03-04-2026 08:00:00,19.192056,72.9585188,CO,53,80,65
India,Maharashtra,Kolhapur,"Shivaji University, Kolhapur - MPCB",03-04-2026 08:00:00,16.6870449,74.2505872,OZONE,5,46,7
India,Maharashtra,Kolhapur,"Sinchan Bhavan, Kolhapur - MPCB",03-04-2026 08:00:00,16.7143745,74.2426398,PM10,41,100,67
India,Maharashtra,Kolhapur,"Sinchan Bhavan, Kolhapur - MPCB",03-04-2026 08:00:00,16.7143745,74.2426398,NO2,4,17,9
India,Maharashtra,Kolhapur,"Sinchan Bhavan, Kolhapur - MPCB",03-04-2026 08:00:00,16.7143745,74.2426398,CO,14,60,19
India,Madhya Pradesh,Jabalpur,"Suhagi, Jabalpur - JMC",03-04-2026 08:00:00,23.218135,79.957770,SO2,13,22,17
India,Madhya Pradesh,Katni,"Gole Bazar, Katni - MPPCB",03-04-2026 08:00:00,23.50016,80.23284,NH3,4,8,6
India,Madhya Pradesh,Katni,"Gole Bazar, Katni - MPPCB",03-04-2026 08:00:00,23.50016,80.23284,OZONE,16,110,62
India,Madhya Pradesh,Maihar,"Sahilara, Maihar - KJS Cements",03-04-2026 08:00:00,24.2613009,80.7231783,SO2,15,17,17
India,Madhya Pradesh,Maihar,"Sahilara, Maihar - KJS Cements",03-04-2026 08:00:00,24.2613009,80.7231783,CO,17,34,32
India,Madhya Pradesh,Pithampur,"Sector-2 Industrial Area, Pithampur - MPPCB",03-04-2026 08:00:00,22.624758,75.675238,CO,8,68,41
India,Maharashtra,Mumbai,"Bandra Kurla Complex, Mumbai - MPCB",03-04-2026 08:00:00,19.065931,72.862131,OZONE,2,66,4
India,Maharashtra,Mumbai,"Borivali East, Mumbai - IITM",03-04-2026 08:00:00,19.23241,72.86895,OZONE,12,77,24
India,Maharashtra,Mumbai,"Borivali East, Mumbai - MPCB",03-04-2026 08:00:00,19.2243333,72.8658113,PM10,32,60,47
India,Maharashtra,Mumbai,"Chembur, Mumbai - MPCB",03-04-2026 08:00:00,19.0364585,72.8954371,PM2.5,30,56,39
India,Maharashtra,Mumbai,"Chhatrapati Shivaji Intl. Airport (T2), Mumbai - MPCB",03-04-2026 08:00:00,19.10078,72.87462,PM2.5,41,104,59
India,Maharashtra,Mumbai,"Deonar, Mumbai - IITM",03-04-2026 08:00:00,19.04946,72.9230,PM2.5,8,51,34
India,Maharashtra,Pune,"Savitribai Phule Pune University, Pune - MPCB",03-04-2026 08:00:00,18.547056,73.826908,OZONE,NA,NA,NA
India,Maharashtra,Sangli,"Vijay Nagar, Sangli - MPCB",03-04-2026 08:00:00, 16.5038,74.3623,CO,14,48,23
India,Maharashtra,Solapur,"Dnyaneshwar Nagar, Solapur - MPCB",03-04-2026 08:00:00,17.6336264,75.9132495,NO2,6,28,12
India,Maharashtra,Solapur,"Dnyaneshwar Nagar, Solapur - MPCB",03-04-2026 08:00:00,17.6336264,75.9132495,CO,12,30,17
India,Maharashtra,Solapur,"Ratandeep Housing Society, Solapur - MPCB",03-04-2026 08:00:00,17.65439,75.90649,NH3,4,10,6
India,Maharashtra,Thane,"Kasarvadavali, Thane - MPCB",03-04-2026 08:00:00,19.26777,72.97182,OZONE,1,41,10
India,Maharashtra,Thane,"Upvan Fort, Thane - MPCB",03-04-2026 08:00:00,19.222279,72.957979,NO2,8,19,12
India,Maharashtra,Thane,"Upvan Fort, Thane - MPCB",03-04-2026 08:00:00,19.222279,72.957979,NH3,3,3,3
India,Maharashtra,Thane,"Upvan Fort, Thane - MPCB",03-04-2026 08:00:00,19.222279,72.957979,CO,26,74,52
India,Maharashtra,Pimpri-Chinchwad,"Bhumkar Nagar, Pune - IITM",03-04-2026 08:00:00,18.605770,73.749976,PM10,NA,NA,NA
India,Maharashtra,Pimpri-Chinchwad,"Bhumkar Nagar, Pune - IITM",03-04-2026 08:00:00,18.605770,73.749976,NO2,NA,NA,NA
India,Maharashtra,Pimpri-Chinchwad,"Bhumkar Nagar, Pune - IITM",03-04-2026 08:00:00,18.605770,73.749976,CO,NA,NA,NA
India,Maharashtra,Pimpri-Chinchwad,"Bhumkar Nagar, Pune - IITM",03-04-2026 08:00:00,18.605770,73.749976,OZONE,NA,NA,NA
India,Maharashtra,Pimpri-Chinchwad,"Park Street Wakad, Pimpri Chinchwad - MPCB",03-04-2026 08:00:00,18.59051,73.77946,PM2.5,6,39,21
India,Maharashtra,Pimpri-Chinchwad,"Savta Mali Nagar, Pimpri-Chinchwad - IITM",03-04-2026 08:00:00,18.614767,73.799516,PM10,35,75,57
India,Maharashtra,Pimpri-Chinchwad,"Savta Mali Nagar, Pimpri-Chinchwad - IITM",03-04-2026 08:00:00,18.614767,73.799516,OZONE,1,26,2
India,Maharashtra,Pimpri-Chinchwad,"Thergaon, Pimpri Chinchwad - MPCB",03-04-2026 08:00:00,18.616318,73.765797,CO,1,84,48
India,Maharashtra,Pimpri-Chinchwad,"Transport Nagar-Nigdi, Pune - IITM",03-04-2026 08:00:00,18.664282,73.763966,CO,2,74,53
India,Maharashtra,Mumbai,"Kurla, Mumbai - MPCB",03-04-2026 08:00:00,19.0863,72.8888,PM2.5,29,146,57
India,Maharashtra,Mumbai,"Kurla, Mumbai - MPCB",03-04-2026 08:00:00,19.0863,72.8888,NO2,5,6,5
India,Maharashtra,Mumbai,"Kurla, Mumbai - MPCB",03-04-2026 08:00:00,19.0863,72.8888,CO,8,14,13
India,Maharashtra,Mumbai,"Malad West, Mumbai - IITM",03-04-2026 08:00:00,19.19709,72.82204,PM2.5,5,77,26
India,Maharashtra,Mumbai,"Malad West, Mumbai - IITM",03-04-2026 08:00:00,19.19709,72.82204,NO2,NA,NA,NA
India,Maharashtra,Mumbai,"Malad West, Mumbai - IITM",03-04-2026 08:00:00,19.19709,72.82204,SO2,2,31,16
India,Maharashtra,Mumbai,"Mazgaon, Mumbai - IITM",03-04-2026 08:00:00,18.96702,72.84214,PM2.5,37,158,55
India,Maharashtra,Mumbai,"Mindspace-Malad West, Mumbai - MPCB",03-04-2026 08:00:00,19.1878657,72.8304069,NH3,2,5,3
India,Maharashtra,Mumbai,"Mulund West, Mumbai - MPCB",03-04-2026 08:00:00,19.1750,72.9419,PM10,38,87,63
India,Maharashtra,Mumbai,"Worli, Mumbai -MPCB",03-04-2026 08:00:00,18.9942180,72.8158167,PM2.5,7,108,38
India,Maharashtra,Mumbai,"Worli, Mumbai -MPCB",03-04-2026 08:00:00,18.9942180,72.8158167,NO2,12,12,12
India,Maharashtra,Nagpur,"Mahal, Nagpur - MPCB",03-04-2026 08:00:00,21.14472,79.107595,NH3,12,13,12
India,Maharashtra,Nagpur,"Mahal, Nagpur - MPCB",03-04-2026 08:00:00,21.14472,79.107595,SO2,1,48,20
India,Maharashtra,Nagpur,"Mahal, Nagpur - MPCB",03-04-2026 08:00:00,21.14472,79.107595,CO,12,109,34
India,Maharashtra,Nagpur,"Opp GPO Civil Lines, Nagpur - MPCB",03-04-2026 08:00:00,21.152875,79.0517531,PM10,53,163,112
India,Maharashtra,Nagpur,"Ram Nagar, Nagpur - MPCB",03-04-2026 08:00:00,21.143383,79.048912,PM2.5,1,115,68
India,Maharashtra,Nagpur,"Ram Nagar, Nagpur - MPCB",03-04-2026 08:00:00,21.143383,79.048912,OZONE,4,46,14
India,Maharashtra,Nanded,"Sneh Nagar, Nanded - MPCB",03-04-2026 08:00:00,19.173852,77.296291,NH3,3,5,4
India,Maharashtra,Nanded,"Sneh Nagar, Nanded - MPCB",03-04-2026 08:00:00,19.173852,77.296291,SO2,9,11,10
India,Maharashtra,Nashik,"Gangapur Road, Nashik - MPCB",03-04-2026 08:00:00,20.0073285,73.7762427,SO2,2,9,4
India,Maharashtra,Nashik,"Hirawadi, Nashik - MPCB",03-04-2026 08:00:00,20.021503,73.813844,CO,16,18,17
India,Maharashtra,Nashik,"Hirawadi, Nashik - MPCB",03-04-2026 08:00:00,20.021503,73.813844,OZONE,5,81,12
India,Maharashtra,Nashik,"Pandav Nagari, Nashik - MPCB",03-04-2026 08:00:00,19.9591346,73.7788008,SO2,2,7,3
India,Maharashtra,Nashik,"Pandav Nagari, Nashik - MPCB",03-04-2026 08:00:00,19.9591346,73.7788008,CO,16,38,24
India,Maharashtra,Nashik,"Pandav Nagari, Nashik - MPCB",03-04-2026 08:00:00,19.9591346,73.7788008,OZONE,8,55,14
India,Maharashtra,Mumbai,"Sewri, Mumbai - BMC",03-04-2026 08:00:00,19.000084,72.856730,NH3,12,12,12
India,Maharashtra,Mumbai,"Shivaji Nagar, Mumbai - BMC",03-04-2026 08:00:00,19.060498,72.923356,OZONE,3,38,6
India,Maharashtra,Mumbai,"Siddharth Nagar-Worli, Mumbai - IITM",03-04-2026 08:00:00,19.000083,72.813993,OZONE,9,78,17
India,Maharashtra,Mumbai,"Sion, Mumbai - MPCB",03-04-2026 08:00:00,19.047000,72.874600,PM2.5,36,92,54
India,Maharashtra,Mumbai,"Sion, Mumbai - MPCB",03-04-2026 08:00:00,19.047000,72.874600,NO2,27,31,29
India,Maharashtra,Mumbai,"Vile Parle West, Mumbai - MPCB",03-04-2026 08:00:00,19.10861,72.83622,NH3,6,6,6
India,Maharashtra,Navi Mumbai,"Kopripada-Vashi, Navi Mumbai - MPCB",03-04-2026 08:00:00,19.090337,73.014232,CO,12,66,50
India,Maharashtra,Navi Mumbai,"Mahape, Navi Mumbai - MPCB",03-04-2026 08:00:00,19.1135051,73.008978,PM2.5,24,80,49
India,Maharashtra,Navi Mumbai,"Nerul, Navi Mumbai - MPCB",03-04-2026 08:00:00,19.008751,73.016620,SO2,NA,NA,NA
India,Maharashtra,Navi Mumbai,"Sector-2E Kalamboli, Navi Mumbai - MPCB",03-04-2026 08:00:00,19.02579,73.10297,CO,14,31,21
India,Maharashtra,Navi Mumbai,"Tondare-Taloja, Navi Mumbai - MPCB",03-04-2026 08:00:00,19.0630,73.1209,PM2.5,22,71,45
India,Maharashtra,Pune,"Hadapsar, Pune - IITM",03-04-2026 08:00:00,18.501793,73.927532,NO2,41,88,60
India,Maharashtra,Pune,"Hadapsar, Pune - IITM",03-04-2026 08:00:00,18.501793,73.927532,CO,48,112,72
India,Maharashtra,Pune,"Mhada Colony, Pune - IITM",03-04-2026 08:00:00,18.573040,73.927715,PM2.5,40,80,58
India,Maharashtra,Pune,"Mhada Colony, Pune - IITM",03-04-2026 08:00:00,18.573040,73.927715,OZONE,10,63,14
India,Maharashtra,Pune,"Revenue Colony-Shivajinagar, Pune - IITM",03-04-2026 08:00:00,18.530085,73.849598,PM10,32,157,95
India,Maharashtra,Pune,"Revenue Colony-Shivajinagar, Pune - IITM",03-04-2026 08:00:00,18.530085,73.849598,CO,32,106,92
India,Maharashtra,Mumbai,"Kandivali West, Mumbai - BMC",03-04-2026 08:00:00,19.215859,72.831718,NH3,3,4,4
India,Maharashtra,Mumbai,"Kandivali West, Mumbai - BMC",03-04-2026 08:00:00,19.215859,72.831718,OZONE,5,58,12
India,Maharashtra,Mumbai,"Kherwadi_Bandra East, Mumbai - MPCB",03-04-2026 08:00:00,19.0632143,72.8456324,NH3,7,13,9
India,Punjab,Rupnagar,"Ratanpura, Rupnagar - Ambuja Cements",03-04-2026 08:00:00,31.0325454,76.5623046,CO,30,50,48
India,Rajasthan,Ajmer,"Civil Lines,  Ajmer - RSPCB",03-04-2026 08:00:00,26.470859,74.646594,OZONE,18,38,30
India,Rajasthan,Alwar,"Moti Doongri, Alwar - RSPCB",03-04-2026 08:00:00,27.554793,76.611536,NO2,42,96,59
India,Rajasthan,Banswara,"Rati Talai, Banswara - RSPCB",03-04-2026 08:00:00,23.555190,74.440010,PM2.5,21,72,48
India,Rajasthan,Baran,"Bamboliya, Baran - RSPCB",03-04-2026 08:00:00,25.106006,76.469948,SO2,4,16,9
India,Rajasthan,Baran,"Bamboliya, Baran - RSPCB",03-04-2026 08:00:00,25.106006,76.469948,CO,11,30,16
India,Rajasthan,Barmer,"Railway Colony, Barmer - RSPCB",03-04-2026 08:00:00,25.747299,71.393989,NH3,4,6,5
India,Rajasthan,Barmer,"Railway Colony, Barmer - RSPCB",03-04-2026 08:00:00,25.747299,71.393989,CO,8,26,9
India,Odisha,Suakati,"OMC Colony, Suakati - OSPCB",03-04-2026 08:00:00,21.606865,85.510538,PM10,58,98,81
India,Odisha,Suakati,"OMC Colony, Suakati - OSPCB",03-04-2026 08:00:00,21.606865,85.510538,NH3,7,7,7
India,Odisha,Talcher,"Talcher Coalfields,Talcher - OSPCB",03-04-2026 08:00:00,20.9360711,85.1707021,NH3,5,8,6
India,Puducherry,Puducherry,"Jawahar Nagar, Puducherry - PPCC",03-04-2026 08:00:00,11.9309,79.8027,PM2.5,6,108,28
India,Puducherry,Puducherry,"Jawahar Nagar, Puducherry - PPCC",03-04-2026 08:00:00,11.9309,79.8027,NH3,2,5,3
India,Punjab,Amritsar,"Golden Temple, Amritsar - PPCB",03-04-2026 08:00:00,31.620000,74.876512,PM2.5,60,80,63
India,Punjab,Amritsar,"Golden Temple, Amritsar - PPCB",03-04-2026 08:00:00,31.620000,74.876512,NO2,12,276,126
India,Punjab,Bathinda,"Hardev Nagar, Bathinda - PPCB",03-04-2026 08:00:00,30.233011,74.907758,NO2,31,43,35
India,Odisha,Bhubaneswar,"Lingraj Mandir, Bhubaneswar - OSPCB",03-04-2026 08:00:00,20.240790,85.836784,PM10,11,55,37
India,Odisha,Bhubaneswar,"Patia, Bhubaneswar - OSPCB",03-04-2026 08:00:00,20.34652,85.81630,NH3,4,13,6
India,Odisha,Bileipada,"Tata Township, Bileipada - OSPCB",03-04-2026 08:00:00,22.06156703,85.47409613,PM10,111,421,230
India,Odisha,Brajrajnagar,"GM Office, Brajrajnagar - OSPCB",03-04-2026 08:00:00,21.8004996,83.8396977,PM10,62,420,114
India,Odisha,Brajrajnagar,"GM Office, Brajrajnagar - OSPCB",03-04-2026 08:00:00,21.8004996,83.8396977,NH3,5,6,6
India,Odisha,Byasanagar,"Ferro Chrome Colony, Byasanagar - OSPCB",03-04-2026 08:00:00,20.94185,86.11510,NH3,3,4,4
India,Odisha,Cuttack,"CDA Area, Cuttack - OSPCB",03-04-2026 08:00:00,20.48891     ,85.84768     ,PM2.5,13,47,27
India,Maharashtra,Ulhasnagar,"Sidhi Vinayak Nagar, Ulhasnagar - MPCB",03-04-2026 08:00:00,19.235581,73.159121,NH3,3,8,5
India,Meghalaya,Byrnihat,"15th Mile-Nongthymmai, Byrnihat - Meghalaya PCB",03-04-2026 08:00:00,26.05374,91.86796,NH3,NA,NA,NA
India,Meghalaya,Byrnihat,"15th Mile-Nongthymmai, Byrnihat - Meghalaya PCB",03-04-2026 08:00:00,26.05374,91.86796,SO2,NA,NA,NA
India,Meghalaya,Shillong,"JN Stadium, Shillong - Meghalaya PCB",03-04-2026 08:00:00,25.5803419,91.8942571,PM2.5,NA,NA,NA
India,Meghalaya,Shillong,"JN Stadium, Shillong - Meghalaya PCB",03-04-2026 08:00:00,25.5803419,91.8942571,CO,14,46,26
India,Meghalaya,Shillong,"Lumpyngngad, Shillong - Meghalaya PCB",03-04-2026 08:00:00,25.5586,91.8985,PM2.5,7,42,18
India,Meghalaya,Shillong,"Lumpyngngad, Shillong - Meghalaya PCB",03-04-2026 08:00:00,25.5586,91.8985,SO2,10,12,11
India,Rajasthan,Bharatpur,"Krishna Nagar, Bharatpur - RSPCB",03-04-2026 08:00:00,27.215415,77.50873,PM2.5,15,69,32
India,Rajasthan,Bhiwadi,"RIICO Ind. Area III, Bhiwadi - RSPCB",03-04-2026 08:00:00,28.194909,76.862296,NH3,5,22,12
India,Rajasthan,Bhiwadi,"RIICO Ind. Area III, Bhiwadi - RSPCB",03-04-2026 08:00:00,28.194909,76.862296,CO,20,77,34
India,Rajasthan,Bhiwadi,"RIICO Ind. Area III, Bhiwadi - RSPCB",03-04-2026 08:00:00,28.194909,76.862296,OZONE,4,38,7
India,Rajasthan,Bhiwadi,"Vasundhara Nagar_UIT, Bhiwadi - RSPCB",03-04-2026 08:00:00,28.207266,76.829265,NH3,1,12,4
India,Rajasthan,Bhiwadi,"Vasundhara Nagar_UIT, Bhiwadi - RSPCB",03-04-2026 08:00:00,28.207266,76.829265,SO2,5,66,24
India,Rajasthan,Bikaner,"MM Ground, Bikaner - RSPCB",03-04-2026 08:00:00,28.018792,73.292658,PM10,87,439,137
India,Nagaland,Kohima,"PWD Junction, Kohima - NPCB",03-04-2026 08:00:00,25.6635413,94.0989878,PM10,27,52,37
India,Odisha,Barbil,"Forest Office, Barbil - OSPCB",03-04-2026 08:00:00,22.1166054,85.3945546,PM2.5,36,281,119
India,Odisha,Barbil,"Forest Office, Barbil - OSPCB",03-04-2026 08:00:00,22.1166054,85.3945546,PM10,74,207,129
India,Odisha,Baripada,"Meher Colony, Baripada - OSPCB",03-04-2026 08:00:00,21.941841,86.728318,PM2.5,47,90,72
India,Odisha,Baripada,"Meher Colony, Baripada - OSPCB",03-04-2026 08:00:00,21.941841,86.728318,SO2,7,12,10
India,Odisha,Bhubaneswar,"Lingraj Mandir, Bhubaneswar - OSPCB",03-04-2026 08:00:00,20.240790,85.836784,PM2.5,5,38,26
India,Odisha,Keonjhar,"Jagamohanpur, Keonjhar - OSPCB",03-04-2026 08:00:00,21.643900,85.599355,PM10,65,154,104
India,Odisha,Keonjhar,"Jagamohanpur, Keonjhar - OSPCB",03-04-2026 08:00:00,21.643900,85.599355,NO2,7,10,9
India,Odisha,Rourkela,"Fertilizer Township, Rourkela - OSPCB",03-04-2026 08:00:00,22.18972222,84.86277778,CO,10,21,14
India,Odisha,Rourkela,"Raghunathpali, Rourkela - OSPCB",03-04-2026 08:00:00,22.220833,84.809444,CO,28,93,67
India,Odisha,Rourkela,"Sector-2, Rourkela - OSPCB",03-04-2026 08:00:00,22.24500000,84.88111111,NO2,17,17,17
India,Punjab,Jalandhar,"Civil Line, Jalandhar - PPCB",03-04-2026 08:00:00,31.321907,75.578914,PM10,25,104,51
India,Punjab,Khanna,"Kalal Majra, Khanna - PPCB",03-04-2026 08:00:00,30.736056 ,76.209694,SO2,8,17,10
India,Punjab,Ludhiana,"Punjab Agricultural University, Ludhiana - PPCB",03-04-2026 08:00:00,30.9028,75.8086,NO2,30,36,33
India,Punjab,Mandi Gobindgarh,"RIMT University, Mandi Gobindgarh - PPCB",03-04-2026 08:00:00,30.649961,76.331442,NO2,23,24,24
India,Rajasthan,Dholpur,"Raja Ganj, Dholpur - RSPCB",03-04-2026 08:00:00,26.699557,77.898881,PM2.5,13,47,26
India,Rajasthan,Dholpur,"Raja Ganj, Dholpur - RSPCB",03-04-2026 08:00:00,26.699557,77.898881,CO,16,100,19
India,Rajasthan,Dungarpur,"Bhoiwada, Dungarpur - RSPCB",03-04-2026 08:00:00,23.837789,73.714926,PM10,45,100,74
India,Rajasthan,Dungarpur,"Bhoiwada, Dungarpur - RSPCB",03-04-2026 08:00:00,23.837789,73.714926,NH3,12,14,13
India,TamilNadu,Madurai,"Uchapatti, Madurai - TNPCB",03-04-2026 08:00:00,9.865935,78.022669,SO2,NA,NA,NA
India,TamilNadu,Perundurai,"SIPCOT Industrial Park, Perundurai - TNPCB",03-04-2026 08:00:00,11.258242,77.552761,CO,44,50,48
India,TamilNadu,Perundurai,"SIPCOT Industrial Park, Perundurai - TNPCB",03-04-2026 08:00:00,11.258242,77.552761,OZONE,24,30,29
India,TamilNadu,Thoothukudi,"Meelavittan, Thoothukudi - TNPCB",03-04-2026 08:00:00,8.816428 ,78.099039,PM10,27,110,60
India,TamilNadu,Thoothukudi,"Meelavittan, Thoothukudi - TNPCB",03-04-2026 08:00:00,8.816428 ,78.099039,CO,8,62,40
India,Telangana,Hyderabad,"Central University, Hyderabad - TSPCB",03-04-2026 08:00:00,17.460103,78.334361,PM2.5,5,22,12
India,Telangana,Hyderabad,"Central University, Hyderabad - TSPCB",03-04-2026 08:00:00,17.460103,78.334361,NO2,7,40,21
India,Telangana,Hyderabad,"Central University, Hyderabad - TSPCB",03-04-2026 08:00:00,17.460103,78.334361,CO,23,43,31
India,Telangana,Hyderabad,"Central University, Hyderabad - TSPCB",03-04-2026 08:00:00,17.460103,78.334361,OZONE,12,17,15
India,Telangana,Hyderabad,"ECIL Kapra, Hyderabad - TSPCB",03-04-2026 08:00:00,17.470431,78.566959,PM2.5,47,64,53
India,Telangana,Hyderabad,"ECIL Kapra, Hyderabad - TSPCB",03-04-2026 08:00:00,17.470431,78.566959,PM10,66,93,89
India,Telangana,Hyderabad,"ECIL Kapra, Hyderabad - TSPCB",03-04-2026 08:00:00,17.470431,78.566959,SO2,10,17,14
India,Rajasthan,Kota,"Dhanmandi, Kota - RSPCB",03-04-2026 08:00:00,25.164090,75.858137,CO,15,92,35
India,Rajasthan,Kota,"Nayapura, Kota - RSPCB",03-04-2026 08:00:00,25.196024,75.855668,PM2.5,13,82,35
India,Rajasthan,Kota,"Nayapura, Kota - RSPCB",03-04-2026 08:00:00,25.196024,75.855668,SO2,5,47,20
India,Rajasthan,Kota,"Shrinath Puram, Kota - RSPCB",03-04-2026 08:00:00,25.14389,75.821256,NH3,4,7,5
India,Rajasthan,Kota,"Shrinath Puram, Kota - RSPCB",03-04-2026 08:00:00,25.14389,75.821256,SO2,1,13,7
India,Rajasthan,Nagaur,"Karni Colony, Nagaur - RSPCB",03-04-2026 08:00:00,27.213494,73.734444,NH3,4,7,6
India,Rajasthan,Nagaur,"Karni Colony, Nagaur - RSPCB",03-04-2026 08:00:00,27.213494,73.734444,SO2,3,8,4
India,Rajasthan,Pali,"Indira Colony Vistar, Pali - RSPCB",03-04-2026 08:00:00,25.771061, 73.340227,PM10,100,500,207
India,Rajasthan,Pali,"Indira Colony Vistar, Pali - RSPCB",03-04-2026 08:00:00,25.771061, 73.340227,NO2,20,27,22
India,Rajasthan,Pali,"Indira Colony Vistar, Pali - RSPCB",03-04-2026 08:00:00,25.771061, 73.340227,CO,8,46,35
India,Rajasthan,Pratapgarh,"Pragati Nagar, Pratapgarh - RSPCB",03-04-2026 08:00:00,24.041198,74.780702,NH3,2,6,4
India,TamilNadu,Chennai,"Perungudi, Chennai - TNPCB",03-04-2026 08:00:00,12.9533,80.2357,SO2,1,8,4
India,TamilNadu,Chennai,"Royapuram, Chennai - TNPCB",03-04-2026 08:00:00,13.1036,80.2909,PM2.5,5,68,28
India,TamilNadu,Chennai,"Royapuram, Chennai - TNPCB",03-04-2026 08:00:00,13.1036,80.2909,PM10,12,91,34
India,TamilNadu,Chennai,"Royapuram, Chennai - TNPCB",03-04-2026 08:00:00,13.1036,80.2909,CO,21,26,24
India,TamilNadu,Chennai,"Velachery Res. Area, Chennai - CPCB",03-04-2026 08:00:00,13.0052189,80.2398125,NO2,12,15,13
India,TamilNadu,Chennai,"Velachery Res. Area, Chennai - CPCB",03-04-2026 08:00:00,13.0052189,80.2398125,OZONE,6,11,7
India,TamilNadu,Coimbatore,"SIDCO Kurichi, Coimbatore - TNPCB",03-04-2026 08:00:00,10.942451,76.978996,PM2.5,20,58,40
India,TamilNadu,Coimbatore,"SIDCO Kurichi, Coimbatore - TNPCB",03-04-2026 08:00:00,10.942451,76.978996,PM10,26,70,44
India,TamilNadu,Coimbatore,"SIDCO Kurichi, Coimbatore - TNPCB",03-04-2026 08:00:00,10.942451,76.978996,SO2,25,27,26
India,Rajasthan,Jodhpur,"Collectorate, Jodhpur - RSPCB",03-04-2026 08:00:00,26.268249,73.0193853,CO,5,72,19
India,Rajasthan,Jodhpur,"Digari Kalan, Jodhpur - RSPCB",03-04-2026 08:00:00,26.295810,73.082283,PM10,62,320,97
India,Rajasthan,Jodhpur,"Jhalamand, Jodhpur - RSPCB",03-04-2026 08:00:00,26.215415,73.070156,OZONE,30,63,38
India,Rajasthan,Jodhpur,"Mandor, Jodhpur - RSPCB",03-04-2026 08:00:00,26.358805,73.047444,OZONE,19,74,35
India,Rajasthan,Jodhpur,"Samrat Ashok Udhyan, Jodhpur - RSPCB",03-04-2026 08:00:00,26.253384,72.976571,CO,6,12,9
India,Rajasthan,Karauli,"Satyawati Vihar, Karauli - RSPCB",03-04-2026 08:00:00,26.506177,77.025989,NO2,10,65,26
India,Rajasthan,Karauli,"Satyawati Vihar, Karauli - RSPCB",03-04-2026 08:00:00,26.506177,77.025989,OZONE,5,108,37
India,Rajasthan,Dungarpur,"Bhoiwada, Dungarpur - RSPCB",03-04-2026 08:00:00,23.837789,73.714926,OZONE,21,91,25
India,Rajasthan,Hanumangarh,"Housing Board, Hanumangarh - RSPCB",03-04-2026 08:00:00,29.610750,74.283608,OZONE,1,84,17
India,Rajasthan,Jaipur,"Adarsh Nagar, Jaipur - RSPCB",03-04-2026 08:00:00,26.902909,75.836858,CO,14,90,22
India,Rajasthan,Jaipur,"Mansarovar Sector-12, Jaipur - RSPCB",03-04-2026 08:00:00,26.843698,75.766894,PM2.5,23,313,78
India,Rajasthan,Jaipur,"Police Commissionerate, Jaipur - RSPCB",03-04-2026 08:00:00,26.9164092,75.7994901,OZONE,15,77,25
India,Rajasthan,Rajsamand,"Dhoinda, Rajsamand - RSPCB",03-04-2026 08:00:00,25.036360,73.883502,PM2.5,8,77,27
India,Rajasthan,Rajsamand,"Dhoinda, Rajsamand - RSPCB",03-04-2026 08:00:00,25.036360,73.883502,SO2,7,18,12
India,Rajasthan,Sirohi,"Vedhaynath Colony, Sirohi - RSPCB",03-04-2026 08:00:00,24.885261,72.857549,NO2,6,33,11
India,Rajasthan,Sirohi,"Vedhaynath Colony, Sirohi - RSPCB",03-04-2026 08:00:00,24.885261,72.857549,NH3,2,3,3
India,Rajasthan,Sirohi,"Vedhaynath Colony, Sirohi - RSPCB",03-04-2026 08:00:00,24.885261,72.857549,OZONE,24,82,40
India,Rajasthan,Tonk,"Shastri Nagar, Tonk - RSPCB",03-04-2026 08:00:00,26.159933,75.780517,PM2.5,29,259,69
India,Rajasthan,Tonk,"Shastri Nagar, Tonk - RSPCB",03-04-2026 08:00:00,26.159933,75.780517,CO,2,84,4
India,Sikkim,Gangtok,"Zero Point GICI, Gangtok - SSPCB",03-04-2026 08:00:00,27.338530,88.614099,PM10,35,73,51
India,TamilNadu,Chennai,"Manali Village, Chennai - TNPCB",03-04-2026 08:00:00,13.1662,80.2584,PM2.5,7,42,22
India,TamilNadu,Chennai,"Manali Village, Chennai - TNPCB",03-04-2026 08:00:00,13.1662,80.2584,NH3,1,16,4
India,TamilNadu,Chennai,"Manali Village, Chennai - TNPCB",03-04-2026 08:00:00,13.1662,80.2584,CO,31,58,47
India,Rajasthan,Jaipur,"Sector-2 Murlipura, Jaipur - RSPCB",03-04-2026 08:00:00,26.960669,75.771817,NO2,8,105,38
India,Rajasthan,Jaipur,"Sector-2 Murlipura, Jaipur - RSPCB",03-04-2026 08:00:00,26.960669,75.771817,CO,2,100,10
India,Rajasthan,Jaipur,"Shastri Nagar, Jaipur - RSPCB",03-04-2026 08:00:00,26.9502929,75.730943,PM2.5,69,340,130
India,Rajasthan,Jaipur,"Shastri Nagar, Jaipur - RSPCB",03-04-2026 08:00:00,26.9502929,75.730943,NO2,35,113,56
India,Rajasthan,Jaipur,"Shastri Nagar, Jaipur - RSPCB",03-04-2026 08:00:00,26.9502929,75.730943,CO,17,119,28
India,Uttar_Pradesh,Firozabad,"Vibhab Nagar, Firozabad - UPPCB",03-04-2026 08:00:00,27.1594,78.3953,PM2.5,NA,NA,NA
India,Uttar_Pradesh,Firozabad,"Vibhab Nagar, Firozabad - UPPCB",03-04-2026 08:00:00,27.1594,78.3953,PM10,NA,NA,NA
India,Uttar_Pradesh,Ghaziabad,"Indirapuram, Ghaziabad - UPPCB",03-04-2026 08:00:00,28.646233,77.358075,PM10,102,432,245
India,Uttar_Pradesh,Ghaziabad,"Indirapuram, Ghaziabad - UPPCB",03-04-2026 08:00:00,28.646233,77.358075,OZONE,1,182,10
India,Uttar_Pradesh,Ghaziabad,"Loni, Ghaziabad - UPPCB",03-04-2026 08:00:00,28.757294,77.278792,PM2.5,57,434,280
India,Uttar_Pradesh,Ghaziabad,"Loni, Ghaziabad - UPPCB",03-04-2026 08:00:00,28.757294,77.278792,PM10,145,492,350
India,Uttar_Pradesh,Ghaziabad,"Loni, Ghaziabad - UPPCB",03-04-2026 08:00:00,28.757294,77.278792,NO2,17,109,54
India,Uttar_Pradesh,Ghaziabad,"Loni, Ghaziabad - UPPCB",03-04-2026 08:00:00,28.757294,77.278792,CO,18,108,24
India,Uttar_Pradesh,Ghaziabad,"Sanjay Nagar, Ghaziabad - UPPCB",03-04-2026 08:00:00,28.685382,77.453839,NO2,35,123,83
India,Uttar_Pradesh,Ghaziabad,"Vasundhara, Ghaziabad - UPPCB",03-04-2026 08:00:00,28.6603346,77.3572563,PM2.5,50,326,210
India,Uttar_Pradesh,Ghaziabad,"Vasundhara, Ghaziabad - UPPCB",03-04-2026 08:00:00,28.6603346,77.3572563,NH3,8,17,13
India,Uttar_Pradesh,Ghaziabad,"Vasundhara, Ghaziabad - UPPCB",03-04-2026 08:00:00,28.6603346,77.3572563,OZONE,3,182,15
India,Uttar_Pradesh,Kanpur,"NSI Kalyanpur, Kanpur - UPPCB",03-04-2026 08:00:00,26.509954,80.249612,NH3,2,2,2
India,Uttar_Pradesh,Khurja,"Kalindi Kunj, Khurja - UPPCB",03-04-2026 08:00:00,28.2348927,77.8683002,PM2.5,2,309,72
India,Uttar_Pradesh,Khurja,"Kalindi Kunj, Khurja - UPPCB",03-04-2026 08:00:00,28.2348927,77.8683002,SO2,10,10,10
India,Uttar_Pradesh,Khurja,"Kalindi Kunj, Khurja - UPPCB",03-04-2026 08:00:00,28.2348927,77.8683002,CO,12,88,28
India,Uttar_Pradesh,Lucknow,"B R Ambedkar University, Lucknow - UPPCB",03-04-2026 08:00:00,26.766433,80.927299,NO2,12,12,12
India,Uttar_Pradesh,Lucknow,"B R Ambedkar University, Lucknow - UPPCB",03-04-2026 08:00:00,26.766433,80.927299,CO,26,34,30
India,Uttar_Pradesh,Lucknow,"Gomti Nagar, Lucknow - UPPCB",03-04-2026 08:00:00,26.868120,81.005119,NO2,9,11,10
India,Uttar_Pradesh,Lucknow,"Gomti Nagar, Lucknow - UPPCB",03-04-2026 08:00:00,26.868120,81.005119,OZONE,39,50,40
India,Uttar_Pradesh,Lucknow,"Kendriya Vidyalaya, Lucknow - CPCB",03-04-2026 08:00:00,26.906111,80.948222,CO,25,102,50
India,Telangana,Hyderabad,"Nacharam_TSIIC IALA, Hyderabad - TSPCB",03-04-2026 08:00:00,17.429398,78.569354,OZONE,15,33,16
India,Telangana,Hyderabad,"New Malakpet, Hyderabad - TSPCB",03-04-2026 08:00:00,17.37206,78.50864,CO,34,46,36
India,Telangana,Hyderabad,"Ramachandrapuram, Hyderabad - TSPCB",03-04-2026 08:00:00,17.528544,78.286195,SO2,10,15,12
India,Telangana,Hyderabad,"Sanathnagar, Hyderabad - TSPCB",03-04-2026 08:00:00,17.4559458,78.4332152,NO2,8,33,18
India,Telangana,Hyderabad,"Sanathnagar, Hyderabad - TSPCB",03-04-2026 08:00:00,17.4559458,78.4332152,OZONE,12,18,16
India,Telangana,Hyderabad,"Somajiguda, Hyderabad - TSPCB",03-04-2026 08:00:00,17.417094,78.457437,PM2.5,30,55,40
India,Telangana,Hyderabad,"Zoo Park, Hyderabad - TSPCB",03-04-2026 08:00:00,17.349694,78.451437,PM10,37,139,80
India,Telangana,Hyderabad,"Zoo Park, Hyderabad - TSPCB",03-04-2026 08:00:00,17.349694,78.451437,OZONE,23,26,24
India,Uttar_Pradesh,Meerut,"Pallavpuram Phase 2, Meerut - UPPCB",03-04-2026 08:00:00,29.063510,77.709723,SO2,NA,NA,NA
India,Uttar_Pradesh,Meerut,"Pallavpuram Phase 2, Meerut - UPPCB",03-04-2026 08:00:00,29.063510,77.709723,OZONE,10,111,14
India,Uttar_Pradesh,Moradabad,"Buddhi Vihar, Moradabad - UPPCB",03-04-2026 08:00:00,28.83526,78.74460,PM10,32,131,66
India,Uttar_Pradesh,Moradabad,"Buddhi Vihar, Moradabad - UPPCB",03-04-2026 08:00:00,28.83526,78.74460,OZONE,7,96,13
India,Uttar_Pradesh,Moradabad,"Employment Office, Moradabad - UPPCB",03-04-2026 08:00:00,28.88528,78.73880,SO2,26,34,28
India,Uttar_Pradesh,Moradabad,"Jigar Colony, Moradabad - UPPCB",03-04-2026 08:00:00,28.856664,78.772638,NO2,25,25,25
India,Uttar_Pradesh,Moradabad,"Jigar Colony, Moradabad - UPPCB",03-04-2026 08:00:00,28.856664,78.772638,CO,40,40,40
India,Uttar_Pradesh,Moradabad,"Kashiram Nagar, Moradabad - UPPCB",03-04-2026 08:00:00,28.849399,78.742362,CO,18,52,28
India,Uttar_Pradesh,Gorakhpur,"Madan Mohan Malaviya University of Technology, Gorakhpur - UPPCB",03-04-2026 08:00:00,26.730136,83.433859,SO2,46,48,47
India,Uttar_Pradesh,Greater Noida,"Knowledge Park - III, Greater Noida - UPPCB",03-04-2026 08:00:00,28.47272,77.482000,PM2.5,21,314,123
India,Uttar_Pradesh,Greater Noida,"Knowledge Park - V, Greater Noida - UPPCB",03-04-2026 08:00:00,28.557054,77.453663,SO2,16,39,23
India,Uttar_Pradesh,Jhansi,"Shivaji Nagar, Jhansi - UPPCB",03-04-2026 08:00:00,25.4547,78.6039,PM2.5,7,62,33
India,Uttar_Pradesh,Jhansi,"Shivaji Nagar, Jhansi - UPPCB",03-04-2026 08:00:00,25.4547,78.6039,PM10,18,141,66
India,Uttar_Pradesh,Jhansi,"Shivaji Nagar, Jhansi - UPPCB",03-04-2026 08:00:00,25.4547,78.6039,CO,6,80,14
India,Uttar_Pradesh,Jhansi,"Shivaji Nagar, Jhansi - UPPCB",03-04-2026 08:00:00,25.4547,78.6039,OZONE,2,13,3
India,Uttar_Pradesh,Agra,"Shastripuram, Agra - UPPCB",03-04-2026 08:00:00,27.19862,77.92066,OZONE,9,13,12
India,Uttar_Pradesh,Bareilly,"Civil Lines, Bareilly - UPPCB",03-04-2026 08:00:00,28.359581,79.414455,PM2.5,29,62,44
India,Uttar_Pradesh,Bareilly,"Civil Lines, Bareilly - UPPCB",03-04-2026 08:00:00,28.359581,79.414455,SO2,73,105,94
India,Uttar_Pradesh,Bulandshahr,"Yamunapuram, Bulandshahr - UPPCB",03-04-2026 08:00:00,28.406963,77.849831,PM10,67,354,136
India,Uttar_Pradesh,Bulandshahr,"Yamunapuram, Bulandshahr - UPPCB",03-04-2026 08:00:00,28.406963,77.849831,OZONE,9,55,16
India,Uttar_Pradesh,Firozabad,"Nagla Bhau, Firozabad - UPPCB",03-04-2026 08:00:00,27.168897,78.376960,NO2,17,17,17
India,Uttar_Pradesh,Lucknow,"Lalbagh, Lucknow - CPCB",03-04-2026 08:00:00,26.8458805,80.9365541,PM2.5,60,191,115
India,Uttar_Pradesh,Lucknow,"Talkatora District Industries Center, Lucknow - CPCB",03-04-2026 08:00:00,26.83399722,80.8917361,NO2,44,48,47
India,Uttar_Pradesh,Lucknow,"Talkatora District Industries Center, Lucknow - CPCB",03-04-2026 08:00:00,26.83399722,80.8917361,SO2,3,11,6
India,Uttar_Pradesh,Meerut,"Jai Bhim Nagar, Meerut - UPPCB",03-04-2026 08:00:00,28.9535882,77.7622941,PM2.5,23,334,122
India,Uttar_Pradesh,Meerut,"Pallavpuram Phase 2, Meerut - UPPCB",03-04-2026 08:00:00,29.063510,77.709723,PM10,NA,NA,NA
India,Telangana,Hyderabad,"IDA Pashamylaram, Hyderabad - TSPCB",03-04-2026 08:00:00,17.5316895,78.218939,NO2,6,7,7
India,Telangana,Hyderabad,"IITH Kandi, Hyderabad - TSPCB",03-04-2026 08:00:00,17.585705,78.126199,CO,24,38,28
India,Telangana,Hyderabad,"Nacharam_TSIIC IALA, Hyderabad - TSPCB",03-04-2026 08:00:00,17.429398,78.569354,PM2.5,48,69,55
India,Uttar_Pradesh,Agra,"Manoharpur, Agra - UPPCB",03-04-2026 08:00:00,27.23711,78.01936,NO2,20,20,20
India,Uttar_Pradesh,Agra,"Sanjay Palace, Agra - UPPCB",03-04-2026 08:00:00,27.19865833,78.00598056,OZONE,4,126,18
India,Uttar_Pradesh,Agra,"Shahjahan Garden, Agra - UPPCB",03-04-2026 08:00:00,27.169338,78.03582,NH3,3,3,3
India,Uttar_Pradesh,Muzaffarnagar,"New Mandi, Muzaffarnagar - UPPCB",03-04-2026 08:00:00,29.4723508,77.7194031,PM10,NA,NA,NA
India,Uttar_Pradesh,Muzaffarnagar,"New Mandi, Muzaffarnagar - UPPCB",03-04-2026 08:00:00,29.4723508,77.7194031,NO2,NA,NA,NA
India,Uttar_Pradesh,Noida,"Sector - 125, Noida - UPPCB",03-04-2026 08:00:00,28.5447608,77.3231257,NH3,2,13,9
India,Uttar_Pradesh,Noida,"Sector-1, Noida - UPPCB",03-04-2026 08:00:00,28.5898,77.3101,PM2.5,42,373,203
India,Uttar_Pradesh,Noida,"Sector-1, Noida - UPPCB",03-04-2026 08:00:00,28.5898,77.3101,OZONE,4,136,14
India,Uttar_Pradesh,Noida,"Sector-116, Noida - UPPCB",03-04-2026 08:00:00,28.569230,77.393848,PM10,118,441,265
India,Uttar_Pradesh,Noida,"Sector-116, Noida - UPPCB",03-04-2026 08:00:00,28.569230,77.393848,NH3,10,38,18
India,Uttar_Pradesh,Noida,"Sector-116, Noida - UPPCB",03-04-2026 08:00:00,28.569230,77.393848,CO,5,133,46
India,Uttar_Pradesh,Prayagraj,"Motilal Nehru NIT, Prayagraj - UPPCB",03-04-2026 08:00:00,25.494,81.863,CO,10,61,42
India,Uttar_Pradesh,Prayagraj,"Nagar Nigam, Prayagraj - UPPCB",03-04-2026 08:00:00,25.44919916 ,81.82735986 ,PM2.5,6,69,32
India,Uttar_Pradesh,Prayagraj,"Nagar Nigam, Prayagraj - UPPCB",03-04-2026 08:00:00,25.44919916 ,81.82735986 ,NH3,6,15,10
India,Uttar_Pradesh,Raebareli," Indira Nagar, Raebareli - NTPC Unchahar",03-04-2026 08:00:00,26.207781,81.245571,OZONE,3,117,25
India,Uttar_Pradesh,Varanasi,"Ardhali Bazar, Varanasi - UPPCB",03-04-2026 08:00:00,25.3505986,82.9083074,PM2.5,36,108,73
India,Uttar_Pradesh,Varanasi,"Ardhali Bazar, Varanasi - UPPCB",03-04-2026 08:00:00,25.3505986,82.9083074,NO2,40,45,42
India,Uttar_Pradesh,Varanasi,"Ardhali Bazar, Varanasi - UPPCB",03-04-2026 08:00:00,25.3505986,82.9083074,CO,4,24,12
India,Uttar_Pradesh,Varanasi,"Bhelupur, Varanasi - UPPCB",03-04-2026 08:00:00,25.301778,82.996789,NH3,1,1,1
India,Uttar_Pradesh,Varanasi,"IESD Banaras Hindu University, Varanasi - UPPCB",03-04-2026 08:00:00,25.262326,82.995408,PM2.5,1,32,19
India,Uttar_Pradesh,Varanasi,"IESD Banaras Hindu University, Varanasi - UPPCB",03-04-2026 08:00:00,25.262326,82.995408,NH3,1,4,2
India,Uttar_Pradesh,Varanasi,"IESD Banaras Hindu University, Varanasi - UPPCB",03-04-2026 08:00:00,25.262326,82.995408,OZONE,NA,NA,NA
India,Uttar_Pradesh,Varanasi,"Maldahiya, Varanasi - UPPCB",03-04-2026 08:00:00,25.32393,82.99687,SO2,30,33,30
India,Uttar_Pradesh,Varanasi,"Maldahiya, Varanasi - UPPCB",03-04-2026 08:00:00,25.32393,82.99687,CO,13,56,38
India,Uttar_Pradesh,Vrindavan,"Omex Eternity, Vrindavan - UPPCB",03-04-2026 08:00:00,27.5714090,77.6557570,SO2,15,38,27
India,Uttarakhand,Dehradun,"Doon University, Dehradun - UKPCB",03-04-2026 08:00:00,30.269444,78.044167,PM2.5,5,74,41
India,Uttarakhand,Kashipur,"Govt. Girls Inter College, Kashipur - UKPCB",03-04-2026 08:00:00,29.2124114,78.9611753,PM10,NA,NA,NA
India,West_Bengal,Asansol,"Asansol Court Area, Asansol - WBPCB",03-04-2026 08:00:00,23.685297,86.945968,PM10,74,129,103
India,West_Bengal,Asansol,"Asansol Court Area, Asansol - WBPCB",03-04-2026 08:00:00,23.685297,86.945968,OZONE,26,84,34
India,West_Bengal,Asansol,"Evelyn Lodge, Asansol - WBPCB",03-04-2026 08:00:00,23.6979360,86.9443950,PM2.5,55,113,78
India,West_Bengal,Asansol,"Mahabir Colliery, Asansol - WBPCB",03-04-2026 08:00:00,23.6181830,87.1057180,PM2.5,37,307,94
India,West_Bengal,Asansol,"Trivenidevi Bhalotia College, Asansol - WBPCB",03-04-2026 08:00:00,23.616515,87.119133,NO2,11,30,21
India,West_Bengal,Asansol,"Trivenidevi Bhalotia College, Asansol - WBPCB",03-04-2026 08:00:00,23.616515,87.119133,CO,68,105,73
India,West_Bengal,Asansol,"Trivenidevi Bhalotia College, Asansol - WBPCB",03-04-2026 08:00:00,23.616515,87.119133,OZONE,17,72,19
India,West_Bengal,Barrackpore,"SVSPA Campus, Barrackpore - WBPCB",03-04-2026 08:00:00,22.7605581,88.3617589,NH3,2,10,8
India,West_Bengal,Barrackpore,"SVSPA Campus, Barrackpore - WBPCB",03-04-2026 08:00:00,22.7605581,88.3617589,CO,17,28,20
India,West_Bengal,Durgapur,"Mahishkapur Road_B-Zone, Durgapur - WBPCB",03-04-2026 08:00:00,23.567923,87.306843,PM10,59,117,80
India,West_Bengal,Durgapur,"Mahishkapur Road_B-Zone, Durgapur - WBPCB",03-04-2026 08:00:00,23.567923,87.306843,NO2,10,47,22
India,West_Bengal,Durgapur,"PCBL Residential Complex, Durgapur - WBPCB",03-04-2026 08:00:00,23.5087640,87.3544400,NO2,23,122,51
India,West_Bengal,Durgapur,"PCBL Residential Complex, Durgapur - WBPCB",03-04-2026 08:00:00,23.5087640,87.3544400,CO,56,103,60
India,West_Bengal,Durgapur,"Womens College_City Center, Durgapur - WBPCB",03-04-2026 08:00:00,23.549395,87.300496,OZONE,6,180,19
India,West_Bengal,Howrah,"Belur Math, Howrah - WBPCB",03-04-2026 08:00:00,22.629801,88.352017,OZONE,7,35,9
India,West_Bengal,Howrah,"Botanical Garden, Howrah - WBPCB",03-04-2026 08:00:00,22.554954,88.292568,PM2.5,16,47,29
India,West_Bengal,Howrah,"Botanical Garden, Howrah - WBPCB",03-04-2026 08:00:00,22.554954,88.292568,NO2,1,26,7
India,West_Bengal,Howrah,"Dasnagar, Howrah - WBPCB",03-04-2026 08:00:00,22.6025571,88.3105664,PM10,17,78,51
India,West_Bengal,Howrah,"Dasnagar, Howrah - WBPCB",03-04-2026 08:00:00,22.6025571,88.3105664,CO,12,30,15
India,West_Bengal,Howrah,"Dasnagar, Howrah - WBPCB",03-04-2026 08:00:00,22.6025571,88.3105664,OZONE,12,58,14
India,West_Bengal,Howrah,"Ghusuri, Howrah - WBPCB",03-04-2026 08:00:00,22.611968,88.347422,PM2.5,25,80,51
India,West_Bengal,Howrah,"Padmapukur, Howrah - WBPCB",03-04-2026 08:00:00,22.5687319,88.2797276,PM10,31,69,57
India,West_Bengal,Howrah,"Padmapukur, Howrah - WBPCB",03-04-2026 08:00:00,22.5687319,88.2797276,SO2,12,63,25
India,West_Bengal,Howrah,"Padmapukur, Howrah - WBPCB",03-04-2026 08:00:00,22.5687319,88.2797276,CO,67,84,72
India,West_Bengal,Howrah,"Padmapukur, Howrah - WBPCB",03-04-2026 08:00:00,22.5687319,88.2797276,OZONE,10,42,12
India,West_Bengal,Kolkata,"Ballygunge, Kolkata - WBPCB",03-04-2026 08:00:00,22.5367507,88.3638022,PM2.5,15,58,35
India,West_Bengal,Kolkata,"Fort William, Kolkata - WBPCB",03-04-2026 08:00:00,22.556640,88.342674,NH3,9,9,9
India,West_Bengal,Kolkata,"Rabindra Sarobar, Kolkata - WBPCB",03-04-2026 08:00:00,22.51106,88.35142,SO2,4,34,10
India,West_Bengal,Kolkata,"Victoria, Kolkata - WBPCB",03-04-2026 08:00:00,22.5448082,88.3403691,PM10,34,66,53
India,West_Bengal,Kolkata,"Victoria, Kolkata - WBPCB",03-04-2026 08:00:00,22.5448082,88.3403691,NH3,7,8,8
India,West_Bengal,Kolkata,"Victoria, Kolkata - WBPCB",03-04-2026 08:00:00,22.5448082,88.3403691,CO,44,54,47
India,West_Bengal,Siliguri,"Ward-32 Bapupara, Siliguri - WBPCB",03-04-2026 08:00:00,26.6879226,88.4152495,PM10,60,129,87
India,West_Bengal,Siliguri,"Ward-32 Bapupara, Siliguri - WBPCB",03-04-2026 08:00:00,26.6879226,88.4152495,CO,29,108,48
India,Andhra_Pradesh,Vijayawada,"Kanuru, Vijayawada - APPCB",03-04-2026 08:00:00,16.486692,80.699436,SO2,15,21,18
India,Andhra_Pradesh,Vijayawada,"Rajiv Gandhi Park, Vijayawada - APPCB",03-04-2026 08:00:00,16.509717,80.612222,PM2.5,49,65,54
India,Andhra_Pradesh,Vijayawada,"Rajiv Gandhi Park, Vijayawada - APPCB",03-04-2026 08:00:00,16.509717,80.612222,CO,30,37,32
India,Andhra_Pradesh,Vijayawada,"Rajiv Nagar, Vijayawada - APPCB",03-04-2026 08:00:00,16.554731,80.649110,CO,16,34,26
India,Andhra_Pradesh,Visakhapatnam,"GVM Corporation, Visakhapatnam - APPCB",03-04-2026 08:00:00,17.72,83.3,PM2.5,11,62,33
India,Andhra_Pradesh,Visakhapatnam,"GVM Corporation, Visakhapatnam - APPCB",03-04-2026 08:00:00,17.72,83.3,NO2,16,54,31
India,Andhra_Pradesh,Visakhapatnam,"GVM Corporation, Visakhapatnam - APPCB",03-04-2026 08:00:00,17.72,83.3,SO2,4,100,30
India,Arunachal_Pradesh,Naharlagun,"Naharlagun, Naharlagun - APSPCB",03-04-2026 08:00:00,27.103358,93.679645,SO2,9,10,10
India,Assam,Byrnihat,"Central Academy for SFS, Byrnihat - PCBA",03-04-2026 08:00:00,26.071318,91.87488,PM2.5,97,306,151
India,Assam,Byrnihat,"Central Academy for SFS, Byrnihat - PCBA",03-04-2026 08:00:00,26.071318,91.87488,CO,25,104,60
India,Assam,Guwahati,"IITG, Guwahati - PCBA",03-04-2026 08:00:00,26.2028636,91.70046436,PM2.5,NA,NA,NA
India,Assam,Guwahati,"LGBI Airport, Guwahati - PCBA",03-04-2026 08:00:00,26.10887,91.589544,PM10,20,48,34
India,Assam,Guwahati,"LGBI Airport, Guwahati - PCBA",03-04-2026 08:00:00,26.10887,91.589544,NO2,12,22,16
India,Assam,Guwahati,"Pan Bazaar, Guwahati - PCBA",03-04-2026 08:00:00,26.187500,91.744194,PM10,9,126,45
India,Assam,Guwahati,"Railway Colony, Guwahati - PCBA",03-04-2026 08:00:00,26.181742,91.78063,PM2.5,15,383,200
India,Assam,Guwahati,"Railway Colony, Guwahati - PCBA",03-04-2026 08:00:00,26.181742,91.78063,NH3,1,1,1
India,Assam,Guwahati,"Railway Colony, Guwahati - PCBA",03-04-2026 08:00:00,26.181742,91.78063,SO2,1,8,4
India,Assam,Nagaon,"Christianpatty, Nagaon - PCBA",03-04-2026 08:00:00,26.349082,92.68449,CO,2,28,22
India,Assam,Nagaon,"Christianpatty, Nagaon - PCBA",03-04-2026 08:00:00,26.349082,92.68449,OZONE,18,51,25
India,Bihar,Arrah,"New DM Office, Arrah - BSPCB",03-04-2026 08:00:00,25.5626095,84.663264,CO,34,64,50
India,Bihar,Aurangabad,"Gurdeo Nagar, Aurangabad - BSPCB",03-04-2026 08:00:00,24.75746,84.366208,PM10,68,153,98
India,Bihar,Aurangabad,"Gurdeo Nagar, Aurangabad - BSPCB",03-04-2026 08:00:00,24.75746,84.366208,OZONE,5,42,6
India,Bihar,Begusarai,"Lohiyanagar, Begusarai - BSPCB",03-04-2026 08:00:00,25.42742023,86.13886079,PM2.5,35,210,69
India,Bihar,Begusarai,"Lohiyanagar, Begusarai - BSPCB",03-04-2026 08:00:00,25.42742023,86.13886079,NO2,10,16,13
India,Bihar,Begusarai,"Lohiyanagar, Begusarai - BSPCB",03-04-2026 08:00:00,25.42742023,86.13886079,NH3,3,4,4
India,Bihar,Begusarai,"Lohiyanagar, Begusarai - BSPCB",03-04-2026 08:00:00,25.42742023,86.13886079,SO2,39,44,42
India,Bihar,Bettiah,"Kamalnath Nagar, Bettiah - BSPCB",03-04-2026 08:00:00,26.80365,84.51954,PM2.5,NA,NA,NA
India,Bihar,Bettiah,"Kamalnath Nagar, Bettiah - BSPCB",03-04-2026 08:00:00,26.80365,84.51954,NH3,NA,NA,NA
India,Bihar,Bhagalpur,"Mayaganj, Bhagalpur - BSPCB",03-04-2026 08:00:00,25.265194,87.012947,PM10,41,86,55
India,Andhra_Pradesh,Rajamahendravaram,"Anand Kala Kshetram, Rajamahendravaram - APPCB",03-04-2026 08:00:00,16.9872867,81.7363176,PM2.5,11,40,22
India,Andhra_Pradesh,Rajamahendravaram,"Anand Kala Kshetram, Rajamahendravaram - APPCB",03-04-2026 08:00:00,16.9872867,81.7363176,NO2,8,29,14
India,Andhra_Pradesh,Rajamahendravaram,"Anand Kala Kshetram, Rajamahendravaram - APPCB",03-04-2026 08:00:00,16.9872867,81.7363176,NH3,2,4,3
India,Andhra_Pradesh,Tirumala,"Toll Gate, Tirumala - APPCB",03-04-2026 08:00:00,13.67,79.35,PM10,21,72,39
India,Andhra_Pradesh,Tirumala,"Toll Gate, Tirumala - APPCB",03-04-2026 08:00:00,13.67,79.35,OZONE,11,52,18
India,Andhra_Pradesh,Tirupati,"Vaikuntapuram, Tirupati - APPCB",03-04-2026 08:00:00,13.615387,79.409230,CO,17,31,19
India,Andhra_Pradesh,Vijayawada,"HB Colony, Vijayawada - APPCB",03-04-2026 08:00:00,16.536107,80.594233,PM2.5,41,120,56
India,Andhra_Pradesh,Vijayawada,"HB Colony, Vijayawada - APPCB",03-04-2026 08:00:00,16.536107,80.594233,PM10,36,104,51
India,Andaman and Nicobar,Sri Vijaya Puram,"Police Line, Sri Vijaya Puram - ANPCC",03-04-2026 08:00:00,11.654054,92.734055,PM10,NA,NA,NA
India,Andhra_Pradesh,Amaravati,"Secretariat, Amaravati - APPCB",03-04-2026 08:00:00,16.5150833,80.5181667,PM10,32,89,49
India,Andhra_Pradesh,Anantapur,"Gulzarpet, Anantapur - APPCB",03-04-2026 08:00:00,14.675886,77.593027,PM2.5,67,85,76
India,Andhra_Pradesh,Chittoor,"Gangineni Cheruvu, Chittoor - APPCB",03-04-2026 08:00:00,13.204880,79.097889,NO2,21,32,25
India,Bihar,Bihar Sharif,"D M Colony, Bihar Sharif - BSPCB",03-04-2026 08:00:00,25.204762,85.514960,SO2,10,10,10
India,Bihar,Buxar,"Charitra Van, Buxar - BSPCB",03-04-2026 08:00:00,25.567520,83.966379,NH3,3,3,3
India,Bihar,Gaya,"Kareemganj, Gaya - BSPCB",03-04-2026 08:00:00,24.792403,84.992416,PM2.5,28,297,76
India,Bihar,Gaya,"Kareemganj, Gaya - BSPCB",03-04-2026 08:00:00,24.792403,84.992416,NH3,1,3,1
India,Bihar,Gaya,"Kareemganj, Gaya - BSPCB",03-04-2026 08:00:00,24.792403,84.992416,CO,1,13,4
India,Andhra_Pradesh,Kadapa,"Yerramukkapalli, Kadapa - APPCB",03-04-2026 08:00:00,14.465052,78.824187,NO2,16,28,19
India,Andhra_Pradesh,Machilipatnam,"Srinivas Nagar Colony, Machilipatnam - APPCB",03-04-2026 08:00:00,16.186555,81.13219,SO2,13,13,13
India,Bihar,Gaya,"SFTI Kusdihra, Gaya - BSPCB",03-04-2026 08:00:00,24.762518,84.982348,NH3,1,5,3
India,Bihar,Hajipur,"Industrial Area, Hajipur - BSPCB",03-04-2026 08:00:00,25.697189,85.245900,NH3,7,16,13
India,Assam,Silchar,"Tarapur, Silchar - PCBA",03-04-2026 08:00:00,24.82827,92.79525,PM2.5,27,72,46
India,Assam,Silchar,"Tarapur, Silchar - PCBA",03-04-2026 08:00:00,24.82827,92.79525,OZONE,2,4,2
India,Assam,Sivasagar,"Girls College, Sivasagar - PCBA",03-04-2026 08:00:00,26.987634,94.636574,CO,10,26,23
India,Bihar,Muzaffarpur,"MIT-Daudpur Kothi, Muzaffarpur - BSPCB",03-04-2026 08:00:00,26.1403345,85.3650192,CO,38,56,45
India,Bihar,Muzaffarpur,"Muzaffarpur Collectorate, Muzaffarpur - BSPCB",03-04-2026 08:00:00,26.1209,85.3647,SO2,4,10,5
India,Bihar,Patna,"DRM Office Danapur, Patna - BSPCB",03-04-2026 08:00:00,25.586562,85.043586,PM2.5,36,315,108
India,Bihar,Patna,"DRM Office Danapur, Patna - BSPCB",03-04-2026 08:00:00,25.586562,85.043586,SO2,4,9,6
India,Bihar,Patna,"Govt. High School Shikarpur, Patna - BSPCB",03-04-2026 08:00:00,25.592539,85.227158,NH3,4,5,5
India,Bihar,Patna,"Govt. High School Shikarpur, Patna - BSPCB",03-04-2026 08:00:00,25.592539,85.227158,SO2,1,7,5
India,Bihar,Patna,"Muradpur, Patna - BSPCB",03-04-2026 08:00:00,25.619651,85.147382,PM2.5,83,211,140
India,Bihar,Patna,"Muradpur, Patna - BSPCB",03-04-2026 08:00:00,25.619651,85.147382,OZONE,15,97,22
India,Bihar,Patna,"Rajbansi Nagar, Patna - BSPCB",03-04-2026 08:00:00,25.599486,85.113666,SO2,7,16,12
India,Bihar,Purnia,"Mariam Nagar, Purnia - BSPCB",03-04-2026 08:00:00,25.366336,87.117468,NH3,2,2,2
India,Bihar,Rajgir,"Dangi Tola, Rajgir - BSPCB",03-04-2026 08:00:00,25.03280,85.41948,NO2,13,15,14
India,Bihar,Rajgir,"Dangi Tola, Rajgir - BSPCB",03-04-2026 08:00:00,25.03280,85.41948,OZONE,25,28,26
India,Bihar,Saharsa,"Police Line, Saharsa - BSPCB",03-04-2026 08:00:00,25.892357,86.590325,PM10,24,208,103
India,Bihar,Saharsa,"Police Line, Saharsa - BSPCB",03-04-2026 08:00:00,25.892357,86.590325,SO2,15,20,17
India,Bihar,Saharsa,"Police Line, Saharsa - BSPCB",03-04-2026 08:00:00,25.892357,86.590325,CO,34,46,42
India,Chhattisgarh,Chhal,"Nawapara SECL Colony, Chhal - CECB",03-04-2026 08:00:00,22.118125,83.140608,PM10,NA,NA,NA
India,Chhattisgarh,Chhal,"Nawapara SECL Colony, Chhal - CECB",03-04-2026 08:00:00,22.118125,83.140608,NH3,NA,NA,NA
India,Chhattisgarh,Korba,"Rampur, Korba - CECB",03-04-2026 08:00:00,22.368195,82.746431,PM10,47,107,72
India,Chhattisgarh,Korba,"Rampur, Korba - CECB",03-04-2026 08:00:00,22.368195,82.746431,CO,10,46,26
India,Chhattisgarh,Korba,"Rampur, Korba - CECB",03-04-2026 08:00:00,22.368195,82.746431,OZONE,6,20,7
India,Chhattisgarh,Kunjemura,"OP Jindal School, Kunjemura - CECB",03-04-2026 08:00:00,22.126650,83.483212,PM10,62,177,103
India,Bihar,Manguraha,"Forest Rest House, Manguraha - BSPCB",03-04-2026 08:00:00,27.308328,84.531742,PM2.5,50,167,77
India,Bihar,Manguraha,"Forest Rest House, Manguraha - BSPCB",03-04-2026 08:00:00,27.308328,84.531742,PM10,62,154,94
India,Bihar,Manguraha,"Forest Rest House, Manguraha - BSPCB",03-04-2026 08:00:00,27.308328,84.531742,OZONE,8,11,9
India,Bihar,Munger,"Town Hall, Munger - BSPCB",03-04-2026 08:00:00,25.376776,86.471523,SO2,9,118,87
India,Bihar,Muzaffarpur,"Buddha Colony, Muzaffarpur - BSPCB",03-04-2026 08:00:00,26.11442,85.39813,NH3,11,28,21
India,Bihar,Katihar,"Mirchaibari, Katihar - BSPCB",03-04-2026 08:00:00,25.560083,87.553265,NO2,9,10,9
India,Bihar,Katihar,"Mirchaibari, Katihar - BSPCB",03-04-2026 08:00:00,25.560083,87.553265,CO,70,90,80
India,Bihar,Katihar,"Mirchaibari, Katihar - BSPCB",03-04-2026 08:00:00,25.560083,87.553265,OZONE,5,71,6
India,Bihar,Kishanganj,"SDM Office_Khagra, Kishanganj - BSPCB",03-04-2026 08:00:00,26.0881305,87.93840336,PM10,29,101,55
India,Bihar,Siwan,"Chitragupta Nagar, Siwan - BSPCB",03-04-2026 08:00:00,26.2271665,84.3570427,NO2,2,2,2
India,Bihar,Siwan,"Chitragupta Nagar, Siwan - BSPCB",03-04-2026 08:00:00,26.2271665,84.3570427,NH3,1,1,1
India,Chandigarh,Chandigarh,"Sector-25, Chandigarh - CPCC",03-04-2026 08:00:00,30.751462,76.762879,NH3,8,12,10
India,Chhattisgarh,Bhilai,"Civic Center, Bhilai - Bhilai Steel Plant",03-04-2026 08:00:00,21.185571,81.343175,CO,25,32,26
India,Chhattisgarh,Bhilai,"Hathkhoj, Bhilai - CECB",03-04-2026 08:00:00,21.224231,81.408350,PM2.5,13,33,22
India,Chhattisgarh,Bhilai,"Hathkhoj, Bhilai - CECB",03-04-2026 08:00:00,21.224231,81.408350,PM10,27,58,38
India,Bihar,Samastipur,"DM Office_Kasipur, Samastipur - BSPCB",03-04-2026 08:00:00,25.859655,85.77944,PM10,41,253,92
India,Bihar,Samastipur,"DM Office_Kasipur, Samastipur - BSPCB",03-04-2026 08:00:00,25.859655,85.77944,OZONE,6,9,8
India,Chhattisgarh,Bhilai,"32Bungalows, Bhilai - CECB",03-04-2026 08:00:00,21.194815,81.314770,PM2.5,16,37,26
India,Chhattisgarh,Bhilai,"32Bungalows, Bhilai - CECB",03-04-2026 08:00:00,21.194815,81.314770,OZONE,11,28,16
India,Chhattisgarh,Milupara,"Govt. Higher Secondary School, Milupara - CECB",03-04-2026 08:00:00,22.1910172,83.5197009,PM2.5,30,91,60
India,Chhattisgarh,Milupara,"Govt. Higher Secondary School, Milupara - CECB",03-04-2026 08:00:00,22.1910172,83.5197009,CO,12,56,25
India,Chhattisgarh,Raipur,"AIIMS, Raipur - CECB",03-04-2026 08:00:00,21.258815,81.578979,PM10,39,59,48
India,Chhattisgarh,Raipur,"Bhatagaon New ISBT, Raipur - CECB",03-04-2026 08:00:00,21.219665,81.630094,PM10,14,67,42
India,Chhattisgarh,Raipur,"Bhatagaon New ISBT, Raipur - CECB",03-04-2026 08:00:00,21.219665,81.630094,NH3,2,2,2
India,Chhattisgarh,Raipur,"Bhatagaon New ISBT, Raipur - CECB",03-04-2026 08:00:00,21.219665,81.630094,OZONE,2,7,4
India,Chhattisgarh,Raipur,"Krishak Nagar, Raipur - CECB",03-04-2026 08:00:00,21.237755,81.705301,PM10,6,66,36
India,Chhattisgarh,Raipur,"Krishak Nagar, Raipur - CECB",03-04-2026 08:00:00,21.237755,81.705301,CO,16,39,24
India,Chhattisgarh,Raipur,"Siltara Phase-II, Raipur - CECB",03-04-2026 08:00:00,21.371751,81.664929,NH3,3,3,3
India,Delhi,Delhi,"Pusa, Delhi - IMD",03-04-2026 08:00:00,28.636110,77.173332,PM10,105,500,203
India,Delhi,Delhi,"R K Puram, Delhi - DPCC",03-04-2026 08:00:00,28.563262,77.186937,PM10,96,308,194
India,Delhi,Delhi,"R K Puram, Delhi - DPCC",03-04-2026 08:00:00,28.563262,77.186937,CO,21,134,81
India,Delhi,Delhi,"Rohini, Delhi - DPCC",03-04-2026 08:00:00,28.732528,77.119920,NH3,7,27,12
India,Delhi,Delhi,"Shadipur, Delhi - CPCB",03-04-2026 08:00:00,28.6514781,77.1473105,PM10,92,440,218
India,Delhi,Delhi,"Shadipur, Delhi - CPCB",03-04-2026 08:00:00,28.6514781,77.1473105,CO,18,107,59
India,Delhi,Delhi,"Sirifort, Delhi - CPCB",03-04-2026 08:00:00,28.5504249,77.2159377,NO2,32,42,37
India,Delhi,Delhi,"Sonia Vihar, Delhi - DPCC",03-04-2026 08:00:00,28.710508,77.249485,PM10,78,409,240
India,Chhattisgarh,Tumidih,"OP Jindal Industrial Park, Tumidih - CECB",03-04-2026 08:00:00,22.06631475,83.33820077,PM10,38,148,64
India,Chhattisgarh,Tumidih,"OP Jindal Industrial Park, Tumidih - CECB",03-04-2026 08:00:00,22.06631475,83.33820077,CO,16,98,43
India,Delhi,Delhi,"Alipur, Delhi - DPCC",03-04-2026 08:00:00,28.815329,77.153010,NO2,17,59,33
India,Delhi,Delhi,"Anand Vihar, Delhi - DPCC",03-04-2026 08:00:00,28.647622,77.3158090,PM10,64,500,325
India,Delhi,Delhi,"Anand Vihar, Delhi - DPCC",03-04-2026 08:00:00,28.647622,77.3158090,NO2,9,53,26
India,Delhi,Delhi,"Ashok Vihar, Delhi - DPCC",03-04-2026 08:00:00,28.695381,77.181665,PM10,97,467,225
India,Delhi,Delhi,"Ashok Vihar, Delhi - DPCC",03-04-2026 08:00:00,28.695381,77.181665,CO,8,106,49
India,Delhi,Delhi,"North Campus, DU, Delhi - IMD",03-04-2026 08:00:00,28.6573814,77.1585447,OZONE,4,161,6
India,Delhi,Delhi,"Okhla Phase-2, Delhi - DPCC",03-04-2026 08:00:00,28.530785,77.271255,SO2,11,34,25
India,Delhi,Delhi,"Patparganj, Delhi - DPCC",03-04-2026 08:00:00,28.623763,77.287209,NO2,17,163,82
India,Delhi,Delhi,"Patparganj, Delhi - DPCC",03-04-2026 08:00:00,28.623763,77.287209,CO,26,120,73
India,Delhi,Delhi,"Punjabi Bagh, Delhi - DPCC",03-04-2026 08:00:00,28.674045,77.131023,SO2,36,47,41
India,Delhi,Delhi,"Punjabi Bagh, Delhi - DPCC",03-04-2026 08:00:00,28.674045,77.131023,OZONE,6,204,18
India,Delhi,Delhi,"Pusa, Delhi - DPCC",03-04-2026 08:00:00,28.639652,77.146275,SO2,16,38,28
India,Delhi,Delhi,"Dwarka-Sector 8, Delhi - DPCC ",03-04-2026 08:00:00,28.5710274,77.0719006,PM10,137,460,287
India,Delhi,Delhi,"Dwarka-Sector 8, Delhi - DPCC ",03-04-2026 08:00:00,28.5710274,77.0719006,CO,32,120,61
India,Delhi,Delhi,"IGI Airport (T3), Delhi - IMD",03-04-2026 08:00:00,28.5627763,77.1180053,PM2.5,73,171,110
India,Delhi,Delhi,"IGNOU_Maidan Garhi, Delhi - DPCC",03-04-2026 08:00:00,28.493624 ,77.201159 ,OZONE,3,93,26
India,Delhi,Delhi,"IHBAS, Dilshad Garden, Delhi - CPCB",03-04-2026 08:00:00,28.6811736,77.3025234,CO,13,43,18
India,Delhi,Delhi,"JNU, Delhi - DPCC",03-04-2026 08:00:00,28.540721 ,77.168544 ,NO2,5,96,35
India,Delhi,Delhi,"Burari Crossing, Delhi - IMD",03-04-2026 08:00:00,28.7256504,77.2011573,OZONE,28,248,36
India,Delhi,Delhi,"Cantonment Area, Delhi - DPCC ",03-04-2026 08:00:00,28.594169 ,77.125100 ,NH3,1,6,3
India,Delhi,Delhi,"Chandni Chowk, Delhi - IITM",03-04-2026 08:00:00,28.656756,77.227234,PM10,79,360,206
India,Delhi,Delhi,"Commonwealth Sports Complex, Delhi - DPCC",03-04-2026 08:00:00,28.615828 ,77.271992 ,PM2.5,25,343,218
India,Delhi,Delhi,"Commonwealth Sports Complex, Delhi - DPCC",03-04-2026 08:00:00,28.615828 ,77.271992 ,NH3,5,9,7
India,Delhi,Delhi,"JNU, Delhi - DPCC",03-04-2026 08:00:00,28.540721 ,77.168544 ,OZONE,1,41,9
India,Delhi,Delhi,"Jahangirpuri, Delhi - DPCC",03-04-2026 08:00:00,28.732820,77.170633,PM10,115,451,243
India,Delhi,Delhi,"Jahangirpuri, Delhi - DPCC",03-04-2026 08:00:00,28.732820,77.170633,NO2,33,106,71
India,Delhi,Delhi,"Mandir Marg, Delhi - DPCC",03-04-2026 08:00:00,28.636429,77.201067,SO2,1,38,19
India,Delhi,Delhi,"Mandir Marg, Delhi - DPCC",03-04-2026 08:00:00,28.636429,77.201067,OZONE,7,139,17
India,Delhi,Delhi,"Mundka, Delhi - DPCC",03-04-2026 08:00:00,28.684678,77.076574,PM2.5,37,375,220
India,Delhi,Delhi,"Sonia Vihar, Delhi - DPCC",03-04-2026 08:00:00,28.710508,77.249485,OZONE,1,293,3
India,Delhi,Delhi,"Talkatora Garden, Delhi - DPCC",03-04-2026 08:00:00,28.621810,77.1944633,NO2,5,60,27
India,Gujarat,Ahmedabad,"Chandkheda, Ahmedabad - IITM",03-04-2026 08:00:00,23.107969,72.574648,NO2,6,53,17
India,Gujarat,Ahmedabad,"Chandkheda, Ahmedabad - IITM",03-04-2026 08:00:00,23.107969,72.574648,OZONE,16,153,40
India,Delhi,Delhi,"Mundka, Delhi - DPCC",03-04-2026 08:00:00,28.684678,77.076574,NO2,35,83,57
India,Delhi,Delhi,"Najafgarh, Delhi - DPCC",03-04-2026 08:00:00,28.570173,76.933762,PM2.5,15,337,151
India,Delhi,Delhi,"Najafgarh, Delhi - DPCC",03-04-2026 08:00:00,28.570173,76.933762,CO,22,120,65
India,Delhi,Delhi,"Najafgarh, Delhi - DPCC",03-04-2026 08:00:00,28.570173,76.933762,OZONE,5,194,28
India,Gujarat,Ahmedabad,"SVPI Airport Hansol, Ahmedabad - IITM",03-04-2026 08:00:00,23.076793,72.627874,NO2,16,76,30
India,Gujarat,Ahmedabad,"SVPI Airport Hansol, Ahmedabad - IITM",03-04-2026 08:00:00,23.076793,72.627874,OZONE,4,109,18
India,Gujarat,Ankleshwar,"GIDC, Ankleshwar - GPCB",03-04-2026 08:00:00,21.613267,73.010555,PM10,70,134,109
India,Gujarat,Bhavnagar,"Vidhyanagar, Bhavnagar - Nexteng Enviro",03-04-2026 08:00:00,21.755417,72.139056,PM10,88,162,101
India,Gujarat,Bhavnagar,"Vidhyanagar, Bhavnagar - Nexteng Enviro",03-04-2026 08:00:00,21.755417,72.139056,NO2,32,42,38
India,Gujarat,Bhavnagar,"Vidhyanagar, Bhavnagar - Nexteng Enviro",03-04-2026 08:00:00,21.755417,72.139056,SO2,5,8,6
India,Gujarat,Gandhinagar,"GIFT City, Gandhinagar - IITM",03-04-2026 08:00:00,23.163798,72.677768,NO2,16,40,24
India,Gujarat,Gandhinagar,"GIFT City, Gandhinagar - IITM",03-04-2026 08:00:00,23.163798,72.677768,NH3,5,8,6
India,Gujarat,Gandhinagar,"GIFT City, Gandhinagar - IITM",03-04-2026 08:00:00,23.163798,72.677768,SO2,10,29,16
India,Gujarat,Gandhinagar,"IIPHG Lekawada, Gandhinagar - IITM",03-04-2026 08:00:00,23.243639,72.68994,PM2.5,18,54,38
India,Gujarat,Gandhinagar,"IIPHG Lekawada, Gandhinagar - IITM",03-04-2026 08:00:00,23.243639,72.68994,PM10,77,102,89
India,Gujarat,Gandhinagar,"IIPHG Lekawada, Gandhinagar - IITM",03-04-2026 08:00:00,23.243639,72.68994,SO2,3,14,5
India,Haryana,Jind,"Police Lines, Jind - HSPCB",03-04-2026 08:00:00,29.307814,76.337619,CO,4,105,20
India,Haryana,Kaithal,"Rishi Nagar, Kaithal - HSPCB",03-04-2026 08:00:00,29.8006,76.4155,PM10,58,400,96
India,Haryana,Kaithal,"Rishi Nagar, Kaithal - HSPCB",03-04-2026 08:00:00,29.8006,76.4155,NO2,30,32,31
India,Haryana,Karnal,"Sector-12, Karnal - HSPCB",03-04-2026 08:00:00,29.695300,77.002700,SO2,7,15,11
India,Haryana,Kurukshetra,"Sector-7, Kurukshetra - HSPCB",03-04-2026 08:00:00,29.966942,76.875879,PM2.5,52,174,91
India,Haryana,Mandikhera,"General Hospital, Mandikhera(Nuh) - HSPCB",03-04-2026 08:00:00,27.9002,76.9938,PM2.5,NA,NA,NA
India,Haryana,Mandikhera,"General Hospital, Mandikhera(Nuh) - HSPCB",03-04-2026 08:00:00,27.9002,76.9938,PM10,NA,NA,NA
India,Haryana,Mandikhera,"General Hospital, Mandikhera(Nuh) - HSPCB",03-04-2026 08:00:00,27.9002,76.9938,NO2,NA,NA,NA
India,Haryana,Mandikhera,"General Hospital, Mandikhera(Nuh) - HSPCB",03-04-2026 08:00:00,27.9002,76.9938,OZONE,NA,NA,NA
India,Haryana,Manesar,"Sector-2 IMT, Manesar - HSPCB",03-04-2026 08:00:00,28.360699,76.936090,PM2.5,42,500,218
India,Gujarat,Gandhinagar,"Sector-10, Gandhinagar - GPCB",03-04-2026 08:00:00,23.221714,72.654328,CO,17,37,21
India,Gujarat,Nandesari,"GIDC, Nandesari - Nandesari Ind. Association",03-04-2026 08:00:00,22.410802,73.097923,NO2,2,67,22
India,Gujarat,Rajkot,"Mavdi, Rajkot - Nexteng Enviro ",03-04-2026 08:00:00,22.248853,70.776774,PM10,63,152,97
India,Gujarat,Rajkot,"Mavdi, Rajkot - Nexteng Enviro ",03-04-2026 08:00:00,22.248853,70.776774,NH3,1,2,1
India,Gujarat,Rajkot,"Mavdi, Rajkot - Nexteng Enviro ",03-04-2026 08:00:00,22.248853,70.776774,SO2,8,51,18
India,Gujarat,Rajkot,"Mavdi, Rajkot - Nexteng Enviro ",03-04-2026 08:00:00,22.248853,70.776774,CO,84,102,95
India,Gujarat,Surat,"Katargam, Surat - Nexteng Enviro",03-04-2026 08:00:00,21.217779 ,72.834787 ,PM2.5,31,160,77
India,Gujarat,Surat,"Science Center, Surat - SMC",03-04-2026 08:00:00,21.170046,72.795405,PM10,52,128,77
India,Haryana,Narnaul,"Shastri Nagar, Narnaul - HSPCB",03-04-2026 08:00:00,28.060249,76.113115,PM10,69,459,140
India,Haryana,Narnaul,"Shastri Nagar, Narnaul - HSPCB",03-04-2026 08:00:00,28.060249,76.113115,NO2,20,26,25
India,Haryana,Palwal,"Shyam Nagar, Palwal - HSPCB",03-04-2026 08:00:00,28.1485564,77.3320667,PM2.5,32,97,62
India,Haryana,Panchgaon,"Amity University, Panchgaon - IITM",03-04-2026 08:00:00,28.3153,76.9143,NH3,2,4,3
India,Haryana,Panchgaon,"Amity University, Panchgaon - IITM",03-04-2026 08:00:00,28.3153,76.9143,OZONE,8,100,27
India,Haryana,Panchkula,"Sector-6, Panchkula - HSPCB ",03-04-2026 08:00:00,30.7057778,76.8531805555555,SO2,NA,NA,NA
India,Haryana,Rohtak,"MD University, Rohtak - HSPCB",03-04-2026 08:00:00,28.52123,76.37138,PM2.5,79,500,204
India,Haryana,Rohtak,"MD University, Rohtak - HSPCB",03-04-2026 08:00:00,28.52123,76.37138,PM10,59,391,108
India,Gujarat,Ahmedabad,"Gyaspur, Ahmedabad - IITM",03-04-2026 08:00:00,22.977134,72.553024,SO2,15,104,36
India,Gujarat,Ahmedabad,"Gyaspur, Ahmedabad - IITM",03-04-2026 08:00:00,22.977134,72.553024,OZONE,2,56,5
India,Gujarat,Ahmedabad,"Maninagar, Ahmedabad - GPCB",03-04-2026 08:00:00,23.002657,72.591912,CO,2,48,30
India,Gujarat,Ahmedabad,"Raikhad, Ahmedabad - IITM",03-04-2026 08:00:00,23.020509,72.579261,PM10,66,143,100
India,Gujarat,Ahmedabad,"Raikhad, Ahmedabad - IITM",03-04-2026 08:00:00,23.020509,72.579261,SO2,4,102,23
India,Gujarat,Ahmedabad,"Rakhial, Ahmedabad - IITM",03-04-2026 08:00:00,23.016834,72.625775,PM2.5,20,55,39
India,Gujarat,Ahmedabad,"SAC ISRO Bopal, Ahmedabad - IITM",03-04-2026 08:00:00,23.041137,72.456691,CO,8,31,24
India,Gujarat,Ahmedabad,"SAC ISRO Satellite, Ahmedabad - IITM",03-04-2026 08:00:00,23.023389,72.515201,PM2.5,58,169,90
India,Haryana,Bhiwani,"H.B. Colony, Bhiwani - HSPCB",03-04-2026 08:00:00,28.806223,76.141105,NO2,7,25,12
India,Haryana,Charkhi Dadri,"Mini Secretariat, Charkhi Dadri - HSPCB",03-04-2026 08:00:00,28.593883,76.270653,NH3,5,8,6
India,Haryana,Charkhi Dadri,"Mini Secretariat, Charkhi Dadri - HSPCB",03-04-2026 08:00:00,28.593883,76.270653,OZONE,13,17,15
India,Haryana,Dharuhera,"Municipal Corporation Office, Dharuhera -  HSPCB",03-04-2026 08:00:00,28.206800,76.799700,OZONE,24,41,25
India,Haryana,Faridabad,"New Industrial Town, Faridabad - HSPCB",03-04-2026 08:00:00,28.39072,77.30059,PM10,108,119,114
India,Haryana,Faridabad,"New Industrial Town, Faridabad - HSPCB",03-04-2026 08:00:00,28.39072,77.30059,NO2,23,26,25
India,Haryana,Faridabad,"New Industrial Town, Faridabad - HSPCB",03-04-2026 08:00:00,28.39072,77.30059,CO,10,13,12
India,Haryana,Fatehabad,"Huda Sector, Fatehabad - HSPCB",03-04-2026 08:00:00,29.503664,75.467934,OZONE,75,117,93
India,Haryana,Gurugram,"Teri Gram, Gurugram - HSPCB",03-04-2026 08:00:00,28.4275,77.1465,PM10,NA,NA,NA
India,Haryana,Gurugram,"Teri Gram, Gurugram - HSPCB",03-04-2026 08:00:00,28.4275,77.1465,NO2,37,76,46
India,Haryana,Gurugram,"Vikas Sadan, Gurugram - HSPCB",03-04-2026 08:00:00,28.4501238,77.0263051,SO2,3,8,5
India,Haryana,Gurugram,"Vikas Sadan, Gurugram - HSPCB",03-04-2026 08:00:00,28.4501238,77.0263051,OZONE,5,30,11
India,Haryana,Hisar,"Urban Estate-II, Hisar - HSPCB",03-04-2026 08:00:00,29.140560,75.744941,PM2.5,1,112,26
India,Gujarat,Vapi,"Phase-1 GIDC, Vapi - GPCB",03-04-2026 08:00:00,20.362421,72.918013,PM2.5,19,124,42
India,Gujarat,Vapi,"Phase-1 GIDC, Vapi - GPCB",03-04-2026 08:00:00,20.362421,72.918013,SO2,19,38,36
India,Haryana,Ambala,"Patti Mehar, Ambala - HSPCB",03-04-2026 08:00:00,30.379589,76.778328,SO2,15,32,22
India,Haryana,Ballabgarh,"Nathu Colony, Ballabgarh - HSPCB",03-04-2026 08:00:00,28.3419248,77.319699,NO2,19,21,20
India,Haryana,Ballabgarh,"Nathu Colony, Ballabgarh - HSPCB",03-04-2026 08:00:00,28.3419248,77.319699,NH3,3,3,3
India,Haryana,Faridabad,"New Industrial Town, Faridabad - HSPCB",03-04-2026 08:00:00,28.39072,77.30059,OZONE,13,18,15
India,Haryana,Faridabad,"Sector 11, Faridabad - HSPCB",03-04-2026 08:00:00,28.376058,77.315741,NO2,29,33,31
India,Haryana,Faridabad,"Sector 11, Faridabad - HSPCB",03-04-2026 08:00:00,28.376058,77.315741,CO,26,41,37
India,Karnataka,Chikkaballapur,"Chikkaballapur Rural, Chikkaballapur - KSPCB",03-04-2026 08:00:00,13.428828,77.731418,SO2,4,19,10
India,Karnataka,Chikkaballapur,"Chikkaballapur Rural, Chikkaballapur - KSPCB",03-04-2026 08:00:00,13.428828,77.731418,OZONE,3,17,17
India,Karnataka,Chikkamagaluru,"Kalyana Nagara, Chikkamagaluru - KSPCB",03-04-2026 08:00:00,13.328028,75.797056,CO,11,123,11
India,Karnataka,Dharwad,"Kalabhavan, Dharwad - KSPCB",03-04-2026 08:00:00,15.459706,75.008381,PM2.5,42,57,47
India,Karnataka,Dharwad,"Kalabhavan, Dharwad - KSPCB",03-04-2026 08:00:00,15.459706,75.008381,SO2,7,8,8
India,Karnataka,Hubballi,"Lingaraj Nagar, Hubballi - KSPCB",03-04-2026 08:00:00,15.3714823,75.1160168,PM2.5,32,38,36
India,Karnataka,Hubballi,"Lingaraj Nagar, Hubballi - KSPCB",03-04-2026 08:00:00,15.3714823,75.1160168,NH3,1,2,2
India,Karnataka,Hubballi,"Lingaraj Nagar, Hubballi - KSPCB",03-04-2026 08:00:00,15.3714823,75.1160168,CO,16,26,22
India,Karnataka,Kalaburagi,"Mahatma Basaveswar Colony, Kalaburgi - KSPCB",03-04-2026 08:00:00,17.336318,76.847397,NO2,10,18,14
India,Karnataka,Kalaburagi,"Mahatma Basaveswar Colony, Kalaburgi - KSPCB",03-04-2026 08:00:00,17.336318,76.847397,CO,32,47,36
India,Karnataka,Koppal,"Diwator Nagar, Koppal - KSPCB",03-04-2026 08:00:00,15.347630,76.181767,NO2,28,30,29
India,Karnataka,Koppal,"Diwator Nagar, Koppal - KSPCB",03-04-2026 08:00:00,15.347630,76.181767,NH3,8,8,8
India,Karnataka,Madikeri,"Stuart Hill, Madikeri - KSPCB",03-04-2026 08:00:00,12.415911,75.735050,SO2,7,7,7
India,Karnataka,Bengaluru,"Bapuji Nagar, Bengaluru - KSPCB",03-04-2026 08:00:00,12.951913,77.539784,CO,4,108,18
India,Karnataka,Bengaluru,"Hebbal, Bengaluru - KSPCB",03-04-2026 08:00:00,13.029152,77.585901,PM2.5,48,246,75
India,Karnataka,Bengaluru,"Hebbal, Bengaluru - KSPCB",03-04-2026 08:00:00,13.029152,77.585901,SO2,12,22,15
India,Karnataka,Bengaluru,"Hombegowda Nagar, Bengaluru - KSPCB",03-04-2026 08:00:00,12.938539,77.590100,NO2,14,130,45
India,Karnataka,Bengaluru,"Hombegowda Nagar, Bengaluru - KSPCB",03-04-2026 08:00:00,12.938539,77.590100,CO,4,74,11
India,Karnataka,Bengaluru,"Jayanagar 5th Block, Bengaluru - KSPCB",03-04-2026 08:00:00,12.920984,77.584908,NH3,NA,NA,NA
India,Karnataka,Bengaluru,"Jayanagar 5th Block, Bengaluru - KSPCB",03-04-2026 08:00:00,12.920984,77.584908,SO2,3,40,20
India,Karnataka,Bengaluru,"Jayanagar 5th Block, Bengaluru - KSPCB",03-04-2026 08:00:00,12.920984,77.584908,OZONE,1,51,19
India,Karnataka,Bengaluru,"Kasturi Nagar, Bengaluru - KSPCB",03-04-2026 08:00:00,13.003872,77.664217,PM10,85,87,86
India,Karnataka,Bengaluru,"Kasturi Nagar, Bengaluru - KSPCB",03-04-2026 08:00:00,13.003872,77.664217,NH3,4,4,4
