country,state,city,station,last_update,latitude,longitude,pollutant_id,min_value,max_value,avg_value
India,Bihar,Araria,"Kharahiya Basti, Araria - BSPCB",09-10-2025 07:00:00,26.146529,87.454184,SO2,5,26,17
India,Bihar,Araria,"Kharahiya Basti, Araria - BSPCB",09-10-2025 07:00:00,26.146529,87.454184,CO,8,42,30
India,Bihar,Araria,"Kharahiya Basti, Araria - BSPCB",09-10-2025 07:00:00,26.146529,87.454184,OZONE,6,12,10
India,Bihar,Arrah,"New DM Office, Arrah - BSPCB",09-10-2025 07:00:00,25.5626095,84.663264,PM10,27,28,27
India,Bihar,Arrah,"New DM Office, Arrah - BSPCB",09-10-2025 07:00:00,25.5626095,84.663264,SO2,9,10,10
India,Bihar,Arrah,"New DM Office, Arrah - BSPCB",09-10-2025 07:00:00,25.5626095,84.663264,OZONE,6,21,8
India,Bihar,Aurangabad,"Gurdeo Nagar, Aurangabad - BSPCB",09-10-2025 07:00:00,24.75746,84.366208,NO2,7,8,8
India,Bihar,Begusarai,"Lohiyanagar, Begusarai - BSPCB",09-10-2025 07:00:00,25.42742023,86.13886079,PM2.5,12,28,18
India,Assam,Guwahati,"Pan Bazaar, Guwahati - PCBA",09-10-2025 07:00:00,26.187500,91.744194,CO,11,42,28
India,Assam,Guwahati,"Railway Colony, Guwahati - PCBA",09-10-2025 07:00:00,26.181742,91.78063,SO2,29,30,29
India,Assam,Nagaon,"Christianpatty, Nagaon - PCBA",09-10-2025 07:00:00,26.349082,92.68449,PM10,32,50,48
India,Assam,Nagaon,"Christianpatty, Nagaon - PCBA",09-10-2025 07:00:00,26.349082,92.68449,NO2,1,1,1
India,Assam,Silchar,"Tarapur, Silchar - PCBA",09-10-2025 07:00:00,24.82827,92.79525,NO2,15,19,18
India,Assam,Sivasagar,"Girls College, Sivasagar - PCBA",09-10-2025 07:00:00,26.987634,94.636574,NO2,13,27,20
India,Assam,Sivasagar,"Girls College, Sivasagar - PCBA",09-10-2025 07:00:00,26.987634,94.636574,NH3,4,5,5
India,Andhra_Pradesh,Anantapur,"Gulzarpet, Anantapur - APPCB",09-10-2025 07:00:00,14.675886,77.593027,PM2.5,51,97,64
India,Andhra_Pradesh,Anantapur,"Gulzarpet, Anantapur - APPCB",09-10-2025 07:00:00,14.675886,77.593027,PM10,44,90,57
India,Andhra_Pradesh,Anantapur,"Gulzarpet, Anantapur - APPCB",09-10-2025 07:00:00,14.675886,77.593027,NO2,16,25,22
India,Andhra_Pradesh,Anantapur,"Gulzarpet, Anantapur - APPCB",09-10-2025 07:00:00,14.675886,77.593027,OZONE,9,20,13
India,Andhra_Pradesh,Chittoor,"Gangineni Cheruvu, Chittoor - APPCB",09-10-2025 07:00:00,13.204880,79.097889,PM10,60,210,136
India,Andhra_Pradesh,Chittoor,"Gangineni Cheruvu, Chittoor - APPCB",09-10-2025 07:00:00,13.204880,79.097889,CO,44,68,54
India,Andhra_Pradesh,Kadapa,"Yerramukkapalli, Kadapa - APPCB",09-10-2025 07:00:00,14.465052,78.824187,PM2.5,50,50,50
India,Andhra_Pradesh,Kadapa,"Yerramukkapalli, Kadapa - APPCB",09-10-2025 07:00:00,14.465052,78.824187,OZONE,37,47,42
India,Bihar,Hajipur,"Industrial Area, Hajipur - BSPCB",09-10-2025 07:00:00,25.697189,85.245900,NH3,4,9,7
India,Bihar,Kishanganj,"SDM Office_Khagra, Kishanganj - BSPCB",09-10-2025 07:00:00,26.0881305,87.93840336,PM2.5,37,247,125
India,Bihar,Kishanganj,"SDM Office_Khagra, Kishanganj - BSPCB",09-10-2025 07:00:00,26.0881305,87.93840336,NO2,7,8,7
India,Bihar,Manguraha,"Forest Rest House, Manguraha - BSPCB",09-10-2025 07:00:00,27.308328,84.531742,NH3,1,3,3
India,Bihar,Manguraha,"Forest Rest House, Manguraha - BSPCB",09-10-2025 07:00:00,27.308328,84.531742,CO,32,37,34
India,Bihar,Motihari,"Gandak Colony, Motihari - BSPCB",09-10-2025 07:00:00,26.63086,84.90051,CO,NA,NA,NA
India,Bihar,Bhagalpur,"Mayaganj, Bhagalpur - BSPCB",09-10-2025 07:00:00,25.265194,87.012947,SO2,41,84,55
India,Bihar,Bihar Sharif,"D M Colony, Bihar Sharif - BSPCB",09-10-2025 07:00:00,25.204762,85.514960,SO2,10,10,10
India,Bihar,Buxar,"Charitra Van, Buxar - BSPCB",09-10-2025 07:00:00,25.567520,83.966379,NO2,9,10,9
India,Bihar,Gaya,"Collectorate, Gaya - BSPCB",09-10-2025 07:00:00,24.7955,84.9994,PM2.5,NA,NA,NA
India,Bihar,Gaya,"Collectorate, Gaya - BSPCB",09-10-2025 07:00:00,24.7955,84.9994,CO,NA,NA,NA
India,Bihar,Gaya,"SFTI Kusdihra, Gaya - BSPCB",09-10-2025 07:00:00,24.762518,84.982348,NO2,17,19,18
India,Andhra_Pradesh,Tirumala,"Toll Gate, Tirumala - APPCB",09-10-2025 07:00:00,13.67,79.35,NH3,1,2,1
India,Andhra_Pradesh,Vijayawada,"HB Colony, Vijayawada - APPCB",09-10-2025 07:00:00,16.536107,80.594233,SO2,5,13,8
India,Andhra_Pradesh,Vijayawada,"HB Colony, Vijayawada - APPCB",09-10-2025 07:00:00,16.536107,80.594233,OZONE,28,28,28
India,Andhra_Pradesh,Vijayawada,"Rajiv Gandhi Park, Vijayawada - APPCB",09-10-2025 07:00:00,16.509717,80.612222,OZONE,23,41,26
India,Andhra_Pradesh,Visakhapatnam,"GVM Corporation, Visakhapatnam - APPCB",09-10-2025 07:00:00,17.72,83.3,NO2,11,106,57
India,Arunachal_Pradesh,Naharlagun,"Naharlagun, Naharlagun - APSPCB",09-10-2025 07:00:00,27.103358,93.679645,SO2,8,8,8
India,Assam,Guwahati,"IITG, Guwahati - PCBA",09-10-2025 07:00:00,26.2028636,91.70046436,NO2,1,6,2
India,Assam,Guwahati,"IITG, Guwahati - PCBA",09-10-2025 07:00:00,26.2028636,91.70046436,SO2,23,26,24
India,Assam,Guwahati,"LGBI Airport, Guwahati - PCBA",09-10-2025 07:00:00,26.10887,91.589544,NO2,12,16,14
India,Assam,Guwahati,"Pan Bazaar, Guwahati - PCBA",09-10-2025 07:00:00,26.187500,91.744194,SO2,40,88,59
India,Bihar,Motihari,"Gandak Colony, Motihari - BSPCB",09-10-2025 07:00:00,26.63086,84.90051,OZONE,NA,NA,NA
India,Bihar,Munger,"Town Hall, Munger - BSPCB",09-10-2025 07:00:00,25.376776,86.471523,NO2,4,5,5
India,Bihar,Muzaffarpur,"MIT-Daudpur Kothi, Muzaffarpur - BSPCB",09-10-2025 07:00:00,26.1403345,85.3650192,PM2.5,33,47,42
India,Bihar,Muzaffarpur,"MIT-Daudpur Kothi, Muzaffarpur - BSPCB",09-10-2025 07:00:00,26.1403345,85.3650192,NH3,1,2,1
India,Andhra_Pradesh,Amaravati,"Secretariat, Amaravati - APPCB",09-10-2025 07:00:00,16.5150833,80.5181667,PM10,26,65,45
India,Andhra_Pradesh,Amaravati,"Secretariat, Amaravati - APPCB",09-10-2025 07:00:00,16.5150833,80.5181667,SO2,8,12,10
India,Andaman and Nicobar,Sri Vijaya Puram,"Police Line, Sri Vijaya Puram - ANPCC",09-10-2025 07:00:00,11.654054,92.734055,NH3,NA,NA,NA
India,Bihar,Rajgir,"Dangi Tola, Rajgir - BSPCB",09-10-2025 07:00:00,25.03280,85.41948,NO2,8,10,9
India,Bihar,Rajgir,"Dangi Tola, Rajgir - BSPCB",09-10-2025 07:00:00,25.03280,85.41948,OZONE,30,35,32
India,Bihar,Saharsa,"Police Line, Saharsa - BSPCB",09-10-2025 07:00:00,25.892357,86.590325,PM10,NA,NA,NA
India,Bihar,Samastipur,"DM Office_Kasipur, Samastipur - BSPCB",09-10-2025 07:00:00,25.859655,85.77944,PM2.5,20,333,100
India,Bihar,Samastipur,"DM Office_Kasipur, Samastipur - BSPCB",09-10-2025 07:00:00,25.859655,85.77944,PM10,16,179,62
India,Bihar,Samastipur,"DM Office_Kasipur, Samastipur - BSPCB",09-10-2025 07:00:00,25.859655,85.77944,NO2,5,9,8
India,Bihar,Samastipur,"DM Office_Kasipur, Samastipur - BSPCB",09-10-2025 07:00:00,25.859655,85.77944,CO,16,32,24
India,Bihar,Sasaram,"Dada Peer, Sasaram - BSPCB",09-10-2025 07:00:00,24.952822,84.002396,PM10,29,123,73
India,Bihar,Sasaram,"Dada Peer, Sasaram - BSPCB",09-10-2025 07:00:00,24.952822,84.002396,CO,44,55,52
India,Bihar,Siwan,"Chitragupta Nagar, Siwan - BSPCB",09-10-2025 07:00:00,26.2271665,84.3570427,NH3,1,1,1
India,Chandigarh,Chandigarh,"Sector 22, Chandigarh - CPCC",09-10-2025 07:00:00,30.735567,76.775714,PM10,11,97,45
India,Chhattisgarh,Chhal,"Nawapara SECL Colony, Chhal - CECB",09-10-2025 07:00:00,22.118125,83.140608,NO2,NA,NA,NA
India,Chhattisgarh,Chhal,"Nawapara SECL Colony, Chhal - CECB",09-10-2025 07:00:00,22.118125,83.140608,NH3,NA,NA,NA
India,Chhattisgarh,Chhal,"Nawapara SECL Colony, Chhal - CECB",09-10-2025 07:00:00,22.118125,83.140608,SO2,NA,NA,NA
India,Chhattisgarh,Chhal,"Nawapara SECL Colony, Chhal - CECB",09-10-2025 07:00:00,22.118125,83.140608,CO,NA,NA,NA
India,Chhattisgarh,Korba,"Rampur, Korba - CECB",09-10-2025 07:00:00,22.368195,82.746431,SO2,6,8,7
India,Chhattisgarh,Korba,"Rampur, Korba - CECB",09-10-2025 07:00:00,22.368195,82.746431,OZONE,2,4,2
India,Chhattisgarh,Korba,"Urja Nagar, Korba - CECB",09-10-2025 07:00:00,22.348441,82.549611,OZONE,35,36,35
India,Chhattisgarh,Kunjemura,"OP Jindal School, Kunjemura - CECB",09-10-2025 07:00:00,22.126650,83.483212,PM2.5,13,33,24
India,Chhattisgarh,Kunjemura,"OP Jindal School, Kunjemura - CECB",09-10-2025 07:00:00,22.126650,83.483212,PM10,18,115,56
India,Chhattisgarh,Kunjemura,"OP Jindal School, Kunjemura - CECB",09-10-2025 07:00:00,22.126650,83.483212,SO2,2,16,8
India,Chhattisgarh,Milupara,"Govt. Higher Secondary School, Milupara - CECB",09-10-2025 07:00:00,22.1910172,83.5197009,CO,6,25,8
India,Chhattisgarh,Raipur,"AIIMS, Raipur - CECB",09-10-2025 07:00:00,21.258815,81.578979,NH3,4,5,5
India,Chhattisgarh,Raipur,"AIIMS, Raipur - CECB",09-10-2025 07:00:00,21.258815,81.578979,CO,24,34,27
India,Chhattisgarh,Raipur,"AIIMS, Raipur - CECB",09-10-2025 07:00:00,21.258815,81.578979,OZONE,5,14,6
India,Chhattisgarh,Raipur,"Bhatagaon New ISBT, Raipur - CECB",09-10-2025 07:00:00,21.219665,81.630094,SO2,5,8,6
India,Chhattisgarh,Raipur,"Bhatagaon New ISBT, Raipur - CECB",09-10-2025 07:00:00,21.219665,81.630094,CO,18,75,24
India,Chhattisgarh,Raipur,"Bhatagaon New ISBT, Raipur - CECB",09-10-2025 07:00:00,21.219665,81.630094,OZONE,2,27,3
India,Chhattisgarh,Raipur,"Krishak Nagar, Raipur - CECB",09-10-2025 07:00:00,21.237755,81.705301,OZONE,NA,NA,NA
India,Chhattisgarh,Raipur,"Siltara Phase-II, Raipur - CECB",09-10-2025 07:00:00,21.371751,81.664929,OZONE,5,10,7
India,Chhattisgarh,Tumidih,"OP Jindal Industrial Park, Tumidih - CECB",09-10-2025 07:00:00,22.06631475,83.33820077,PM10,19,103,51
India,Chhattisgarh,Tumidih,"OP Jindal Industrial Park, Tumidih - CECB",09-10-2025 07:00:00,22.06631475,83.33820077,NH3,1,2,2
India,Chhattisgarh,Tumidih,"OP Jindal Industrial Park, Tumidih - CECB",09-10-2025 07:00:00,22.06631475,83.33820077,OZONE,4,70,12
India,Chandigarh,Chandigarh,"Sector 22, Chandigarh - CPCC",09-10-2025 07:00:00,30.735567,76.775714,OZONE,4,94,5
India,Chandigarh,Chandigarh,"Sector-25, Chandigarh - CPCC",09-10-2025 07:00:00,30.751462,76.762879,PM10,14,67,44
India,Chandigarh,Chandigarh,"Sector-25, Chandigarh - CPCC",09-10-2025 07:00:00,30.751462,76.762879,NO2,8,40,19
India,Chandigarh,Chandigarh,"Sector-25, Chandigarh - CPCC",09-10-2025 07:00:00,30.751462,76.762879,CO,14,34,22
India,Chhattisgarh,Bhilai,"32Bungalows, Bhilai - CECB",09-10-2025 07:00:00,21.194815,81.314770,PM2.5,6,22,15
India,Chhattisgarh,Bhilai,"32Bungalows, Bhilai - CECB",09-10-2025 07:00:00,21.194815,81.314770,OZONE,1,28,3
India,Chhattisgarh,Bhilai,"Civic Center, Bhilai - Bhilai Steel Plant",09-10-2025 07:00:00,21.185571,81.343175,PM2.5,18,72,39
India,Chhattisgarh,Bhilai,"Civic Center, Bhilai - Bhilai Steel Plant",09-10-2025 07:00:00,21.185571,81.343175,NH3,2,3,3
India,Chhattisgarh,Bhilai,"Civic Center, Bhilai - Bhilai Steel Plant",09-10-2025 07:00:00,21.185571,81.343175,SO2,7,9,8
India,Chhattisgarh,Bhilai,"Civic Center, Bhilai - Bhilai Steel Plant",09-10-2025 07:00:00,21.185571,81.343175,OZONE,7,14,9
India,Bihar,Patna,"Govt. High School Shikarpur, Patna - BSPCB",09-10-2025 07:00:00,25.592539,85.227158,CO,12,38,24
India,Bihar,Patna,"IGSC Planetarium Complex, Patna - BSPCB",09-10-2025 07:00:00,25.610369,85.132568,OZONE,47,48,48
India,Bihar,Patna,"Muradpur, Patna - BSPCB",09-10-2025 07:00:00,25.619651,85.147382,NH3,4,5,4
India,Bihar,Patna,"Rajbansi Nagar, Patna - BSPCB",09-10-2025 07:00:00,25.599486,85.113666,NH3,2,3,3
India,Bihar,Patna,"Rajbansi Nagar, Patna - BSPCB",09-10-2025 07:00:00,25.599486,85.113666,SO2,6,8,7
India,Bihar,Patna,"Rajbansi Nagar, Patna - BSPCB",09-10-2025 07:00:00,25.599486,85.113666,OZONE,6,11,7
India,Bihar,Patna,"Samanpura, Patna - BSPCB",09-10-2025 07:00:00,25.596727,85.085624,PM2.5,52,224,97
India,Bihar,Purnia,"Mariam Nagar, Purnia - BSPCB",09-10-2025 07:00:00,25.366336,87.117468,PM2.5,3,90,38
India,Bihar,Purnia,"Mariam Nagar, Purnia - BSPCB",09-10-2025 07:00:00,25.366336,87.117468,NH3,3,3,3
India,Delhi,Delhi,"Bawana, Delhi - DPCC",09-10-2025 07:00:00,28.776200,77.051074,CO,46,68,53
India,Delhi,Delhi,"Burari Crossing, Delhi - IMD",09-10-2025 07:00:00,28.7256504,77.2011573,PM2.5,4,164,74
India,Delhi,Delhi,"Burari Crossing, Delhi - IMD",09-10-2025 07:00:00,28.7256504,77.2011573,CO,21,106,31
India,Delhi,Delhi,"Chandni Chowk, Delhi - IITM",09-10-2025 07:00:00,28.656756,77.227234,PM2.5,36,58,44
India,Delhi,Delhi,"DTU, Delhi - CPCB",09-10-2025 07:00:00,28.7500499,77.1112615,NH3,9,15,10
India,Delhi,Delhi,"DTU, Delhi - CPCB",09-10-2025 07:00:00,28.7500499,77.1112615,OZONE,15,22,16
India,Delhi,Delhi,"Dr. Karni Singh Shooting Range, Delhi - DPCC",09-10-2025 07:00:00,28.498571,77.264840,PM2.5,57,95,70
India,Delhi,Delhi,"Dr. Karni Singh Shooting Range, Delhi - DPCC",09-10-2025 07:00:00,28.498571,77.264840,NO2,44,65,52
India,Delhi,Delhi,"Dwarka-Sector 8, Delhi - DPCC ",09-10-2025 07:00:00,28.5710274,77.0719006,NH3,3,5,4
India,Delhi,Delhi,"IGI Airport (T3), Delhi - IMD",09-10-2025 07:00:00,28.5627763,77.1180053,OZONE,1,1,1
India,Delhi,Delhi,"IHBAS, Dilshad Garden, Delhi - CPCB",09-10-2025 07:00:00,28.6811736,77.3025234,NO2,40,51,48
India,Delhi,Delhi,"IHBAS, Dilshad Garden, Delhi - CPCB",09-10-2025 07:00:00,28.6811736,77.3025234,SO2,18,41,28
India,Delhi,Delhi,"ITO, Delhi - CPCB",09-10-2025 07:00:00,28.628624,77.241060,NO2,77,93,85
India,Delhi,Delhi,"Jahangirpuri, Delhi - DPCC",09-10-2025 07:00:00,28.732820,77.170633,PM10,70,149,103
India,Delhi,Delhi,"Jahangirpuri, Delhi - DPCC",09-10-2025 07:00:00,28.732820,77.170633,OZONE,5,100,16
India,Delhi,Delhi,"Alipur, Delhi - DPCC",09-10-2025 07:00:00,28.815329,77.153010,OZONE,2,55,5
India,Delhi,Delhi,"Anand Vihar, Delhi - DPCC",09-10-2025 07:00:00,28.647622,77.3158090,PM2.5,43,312,101
India,Delhi,Delhi,"Anand Vihar, Delhi - DPCC",09-10-2025 07:00:00,28.647622,77.3158090,NH3,2,3,2
India,Delhi,Delhi,"Anand Vihar, Delhi - DPCC",09-10-2025 07:00:00,28.647622,77.3158090,SO2,2,57,25
India,Delhi,Delhi,"Anand Vihar, Delhi - DPCC",09-10-2025 07:00:00,28.647622,77.3158090,CO,50,91,65
India,Delhi,Delhi,"Ashok Vihar, Delhi - DPCC",09-10-2025 07:00:00,28.695381,77.181665,SO2,6,16,11
India,Delhi,Delhi,"Aya Nagar, Delhi - IMD",09-10-2025 07:00:00,28.4706914,77.1099364,PM2.5,31,94,51
India,Delhi,Delhi,"Aya Nagar, Delhi - IMD",09-10-2025 07:00:00,28.4706914,77.1099364,NO2,16,23,19
India,Delhi,Delhi,"Aya Nagar, Delhi - IMD",09-10-2025 07:00:00,28.4706914,77.1099364,OZONE,14,76,24
India,Delhi,Delhi,"Bawana, Delhi - DPCC",09-10-2025 07:00:00,28.776200,77.051074,PM10,46,103,68
India,Delhi,Delhi,"Sonia Vihar, Delhi - DPCC",09-10-2025 07:00:00,28.710508,77.249485,NH3,5,6,6
India,Delhi,Delhi,"Sri Aurobindo Marg, Delhi - DPCC",09-10-2025 07:00:00,28.531346,77.190156,NO2,4,39,19
India,Delhi,Delhi,"Vivek Vihar, Delhi - DPCC",09-10-2025 07:00:00,28.672342,77.315260,OZONE,3,61,4
India,Delhi,Delhi,"Wazirpur, Delhi - DPCC",09-10-2025 07:00:00,28.699793,77.165453,NO2,40,85,59
India,Delhi,Delhi,"Wazirpur, Delhi - DPCC",09-10-2025 07:00:00,28.699793,77.165453,NH3,8,11,9
India,Gujarat,Ahmedabad,"Chandkheda, Ahmedabad - IITM",09-10-2025 07:00:00,23.107969,72.574648,PM2.5,41,88,64
India,Gujarat,Gandhinagar,"Sector-10, Gandhinagar - GPCB",09-10-2025 07:00:00,23.221714,72.654328,SO2,3,11,8
India,Gujarat,Gandhinagar,"Sector-10, Gandhinagar - GPCB",09-10-2025 07:00:00,23.221714,72.654328,OZONE,8,53,14
India,Gujarat,Vatva,"Phase-4 GIDC, Vatva - GPCB",09-10-2025 07:00:00,22.969611,72.643500,NO2,14,33,26
India,Haryana,Bahadurgarh,"Arya Nagar, Bahadurgarh - HSPCB",09-10-2025 07:00:00,28.6701,76.9254,NO2,11,15,13
India,Haryana,Bahadurgarh,"Arya Nagar, Bahadurgarh - HSPCB",09-10-2025 07:00:00,28.6701,76.9254,NH3,11,14,12
India,Haryana,Bahadurgarh,"Arya Nagar, Bahadurgarh - HSPCB",09-10-2025 07:00:00,28.6701,76.9254,SO2,5,7,6
India,Haryana,Bahadurgarh,"Arya Nagar, Bahadurgarh - HSPCB",09-10-2025 07:00:00,28.6701,76.9254,OZONE,14,23,18
India,Gujarat,Ahmedabad,"Chandkheda, Ahmedabad - IITM",09-10-2025 07:00:00,23.107969,72.574648,CO,8,70,20
India,Gujarat,Ahmedabad,"Gyaspur, Ahmedabad - IITM",09-10-2025 07:00:00,22.977134,72.553024,NO2,14,41,25
India,Gujarat,Ahmedabad,"Maninagar, Ahmedabad - GPCB",09-10-2025 07:00:00,23.002657,72.591912,PM2.5,28,261,72
India,Gujarat,Ahmedabad,"Rakhial, Ahmedabad - IITM",09-10-2025 07:00:00,23.016834,72.625775,CO,18,44,22
India,Gujarat,Ahmedabad,"Rakhial, Ahmedabad - IITM",09-10-2025 07:00:00,23.016834,72.625775,OZONE,1,40,1
India,Gujarat,Ahmedabad,"SAC ISRO Bopal, Ahmedabad - IITM",09-10-2025 07:00:00,23.041137,72.456691,OZONE,1,41,4
India,Delhi,Delhi,"Patparganj, Delhi - DPCC",09-10-2025 07:00:00,28.623763,77.287209,SO2,8,11,10
India,Delhi,Delhi,"Patparganj, Delhi - DPCC",09-10-2025 07:00:00,28.623763,77.287209,CO,28,85,41
India,Delhi,Delhi,"Punjabi Bagh, Delhi - DPCC",09-10-2025 07:00:00,28.674045,77.131023,NH3,2,3,2
India,Delhi,Delhi,"Punjabi Bagh, Delhi - DPCC",09-10-2025 07:00:00,28.674045,77.131023,OZONE,3,15,5
India,Delhi,Delhi,"Pusa, Delhi - DPCC",09-10-2025 07:00:00,28.639652,77.146275,NO2,50,108,78
India,Delhi,Delhi,"Pusa, Delhi - IMD",09-10-2025 07:00:00,28.636110,77.173332,PM2.5,33,79,57
India,Delhi,Delhi,"Major Dhyan Chand National Stadium, Delhi - DPCC",09-10-2025 07:00:00,28.611281,77.237738,SO2,8,14,10
India,Delhi,Delhi,"Major Dhyan Chand National Stadium, Delhi - DPCC",09-10-2025 07:00:00,28.611281,77.237738,OZONE,4,107,9
India,Delhi,Delhi,"Mandir Marg, Delhi - DPCC",09-10-2025 07:00:00,28.636429,77.201067,NH3,5,5,5
India,Delhi,Delhi,"Mandir Marg, Delhi - DPCC",09-10-2025 07:00:00,28.636429,77.201067,CO,30,57,38
India,Delhi,Delhi,"Mandir Marg, Delhi - DPCC",09-10-2025 07:00:00,28.636429,77.201067,OZONE,14,169,21
India,Delhi,Delhi,"Mundka, Delhi - DPCC",09-10-2025 07:00:00,28.684678,77.076574,PM10,33,188,88
India,Delhi,Delhi,"Pusa, Delhi - IMD",09-10-2025 07:00:00,28.636110,77.173332,CO,1,40,12
India,Delhi,Delhi,"R K Puram, Delhi - DPCC",09-10-2025 07:00:00,28.563262,77.186937,PM10,58,121,85
India,Delhi,Delhi,"R K Puram, Delhi - DPCC",09-10-2025 07:00:00,28.563262,77.186937,CO,9,52,38
India,Delhi,Delhi,"Rohini, Delhi - DPCC",09-10-2025 07:00:00,28.732528,77.119920,OZONE,12,85,15
India,Delhi,Delhi,"Sirifort, Delhi - CPCB",09-10-2025 07:00:00,28.5504249,77.2159377,SO2,23,27,25
India,Delhi,Delhi,"Jawaharlal Nehru Stadium, Delhi - DPCC",09-10-2025 07:00:00,28.580280,77.233829,SO2,4,14,8
India,Delhi,Delhi,"Lodhi Road, Delhi - IITM",09-10-2025 07:00:00,28.588333,77.221667,PM2.5,2,70,44
India,Delhi,Delhi,"Lodhi Road, Delhi - IITM",09-10-2025 07:00:00,28.588333,77.221667,NO2,2,44,21
India,Delhi,Delhi,"Lodhi Road, Delhi - IMD",09-10-2025 07:00:00,28.5918245,77.2273074,NO2,20,115,40
India,Gujarat,Ahmedabad,"SVPI Airport Hansol, Ahmedabad - IITM",09-10-2025 07:00:00,23.076793,72.627874,NO2,12,72,43
India,Gujarat,Ankleshwar,"GIDC, Ankleshwar - GPCB",09-10-2025 07:00:00,21.613267,73.010555,SO2,53,54,54
India,Gujarat,Gandhinagar,"IIPHG Lekawada, Gandhinagar - IITM",09-10-2025 07:00:00,23.243639,72.68994,PM10,107,140,125
India,Delhi,Delhi,"NSIT Dwarka, Delhi - CPCB",09-10-2025 07:00:00,28.60909,77.0325413,NO2,38,63,50
India,Delhi,Delhi,"Narela, Delhi - DPCC",09-10-2025 07:00:00,28.822836,77.101981,NH3,14,15,14
India,Haryana,Gurugram,"Sector-51, Gurugram - HSPCB",09-10-2025 07:00:00,28.4227,77.0667,PM10,40,151,99
India,Haryana,Jind,"Police Lines, Jind - HSPCB",09-10-2025 07:00:00,29.307814,76.337619,NH3,4,6,5
India,Haryana,Kaithal,"Rishi Nagar, Kaithal - HSPCB",09-10-2025 07:00:00,29.8006,76.4155,PM2.5,NA,NA,NA
India,Haryana,Kaithal,"Rishi Nagar, Kaithal - HSPCB",09-10-2025 07:00:00,29.8006,76.4155,PM10,NA,NA,NA
India,Haryana,Kaithal,"Rishi Nagar, Kaithal - HSPCB",09-10-2025 07:00:00,29.8006,76.4155,NO2,NA,NA,NA
India,Haryana,Karnal,"Sector-12, Karnal - HSPCB",09-10-2025 07:00:00,29.695300,77.002700,PM2.5,59,87,69
India,Haryana,Karnal,"Sector-12, Karnal - HSPCB",09-10-2025 07:00:00,29.695300,77.002700,NH3,2,2,2
India,Haryana,Karnal,"Sector-12, Karnal - HSPCB",09-10-2025 07:00:00,29.695300,77.002700,SO2,8,10,9
India,Haryana,Kurukshetra,"Sector-7, Kurukshetra - HSPCB",09-10-2025 07:00:00,29.966942,76.875879,NH3,5,5,5
India,Karnataka,Chikkaballapur,"Chikkaballapur Rural, Chikkaballapur - KSPCB",09-10-2025 07:00:00,13.428828,77.731418,NO2,NA,NA,NA
India,Karnataka,Chikkamagaluru,"Kalyana Nagara, Chikkamagaluru - KSPCB",09-10-2025 07:00:00,13.328028,75.797056,PM2.5,NA,NA,NA
India,Karnataka,Chikkamagaluru,"Kalyana Nagara, Chikkamagaluru - KSPCB",09-10-2025 07:00:00,13.328028,75.797056,PM10,NA,NA,NA
India,Karnataka,Chikkamagaluru,"Kalyana Nagara, Chikkamagaluru - KSPCB",09-10-2025 07:00:00,13.328028,75.797056,CO,NA,NA,NA
India,Karnataka,Chikkamagaluru,"Kalyana Nagara, Chikkamagaluru - KSPCB",09-10-2025 07:00:00,13.328028,75.797056,OZONE,NA,NA,NA
India,Karnataka,Dharwad,"Kalabhavan, Dharwad - KSPCB",09-10-2025 07:00:00,15.459706,75.008381,NO2,12,16,14
India,Karnataka,Dharwad,"Kalabhavan, Dharwad - KSPCB",09-10-2025 07:00:00,15.459706,75.008381,CO,32,48,38
India,Karnataka,Dharwad,"Kalabhavan, Dharwad - KSPCB",09-10-2025 07:00:00,15.459706,75.008381,OZONE,13,29,16
India,Karnataka,Hubballi,"Lingaraj Nagar, Hubballi - KSPCB",09-10-2025 07:00:00,15.3714823,75.1160168,NH3,1,2,2
India,Karnataka,Kalaburagi,"Mahatma Basaveswar Colony, Kalaburgi - KSPCB",09-10-2025 07:00:00,17.336318,76.847397,NH3,2,3,2
India,Karnataka,Karwar,"KHB Colony, Karwar - KSPCB",09-10-2025 07:00:00,14.816666,74.141003,PM2.5,1,17,10
India,Karnataka,Koppal,"Diwator Nagar, Koppal - KSPCB",09-10-2025 07:00:00,15.347630,76.181767,NH3,NA,NA,NA
India,Karnataka,Madikeri,"Stuart Hill, Madikeri - KSPCB",09-10-2025 07:00:00,12.415911,75.735050,PM2.5,NA,NA,NA
India,Karnataka,Mangalore,"Kadri, Mangalore - KSPCB",09-10-2025 07:00:00,12.889250,74.853000,PM2.5,NA,NA,NA
India,Karnataka,Mangalore,"Kadri, Mangalore - KSPCB",09-10-2025 07:00:00,12.889250,74.853000,NH3,NA,NA,NA
India,Karnataka,Mysuru,"Hebbal 1st Stage, Mysuru - KSPCB",09-10-2025 07:00:00,12.21041,76.37376,SO2,1,16,4
India,Haryana,Rohtak,"MD University, Rohtak - HSPCB",09-10-2025 07:00:00,28.52123,76.37138,OZONE,45,52,48
India,Haryana,Sirsa,"F-Block, Sirsa - HSPCB",09-10-2025 07:00:00,29.536400,75.015800,NH3,1,8,5
India,Haryana,Yamuna Nagar,"Gobind Pura, Yamuna Nagar - HSPCB",09-10-2025 07:00:00,30.1480566,77.2893471,PM10,NA,NA,NA
India,Himachal Pradesh,Baddi,"HIMUDA Complex Phase-1, Baddi - HPPCB",09-10-2025 07:00:00,30.943887,76.801991,NO2,7,62,26
India,Jammu_and_Kashmir,Srinagar,"Rajbagh, Srinagar - JKSPCB",09-10-2025 07:00:00,34.066206,74.819820,PM2.5,33,122,50
India,Karnataka,Shivamogga,"Vinoba Nagara, Shivamogga - KSPCB",09-10-2025 07:00:00,13.940000,75.555917,PM2.5,24,46,32
India,Karnataka,Vijayapura,"Ibrahimpur, Vijayapura - KSPCB",09-10-2025 07:00:00,16.802639,75.722694,PM10,43,45,44
India,Karnataka,Yadgir,"Collector Office, Yadgir - KSPCB",09-10-2025 07:00:00,16.7602,77.1428,NO2,22,51,32
India,Kerala,Eloor,"Udyogamandal, Eloor - Kerala PCB",09-10-2025 07:00:00,10.073232,76.302765,PM2.5,47,101,65
India,Kerala,Kannur,"Thavakkara, Kannur - Kerala PCB",09-10-2025 07:00:00,11.875000,75.373200,CO,13,17,16
India,Haryana,Manesar,"Sector-2 IMT, Manesar - HSPCB",09-10-2025 07:00:00,28.360699,76.936090,OZONE,30,32,30
India,Haryana,Narnaul,"Shastri Nagar, Narnaul - HSPCB",09-10-2025 07:00:00,28.060249,76.113115,PM10,84,115,95
India,Haryana,Narnaul,"Shastri Nagar, Narnaul - HSPCB",09-10-2025 07:00:00,28.060249,76.113115,NO2,33,43,37
India,Haryana,Narnaul,"Shastri Nagar, Narnaul - HSPCB",09-10-2025 07:00:00,28.060249,76.113115,SO2,11,12,12
India,Haryana,Panchgaon,"Amity University, Panchgaon - IITM",09-10-2025 07:00:00,28.3153,76.9143,SO2,1,6,4
India,Haryana,Panchkula,"Sector-6, Panchkula - HSPCB ",09-10-2025 07:00:00,30.7057778,76.8531805555555,NO2,NA,NA,NA
India,Jharkhand,Jorapokhar,"Tata Stadium, Jorapokhar - JSPCB",09-10-2025 07:00:00,23.707909,86.414670,PM10,NA,NA,NA
India,Jharkhand,Jorapokhar,"Tata Stadium, Jorapokhar - JSPCB",09-10-2025 07:00:00,23.707909,86.414670,OZONE,NA,NA,NA
India,Karnataka,Bagalkot,"Vidayagiri, Bagalkot - KSPCB",09-10-2025 07:00:00,16.172806,75.659694,NO2,9,10,9
India,Karnataka,Bengaluru,"Bapuji Nagar, Bengaluru - KSPCB",09-10-2025 07:00:00,12.951913,77.539784,NH3,1,2,1
India,Karnataka,Bengaluru,"Bapuji Nagar, Bengaluru - KSPCB",09-10-2025 07:00:00,12.951913,77.539784,CO,30,103,39
India,Karnataka,Bengaluru,"Hombegowda Nagar, Bengaluru - KSPCB",09-10-2025 07:00:00,12.938539,77.590100,NH3,2,3,2
India,Haryana,Ballabgarh,"Nathu Colony, Ballabgarh - HSPCB",09-10-2025 07:00:00,28.3419248,77.319699,OZONE,15,16,15
India,Haryana,Charkhi Dadri,"Mini Secretariat, Charkhi Dadri - HSPCB",09-10-2025 07:00:00,28.593883,76.270653,OZONE,14,17,15
India,Haryana,Faridabad,"New Industrial Town, Faridabad - HSPCB",09-10-2025 07:00:00,28.39072,77.30059,CO,10,13,12
India,Haryana,Gurugram,"NISE Gwal Pahari, Gurugram - IMD",09-10-2025 07:00:00,28.422681,77.148944,PM2.5,23,89,55
India,Haryana,Gurugram,"NISE Gwal Pahari, Gurugram - IMD",09-10-2025 07:00:00,28.422681,77.148944,NO2,17,25,20
India,Karnataka,Bengaluru,"Kasturi Nagar, Bengaluru - KSPCB",09-10-2025 07:00:00,13.003872,77.664217,PM10,48,63,60
India,Karnataka,Bengaluru,"Kasturi Nagar, Bengaluru - KSPCB",09-10-2025 07:00:00,13.003872,77.664217,NH3,5,6,6
India,Karnataka,Bengaluru,"Kasturi Nagar, Bengaluru - KSPCB",09-10-2025 07:00:00,13.003872,77.664217,CO,16,41,27
India,Karnataka,Bengaluru,"Peenya, Bengaluru - CPCB",09-10-2025 07:00:00,13.0270199,77.494094,OZONE,23,28,24
India,Karnataka,Chamarajanagar,"Urban, Chamarajanagar - KSPCB",09-10-2025 07:00:00,11.55358,76.55521,PM10,29,49,37
India,Madhya Pradesh,Jabalpur,"Govindh Bhavan Colony, Jabalpur - JMC",09-10-2025 07:00:00,23.163174,79.973061,PM10,39,74,55
India,Madhya Pradesh,Jabalpur,"Govindh Bhavan Colony, Jabalpur - JMC",09-10-2025 07:00:00,23.163174,79.973061,NO2,19,21,20
India,Madhya Pradesh,Jabalpur,"Gupteshwar, Jabalpur - JMC",09-10-2025 07:00:00,23.142888,79.916147,NO2,10,52,20
India,Madhya Pradesh,Jabalpur,"Gupteshwar, Jabalpur - JMC",09-10-2025 07:00:00,23.142888,79.916147,CO,32,104,42
India,Madhya Pradesh,Jabalpur,"Gupteshwar, Jabalpur - JMC",09-10-2025 07:00:00,23.142888,79.916147,OZONE,9,49,28
India,Madhya Pradesh,Jabalpur,"Marhatal, Jabalpur - MPPCB",09-10-2025 07:00:00,23.168606,79.932247,OZONE,12,21,15
India,Madhya Pradesh,Jabalpur,"Suhagi, Jabalpur - JMC",09-10-2025 07:00:00,23.218135,79.957770,NO2,26,71,38
India,Madhya Pradesh,Katni,"Gole Bazar, Katni - MPPCB",09-10-2025 07:00:00,23.50016,80.23284,PM2.5,20,64,36
India,Madhya Pradesh,Katni,"Gole Bazar, Katni - MPPCB",09-10-2025 07:00:00,23.50016,80.23284,NO2,31,36,33
India,Madhya Pradesh,Katni,"Gole Bazar, Katni - MPPCB",09-10-2025 07:00:00,23.50016,80.23284,SO2,6,62,26
India,Kerala,Thiruvananthapuram,"Kariavattom, Thiruvananthapuram - Kerala PCB",09-10-2025 07:00:00,8.563700,76.886500,PM2.5,37,49,42
India,Kerala,Thiruvananthapuram,"Kariavattom, Thiruvananthapuram - Kerala PCB",09-10-2025 07:00:00,8.563700,76.886500,NO2,6,7,7
India,Kerala,Thiruvananthapuram,"Kariavattom, Thiruvananthapuram - Kerala PCB",09-10-2025 07:00:00,8.563700,76.886500,NH3,1,1,1
India,Kerala,Thiruvananthapuram,"Kariavattom, Thiruvananthapuram - Kerala PCB",09-10-2025 07:00:00,8.563700,76.886500,CO,30,66,43
India,Kerala,Thiruvananthapuram,"Plammoodu, Thiruvananthapuram - Kerala PCB",09-10-2025 07:00:00,8.5149093,76.9435879,PM10,1,139,39
India,Kerala,Thiruvananthapuram,"Plammoodu, Thiruvananthapuram - Kerala PCB",09-10-2025 07:00:00,8.5149093,76.9435879,SO2,9,25,17
India,Kerala,Thrissur,"Corporation Ground, Thrissur - Kerala PCB",09-10-2025 07:00:00,10.532400,76.215900,PM2.5,45,52,49
India,Kerala,Thrissur,"Corporation Ground, Thrissur - Kerala PCB",09-10-2025 07:00:00,10.532400,76.215900,OZONE,27,28,27
India,Madhya Pradesh,Bhopal,"Idgah Hills, Bhopal - MPPCB",09-10-2025 07:00:00,23.264759,77.381568,NO2,10,29,15
India,Madhya Pradesh,Mandideep,"Sector-D Industrial Area, Mandideep - MPPCB",09-10-2025 07:00:00,23.108440,77.511428,PM10,91,174,140
India,Madhya Pradesh,Mandideep,"Sector-D Industrial Area, Mandideep - MPPCB",09-10-2025 07:00:00,23.108440,77.511428,NO2,22,106,51
India,Madhya Pradesh,Mandideep,"Sector-D Industrial Area, Mandideep - MPPCB",09-10-2025 07:00:00,23.108440,77.511428,CO,36,83,62
India,Madhya Pradesh,Pithampur,"Sector-2 Industrial Area, Pithampur - MPPCB",09-10-2025 07:00:00,22.624758,75.675238,PM2.5,147,351,236
India,Madhya Pradesh,Pithampur,"Sector-2 Industrial Area, Pithampur - MPPCB",09-10-2025 07:00:00,22.624758,75.675238,NH3,2,4,3
India,Madhya Pradesh,Ratlam,"Shasthri Nagar, Ratlam - IPCA Lab",09-10-2025 07:00:00,23.331731,75.045981,PM2.5,64,169,120
India,Madhya Pradesh,Ratlam,"Shasthri Nagar, Ratlam - IPCA Lab",09-10-2025 07:00:00,23.331731,75.045981,PM10,138,272,197
India,Madhya Pradesh,Sagar,"Civil Lines, Sagar - MPPCB",09-10-2025 07:00:00,23.838586,78.759431,PM2.5,21,153,79
India,Madhya Pradesh,Sagar,"Civil Lines, Sagar - MPPCB",09-10-2025 07:00:00,23.838586,78.759431,CO,24,42,30
India,Madhya Pradesh,Bhopal,"Idgah Hills, Bhopal - MPPCB",09-10-2025 07:00:00,23.264759,77.381568,OZONE,24,61,38
India,Madhya Pradesh,Bhopal,"T T Nagar, Bhopal - MPPCB",09-10-2025 07:00:00,23.233584,77.400574,NO2,19,57,32
India,Madhya Pradesh,Bhopal,"T T Nagar, Bhopal - MPPCB",09-10-2025 07:00:00,23.233584,77.400574,SO2,10,14,12
India,Madhya Pradesh,Damoh,"Shrivastav Colony, Damoh - MPPCB",09-10-2025 07:00:00,23.81748678,79.446246,PM2.5,32,96,57
India,Madhya Pradesh,Dewas,"Bhopal Chauraha, Dewas - MPPCB",09-10-2025 07:00:00,22.9682591,76.064118,PM10,160,360,258
India,Madhya Pradesh,Dewas,"Bhopal Chauraha, Dewas - MPPCB",09-10-2025 07:00:00,22.9682591,76.064118,NO2,33,114,67
India,Madhya Pradesh,Gwalior,"City Center, Gwalior - MPPCB",09-10-2025 07:00:00,26.203442,78.193251,PM2.5,NA,NA,NA
India,Madhya Pradesh,Gwalior,"City Center, Gwalior - MPPCB",09-10-2025 07:00:00,26.203442,78.193251,OZONE,NA,NA,NA
India,Madhya Pradesh,Singrauli,"Suryakiran Bhawan NCL, Singrauli - MPPCB",09-10-2025 07:00:00,24.108970,82.645580,OZONE,10,56,11
India,Maharashtra,Akola,"Ramdaspeth, Akola - MPCB",09-10-2025 07:00:00,20.719516,77.000253,PM2.5,32,95,71
India,Maharashtra,Akola,"Ramdaspeth, Akola - MPCB",09-10-2025 07:00:00,20.719516,77.000253,PM10,33,131,106
India,Maharashtra,Akola,"Ramdaspeth, Akola - MPCB",09-10-2025 07:00:00,20.719516,77.000253,OZONE,7,49,13
India,Maharashtra,Amravati,"Shivneri Colony, Amravati - MPCB",09-10-2025 07:00:00,20.9402359,77.7895248,NO2,8,27,14
India,Maharashtra,Amravati,"Shivneri Colony, Amravati - MPCB",09-10-2025 07:00:00,20.9402359,77.7895248,NH3,2,2,2
India,Madhya Pradesh,Gwalior,"Maharaj Bada, Gwalior - MPPCB",09-10-2025 07:00:00,26.200388,78.147714,PM10,60,167,113
India,Madhya Pradesh,Gwalior,"Maharaj Bada, Gwalior - MPPCB",09-10-2025 07:00:00,26.200388,78.147714,SO2,3,8,7
India,Madhya Pradesh,Indore,"Chhoti Gwaltoli, Indore - MPPCB",09-10-2025 07:00:00,22.4310,75.5213,PM2.5,88,308,150
India,Madhya Pradesh,Indore,"Regional Park, Indore - IMC",09-10-2025 07:00:00,22.6780,75.8559,NO2,7,14,11
India,Madhya Pradesh,Indore,"Regional Park, Indore - IMC",09-10-2025 07:00:00,22.6780,75.8559,OZONE,10,35,16
India,Madhya Pradesh,Indore,"Residency Area, Indore - IMC",09-10-2025 07:00:00,22.7084,75.8815,NO2,12,19,16
India,Maharashtra,Aurangabad,"MIDC Chilkalthana, Aurangabad - MPCB",09-10-2025 07:00:00,19.875620,75.387310,NH3,1,3,2
India,Maharashtra,Aurangabad,"More Chowk Waluj, Aurangabad - MPCB",09-10-2025 07:00:00,19.8389439,75.244448,NO2,14,25,19
India,Maharashtra,Aurangabad,"Rachnakar Colony, Aurangabad - MPCB",09-10-2025 07:00:00,19.863756,75.321188,PM10,NA,NA,NA
India,Maharashtra,Aurangabad,"Rachnakar Colony, Aurangabad - MPCB",09-10-2025 07:00:00,19.863756,75.321188,NH3,NA,NA,NA
India,Maharashtra,Badlapur,"Katrap, Badlapur - MPCB",09-10-2025 07:00:00,19.16485,73.23409,PM2.5,34,87,54
India,Maharashtra,Badlapur,"Katrap, Badlapur - MPCB",09-10-2025 07:00:00,19.16485,73.23409,NO2,14,35,23
India,Maharashtra,Belapur,"CBD Belapur, Belapur - MPCB",09-10-2025 07:00:00,19.0243902,73.0406721,SO2,1,6,3
India,Maharashtra,Belapur,"CBD Belapur, Belapur - MPCB",09-10-2025 07:00:00,19.0243902,73.0406721,CO,2,16,8
India,Maharashtra,Bhiwandi,"Gokul Nagar, Bhiwandi - MPCB",09-10-2025 07:00:00,19.309073,73.057223,NH3,4,7,5
India,Maharashtra,Boisar,"Khaira, Boisar - MPCB",09-10-2025 07:00:00,19.786089,72.757971,SO2,25,37,32
India,Maharashtra,Boisar,"Khaira, Boisar - MPCB",09-10-2025 07:00:00,19.786089,72.757971,CO,15,69,29
India,Maharashtra,Chandrapur,"Chauhan Colony, Chandrapur - MPCB",09-10-2025 07:00:00,19.962900,79.298714,NH3,3,3,3
India,Maharashtra,Jalgaon,"Prabhat Colony, Jalgaon - MPCB",09-10-2025 07:00:00,21.001264,75.565602,PM10,30,88,61
India,Maharashtra,Jalgaon,"Prabhat Colony, Jalgaon - MPCB",09-10-2025 07:00:00,21.001264,75.565602,SO2,7,12,10
India,Maharashtra,Jalna,"Old MIDC, Jalna - MPCB",09-10-2025 07:00:00,19.854616,75.905894,SO2,15,16,15
India,Maharashtra,Kolhapur,"Shivaji University, Kolhapur - MPCB",09-10-2025 07:00:00,16.6870449,74.2505872,SO2,5,6,5
India,Maharashtra,Mumbai,"Chakala-Andheri East, Mumbai - IITM",09-10-2025 07:00:00,19.11074,72.86084,NO2,30,62,46
India,Maharashtra,Mumbai,"Chakala-Andheri East, Mumbai - IITM",09-10-2025 07:00:00,19.11074,72.86084,CO,12,52,41
India,Maharashtra,Mumbai,"Chembur, Mumbai - MPCB",09-10-2025 07:00:00,19.0364585,72.8954371,NO2,11,42,23
India,Maharashtra,Mumbai,"Chembur, Mumbai - MPCB",09-10-2025 07:00:00,19.0364585,72.8954371,SO2,1,3,1
India,Maharashtra,Mumbai,"Chembur, Mumbai - MPCB",09-10-2025 07:00:00,19.0364585,72.8954371,CO,12,42,39
India,Maharashtra,Mumbai,"Chhatrapati Shivaji Intl. Airport (T2), Mumbai - MPCB",09-10-2025 07:00:00,19.10078,72.87462,OZONE,7,8,7
India,Maharashtra,Mumbai,"Colaba, Mumbai - MPCB",09-10-2025 07:00:00,18.910000,72.820000,NO2,24,27,25
India,Maharashtra,Mumbai,"Colaba, Mumbai - MPCB",09-10-2025 07:00:00,18.910000,72.820000,CO,24,26,24
India,Maharashtra,Mumbai,"Vasai West, Mumbai - MPCB",09-10-2025 07:00:00,19.383200,72.820400,PM2.5,29,62,43
India,Maharashtra,Mumbai,"Vile Parle West, Mumbai - MPCB",09-10-2025 07:00:00,19.10861,72.83622,CO,24,26,25
India,Maharashtra,Mumbai,"Worli, Mumbai - MPCB",09-10-2025 07:00:00,18.9936162,72.8128113,PM2.5,60,69,64
India,Maharashtra,Nagpur,"Ambazari, Nagpur - MPCB",09-10-2025 07:00:00,21.121801,79.04952,NH3,1,10,3
India,Maharashtra,Nagpur,"Ambazari, Nagpur - MPCB",09-10-2025 07:00:00,21.121801,79.04952,OZONE,4,38,18
India,Maharashtra,Nagpur,"Mahal, Nagpur - MPCB",09-10-2025 07:00:00,21.14472,79.107595,NO2,10,58,20
India,Maharashtra,Nagpur,"Mahal, Nagpur - MPCB",09-10-2025 07:00:00,21.14472,79.107595,SO2,3,74,25
India,Maharashtra,Mumbai,"Mulund West, Mumbai - MPCB",09-10-2025 07:00:00,19.1750,72.9419,PM2.5,31,95,53
India,Maharashtra,Mumbai,"Mulund West, Mumbai - MPCB",09-10-2025 07:00:00,19.1750,72.9419,NO2,12,13,13
India,Maharashtra,Mumbai,"Sewri, Mumbai - BMC",09-10-2025 07:00:00,19.000084,72.856730,NO2,1,10,4
India,Maharashtra,Mumbai,"Sewri, Mumbai - BMC",09-10-2025 07:00:00,19.000084,72.856730,CO,1,108,52
India,Maharashtra,Mumbai,"Shivaji Nagar, Mumbai - BMC",09-10-2025 07:00:00,19.060498,72.923356,PM10,56,96,84
India,Maharashtra,Mumbai,"Shivaji Nagar, Mumbai - BMC",09-10-2025 07:00:00,19.060498,72.923356,NO2,15,38,26
India,Maharashtra,Mumbai,"Siddharth Nagar-Worli, Mumbai - IITM",09-10-2025 07:00:00,19.000083,72.813993,OZONE,5,36,18
India,Maharashtra,Mumbai,"Khindipada-Bhandup West, Mumbai - IITM",09-10-2025 07:00:00,19.1653323,72.922099,CO,18,30,21
India,Maharashtra,Mumbai,"Kurla, Mumbai - MPCB",09-10-2025 07:00:00,19.0863,72.8888,PM2.5,53,84,68
India,Maharashtra,Mumbai,"Kurla, Mumbai - MPCB",09-10-2025 07:00:00,19.0863,72.8888,OZONE,27,29,28
India,Maharashtra,Mumbai,"Malad West, Mumbai - IITM",09-10-2025 07:00:00,19.19709,72.82204,SO2,3,6,4
India,Maharashtra,Mumbai,"Mazgaon, Mumbai - IITM",09-10-2025 07:00:00,18.96702,72.84214,PM10,80,125,95
India,Maharashtra,Mumbai,"Mindspace-Malad West, Mumbai - MPCB",09-10-2025 07:00:00,19.1878657,72.8304069,CO,40,40,40
India,Maharashtra,Nanded,"Sneh Nagar, Nanded - MPCB",09-10-2025 07:00:00,19.173852,77.296291,OZONE,2,67,25
India,Maharashtra,Nashik,"Gangapur Road, Nashik - MPCB",09-10-2025 07:00:00,20.0073285,73.7762427,SO2,1,7,3
India,Maharashtra,Nashik,"Hirawadi, Nashik - MPCB",09-10-2025 07:00:00,20.021503,73.813844,PM10,67,137,118
India,Maharashtra,Nashik,"Hirawadi, Nashik - MPCB",09-10-2025 07:00:00,20.021503,73.813844,OZONE,3,51,11
India,Maharashtra,Nashik,"Pandav Nagari, Nashik - MPCB",09-10-2025 07:00:00,19.9591346,73.7788008,PM10,30,113,91
India,Maharashtra,Mumbai,"Ghatkopar, Mumbai - BMC",09-10-2025 07:00:00,19.083694,72.920967,CO,2,24,22
India,Maharashtra,Mumbai,"Kandivali East, Mumbai - MPCB",09-10-2025 07:00:00,19.205800,72.868200,PM2.5,30,92,60
India,Maharashtra,Mumbai,"Kandivali West, Mumbai - BMC",09-10-2025 07:00:00,19.215859,72.831718,CO,4,20,17
India,Maharashtra,Mumbai,"Kherwadi_Bandra East, Mumbai - MPCB",09-10-2025 07:00:00,19.0632143,72.8456324,PM2.5,21,57,38
India,Maharashtra,Mumbai,"Bandra Kurla Complex, Mumbai - MPCB",09-10-2025 07:00:00,19.065931,72.862131,NH3,1,4,3
India,Maharashtra,Mumbai,"Borivali East, Mumbai - MPCB",09-10-2025 07:00:00,19.2243333,72.8658113,CO,2,4,2
India,Maharashtra,Mumbai,"Byculla, Mumbai - BMC",09-10-2025 07:00:00,18.9767,72.8380,PM10,41,86,55
India,Maharashtra,Mumbai,"Byculla, Mumbai - BMC",09-10-2025 07:00:00,18.9767,72.8380,OZONE,7,34,13
India,Maharashtra,Latur,"Sawe Wadi, Latur - MPCB",09-10-2025 07:00:00,18.39963,76.57452,SO2,1,6,4
India,Maharashtra,Mahad,"Kamble Tarf Birwadi, Mahad - MPCB",09-10-2025 07:00:00,18.1023399,73.4783687,PM2.5,34,75,52
India,Maharashtra,Mahad,"Kamble Tarf Birwadi, Mahad - MPCB",09-10-2025 07:00:00,18.1023399,73.4783687,NH3,3,6,5
India,Maharashtra,Nagpur,"Ram Nagar, Nagpur - MPCB",09-10-2025 07:00:00,21.143383,79.048912,SO2,3,19,8
India,Maharashtra,Navi Mumbai,"Kopripada-Vashi, Navi Mumbai - MPCB",09-10-2025 07:00:00,19.090337,73.014232,SO2,33,42,36
India,Maharashtra,Navi Mumbai,"Kopripada-Vashi, Navi Mumbai - MPCB",09-10-2025 07:00:00,19.090337,73.014232,CO,10,73,38
India,Maharashtra,Navi Mumbai,"Mahape, Navi Mumbai - MPCB",09-10-2025 07:00:00,19.1135051,73.008978,NH3,3,3,3
India,Maharashtra,Navi Mumbai,"Nerul, Navi Mumbai - MPCB",09-10-2025 07:00:00,19.008751,73.016620,PM2.5,37,151,76
India,Maharashtra,Navi Mumbai,"Nerul, Navi Mumbai - MPCB",09-10-2025 07:00:00,19.008751,73.016620,PM10,NA,NA,NA
India,Maharashtra,Navi Mumbai,"Nerul, Navi Mumbai - MPCB",09-10-2025 07:00:00,19.008751,73.016620,NO2,30,32,30
India,Maharashtra,Navi Mumbai,"Nerul, Navi Mumbai - MPCB",09-10-2025 07:00:00,19.008751,73.016620,SO2,NA,NA,NA
India,Maharashtra,Navi Mumbai,"Sanpada, Navi Mumbai - MPCB",09-10-2025 07:00:00,19.0575752,73.0151367,NH3,10,69,17
India,Maharashtra,Navi Mumbai,"Sector-2E Kalamboli, Navi Mumbai - MPCB",09-10-2025 07:00:00,19.02579,73.10297,NH3,1,7,3
India,Maharashtra,Navi Mumbai,"Tondare-Taloja, Navi Mumbai - MPCB",09-10-2025 07:00:00,19.0630,73.1209,SO2,2,4,4
India,Nagaland,Kohima,"PWD Junction, Kohima - NPCB",09-10-2025 07:00:00,25.6635413,94.0989878,CO,1,14,7
India,Odisha,Angul,"Hakimapada, Angul - OSPCB",09-10-2025 07:00:00,20.832874,85.104082,PM2.5,17,153,63
India,Odisha,Angul,"Hakimapada, Angul - OSPCB",09-10-2025 07:00:00,20.832874,85.104082,OZONE,3,35,3
India,Odisha,Balasore,"Kalidaspur, Balasore - OSPCB",09-10-2025 07:00:00,21.51161,86.89088,PM10,27,88,44
India,Odisha,Balasore,"Kalidaspur, Balasore - OSPCB",09-10-2025 07:00:00,21.51161,86.89088,SO2,4,5,4
India,Odisha,Barbil,"Forest Office, Barbil - OSPCB",09-10-2025 07:00:00,22.1166054,85.3945546,NO2,22,52,34
India,Odisha,Barbil,"Forest Office, Barbil - OSPCB",09-10-2025 07:00:00,22.1166054,85.3945546,NH3,1,2,2
India,Odisha,Barbil,"Forest Office, Barbil - OSPCB",09-10-2025 07:00:00,22.1166054,85.3945546,CO,28,64,36
India,Odisha,Baripada,"Meher Colony, Baripada - OSPCB",09-10-2025 07:00:00,21.941841,86.728318,PM10,44,76,62
India,Maharashtra,Parbhani,"Masoom Colony, Parbhani - MPCB",09-10-2025 07:00:00,19.265594,76.761463,CO,8,14,12
India,Maharashtra,Pimpri-Chinchwad,"Gavalinagar, Pimpri Chinchwad - MPCB",09-10-2025 07:00:00,18.63673,73.82487,SO2,2,3,3
India,Maharashtra,Pimpri-Chinchwad,"Gavalinagar, Pimpri Chinchwad - MPCB",09-10-2025 07:00:00,18.63673,73.82487,CO,14,33,22
India,Maharashtra,Pimpri-Chinchwad,"Park Street Wakad, Pimpri Chinchwad - MPCB",09-10-2025 07:00:00,18.59051,73.77946,PM10,46,146,96
India,Maharashtra,Pimpri-Chinchwad,"Park Street Wakad, Pimpri Chinchwad - MPCB",09-10-2025 07:00:00,18.59051,73.77946,CO,10,78,29
India,Maharashtra,Pimpri-Chinchwad,"Savta Mali Nagar, Pimpri-Chinchwad - IITM",09-10-2025 07:00:00,18.614767,73.799516,PM2.5,17,65,41
India,Maharashtra,Pimpri-Chinchwad,"Savta Mali Nagar, Pimpri-Chinchwad - IITM",09-10-2025 07:00:00,18.614767,73.799516,PM10,39,87,67
India,Maharashtra,Pimpri-Chinchwad,"Savta Mali Nagar, Pimpri-Chinchwad - IITM",09-10-2025 07:00:00,18.614767,73.799516,NO2,19,64,38
India,Maharashtra,Thane,"Upvan Fort, Thane - MPCB",09-10-2025 07:00:00,19.222279,72.957979,OZONE,2,27,8
India,Maharashtra,Virar,"Bolinj, Virar - MPCB",09-10-2025 07:00:00,19.4458210,72.7988231,NH3,1,3,2
India,Maharashtra,Virar,"Bolinj, Virar - MPCB",09-10-2025 07:00:00,19.4458210,72.7988231,CO,10,46,19
India,Meghalaya,Shillong,"JN Stadium, Shillong - Meghalaya PCB",09-10-2025 07:00:00,25.5803419,91.8942571,PM2.5,NA,NA,NA
India,Meghalaya,Shillong,"JN Stadium, Shillong - Meghalaya PCB",09-10-2025 07:00:00,25.5803419,91.8942571,NH3,5,8,6
India,Meghalaya,Shillong,"JN Stadium, Shillong - Meghalaya PCB",09-10-2025 07:00:00,25.5803419,91.8942571,CO,12,71,29
India,Meghalaya,Shillong,"Lumpyngngad, Shillong - Meghalaya PCB",09-10-2025 07:00:00,25.5586,91.8985,PM2.5,1,17,5
India,Maharashtra,Pune,"Savitribai Phule Pune University, Pune - MPCB",09-10-2025 07:00:00,18.547056,73.826908,NH3,1,2,1
India,Maharashtra,Sangli,"Vijay Nagar, Sangli - MPCB",09-10-2025 07:00:00, 16.5038,74.3623,NH3,NA,NA,NA
India,Maharashtra,Solapur,"Dnyaneshwar Nagar, Solapur - MPCB",09-10-2025 07:00:00,17.6336264,75.9132495,NO2,3,43,18
India,Maharashtra,Solapur,"Dnyaneshwar Nagar, Solapur - MPCB",09-10-2025 07:00:00,17.6336264,75.9132495,OZONE,11,33,18
India,Maharashtra,Thane,"Kasarvadavali, Thane - MPCB",09-10-2025 07:00:00,19.26777,72.97182,PM2.5,28,51,38
India,Odisha,Bhubaneswar,"Lingraj Mandir, Bhubaneswar - OSPCB",09-10-2025 07:00:00,20.240790,85.836784,OZONE,3,47,5
India,Odisha,Bhubaneswar,"Patia, Bhubaneswar - OSPCB",09-10-2025 07:00:00,20.34652,85.81630,NO2,12,36,21
India,Odisha,Bileipada,"Tata Township, Bileipada - OSPCB",09-10-2025 07:00:00,22.06156703,85.47409613,NO2,6,7,6
India,Odisha,Bileipada,"Tata Township, Bileipada - OSPCB",09-10-2025 07:00:00,22.06156703,85.47409613,SO2,61,118,79
India,Odisha,Bileipada,"Tata Township, Bileipada - OSPCB",09-10-2025 07:00:00,22.06156703,85.47409613,CO,27,94,45
India,Odisha,Bileipada,"Tata Township, Bileipada - OSPCB",09-10-2025 07:00:00,22.06156703,85.47409613,OZONE,11,14,11
India,Odisha,Rourkela,"Raghunathpali, Rourkela - OSPCB",09-10-2025 07:00:00,22.220833,84.809444,SO2,4,8,6
India,Odisha,Rourkela,"Raghunathpali, Rourkela - OSPCB",09-10-2025 07:00:00,22.220833,84.809444,CO,26,67,42
India,Odisha,Talcher,"Talcher Coalfields,Talcher - OSPCB",09-10-2025 07:00:00,20.9360711,85.1707021,NO2,39,101,59
India,Punjab,Amritsar,"Golden Temple, Amritsar - PPCB",09-10-2025 07:00:00,31.620000,74.876512,NO2,3,18,7
India,Maharashtra,Pune,"Dhankawadi, Pune - IITM",09-10-2025 07:00:00,18.459883,73.852193,PM2.5,37,68,51
India,Maharashtra,Pune,"Hadapsar, Pune - IITM",09-10-2025 07:00:00,18.501793,73.927532,CO,6,18,10
India,Maharashtra,Pune,"Savitribai Phule Pune University, Pune - MPCB",09-10-2025 07:00:00,18.547056,73.826908,PM10,70,347,105
India,Odisha,Keonjhar,"Jagamohanpur, Keonjhar - OSPCB",09-10-2025 07:00:00,21.643900,85.599355,CO,4,103,49
India,Odisha,Nayagarh,"Dabuna, Nayagarh - OSPCB",09-10-2025 07:00:00,21.847279,85.416905,PM2.5,20,78,39
India,Odisha,Nayagarh,"Dabuna, Nayagarh - OSPCB",09-10-2025 07:00:00,21.847279,85.416905,PM10,24,115,45
India,Punjab,Ludhiana,"Punjab Agricultural University, Ludhiana - PPCB",09-10-2025 07:00:00,30.9028,75.8086,PM10,57,79,70
India,Punjab,Patiala,"Model Town, Patiala - PPCB",09-10-2025 07:00:00,30.349388,76.366642,PM10,22,51,32
India,Punjab,Patiala,"Model Town, Patiala - PPCB",09-10-2025 07:00:00,30.349388,76.366642,NH3,6,7,6
India,Punjab,Patiala,"Model Town, Patiala - PPCB",09-10-2025 07:00:00,30.349388,76.366642,SO2,1,8,2
India,Punjab,Rupnagar,"Ratanpura, Rupnagar - Ambuja Cements",09-10-2025 07:00:00,31.0325454,76.5623046,NO2,2,8,6
India,Rajasthan,Ajmer,"Civil Lines,  Ajmer - RSPCB",09-10-2025 07:00:00,26.470859,74.646594,PM2.5,17,187,105
India,Rajasthan,Alwar,"Moti Doongri, Alwar - RSPCB",09-10-2025 07:00:00,27.554793,76.611536,PM2.5,39,62,47
India,Rajasthan,Jaisalmer,"Sadar Bazar, Jaisalmer - RSPCB",09-10-2025 07:00:00,26.912329,70.909168,CO,12,32,15
India,Rajasthan,Jalore,"Mudtra Sili, Jalore - RSPCB",09-10-2025 07:00:00,25.344694,72.626208,SO2,3,6,4
India,Rajasthan,Jalore,"Mudtra Sili, Jalore - RSPCB",09-10-2025 07:00:00,25.344694,72.626208,CO,15,114,23
India,Rajasthan,Jhalawar,"Rajlaxmi Nagar, Jhalawar - RSPCB",09-10-2025 07:00:00,24.588397,76.172782,CO,19,109,26
India,Rajasthan,Jhunjhunu,"Indra Nagar, Jhunjhunu - RSPCB",09-10-2025 07:00:00,28.108988,75.386577,NH3,3,7,5
India,Rajasthan,Jhunjhunu,"Indra Nagar, Jhunjhunu - RSPCB",09-10-2025 07:00:00,28.108988,75.386577,SO2,2,3,2
India,Rajasthan,Jodhpur,"Collectorate, Jodhpur - RSPCB",09-10-2025 07:00:00,26.268249,73.0193853,NH3,7,13,11
India,Rajasthan,Jodhpur,"Collectorate, Jodhpur - RSPCB",09-10-2025 07:00:00,26.268249,73.0193853,SO2,2,11,6
India,Rajasthan,Alwar,"Moti Doongri, Alwar - RSPCB",09-10-2025 07:00:00,27.554793,76.611536,SO2,16,37,28
India,Rajasthan,Banswara,"Rati Talai, Banswara - RSPCB",09-10-2025 07:00:00,23.555190,74.440010,NH3,1,4,1
India,Rajasthan,Baran,"Bamboliya, Baran - RSPCB",09-10-2025 07:00:00,25.106006,76.469948,PM2.5,23,320,74
India,Rajasthan,Baran,"Bamboliya, Baran - RSPCB",09-10-2025 07:00:00,25.106006,76.469948,OZONE,34,97,65
India,Rajasthan,Barmer,"Railway Colony, Barmer - RSPCB",09-10-2025 07:00:00,25.747299,71.393989,PM2.5,20,277,100
India,Rajasthan,Barmer,"Railway Colony, Barmer - RSPCB",09-10-2025 07:00:00,25.747299,71.393989,NO2,7,76,19
India,Rajasthan,Barmer,"Railway Colony, Barmer - RSPCB",09-10-2025 07:00:00,25.747299,71.393989,NH3,3,5,4
India,Rajasthan,Jodhpur,"Digari Kalan, Jodhpur - RSPCB",09-10-2025 07:00:00,26.295810,73.082283,PM10,39,379,168
India,Rajasthan,Jodhpur,"Digari Kalan, Jodhpur - RSPCB",09-10-2025 07:00:00,26.295810,73.082283,NH3,3,4,3
India,Rajasthan,Jodhpur,"Jhalamand, Jodhpur - RSPCB",09-10-2025 07:00:00,26.215415,73.070156,PM2.5,33,257,109
India,Rajasthan,Jodhpur,"Mandor, Jodhpur - RSPCB",09-10-2025 07:00:00,26.358805,73.047444,PM2.5,42,316,131
India,Rajasthan,Jodhpur,"Mandor, Jodhpur - RSPCB",09-10-2025 07:00:00,26.358805,73.047444,NH3,2,3,2
India,Rajasthan,Jodhpur,"Mandor, Jodhpur - RSPCB",09-10-2025 07:00:00,26.358805,73.047444,SO2,1,2,2
India,Rajasthan,Jodhpur,"Samrat Ashok Udhyan, Jodhpur - RSPCB",09-10-2025 07:00:00,26.253384,72.976571,OZONE,22,79,42
India,Rajasthan,Bundi,"New Colony, Bundi - RSPCB",09-10-2025 07:00:00,25.435774,75.644272,NH3,1,3,2
India,Rajasthan,Churu,"Subash Chowk, Churu - RSPCB",09-10-2025 07:00:00,28.296139,74.961696,PM2.5,15,76,41
India,Rajasthan,Churu,"Subash Chowk, Churu - RSPCB",09-10-2025 07:00:00,28.296139,74.961696,PM10,27,178,102
India,Rajasthan,Churu,"Subash Chowk, Churu - RSPCB",09-10-2025 07:00:00,28.296139,74.961696,SO2,1,5,3
India,Rajasthan,Dausa,"Khatikan Mohalla, Dausa - RSPCB",09-10-2025 07:00:00,26.895552,76.334753,NO2,17,81,33
India,Rajasthan,Dausa,"Khatikan Mohalla, Dausa - RSPCB",09-10-2025 07:00:00,26.895552,76.334753,NH3,6,13,9
India,Rajasthan,Dungarpur,"Bhoiwada, Dungarpur - RSPCB",09-10-2025 07:00:00,23.837789,73.714926,PM2.5,38,342,156
India,Rajasthan,Dungarpur,"Bhoiwada, Dungarpur - RSPCB",09-10-2025 07:00:00,23.837789,73.714926,SO2,2,4,4
India,Rajasthan,Dungarpur,"Bhoiwada, Dungarpur - RSPCB",09-10-2025 07:00:00,23.837789,73.714926,OZONE,1,58,10
India,Rajasthan,Jaipur,"Adarsh Nagar, Jaipur - RSPCB",09-10-2025 07:00:00,26.902909,75.836858,NH3,9,18,14
India,Rajasthan,Jaipur,"Adarsh Nagar, Jaipur - RSPCB",09-10-2025 07:00:00,26.902909,75.836858,SO2,17,24,20
India,Rajasthan,Jaipur,"Mansarovar Sector-12, Jaipur - RSPCB",09-10-2025 07:00:00,26.843698,75.766894,SO2,1,10,2
India,Rajasthan,Bhilwara,"Pratap Nagar, Bhilwara - RSPCB",09-10-2025 07:00:00,25.339605,74.618883,NO2,6,36,19
India,Rajasthan,Bhiwadi,"RIICO Ind. Area III, Bhiwadi - RSPCB",09-10-2025 07:00:00,28.194909,76.862296,SO2,2,10,6
India,Rajasthan,Bikaner,"MM Ground, Bikaner - RSPCB",09-10-2025 07:00:00,28.018792,73.292658,NH3,4,8,7
India,Rajasthan,Bundi,"New Colony, Bundi - RSPCB",09-10-2025 07:00:00,25.435774,75.644272,PM10,83,133,107
India,Rajasthan,Jaipur,"RIICO Sitapura, Jaipur - RSPCB",09-10-2025 07:00:00,26.786682,75.827928,NO2,14,95,47
India,Rajasthan,Jaipur,"Sector-2 Murlipura, Jaipur - RSPCB",09-10-2025 07:00:00,26.960669,75.771817,PM10,112,260,187
India,Rajasthan,Jaipur,"Sector-2 Murlipura, Jaipur - RSPCB",09-10-2025 07:00:00,26.960669,75.771817,NH3,6,9,7
India,Rajasthan,Jaipur,"Sector-2 Murlipura, Jaipur - RSPCB",09-10-2025 07:00:00,26.960669,75.771817,CO,65,97,72
India,Punjab,Khanna,"Kalal Majra, Khanna - PPCB",09-10-2025 07:00:00,30.736056 ,76.209694,PM10,14,74,40
India,Punjab,Khanna,"Kalal Majra, Khanna - PPCB",09-10-2025 07:00:00,30.736056 ,76.209694,NO2,26,31,28
India,Punjab,Khanna,"Kalal Majra, Khanna - PPCB",09-10-2025 07:00:00,30.736056 ,76.209694,SO2,5,7,6
India,Rajasthan,Pali,"Indira Colony Vistar, Pali - RSPCB",09-10-2025 07:00:00,25.771061, 73.340227,SO2,8,14,10
India,Rajasthan,Pratapgarh,"Pragati Nagar, Pratapgarh - RSPCB",09-10-2025 07:00:00,24.041198,74.780702,NO2,4,23,10
India,Rajasthan,Rajsamand,"Dhoinda, Rajsamand - RSPCB",09-10-2025 07:00:00,25.036360,73.883502,PM10,52,159,92
India,Rajasthan,Rajsamand,"Dhoinda, Rajsamand - RSPCB",09-10-2025 07:00:00,25.036360,73.883502,CO,6,74,25
India,Rajasthan,Sawai Madhopur,"Sahu Nagar, Sawai Madhopur - RSPCB",09-10-2025 07:00:00,26.031443,76.359327,NO2,9,20,12
India,Rajasthan,Sawai Madhopur,"Sahu Nagar, Sawai Madhopur - RSPCB",09-10-2025 07:00:00,26.031443,76.359327,OZONE,1,58,8
India,Rajasthan,Sikar,"Radhakishan Pura, Sikar - RSPCB",09-10-2025 07:00:00,27.608912,75.153302,PM10,34,278,151
India,Rajasthan,Sikar,"Radhakishan Pura, Sikar - RSPCB",09-10-2025 07:00:00,27.608912,75.153302,OZONE,6,98,18
India,TamilNadu,Perundurai,"SIPCOT Industrial Park, Perundurai - TNPCB",09-10-2025 07:00:00,11.258242,77.552761,OZONE,13,43,39
India,TamilNadu,Pudukottai,"SIPCOT Nathampannai, Pudukottai - TNPCB",09-10-2025 07:00:00,10.423417,78.784889,PM2.5,20,146,55
India,TamilNadu,Pudukottai,"SIPCOT Nathampannai, Pudukottai - TNPCB",09-10-2025 07:00:00,10.423417,78.784889,NH3,2,3,3
India,TamilNadu,Ramanathapuram,"Chalai Bazaar, Ramanathapuram - TNPCB",09-10-2025 07:00:00,9.36399,78.831977,PM2.5,33,57,42
India,TamilNadu,Ramanathapuram,"Chalai Bazaar, Ramanathapuram - TNPCB",09-10-2025 07:00:00,9.36399,78.831977,PM10,34,70,48
India,TamilNadu,Ramanathapuram,"Chalai Bazaar, Ramanathapuram - TNPCB",09-10-2025 07:00:00,9.36399,78.831977,NO2,14,14,14
India,TamilNadu,Ramanathapuram,"Chalai Bazaar, Ramanathapuram - TNPCB",09-10-2025 07:00:00,9.36399,78.831977,CO,26,31,27
India,TamilNadu,Thanjavur,"Parisutham Nagar, Thanjavur - TNPCB",09-10-2025 07:00:00,10.7654824,79.1389968,PM2.5,27,315,104
India,Rajasthan,Sirohi,"Vedhaynath Colony, Sirohi - RSPCB",09-10-2025 07:00:00,24.885261,72.857549,CO,25,64,36
India,Rajasthan,Sri Ganganagar,"Old City, Sri Ganganagar - RSPCB",09-10-2025 07:00:00,29.931624,73.864511,NO2,6,20,11
India,Rajasthan,Tonk,"Shastri Nagar, Tonk - RSPCB",09-10-2025 07:00:00,26.159933,75.780517,PM10,115,365,225
India,Rajasthan,Tonk,"Shastri Nagar, Tonk - RSPCB",09-10-2025 07:00:00,26.159933,75.780517,OZONE,15,46,22
India,Rajasthan,Udaipur,"Ashok Nagar, Udaipur - RSPCB",09-10-2025 07:00:00,24.5886166,73.6321397,CO,5,82,24
India,Sikkim,Gangtok,"Zero Point GICI, Gangtok - SSPCB",09-10-2025 07:00:00,27.338530,88.614099,PM10,15,47,30
India,Sikkim,Gangtok,"Zero Point GICI, Gangtok - SSPCB",09-10-2025 07:00:00,27.338530,88.614099,NH3,1,60,4
India,TamilNadu,Cuddalore,"Kudikadu, Cuddalore - TNPCB",09-10-2025 07:00:00,11.6829898,79.7532099,NH3,3,3,3
India,TamilNadu,Cuddalore,"Kudikadu, Cuddalore - TNPCB",09-10-2025 07:00:00,11.6829898,79.7532099,SO2,18,18,18
India,TamilNadu,Dindigul,"Mendonsa Colony, Dindigul - TNPCB",09-10-2025 07:00:00,10.358535,77.984321,NO2,9,16,13
India,TamilNadu,Gummidipoondi,"Anthoni Pillai Nagar, Gummidipoondi - TNPCB",09-10-2025 07:00:00,13.4127,80.1081,NO2,1,18,6
India,TamilNadu,Hosur,"SIPCOT Phase-1, Hosur - TNPCB",09-10-2025 07:00:00,12.746998,77.813811,PM2.5,22,60,40
India,TamilNadu,Hosur,"SIPCOT Phase-1, Hosur - TNPCB",09-10-2025 07:00:00,12.746998,77.813811,NO2,1,2,1
India,TamilNadu,Karur,"Kamadenu Nagar, Karur - TNPCB",09-10-2025 07:00:00,10.967820,78.080882,PM2.5,8,76,26
India,TamilNadu,Madurai,"Uchapatti, Madurai - TNPCB",09-10-2025 07:00:00,9.865935,78.022669,SO2,13,26,14
India,TamilNadu,Nagapattinam,"Velippalayam, Nagapattinam - TNPCB",09-10-2025 07:00:00,10.798548,79.838212,PM2.5,NA,NA,NA
India,TamilNadu,Nagapattinam,"Velippalayam, Nagapattinam - TNPCB",09-10-2025 07:00:00,10.798548,79.838212,NH3,2,2,2
India,TamilNadu,Namakkal,"Ponnusamy Nagar, Namakkal - TNPCB",09-10-2025 07:00:00,11.273992,78.163545,NO2,9,10,10
India,TamilNadu,Namakkal,"Ponnusamy Nagar, Namakkal - TNPCB",09-10-2025 07:00:00,11.273992,78.163545,SO2,8,8,8
India,TamilNadu,Ooty,"Bombay Castel, Ooty - TNPCB",09-10-2025 07:00:00,11.4068288,76.7138973,SO2,16,29,21
India,TamilNadu,Chennai,"Manali, Chennai - CPCB",09-10-2025 07:00:00,13.164544,80.26285,PM2.5,NA,NA,NA
India,TamilNadu,Chennai,"Manali, Chennai - CPCB",09-10-2025 07:00:00,13.164544,80.26285,CO,11,48,34
India,TamilNadu,Chennai,"Velachery Res. Area, Chennai - CPCB",09-10-2025 07:00:00,13.0052189,80.2398125,CO,40,58,57
India,TamilNadu,Coimbatore,"PSG College of Arts and Science, Coimbatore - TNPCB",09-10-2025 07:00:00,11.0328,77.0349,NO2,9,11,10
India,TamilNadu,Coimbatore,"SIDCO Kurichi, Coimbatore - TNPCB",09-10-2025 07:00:00,10.942451,76.978996,SO2,19,21,20
India,TamilNadu,Coimbatore,"SIDCO Kurichi, Coimbatore - TNPCB",09-10-2025 07:00:00,10.942451,76.978996,OZONE,NA,NA,NA
India,TamilNadu,Ariyalur,"Keelapalur, Ariyalur - TNPCB",09-10-2025 07:00:00,11.06825,79.07033,SO2,12,13,13
India,TamilNadu,Chengalpattu,"Crescent University, Chengalpattu - TNPCB",09-10-2025 07:00:00,12.8777316,80.0834807,PM2.5,38,77,61
India,TamilNadu,Chennai,"Kodungaiyur, Chennai - TNPCB",09-10-2025 07:00:00,13.1278,80.2642,SO2,1,5,2
India,TamilNadu,Palkalaiperur,"Bharathidasan University, Palkalaiperur - TNPCB",09-10-2025 07:00:00,10.681158,78.741746,SO2,5,6,6
India,TamilNadu,Perundurai,"SIPCOT Industrial Park, Perundurai - TNPCB",09-10-2025 07:00:00,11.258242,77.552761,NH3,2,4,3
India,Rajasthan,Kota,"Dhanmandi, Kota - RSPCB",09-10-2025 07:00:00,25.164090,75.858137,OZONE,14,76,27
India,Rajasthan,Kota,"Nayapura, Kota - RSPCB",09-10-2025 07:00:00,25.196024,75.855668,CO,30,46,44
India,Rajasthan,Kota,"Nayapura, Kota - RSPCB",09-10-2025 07:00:00,25.196024,75.855668,OZONE,18,78,32
India,Telangana,Hyderabad,"ICRISAT Patancheru, Hyderabad - TSPCB",09-10-2025 07:00:00,17.518400,78.278777,SO2,8,16,12
India,Telangana,Hyderabad,"ICRISAT Patancheru, Hyderabad - TSPCB",09-10-2025 07:00:00,17.518400,78.278777,OZONE,5,37,11
India,Telangana,Hyderabad,"IDA Pashamylaram, Hyderabad - TSPCB",09-10-2025 07:00:00,17.5316895,78.218939,PM2.5,71,187,134
India,Telangana,Hyderabad,"IDA Pashamylaram, Hyderabad - TSPCB",09-10-2025 07:00:00,17.5316895,78.218939,OZONE,9,13,10
India,Telangana,Hyderabad,"Kokapet, Hyderabad - TSPCB",09-10-2025 07:00:00,17.393559,78.339194,PM10,63,110,78
India,Telangana,Hyderabad,"Kokapet, Hyderabad - TSPCB",09-10-2025 07:00:00,17.393559,78.339194,NO2,10,14,12
India,Telangana,Hyderabad,"Kokapet, Hyderabad - TSPCB",09-10-2025 07:00:00,17.393559,78.339194,CO,18,28,28
India,Telangana,Hyderabad,"Kompally Municipal Office, Hyderabad - TSPCB",09-10-2025 07:00:00,17.544899,78.486949,PM2.5,53,61,56
India,Telangana,Hyderabad,"Kompally Municipal Office, Hyderabad - TSPCB",09-10-2025 07:00:00,17.544899,78.486949,NO2,12,14,14
India,Telangana,Hyderabad,"Kompally Municipal Office, Hyderabad - TSPCB",09-10-2025 07:00:00,17.544899,78.486949,CO,9,16,14
India,Telangana,Hyderabad,"New Malakpet, Hyderabad - TSPCB",09-10-2025 07:00:00,17.37206,78.50864,PM10,63,73,66
India,Telangana,Hyderabad,"New Malakpet, Hyderabad - TSPCB",09-10-2025 07:00:00,17.37206,78.50864,SO2,16,17,16
India,Telangana,Hyderabad,"New Malakpet, Hyderabad - TSPCB",09-10-2025 07:00:00,17.37206,78.50864,CO,22,33,31
India,Telangana,Hyderabad,"New Malakpet, Hyderabad - TSPCB",09-10-2025 07:00:00,17.37206,78.50864,OZONE,18,33,24
India,TamilNadu,Thanjavur,"Parisutham Nagar, Thanjavur - TNPCB",09-10-2025 07:00:00,10.7654824,79.1389968,OZONE,15,24,19
India,TamilNadu,Thoothukudi,"Meelavittan, Thoothukudi - TNPCB",09-10-2025 07:00:00,8.816428 ,78.099039,PM10,30,500,141
India,TamilNadu,Tiruchirappalli,"St Joseph College, Tiruchirappalli - TNPCB",09-10-2025 07:00:00,10.830158,78.691849,NH3,1,2,2
India,TamilNadu,Tiruchirappalli,"St Joseph College, Tiruchirappalli - TNPCB",09-10-2025 07:00:00,10.830158,78.691849,CO,5,12,7
India,TamilNadu,Tirunelveli,"Municipal Corporation Office, Tirunelveli - TNPCB",09-10-2025 07:00:00,8.728442,77.6962,NO2,4,9,7
India,TamilNadu,Tirunelveli,"Municipal Corporation Office, Tirunelveli - TNPCB",09-10-2025 07:00:00,8.728442,77.6962,NH3,1,1,1
India,TamilNadu,Tirunelveli,"Municipal Corporation Office, Tirunelveli - TNPCB",09-10-2025 07:00:00,8.728442,77.6962,OZONE,6,7,6
India,TamilNadu,Tirupur,"Kumaran College, Tirupur - TNPCB",09-10-2025 07:00:00,11.0973603,77.3228673,PM2.5,NA,NA,NA
India,TamilNadu,Tirupur,"Kumaran College, Tirupur - TNPCB",09-10-2025 07:00:00,11.0973603,77.3228673,NO2,NA,NA,NA
India,Uttar_Pradesh,Ghaziabad,"Loni, Ghaziabad - UPPCB",09-10-2025 07:00:00,28.757294,77.278792,NO2,24,51,36
India,Uttar_Pradesh,Ghaziabad,"Sanjay Nagar, Ghaziabad - UPPCB",09-10-2025 07:00:00,28.685382,77.453839,NO2,44,88,58
India,Uttar_Pradesh,Ghaziabad,"Vasundhara, Ghaziabad - UPPCB",09-10-2025 07:00:00,28.6603346,77.3572563,PM10,81,161,117
India,Uttar_Pradesh,Ghaziabad,"Vasundhara, Ghaziabad - UPPCB",09-10-2025 07:00:00,28.6603346,77.3572563,SO2,10,19,15
India,Uttar_Pradesh,Gorakhpur,"Madan Mohan Malaviya University of Technology, Gorakhpur - UPPCB",09-10-2025 07:00:00,26.730136,83.433859,PM2.5,NA,NA,NA
India,Uttar_Pradesh,Greater Noida,"Knowledge Park - III, Greater Noida - UPPCB",09-10-2025 07:00:00,28.47272,77.482000,OZONE,18,95,19
India,Uttar_Pradesh,Greater Noida,"Knowledge Park - V, Greater Noida - UPPCB",09-10-2025 07:00:00,28.557054,77.453663,CO,29,96,47
India,Uttar_Pradesh,Jhansi,"Shivaji Nagar, Jhansi - UPPCB",09-10-2025 07:00:00,25.4547,78.6039,PM10,48,229,147
India,Uttar_Pradesh,Jhansi,"Shivaji Nagar, Jhansi - UPPCB",09-10-2025 07:00:00,25.4547,78.6039,NO2,6,6,6
India,Uttar_Pradesh,Jhansi,"Shivaji Nagar, Jhansi - UPPCB",09-10-2025 07:00:00,25.4547,78.6039,NH3,4,4,4
India,Uttar_Pradesh,Jhansi,"Shivaji Nagar, Jhansi - UPPCB",09-10-2025 07:00:00,25.4547,78.6039,OZONE,2,17,9
India,Uttar_Pradesh,Kanpur,"FTI Kidwai Nagar, Kanpur - UPPCB",09-10-2025 07:00:00,26.428282,80.327067,SO2,17,19,18
India,Uttar_Pradesh,Kanpur,"NSI Kalyanpur, Kanpur - UPPCB",09-10-2025 07:00:00,26.509954,80.249612,NO2,12,12,12
India,Uttar_Pradesh,Agra,"Manoharpur, Agra - UPPCB",09-10-2025 07:00:00,27.23711,78.01936,PM2.5,19,85,56
India,Uttar_Pradesh,Agra,"Manoharpur, Agra - UPPCB",09-10-2025 07:00:00,27.23711,78.01936,SO2,35,56,41
India,Uttar_Pradesh,Agra,"Rohta, Agra - UPPCB",09-10-2025 07:00:00,27.106972,78.000111,SO2,13,18,16
India,Uttar_Pradesh,Agra,"Sector-3B Avas Vikas Colony, Agra - UPPCB",09-10-2025 07:00:00,27.19412,77.96237,PM2.5,62,166,99
India,Uttar_Pradesh,Agra,"Sector-3B Avas Vikas Colony, Agra - UPPCB",09-10-2025 07:00:00,27.19412,77.96237,NO2,25,29,27
India,Uttar_Pradesh,Agra,"Sector-3B Avas Vikas Colony, Agra - UPPCB",09-10-2025 07:00:00,27.19412,77.96237,OZONE,8,12,8
India,Uttar_Pradesh,Agra,"Shastripuram, Agra - UPPCB",09-10-2025 07:00:00,27.19862,77.92066,NO2,33,34,34
India,Uttar_Pradesh,Agra,"Shastripuram, Agra - UPPCB",09-10-2025 07:00:00,27.19862,77.92066,SO2,13,20,16
India,Uttar_Pradesh,Baghpat,"Sardar Patel Inter College, Baghpat - UPPCB",09-10-2025 07:00:00,28.964949,77.278761,PM10,NA,NA,NA
India,Uttar_Pradesh,Bareilly,"Rajendra Nagar, Bareilly - UPPCB",09-10-2025 07:00:00,28.38910936,79.42963708,PM10,57,147,102
India,Uttar_Pradesh,Bareilly,"Rajendra Nagar, Bareilly - UPPCB",09-10-2025 07:00:00,28.38910936,79.42963708,NO2,9,10,9
India,Uttar_Pradesh,Bulandshahr,"Yamunapuram, Bulandshahr - UPPCB",09-10-2025 07:00:00,28.406963,77.849831,CO,20,49,42
India,Uttar_Pradesh,Firozabad,"Vibhab Nagar, Firozabad - UPPCB",09-10-2025 07:00:00,27.1594,78.3953,CO,8,13,12
India,Uttar_Pradesh,Firozabad,"Vibhab Nagar, Firozabad - UPPCB",09-10-2025 07:00:00,27.1594,78.3953,OZONE,6,12,7
India,Uttar_Pradesh,Ghaziabad,"Indirapuram, Ghaziabad - UPPCB",09-10-2025 07:00:00,28.646233,77.358075,PM2.5,62,158,84
India,Telangana,Hyderabad,"Sanathnagar, Hyderabad - TSPCB",09-10-2025 07:00:00,17.4559458,78.4332152,OZONE,13,16,14
India,Tripura,Agartala,"Bardowali, Agartala - Tripura SPCB",09-10-2025 07:00:00,23.8175497,91.2726974,PM2.5,11,50,28
India,Tripura,Agartala,"Bardowali, Agartala - Tripura SPCB",09-10-2025 07:00:00,23.8175497,91.2726974,OZONE,6,15,7
India,TamilNadu,Virudhunagar,"Collectorate Office, Virudhunagar - TNPCB",09-10-2025 07:00:00,9.559382,77.948828,SO2,17,32,20
India,Telangana,Hyderabad,"Bollaram Industrial Area, Hyderabad - TSPCB",09-10-2025 07:00:00,17.540891,78.358528,NO2,27,45,36
India,Uttar_Pradesh,Lucknow,"Kukrail Picnic Spot-1, Lucknow - UPPCB",09-10-2025 07:00:00,26.90723,80.98579,OZONE,33,74,47
India,Uttar_Pradesh,Lucknow,"Lalbagh, Lucknow - CPCB",09-10-2025 07:00:00,26.8458805,80.9365541,PM2.5,53,283,141
India,Uttar_Pradesh,Lucknow,"Talkatora District Industries Center, Lucknow - CPCB",09-10-2025 07:00:00,26.83399722,80.8917361,NO2,55,65,59
India,Uttar_Pradesh,Meerut,"Ganga Nagar, Meerut - UPPCB",09-10-2025 07:00:00,28.999264,77.7590354,NH3,2,3,3
India,Uttar_Pradesh,Meerut,"Ganga Nagar, Meerut - UPPCB",09-10-2025 07:00:00,28.999264,77.7590354,OZONE,25,126,30
India,Uttar_Pradesh,Meerut,"Jai Bhim Nagar, Meerut - UPPCB",09-10-2025 07:00:00,28.9535882,77.7622941,NH3,2,7,4
India,Uttar_Pradesh,Meerut,"Jai Bhim Nagar, Meerut - UPPCB",09-10-2025 07:00:00,28.9535882,77.7622941,SO2,8,22,13
India,Uttar_Pradesh,Meerut,"Jai Bhim Nagar, Meerut - UPPCB",09-10-2025 07:00:00,28.9535882,77.7622941,CO,21,54,34
India,Uttar_Pradesh,Meerut,"Pallavpuram Phase 2, Meerut - UPPCB",09-10-2025 07:00:00,29.063510,77.709723,PM10,58,147,97
India,Uttar_Pradesh,Meerut,"Pallavpuram Phase 2, Meerut - UPPCB",09-10-2025 07:00:00,29.063510,77.709723,NH3,3,7,4
India,West_Bengal,Durgapur,"Mahishkapur Road_B-Zone, Durgapur - WBPCB",09-10-2025 07:00:00,23.567923,87.306843,SO2,9,15,10
India,West_Bengal,Durgapur,"PCBL Residential Complex, Durgapur - WBPCB",09-10-2025 07:00:00,23.5087640,87.3544400,PM2.5,NA,NA,NA
India,West_Bengal,Durgapur,"PCBL Residential Complex, Durgapur - WBPCB",09-10-2025 07:00:00,23.5087640,87.3544400,NH3,3,4,3
India,West_Bengal,Durgapur,"Womens College_City Center, Durgapur - WBPCB (Formerly known as Sidhu Kanhu Indoor Stadium)",09-10-2025 07:00:00,23.549395,87.300496,OZONE,2,45,4
India,West_Bengal,Haldia,"Priyambada Housing Estate, Haldia - WBPCB",09-10-2025 07:00:00,22.06047,88.109737,PM2.5,39,91,58
India,West_Bengal,Haldia,"Priyambada Housing Estate, Haldia - WBPCB",09-10-2025 07:00:00,22.06047,88.109737,NH3,4,8,6
India,West_Bengal,Howrah,"Belur Math, Howrah - WBPCB",09-10-2025 07:00:00,22.629801,88.352017,PM10,73,122,95
India,West_Bengal,Howrah,"Belur Math, Howrah - WBPCB",09-10-2025 07:00:00,22.629801,88.352017,NH3,8,10,10
India,West_Bengal,Howrah,"Belur Math, Howrah - WBPCB",09-10-2025 07:00:00,22.629801,88.352017,OZONE,32,52,33
India,Uttar_Pradesh,Khurja,"Kalindi Kunj, Khurja - UPPCB",09-10-2025 07:00:00,28.2348927,77.8683002,PM2.5,16,64,44
India,Uttar_Pradesh,Khurja,"Kalindi Kunj, Khurja - UPPCB",09-10-2025 07:00:00,28.2348927,77.8683002,SO2,14,15,15
India,Uttar_Pradesh,Khurja,"Kalindi Kunj, Khurja - UPPCB",09-10-2025 07:00:00,28.2348927,77.8683002,CO,22,45,36
India,Uttar_Pradesh,Khurja,"Kalindi Kunj, Khurja - UPPCB",09-10-2025 07:00:00,28.2348927,77.8683002,OZONE,4,5,5
India,Uttar_Pradesh,Lucknow,"B R Ambedkar University, Lucknow - UPPCB",09-10-2025 07:00:00,26.766433,80.927299,PM10,62,162,89
India,Uttar_Pradesh,Lucknow,"B R Ambedkar University, Lucknow - UPPCB",09-10-2025 07:00:00,26.766433,80.927299,NO2,11,12,12
India,Uttar_Pradesh,Lucknow,"B R Ambedkar University, Lucknow - UPPCB",09-10-2025 07:00:00,26.766433,80.927299,NH3,4,4,4
India,Uttar_Pradesh,Lucknow,"Gomti Nagar, Lucknow - UPPCB",09-10-2025 07:00:00,26.868120,81.005119,OZONE,35,45,36
India,Uttar_Pradesh,Lucknow,"Kendriya Vidyalaya, Lucknow - CPCB",09-10-2025 07:00:00,26.906111,80.948222,CO,22,79,42
India,Uttar_Pradesh,Lucknow,"Kukrail Picnic Spot-1, Lucknow - UPPCB",09-10-2025 07:00:00,26.90723,80.98579,NH3,4,4,4
India,Uttar_Pradesh,Meerut,"Pallavpuram Phase 2, Meerut - UPPCB",09-10-2025 07:00:00,29.063510,77.709723,CO,18,42,29
India,Uttar_Pradesh,Moradabad,"Buddhi Vihar, Moradabad - UPPCB",09-10-2025 07:00:00,28.83526,78.74460,PM2.5,8,88,48
India,Uttar_Pradesh,Moradabad,"Buddhi Vihar, Moradabad - UPPCB",09-10-2025 07:00:00,28.83526,78.74460,CO,34,44,40
India,Uttar_Pradesh,Moradabad,"Buddhi Vihar, Moradabad - UPPCB",09-10-2025 07:00:00,28.83526,78.74460,OZONE,14,42,25
India,Uttar_Pradesh,Moradabad,"Eco Herbal Park, Moradabad - UPPCB",09-10-2025 07:00:00,28.840739,78.697531,PM10,12,112,66
India,Uttar_Pradesh,Moradabad,"Employment Office, Moradabad - UPPCB",09-10-2025 07:00:00,28.88528,78.73880,PM2.5,24,108,71
India,Uttar_Pradesh,Moradabad,"Employment Office, Moradabad - UPPCB",09-10-2025 07:00:00,28.88528,78.73880,NO2,15,16,16
India,Uttar_Pradesh,Moradabad,"Jigar Colony, Moradabad - UPPCB",09-10-2025 07:00:00,28.856664,78.772638,PM2.5,22,88,56
India,Uttar_Pradesh,Moradabad,"Jigar Colony, Moradabad - UPPCB",09-10-2025 07:00:00,28.856664,78.772638,PM10,26,103,65
India,Uttar_Pradesh,Varanasi,"IESD Banaras Hindu University, Varanasi - UPPCB",09-10-2025 07:00:00,25.262326,82.995408,CO,4,30,19
India,Uttar_Pradesh,Vrindavan,"Omex Eternity, Vrindavan - UPPCB",09-10-2025 07:00:00,27.5714090,77.6557570,CO,12,24,22
India,Uttarakhand,Dehradun,"Doon University, Dehradun - UKPCB",09-10-2025 07:00:00,30.269444,78.044167,SO2,NA,NA,NA
India,Uttarakhand,Kashipur,"Govt. Girls Inter College, Kashipur - UKPCB",09-10-2025 07:00:00,29.2124114,78.9611753,PM10,15,102,50
India,Uttarakhand,Kashipur,"Govt. Girls Inter College, Kashipur - UKPCB",09-10-2025 07:00:00,29.2124114,78.9611753,NO2,8,43,17
India,Uttarakhand,Rishikesh,"Shivaji Nagar, Rishikesh - UKPCB",09-10-2025 07:00:00,30.075911,78.2859547,OZONE,10,48,13
India,West_Bengal,Howrah,"Dasnagar, Howrah - WBPCB",09-10-2025 07:00:00,22.6025571,88.3105664,NO2,13,38,26
India,West_Bengal,Howrah,"Dasnagar, Howrah - WBPCB",09-10-2025 07:00:00,22.6025571,88.3105664,SO2,10,11,11
India,West_Bengal,Howrah,"Dasnagar, Howrah - WBPCB",09-10-2025 07:00:00,22.6025571,88.3105664,OZONE,1,73,1
India,West_Bengal,Howrah,"Ghusuri, Howrah - WBPCB",09-10-2025 07:00:00,22.611968,88.347422,OZONE,9,72,20
India,West_Bengal,Kolkata,"Ballygunge, Kolkata - WBPCB",09-10-2025 07:00:00,22.5367507,88.3638022,CO,12,50,31
India,West_Bengal,Kolkata,"Bidhannagar, Kolkata - WBPCB",09-10-2025 07:00:00,22.58157048,88.41002457,NH3,4,6,5
India,Uttar_Pradesh,Muzaffarnagar,"New Mandi, Muzaffarnagar - UPPCB",09-10-2025 07:00:00,29.4723508,77.7194031,PM10,38,110,81
India,Uttar_Pradesh,Noida,"Sector - 125, Noida - UPPCB",09-10-2025 07:00:00,28.5447608,77.3231257,PM10,86,224,127
India,Uttar_Pradesh,Noida,"Sector-1, Noida - UPPCB",09-10-2025 07:00:00,28.5898,77.3101,OZONE,7,169,11
India,Uttar_Pradesh,Noida,"Sector-116, Noida - UPPCB",09-10-2025 07:00:00,28.569230,77.393848,PM10,75,134,103
India,Uttar_Pradesh,Noida,"Sector-116, Noida - UPPCB",09-10-2025 07:00:00,28.569230,77.393848,SO2,6,23,16
India,Uttar_Pradesh,Prayagraj,"Motilal Nehru NIT, Prayagraj - UPPCB",09-10-2025 07:00:00,25.494,81.863,OZONE,10,22,11
India,Uttar_Pradesh,Prayagraj,"Nagar Nigam, Prayagraj - UPPCB",09-10-2025 07:00:00,25.44919916 ,81.82735986 ,NO2,5,5,5
India,Uttar_Pradesh,Prayagraj,"Nagar Nigam, Prayagraj - UPPCB",09-10-2025 07:00:00,25.44919916 ,81.82735986 ,SO2,8,33,20
India,Uttar_Pradesh,Varanasi,"Bhelupur, Varanasi - UPPCB",09-10-2025 07:00:00,25.301778,82.996789,PM10,44,159,88
India,West_Bengal,Asansol,"Evelyn Lodge, Asansol - WBPCB",09-10-2025 07:00:00,23.6979360,86.9443950,PM2.5,24,76,55
India,West_Bengal,Asansol,"Evelyn Lodge, Asansol - WBPCB",09-10-2025 07:00:00,23.6979360,86.9443950,CO,2,35,29
India,West_Bengal,Asansol,"Evelyn Lodge, Asansol - WBPCB",09-10-2025 07:00:00,23.6979360,86.9443950,OZONE,2,42,9
India,West_Bengal,Asansol,"Mahabir Colliery, Asansol - WBPCB",09-10-2025 07:00:00,23.6181830,87.1057180,PM2.5,32,92,60
India,West_Bengal,Asansol,"Mahabir Colliery, Asansol - WBPCB",09-10-2025 07:00:00,23.6181830,87.1057180,SO2,5,12,7
India,West_Bengal,Kolkata,"Fort William, Kolkata - WBPCB",09-10-2025 07:00:00,22.556640,88.342674,NO2,12,21,19
India,West_Bengal,Kolkata,"Fort William, Kolkata - WBPCB",09-10-2025 07:00:00,22.556640,88.342674,SO2,8,9,8
India,West_Bengal,Kolkata,"Jadavpur, Kolkata - WBPCB",09-10-2025 07:00:00,22.49929,88.36917,PM10,56,109,85
India,West_Bengal,Kolkata,"Jadavpur, Kolkata - WBPCB",09-10-2025 07:00:00,22.49929,88.36917,NH3,8,21,16
India,West_Bengal,Kolkata,"Rabindra Bharati University, Kolkata - WBPCB",09-10-2025 07:00:00,22.627847,88.380669,PM2.5,46,70,59
India,West_Bengal,Kolkata,"Rabindra Bharati University, Kolkata - WBPCB",09-10-2025 07:00:00,22.627847,88.380669,NO2,30,79,56
India,West_Bengal,Kolkata,"Rabindra Bharati University, Kolkata - WBPCB",09-10-2025 07:00:00,22.627847,88.380669,NH3,7,9,8
India,West_Bengal,Kolkata,"Rabindra Sarobar, Kolkata - WBPCB",09-10-2025 07:00:00,22.51106,88.35142,SO2,3,6,5
India,West_Bengal,Kolkata,"Rabindra Sarobar, Kolkata - WBPCB",09-10-2025 07:00:00,22.51106,88.35142,CO,20,48,37
India,West_Bengal,Kolkata,"Victoria, Kolkata - WBPCB",09-10-2025 07:00:00,22.5448082,88.3403691,PM10,NA,NA,NA
India,West_Bengal,Siliguri,"Ward-32 Bapupara, Siliguri - WBPCB",09-10-2025 07:00:00,26.6879226,88.4152495,PM2.5,29,66,40
India,West_Bengal,Siliguri,"Ward-32 Bapupara, Siliguri - WBPCB",09-10-2025 07:00:00,26.6879226,88.4152495,NH3,11,11,11
India,West_Bengal,Siliguri,"Ward-32 Bapupara, Siliguri - WBPCB",09-10-2025 07:00:00,26.6879226,88.4152495,SO2,10,12,11
India,West_Bengal,Siliguri,"Ward-32 Bapupara, Siliguri - WBPCB",09-10-2025 07:00:00,26.6879226,88.4152495,CO,26,77,60
India,Bihar,Arrah,"New DM Office, Arrah - BSPCB",09-10-2025 07:00:00,25.5626095,84.663264,PM2.5,28,30,29
India,Bihar,Aurangabad,"Gurdeo Nagar, Aurangabad - BSPCB",09-10-2025 07:00:00,24.75746,84.366208,NH3,1,2,1
India,Bihar,Aurangabad,"Gurdeo Nagar, Aurangabad - BSPCB",09-10-2025 07:00:00,24.75746,84.366208,SO2,4,16,13
India,Bihar,Begusarai,"Lohiyanagar, Begusarai - BSPCB",09-10-2025 07:00:00,25.42742023,86.13886079,NH3,3,4,4
India,Bihar,Begusarai,"Lohiyanagar, Begusarai - BSPCB",09-10-2025 07:00:00,25.42742023,86.13886079,SO2,23,46,33
India,Bihar,Bettiah,"Kamalnath Nagar, Bettiah - BSPCB",09-10-2025 07:00:00,26.80365,84.51954,PM10,52,123,75
India,Bihar,Bettiah,"Kamalnath Nagar, Bettiah - BSPCB",09-10-2025 07:00:00,26.80365,84.51954,NO2,5,14,8
India,Bihar,Bettiah,"Kamalnath Nagar, Bettiah - BSPCB",09-10-2025 07:00:00,26.80365,84.51954,CO,46,87,55
India,Bihar,Bettiah,"Kamalnath Nagar, Bettiah - BSPCB",09-10-2025 07:00:00,26.80365,84.51954,OZONE,22,28,23
India,Bihar,Bhagalpur,"DM Office_Kachari Chowk, Bhagalpur - BSPCB",09-10-2025 07:00:00,25.251013,86.989001,OZONE,7,29,15
India,Arunachal_Pradesh,Naharlagun,"Naharlagun, Naharlagun - APSPCB",09-10-2025 07:00:00,27.103358,93.679645,PM2.5,13,66,34
India,Arunachal_Pradesh,Naharlagun,"Naharlagun, Naharlagun - APSPCB",09-10-2025 07:00:00,27.103358,93.679645,OZONE,5,5,5
India,Assam,Byrnihat,"Central Academy for SFS, Byrnihat - PCBA",09-10-2025 07:00:00,26.071318,91.87488,PM2.5,NA,NA,NA
India,Assam,Byrnihat,"Central Academy for SFS, Byrnihat - PCBA",09-10-2025 07:00:00,26.071318,91.87488,NO2,NA,NA,NA
India,Assam,Byrnihat,"Central Academy for SFS, Byrnihat - PCBA",09-10-2025 07:00:00,26.071318,91.87488,SO2,NA,NA,NA
India,Assam,Guwahati,"IITG, Guwahati - PCBA",09-10-2025 07:00:00,26.2028636,91.70046436,PM2.5,NA,NA,NA
India,Assam,Guwahati,"IITG, Guwahati - PCBA",09-10-2025 07:00:00,26.2028636,91.70046436,NH3,5,5,5
India,Assam,Guwahati,"IITG, Guwahati - PCBA",09-10-2025 07:00:00,26.2028636,91.70046436,CO,5,14,9
India,Assam,Guwahati,"LGBI Airport, Guwahati - PCBA",09-10-2025 07:00:00,26.10887,91.589544,OZONE,14,17,16
India,Assam,Guwahati,"Pan Bazaar, Guwahati - PCBA",09-10-2025 07:00:00,26.187500,91.744194,PM10,12,37,23
India,Assam,Guwahati,"Pan Bazaar, Guwahati - PCBA",09-10-2025 07:00:00,26.187500,91.744194,OZONE,18,18,18
India,Andhra_Pradesh,Amaravati,"Secretariat, Amaravati - APPCB",09-10-2025 07:00:00,16.5150833,80.5181667,CO,2,22,17
India,Andhra_Pradesh,Anantapur,"Gulzarpet, Anantapur - APPCB",09-10-2025 07:00:00,14.675886,77.593027,SO2,10,16,14
India,Andhra_Pradesh,Chittoor,"Gangineni Cheruvu, Chittoor - APPCB",09-10-2025 07:00:00,13.204880,79.097889,PM2.5,67,339,224
India,Andhra_Pradesh,Chittoor,"Gangineni Cheruvu, Chittoor - APPCB",09-10-2025 07:00:00,13.204880,79.097889,SO2,10,11,11
India,Andhra_Pradesh,Rajamahendravaram,"Anand Kala Kshetram, Rajamahendravaram - APPCB",09-10-2025 07:00:00,16.9872867,81.7363176,PM10,27,79,47
India,Andhra_Pradesh,Rajamahendravaram,"Anand Kala Kshetram, Rajamahendravaram - APPCB",09-10-2025 07:00:00,16.9872867,81.7363176,OZONE,9,11,10
India,Andhra_Pradesh,Tirumala,"Toll Gate, Tirumala - APPCB",09-10-2025 07:00:00,13.67,79.35,PM2.5,40,98,61
India,Andhra_Pradesh,Tirumala,"Toll Gate, Tirumala - APPCB",09-10-2025 07:00:00,13.67,79.35,NO2,11,46,20
India,Bihar,Munger,"Town Hall, Munger - BSPCB",09-10-2025 07:00:00,25.376776,86.471523,SO2,18,22,20
India,Bihar,Munger,"Town Hall, Munger - BSPCB",09-10-2025 07:00:00,25.376776,86.471523,OZONE,10,20,10
India,Bihar,Muzaffarpur,"MIT-Daudpur Kothi, Muzaffarpur - BSPCB",09-10-2025 07:00:00,26.1403345,85.3650192,SO2,18,33,22
India,Bihar,Patna,"DRM Office Danapur, Patna - BSPCB",09-10-2025 07:00:00,25.586562,85.043586,PM10,23,194,94
India,Bihar,Patna,"DRM Office Danapur, Patna - BSPCB",09-10-2025 07:00:00,25.586562,85.043586,OZONE,8,70,11
India,Bihar,Patna,"Govt. High School Shikarpur, Patna - BSPCB",09-10-2025 07:00:00,25.592539,85.227158,OZONE,8,13,10
India,Bihar,Patna,"IGSC Planetarium Complex, Patna - BSPCB",09-10-2025 07:00:00,25.610369,85.132568,NO2,1,15,10
India,Bihar,Patna,"IGSC Planetarium Complex, Patna - BSPCB",09-10-2025 07:00:00,25.610369,85.132568,SO2,1,24,16
India,Andhra_Pradesh,Tirupati,"Vaikuntapuram, Tirupati - APPCB",09-10-2025 07:00:00,13.615387,79.409230,PM2.5,73,232,124
India,Andhra_Pradesh,Tirupati,"Vaikuntapuram, Tirupati - APPCB",09-10-2025 07:00:00,13.615387,79.409230,CO,39,53,45
India,Andhra_Pradesh,Tirupati,"Vaikuntapuram, Tirupati - APPCB",09-10-2025 07:00:00,13.615387,79.409230,OZONE,33,36,34
India,Andhra_Pradesh,Vijayawada,"HB Colony, Vijayawada - APPCB",09-10-2025 07:00:00,16.536107,80.594233,PM2.5,59,84,67
India,Andhra_Pradesh,Vijayawada,"HB Colony, Vijayawada - APPCB",09-10-2025 07:00:00,16.536107,80.594233,CO,32,41,32
India,Andhra_Pradesh,Vijayawada,"Rajiv Gandhi Park, Vijayawada - APPCB",09-10-2025 07:00:00,16.509717,80.612222,PM10,44,85,66
India,Andhra_Pradesh,Vijayawada,"Rajiv Gandhi Park, Vijayawada - APPCB",09-10-2025 07:00:00,16.509717,80.612222,NH3,3,5,4
India,Andhra_Pradesh,Vijayawada,"Rajiv Gandhi Park, Vijayawada - APPCB",09-10-2025 07:00:00,16.509717,80.612222,SO2,10,21,14
India,Bihar,Hajipur,"Industrial Area, Hajipur - BSPCB",09-10-2025 07:00:00,25.697189,85.245900,NO2,5,23,9
India,Bihar,Katihar,"Mirchaibari, Katihar - BSPCB",09-10-2025 07:00:00,25.560083,87.553265,PM2.5,32,42,35
India,Bihar,Katihar,"Mirchaibari, Katihar - BSPCB",09-10-2025 07:00:00,25.560083,87.553265,PM10,30,32,30
India,Bihar,Manguraha,"Forest Rest House, Manguraha - BSPCB",09-10-2025 07:00:00,27.308328,84.531742,PM2.5,32,210,50
India,Bihar,Manguraha,"Forest Rest House, Manguraha - BSPCB",09-10-2025 07:00:00,27.308328,84.531742,SO2,16,19,18
India,Bihar,Manguraha,"Forest Rest House, Manguraha - BSPCB",09-10-2025 07:00:00,27.308328,84.531742,OZONE,8,18,11
India,Bihar,Motihari,"Gandak Colony, Motihari - BSPCB",09-10-2025 07:00:00,26.63086,84.90051,SO2,NA,NA,NA
India,Bihar,Patna,"IGSC Planetarium Complex, Patna - BSPCB",09-10-2025 07:00:00,25.610369,85.132568,CO,34,63,62
India,Bihar,Patna,"Muradpur, Patna - BSPCB",09-10-2025 07:00:00,25.619651,85.147382,PM2.5,47,56,53
India,Bihar,Patna,"Muradpur, Patna - BSPCB",09-10-2025 07:00:00,25.619651,85.147382,CO,35,60,51
India,Bihar,Purnia,"Mariam Nagar, Purnia - BSPCB",09-10-2025 07:00:00,25.366336,87.117468,CO,6,27,19
India,Bihar,Rajgir,"Dangi Tola, Rajgir - BSPCB",09-10-2025 07:00:00,25.03280,85.41948,PM2.5,60,68,64
India,Bihar,Rajgir,"Dangi Tola, Rajgir - BSPCB",09-10-2025 07:00:00,25.03280,85.41948,PM10,83,95,89
India,Bihar,Rajgir,"Dangi Tola, Rajgir - BSPCB",09-10-2025 07:00:00,25.03280,85.41948,CO,81,96,90
India,Assam,Guwahati,"Railway Colony, Guwahati - PCBA",09-10-2025 07:00:00,26.181742,91.78063,CO,25,60,38
India,Assam,Nagaon,"Christianpatty, Nagaon - PCBA",09-10-2025 07:00:00,26.349082,92.68449,CO,10,55,40
India,Assam,Nalbari,"Bata Chowk, Nalbari - PCBA",09-10-2025 07:00:00,26.446912,91.439057,CO,9,28,28
India,Assam,Silchar,"Tarapur, Silchar - PCBA",09-10-2025 07:00:00,24.82827,92.79525,SO2,5,6,5
India,Assam,Sivasagar,"Girls College, Sivasagar - PCBA",09-10-2025 07:00:00,26.987634,94.636574,PM10,18,28,22
India,Andaman and Nicobar,Sri Vijaya Puram,"Police Line, Sri Vijaya Puram - ANPCC",09-10-2025 07:00:00,11.654054,92.734055,PM2.5,NA,NA,NA
India,Andaman and Nicobar,Sri Vijaya Puram,"Police Line, Sri Vijaya Puram - ANPCC",09-10-2025 07:00:00,11.654054,92.734055,OZONE,NA,NA,NA
India,Bihar,Buxar,"Charitra Van, Buxar - BSPCB",09-10-2025 07:00:00,25.567520,83.966379,SO2,1,13,6
India,Delhi,Delhi,"CRRI Mathura Road, Delhi - IMD",09-10-2025 07:00:00,28.5512005,77.2735737,PM10,71,315,134
India,Delhi,Delhi,"Chandni Chowk, Delhi - IITM",09-10-2025 07:00:00,28.656756,77.227234,NH3,8,10,9
India,Delhi,Delhi,"Chandni Chowk, Delhi - IITM",09-10-2025 07:00:00,28.656756,77.227234,CO,44,62,48
India,Delhi,Delhi,"DTU, Delhi - CPCB",09-10-2025 07:00:00,28.7500499,77.1112615,PM2.5,20,54,35
India,Delhi,Delhi,"DTU, Delhi - CPCB",09-10-2025 07:00:00,28.7500499,77.1112615,CO,8,17,14
India,Delhi,Delhi,"Dr. Karni Singh Shooting Range, Delhi - DPCC",09-10-2025 07:00:00,28.498571,77.264840,PM10,64,116,93
India,Delhi,Delhi,"Dwarka-Sector 8, Delhi - DPCC ",09-10-2025 07:00:00,28.5710274,77.0719006,PM2.5,48,85,67
India,Bihar,Saharsa,"Police Line, Saharsa - BSPCB",09-10-2025 07:00:00,25.892357,86.590325,NO2,NA,NA,NA
India,Bihar,Saharsa,"Police Line, Saharsa - BSPCB",09-10-2025 07:00:00,25.892357,86.590325,SO2,NA,NA,NA
India,Bihar,Saharsa,"Police Line, Saharsa - BSPCB",09-10-2025 07:00:00,25.892357,86.590325,CO,NA,NA,NA
India,Bihar,Saharsa,"Police Line, Saharsa - BSPCB",09-10-2025 07:00:00,25.892357,86.590325,OZONE,NA,NA,NA
India,Bihar,Samastipur,"DM Office_Kasipur, Samastipur - BSPCB",09-10-2025 07:00:00,25.859655,85.77944,NH3,2,2,2
India,Bihar,Siwan,"Chitragupta Nagar, Siwan - BSPCB",09-10-2025 07:00:00,26.2271665,84.3570427,SO2,4,5,5
India,Chandigarh,Chandigarh,"Sector 22, Chandigarh - CPCC",09-10-2025 07:00:00,30.735567,76.775714,NH3,8,11,9
India,Chandigarh,Chandigarh,"Sector 22, Chandigarh - CPCC",09-10-2025 07:00:00,30.735567,76.775714,SO2,4,10,6
India,Chhattisgarh,Chhal,"Nawapara SECL Colony, Chhal - CECB",09-10-2025 07:00:00,22.118125,83.140608,OZONE,NA,NA,NA
India,Chhattisgarh,Korba,"Rampur, Korba - CECB",09-10-2025 07:00:00,22.368195,82.746431,PM10,13,16,14
India,Chhattisgarh,Korba,"Rampur, Korba - CECB",09-10-2025 07:00:00,22.368195,82.746431,NO2,3,14,7
India,Chhattisgarh,Milupara,"Govt. Higher Secondary School, Milupara - CECB",09-10-2025 07:00:00,22.1910172,83.5197009,NH3,1,2,1
India,Chhattisgarh,Raipur,"AIIMS, Raipur - CECB",09-10-2025 07:00:00,21.258815,81.578979,NO2,7,19,12
India,Chhattisgarh,Raipur,"AIIMS, Raipur - CECB",09-10-2025 07:00:00,21.258815,81.578979,SO2,10,17,13
India,Delhi,Delhi,"IGI Airport (T3), Delhi - IMD",09-10-2025 07:00:00,28.5627763,77.1180053,PM2.5,34,74,53
India,Delhi,Delhi,"IHBAS, Dilshad Garden, Delhi - CPCB",09-10-2025 07:00:00,28.6811736,77.3025234,CO,8,78,62
India,Delhi,Delhi,"IHBAS, Dilshad Garden, Delhi - CPCB",09-10-2025 07:00:00,28.6811736,77.3025234,OZONE,10,19,11
India,Delhi,Delhi,"ITO, Delhi - CPCB",09-10-2025 07:00:00,28.628624,77.241060,PM10,48,102,69
India,Delhi,Delhi,"Jawaharlal Nehru Stadium, Delhi - DPCC",09-10-2025 07:00:00,28.580280,77.233829,PM10,64,141,98
India,Delhi,Delhi,"Jawaharlal Nehru Stadium, Delhi - DPCC",09-10-2025 07:00:00,28.580280,77.233829,OZONE,2,24,4
India,Delhi,Delhi,"Lodhi Road, Delhi - IMD",09-10-2025 07:00:00,28.5918245,77.2273074,OZONE,13,115,16
India,Delhi,Delhi,"Major Dhyan Chand National Stadium, Delhi - DPCC",09-10-2025 07:00:00,28.611281,77.237738,NO2,20,91,48
India,Delhi,Delhi,"Mandir Marg, Delhi - DPCC",09-10-2025 07:00:00,28.636429,77.201067,PM2.5,32,75,50
India,Delhi,Delhi,"Mundka, Delhi - DPCC",09-10-2025 07:00:00,28.684678,77.076574,NH3,5,8,6
India,Delhi,Delhi,"NSIT Dwarka, Delhi - CPCB",09-10-2025 07:00:00,28.60909,77.0325413,SO2,10,21,16
India,Chhattisgarh,Bhilai,"32Bungalows, Bhilai - CECB",09-10-2025 07:00:00,21.194815,81.314770,NO2,3,29,13
India,Chhattisgarh,Bhilai,"Civic Center, Bhilai - Bhilai Steel Plant",09-10-2025 07:00:00,21.185571,81.343175,PM10,35,76,49
India,Chhattisgarh,Bhilai,"Hathkhoj, Bhilai - CECB",09-10-2025 07:00:00,21.224231,81.408350,NH3,3,5,4
India,Chhattisgarh,Bilaspur,"Mangala, Bilaspur - NTPC",09-10-2025 07:00:00,22.08815,82.13737,PM2.5,22,63,39
India,Chhattisgarh,Bilaspur,"Mangala, Bilaspur - NTPC",09-10-2025 07:00:00,22.08815,82.13737,PM10,30,84,52
India,Chhattisgarh,Raipur,"Krishak Nagar, Raipur - CECB",09-10-2025 07:00:00,21.237755,81.705301,CO,8,17,16
India,Chhattisgarh,Raipur,"Siltara Phase-II, Raipur - CECB",09-10-2025 07:00:00,21.371751,81.664929,NO2,11,38,19
India,Chhattisgarh,Raipur,"Siltara Phase-II, Raipur - CECB",09-10-2025 07:00:00,21.371751,81.664929,NH3,3,3,3
India,Chhattisgarh,Raipur,"Siltara Phase-II, Raipur - CECB",09-10-2025 07:00:00,21.371751,81.664929,SO2,3,13,8
India,Delhi,Delhi,"Alipur, Delhi - DPCC",09-10-2025 07:00:00,28.815329,77.153010,NH3,3,4,3
India,Delhi,Delhi,"Aya Nagar, Delhi - IMD",09-10-2025 07:00:00,28.4706914,77.1099364,CO,25,45,39
India,Delhi,Delhi,"Bawana, Delhi - DPCC",09-10-2025 07:00:00,28.776200,77.051074,PM2.5,57,103,79
India,Delhi,Delhi,"Burari Crossing, Delhi - IMD",09-10-2025 07:00:00,28.7256504,77.2011573,PM10,12,102,67
India,Delhi,Delhi,"Anand Vihar, Delhi - DPCC",09-10-2025 07:00:00,28.647622,77.3158090,NO2,19,47,30
India,Delhi,Delhi,"Anand Vihar, Delhi - DPCC",09-10-2025 07:00:00,28.647622,77.3158090,OZONE,9,33,11
India,Delhi,Delhi,"Ashok Vihar, Delhi - DPCC",09-10-2025 07:00:00,28.695381,77.181665,CO,26,68,35
India,Gujarat,Surat,"Science Center, Surat - SMC",09-10-2025 07:00:00,21.170046,72.795405,CO,36,42,40
India,Gujarat,Vapi,"Phase-1 GIDC, Vapi - GPCB",09-10-2025 07:00:00,20.362421,72.918013,OZONE,2,2,2
India,Haryana,Bahadurgarh,"Arya Nagar, Bahadurgarh - HSPCB",09-10-2025 07:00:00,28.6701,76.9254,PM10,67,142,96
India,Haryana,Bahadurgarh,"Arya Nagar, Bahadurgarh - HSPCB",09-10-2025 07:00:00,28.6701,76.9254,CO,24,52,45
India,Haryana,Ballabgarh,"Nathu Colony, Ballabgarh - HSPCB",09-10-2025 07:00:00,28.3419248,77.319699,PM2.5,36,143,78
India,Haryana,Ballabgarh,"Nathu Colony, Ballabgarh - HSPCB",09-10-2025 07:00:00,28.3419248,77.319699,NO2,19,20,20
India,Haryana,Ballabgarh,"Nathu Colony, Ballabgarh - HSPCB",09-10-2025 07:00:00,28.3419248,77.319699,CO,48,166,50
India,Haryana,Charkhi Dadri,"Mini Secretariat, Charkhi Dadri - HSPCB",09-10-2025 07:00:00,28.593883,76.270653,PM10,4,108,55
India,Haryana,Charkhi Dadri,"Mini Secretariat, Charkhi Dadri - HSPCB",09-10-2025 07:00:00,28.593883,76.270653,NH3,5,8,6
India,Delhi,Delhi,"Najafgarh, Delhi - DPCC",09-10-2025 07:00:00,28.570173,76.933762,OZONE,6,47,8
India,Delhi,Delhi,"Narela, Delhi - DPCC",09-10-2025 07:00:00,28.822836,77.101981,PM2.5,40,92,58
India,Delhi,Delhi,"Narela, Delhi - DPCC",09-10-2025 07:00:00,28.822836,77.101981,PM10,48,108,68
India,Delhi,Delhi,"Narela, Delhi - DPCC",09-10-2025 07:00:00,28.822836,77.101981,NO2,12,36,21
India,Delhi,Delhi,"Narela, Delhi - DPCC",09-10-2025 07:00:00,28.822836,77.101981,SO2,4,8,5
India,Delhi,Delhi,"Nehru Nagar, Delhi - DPCC",09-10-2025 07:00:00,28.567890,77.250515,NO2,23,68,37
India,Delhi,Delhi,"North Campus, DU, Delhi - IMD",09-10-2025 07:00:00,28.6573814,77.1585447,NO2,30,65,42
India,Delhi,Delhi,"North Campus, DU, Delhi - IMD",09-10-2025 07:00:00,28.6573814,77.1585447,OZONE,7,126,11
India,Delhi,Delhi,"Okhla Phase-2, Delhi - DPCC",09-10-2025 07:00:00,28.530785,77.271255,PM2.5,52,97,65
India,Delhi,Delhi,"Okhla Phase-2, Delhi - DPCC",09-10-2025 07:00:00,28.530785,77.271255,PM10,84,146,108
India,Delhi,Delhi,"Rohini, Delhi - DPCC",09-10-2025 07:00:00,28.732528,77.119920,NO2,6,26,12
India,Delhi,Delhi,"Shadipur, Delhi - CPCB",09-10-2025 07:00:00,28.6514781,77.1473105,NO2,30,60,41
India,Delhi,Delhi,"Shadipur, Delhi - CPCB",09-10-2025 07:00:00,28.6514781,77.1473105,SO2,8,17,12
India,Delhi,Delhi,"Sirifort, Delhi - CPCB",09-10-2025 07:00:00,28.5504249,77.2159377,PM2.5,31,60,46
India,Delhi,Delhi,"Sonia Vihar, Delhi - DPCC",09-10-2025 07:00:00,28.710508,77.249485,PM10,42,118,78
India,Delhi,Delhi,"Sonia Vihar, Delhi - DPCC",09-10-2025 07:00:00,28.710508,77.249485,NO2,18,43,28
India,Delhi,Delhi,"Sonia Vihar, Delhi - DPCC",09-10-2025 07:00:00,28.710508,77.249485,CO,43,78,54
India,Delhi,Delhi,"Sri Aurobindo Marg, Delhi - DPCC",09-10-2025 07:00:00,28.531346,77.190156,PM10,58,117,73
India,Delhi,Delhi,"Sri Aurobindo Marg, Delhi - DPCC",09-10-2025 07:00:00,28.531346,77.190156,SO2,1,16,5
India,Delhi,Delhi,"Okhla Phase-2, Delhi - DPCC",09-10-2025 07:00:00,28.530785,77.271255,OZONE,3,128,7
India,Delhi,Delhi,"Patparganj, Delhi - DPCC",09-10-2025 07:00:00,28.623763,77.287209,PM2.5,47,193,76
India,Delhi,Delhi,"Punjabi Bagh, Delhi - DPCC",09-10-2025 07:00:00,28.674045,77.131023,PM2.5,25,93,63
India,Delhi,Delhi,"Punjabi Bagh, Delhi - DPCC",09-10-2025 07:00:00,28.674045,77.131023,PM10,58,149,101
India,Delhi,Delhi,"Pusa, Delhi - DPCC",09-10-2025 07:00:00,28.639652,77.146275,PM2.5,60,163,85
India,Delhi,Delhi,"Pusa, Delhi - IMD",09-10-2025 07:00:00,28.636110,77.173332,OZONE,5,88,12
India,Delhi,Delhi,"R K Puram, Delhi - DPCC",09-10-2025 07:00:00,28.563262,77.186937,PM2.5,52,107,79
India,Delhi,Delhi,"R K Puram, Delhi - DPCC",09-10-2025 07:00:00,28.563262,77.186937,NH3,3,5,4
India,Gujarat,Ahmedabad,"SVPI Airport Hansol, Ahmedabad - IITM",09-10-2025 07:00:00,23.076793,72.627874,SO2,2,32,8
India,Gujarat,Ankleshwar,"GIDC, Ankleshwar - GPCB",09-10-2025 07:00:00,21.613267,73.010555,CO,42,92,72
India,Gujarat,Gandhinagar,"GIFT City, Gandhinagar - IITM",09-10-2025 07:00:00,23.163798,72.677768,PM10,49,192,115
India,Gujarat,Gandhinagar,"GIFT City, Gandhinagar - IITM",09-10-2025 07:00:00,23.163798,72.677768,CO,3,38,20
India,Gujarat,Gandhinagar,"IIPHG Lekawada, Gandhinagar - IITM",09-10-2025 07:00:00,23.243639,72.68994,NH3,1,2,1
India,Gujarat,Gandhinagar,"IIPHG Lekawada, Gandhinagar - IITM",09-10-2025 07:00:00,23.243639,72.68994,SO2,7,12,8
India,Gujarat,Gandhinagar,"Sector-10, Gandhinagar - GPCB",09-10-2025 07:00:00,23.221714,72.654328,PM10,52,145,104
India,Haryana,Faridabad,"New Industrial Town, Faridabad - HSPCB",09-10-2025 07:00:00,28.39072,77.30059,PM10,109,118,113
India,Haryana,Faridabad,"New Industrial Town, Faridabad - HSPCB",09-10-2025 07:00:00,28.39072,77.30059,NO2,24,27,25
India,Haryana,Faridabad,"New Industrial Town, Faridabad - HSPCB",09-10-2025 07:00:00,28.39072,77.30059,NH3,11,12,11
India,Haryana,Faridabad,"Sector 11, Faridabad - HSPCB",09-10-2025 07:00:00,28.376058,77.315741,CO,48,52,50
India,Haryana,Faridabad,"Sector 30, Faridabad - HSPCB",09-10-2025 07:00:00,28.4417,77.3217,CO,59,66,62
India,Haryana,Gurugram,"Sector-51, Gurugram - HSPCB",09-10-2025 07:00:00,28.4227,77.0667,CO,4,46,28
India,Haryana,Gurugram,"Sector-51, Gurugram - HSPCB",09-10-2025 07:00:00,28.4227,77.0667,OZONE,21,26,23
India,Delhi,Delhi,"Vivek Vihar, Delhi - DPCC",09-10-2025 07:00:00,28.672342,77.315260,PM10,78,120,100
India,Delhi,Delhi,"Vivek Vihar, Delhi - DPCC",09-10-2025 07:00:00,28.672342,77.315260,CO,39,69,47
India,Delhi,Delhi,"Wazirpur, Delhi - DPCC",09-10-2025 07:00:00,28.699793,77.165453,SO2,1,16,9
India,Delhi,Delhi,"Wazirpur, Delhi - DPCC",09-10-2025 07:00:00,28.699793,77.165453,OZONE,5,75,13
India,Gujarat,Ahmedabad,"Chandkheda, Ahmedabad - IITM",09-10-2025 07:00:00,23.107969,72.574648,PM10,74,198,110
India,Gujarat,Ahmedabad,"Chandkheda, Ahmedabad - IITM",09-10-2025 07:00:00,23.107969,72.574648,NH3,6,14,10
India,Gujarat,Ahmedabad,"Gyaspur, Ahmedabad - IITM",09-10-2025 07:00:00,22.977134,72.553024,PM10,82,361,156
India,Gujarat,Ahmedabad,"Raikhad, Ahmedabad - IITM",09-10-2025 07:00:00,23.020509,72.579261,OZONE,1,40,3
India,Gujarat,Ahmedabad,"Rakhial, Ahmedabad - IITM",09-10-2025 07:00:00,23.016834,72.625775,NH3,1,7,4
India,Gujarat,Ahmedabad,"SAC ISRO Bopal, Ahmedabad - IITM",09-10-2025 07:00:00,23.041137,72.456691,PM10,18,124,48
India,Gujarat,Ahmedabad,"SAC ISRO Bopal, Ahmedabad - IITM",09-10-2025 07:00:00,23.041137,72.456691,NH3,2,3,3
India,Gujarat,Ahmedabad,"SAC ISRO Bopal, Ahmedabad - IITM",09-10-2025 07:00:00,23.041137,72.456691,SO2,1,2,2
India,Gujarat,Ahmedabad,"SAC ISRO Satellite, Ahmedabad - IITM",09-10-2025 07:00:00,23.023389,72.515201,NO2,12,117,46
India,Gujarat,Ahmedabad,"SAC ISRO Satellite, Ahmedabad - IITM",09-10-2025 07:00:00,23.023389,72.515201,OZONE,1,28,2
India,Haryana,Karnal,"Sector-12, Karnal - HSPCB",09-10-2025 07:00:00,29.695300,77.002700,NO2,12,12,12
India,Haryana,Kurukshetra,"Sector-7, Kurukshetra - HSPCB",09-10-2025 07:00:00,29.966942,76.875879,PM2.5,35,57,44
India,Haryana,Mandikhera,"General Hospital, Mandikhera - HSPCB",09-10-2025 07:00:00,27.9002,76.9938,CO,57,70,59
India,Haryana,Manesar,"Sector-2 IMT, Manesar - HSPCB",09-10-2025 07:00:00,28.360699,76.936090,PM2.5,30,73,51
India,Haryana,Narnaul,"Shastri Nagar, Narnaul - HSPCB",09-10-2025 07:00:00,28.060249,76.113115,PM2.5,93,171,114
India,Haryana,Narnaul,"Shastri Nagar, Narnaul - HSPCB",09-10-2025 07:00:00,28.060249,76.113115,OZONE,12,15,13
India,Haryana,Palwal,"Shyam Nagar, Palwal - HSPCB",09-10-2025 07:00:00,28.1485564,77.3320667,PM10,54,58,56
India,Haryana,Panchgaon,"Amity University, Panchgaon - IITM",09-10-2025 07:00:00,28.3153,76.9143,PM2.5,18,83,38
India,Haryana,Panchgaon,"Amity University, Panchgaon - IITM",09-10-2025 07:00:00,28.3153,76.9143,PM10,20,70,34
India,Haryana,Panchgaon,"Amity University, Panchgaon - IITM",09-10-2025 07:00:00,28.3153,76.9143,NH3,1,3,2
India,Haryana,Panchgaon,"Amity University, Panchgaon - IITM",09-10-2025 07:00:00,28.3153,76.9143,CO,6,61,46
India,Haryana,Panchkula,"Sector-6, Panchkula - HSPCB ",09-10-2025 07:00:00,30.7057778,76.8531805555555,PM2.5,NA,NA,NA
India,Haryana,Panipat,"Sector-18, Panipat - HSPCB",09-10-2025 07:00:00,29.432304,76.972765,NO2,1,177,19
India,Haryana,Panipat,"Sector-18, Panipat - HSPCB",09-10-2025 07:00:00,29.432304,76.972765,CO,4,30,11
India,Haryana,Rohtak,"MD University, Rohtak - HSPCB",09-10-2025 07:00:00,28.52123,76.37138,PM10,35,45,38
India,Haryana,Rohtak,"MD University, Rohtak - HSPCB",09-10-2025 07:00:00,28.52123,76.37138,SO2,6,8,7
India,Haryana,Rohtak,"MD University, Rohtak - HSPCB",09-10-2025 07:00:00,28.52123,76.37138,CO,20,34,29
India,Haryana,Sirsa,"F-Block, Sirsa - HSPCB",09-10-2025 07:00:00,29.536400,75.015800,PM2.5,3,38,20
India,Haryana,Sirsa,"F-Block, Sirsa - HSPCB",09-10-2025 07:00:00,29.536400,75.015800,SO2,4,9,6
India,Haryana,Yamuna Nagar,"Gobind Pura, Yamuna Nagar - HSPCB",09-10-2025 07:00:00,30.1480566,77.2893471,NH3,NA,NA,NA
India,Himachal Pradesh,Baddi,"HIMUDA Complex Phase-1, Baddi - HPPCB",09-10-2025 07:00:00,30.943887,76.801991,OZONE,27,92,46
India,Jammu_and_Kashmir,Srinagar,"Rajbagh, Srinagar - JKSPCB",09-10-2025 07:00:00,34.066206,74.819820,PM10,41,126,61
India,Jammu_and_Kashmir,Srinagar,"Rajbagh, Srinagar - JKSPCB",09-10-2025 07:00:00,34.066206,74.819820,OZONE,1,10,1
India,Jharkhand,Dhanbad,"Sardar Patel Nagar, Dhanbad - JSPCB",09-10-2025 07:00:00,23.80569,86.44268,OZONE,1,238,2
India,Karnataka,Bagalkot,"Vidayagiri, Bagalkot - KSPCB",09-10-2025 07:00:00,16.172806,75.659694,PM10,42,43,42
India,Karnataka,Bengaluru,"Jigani, Bengaluru - KSPCB",09-10-2025 07:00:00,12.7816279,77.6299145,OZONE,NA,NA,NA
India,Karnataka,Bengaluru,"Kasturi Nagar, Bengaluru - KSPCB",09-10-2025 07:00:00,13.003872,77.664217,SO2,2,9,8
India,Karnataka,Bengaluru,"Peenya, Bengaluru - CPCB",09-10-2025 07:00:00,13.0270199,77.494094,PM10,NA,NA,NA
India,Karnataka,Bengaluru,"Peenya, Bengaluru - CPCB",09-10-2025 07:00:00,13.0270199,77.494094,NH3,2,3,2
India,Karnataka,Bengaluru,"RVCE-Mailasandra, Bengaluru - KSPCB",09-10-2025 07:00:00,12.921418,77.502466,PM10,NA,NA,NA
India,Karnataka,Bengaluru,"RVCE-Mailasandra, Bengaluru - KSPCB",09-10-2025 07:00:00,12.921418,77.502466,OZONE,21,22,21
India,Karnataka,Bengaluru,"Sanegurava Halli, Bengaluru - KSPCB",09-10-2025 07:00:00,12.990328,77.5431385,NO2,17,21,18
India,Karnataka,Chamarajanagar,"Urban, Chamarajanagar - KSPCB",09-10-2025 07:00:00,11.55358,76.55521,SO2,2,5,3
India,Karnataka,Chamarajanagar,"Urban, Chamarajanagar - KSPCB",09-10-2025 07:00:00,11.55358,76.55521,OZONE,13,36,18
India,Madhya Pradesh,Damoh,"Shrivastav Colony, Damoh - MPPCB",09-10-2025 07:00:00,23.81748678,79.446246,CO,20,27,26
India,Madhya Pradesh,Dewas,"Bhopal Chauraha, Dewas - MPPCB",09-10-2025 07:00:00,22.9682591,76.064118,NH3,2,6,3
India,Madhya Pradesh,Gwalior,"City Center, Gwalior - MPPCB",09-10-2025 07:00:00,26.203442,78.193251,PM10,NA,NA,NA
India,Madhya Pradesh,Gwalior,"Maharaj Bada, Gwalior - MPPCB",09-10-2025 07:00:00,26.200388,78.147714,NH3,2,2,2
India,Madhya Pradesh,Gwalior,"Maharaj Bada, Gwalior - MPPCB",09-10-2025 07:00:00,26.200388,78.147714,CO,3,66,13
India,Madhya Pradesh,Gwalior,"Maharaj Bada, Gwalior - MPPCB",09-10-2025 07:00:00,26.200388,78.147714,OZONE,19,57,43
India,Madhya Pradesh,Indore,"Chhoti Gwaltoli, Indore - MPPCB",09-10-2025 07:00:00,22.4310,75.5213,SO2,10,32,16
India,Karnataka,Madikeri,"Stuart Hill, Madikeri - KSPCB",09-10-2025 07:00:00,12.415911,75.735050,SO2,7,7,7
India,Karnataka,Mangalore,"Kadri, Mangalore - KSPCB",09-10-2025 07:00:00,12.889250,74.853000,NO2,NA,NA,NA
India,Karnataka,Mangalore,"Kadri, Mangalore - KSPCB",09-10-2025 07:00:00,12.889250,74.853000,OZONE,NA,NA,NA
India,Karnataka,Mysuru,"Hebbal 1st Stage, Mysuru - KSPCB",09-10-2025 07:00:00,12.21041,76.37376,PM10,32,63,45
India,Karnataka,Mysuru,"Hebbal 1st Stage, Mysuru - KSPCB",09-10-2025 07:00:00,12.21041,76.37376,NO2,11,25,20
India,Karnataka,Shivamogga,"Vinoba Nagara, Shivamogga - KSPCB",09-10-2025 07:00:00,13.940000,75.555917,PM10,30,63,43
India,Karnataka,Yadgir,"Collector Office, Yadgir - KSPCB",09-10-2025 07:00:00,16.7602,77.1428,PM10,13,49,30
India,Karnataka,Bengaluru,"Bapuji Nagar, Bengaluru - KSPCB",09-10-2025 07:00:00,12.951913,77.539784,OZONE,2,45,8
India,Karnataka,Bengaluru,"City Railway Station, Bengaluru - KSPCB",09-10-2025 07:00:00,12.9756843,77.5660749,SO2,6,17,9
India,Karnataka,Bengaluru,"Hombegowda Nagar, Bengaluru - KSPCB",09-10-2025 07:00:00,12.938539,77.590100,PM2.5,10,62,40
India,Karnataka,Bengaluru,"Jayanagar 5th Block, Bengaluru - KSPCB",09-10-2025 07:00:00,12.920984,77.584908,NH3,1,2,1
India,Karnataka,Bengaluru,"Jayanagar 5th Block, Bengaluru - KSPCB",09-10-2025 07:00:00,12.920984,77.584908,CO,4,44,7
India,Karnataka,Bengaluru,"Jigani, Bengaluru - KSPCB",09-10-2025 07:00:00,12.7816279,77.6299145,CO,NA,NA,NA
India,Kerala,Thrissur,"Corporation Ground, Thrissur - Kerala PCB",09-10-2025 07:00:00,10.532400,76.215900,PM10,46,53,51
India,Madhya Pradesh,Bhopal,"Idgah Hills, Bhopal - MPPCB",09-10-2025 07:00:00,23.264759,77.381568,PM10,122,280,180
India,Madhya Pradesh,Bhopal,"Idgah Hills, Bhopal - MPPCB",09-10-2025 07:00:00,23.264759,77.381568,CO,17,36,21
India,Madhya Pradesh,Bhopal,"Paryavaran Parisar, Bhopal - MPPCB",09-10-2025 07:00:00,23.210494,77.425409,NO2,10,78,32
India,Madhya Pradesh,Bhopal,"Paryavaran Parisar, Bhopal - MPPCB",09-10-2025 07:00:00,23.210494,77.425409,NH3,2,3,2
India,Madhya Pradesh,Bhopal,"T T Nagar, Bhopal - MPPCB",09-10-2025 07:00:00,23.233584,77.400574,PM2.5,52,135,84
India,Karnataka,Chikkamagaluru,"Kalyana Nagara, Chikkamagaluru - KSPCB",09-10-2025 07:00:00,13.328028,75.797056,NO2,NA,NA,NA
India,Karnataka,Davanagere,"Devaraj Urs Badavane, Davanagere - KSPCB",09-10-2025 07:00:00,14.475800,75.905200,CO,10,29,25
India,Karnataka,Hubballi,"Lingaraj Nagar, Hubballi - KSPCB",09-10-2025 07:00:00,15.3714823,75.1160168,CO,10,20,17
India,Karnataka,Kalaburagi,"Mahatma Basaveswar Colony, Kalaburgi - KSPCB",09-10-2025 07:00:00,17.336318,76.847397,NO2,9,16,11
India,Karnataka,Kalaburagi,"Mahatma Basaveswar Colony, Kalaburgi - KSPCB",09-10-2025 07:00:00,17.336318,76.847397,CO,27,53,31
India,Kerala,Kannur,"Thavakkara, Kannur - Kerala PCB",09-10-2025 07:00:00,11.875000,75.373200,NO2,12,14,13
India,Maharashtra,Malegaon,"Mahesh Nagar, Malegaon - MPCB",09-10-2025 07:00:00,20.555712,74.529236,OZONE,13,54,15
India,Maharashtra,Mira-Bhayandar,"Bhayandar West, Mira-Bhayandar - MPCB",09-10-2025 07:00:00,19.296481,72.840923,NO2,6,60,28
India,Maharashtra,Mumbai,"Bandra Kurla Complex, Mumbai - IITM",09-10-2025 07:00:00,19.053536,72.84643,NH3,15,53,32
India,Maharashtra,Mumbai,"Bandra Kurla Complex, Mumbai - IITM",09-10-2025 07:00:00,19.053536,72.84643,SO2,2,5,3
India,Maharashtra,Mumbai,"Bandra Kurla Complex, Mumbai - IITM",09-10-2025 07:00:00,19.053536,72.84643,CO,7,50,16
India,Maharashtra,Mumbai,"Borivali East, Mumbai - IITM",09-10-2025 07:00:00,19.23241,72.86895,PM2.5,20,72,49
India,Maharashtra,Mumbai,"Borivali East, Mumbai - IITM",09-10-2025 07:00:00,19.23241,72.86895,PM10,42,115,93
India,Maharashtra,Mumbai,"Borivali East, Mumbai - IITM",09-10-2025 07:00:00,19.23241,72.86895,CO,25,58,33
India,Maharashtra,Kolhapur,"Shivaji University, Kolhapur - MPCB",09-10-2025 07:00:00,16.6870449,74.2505872,NO2,5,29,16
India,Maharashtra,Kolhapur,"Sinchan Bhavan, Kolhapur - MPCB",09-10-2025 07:00:00,16.7143745,74.2426398,PM2.5,13,53,26
India,Maharashtra,Kolhapur,"Sinchan Bhavan, Kolhapur - MPCB",09-10-2025 07:00:00,16.7143745,74.2426398,PM10,24,82,51
India,Maharashtra,Kolhapur,"Sinchan Bhavan, Kolhapur - MPCB",09-10-2025 07:00:00,16.7143745,74.2426398,NH3,4,12,7
India,Maharashtra,Latur,"Sawe Wadi, Latur - MPCB",09-10-2025 07:00:00,18.39963,76.57452,CO,1,19,11
India,Maharashtra,Mahad,"Kamble Tarf Birwadi, Mahad - MPCB",09-10-2025 07:00:00,18.1023399,73.4783687,NO2,13,62,32
India,Maharashtra,Malegaon,"Mahesh Nagar, Malegaon - MPCB",09-10-2025 07:00:00,20.555712,74.529236,SO2,5,15,7
India,Madhya Pradesh,Indore,"Maguda Nagar, Indore - IMC",09-10-2025 07:00:00,22.7524,75.8872,NH3,NA,NA,NA
India,Madhya Pradesh,Indore,"Maguda Nagar, Indore - IMC",09-10-2025 07:00:00,22.7524,75.8872,CO,20,25,24
India,Madhya Pradesh,Indore,"Residency Area, Indore - IMC",09-10-2025 07:00:00,22.7084,75.8815,PM10,73,199,132
India,Madhya Pradesh,Indore,"Residency Area, Indore - IMC",09-10-2025 07:00:00,22.7084,75.8815,SO2,20,27,24
India,Madhya Pradesh,Indore,"Residency Area, Indore - IMC",09-10-2025 07:00:00,22.7084,75.8815,CO,12,18,16
India,Madhya Pradesh,Indore,"Residency Area, Indore - IMC",09-10-2025 07:00:00,22.7084,75.8815,OZONE,10,13,11
India,Madhya Pradesh,Jabalpur,"Govindh Bhavan Colony, Jabalpur - JMC",09-10-2025 07:00:00,23.163174,79.973061,CO,40,63,48
India,Madhya Pradesh,Jabalpur,"Marhatal, Jabalpur - MPPCB",09-10-2025 07:00:00,23.168606,79.932247,PM10,53,119,73
India,Madhya Pradesh,Ratlam,"Shasthri Nagar, Ratlam - IPCA Lab",09-10-2025 07:00:00,23.331731,75.045981,NO2,32,35,33
