country,state,city,station,last_update,latitude,longitude,pollutant_id,min_value,max_value,avg_value
India,Andhra_Pradesh,Tirupati,"Vaikuntapuram, Tirupati - APPCB",20-10-2025 07:00:00,13.615387,79.409230,OZONE,34,35,34
India,Andhra_Pradesh,Vijayawada,"Rajiv Gandhi Park, Vijayawada - APPCB",20-10-2025 07:00:00,16.509717,80.612222,SO2,10,14,12
India,Andhra_Pradesh,Vijayawada,"Rajiv Gandhi Park, Vijayawada - APPCB",20-10-2025 07:00:00,16.509717,80.612222,OZONE,21,27,24
India,Andhra_Pradesh,Vijayawada,"Rajiv Nagar, Vijayawada - APPCB",20-10-2025 07:00:00,16.554731,80.649110,PM10,36,85,40
India,Andhra_Pradesh,Vijayawada,"Rajiv Nagar, Vijayawada - APPCB",20-10-2025 07:00:00,16.554731,80.649110,NO2,NA,NA,NA
India,Andhra_Pradesh,Vijayawada,"Rajiv Nagar, Vijayawada - APPCB",20-10-2025 07:00:00,16.554731,80.649110,OZONE,60,183,65
India,Andhra_Pradesh,Visakhapatnam,"GVM Corporation, Visakhapatnam - APPCB",20-10-2025 07:00:00,17.72,83.3,NO2,6,32,18
India,Andhra_Pradesh,Visakhapatnam,"GVM Corporation, Visakhapatnam - APPCB",20-10-2025 07:00:00,17.72,83.3,SO2,2,15,6
India,Arunachal_Pradesh,Naharlagun,"Naharlagun, Naharlagun - APSPCB",20-10-2025 07:00:00,27.103358,93.679645,PM2.5,2,101,47
India,Bihar,Bihar Sharif,"D M Colony, Bihar Sharif - BSPCB",20-10-2025 07:00:00,25.204762,85.514960,NO2,9,10,9
India,Bihar,Buxar,"Charitra Van, Buxar - BSPCB",20-10-2025 07:00:00,25.567520,83.966379,PM10,65,71,71
India,Bihar,Chhapra,"Darshan Nagar, Chhapra - BSPCB",20-10-2025 07:00:00,25.7808257,84.7446768,PM2.5,32,247,79
India,Bihar,Chhapra,"Darshan Nagar, Chhapra - BSPCB",20-10-2025 07:00:00,25.7808257,84.7446768,NH3,2,3,3
India,Bihar,Chhapra,"Darshan Nagar, Chhapra - BSPCB",20-10-2025 07:00:00,25.7808257,84.7446768,OZONE,13,47,27
India,Bihar,Gaya,"Collectorate, Gaya - BSPCB",20-10-2025 07:00:00,24.7955,84.9994,SO2,9,12,10
India,Bihar,Gaya,"Collectorate, Gaya - BSPCB",20-10-2025 07:00:00,24.7955,84.9994,CO,39,57,44
India,Bihar,Gaya,"Collectorate, Gaya - BSPCB",20-10-2025 07:00:00,24.7955,84.9994,OZONE,19,21,20
India,Andhra_Pradesh,Chittoor,"Gangineni Cheruvu, Chittoor - APPCB",20-10-2025 07:00:00,13.204880,79.097889,CO,24,52,28
India,Andhra_Pradesh,Kadapa,"Yerramukkapalli, Kadapa - APPCB",20-10-2025 07:00:00,14.465052,78.824187,NO2,NA,NA,NA
India,Andhra_Pradesh,Kadapa,"Yerramukkapalli, Kadapa - APPCB",20-10-2025 07:00:00,14.465052,78.824187,OZONE,14,21,18
India,Andhra_Pradesh,Rajamahendravaram,"Anand Kala Kshetram, Rajamahendravaram - APPCB",20-10-2025 07:00:00,16.9872867,81.7363176,SO2,NA,NA,NA
India,Andhra_Pradesh,Tirumala,"Toll Gate, Tirumala - APPCB",20-10-2025 07:00:00,13.67,79.35,NH3,1,1,1
India,Andhra_Pradesh,Tirupati,"Vaikuntapuram, Tirupati - APPCB",20-10-2025 07:00:00,13.615387,79.409230,PM10,NA,NA,NA
India,Assam,Byrnihat,"Central Academy for SFS, Byrnihat - PCBA",20-10-2025 07:00:00,26.071318,91.87488,NO2,NA,NA,NA
India,Assam,Guwahati,"IITG, Guwahati - PCBA",20-10-2025 07:00:00,26.2028636,91.70046436,PM10,31,123,78
India,Assam,Guwahati,"IITG, Guwahati - PCBA",20-10-2025 07:00:00,26.2028636,91.70046436,CO,4,16,13
India,Assam,Guwahati,"LGBI Airport, Guwahati - PCBA",20-10-2025 07:00:00,26.10887,91.589544,PM10,56,58,57
India,Assam,Guwahati,"Pan Bazaar, Guwahati - PCBA",20-10-2025 07:00:00,26.187500,91.744194,CO,9,57,38
India,Assam,Guwahati,"Railway Colony, Guwahati - PCBA",20-10-2025 07:00:00,26.181742,91.78063,PM10,29,159,75
India,Andhra_Pradesh,Amaravati,"Secretariat, Amaravati - APPCB",20-10-2025 07:00:00,16.5150833,80.5181667,PM2.5,2,31,12
India,Andhra_Pradesh,Amaravati,"Secretariat, Amaravati - APPCB",20-10-2025 07:00:00,16.5150833,80.5181667,PM10,2,41,19
India,Andhra_Pradesh,Amaravati,"Secretariat, Amaravati - APPCB",20-10-2025 07:00:00,16.5150833,80.5181667,NH3,4,5,5
India,Andhra_Pradesh,Amaravati,"Secretariat, Amaravati - APPCB",20-10-2025 07:00:00,16.5150833,80.5181667,SO2,1,18,5
India,Andhra_Pradesh,Amaravati,"Secretariat, Amaravati - APPCB",20-10-2025 07:00:00,16.5150833,80.5181667,CO,7,74,22
India,Andhra_Pradesh,Amaravati,"Secretariat, Amaravati - APPCB",20-10-2025 07:00:00,16.5150833,80.5181667,OZONE,2,13,3
India,Andhra_Pradesh,Anantapur,"Gulzarpet, Anantapur - APPCB",20-10-2025 07:00:00,14.675886,77.593027,PM2.5,50,77,57
India,Andhra_Pradesh,Anantapur,"Gulzarpet, Anantapur - APPCB",20-10-2025 07:00:00,14.675886,77.593027,SO2,4,17,12
India,Bihar,Gaya,"SFTI Kusdihra, Gaya - BSPCB",20-10-2025 07:00:00,24.762518,84.982348,CO,24,48,34
India,Bihar,Hajipur,"Industrial Area, Hajipur - BSPCB",20-10-2025 07:00:00,25.697189,85.245900,CO,40,64,59
India,Bihar,Katihar,"Mirchaibari, Katihar - BSPCB",20-10-2025 07:00:00,25.560083,87.553265,OZONE,4,11,6
India,Bihar,Kishanganj,"SDM Office_Khagra, Kishanganj - BSPCB",20-10-2025 07:00:00,26.0881305,87.93840336,NH3,2,3,3
India,Bihar,Kishanganj,"SDM Office_Khagra, Kishanganj - BSPCB",20-10-2025 07:00:00,26.0881305,87.93840336,CO,13,16,14
India,Bihar,Manguraha,"Forest Rest House, Manguraha - BSPCB",20-10-2025 07:00:00,27.308328,84.531742,CO,32,33,33
India,Bihar,Motihari,"Gandak Colony, Motihari - BSPCB",20-10-2025 07:00:00,26.63086,84.90051,NH3,3,3,3
India,Bihar,Munger,"Town Hall, Munger - BSPCB",20-10-2025 07:00:00,25.376776,86.471523,NH3,5,7,6
India,Bihar,Araria,"Kharahiya Basti, Araria - BSPCB",20-10-2025 07:00:00,26.146529,87.454184,NO2,1,90,30
India,Bihar,Araria,"Kharahiya Basti, Araria - BSPCB",20-10-2025 07:00:00,26.146529,87.454184,SO2,11,21,17
India,Bihar,Arrah,"New DM Office, Arrah - BSPCB",20-10-2025 07:00:00,25.5626095,84.663264,PM10,27,28,27
India,Bihar,Begusarai,"Lohiyanagar, Begusarai - BSPCB",20-10-2025 07:00:00,25.42742023,86.13886079,NH3,3,23,5
India,Bihar,Bettiah,"Kamalnath Nagar, Bettiah - BSPCB",20-10-2025 07:00:00,26.80365,84.51954,PM10,57,129,89
India,Bihar,Bhagalpur,"DM Office_Kachari Chowk, Bhagalpur - BSPCB",20-10-2025 07:00:00,25.251013,86.989001,SO2,48,82,64
India,Bihar,Bhagalpur,"Mayaganj, Bhagalpur - BSPCB",20-10-2025 07:00:00,25.265194,87.012947,OZONE,7,88,19
India,Assam,Nalbari,"Bata Chowk, Nalbari - PCBA",20-10-2025 07:00:00,26.446912,91.439057,OZONE,12,12,12
India,Assam,Silchar,"Tarapur, Silchar - PCBA",20-10-2025 07:00:00,24.82827,92.79525,PM2.5,41,64,48
India,Assam,Silchar,"Tarapur, Silchar - PCBA",20-10-2025 07:00:00,24.82827,92.79525,PM10,49,56,52
India,Bihar,Muzaffarpur,"Buddha Colony, Muzaffarpur - BSPCB",20-10-2025 07:00:00,26.11442,85.39813,SO2,3,5,4
India,Bihar,Muzaffarpur,"Buddha Colony, Muzaffarpur - BSPCB",20-10-2025 07:00:00,26.11442,85.39813,OZONE,14,170,33
India,Bihar,Muzaffarpur,"MIT-Daudpur Kothi, Muzaffarpur - BSPCB",20-10-2025 07:00:00,26.1403345,85.3650192,PM10,45,69,61
India,Bihar,Muzaffarpur,"MIT-Daudpur Kothi, Muzaffarpur - BSPCB",20-10-2025 07:00:00,26.1403345,85.3650192,CO,26,40,30
India,Bihar,Patna,"DRM Office Danapur, Patna - BSPCB",20-10-2025 07:00:00,25.586562,85.043586,PM2.5,10,331,123
India,Bihar,Patna,"DRM Office Danapur, Patna - BSPCB",20-10-2025 07:00:00,25.586562,85.043586,NO2,14,54,43
India,Bihar,Patna,"DRM Office Danapur, Patna - BSPCB",20-10-2025 07:00:00,25.586562,85.043586,CO,6,100,31
India,Bihar,Patna,"Govt. High School Shikarpur, Patna - BSPCB",20-10-2025 07:00:00,25.592539,85.227158,PM10,51,57,53
India,Bihar,Patna,"Govt. High School Shikarpur, Patna - BSPCB",20-10-2025 07:00:00,25.592539,85.227158,NO2,14,19,16
India,Delhi,Delhi,"Ashok Vihar, Delhi - DPCC",20-10-2025 07:00:00,28.695381,77.181665,PM2.5,217,500,386
India,Delhi,Delhi,"Ashok Vihar, Delhi - DPCC",20-10-2025 07:00:00,28.695381,77.181665,PM10,171,500,340
India,Delhi,Delhi,"Ashok Vihar, Delhi - DPCC",20-10-2025 07:00:00,28.695381,77.181665,OZONE,2,219,2
India,Delhi,Delhi,"Aya Nagar, Delhi - IMD",20-10-2025 07:00:00,28.4706914,77.1099364,NO2,61,121,85
India,Delhi,Delhi,"Aya Nagar, Delhi - IMD",20-10-2025 07:00:00,28.4706914,77.1099364,OZONE,11,300,26
India,Delhi,Delhi,"Bawana, Delhi - DPCC",20-10-2025 07:00:00,28.776200,77.051074,PM10,147,418,246
India,Delhi,Delhi,"Bawana, Delhi - DPCC",20-10-2025 07:00:00,28.776200,77.051074,OZONE,6,212,12
India,Delhi,Delhi,"Burari Crossing, Delhi - IMD",20-10-2025 07:00:00,28.7256504,77.2011573,CO,44,109,108
India,Delhi,Delhi,"Burari Crossing, Delhi - IMD",20-10-2025 07:00:00,28.7256504,77.2011573,OZONE,12,273,12
India,Chhattisgarh,Raipur,"Krishak Nagar, Raipur - CECB",20-10-2025 07:00:00,21.237755,81.705301,SO2,6,12,8
India,Chhattisgarh,Raipur,"Krishak Nagar, Raipur - CECB",20-10-2025 07:00:00,21.237755,81.705301,OZONE,2,16,2
India,Chhattisgarh,Raipur,"Siltara Phase-II, Raipur - CECB",20-10-2025 07:00:00,21.371751,81.664929,PM10,27,110,79
India,Chhattisgarh,Raipur,"Siltara Phase-II, Raipur - CECB",20-10-2025 07:00:00,21.371751,81.664929,NO2,20,95,60
India,Delhi,Delhi,"Alipur, Delhi - DPCC",20-10-2025 07:00:00,28.815329,77.153010,NO2,37,113,74
India,Delhi,Delhi,"Alipur, Delhi - DPCC",20-10-2025 07:00:00,28.815329,77.153010,OZONE,2,74,3
India,Delhi,Delhi,"Anand Vihar, Delhi - DPCC",20-10-2025 07:00:00,28.647622,77.3158090,NH3,4,8,6
India,Bihar,Patna,"Govt. High School Shikarpur, Patna - BSPCB",20-10-2025 07:00:00,25.592539,85.227158,CO,52,100,79
India,Bihar,Patna,"IGSC Planetarium Complex, Patna - BSPCB",20-10-2025 07:00:00,25.610369,85.132568,NO2,13,15,14
India,Bihar,Patna,"IGSC Planetarium Complex, Patna - BSPCB",20-10-2025 07:00:00,25.610369,85.132568,SO2,21,24,22
India,Bihar,Patna,"Muradpur, Patna - BSPCB",20-10-2025 07:00:00,25.619651,85.147382,OZONE,4,39,5
India,Bihar,Patna,"Rajbansi Nagar, Patna - BSPCB",20-10-2025 07:00:00,25.599486,85.113666,SO2,6,12,9
India,Bihar,Patna,"Samanpura, Patna - BSPCB",20-10-2025 07:00:00,25.596727,85.085624,PM2.5,147,313,230
India,Bihar,Samastipur,"DM Office_Kasipur, Samastipur - BSPCB",20-10-2025 07:00:00,25.859655,85.77944,OZONE,NA,NA,NA
India,Bihar,Siwan,"Chitragupta Nagar, Siwan - BSPCB",20-10-2025 07:00:00,26.2271665,84.3570427,PM2.5,60,315,168
India,Bihar,Siwan,"Chitragupta Nagar, Siwan - BSPCB",20-10-2025 07:00:00,26.2271665,84.3570427,SO2,1,2,2
India,Chandigarh,Chandigarh,"Sector 22, Chandigarh - CPCC",20-10-2025 07:00:00,30.735567,76.775714,CO,34,78,54
India,Chandigarh,Chandigarh,"Sector-25, Chandigarh - CPCC",20-10-2025 07:00:00,30.751462,76.762879,PM10,33,128,85
India,Bihar,Purnia,"Mariam Nagar, Purnia - BSPCB",20-10-2025 07:00:00,25.366336,87.117468,SO2,13,134,24
India,Bihar,Rajgir,"Dangi Tola, Rajgir - BSPCB",20-10-2025 07:00:00,25.03280,85.41948,NO2,9,10,9
India,Bihar,Rajgir,"Dangi Tola, Rajgir - BSPCB",20-10-2025 07:00:00,25.03280,85.41948,CO,82,100,89
India,Bihar,Saharsa,"Police Line, Saharsa - BSPCB",20-10-2025 07:00:00,25.892357,86.590325,OZONE,7,37,11
India,Bihar,Samastipur,"DM Office_Kasipur, Samastipur - BSPCB",20-10-2025 07:00:00,25.859655,85.77944,PM2.5,NA,NA,NA
India,Chhattisgarh,Bhilai,"Hathkhoj, Bhilai - CECB",20-10-2025 07:00:00,21.224231,81.408350,OZONE,14,59,25
India,Chhattisgarh,Bilaspur,"Mangala, Bilaspur - NTPC",20-10-2025 07:00:00,22.08815,82.13737,CO,38,49,43
India,Chhattisgarh,Chhal,"Nawapara SECL Colony, Chhal - CECB",20-10-2025 07:00:00,22.118125,83.140608,NH3,5,5,5
India,Chhattisgarh,Chhal,"Nawapara SECL Colony, Chhal - CECB",20-10-2025 07:00:00,22.118125,83.140608,CO,24,46,30
India,Chhattisgarh,Korba,"Urja Nagar, Korba - CECB",20-10-2025 07:00:00,22.348441,82.549611,OZONE,35,36,35
India,Chandigarh,Chandigarh,"Sector-25, Chandigarh - CPCC",20-10-2025 07:00:00,30.751462,76.762879,CO,16,40,26
India,Chhattisgarh,Bhilai,"32Bungalows, Bhilai - CECB",20-10-2025 07:00:00,21.194815,81.314770,PM10,31,84,49
India,Chhattisgarh,Bhilai,"32Bungalows, Bhilai - CECB",20-10-2025 07:00:00,21.194815,81.314770,CO,8,39,19
India,Chhattisgarh,Bhilai,"Civic Center, Bhilai - Bhilai Steel Plant",20-10-2025 07:00:00,21.185571,81.343175,PM10,48,126,69
India,Chhattisgarh,Kunjemura,"OP Jindal School, Kunjemura - CECB",20-10-2025 07:00:00,22.126650,83.483212,CO,16,66,43
India,Chhattisgarh,Milupara,"Govt. Higher Secondary School, Milupara - CECB",20-10-2025 07:00:00,22.1910172,83.5197009,SO2,14,19,15
India,Chhattisgarh,Milupara,"Govt. Higher Secondary School, Milupara - CECB",20-10-2025 07:00:00,22.1910172,83.5197009,OZONE,7,85,12
India,Delhi,Delhi,"CRRI Mathura Road, Delhi - IMD",20-10-2025 07:00:00,28.5512005,77.2735737,CO,48,130,128
India,Delhi,Delhi,"Chandni Chowk, Delhi - IITM",20-10-2025 07:00:00,28.656756,77.227234,NO2,16,107,63
India,Delhi,Delhi,"Chandni Chowk, Delhi - IITM",20-10-2025 07:00:00,28.656756,77.227234,NH3,12,49,26
India,Delhi,Delhi,"DTU, Delhi - CPCB",20-10-2025 07:00:00,28.7500499,77.1112615,NH3,5,15,9
India,Delhi,Delhi,"DTU, Delhi - CPCB",20-10-2025 07:00:00,28.7500499,77.1112615,CO,41,74,66
India,Delhi,Delhi,"Dr. Karni Singh Shooting Range, Delhi - DPCC",20-10-2025 07:00:00,28.498571,77.264840,OZONE,5,210,7
India,Delhi,Delhi,"Dwarka-Sector 8, Delhi - DPCC ",20-10-2025 07:00:00,28.5710274,77.0719006,PM2.5,187,497,353
India,Delhi,Delhi,"R K Puram, Delhi - DPCC",20-10-2025 07:00:00,28.563262,77.186937,PM10,147,306,220
India,Delhi,Delhi,"R K Puram, Delhi - DPCC",20-10-2025 07:00:00,28.563262,77.186937,CO,65,144,120
India,Delhi,Delhi,"Rohini, Delhi - DPCC",20-10-2025 07:00:00,28.732528,77.119920,NO2,7,51,24
India,Delhi,Delhi,"Rohini, Delhi - DPCC",20-10-2025 07:00:00,28.732528,77.119920,SO2,3,14,6
India,Delhi,Delhi,"Rohini, Delhi - DPCC",20-10-2025 07:00:00,28.732528,77.119920,CO,10,81,54
India,Delhi,Delhi,"Shadipur, Delhi - CPCB",20-10-2025 07:00:00,28.6514781,77.1473105,NH3,12,19,15
India,Delhi,Delhi,"Sirifort, Delhi - CPCB",20-10-2025 07:00:00,28.5504249,77.2159377,NO2,42,66,55
India,Delhi,Delhi,"Sirifort, Delhi - CPCB",20-10-2025 07:00:00,28.5504249,77.2159377,OZONE,12,35,13
India,Delhi,Delhi,"Mandir Marg, Delhi - DPCC",20-10-2025 07:00:00,28.636429,77.201067,CO,40,105,100
India,Delhi,Delhi,"Mandir Marg, Delhi - DPCC",20-10-2025 07:00:00,28.636429,77.201067,OZONE,8,197,9
India,Delhi,Delhi,"NSIT Dwarka, Delhi - CPCB",20-10-2025 07:00:00,28.60909,77.0325413,PM10,176,493,357
India,Delhi,Delhi,"NSIT Dwarka, Delhi - CPCB",20-10-2025 07:00:00,28.60909,77.0325413,NO2,57,107,82
India,Delhi,Delhi,"NSIT Dwarka, Delhi - CPCB",20-10-2025 07:00:00,28.60909,77.0325413,NH3,14,30,20
India,Delhi,Delhi,"NSIT Dwarka, Delhi - CPCB",20-10-2025 07:00:00,28.60909,77.0325413,CO,12,131,14
India,Delhi,Delhi,"Najafgarh, Delhi - DPCC",20-10-2025 07:00:00,28.570173,76.933762,NH3,1,15,2
India,Delhi,Delhi,"Najafgarh, Delhi - DPCC",20-10-2025 07:00:00,28.570173,76.933762,SO2,10,25,16
India,Delhi,Delhi,"Jawaharlal Nehru Stadium, Delhi - DPCC",20-10-2025 07:00:00,28.580280,77.233829,PM2.5,204,447,352
India,Delhi,Delhi,"Jawaharlal Nehru Stadium, Delhi - DPCC",20-10-2025 07:00:00,28.580280,77.233829,CO,42,130,121
India,Delhi,Delhi,"Jawaharlal Nehru Stadium, Delhi - DPCC",20-10-2025 07:00:00,28.580280,77.233829,OZONE,50,129,53
India,Delhi,Delhi,"Lodhi Road, Delhi - IITM",20-10-2025 07:00:00,28.588333,77.221667,PM10,144,219,175
India,Delhi,Delhi,"Major Dhyan Chand National Stadium, Delhi - DPCC",20-10-2025 07:00:00,28.611281,77.237738,PM10,167,312,229
India,Delhi,Delhi,"Major Dhyan Chand National Stadium, Delhi - DPCC",20-10-2025 07:00:00,28.611281,77.237738,SO2,2,17,10
India,Delhi,Delhi,"Dwarka-Sector 8, Delhi - DPCC ",20-10-2025 07:00:00,28.5710274,77.0719006,NH3,6,26,9
India,Delhi,Delhi,"IGI Airport (T3), Delhi - IMD",20-10-2025 07:00:00,28.5627763,77.1180053,PM10,167,453,300
India,Delhi,Delhi,"ITO, Delhi - CPCB",20-10-2025 07:00:00,28.628624,77.241060,PM2.5,223,407,347
India,Delhi,Delhi,"ITO, Delhi - CPCB",20-10-2025 07:00:00,28.628624,77.241060,SO2,15,28,20
India,Delhi,Delhi,"Jahangirpuri, Delhi - DPCC",20-10-2025 07:00:00,28.732820,77.170633,PM10,167,500,371
India,Delhi,Delhi,"Sri Aurobindo Marg, Delhi - DPCC",20-10-2025 07:00:00,28.531346,77.190156,NO2,16,97,30
India,Delhi,Delhi,"Sri Aurobindo Marg, Delhi - DPCC",20-10-2025 07:00:00,28.531346,77.190156,OZONE,1,168,2
India,Delhi,Delhi,"Vivek Vihar, Delhi - DPCC",20-10-2025 07:00:00,28.672342,77.315260,PM10,162,484,297
India,Delhi,Delhi,"Wazirpur, Delhi - DPCC",20-10-2025 07:00:00,28.699793,77.165453,PM2.5,270,500,402
India,Delhi,Delhi,"Wazirpur, Delhi - DPCC",20-10-2025 07:00:00,28.699793,77.165453,OZONE,6,346,9
India,Delhi,Delhi,"Narela, Delhi - DPCC",20-10-2025 07:00:00,28.822836,77.101981,SO2,4,24,13
India,Delhi,Delhi,"Nehru Nagar, Delhi - DPCC",20-10-2025 07:00:00,28.567890,77.250515,NH3,11,15,13
India,Delhi,Delhi,"North Campus, DU, Delhi - IMD",20-10-2025 07:00:00,28.6573814,77.1585447,NO2,14,40,29
India,Delhi,Delhi,"Okhla Phase-2, Delhi - DPCC",20-10-2025 07:00:00,28.530785,77.271255,SO2,9,25,15
India,Gujarat,Ahmedabad,"Gyaspur, Ahmedabad - IITM",20-10-2025 07:00:00,22.977134,72.553024,CO,8,64,25
India,Gujarat,Ahmedabad,"Gyaspur, Ahmedabad - IITM",20-10-2025 07:00:00,22.977134,72.553024,OZONE,6,103,9
India,Gujarat,Ahmedabad,"Maninagar, Ahmedabad - GPCB",20-10-2025 07:00:00,23.002657,72.591912,PM10,66,280,137
India,Gujarat,Ahmedabad,"Raikhad, Ahmedabad - IITM",20-10-2025 07:00:00,23.020509,72.579261,OZONE,2,86,9
India,Delhi,Delhi,"Patparganj, Delhi - DPCC",20-10-2025 07:00:00,28.623763,77.287209,PM10,185,477,346
India,Delhi,Delhi,"Patparganj, Delhi - DPCC",20-10-2025 07:00:00,28.623763,77.287209,NO2,29,205,114
India,Gujarat,Ankleshwar,"GIDC, Ankleshwar - GPCB",20-10-2025 07:00:00,21.613267,73.010555,SO2,64,66,65
India,Gujarat,Ankleshwar,"GIDC, Ankleshwar - GPCB",20-10-2025 07:00:00,21.613267,73.010555,OZONE,52,59,53
India,Gujarat,Gandhinagar,"GIFT City, Gandhinagar - IITM",20-10-2025 07:00:00,23.163798,72.677768,PM2.5,57,254,117
India,Gujarat,Gandhinagar,"GIFT City, Gandhinagar - IITM",20-10-2025 07:00:00,23.163798,72.677768,PM10,57,110,81
India,Gujarat,Gandhinagar,"GIFT City, Gandhinagar - IITM",20-10-2025 07:00:00,23.163798,72.677768,NH3,1,6,3
India,Gujarat,Gandhinagar,"GIFT City, Gandhinagar - IITM",20-10-2025 07:00:00,23.163798,72.677768,SO2,1,16,7
India,Gujarat,Gandhinagar,"IIPHG Lekawada, Gandhinagar - IITM",20-10-2025 07:00:00,23.243639,72.68994,NO2,5,22,10
India,Gujarat,Gandhinagar,"IIPHG Lekawada, Gandhinagar - IITM",20-10-2025 07:00:00,23.243639,72.68994,CO,2,76,28
India,Gujarat,Gandhinagar,"Sector-10, Gandhinagar - GPCB",20-10-2025 07:00:00,23.221714,72.654328,NO2,13,21,14
India,Gujarat,Ahmedabad,"Rakhial, Ahmedabad - IITM",20-10-2025 07:00:00,23.016834,72.625775,NH3,8,14,10
India,Gujarat,Ahmedabad,"SAC ISRO Bopal, Ahmedabad - IITM",20-10-2025 07:00:00,23.041137,72.456691,SO2,6,16,9
India,Gujarat,Ahmedabad,"SAC ISRO Satellite, Ahmedabad - IITM",20-10-2025 07:00:00,23.023389,72.515201,NO2,13,105,50
India,Gujarat,Ahmedabad,"SAC ISRO Satellite, Ahmedabad - IITM",20-10-2025 07:00:00,23.023389,72.515201,CO,16,92,64
India,Gujarat,Ahmedabad,"SAC ISRO Satellite, Ahmedabad - IITM",20-10-2025 07:00:00,23.023389,72.515201,OZONE,5,61,12
India,Gujarat,Ahmedabad,"SVPI Airport Hansol, Ahmedabad - IITM",20-10-2025 07:00:00,23.076793,72.627874,NH3,2,5,3
India,Haryana,Mandikhera,"General Hospital, Mandikhera - HSPCB",20-10-2025 07:00:00,27.9002,76.9938,SO2,NA,NA,NA
India,Haryana,Manesar,"Sector-2 IMT, Manesar - HSPCB",20-10-2025 07:00:00,28.360699,76.936090,CO,48,84,72
India,Haryana,Narnaul,"Shastri Nagar, Narnaul - HSPCB",20-10-2025 07:00:00,28.060249,76.113115,OZONE,32,157,154
India,Haryana,Palwal,"Shyam Nagar, Palwal - HSPCB",20-10-2025 07:00:00,28.1485564,77.3320667,PM2.5,91,123,107
India,Haryana,Bahadurgarh,"Arya Nagar, Bahadurgarh - HSPCB",20-10-2025 07:00:00,28.6701,76.9254,PM10,119,417,241
India,Haryana,Bahadurgarh,"Arya Nagar, Bahadurgarh - HSPCB",20-10-2025 07:00:00,28.6701,76.9254,OZONE,16,20,18
India,Haryana,Charkhi Dadri,"Mini Secretariat, Charkhi Dadri - HSPCB",20-10-2025 07:00:00,28.593883,76.270653,PM2.5,6,413,248
India,Haryana,Charkhi Dadri,"Mini Secretariat, Charkhi Dadri - HSPCB",20-10-2025 07:00:00,28.593883,76.270653,CO,10,25,16
India,Gujarat,Surat,"Science Center, Surat - SMC",20-10-2025 07:00:00,21.170046,72.795405,CO,36,40,39
India,Gujarat,Vatva,"Phase-4 GIDC, Vatva - GPCB",20-10-2025 07:00:00,22.969611,72.643500,NO2,25,41,33
India,Haryana,Ambala,"Patti Mehar, Ambala - HSPCB",20-10-2025 07:00:00,30.379589,76.778328,PM10,8,149,69
India,Haryana,Jind,"Police Lines, Jind - HSPCB",20-10-2025 07:00:00,29.307814,76.337619,NH3,4,6,5
India,Haryana,Karnal,"Sector-12, Karnal - HSPCB",20-10-2025 07:00:00,29.695300,77.002700,PM10,102,177,125
India,Haryana,Kurukshetra,"Sector-7, Kurukshetra - HSPCB",20-10-2025 07:00:00,29.966942,76.875879,SO2,9,20,14
India,Haryana,Dharuhera,"Municipal Corporation Office, Dharuhera -  HSPCB",20-10-2025 07:00:00,28.206800,76.799700,OZONE,10,73,15
India,Haryana,Faridabad,"Sector 30, Faridabad - HSPCB",20-10-2025 07:00:00,28.4417,77.3217,PM10,125,148,136
India,Haryana,Faridabad,"Sector 30, Faridabad - HSPCB",20-10-2025 07:00:00,28.4417,77.3217,NO2,36,39,37
India,Haryana,Gurugram,"Vikas Sadan, Gurugram - HSPCB",20-10-2025 07:00:00,28.4501238,77.0263051,CO,100,140,119
India,Haryana,Hisar,"Urban Estate-II, Hisar - HSPCB",20-10-2025 07:00:00,29.140560,75.744941,PM2.5,65,313,188
India,Haryana,Hisar,"Urban Estate-II, Hisar - HSPCB",20-10-2025 07:00:00,29.140560,75.744941,PM10,80,243,155
India,Haryana,Gurugram,"NISE Gwal Pahari, Gurugram - IMD",20-10-2025 07:00:00,28.422681,77.148944,PM2.5,20,422,267
India,Haryana,Gurugram,"Sector-51, Gurugram - HSPCB",20-10-2025 07:00:00,28.4227,77.0667,NH3,4,14,9
India,Karnataka,Gadag,"Panchal Nagar, Gadag - KSPCB",20-10-2025 07:00:00,15.411456,75.638133,NO2,4,37,16
India,Karnataka,Gadag,"Panchal Nagar, Gadag - KSPCB",20-10-2025 07:00:00,15.411456,75.638133,OZONE,5,26,6
India,Karnataka,Haveri,"Ashwini Nagar, Haveri - KSPCB",20-10-2025 07:00:00,14.791800,75.389600,CO,44,47,46
India,Karnataka,Hubballi,"Lingaraj Nagar, Hubballi - KSPCB",20-10-2025 07:00:00,15.3714823,75.1160168,SO2,1,1,1
India,Karnataka,Kalaburagi,"Lal Bahadur Shastri Nagar, Kalaburagi - KSPCB",20-10-2025 07:00:00,17.321993,76.822628,CO,32,34,33
India,Karnataka,Kalaburagi,"Mahatma Basaveswar Colony, Kalaburgi - KSPCB",20-10-2025 07:00:00,17.336318,76.847397,PM2.5,21,76,49
India,Karnataka,Kalaburagi,"Mahatma Basaveswar Colony, Kalaburgi - KSPCB",20-10-2025 07:00:00,17.336318,76.847397,PM10,28,106,66
India,Karnataka,Chamarajanagar,"Urban, Chamarajanagar - KSPCB",20-10-2025 07:00:00,11.55358,76.55521,CO,17,120,32
India,Karnataka,Chikkamagaluru,"Kalyana Nagara, Chikkamagaluru - KSPCB",20-10-2025 07:00:00,13.328028,75.797056,PM10,25,53,36
India,Karnataka,Davanagere,"Devaraj Urs Badavane, Davanagere - KSPCB",20-10-2025 07:00:00,14.475800,75.905200,PM2.5,12,71,45
India,Karnataka,Davanagere,"Devaraj Urs Badavane, Davanagere - KSPCB",20-10-2025 07:00:00,14.475800,75.905200,NH3,1,4,3
India,Karnataka,Davanagere,"Devaraj Urs Badavane, Davanagere - KSPCB",20-10-2025 07:00:00,14.475800,75.905200,CO,18,70,33
India,Karnataka,Dharwad,"Kalabhavan, Dharwad - KSPCB",20-10-2025 07:00:00,15.459706,75.008381,OZONE,15,38,20
India,Karnataka,Gadag,"Panchal Nagar, Gadag - KSPCB",20-10-2025 07:00:00,15.411456,75.638133,PM2.5,20,60,41
India,Haryana,Sirsa,"F-Block, Sirsa - HSPCB",20-10-2025 07:00:00,29.536400,75.015800,OZONE,11,44,22
India,Haryana,Sonipat,"Murthal, Sonipat - HSPCB",20-10-2025 07:00:00,29.027200,77.062100,CO,17,50,27
India,Haryana,Yamuna Nagar,"Gobind Pura, Yamuna Nagar - HSPCB",20-10-2025 07:00:00,30.1480566,77.2893471,CO,21,118,68
India,Haryana,Yamuna Nagar,"Gobind Pura, Yamuna Nagar - HSPCB",20-10-2025 07:00:00,30.1480566,77.2893471,OZONE,39,40,39
India,Himachal Pradesh,Baddi,"HIMUDA Complex Phase-1, Baddi - HPPCB",20-10-2025 07:00:00,30.943887,76.801991,PM2.5,12,297,105
India,Himachal Pradesh,Baddi,"HIMUDA Complex Phase-1, Baddi - HPPCB",20-10-2025 07:00:00,30.943887,76.801991,OZONE,37,205,59
India,Karnataka,Bengaluru,"BTM Layout, Bengaluru - CPCB",20-10-2025 07:00:00,12.9135218,77.5950804,NH3,5,5,5
India,Karnataka,Bengaluru,"BWSSB Kadabesanahalli, Bengaluru - CPCB",20-10-2025 07:00:00,12.9352049,77.6814488,PM2.5,58,59,59
India,Karnataka,Bengaluru,"BWSSB Kadabesanahalli, Bengaluru - CPCB",20-10-2025 07:00:00,12.9352049,77.6814488,NH3,3,3,3
India,Karnataka,Bengaluru,"Bapuji Nagar, Bengaluru - KSPCB",20-10-2025 07:00:00,12.951913,77.539784,PM2.5,8,85,51
India,Karnataka,Bengaluru,"Bapuji Nagar, Bengaluru - KSPCB",20-10-2025 07:00:00,12.951913,77.539784,NH3,1,2,1
India,Karnataka,Bengaluru,"Bapuji Nagar, Bengaluru - KSPCB",20-10-2025 07:00:00,12.951913,77.539784,OZONE,5,49,9
India,Karnataka,Bengaluru,"City Railway Station, Bengaluru - KSPCB",20-10-2025 07:00:00,12.9756843,77.5660749,PM10,85,97,91
India,Karnataka,Kalaburagi,"Mahatma Basaveswar Colony, Kalaburgi - KSPCB",20-10-2025 07:00:00,17.336318,76.847397,NH3,2,4,3
India,Karnataka,Madikeri,"Stuart Hill, Madikeri - KSPCB",20-10-2025 07:00:00,12.415911,75.735050,SO2,7,7,7
India,Karnataka,Madikeri,"Stuart Hill, Madikeri - KSPCB",20-10-2025 07:00:00,12.415911,75.735050,OZONE,3,6,4
India,Karnataka,Mangalore,"Kadri, Mangalore - KSPCB",20-10-2025 07:00:00,12.889250,74.853000,OZONE,4,39,22
India,Karnataka,Mysuru,"Hebbal 1st Stage, Mysuru - KSPCB",20-10-2025 07:00:00,12.21041,76.37376,PM2.5,12,43,26
India,Karnataka,Mysuru,"Hebbal 1st Stage, Mysuru - KSPCB",20-10-2025 07:00:00,12.21041,76.37376,PM10,24,76,44
India,Karnataka,Bengaluru,"Hebbal, Bengaluru - KSPCB",20-10-2025 07:00:00,13.029152,77.585901,NO2,20,23,21
India,Karnataka,Bengaluru,"Hombegowda Nagar, Bengaluru - KSPCB",20-10-2025 07:00:00,12.938539,77.590100,OZONE,3,26,7
India,Karnataka,Bengaluru,"Jayanagar 5th Block, Bengaluru - KSPCB",20-10-2025 07:00:00,12.920984,77.584908,PM10,NA,NA,NA
India,Karnataka,Bengaluru,"Jigani, Bengaluru - KSPCB",20-10-2025 07:00:00,12.7816279,77.6299145,OZONE,NA,NA,NA
India,Karnataka,Bengaluru,"Kasturi Nagar, Bengaluru - KSPCB",20-10-2025 07:00:00,13.003872,77.664217,NO2,30,32,31
India,Karnataka,Bengaluru,"Kasturi Nagar, Bengaluru - KSPCB",20-10-2025 07:00:00,13.003872,77.664217,NH3,6,6,6
India,Karnataka,Bengaluru,"Shivapura_Peenya, Bengaluru - KSPCB",20-10-2025 07:00:00,13.0246342,77.5080115,PM10,46,71,57
India,Karnataka,Bengaluru,"Shivapura_Peenya, Bengaluru - KSPCB",20-10-2025 07:00:00,13.0246342,77.5080115,CO,30,34,31
India,Karnataka,Bengaluru,"Shivapura_Peenya, Bengaluru - KSPCB",20-10-2025 07:00:00,13.0246342,77.5080115,OZONE,23,28,27
India,Karnataka,Bengaluru,"Silk Board, Bengaluru - KSPCB",20-10-2025 07:00:00,12.917348,77.622813,PM10,6,44,28
India,Karnataka,Bengaluru,"Silk Board, Bengaluru - KSPCB",20-10-2025 07:00:00,12.917348,77.622813,SO2,7,13,10
India,Karnataka,Bidar,"Naubad, Bidar - KSPCB",20-10-2025 07:00:00,17.930306,77.482194,PM10,53,69,60
India,Karnataka,Bidar,"Naubad, Bidar - KSPCB",20-10-2025 07:00:00,17.930306,77.482194,NH3,3,4,4
India,Haryana,Panchgaon,"Amity University, Panchgaon - IITM",20-10-2025 07:00:00,28.3153,76.9143,PM10,32,150,97
India,Haryana,Panchgaon,"Amity University, Panchgaon - IITM",20-10-2025 07:00:00,28.3153,76.9143,SO2,1,14,8
India,Haryana,Panchkula,"Sector-6, Panchkula - HSPCB ",20-10-2025 07:00:00,30.7057778,76.8531805555555,PM2.5,13,332,159
India,Haryana,Panchkula,"Sector-6, Panchkula - HSPCB ",20-10-2025 07:00:00,30.7057778,76.8531805555555,SO2,6,9,8
India,Haryana,Panchkula,"Sector-6, Panchkula - HSPCB ",20-10-2025 07:00:00,30.7057778,76.8531805555555,CO,14,22,18
India,Haryana,Rohtak,"MD University, Rohtak - HSPCB",20-10-2025 07:00:00,28.52123,76.37138,PM2.5,93,487,312
India,Jharkhand,Dhanbad,"Sardar Patel Nagar, Dhanbad - JSPCB",20-10-2025 07:00:00,23.80569,86.44268,PM2.5,36,403,114
India,Jharkhand,Dhanbad,"Sardar Patel Nagar, Dhanbad - JSPCB",20-10-2025 07:00:00,23.80569,86.44268,SO2,NA,NA,NA
India,Karnataka,Bagalkot,"Vidayagiri, Bagalkot - KSPCB",20-10-2025 07:00:00,16.172806,75.659694,NO2,9,10,9
India,Karnataka,Bagalkot,"Vidayagiri, Bagalkot - KSPCB",20-10-2025 07:00:00,16.172806,75.659694,OZONE,12,16,16
India,Karnataka,Yadgir,"Collector Office, Yadgir - KSPCB",20-10-2025 07:00:00,16.7602,77.1428,OZONE,12,26,19
India,Kerala,Kannur,"Thavakkara, Kannur - Kerala PCB",20-10-2025 07:00:00,11.875000,75.373200,PM10,57,61,58
India,Kerala,Kannur,"Thavakkara, Kannur - Kerala PCB",20-10-2025 07:00:00,11.875000,75.373200,NO2,15,17,16
India,Kerala,Kannur,"Thavakkara, Kannur - Kerala PCB",20-10-2025 07:00:00,11.875000,75.373200,NH3,2,2,2
India,Kerala,Kannur,"Thavakkara, Kannur - Kerala PCB",20-10-2025 07:00:00,11.875000,75.373200,SO2,3,4,3
India,Kerala,Kollam,"Polayathode, Kollam - Kerala PCB",20-10-2025 07:00:00,8.8787,76.6073,PM10,15,91,38
India,Kerala,Kollam,"Polayathode, Kollam - Kerala PCB",20-10-2025 07:00:00,8.8787,76.6073,NH3,1,1,1
India,Kerala,Kollam,"Polayathode, Kollam - Kerala PCB",20-10-2025 07:00:00,8.8787,76.6073,OZONE,28,33,30
India,Kerala,Thiruvananthapuram,"Plammoodu, Thiruvananthapuram - Kerala PCB",20-10-2025 07:00:00,8.5149093,76.9435879,PM2.5,6,387,159
India,Kerala,Thiruvananthapuram,"Plammoodu, Thiruvananthapuram - Kerala PCB",20-10-2025 07:00:00,8.5149093,76.9435879,NO2,55,100,77
India,Madhya Pradesh,Bhopal,"Idgah Hills, Bhopal - MPPCB",20-10-2025 07:00:00,23.264759,77.381568,NH3,4,6,5
India,Madhya Pradesh,Bhopal,"Idgah Hills, Bhopal - MPPCB",20-10-2025 07:00:00,23.264759,77.381568,SO2,10,15,12
India,Madhya Pradesh,Bhopal,"Idgah Hills, Bhopal - MPPCB",20-10-2025 07:00:00,23.264759,77.381568,CO,18,73,34
India,Madhya Pradesh,Bhopal,"Paryavaran Parisar, Bhopal - MPPCB",20-10-2025 07:00:00,23.210494,77.425409,PM2.5,57,335,166
India,Madhya Pradesh,Bhopal,"Paryavaran Parisar, Bhopal - MPPCB",20-10-2025 07:00:00,23.210494,77.425409,NO2,16,95,41
India,Madhya Pradesh,Bhopal,"T T Nagar, Bhopal - MPPCB",20-10-2025 07:00:00,23.233584,77.400574,PM2.5,62,237,123
India,Madhya Pradesh,Damoh,"Shrivastav Colony, Damoh - MPPCB",20-10-2025 07:00:00,23.81748678,79.446246,PM10,38,70,51
India,Madhya Pradesh,Dewas,"Bhopal Chauraha, Dewas - MPPCB",20-10-2025 07:00:00,22.9682591,76.064118,SO2,23,61,38
India,Madhya Pradesh,Jabalpur,"Govindh Bhavan Colony, Jabalpur - JMC",20-10-2025 07:00:00,23.163174,79.973061,CO,32,36,33
India,Madhya Pradesh,Jabalpur,"Govindh Bhavan Colony, Jabalpur - JMC",20-10-2025 07:00:00,23.163174,79.973061,OZONE,5,21,5
India,Madhya Pradesh,Jabalpur,"Gupteshwar, Jabalpur - JMC",20-10-2025 07:00:00,23.142888,79.916147,PM10,61,151,97
India,Madhya Pradesh,Jabalpur,"Suhagi, Jabalpur - JMC",20-10-2025 07:00:00,23.218135,79.957770,NO2,14,93,42
India,Madhya Pradesh,Jabalpur,"Suhagi, Jabalpur - JMC",20-10-2025 07:00:00,23.218135,79.957770,NH3,2,3,3
India,Madhya Pradesh,Jabalpur,"Suhagi, Jabalpur - JMC",20-10-2025 07:00:00,23.218135,79.957770,OZONE,2,144,4
India,Madhya Pradesh,Katni,"Gole Bazar, Katni - MPPCB",20-10-2025 07:00:00,23.50016,80.23284,PM10,73,193,117
India,Madhya Pradesh,Katni,"Gole Bazar, Katni - MPPCB",20-10-2025 07:00:00,23.50016,80.23284,NO2,22,79,45
India,Madhya Pradesh,Katni,"Gole Bazar, Katni - MPPCB",20-10-2025 07:00:00,23.50016,80.23284,SO2,5,41,23
India,Madhya Pradesh,Katni,"Gole Bazar, Katni - MPPCB",20-10-2025 07:00:00,23.50016,80.23284,CO,16,102,56
India,Madhya Pradesh,Katni,"Gole Bazar, Katni - MPPCB",20-10-2025 07:00:00,23.50016,80.23284,OZONE,12,134,32
India,Madhya Pradesh,Mandideep,"Sector-D Industrial Area, Mandideep - MPPCB",20-10-2025 07:00:00,23.108440,77.511428,PM10,116,491,264
India,Madhya Pradesh,Mandideep,"Sector-D Industrial Area, Mandideep - MPPCB",20-10-2025 07:00:00,23.108440,77.511428,NH3,1,5,4
India,Madhya Pradesh,Pithampur,"Sector-2 Industrial Area, Pithampur - MPPCB",20-10-2025 07:00:00,22.624758,75.675238,PM10,89,212,125
India,Madhya Pradesh,Pithampur,"Sector-2 Industrial Area, Pithampur - MPPCB",20-10-2025 07:00:00,22.624758,75.675238,NO2,7,31,14
India,Madhya Pradesh,Pithampur,"Sector-2 Industrial Area, Pithampur - MPPCB",20-10-2025 07:00:00,22.624758,75.675238,NH3,2,3,3
India,Madhya Pradesh,Sagar,"Civil Lines, Sagar - MPPCB",20-10-2025 07:00:00,23.838586,78.759431,NO2,4,8,7
India,Madhya Pradesh,Gwalior,"City Center, Gwalior - MPPCB",20-10-2025 07:00:00,26.203442,78.193251,PM10,89,175,124
India,Madhya Pradesh,Gwalior,"Deen Dayal Nagar, Gwalior - MPPCB",20-10-2025 07:00:00,26.259242,78.216432,NH3,8,12,10
India,Madhya Pradesh,Gwalior,"Deen Dayal Nagar, Gwalior - MPPCB",20-10-2025 07:00:00,26.259242,78.216432,CO,12,111,39
India,Madhya Pradesh,Gwalior,"Maharaj Bada, Gwalior - MPPCB",20-10-2025 07:00:00,26.200388,78.147714,PM2.5,85,345,190
India,Madhya Pradesh,Gwalior,"Maharaj Bada, Gwalior - MPPCB",20-10-2025 07:00:00,26.200388,78.147714,NO2,25,120,52
India,Madhya Pradesh,Indore,"Airport Area, Indore - IMC",20-10-2025 07:00:00,22.7289,75.8076,PM2.5,43,139,69
India,Maharashtra,Amravati,"Shri Shivaji Science College, Amravati - MPCB",20-10-2025 07:00:00,20.939198,77.765701,OZONE,31,130,62
India,Maharashtra,Aurangabad,"Rachnakar Colony, Aurangabad - MPCB",20-10-2025 07:00:00,19.863756,75.321188,PM10,34,183,94
India,Maharashtra,Aurangabad,"Rachnakar Colony, Aurangabad - MPCB",20-10-2025 07:00:00,19.863756,75.321188,NO2,20,28,23
India,Maharashtra,Aurangabad,"Rachnakar Colony, Aurangabad - MPCB",20-10-2025 07:00:00,19.863756,75.321188,SO2,16,34,25
India,Maharashtra,Badlapur,"Katrap, Badlapur - MPCB",20-10-2025 07:00:00,19.16485,73.23409,NO2,15,43,28
India,Madhya Pradesh,Indore,"Chhoti Gwaltoli, Indore - MPPCB",20-10-2025 07:00:00,22.4310,75.5213,NH3,2,6,4
India,Madhya Pradesh,Indore,"Chhoti Gwaltoli, Indore - MPPCB",20-10-2025 07:00:00,22.4310,75.5213,SO2,13,28,18
India,Madhya Pradesh,Indore,"Maguda Nagar, Indore - IMC",20-10-2025 07:00:00,22.7524,75.8872,NO2,NA,NA,NA
India,Madhya Pradesh,Indore,"Regional Park, Indore - IMC",20-10-2025 07:00:00,22.6780,75.8559,NH3,1,1,1
India,Madhya Pradesh,Indore,"Residency Area, Indore - IMC",20-10-2025 07:00:00,22.7084,75.8815,CO,14,19,17
India,Karnataka,Ramanagara,"Vijay Nagar, Ramanagara - KSPCB",20-10-2025 07:00:00,12.733409,77.298051,CO,10,38,23
India,Karnataka,Tumakuru,"Thimmalapura, Tumakuru - KSPCB",20-10-2025 07:00:00,13.377516,77.099072,PM2.5,NA,NA,NA
India,Karnataka,Tumakuru,"Thimmalapura, Tumakuru - KSPCB",20-10-2025 07:00:00,13.377516,77.099072,PM10,NA,NA,NA
India,Karnataka,Tumakuru,"Thimmalapura, Tumakuru - KSPCB",20-10-2025 07:00:00,13.377516,77.099072,OZONE,14,15,15
India,Karnataka,Yadgir,"Collector Office, Yadgir - KSPCB",20-10-2025 07:00:00,16.7602,77.1428,PM2.5,NA,NA,NA
India,Madhya Pradesh,Singrauli,"Suryakiran Bhawan NCL, Singrauli - MPPCB",20-10-2025 07:00:00,24.108970,82.645580,PM2.5,53,305,134
India,Madhya Pradesh,Singrauli,"Suryakiran Bhawan NCL, Singrauli - MPPCB",20-10-2025 07:00:00,24.108970,82.645580,NO2,27,30,28
India,Madhya Pradesh,Singrauli,"Suryakiran Bhawan NCL, Singrauli - MPPCB",20-10-2025 07:00:00,24.108970,82.645580,CO,12,14,12
India,Maharashtra,Ahmednagar,"Tarakpur, Ahmednagar - MPCB",20-10-2025 07:00:00,19.10122,74.73339,SO2,1,7,4
India,Maharashtra,Chandrapur,"Chauhan Colony, Chandrapur - MPCB",20-10-2025 07:00:00,19.962900,79.298714,NH3,2,5,2
India,Maharashtra,Chandrapur,"MIDC Khutala, Chandrapur - MPCB",20-10-2025 07:00:00,19.9775302,79.2337086,PM10,60,174,102
India,Maharashtra,Chandrapur,"MIDC Khutala, Chandrapur - MPCB",20-10-2025 07:00:00,19.9775302,79.2337086,OZONE,17,19,18
India,Maharashtra,Dhule,"Deopur, Dhule - MPCB",20-10-2025 07:00:00,20.918946,74.776388,NH3,1,3,2
India,Maharashtra,Jalgaon,"Prabhat Colony, Jalgaon - MPCB",20-10-2025 07:00:00,21.001264,75.565602,NO2,7,44,16
India,Maharashtra,Jalgaon,"Prabhat Colony, Jalgaon - MPCB",20-10-2025 07:00:00,21.001264,75.565602,CO,29,110,56
India,Maharashtra,Mumbai,"Mindspace-Malad West, Mumbai - MPCB",20-10-2025 07:00:00,19.1878657,72.8304069,CO,42,80,66
India,Maharashtra,Mumbai,"Mindspace-Malad West, Mumbai - MPCB",20-10-2025 07:00:00,19.1878657,72.8304069,OZONE,17,59,21
India,Maharashtra,Mumbai,"Mulund West, Mumbai - MPCB",20-10-2025 07:00:00,19.1750,72.9419,NH3,NA,NA,NA
India,Maharashtra,Mumbai,"Navy Nagar-Colaba, Mumbai - IITM",20-10-2025 07:00:00,18.897756,72.813320,SO2,9,13,12
India,Maharashtra,Mumbai,"Sewri, Mumbai - BMC",20-10-2025 07:00:00,19.000084,72.856730,NO2,1,11,5
India,Maharashtra,Mumbai,"Sewri, Mumbai - BMC",20-10-2025 07:00:00,19.000084,72.856730,OZONE,78,146,121
India,Maharashtra,Malegaon,"Mahesh Nagar, Malegaon - MPCB",20-10-2025 07:00:00,20.555712,74.529236,NO2,7,63,29
India,Maharashtra,Malegaon,"Mahesh Nagar, Malegaon - MPCB",20-10-2025 07:00:00,20.555712,74.529236,NH3,1,12,3
India,Maharashtra,Mira-Bhayandar,"Bhayandar West, Mira-Bhayandar - MPCB",20-10-2025 07:00:00,19.296481,72.840923,PM2.5,81,284,173
India,Maharashtra,Mira-Bhayandar,"Bhayandar West, Mira-Bhayandar - MPCB",20-10-2025 07:00:00,19.296481,72.840923,PM10,102,137,117
India,Maharashtra,Mira-Bhayandar,"Bhayandar West, Mira-Bhayandar - MPCB",20-10-2025 07:00:00,19.296481,72.840923,OZONE,1,91,10
India,Maharashtra,Mumbai,"Bandra Kurla Complex, Mumbai - IITM",20-10-2025 07:00:00,19.053536,72.84643,CO,8,35,23
India,Maharashtra,Mumbai,"Borivali East, Mumbai - IITM",20-10-2025 07:00:00,19.23241,72.86895,NO2,NA,NA,NA
India,Maharashtra,Mumbai,"Borivali East, Mumbai - MPCB",20-10-2025 07:00:00,19.2243333,72.8658113,OZONE,10,18,16
India,Maharashtra,Mumbai,"Byculla, Mumbai - BMC",20-10-2025 07:00:00,18.9767,72.8380,PM10,99,133,113
India,Maharashtra,Mumbai,"Kherwadi_Bandra East, Mumbai - MPCB",20-10-2025 07:00:00,19.0632143,72.8456324,CO,19,48,38
India,Maharashtra,Mumbai,"Malad West, Mumbai - IITM",20-10-2025 07:00:00,19.19709,72.82204,NH3,5,7,6
India,Maharashtra,Mumbai,"Malad West, Mumbai - IITM",20-10-2025 07:00:00,19.19709,72.82204,SO2,4,8,5
India,Maharashtra,Mumbai,"Mindspace-Malad West, Mumbai - MPCB",20-10-2025 07:00:00,19.1878657,72.8304069,PM10,63,166,132
India,Maharashtra,Badlapur,"Katrap, Badlapur - MPCB",20-10-2025 07:00:00,19.16485,73.23409,SO2,8,23,14
India,Maharashtra,Boisar,"Khaira, Boisar - MPCB",20-10-2025 07:00:00,19.786089,72.757971,CO,14,58,25
India,Maharashtra,Chandrapur,"Chauhan Colony, Chandrapur - MPCB",20-10-2025 07:00:00,19.962900,79.298714,PM10,92,137,116
India,Maharashtra,Mumbai,"Kandivali East, Mumbai - MPCB",20-10-2025 07:00:00,19.205800,72.868200,PM2.5,83,331,150
India,Maharashtra,Mumbai,"Kandivali East, Mumbai - MPCB",20-10-2025 07:00:00,19.205800,72.868200,PM10,100,241,133
India,Maharashtra,Mumbai,"Kandivali East, Mumbai - MPCB",20-10-2025 07:00:00,19.205800,72.868200,NO2,6,13,8
India,Maharashtra,Mumbai,"Kandivali West, Mumbai - BMC",20-10-2025 07:00:00,19.215859,72.831718,CO,14,35,28
India,Maharashtra,Kalyan,"Pimpleshwar Mandir, Kalyan - MPCB",20-10-2025 07:00:00,19.192056,72.9585188,OZONE,6,43,9
India,Maharashtra,Kolhapur,"Sinchan Bhavan, Kolhapur - MPCB",20-10-2025 07:00:00,16.7143745,74.2426398,SO2,2,6,3
India,Maharashtra,Kolhapur,"Sinchan Bhavan, Kolhapur - MPCB",20-10-2025 07:00:00,16.7143745,74.2426398,OZONE,6,28,20
India,Maharashtra,Mumbai,"Colaba, Mumbai - MPCB",20-10-2025 07:00:00,18.910000,72.820000,PM10,91,128,108
India,Maharashtra,Nagpur,"Ram Nagar, Nagpur - MPCB",20-10-2025 07:00:00,21.143383,79.048912,NH3,2,6,3
India,Maharashtra,Nagpur,"Ram Nagar, Nagpur - MPCB",20-10-2025 07:00:00,21.143383,79.048912,SO2,3,64,14
India,Maharashtra,Nanded,"Sneh Nagar, Nanded - MPCB",20-10-2025 07:00:00,19.173852,77.296291,PM2.5,117,258,186
India,Maharashtra,Nanded,"Sneh Nagar, Nanded - MPCB",20-10-2025 07:00:00,19.173852,77.296291,SO2,3,4,4
India,Maharashtra,Nanded,"Sneh Nagar, Nanded - MPCB",20-10-2025 07:00:00,19.173852,77.296291,CO,18,51,44
India,Maharashtra,Nashik,"Gangapur Road, Nashik - MPCB",20-10-2025 07:00:00,20.0073285,73.7762427,NH3,4,4,4
India,Maharashtra,Nashik,"Hirawadi, Nashik - MPCB",20-10-2025 07:00:00,20.021503,73.813844,SO2,28,35,32
India,Maharashtra,Nashik,"Hirawadi, Nashik - MPCB",20-10-2025 07:00:00,20.021503,73.813844,CO,50,68,57
India,Maharashtra,Thane,"Kasarvadavali, Thane - MPCB",20-10-2025 07:00:00,19.26777,72.97182,PM10,80,125,99
India,Maharashtra,Thane,"Kasarvadavali, Thane - MPCB",20-10-2025 07:00:00,19.26777,72.97182,SO2,3,6,5
India,Maharashtra,Thane,"Upvan Fort, Thane - MPCB",20-10-2025 07:00:00,19.222279,72.957979,CO,58,102,83
India,Maharashtra,Thane,"Upvan Fort, Thane - MPCB",20-10-2025 07:00:00,19.222279,72.957979,OZONE,3,69,8
India,Maharashtra,Ulhasnagar,"Sidhi Vinayak Nagar, Ulhasnagar - MPCB",20-10-2025 07:00:00,19.235581,73.159121,NH3,3,7,5
India,Maharashtra,Virar,"Bolinj, Virar - MPCB",20-10-2025 07:00:00,19.4458210,72.7988231,PM2.5,86,261,151
India,Maharashtra,Virar,"Bolinj, Virar - MPCB",20-10-2025 07:00:00,19.4458210,72.7988231,NH3,1,2,2
India,Maharashtra,Navi Mumbai,"Sanpada, Navi Mumbai - MPCB",20-10-2025 07:00:00,19.0575752,73.0151367,SO2,7,16,10
India,Maharashtra,Navi Mumbai,"Sanpada, Navi Mumbai - MPCB",20-10-2025 07:00:00,19.0575752,73.0151367,OZONE,15,15,15
India,Maharashtra,Navi Mumbai,"Sector-2E Kalamboli, Navi Mumbai - MPCB",20-10-2025 07:00:00,19.02579,73.10297,NH3,2,9,6
India,Maharashtra,Navi Mumbai,"Tondare-Taloja, Navi Mumbai - MPCB",20-10-2025 07:00:00,19.0630,73.1209,PM10,115,167,137
India,Maharashtra,Parbhani,"Masoom Colony, Parbhani - MPCB",20-10-2025 07:00:00,19.265594,76.761463,PM10,111,159,135
India,Maharashtra,Pune,"Savitribai Phule Pune University, Pune - MPCB",20-10-2025 07:00:00,18.547056,73.826908,NH3,1,1,1
India,Maharashtra,Pune,"Transport Nagar-Nigdi, Pune - IITM",20-10-2025 07:00:00,18.664282,73.763966,PM2.5,62,184,124
India,Maharashtra,Pune,"Transport Nagar-Nigdi, Pune - IITM",20-10-2025 07:00:00,18.664282,73.763966,CO,18,68,54
India,Maharashtra,Solapur,"Dnyaneshwar Nagar, Solapur - MPCB",20-10-2025 07:00:00,17.6336264,75.9132495,NO2,5,27,11
India,Maharashtra,Solapur,"Dnyaneshwar Nagar, Solapur - MPCB",20-10-2025 07:00:00,17.6336264,75.9132495,NH3,6,13,8
India,Maharashtra,Pimpri-Chinchwad,"Gavalinagar, Pimpri Chinchwad - MPCB",20-10-2025 07:00:00,18.63673,73.82487,CO,18,108,53
India,Maharashtra,Pimpri-Chinchwad,"Gavalinagar, Pimpri Chinchwad - MPCB",20-10-2025 07:00:00,18.63673,73.82487,OZONE,10,11,10
India,Maharashtra,Pimpri-Chinchwad,"Park Street Wakad, Pimpri Chinchwad - MPCB",20-10-2025 07:00:00,18.59051,73.77946,NH3,1,3,2
India,Maharashtra,Pimpri-Chinchwad,"Thergaon, Pimpri Chinchwad - MPCB",20-10-2025 07:00:00,18.616318,73.765797,NO2,25,88,45
India,Maharashtra,Pimpri-Chinchwad,"Thergaon, Pimpri Chinchwad - MPCB",20-10-2025 07:00:00,18.616318,73.765797,NH3,2,4,3
India,Maharashtra,Pune,"Bhumkar Nagar, Pune - IITM",20-10-2025 07:00:00,18.605770,73.749976,CO,12,95,38
India,Maharashtra,Pune,"Hadapsar, Pune - IITM",20-10-2025 07:00:00,18.501793,73.927532,PM2.5,13,235,93
India,Maharashtra,Pune,"Katraj Dairy, Pune - MPCB",20-10-2025 07:00:00,18.454450,73.854155,PM2.5,46,122,75
India,Maharashtra,Pune,"Katraj Dairy, Pune - MPCB",20-10-2025 07:00:00,18.454450,73.854155,SO2,4,56,15
India,Maharashtra,Pune,"Mhada Colony, Pune - IITM",20-10-2025 07:00:00,18.573040,73.927715,CO,9,125,89
India,Maharashtra,Mumbai,"Shivaji Nagar, Mumbai - BMC",20-10-2025 07:00:00,19.060498,72.923356,CO,1,38,20
India,Maharashtra,Mumbai,"Sion, Mumbai - MPCB",20-10-2025 07:00:00,19.047000,72.874600,CO,10,18,17
India,Maharashtra,Mumbai,"Vasai West, Mumbai - MPCB",20-10-2025 07:00:00,19.383200,72.820400,PM2.5,47,147,80
India,Maharashtra,Mumbai,"Vile Parle West, Mumbai - MPCB",20-10-2025 07:00:00,19.10861,72.83622,CO,6,27,24
India,Maharashtra,Nashik,"MIDC Ambad, Nashik - MPCB",20-10-2025 07:00:00,19.950220,73.731480,SO2,16,17,16
India,Maharashtra,Navi Mumbai,"Mahape, Navi Mumbai - MPCB",20-10-2025 07:00:00,19.1135051,73.008978,SO2,26,29,28
India,Maharashtra,Navi Mumbai,"Nerul, Navi Mumbai - MPCB",20-10-2025 07:00:00,19.008751,73.016620,NH3,4,4,4
India,Maharashtra,Nagpur,"Mahal, Nagpur - MPCB",20-10-2025 07:00:00,21.14472,79.107595,NO2,13,89,39
India,Maharashtra,Nagpur,"Mahal, Nagpur - MPCB",20-10-2025 07:00:00,21.14472,79.107595,CO,30,135,58
India,Maharashtra,Nagpur,"Opp GPO Civil Lines, Nagpur - MPCB",20-10-2025 07:00:00,21.152875,79.0517531,NO2,9,74,27
India,Odisha,Talcher,"Talcher Coalfields,Talcher - OSPCB",20-10-2025 07:00:00,20.9360711,85.1707021,NO2,56,89,72
India,Odisha,Talcher,"Talcher Coalfields,Talcher - OSPCB",20-10-2025 07:00:00,20.9360711,85.1707021,CO,3,52,18
India,Odisha,Talcher,"Talcher Coalfields,Talcher - OSPCB",20-10-2025 07:00:00,20.9360711,85.1707021,OZONE,1,20,18
India,Odisha,Tensa,"Barsua Iron Ore Mines, Tensa - OSPCB",20-10-2025 07:00:00,21.869985,85.167016,PM2.5,NA,NA,NA
India,Odisha,Tensa,"Barsua Iron Ore Mines, Tensa - OSPCB",20-10-2025 07:00:00,21.869985,85.167016,CO,31,40,36
India,Puducherry,Puducherry,"Jawahar Nagar, Puducherry - PPCC",20-10-2025 07:00:00,11.9309,79.8027,NO2,5,22,12
India,Puducherry,Puducherry,"Jawahar Nagar, Puducherry - PPCC",20-10-2025 07:00:00,11.9309,79.8027,NH3,1,4,2
India,Puducherry,Puducherry,"Jawahar Nagar, Puducherry - PPCC",20-10-2025 07:00:00,11.9309,79.8027,SO2,3,10,8
India,Puducherry,Puducherry,"Jawahar Nagar, Puducherry - PPCC",20-10-2025 07:00:00,11.9309,79.8027,CO,8,28,13
India,Punjab,Amritsar,"Golden Temple, Amritsar - PPCB",20-10-2025 07:00:00,31.620000,74.876512,OZONE,44,63,53
India,Odisha,Balasore,"Kalidaspur, Balasore - OSPCB",20-10-2025 07:00:00,21.51161,86.89088,SO2,4,8,5
India,Odisha,Barbil,"Forest Office, Barbil - OSPCB",20-10-2025 07:00:00,22.1166054,85.3945546,PM2.5,43,325,113
India,Odisha,Barbil,"Forest Office, Barbil - OSPCB",20-10-2025 07:00:00,22.1166054,85.3945546,PM10,54,238,111
India,Odisha,Baripada,"Meher Colony, Baripada - OSPCB",20-10-2025 07:00:00,21.941841,86.728318,CO,26,44,36
India,Odisha,Bhubaneswar,"Lingraj Mandir, Bhubaneswar - OSPCB",20-10-2025 07:00:00,20.240790,85.836784,PM10,11,130,70
India,Odisha,Bhubaneswar,"Lingraj Mandir, Bhubaneswar - OSPCB",20-10-2025 07:00:00,20.240790,85.836784,NO2,9,50,23
India,Odisha,Bhubaneswar,"Lingraj Mandir, Bhubaneswar - OSPCB",20-10-2025 07:00:00,20.240790,85.836784,OZONE,3,107,14
India,Odisha,Bhubaneswar,"Patia, Bhubaneswar - OSPCB",20-10-2025 07:00:00,20.34652,85.81630,PM10,34,124,63
India,Punjab,Patiala,"Model Town, Patiala - PPCB",20-10-2025 07:00:00,30.349388,76.366642,NH3,6,7,6
India,Punjab,Patiala,"Model Town, Patiala - PPCB",20-10-2025 07:00:00,30.349388,76.366642,SO2,4,12,8
India,Punjab,Patiala,"Model Town, Patiala - PPCB",20-10-2025 07:00:00,30.349388,76.366642,CO,12,62,25
India,Rajasthan,Ajmer,"Civil Lines,  Ajmer - RSPCB",20-10-2025 07:00:00,26.470859,74.646594,OZONE,5,38,11
India,Rajasthan,Alwar,"Moti Doongri, Alwar - RSPCB",20-10-2025 07:00:00,27.554793,76.611536,PM10,104,149,124
India,Rajasthan,Alwar,"Moti Doongri, Alwar - RSPCB",20-10-2025 07:00:00,27.554793,76.611536,NO2,35,55,47
India,Rajasthan,Alwar,"Moti Doongri, Alwar - RSPCB",20-10-2025 07:00:00,27.554793,76.611536,NH3,7,12,10
India,Rajasthan,Alwar,"Moti Doongri, Alwar - RSPCB",20-10-2025 07:00:00,27.554793,76.611536,CO,27,64,37
India,Rajasthan,Banswara,"Rati Talai, Banswara - RSPCB",20-10-2025 07:00:00,23.555190,74.440010,PM10,52,181,97
India,Meghalaya,Shillong,"JN Stadium, Shillong - Meghalaya PCB",20-10-2025 07:00:00,25.5803419,91.8942571,PM2.5,NA,NA,NA
India,Meghalaya,Shillong,"JN Stadium, Shillong - Meghalaya PCB",20-10-2025 07:00:00,25.5803419,91.8942571,PM10,NA,NA,NA
India,Meghalaya,Shillong,"Lumpyngngad, Shillong - Meghalaya PCB",20-10-2025 07:00:00,25.5586,91.8985,PM2.5,1,12,6
India,Meghalaya,Shillong,"Lumpyngngad, Shillong - Meghalaya PCB",20-10-2025 07:00:00,25.5586,91.8985,PM10,5,20,10
India,Nagaland,Kohima,"PWD Junction, Kohima - NPCB",20-10-2025 07:00:00,25.6635413,94.0989878,PM10,30,84,55
India,Nagaland,Kohima,"PWD Junction, Kohima - NPCB",20-10-2025 07:00:00,25.6635413,94.0989878,NH3,1,1,1
India,Odisha,Angul,"Hakimapada, Angul - OSPCB",20-10-2025 07:00:00,20.832874,85.104082,OZONE,2,26,3
India,Rajasthan,Bhiwadi,"RIICO Ind. Area III, Bhiwadi - RSPCB",20-10-2025 07:00:00,28.194909,76.862296,PM10,108,356,200
India,Rajasthan,Bhiwadi,"Vasundhara Nagar_UIT, Bhiwadi - RSPCB",20-10-2025 07:00:00,28.207266,76.829265,PM2.5,55,383,200
India,Rajasthan,Bhiwadi,"Vasundhara Nagar_UIT, Bhiwadi - RSPCB",20-10-2025 07:00:00,28.207266,76.829265,NO2,20,128,59
India,Rajasthan,Bikaner,"MM Ground, Bikaner - RSPCB",20-10-2025 07:00:00,28.018792,73.292658,CO,22,132,54
India,Rajasthan,Bundi,"New Colony, Bundi - RSPCB",20-10-2025 07:00:00,25.435774,75.644272,PM10,81,205,117
India,Rajasthan,Bundi,"New Colony, Bundi - RSPCB",20-10-2025 07:00:00,25.435774,75.644272,NH3,3,6,4
India,Punjab,Jalandhar,"Civil Line, Jalandhar - PPCB",20-10-2025 07:00:00,31.321907,75.578914,PM10,64,152,107
India,Punjab,Jalandhar,"Civil Line, Jalandhar - PPCB",20-10-2025 07:00:00,31.321907,75.578914,NH3,2,2,2
India,Punjab,Khanna,"Kalal Majra, Khanna - PPCB",20-10-2025 07:00:00,30.736056 ,76.209694,SO2,5,6,6
India,Punjab,Khanna,"Kalal Majra, Khanna - PPCB",20-10-2025 07:00:00,30.736056 ,76.209694,CO,34,62,48
India,Punjab,Khanna,"Kalal Majra, Khanna - PPCB",20-10-2025 07:00:00,30.736056 ,76.209694,OZONE,24,26,25
India,Punjab,Mandi Gobindgarh,"RIMT University, Mandi Gobindgarh - PPCB",20-10-2025 07:00:00,30.649961,76.331442,PM10,152,180,166
India,Odisha,Bhubaneswar,"Patia, Bhubaneswar - OSPCB",20-10-2025 07:00:00,20.34652,85.81630,SO2,NA,NA,NA
India,Odisha,Brajrajnagar,"GM Office, Brajrajnagar - OSPCB",20-10-2025 07:00:00,21.8004996,83.8396977,PM10,29,158,68
India,Odisha,Brajrajnagar,"GM Office, Brajrajnagar - OSPCB",20-10-2025 07:00:00,21.8004996,83.8396977,NO2,NA,NA,NA
India,Odisha,Brajrajnagar,"GM Office, Brajrajnagar - OSPCB",20-10-2025 07:00:00,21.8004996,83.8396977,OZONE,25,28,25
India,Odisha,Byasanagar,"Ferro Chrome Colony, Byasanagar - OSPCB",20-10-2025 07:00:00,20.94185,86.11510,SO2,2,15,5
India,Odisha,Nayagarh,"Dabuna, Nayagarh - OSPCB",20-10-2025 07:00:00,21.847279,85.416905,PM2.5,23,64,41
India,Odisha,Rourkela,"Fertilizer Township, Rourkela - OSPCB",20-10-2025 07:00:00,22.18972222,84.86277778,PM2.5,55,83,62
India,Odisha,Rourkela,"Raghunathpali, Rourkela - OSPCB",20-10-2025 07:00:00,22.220833,84.809444,PM10,NA,NA,NA
India,Rajasthan,Baran,"Bamboliya, Baran - RSPCB",20-10-2025 07:00:00,25.106006,76.469948,SO2,4,10,6
India,Rajasthan,Bharatpur,"Krishna Nagar, Bharatpur - RSPCB",20-10-2025 07:00:00,27.215415,77.50873,PM2.5,42,166,74
India,Rajasthan,Bharatpur,"Krishna Nagar, Bharatpur - RSPCB",20-10-2025 07:00:00,27.215415,77.50873,NH3,5,9,8
India,Rajasthan,Dholpur,"Raja Ganj, Dholpur - RSPCB",20-10-2025 07:00:00,26.699557,77.898881,OZONE,13,27,17
India,Rajasthan,Dungarpur,"Bhoiwada, Dungarpur - RSPCB",20-10-2025 07:00:00,23.837789,73.714926,PM2.5,38,303,145
India,Rajasthan,Dungarpur,"Bhoiwada, Dungarpur - RSPCB",20-10-2025 07:00:00,23.837789,73.714926,CO,4,27,13
India,Rajasthan,Hanumangarh,"Housing Board, Hanumangarh - RSPCB",20-10-2025 07:00:00,29.610750,74.283608,PM2.5,72,312,164
India,Rajasthan,Hanumangarh,"Housing Board, Hanumangarh - RSPCB",20-10-2025 07:00:00,29.610750,74.283608,PM10,64,163,115
India,Rajasthan,Jaipur,"Adarsh Nagar, Jaipur - RSPCB",20-10-2025 07:00:00,26.902909,75.836858,PM2.5,55,311,134
India,Rajasthan,Jaipur,"Adarsh Nagar, Jaipur - RSPCB",20-10-2025 07:00:00,26.902909,75.836858,NH3,5,23,12
India,Rajasthan,Jaipur,"Mansarovar Sector-12, Jaipur - RSPCB",20-10-2025 07:00:00,26.843698,75.766894,PM2.5,41,500,262
India,Rajasthan,Jaipur,"Mansarovar Sector-12, Jaipur - RSPCB",20-10-2025 07:00:00,26.843698,75.766894,PM10,53,500,242
India,Rajasthan,Jaipur,"Shastri Nagar, Jaipur - RSPCB",20-10-2025 07:00:00,26.9502929,75.730943,NO2,59,137,85
India,Rajasthan,Jaipur,"Shastri Nagar, Jaipur - RSPCB",20-10-2025 07:00:00,26.9502929,75.730943,CO,88,164,107
India,Rajasthan,Jaisalmer,"Sadar Bazar, Jaisalmer - RSPCB",20-10-2025 07:00:00,26.912329,70.909168,NH3,5,11,7
India,Rajasthan,Jaisalmer,"Sadar Bazar, Jaisalmer - RSPCB",20-10-2025 07:00:00,26.912329,70.909168,OZONE,15,123,61
India,Rajasthan,Jalore,"Mudtra Sili, Jalore - RSPCB",20-10-2025 07:00:00,25.344694,72.626208,PM10,64,405,161
India,Rajasthan,Jalore,"Mudtra Sili, Jalore - RSPCB",20-10-2025 07:00:00,25.344694,72.626208,NO2,10,124,43
India,Rajasthan,Jhalawar,"Rajlaxmi Nagar, Jhalawar - RSPCB",20-10-2025 07:00:00,24.588397,76.172782,SO2,6,17,9
India,Rajasthan,Jhalawar,"Rajlaxmi Nagar, Jhalawar - RSPCB",20-10-2025 07:00:00,24.588397,76.172782,CO,28,80,37
India,Rajasthan,Jhalawar,"Rajlaxmi Nagar, Jhalawar - RSPCB",20-10-2025 07:00:00,24.588397,76.172782,OZONE,9,144,44
India,Rajasthan,Jodhpur,"Samrat Ashok Udhyan, Jodhpur - RSPCB",20-10-2025 07:00:00,26.253384,72.976571,PM2.5,37,500,192
India,Rajasthan,Jodhpur,"Samrat Ashok Udhyan, Jodhpur - RSPCB",20-10-2025 07:00:00,26.253384,72.976571,PM10,62,500,177
India,Rajasthan,Jodhpur,"Samrat Ashok Udhyan, Jodhpur - RSPCB",20-10-2025 07:00:00,26.253384,72.976571,OZONE,6,148,24
India,Rajasthan,Karauli,"Satyawati Vihar, Karauli - RSPCB",20-10-2025 07:00:00,26.506177,77.025989,PM2.5,61,343,128
India,Rajasthan,Karauli,"Satyawati Vihar, Karauli - RSPCB",20-10-2025 07:00:00,26.506177,77.025989,OZONE,4,48,7
India,Rajasthan,Kota,"Dhanmandi, Kota - RSPCB",20-10-2025 07:00:00,25.164090,75.858137,PM2.5,40,170,98
India,Rajasthan,Kota,"Dhanmandi, Kota - RSPCB",20-10-2025 07:00:00,25.164090,75.858137,NO2,25,118,58
India,Rajasthan,Kota,"Dhanmandi, Kota - RSPCB",20-10-2025 07:00:00,25.164090,75.858137,NH3,3,5,4
India,Rajasthan,Kota,"Dhanmandi, Kota - RSPCB",20-10-2025 07:00:00,25.164090,75.858137,CO,14,86,43
India,Rajasthan,Kota,"Nayapura, Kota - RSPCB",20-10-2025 07:00:00,25.196024,75.855668,NH3,2,7,4
India,Rajasthan,Kota,"Nayapura, Kota - RSPCB",20-10-2025 07:00:00,25.196024,75.855668,SO2,6,13,8
India,Rajasthan,Kota,"Shrinath Puram, Kota - RSPCB",20-10-2025 07:00:00,25.14389,75.821256,PM2.5,74,337,201
India,Rajasthan,Kota,"Shrinath Puram, Kota - RSPCB",20-10-2025 07:00:00,25.14389,75.821256,NH3,1,6,3
India,Rajasthan,Nagaur,"Karni Colony, Nagaur - RSPCB",20-10-2025 07:00:00,27.213494,73.734444,SO2,4,22,8
India,Rajasthan,Nagaur,"Karni Colony, Nagaur - RSPCB",20-10-2025 07:00:00,27.213494,73.734444,OZONE,58,167,89
India,Rajasthan,Pali,"Indira Colony Vistar, Pali - RSPCB",20-10-2025 07:00:00,25.771061, 73.340227,OZONE,7,58,9
India,Rajasthan,Chittorgarh,"Shastri Nagar, Chittorgarh - RSPCB",20-10-2025 07:00:00,24.892047,74.623527,NO2,8,75,38
India,Rajasthan,Chittorgarh,"Shastri Nagar, Chittorgarh - RSPCB",20-10-2025 07:00:00,24.892047,74.623527,OZONE,3,117,11
India,Rajasthan,Dausa,"Khatikan Mohalla, Dausa - RSPCB",20-10-2025 07:00:00,26.895552,76.334753,PM2.5,45,186,80
India,Rajasthan,Dausa,"Khatikan Mohalla, Dausa - RSPCB",20-10-2025 07:00:00,26.895552,76.334753,PM10,71,205,113
India,Rajasthan,Dholpur,"Raja Ganj, Dholpur - RSPCB",20-10-2025 07:00:00,26.699557,77.898881,PM10,94,384,170
India,Rajasthan,Dholpur,"Raja Ganj, Dholpur - RSPCB",20-10-2025 07:00:00,26.699557,77.898881,NO2,11,76,30
India,Rajasthan,Dholpur,"Raja Ganj, Dholpur - RSPCB",20-10-2025 07:00:00,26.699557,77.898881,NH3,7,11,9
India,Rajasthan,Jhunjhunu,"Indra Nagar, Jhunjhunu - RSPCB",20-10-2025 07:00:00,28.108988,75.386577,PM10,90,469,185
India,Rajasthan,Jodhpur,"Collectorate, Jodhpur - RSPCB",20-10-2025 07:00:00,26.268249,73.0193853,PM2.5,NA,NA,NA
India,Rajasthan,Jodhpur,"Digari Kalan, Jodhpur - RSPCB",20-10-2025 07:00:00,26.295810,73.082283,NO2,10,111,39
India,Rajasthan,Jodhpur,"Jhalamand, Jodhpur - RSPCB",20-10-2025 07:00:00,26.215415,73.070156,PM10,57,338,124
India,Rajasthan,Jaipur,"RIICO Sitapura, Jaipur - RSPCB",20-10-2025 07:00:00,26.786682,75.827928,NH3,3,5,4
India,Rajasthan,Jaipur,"Sector-2 Murlipura, Jaipur - RSPCB",20-10-2025 07:00:00,26.960669,75.771817,PM10,60,396,136
India,Rajasthan,Jaipur,"Sector-2 Murlipura, Jaipur - RSPCB",20-10-2025 07:00:00,26.960669,75.771817,OZONE,12,144,47
India,Rajasthan,Sawai Madhopur,"Sahu Nagar, Sawai Madhopur - RSPCB",20-10-2025 07:00:00,26.031443,76.359327,PM10,41,166,76
India,Rajasthan,Sawai Madhopur,"Sahu Nagar, Sawai Madhopur - RSPCB",20-10-2025 07:00:00,26.031443,76.359327,NO2,7,23,13
India,Rajasthan,Sawai Madhopur,"Sahu Nagar, Sawai Madhopur - RSPCB",20-10-2025 07:00:00,26.031443,76.359327,NH3,11,14,12
India,Rajasthan,Pratapgarh,"Pragati Nagar, Pratapgarh - RSPCB",20-10-2025 07:00:00,24.041198,74.780702,OZONE,25,110,29
India,Rajasthan,Rajsamand,"Dhoinda, Rajsamand - RSPCB",20-10-2025 07:00:00,25.036360,73.883502,SO2,6,20,10
India,TamilNadu,Dindigul,"Mendonsa Colony, Dindigul - TNPCB",20-10-2025 07:00:00,10.358535,77.984321,SO2,19,24,22
India,TamilNadu,Dindigul,"Mendonsa Colony, Dindigul - TNPCB",20-10-2025 07:00:00,10.358535,77.984321,CO,18,42,20
India,TamilNadu,Gummidipoondi,"Anthoni Pillai Nagar, Gummidipoondi - TNPCB",20-10-2025 07:00:00,13.4127,80.1081,NO2,1,5,2
India,TamilNadu,Gummidipoondi,"Anthoni Pillai Nagar, Gummidipoondi - TNPCB",20-10-2025 07:00:00,13.4127,80.1081,SO2,7,10,8
India,TamilNadu,Hosur,"SIPCOT Phase-1, Hosur - TNPCB",20-10-2025 07:00:00,12.746998,77.813811,PM10,66,142,94
India,TamilNadu,Hosur,"SIPCOT Phase-1, Hosur - TNPCB",20-10-2025 07:00:00,12.746998,77.813811,CO,15,21,18
India,TamilNadu,Kanchipuram,"Kilambi, Kanchipuram - TNPCB",20-10-2025 07:00:00,12.864618,79.659968,NH3,4,4,4
India,TamilNadu,Kanchipuram,"Kilambi, Kanchipuram - TNPCB",20-10-2025 07:00:00,12.864618,79.659968,SO2,42,45,43
India,TamilNadu,Kanchipuram,"Kilambi, Kanchipuram - TNPCB",20-10-2025 07:00:00,12.864618,79.659968,CO,11,16,12
India,TamilNadu,Kanchipuram,"Kilambi, Kanchipuram - TNPCB",20-10-2025 07:00:00,12.864618,79.659968,OZONE,8,9,8
India,TamilNadu,Karur,"Kamadenu Nagar, Karur - TNPCB",20-10-2025 07:00:00,10.967820,78.080882,PM10,11,137,31
India,TamilNadu,Ooty,"Bombay Castel, Ooty - TNPCB",20-10-2025 07:00:00,11.4068288,76.7138973,OZONE,5,6,6
India,TamilNadu,Palkalaiperur,"Bharathidasan University, Palkalaiperur - TNPCB",20-10-2025 07:00:00,10.681158,78.741746,NO2,7,7,7
India,TamilNadu,Perundurai,"SIPCOT Industrial Park, Perundurai - TNPCB",20-10-2025 07:00:00,11.258242,77.552761,PM10,6,21,14
India,TamilNadu,Perundurai,"SIPCOT Industrial Park, Perundurai - TNPCB",20-10-2025 07:00:00,11.258242,77.552761,NH3,2,3,2
India,TamilNadu,Pudukottai,"SIPCOT Nathampannai, Pudukottai - TNPCB",20-10-2025 07:00:00,10.423417,78.784889,PM2.5,13,107,38
India,TamilNadu,Pudukottai,"SIPCOT Nathampannai, Pudukottai - TNPCB",20-10-2025 07:00:00,10.423417,78.784889,PM10,19,118,48
India,TamilNadu,Ramanathapuram,"Chalai Bazaar, Ramanathapuram - TNPCB",20-10-2025 07:00:00,9.36399,78.831977,SO2,8,49,16
India,Rajasthan,Sikar,"Radhakishan Pura, Sikar - RSPCB",20-10-2025 07:00:00,27.608912,75.153302,SO2,3,7,5
India,Rajasthan,Sikar,"Radhakishan Pura, Sikar - RSPCB",20-10-2025 07:00:00,27.608912,75.153302,CO,19,97,36
India,Rajasthan,Sirohi,"Vedhaynath Colony, Sirohi - RSPCB",20-10-2025 07:00:00,24.885261,72.857549,NO2,6,75,25
India,Rajasthan,Sirohi,"Vedhaynath Colony, Sirohi - RSPCB",20-10-2025 07:00:00,24.885261,72.857549,OZONE,19,91,62
India,Rajasthan,Sri Ganganagar,"Old City, Sri Ganganagar - RSPCB",20-10-2025 07:00:00,29.931624,73.864511,OZONE,16,134,50
India,Rajasthan,Tonk,"Shastri Nagar, Tonk - RSPCB",20-10-2025 07:00:00,26.159933,75.780517,OZONE,11,78,21
India,Rajasthan,Udaipur,"Ashok Nagar, Udaipur - RSPCB",20-10-2025 07:00:00,24.5886166,73.6321397,NO2,15,208,93
India,TamilNadu,Tiruchirappalli,"St Joseph College, Tiruchirappalli - TNPCB",20-10-2025 07:00:00,10.830158,78.691849,CO,6,25,20
India,TamilNadu,Tirunelveli,"Municipal Corporation Office, Tirunelveli - TNPCB",20-10-2025 07:00:00,8.728442,77.6962,NH3,1,3,2
India,TamilNadu,Tirunelveli,"Municipal Corporation Office, Tirunelveli - TNPCB",20-10-2025 07:00:00,8.728442,77.6962,OZONE,6,7,6
India,TamilNadu,Tirupur,"Kumaran College, Tirupur - TNPCB",20-10-2025 07:00:00,11.0973603,77.3228673,NO2,6,13,8
India,TamilNadu,Vellore,"Vasanthapuram, Vellore - TNPCB",20-10-2025 07:00:00,12.909494,79.131861,PM2.5,12,82,38
India,TamilNadu,Vellore,"Vasanthapuram, Vellore - TNPCB",20-10-2025 07:00:00,12.909494,79.131861,SO2,21,21,21
India,TamilNadu,Ranipet,"VOC Nagar_SIPCOT, Ranipet - TNPCB",20-10-2025 07:00:00,12.952707,79.30394,PM2.5,21,414,87
India,TamilNadu,Ranipet,"VOC Nagar_SIPCOT, Ranipet - TNPCB",20-10-2025 07:00:00,12.952707,79.30394,NO2,1,2,1
India,TamilNadu,Salem,"Sona College of Technology, Salem - TNPCB",20-10-2025 07:00:00,11.679111,78.125052,PM2.5,5,307,44
India,TamilNadu,Salem,"Sona College of Technology, Salem - TNPCB",20-10-2025 07:00:00,11.679111,78.125052,OZONE,20,20,20
India,TamilNadu,Thanjavur,"Parisutham Nagar, Thanjavur - TNPCB",20-10-2025 07:00:00,10.7654824,79.1389968,OZONE,5,21,18
India,TamilNadu,Tiruchirappalli,"St Joseph College, Tiruchirappalli - TNPCB",20-10-2025 07:00:00,10.830158,78.691849,PM10,21,88,62
India,TamilNadu,Coimbatore,"PSG College of Arts and Science, Coimbatore - TNPCB",20-10-2025 07:00:00,11.0328,77.0349,NO2,9,10,9
India,TamilNadu,Coimbatore,"SIDCO Kurichi, Coimbatore - TNPCB",20-10-2025 07:00:00,10.942451,76.978996,PM2.5,3,235,74
India,TamilNadu,Coimbatore,"SIDCO Kurichi, Coimbatore - TNPCB",20-10-2025 07:00:00,10.942451,76.978996,PM10,7,101,41
India,TamilNadu,Coimbatore,"SIDCO Kurichi, Coimbatore - TNPCB",20-10-2025 07:00:00,10.942451,76.978996,NO2,9,17,12
India,TamilNadu,Coimbatore,"SIDCO Kurichi, Coimbatore - TNPCB",20-10-2025 07:00:00,10.942451,76.978996,OZONE,1,10,2
India,TamilNadu,Dindigul,"Mendonsa Colony, Dindigul - TNPCB",20-10-2025 07:00:00,10.358535,77.984321,PM10,17,191,61
India,TamilNadu,Dindigul,"Mendonsa Colony, Dindigul - TNPCB",20-10-2025 07:00:00,10.358535,77.984321,NH3,1,1,1
India,TamilNadu,Chennai,"Manali Village, Chennai - TNPCB",20-10-2025 07:00:00,13.1662,80.2584,OZONE,26,58,51
India,TamilNadu,Chennai,"Manali, Chennai - CPCB",20-10-2025 07:00:00,13.164544,80.26285,NH3,7,7,7
India,TamilNadu,Chennai,"Perungudi, Chennai - TNPCB",20-10-2025 07:00:00,12.9533,80.2357,NO2,1,3,2
India,TamilNadu,Chennai,"Velachery Res. Area, Chennai - CPCB",20-10-2025 07:00:00,13.0052189,80.2398125,PM2.5,41,81,56
India,TamilNadu,Chennai,"Velachery Res. Area, Chennai - CPCB",20-10-2025 07:00:00,13.0052189,80.2398125,PM10,39,106,71
India,TamilNadu,Chennai,"Velachery Res. Area, Chennai - CPCB",20-10-2025 07:00:00,13.0052189,80.2398125,NO2,14,18,16
India,TamilNadu,Madurai,"Uchapatti, Madurai - TNPCB",20-10-2025 07:00:00,9.865935,78.022669,NH3,4,4,4
India,TamilNadu,Namakkal,"Ponnusamy Nagar, Namakkal - TNPCB",20-10-2025 07:00:00,11.273992,78.163545,PM10,31,104,81
India,TamilNadu,Ooty,"Bombay Castel, Ooty - TNPCB",20-10-2025 07:00:00,11.4068288,76.7138973,PM2.5,NA,NA,NA
India,TamilNadu,Ooty,"Bombay Castel, Ooty - TNPCB",20-10-2025 07:00:00,11.4068288,76.7138973,CO,NA,NA,NA
India,TamilNadu,Chennai,"Alandur Bus Depot, Chennai - CPCB",20-10-2025 07:00:00,12.9099161,80.1076538,NO2,9,17,11
India,TamilNadu,Chennai,"Arumbakkam, Chennai - TNPCB",20-10-2025 07:00:00,13.0664,80.2112 ,PM2.5,13,343,105
India,Uttar_Pradesh,Ghaziabad,"Vasundhara, Ghaziabad - UPPCB",20-10-2025 07:00:00,28.6603346,77.3572563,SO2,8,18,13
India,Uttar_Pradesh,Ghaziabad,"Vasundhara, Ghaziabad - UPPCB",20-10-2025 07:00:00,28.6603346,77.3572563,OZONE,13,135,21
India,Uttar_Pradesh,Gorakhpur,"Madan Mohan Malaviya University of Technology, Gorakhpur - UPPCB",20-10-2025 07:00:00,26.730136,83.433859,NH3,1,1,1
India,Uttar_Pradesh,Greater Noida,"Knowledge Park - III, Greater Noida - UPPCB",20-10-2025 07:00:00,28.47272,77.482000,NH3,12,19,15
India,Uttar_Pradesh,Greater Noida,"Knowledge Park - III, Greater Noida - UPPCB",20-10-2025 07:00:00,28.47272,77.482000,OZONE,6,183,9
India,Uttar_Pradesh,Greater Noida,"Knowledge Park - V, Greater Noida - UPPCB",20-10-2025 07:00:00,28.557054,77.453663,PM2.5,129,411,300
India,Uttar_Pradesh,Greater Noida,"Knowledge Park - V, Greater Noida - UPPCB",20-10-2025 07:00:00,28.557054,77.453663,PM10,155,500,305
India,Uttar_Pradesh,Greater Noida,"Knowledge Park - V, Greater Noida - UPPCB",20-10-2025 07:00:00,28.557054,77.453663,NO2,54,173,97
India,Uttar_Pradesh,Firozabad,"Vibhab Nagar, Firozabad - UPPCB",20-10-2025 07:00:00,27.1594,78.3953,PM10,45,128,87
India,Uttar_Pradesh,Firozabad,"Vibhab Nagar, Firozabad - UPPCB",20-10-2025 07:00:00,27.1594,78.3953,SO2,4,67,18
India,Uttar_Pradesh,Firozabad,"Vibhab Nagar, Firozabad - UPPCB",20-10-2025 07:00:00,27.1594,78.3953,CO,18,30,25
India,Uttar_Pradesh,Ghaziabad,"Indirapuram, Ghaziabad - UPPCB",20-10-2025 07:00:00,28.646233,77.358075,NO2,27,167,92
India,Uttar_Pradesh,Ghaziabad,"Indirapuram, Ghaziabad - UPPCB",20-10-2025 07:00:00,28.646233,77.358075,CO,30,133,88
India,Uttar_Pradesh,Ghaziabad,"Loni, Ghaziabad - UPPCB",20-10-2025 07:00:00,28.757294,77.278792,PM10,128,427,271
India,Uttar_Pradesh,Ghaziabad,"Loni, Ghaziabad - UPPCB",20-10-2025 07:00:00,28.757294,77.278792,SO2,15,76,30
India,Uttar_Pradesh,Ghaziabad,"Loni, Ghaziabad - UPPCB",20-10-2025 07:00:00,28.757294,77.278792,OZONE,3,72,5
India,Uttar_Pradesh,Ghaziabad,"Sanjay Nagar, Ghaziabad - UPPCB",20-10-2025 07:00:00,28.685382,77.453839,OZONE,15,140,17
India,Telangana,Hyderabad,"Nacharam_TSIIC IALA, Hyderabad - TSPCB",20-10-2025 07:00:00,17.429398,78.569354,SO2,NA,NA,NA
India,Telangana,Hyderabad,"New Malakpet, Hyderabad - TSPCB",20-10-2025 07:00:00,17.37206,78.50864,SO2,14,25,18
India,Telangana,Hyderabad,"Ramachandrapuram, Hyderabad - TSPCB",20-10-2025 07:00:00,17.528544,78.286195,SO2,17,41,30
India,Telangana,Hyderabad,"Sanathnagar, Hyderabad - TSPCB",20-10-2025 07:00:00,17.4559458,78.4332152,PM2.5,31,500,145
India,Telangana,Hyderabad,"Sanathnagar, Hyderabad - TSPCB",20-10-2025 07:00:00,17.4559458,78.4332152,SO2,3,10,7
India,Telangana,Hyderabad,"Zoo Park, Hyderabad - TSPCB",20-10-2025 07:00:00,17.349694,78.451437,PM2.5,33,180,92
India,Tripura,Agartala,"Bardowali, Agartala - Tripura SPCB",20-10-2025 07:00:00,23.8175497,91.2726974,PM2.5,4,53,30
India,Uttar_Pradesh,Agra,"Manoharpur, Agra - UPPCB",20-10-2025 07:00:00,27.23711,78.01936,SO2,40,70,54
India,Uttar_Pradesh,Agra,"Rohta, Agra - UPPCB",20-10-2025 07:00:00,27.106972,78.000111,NH3,6,7,6
India,Uttar_Pradesh,Bareilly,"Civil Lines, Bareilly - UPPCB",20-10-2025 07:00:00,28.359581,79.414455,NO2,2,2,2
India,Uttar_Pradesh,Bareilly,"Civil Lines, Bareilly - UPPCB",20-10-2025 07:00:00,28.359581,79.414455,SO2,18,24,21
India,Uttar_Pradesh,Bareilly,"Rajendra Nagar, Bareilly - UPPCB",20-10-2025 07:00:00,28.38910936,79.42963708,SO2,40,46,41
India,Uttar_Pradesh,Bulandshahr,"Yamunapuram, Bulandshahr - UPPCB",20-10-2025 07:00:00,28.406963,77.849831,PM2.5,126,499,281
India,Uttar_Pradesh,Bulandshahr,"Yamunapuram, Bulandshahr - UPPCB",20-10-2025 07:00:00,28.406963,77.849831,OZONE,1,60,10
India,Uttar_Pradesh,Agra,"Sanjay Palace, Agra - UPPCB",20-10-2025 07:00:00,27.19865833,78.00598056,NO2,3,32,14
India,Uttar_Pradesh,Agra,"Shahjahan Garden, Agra - UPPCB",20-10-2025 07:00:00,27.169338,78.03582,PM2.5,28,312,119
India,Uttar_Pradesh,Agra,"Shahjahan Garden, Agra - UPPCB",20-10-2025 07:00:00,27.169338,78.03582,NO2,27,28,28
India,Uttar_Pradesh,Agra,"Shastripuram, Agra - UPPCB",20-10-2025 07:00:00,27.19862,77.92066,PM2.5,25,306,108
India,Uttar_Pradesh,Agra,"Shastripuram, Agra - UPPCB",20-10-2025 07:00:00,27.19862,77.92066,OZONE,7,8,7
India,Telangana,Hyderabad,"Bollaram Industrial Area, Hyderabad - TSPCB",20-10-2025 07:00:00,17.540891,78.358528,PM10,50,143,100
India,Telangana,Hyderabad,"ECIL Kapra, Hyderabad - TSPCB",20-10-2025 07:00:00,17.470431,78.566959,NH3,4,7,6
India,Telangana,Hyderabad,"IDA Pashamylaram, Hyderabad - TSPCB",20-10-2025 07:00:00,17.5316895,78.218939,PM2.5,117,178,149
India,Telangana,Hyderabad,"IDA Pashamylaram, Hyderabad - TSPCB",20-10-2025 07:00:00,17.5316895,78.218939,NH3,2,7,4
India,Telangana,Hyderabad,"IDA Pashamylaram, Hyderabad - TSPCB",20-10-2025 07:00:00,17.5316895,78.218939,OZONE,9,23,11
India,Telangana,Hyderabad,"IITH Kandi, Hyderabad - TSPCB",20-10-2025 07:00:00,17.585705,78.126199,NH3,3,4,4
India,Telangana,Hyderabad,"IITH Kandi, Hyderabad - TSPCB",20-10-2025 07:00:00,17.585705,78.126199,CO,NA,NA,NA
India,Uttar_Pradesh,Kanpur,"FTI Kidwai Nagar, Kanpur - UPPCB",20-10-2025 07:00:00,26.428282,80.327067,PM2.5,55,313,163
India,Uttar_Pradesh,Kanpur,"FTI Kidwai Nagar, Kanpur - UPPCB",20-10-2025 07:00:00,26.428282,80.327067,NH3,2,2,2
India,Uttar_Pradesh,Kanpur,"NSI Kalyanpur, Kanpur - UPPCB",20-10-2025 07:00:00,26.509954,80.249612,PM10,65,224,119
India,Uttar_Pradesh,Moradabad,"Transport Nagar, Moradabad - UPPCB",20-10-2025 07:00:00,28.802625,78.753728,SO2,31,36,34
India,Uttar_Pradesh,Muzaffarnagar,"New Mandi, Muzaffarnagar - UPPCB",20-10-2025 07:00:00,29.4723508,77.7194031,PM10,95,252,160
India,Uttar_Pradesh,Muzaffarnagar,"New Mandi, Muzaffarnagar - UPPCB",20-10-2025 07:00:00,29.4723508,77.7194031,NO2,25,118,59
India,Uttar_Pradesh,Muzaffarnagar,"New Mandi, Muzaffarnagar - UPPCB",20-10-2025 07:00:00,29.4723508,77.7194031,SO2,2,55,19
India,Uttar_Pradesh,Muzaffarnagar,"New Mandi, Muzaffarnagar - UPPCB",20-10-2025 07:00:00,29.4723508,77.7194031,CO,30,106,63
India,Uttar_Pradesh,Noida,"Sector - 125, Noida - UPPCB",20-10-2025 07:00:00,28.5447608,77.3231257,PM10,212,500,301
India,Uttar_Pradesh,Noida,"Sector - 62, Noida - IMD",20-10-2025 07:00:00,28.6245479,77.3577104,CO,18,36,34
India,Uttar_Pradesh,Noida,"Sector-1, Noida - UPPCB",20-10-2025 07:00:00,28.5898,77.3101,CO,26,120,113
India,Uttar_Pradesh,Noida,"Sector-116, Noida - UPPCB",20-10-2025 07:00:00,28.569230,77.393848,PM2.5,252,457,372
India,Uttar_Pradesh,Meerut,"Ganga Nagar, Meerut - UPPCB",20-10-2025 07:00:00,28.999264,77.7590354,CO,46,109,83
India,Uttar_Pradesh,Meerut,"Jai Bhim Nagar, Meerut - UPPCB",20-10-2025 07:00:00,28.9535882,77.7622941,PM10,123,377,224
India,Uttar_Pradesh,Meerut,"Jai Bhim Nagar, Meerut - UPPCB",20-10-2025 07:00:00,28.9535882,77.7622941,NO2,14,70,39
India,Uttar_Pradesh,Meerut,"Pallavpuram Phase 2, Meerut - UPPCB",20-10-2025 07:00:00,29.063510,77.709723,OZONE,12,238,28
India,Uttar_Pradesh,Moradabad,"Buddhi Vihar, Moradabad - UPPCB",20-10-2025 07:00:00,28.83526,78.74460,PM2.5,72,368,227
India,Uttar_Pradesh,Moradabad,"Buddhi Vihar, Moradabad - UPPCB",20-10-2025 07:00:00,28.83526,78.74460,SO2,28,85,55
India,Uttar_Pradesh,Moradabad,"Eco Herbal Park, Moradabad - UPPCB",20-10-2025 07:00:00,28.840739,78.697531,NO2,12,28,21
India,Uttar_Pradesh,Noida,"Sector-116, Noida - UPPCB",20-10-2025 07:00:00,28.569230,77.393848,NO2,43,212,132
India,Uttar_Pradesh,Noida,"Sector-116, Noida - UPPCB",20-10-2025 07:00:00,28.569230,77.393848,CO,8,128,51
India,Uttar_Pradesh,Prayagraj,"Jhunsi, Prayagraj - UPPCB",20-10-2025 07:00:00,25.425602,81.917152,CO,24,100,55
India,Uttar_Pradesh,Prayagraj,"Motilal Nehru NIT, Prayagraj - UPPCB",20-10-2025 07:00:00,25.494,81.863,PM10,44,111,85
India,Uttar_Pradesh,Prayagraj,"Motilal Nehru NIT, Prayagraj - UPPCB",20-10-2025 07:00:00,25.494,81.863,NO2,12,12,12
India,Uttar_Pradesh,Prayagraj,"Nagar Nigam, Prayagraj - UPPCB",20-10-2025 07:00:00,25.44919916 ,81.82735986 ,NO2,5,5,5
India,Uttar_Pradesh,Varanasi,"Ardhali Bazar, Varanasi - UPPCB",20-10-2025 07:00:00,25.3505986,82.9083074,PM2.5,64,312,165
India,Uttar_Pradesh,Varanasi,"Ardhali Bazar, Varanasi - UPPCB",20-10-2025 07:00:00,25.3505986,82.9083074,PM10,89,274,158
India,Uttar_Pradesh,Varanasi,"Ardhali Bazar, Varanasi - UPPCB",20-10-2025 07:00:00,25.3505986,82.9083074,NO2,43,57,50
India,Uttar_Pradesh,Varanasi,"Bhelupur, Varanasi - UPPCB",20-10-2025 07:00:00,25.301778,82.996789,PM2.5,34,108,58
India,Uttar_Pradesh,Varanasi,"Bhelupur, Varanasi - UPPCB",20-10-2025 07:00:00,25.301778,82.996789,OZONE,NA,NA,NA
India,Uttar_Pradesh,Varanasi,"IESD Banaras Hindu University, Varanasi - UPPCB",20-10-2025 07:00:00,25.262326,82.995408,NH3,1,3,1
India,Uttar_Pradesh,Varanasi,"Maldahiya, Varanasi - UPPCB",20-10-2025 07:00:00,25.32393,82.99687,PM2.5,28,119,57
India,Uttar_Pradesh,Varanasi,"Maldahiya, Varanasi - UPPCB",20-10-2025 07:00:00,25.32393,82.99687,PM10,65,165,107
India,Uttar_Pradesh,Varanasi,"Maldahiya, Varanasi - UPPCB",20-10-2025 07:00:00,25.32393,82.99687,OZONE,1,7,1
India,Uttar_Pradesh,Lucknow,"Kendriya Vidyalaya, Lucknow - CPCB",20-10-2025 07:00:00,26.906111,80.948222,PM10,94,371,202
India,Uttar_Pradesh,Lucknow,"Kukrail Picnic Spot-1, Lucknow - UPPCB",20-10-2025 07:00:00,26.90723,80.98579,PM10,NA,NA,NA
India,Uttar_Pradesh,Lucknow,"Lalbagh, Lucknow - CPCB",20-10-2025 07:00:00,26.8458805,80.9365541,NO2,31,73,47
India,Uttar_Pradesh,Lucknow,"Talkatora District Industries Center, Lucknow - CPCB",20-10-2025 07:00:00,26.83399722,80.8917361,NH3,8,13,10
India,Uttar_Pradesh,Meerut,"Ganga Nagar, Meerut - UPPCB",20-10-2025 07:00:00,28.999264,77.7590354,PM10,135,458,252
India,Uttar_Pradesh,Meerut,"Ganga Nagar, Meerut - UPPCB",20-10-2025 07:00:00,28.999264,77.7590354,NO2,36,111,58
India,West_Bengal,Asansol,"Evelyn Lodge, Asansol - WBPCB",20-10-2025 07:00:00,23.6979360,86.9443950,NO2,5,29,14
India,West_Bengal,Asansol,"Mahabir Colliery, Asansol - WBPCB",20-10-2025 07:00:00,23.6181830,87.1057180,NH3,2,8,5
India,West_Bengal,Asansol,"Trivenidevi Bhalotia College, Asansol - WBPCB",20-10-2025 07:00:00,23.616515,87.119133,NO2,12,46,23
India,West_Bengal,Asansol,"Trivenidevi Bhalotia College, Asansol - WBPCB",20-10-2025 07:00:00,23.616515,87.119133,CO,30,76,51
India,West_Bengal,Barrackpore,"SVSPA Campus, Barrackpore - WBPCB",20-10-2025 07:00:00,22.7605581,88.3617589,SO2,7,17,11
India,West_Bengal,Barrackpore,"SVSPA Campus, Barrackpore - WBPCB",20-10-2025 07:00:00,22.7605581,88.3617589,CO,24,40,32
India,Uttar_Pradesh,Kanpur,"Nehru Nagar, Kanpur - UPPCB",20-10-2025 07:00:00,26.4703136,80.3229863,NO2,38,63,49
India,Uttar_Pradesh,Khurja,"Kalindi Kunj, Khurja - UPPCB",20-10-2025 07:00:00,28.2348927,77.8683002,NO2,3,3,3
India,Uttar_Pradesh,Khurja,"Kalindi Kunj, Khurja - UPPCB",20-10-2025 07:00:00,28.2348927,77.8683002,CO,64,86,76
India,Uttar_Pradesh,Khurja,"Kalindi Kunj, Khurja - UPPCB",20-10-2025 07:00:00,28.2348927,77.8683002,OZONE,5,6,5
India,Uttar_Pradesh,Lucknow,"B R Ambedkar University, Lucknow - UPPCB",20-10-2025 07:00:00,26.766433,80.927299,PM2.5,45,155,89
India,Uttar_Pradesh,Lucknow,"B R Ambedkar University, Lucknow - UPPCB",20-10-2025 07:00:00,26.766433,80.927299,PM10,55,157,98
India,Uttar_Pradesh,Moradabad,"Eco Herbal Park, Moradabad - UPPCB",20-10-2025 07:00:00,28.840739,78.697531,SO2,1,28,9
India,Uttar_Pradesh,Moradabad,"Employment Office, Moradabad - UPPCB",20-10-2025 07:00:00,28.88528,78.73880,NO2,16,16,16
India,Uttar_Pradesh,Moradabad,"Jigar Colony, Moradabad - UPPCB",20-10-2025 07:00:00,28.856664,78.772638,SO2,3,17,10
India,Uttar_Pradesh,Moradabad,"Jigar Colony, Moradabad - UPPCB",20-10-2025 07:00:00,28.856664,78.772638,CO,40,40,40
India,Uttar_Pradesh,Moradabad,"Transport Nagar, Moradabad - UPPCB",20-10-2025 07:00:00,28.802625,78.753728,NO2,27,30,29
India,Uttarakhand,Dehradun,"Doon University, Dehradun - UKPCB",20-10-2025 07:00:00,30.269444,78.044167,OZONE,26,60,35
India,Uttarakhand,Kashipur,"Govt. Girls Inter College, Kashipur - UKPCB",20-10-2025 07:00:00,29.2124114,78.9611753,PM2.5,70,233,114
India,West_Bengal,Asansol,"Asansol Court Area, Asansol - WBPCB",20-10-2025 07:00:00,23.685297,86.945968,OZONE,14,48,17
India,West_Bengal,Durgapur,"PCBL Residential Complex, Durgapur - WBPCB",20-10-2025 07:00:00,23.5087640,87.3544400,OZONE,4,28,6
India,West_Bengal,Durgapur,"Womens College_City Center, Durgapur - WBPCB (Formerly known as Sidhu Kanhu Indoor Stadium)",20-10-2025 07:00:00,23.549395,87.300496,CO,28,68,43
India,West_Bengal,Haldia,"Priyambada Housing Estate, Haldia - WBPCB",20-10-2025 07:00:00,22.06047,88.109737,NH3,5,7,6
India,West_Bengal,Haldia,"Priyambada Housing Estate, Haldia - WBPCB",20-10-2025 07:00:00,22.06047,88.109737,CO,24,40,33
India,West_Bengal,Howrah,"Belur Math, Howrah - WBPCB",20-10-2025 07:00:00,22.629801,88.352017,SO2,7,9,8
India,West_Bengal,Howrah,"Botanical Garden, Howrah - WBPCB",20-10-2025 07:00:00,22.554954,88.292568,PM2.5,38,140,69
India,West_Bengal,Howrah,"Botanical Garden, Howrah - WBPCB",20-10-2025 07:00:00,22.554954,88.292568,SO2,14,15,14
India,West_Bengal,Howrah,"Dasnagar, Howrah - WBPCB",20-10-2025 07:00:00,22.6025571,88.3105664,PM2.5,7,123,61
India,West_Bengal,Howrah,"Dasnagar, Howrah - WBPCB",20-10-2025 07:00:00,22.6025571,88.3105664,SO2,11,16,13
India,West_Bengal,Howrah,"Ghusuri, Howrah - WBPCB",20-10-2025 07:00:00,22.611968,88.347422,SO2,4,19,9
India,West_Bengal,Howrah,"Ghusuri, Howrah - WBPCB",20-10-2025 07:00:00,22.611968,88.347422,CO,12,40,30
India,West_Bengal,Howrah,"Padmapukur, Howrah - WBPCB",20-10-2025 07:00:00,22.5687319,88.2797276,NH3,3,11,7
India,West_Bengal,Howrah,"Padmapukur, Howrah - WBPCB",20-10-2025 07:00:00,22.5687319,88.2797276,SO2,6,9,8
India,West_Bengal,Kolkata,"Ballygunge, Kolkata - WBPCB",20-10-2025 07:00:00,22.5367507,88.3638022,PM10,60,115,88
India,West_Bengal,Kolkata,"Fort William, Kolkata - WBPCB",20-10-2025 07:00:00,22.556640,88.342674,OZONE,30,83,42
India,West_Bengal,Kolkata,"Jadavpur, Kolkata - WBPCB",20-10-2025 07:00:00,22.49929,88.36917,PM10,72,136,105
India,West_Bengal,Kolkata,"Jadavpur, Kolkata - WBPCB",20-10-2025 07:00:00,22.49929,88.36917,SO2,5,8,6
India,West_Bengal,Kolkata,"Rabindra Bharati University, Kolkata - WBPCB",20-10-2025 07:00:00,22.627847,88.380669,NO2,25,70,44
India,West_Bengal,Kolkata,"Rabindra Bharati University, Kolkata - WBPCB",20-10-2025 07:00:00,22.627847,88.380669,SO2,6,9,7
India,West_Bengal,Kolkata,"Rabindra Sarobar, Kolkata - WBPCB",20-10-2025 07:00:00,22.51106,88.35142,PM2.5,NA,NA,NA
India,West_Bengal,Kolkata,"Rabindra Sarobar, Kolkata - WBPCB",20-10-2025 07:00:00,22.51106,88.35142,CO,NA,NA,NA
India,West_Bengal,Kolkata,"Victoria, Kolkata - WBPCB",20-10-2025 07:00:00,22.5448082,88.3403691,PM10,76,121,95
India,West_Bengal,Siliguri,"Ward-32 Bapupara, Siliguri - WBPCB",20-10-2025 07:00:00,26.6879226,88.4152495,OZONE,47,57,51
India,Assam,Nalbari,"Bata Chowk, Nalbari - PCBA",20-10-2025 07:00:00,26.446912,91.439057,SO2,21,21,21
India,Assam,Nalbari,"Bata Chowk, Nalbari - PCBA",20-10-2025 07:00:00,26.446912,91.439057,CO,28,28,28
India,Assam,Silchar,"Tarapur, Silchar - PCBA",20-10-2025 07:00:00,24.82827,92.79525,SO2,4,5,5
India,Assam,Silchar,"Tarapur, Silchar - PCBA",20-10-2025 07:00:00,24.82827,92.79525,OZONE,1,12,1
India,Assam,Sivasagar,"Girls College, Sivasagar - PCBA",20-10-2025 07:00:00,26.987634,94.636574,PM2.5,25,99,59
India,Assam,Sivasagar,"Girls College, Sivasagar - PCBA",20-10-2025 07:00:00,26.987634,94.636574,SO2,8,12,10
India,Bihar,Araria,"Kharahiya Basti, Araria - BSPCB",20-10-2025 07:00:00,26.146529,87.454184,PM2.5,50,69,58
India,Bihar,Araria,"Kharahiya Basti, Araria - BSPCB",20-10-2025 07:00:00,26.146529,87.454184,NH3,5,5,5
India,Bihar,Araria,"Kharahiya Basti, Araria - BSPCB",20-10-2025 07:00:00,26.146529,87.454184,OZONE,9,11,10
India,Bihar,Arrah,"New DM Office, Arrah - BSPCB",20-10-2025 07:00:00,25.5626095,84.663264,PM2.5,28,30,29
India,Andhra_Pradesh,Visakhapatnam,"GVM Corporation, Visakhapatnam - APPCB",20-10-2025 07:00:00,17.72,83.3,PM10,26,64,41
India,Andhra_Pradesh,Visakhapatnam,"GVM Corporation, Visakhapatnam - APPCB",20-10-2025 07:00:00,17.72,83.3,NH3,3,3,3
India,Arunachal_Pradesh,Naharlagun,"Naharlagun, Naharlagun - APSPCB",20-10-2025 07:00:00,27.103358,93.679645,PM10,24,105,57
India,Arunachal_Pradesh,Naharlagun,"Naharlagun, Naharlagun - APSPCB",20-10-2025 07:00:00,27.103358,93.679645,NO2,5,6,6
India,Arunachal_Pradesh,Naharlagun,"Naharlagun, Naharlagun - APSPCB",20-10-2025 07:00:00,27.103358,93.679645,CO,6,21,12
India,Arunachal_Pradesh,Naharlagun,"Naharlagun, Naharlagun - APSPCB",20-10-2025 07:00:00,27.103358,93.679645,OZONE,5,5,5
India,Assam,Byrnihat,"Central Academy for SFS, Byrnihat - PCBA",20-10-2025 07:00:00,26.071318,91.87488,PM10,NA,NA,NA
India,Assam,Byrnihat,"Central Academy for SFS, Byrnihat - PCBA",20-10-2025 07:00:00,26.071318,91.87488,CO,NA,NA,NA
India,Assam,Guwahati,"IITG, Guwahati - PCBA",20-10-2025 07:00:00,26.2028636,91.70046436,NH3,5,5,5
India,Assam,Guwahati,"IITG, Guwahati - PCBA",20-10-2025 07:00:00,26.2028636,91.70046436,SO2,22,27,24
India,Bihar,Arrah,"New DM Office, Arrah - BSPCB",20-10-2025 07:00:00,25.5626095,84.663264,SO2,9,10,10
India,Bihar,Arrah,"New DM Office, Arrah - BSPCB",20-10-2025 07:00:00,25.5626095,84.663264,CO,48,82,54
India,Bihar,Aurangabad,"Gurdeo Nagar, Aurangabad - BSPCB",20-10-2025 07:00:00,24.75746,84.366208,PM10,13,23,17
India,Bihar,Aurangabad,"Gurdeo Nagar, Aurangabad - BSPCB",20-10-2025 07:00:00,24.75746,84.366208,NO2,7,8,8
India,Bihar,Begusarai,"Lohiyanagar, Begusarai - BSPCB",20-10-2025 07:00:00,25.42742023,86.13886079,PM2.5,52,140,102
India,Bihar,Begusarai,"Lohiyanagar, Begusarai - BSPCB",20-10-2025 07:00:00,25.42742023,86.13886079,PM10,58,124,105
India,Bihar,Begusarai,"Lohiyanagar, Begusarai - BSPCB",20-10-2025 07:00:00,25.42742023,86.13886079,SO2,13,46,33
India,Bihar,Begusarai,"Lohiyanagar, Begusarai - BSPCB",20-10-2025 07:00:00,25.42742023,86.13886079,OZONE,10,24,20
India,Bihar,Bettiah,"Kamalnath Nagar, Bettiah - BSPCB",20-10-2025 07:00:00,26.80365,84.51954,SO2,1,16,8
India,Bihar,Bhagalpur,"DM Office_Kachari Chowk, Bhagalpur - BSPCB",20-10-2025 07:00:00,25.251013,86.989001,PM10,49,157,91
India,Bihar,Bhagalpur,"Mayaganj, Bhagalpur - BSPCB",20-10-2025 07:00:00,25.265194,87.012947,SO2,52,104,73
India,Bihar,Bhagalpur,"Mayaganj, Bhagalpur - BSPCB",20-10-2025 07:00:00,25.265194,87.012947,CO,46,102,62
India,Bihar,Bihar Sharif,"D M Colony, Bihar Sharif - BSPCB",20-10-2025 07:00:00,25.204762,85.514960,PM10,39,60,50
India,Bihar,Buxar,"Charitra Van, Buxar - BSPCB",20-10-2025 07:00:00,25.567520,83.966379,NO2,5,10,9
India,Bihar,Buxar,"Charitra Van, Buxar - BSPCB",20-10-2025 07:00:00,25.567520,83.966379,CO,22,27,25
India,Bihar,Munger,"Town Hall, Munger - BSPCB",20-10-2025 07:00:00,25.376776,86.471523,CO,12,34,30
India,Bihar,Munger,"Town Hall, Munger - BSPCB",20-10-2025 07:00:00,25.376776,86.471523,OZONE,10,15,11
India,Bihar,Muzaffarpur,"MIT-Daudpur Kothi, Muzaffarpur - BSPCB",20-10-2025 07:00:00,26.1403345,85.3650192,NO2,4,18,10
India,Bihar,Muzaffarpur,"MIT-Daudpur Kothi, Muzaffarpur - BSPCB",20-10-2025 07:00:00,26.1403345,85.3650192,NH3,1,2,1
India,Bihar,Muzaffarpur,"MIT-Daudpur Kothi, Muzaffarpur - BSPCB",20-10-2025 07:00:00,26.1403345,85.3650192,SO2,31,66,58
India,Andhra_Pradesh,Anantapur,"Gulzarpet, Anantapur - APPCB",20-10-2025 07:00:00,14.675886,77.593027,NO2,17,23,21
India,Andhra_Pradesh,Anantapur,"Gulzarpet, Anantapur - APPCB",20-10-2025 07:00:00,14.675886,77.593027,OZONE,7,13,8
India,Andhra_Pradesh,Chittoor,"Gangineni Cheruvu, Chittoor - APPCB",20-10-2025 07:00:00,13.204880,79.097889,NH3,5,16,7
India,Andhra_Pradesh,Kadapa,"Yerramukkapalli, Kadapa - APPCB",20-10-2025 07:00:00,14.465052,78.824187,NH3,NA,NA,NA
India,Andhra_Pradesh,Rajamahendravaram,"Anand Kala Kshetram, Rajamahendravaram - APPCB",20-10-2025 07:00:00,16.9872867,81.7363176,PM2.5,5,67,20
India,Andhra_Pradesh,Tirumala,"Toll Gate, Tirumala - APPCB",20-10-2025 07:00:00,13.67,79.35,PM10,12,120,31
India,Andhra_Pradesh,Vijayawada,"Rajiv Gandhi Park, Vijayawada - APPCB",20-10-2025 07:00:00,16.509717,80.612222,PM10,38,61,49
India,Assam,Guwahati,"LGBI Airport, Guwahati - PCBA",20-10-2025 07:00:00,26.10887,91.589544,PM2.5,66,68,67
India,Assam,Guwahati,"Railway Colony, Guwahati - PCBA",20-10-2025 07:00:00,26.181742,91.78063,PM2.5,32,309,91
India,Assam,Guwahati,"Railway Colony, Guwahati - PCBA",20-10-2025 07:00:00,26.181742,91.78063,SO2,29,31,30
India,Assam,Nalbari,"Bata Chowk, Nalbari - PCBA",20-10-2025 07:00:00,26.446912,91.439057,PM2.5,53,53,53
India,Bihar,Chhapra,"Darshan Nagar, Chhapra - BSPCB",20-10-2025 07:00:00,25.7808257,84.7446768,SO2,19,26,21
India,Bihar,Chhapra,"Darshan Nagar, Chhapra - BSPCB",20-10-2025 07:00:00,25.7808257,84.7446768,CO,4,14,8
India,Bihar,Gaya,"SFTI Kusdihra, Gaya - BSPCB",20-10-2025 07:00:00,24.762518,84.982348,PM10,50,132,71
India,Bihar,Gaya,"SFTI Kusdihra, Gaya - BSPCB",20-10-2025 07:00:00,24.762518,84.982348,NO2,16,19,18
India,Bihar,Katihar,"Mirchaibari, Katihar - BSPCB",20-10-2025 07:00:00,25.560083,87.553265,PM10,62,103,86
India,Bihar,Katihar,"Mirchaibari, Katihar - BSPCB",20-10-2025 07:00:00,25.560083,87.553265,NH3,1,1,1
India,Bihar,Purnia,"Mariam Nagar, Purnia - BSPCB",20-10-2025 07:00:00,25.366336,87.117468,OZONE,18,31,21
India,Bihar,Rajgir,"Dangi Tola, Rajgir - BSPCB",20-10-2025 07:00:00,25.03280,85.41948,PM2.5,59,70,64
India,Bihar,Saharsa,"Police Line, Saharsa - BSPCB",20-10-2025 07:00:00,25.892357,86.590325,PM10,40,143,102
India,Bihar,Saharsa,"Police Line, Saharsa - BSPCB",20-10-2025 07:00:00,25.892357,86.590325,NH3,4,4,4
India,Bihar,Samastipur,"DM Office_Kasipur, Samastipur - BSPCB",20-10-2025 07:00:00,25.859655,85.77944,PM10,NA,NA,NA
India,Bihar,Sasaram,"Dada Peer, Sasaram - BSPCB",20-10-2025 07:00:00,24.952822,84.002396,PM2.5,27,73,40
India,Bihar,Sasaram,"Dada Peer, Sasaram - BSPCB",20-10-2025 07:00:00,24.952822,84.002396,NH3,3,4,3
India,Bihar,Siwan,"Chitragupta Nagar, Siwan - BSPCB",20-10-2025 07:00:00,26.2271665,84.3570427,PM10,78,222,138
India,Chhattisgarh,Chhal,"Nawapara SECL Colony, Chhal - CECB",20-10-2025 07:00:00,22.118125,83.140608,SO2,4,90,28
India,Chhattisgarh,Korba,"Rampur, Korba - CECB",20-10-2025 07:00:00,22.368195,82.746431,NO2,4,12,7
India,Chhattisgarh,Korba,"Rampur, Korba - CECB",20-10-2025 07:00:00,22.368195,82.746431,SO2,7,10,8
India,Chhattisgarh,Korba,"Rampur, Korba - CECB",20-10-2025 07:00:00,22.368195,82.746431,CO,15,20,18
India,Chhattisgarh,Korba,"Urja Nagar, Korba - CECB",20-10-2025 07:00:00,22.348441,82.549611,PM10,25,82,28
India,Chhattisgarh,Korba,"Urja Nagar, Korba - CECB",20-10-2025 07:00:00,22.348441,82.549611,NH3,1,2,2
India,Chhattisgarh,Korba,"Urja Nagar, Korba - CECB",20-10-2025 07:00:00,22.348441,82.549611,CO,17,36,28
India,Chhattisgarh,Kunjemura,"OP Jindal School, Kunjemura - CECB",20-10-2025 07:00:00,22.126650,83.483212,NH3,2,2,2
India,Chhattisgarh,Kunjemura,"OP Jindal School, Kunjemura - CECB",20-10-2025 07:00:00,22.126650,83.483212,SO2,1,15,7
India,Chhattisgarh,Kunjemura,"OP Jindal School, Kunjemura - CECB",20-10-2025 07:00:00,22.126650,83.483212,OZONE,12,23,12
India,Chhattisgarh,Milupara,"Govt. Higher Secondary School, Milupara - CECB",20-10-2025 07:00:00,22.1910172,83.5197009,CO,12,32,24
India,Chhattisgarh,Raipur,"AIIMS, Raipur - CECB",20-10-2025 07:00:00,21.258815,81.578979,CO,38,64,49
India,Chhattisgarh,Raipur,"AIIMS, Raipur - CECB",20-10-2025 07:00:00,21.258815,81.578979,OZONE,5,21,6
India,Chhattisgarh,Raipur,"Bhatagaon New ISBT, Raipur - CECB",20-10-2025 07:00:00,21.219665,81.630094,NO2,15,52,27
India,Chhattisgarh,Raipur,"Krishak Nagar, Raipur - CECB",20-10-2025 07:00:00,21.237755,81.705301,PM10,40,79,58
India,Delhi,Delhi,"Alipur, Delhi - DPCC",20-10-2025 07:00:00,28.815329,77.153010,NH3,4,8,6
India,Delhi,Delhi,"Alipur, Delhi - DPCC",20-10-2025 07:00:00,28.815329,77.153010,SO2,6,19,11
India,Delhi,Delhi,"Anand Vihar, Delhi - DPCC",20-10-2025 07:00:00,28.647622,77.3158090,PM2.5,153,500,379
India,Delhi,Delhi,"Anand Vihar, Delhi - DPCC",20-10-2025 07:00:00,28.647622,77.3158090,NO2,20,66,45
India,Delhi,Delhi,"Anand Vihar, Delhi - DPCC",20-10-2025 07:00:00,28.647622,77.3158090,CO,56,117,106
India,Delhi,Delhi,"Anand Vihar, Delhi - DPCC",20-10-2025 07:00:00,28.647622,77.3158090,OZONE,8,30,10
India,Delhi,Delhi,"Ashok Vihar, Delhi - DPCC",20-10-2025 07:00:00,28.695381,77.181665,NO2,22,119,64
India,Bihar,Patna,"Muradpur, Patna - BSPCB",20-10-2025 07:00:00,25.619651,85.147382,NH3,3,5,4
India,Bihar,Patna,"Rajbansi Nagar, Patna - BSPCB",20-10-2025 07:00:00,25.599486,85.113666,PM2.5,45,158,93
India,Bihar,Patna,"Samanpura, Patna - BSPCB",20-10-2025 07:00:00,25.596727,85.085624,NH3,5,7,6
India,Bihar,Purnia,"Mariam Nagar, Purnia - BSPCB",20-10-2025 07:00:00,25.366336,87.117468,CO,1,120,57
India,Chhattisgarh,Bhilai,"32Bungalows, Bhilai - CECB",20-10-2025 07:00:00,21.194815,81.314770,OZONE,15,85,23
India,Chhattisgarh,Bhilai,"Civic Center, Bhilai - Bhilai Steel Plant",20-10-2025 07:00:00,21.185571,81.343175,NH3,3,3,3
India,Chhattisgarh,Bhilai,"Civic Center, Bhilai - Bhilai Steel Plant",20-10-2025 07:00:00,21.185571,81.343175,SO2,6,9,8
India,Chhattisgarh,Bhilai,"Civic Center, Bhilai - Bhilai Steel Plant",20-10-2025 07:00:00,21.185571,81.343175,CO,21,22,22
India,Chhattisgarh,Bhilai,"Civic Center, Bhilai - Bhilai Steel Plant",20-10-2025 07:00:00,21.185571,81.343175,OZONE,2,14,9
India,Chandigarh,Chandigarh,"Sector 22, Chandigarh - CPCC",20-10-2025 07:00:00,30.735567,76.775714,NH3,10,13,11
India,Chandigarh,Chandigarh,"Sector 22, Chandigarh - CPCC",20-10-2025 07:00:00,30.735567,76.775714,SO2,4,14,8
India,Chandigarh,Chandigarh,"Sector-53, Chandigarh - CPCC",20-10-2025 07:00:00,30.719859,76.738637,PM2.5,22,207,66
India,Chandigarh,Chandigarh,"Sector-53, Chandigarh - CPCC",20-10-2025 07:00:00,30.719859,76.738637,PM10,26,183,93
India,Bihar,Muzaffarpur,"Muzaffarpur Collectorate, Muzaffarpur - BSPCB",20-10-2025 07:00:00,26.1209,85.3647,SO2,4,8,7
India,Bihar,Patna,"IGSC Planetarium Complex, Patna - BSPCB",20-10-2025 07:00:00,25.610369,85.132568,CO,58,62,62
India,Delhi,Delhi,"Bawana, Delhi - DPCC",20-10-2025 07:00:00,28.776200,77.051074,CO,29,104,58
India,Delhi,Delhi,"CRRI Mathura Road, Delhi - IMD",20-10-2025 07:00:00,28.5512005,77.2735737,PM2.5,259,443,358
India,Delhi,Delhi,"Rohini, Delhi - DPCC",20-10-2025 07:00:00,28.732528,77.119920,OZONE,10,218,11
India,Delhi,Delhi,"Shadipur, Delhi - CPCB",20-10-2025 07:00:00,28.6514781,77.1473105,CO,36,112,108
India,Delhi,Delhi,"Shadipur, Delhi - CPCB",20-10-2025 07:00:00,28.6514781,77.1473105,OZONE,4,54,5
India,Delhi,Delhi,"Sirifort, Delhi - CPCB",20-10-2025 07:00:00,28.5504249,77.2159377,PM2.5,277,435,359
India,Delhi,Delhi,"Sirifort, Delhi - CPCB",20-10-2025 07:00:00,28.5504249,77.2159377,NH3,8,15,10
India,Delhi,Delhi,"Sonia Vihar, Delhi - DPCC",20-10-2025 07:00:00,28.710508,77.249485,OZONE,6,215,11
India,Delhi,Delhi,"Sri Aurobindo Marg, Delhi - DPCC",20-10-2025 07:00:00,28.531346,77.190156,PM2.5,78,207,136
India,Delhi,Delhi,"Lodhi Road, Delhi - IMD",20-10-2025 07:00:00,28.5918245,77.2273074,PM2.5,218,399,316
India,Delhi,Delhi,"Lodhi Road, Delhi - IMD",20-10-2025 07:00:00,28.5918245,77.2273074,OZONE,19,306,21
India,Delhi,Delhi,"Major Dhyan Chand National Stadium, Delhi - DPCC",20-10-2025 07:00:00,28.611281,77.237738,PM2.5,267,398,332
India,Delhi,Delhi,"Major Dhyan Chand National Stadium, Delhi - DPCC",20-10-2025 07:00:00,28.611281,77.237738,CO,10,123,79
India,Delhi,Delhi,"Mundka, Delhi - DPCC",20-10-2025 07:00:00,28.684678,77.076574,PM2.5,170,397,303
India,Delhi,Delhi,"Nehru Nagar, Delhi - DPCC",20-10-2025 07:00:00,28.567890,77.250515,SO2,1,64,24
India,Delhi,Delhi,"North Campus, DU, Delhi - IMD",20-10-2025 07:00:00,28.6573814,77.1585447,PM10,150,410,253
India,Delhi,Delhi,"Okhla Phase-2, Delhi - DPCC",20-10-2025 07:00:00,28.530785,77.271255,NH3,6,12,8
India,Delhi,Delhi,"Patparganj, Delhi - DPCC",20-10-2025 07:00:00,28.623763,77.287209,PM2.5,230,483,364
India,Delhi,Delhi,"Wazirpur, Delhi - DPCC",20-10-2025 07:00:00,28.699793,77.165453,NO2,34,115,80
India,Delhi,Delhi,"Wazirpur, Delhi - DPCC",20-10-2025 07:00:00,28.699793,77.165453,SO2,8,31,18
India,Gujarat,Ahmedabad,"Chandkheda, Ahmedabad - IITM",20-10-2025 07:00:00,23.107969,72.574648,NO2,8,121,42
India,Gujarat,Ahmedabad,"Chandkheda, Ahmedabad - IITM",20-10-2025 07:00:00,23.107969,72.574648,CO,16,121,58
India,Gujarat,Ahmedabad,"Gyaspur, Ahmedabad - IITM",20-10-2025 07:00:00,22.977134,72.553024,NO2,13,52,35
India,Gujarat,Ahmedabad,"Maninagar, Ahmedabad - GPCB",20-10-2025 07:00:00,23.002657,72.591912,PM2.5,55,344,170
India,Gujarat,Ahmedabad,"Maninagar, Ahmedabad - GPCB",20-10-2025 07:00:00,23.002657,72.591912,CO,6,32,20
India,Gujarat,Ahmedabad,"Maninagar, Ahmedabad - GPCB",20-10-2025 07:00:00,23.002657,72.591912,OZONE,46,129,58
India,Gujarat,Ahmedabad,"Raikhad, Ahmedabad - IITM",20-10-2025 07:00:00,23.020509,72.579261,PM2.5,84,360,193
India,Gujarat,Ahmedabad,"Rakhial, Ahmedabad - IITM",20-10-2025 07:00:00,23.016834,72.625775,SO2,6,54,26
India,Delhi,Delhi,"Najafgarh, Delhi - DPCC",20-10-2025 07:00:00,28.570173,76.933762,PM10,124,197,156
India,Delhi,Delhi,"Narela, Delhi - DPCC",20-10-2025 07:00:00,28.822836,77.101981,PM2.5,178,366,304
India,Delhi,Delhi,"Narela, Delhi - DPCC",20-10-2025 07:00:00,28.822836,77.101981,PM10,159,318,224
India,Delhi,Delhi,"Narela, Delhi - DPCC",20-10-2025 07:00:00,28.822836,77.101981,NO2,12,61,36
India,Delhi,Delhi,"Nehru Nagar, Delhi - DPCC",20-10-2025 07:00:00,28.567890,77.250515,PM2.5,280,500,384
India,Delhi,Delhi,"ITO, Delhi - CPCB",20-10-2025 07:00:00,28.628624,77.241060,OZONE,5,44,5
India,Delhi,Delhi,"Jahangirpuri, Delhi - DPCC",20-10-2025 07:00:00,28.732820,77.170633,NO2,48,122,85
India,Delhi,Delhi,"Jahangirpuri, Delhi - DPCC",20-10-2025 07:00:00,28.732820,77.170633,SO2,1,47,22
India,Delhi,Delhi,"Jawaharlal Nehru Stadium, Delhi - DPCC",20-10-2025 07:00:00,28.580280,77.233829,SO2,2,39,16
India,Delhi,Delhi,"Pusa, Delhi - DPCC",20-10-2025 07:00:00,28.639652,77.146275,PM2.5,304,452,344
India,Delhi,Delhi,"Pusa, Delhi - IMD",20-10-2025 07:00:00,28.636110,77.173332,PM2.5,7,500,371
India,Delhi,Delhi,"R K Puram, Delhi - DPCC",20-10-2025 07:00:00,28.563262,77.186937,NO2,23,157,73
India,Delhi,Delhi,"R K Puram, Delhi - DPCC",20-10-2025 07:00:00,28.563262,77.186937,NH3,5,10,7
India,Delhi,Delhi,"Dr. Karni Singh Shooting Range, Delhi - DPCC",20-10-2025 07:00:00,28.498571,77.264840,SO2,20,37,27
India,Delhi,Delhi,"IGI Airport (T3), Delhi - IMD",20-10-2025 07:00:00,28.5627763,77.1180053,OZONE,2,7,6
India,Haryana,Narnaul,"Shastri Nagar, Narnaul - HSPCB",20-10-2025 07:00:00,28.060249,76.113115,NH3,5,15,12
India,Haryana,Palwal,"Shyam Nagar, Palwal - HSPCB",20-10-2025 07:00:00,28.1485564,77.3320667,PM10,83,106,95
India,Haryana,Palwal,"Shyam Nagar, Palwal - HSPCB",20-10-2025 07:00:00,28.1485564,77.3320667,NO2,23,24,24
India,Haryana,Palwal,"Shyam Nagar, Palwal - HSPCB",20-10-2025 07:00:00,28.1485564,77.3320667,NH3,9,9,9
India,Haryana,Palwal,"Shyam Nagar, Palwal - HSPCB",20-10-2025 07:00:00,28.1485564,77.3320667,OZONE,23,25,24
India,Haryana,Panchgaon,"Amity University, Panchgaon - IITM",20-10-2025 07:00:00,28.3153,76.9143,NO2,63,110,82
India,Haryana,Panchgaon,"Amity University, Panchgaon - IITM",20-10-2025 07:00:00,28.3153,76.9143,CO,56,80,73
India,Haryana,Panchgaon,"Amity University, Panchgaon - IITM",20-10-2025 07:00:00,28.3153,76.9143,OZONE,18,98,28
India,Haryana,Kaithal,"Rishi Nagar, Kaithal - HSPCB",20-10-2025 07:00:00,29.8006,76.4155,SO2,24,56,38
India,Haryana,Karnal,"Sector-12, Karnal - HSPCB",20-10-2025 07:00:00,29.695300,77.002700,CO,45,55,51
India,Haryana,Karnal,"Sector-12, Karnal - HSPCB",20-10-2025 07:00:00,29.695300,77.002700,OZONE,24,26,26
India,Haryana,Kurukshetra,"Sector-7, Kurukshetra - HSPCB",20-10-2025 07:00:00,29.966942,76.875879,PM10,80,198,128
India,Haryana,Mandikhera,"General Hospital, Mandikhera - HSPCB",20-10-2025 07:00:00,27.9002,76.9938,OZONE,15,18,16
India,Haryana,Manesar,"Sector-2 IMT, Manesar - HSPCB",20-10-2025 07:00:00,28.360699,76.936090,PM2.5,92,404,252
India,Haryana,Gurugram,"Vikas Sadan, Gurugram - HSPCB",20-10-2025 07:00:00,28.4501238,77.0263051,OZONE,8,56,17
India,Haryana,Hisar,"Urban Estate-II, Hisar - HSPCB",20-10-2025 07:00:00,29.140560,75.744941,NH3,4,5,5
India,Haryana,Hisar,"Urban Estate-II, Hisar - HSPCB",20-10-2025 07:00:00,29.140560,75.744941,CO,25,72,32
India,Haryana,Hisar,"Urban Estate-II, Hisar - HSPCB",20-10-2025 07:00:00,29.140560,75.744941,OZONE,45,117,52
India,Haryana,Jind,"Police Lines, Jind - HSPCB",20-10-2025 07:00:00,29.307814,76.337619,PM10,68,250,118
India,Haryana,Kaithal,"Rishi Nagar, Kaithal - HSPCB",20-10-2025 07:00:00,29.8006,76.4155,PM2.5,58,212,146
India,Haryana,Faridabad,"Sector 30, Faridabad - HSPCB",20-10-2025 07:00:00,28.4417,77.3217,SO2,6,6,6
India,Haryana,Faridabad,"Sector 30, Faridabad - HSPCB",20-10-2025 07:00:00,28.4417,77.3217,OZONE,18,20,18
India,Haryana,Gurugram,"NISE Gwal Pahari, Gurugram - IMD",20-10-2025 07:00:00,28.422681,77.148944,NO2,13,24,16
India,Haryana,Gurugram,"NISE Gwal Pahari, Gurugram - IMD",20-10-2025 07:00:00,28.422681,77.148944,OZONE,11,131,12
India,Haryana,Gurugram,"Sector-51, Gurugram - HSPCB",20-10-2025 07:00:00,28.4227,77.0667,PM2.5,250,500,351
India,Haryana,Gurugram,"Sector-51, Gurugram - HSPCB",20-10-2025 07:00:00,28.4227,77.0667,PM10,192,500,376
India,Haryana,Gurugram,"Sector-51, Gurugram - HSPCB",20-10-2025 07:00:00,28.4227,77.0667,NO2,13,21,17
India,Gujarat,Vapi,"Phase-1 GIDC, Vapi - GPCB",20-10-2025 07:00:00,20.362421,72.918013,NO2,13,14,14
India,Gujarat,Vatva,"Phase-4 GIDC, Vatva - GPCB",20-10-2025 07:00:00,22.969611,72.643500,PM2.5,29,307,142
India,Gujarat,Vatva,"Phase-4 GIDC, Vatva - GPCB",20-10-2025 07:00:00,22.969611,72.643500,NH3,3,5,4
India,Haryana,Ambala,"Patti Mehar, Ambala - HSPCB",20-10-2025 07:00:00,30.379589,76.778328,CO,50,100,95
India,Haryana,Bahadurgarh,"Arya Nagar, Bahadurgarh - HSPCB",20-10-2025 07:00:00,28.6701,76.9254,NO2,12,15,14
India,Haryana,Bhiwani,"H.B. Colony, Bhiwani - HSPCB",20-10-2025 07:00:00,28.806223,76.141105,SO2,12,13,13
India,Haryana,Charkhi Dadri,"Mini Secretariat, Charkhi Dadri - HSPCB",20-10-2025 07:00:00,28.593883,76.270653,PM10,6,420,151
India,Haryana,Charkhi Dadri,"Mini Secretariat, Charkhi Dadri - HSPCB",20-10-2025 07:00:00,28.593883,76.270653,NO2,9,23,15
India,Haryana,Dharuhera,"Municipal Corporation Office, Dharuhera -  HSPCB",20-10-2025 07:00:00,28.206800,76.799700,PM10,NA,NA,NA
India,Haryana,Dharuhera,"Municipal Corporation Office, Dharuhera -  HSPCB",20-10-2025 07:00:00,28.206800,76.799700,NH3,NA,NA,NA
India,Haryana,Dharuhera,"Municipal Corporation Office, Dharuhera -  HSPCB",20-10-2025 07:00:00,28.206800,76.799700,SO2,NA,NA,NA
India,Gujarat,Gandhinagar,"GIFT City, Gandhinagar - IITM",20-10-2025 07:00:00,23.163798,72.677768,OZONE,6,75,12
India,Gujarat,Gandhinagar,"Sector-10, Gandhinagar - GPCB",20-10-2025 07:00:00,23.221714,72.654328,PM2.5,34,184,74
India,Gujarat,Gandhinagar,"Sector-10, Gandhinagar - GPCB",20-10-2025 07:00:00,23.221714,72.654328,OZONE,8,95,12
India,Gujarat,Surat,"Science Center, Surat - SMC",20-10-2025 07:00:00,21.170046,72.795405,PM2.5,9,158,56
India,Gujarat,Surat,"Science Center, Surat - SMC",20-10-2025 07:00:00,21.170046,72.795405,NO2,6,19,12
India,Gujarat,Ahmedabad,"SAC ISRO Satellite, Ahmedabad - IITM",20-10-2025 07:00:00,23.023389,72.515201,PM2.5,33,167,82
India,Gujarat,Ahmedabad,"SVPI Airport Hansol, Ahmedabad - IITM",20-10-2025 07:00:00,23.076793,72.627874,PM2.5,24,239,77
India,Gujarat,Ahmedabad,"SVPI Airport Hansol, Ahmedabad - IITM",20-10-2025 07:00:00,23.076793,72.627874,SO2,7,16,11
India,Gujarat,Ankleshwar,"GIDC, Ankleshwar - GPCB",20-10-2025 07:00:00,21.613267,73.010555,NO2,27,28,28
India,Haryana,Gurugram,"Vikas Sadan, Gurugram - HSPCB",20-10-2025 07:00:00,28.4501238,77.0263051,PM2.5,111,350,228
India,Karnataka,Haveri,"Ashwini Nagar, Haveri - KSPCB",20-10-2025 07:00:00,14.791800,75.389600,NH3,2,5,4
India,Karnataka,Hubballi,"Lingaraj Nagar, Hubballi - KSPCB",20-10-2025 07:00:00,15.3714823,75.1160168,OZONE,19,19,19
India,Karnataka,Kalaburagi,"Lal Bahadur Shastri Nagar, Kalaburagi - KSPCB",20-10-2025 07:00:00,17.321993,76.822628,NH3,1,1,1
India,Karnataka,Kalaburagi,"Mahatma Basaveswar Colony, Kalaburgi - KSPCB",20-10-2025 07:00:00,17.336318,76.847397,NO2,13,22,16
India,Karnataka,Kalaburagi,"Mahatma Basaveswar Colony, Kalaburgi - KSPCB",20-10-2025 07:00:00,17.336318,76.847397,SO2,1,12,5
India,Karnataka,Kalaburagi,"Mahatma Basaveswar Colony, Kalaburgi - KSPCB",20-10-2025 07:00:00,17.336318,76.847397,CO,32,49,44
India,Karnataka,Kalaburagi,"Mahatma Basaveswar Colony, Kalaburgi - KSPCB",20-10-2025 07:00:00,17.336318,76.847397,OZONE,8,14,10
India,Karnataka,Karwar,"KHB Colony, Karwar - KSPCB",20-10-2025 07:00:00,14.816666,74.141003,NO2,7,10,8
India,Karnataka,Karwar,"KHB Colony, Karwar - KSPCB",20-10-2025 07:00:00,14.816666,74.141003,NH3,1,2,1
India,Jharkhand,Dhanbad,"Sardar Patel Nagar, Dhanbad - JSPCB",20-10-2025 07:00:00,23.80569,86.44268,OZONE,1,44,2
India,Jharkhand,Jorapokhar,"Tata Stadium, Jorapokhar - JSPCB",20-10-2025 07:00:00,23.707909,86.414670,SO2,NA,NA,NA
India,Karnataka,Belgaum,"Ramteerth Nagar, Belgaum - KSPCB",20-10-2025 07:00:00,15.888653,74.541751,NO2,NA,NA,NA
India,Karnataka,Bengaluru,"BTM Layout, Bengaluru - CPCB",20-10-2025 07:00:00,12.9135218,77.5950804,PM2.5,24,37,28
India,Karnataka,Bengaluru,"BTM Layout, Bengaluru - CPCB",20-10-2025 07:00:00,12.9135218,77.5950804,CO,18,30,27
India,Karnataka,Bengaluru,"BWSSB Kadabesanahalli, Bengaluru - CPCB",20-10-2025 07:00:00,12.9352049,77.6814488,PM10,45,140,91
India,Karnataka,Bengaluru,"Jayanagar 5th Block, Bengaluru - KSPCB",20-10-2025 07:00:00,12.920984,77.584908,NH3,NA,NA,NA
India,Karnataka,Bengaluru,"Jigani, Bengaluru - KSPCB",20-10-2025 07:00:00,12.7816279,77.6299145,NO2,NA,NA,NA
India,Karnataka,Bengaluru,"Jigani, Bengaluru - KSPCB",20-10-2025 07:00:00,12.7816279,77.6299145,CO,NA,NA,NA
India,Karnataka,Bengaluru,"Kasturi Nagar, Bengaluru - KSPCB",20-10-2025 07:00:00,13.003872,77.664217,SO2,8,10,9
India,Karnataka,Bengaluru,"Kasturi Nagar, Bengaluru - KSPCB",20-10-2025 07:00:00,13.003872,77.664217,OZONE,24,32,31
India,Karnataka,Bengaluru,"Peenya, Bengaluru - CPCB",20-10-2025 07:00:00,13.0270199,77.494094,PM10,NA,NA,NA
