country,state,city,station,last_update,latitude,longitude,pollutant_id,min_value,max_value,avg_value
India,Andhra_Pradesh,Amaravati,"Secretariat, Amaravati - APPCB",07-09-2025 07:00:00,16.5150833,80.5181667,SO2,10,13,12
India,Andhra_Pradesh,Amaravati,"Secretariat, Amaravati - APPCB",07-09-2025 07:00:00,16.5150833,80.5181667,OZONE,3,22,9
India,Andhra_Pradesh,Anantapur,"Gulzarpet, Anantapur - APPCB",07-09-2025 07:00:00,14.675886,77.593027,PM10,49,96,60
India,Andhra_Pradesh,Anantapur,"Gulzarpet, Anantapur - APPCB",07-09-2025 07:00:00,14.675886,77.593027,SO2,15,16,16
India,Andhra_Pradesh,Anantapur,"Gulzarpet, Anantapur - APPCB",07-09-2025 07:00:00,14.675886,77.593027,OZONE,11,18,12
India,Andhra_Pradesh,Chittoor,"Gangineni Cheruvu, Chittoor - APPCB",07-09-2025 07:00:00,13.204880,79.097889,NO2,28,37,35
India,Andhra_Pradesh,Chittoor,"Gangineni Cheruvu, Chittoor - APPCB",07-09-2025 07:00:00,13.204880,79.097889,CO,26,55,44
India,Andhra_Pradesh,Rajamahendravaram,"Anand Kala Kshetram, Rajamahendravaram - APPCB",07-09-2025 07:00:00,16.9872867,81.7363176,PM10,26,70,46
India,Andhra_Pradesh,Rajamahendravaram,"Anand Kala Kshetram, Rajamahendravaram - APPCB",07-09-2025 07:00:00,16.9872867,81.7363176,NO2,9,34,18
India,Assam,Sivasagar,"Girls College, Sivasagar - PCBA",07-09-2025 07:00:00,26.987634,94.636574,OZONE,2,8,2
India,Bihar,Araria,"Kharahiya Basti, Araria - BSPCB",07-09-2025 07:00:00,26.146529,87.454184,OZONE,3,12,10
India,Bihar,Arrah,"New DM Office, Arrah - BSPCB",07-09-2025 07:00:00,25.5626095,84.663264,PM2.5,28,30,29
India,Bihar,Arrah,"New DM Office, Arrah - BSPCB",07-09-2025 07:00:00,25.5626095,84.663264,NO2,5,11,7
India,Bihar,Arrah,"New DM Office, Arrah - BSPCB",07-09-2025 07:00:00,25.5626095,84.663264,SO2,8,10,10
India,Bihar,Aurangabad,"Gurdeo Nagar, Aurangabad - BSPCB",07-09-2025 07:00:00,24.75746,84.366208,PM10,NA,NA,NA
India,Bihar,Aurangabad,"Gurdeo Nagar, Aurangabad - BSPCB",07-09-2025 07:00:00,24.75746,84.366208,OZONE,5,18,8
India,Bihar,Begusarai,"Lohiyanagar, Begusarai - BSPCB",07-09-2025 07:00:00,25.42742023,86.13886079,NO2,9,23,16
India,Bihar,Bettiah,"Kamalnath Nagar, Bettiah - BSPCB",07-09-2025 07:00:00,26.80365,84.51954,CO,38,56,44
India,Bihar,Bhagalpur,"DM Office_Kachari Chowk, Bhagalpur - BSPCB",07-09-2025 07:00:00,25.251013,86.989001,NH3,2,4,3
India,Bihar,Bhagalpur,"DM Office_Kachari Chowk, Bhagalpur - BSPCB",07-09-2025 07:00:00,25.251013,86.989001,SO2,28,68,55
India,Bihar,Bhagalpur,"Mayaganj, Bhagalpur - BSPCB",07-09-2025 07:00:00,25.265194,87.012947,NH3,2,5,4
India,Bihar,Bhagalpur,"Mayaganj, Bhagalpur - BSPCB",07-09-2025 07:00:00,25.265194,87.012947,OZONE,15,42,24
India,Bihar,Gaya,"SFTI Kusdihra, Gaya - BSPCB",07-09-2025 07:00:00,24.762518,84.982348,OZONE,9,21,10
India,Bihar,Hajipur,"Industrial Area, Hajipur - BSPCB",07-09-2025 07:00:00,25.697189,85.245900,NO2,NA,NA,NA
India,Bihar,Hajipur,"Industrial Area, Hajipur - BSPCB",07-09-2025 07:00:00,25.697189,85.245900,SO2,NA,NA,NA
India,Bihar,Manguraha,"Forest Rest House, Manguraha - BSPCB",07-09-2025 07:00:00,27.308328,84.531742,PM2.5,NA,NA,NA
India,Bihar,Manguraha,"Forest Rest House, Manguraha - BSPCB",07-09-2025 07:00:00,27.308328,84.531742,NO2,4,8,5
India,Bihar,Manguraha,"Forest Rest House, Manguraha - BSPCB",07-09-2025 07:00:00,27.308328,84.531742,OZONE,10,25,11
India,Bihar,Motihari,"Gandak Colony, Motihari - BSPCB",07-09-2025 07:00:00,26.63086,84.90051,NO2,NA,NA,NA
India,Bihar,Motihari,"Gandak Colony, Motihari - BSPCB",07-09-2025 07:00:00,26.63086,84.90051,CO,1,6,1
India,Bihar,Munger,"Town Hall, Munger - BSPCB",07-09-2025 07:00:00,25.376776,86.471523,NH3,5,6,6
India,Bihar,Muzaffarpur,"Buddha Colony, Muzaffarpur - BSPCB",07-09-2025 07:00:00,26.11442,85.39813,NH3,4,5,4
India,Bihar,Muzaffarpur,"Buddha Colony, Muzaffarpur - BSPCB",07-09-2025 07:00:00,26.11442,85.39813,SO2,3,4,3
India,Assam,Guwahati,"Pan Bazaar, Guwahati - PCBA",07-09-2025 07:00:00,26.187500,91.744194,PM10,5,33,16
India,Assam,Guwahati,"Pan Bazaar, Guwahati - PCBA",07-09-2025 07:00:00,26.187500,91.744194,SO2,31,76,53
India,Assam,Guwahati,"Railway Colony, Guwahati - PCBA",07-09-2025 07:00:00,26.181742,91.78063,NH3,1,1,1
India,Assam,Guwahati,"Railway Colony, Guwahati - PCBA",07-09-2025 07:00:00,26.181742,91.78063,SO2,27,28,27
India,Assam,Nagaon,"Christianpatty, Nagaon - PCBA",07-09-2025 07:00:00,26.349082,92.68449,NO2,1,9,2
India,Andhra_Pradesh,Visakhapatnam,"GVM Corporation, Visakhapatnam - APPCB",07-09-2025 07:00:00,17.72,83.3,NH3,3,3,3
India,Arunachal_Pradesh,Naharlagun,"Naharlagun, Naharlagun - APSPCB",07-09-2025 07:00:00,27.103358,93.679645,NO2,5,6,5
India,Assam,Guwahati,"IITG, Guwahati - PCBA",07-09-2025 07:00:00,26.2028636,91.70046436,NO2,NA,NA,NA
India,Assam,Guwahati,"IITG, Guwahati - PCBA",07-09-2025 07:00:00,26.2028636,91.70046436,NH3,NA,NA,NA
India,Bihar,Chhapra,"Darshan Nagar, Chhapra - BSPCB",07-09-2025 07:00:00,25.7808257,84.7446768,NH3,3,4,4
India,Bihar,Gaya,"Collectorate, Gaya - BSPCB",07-09-2025 07:00:00,24.7955,84.9994,OZONE,19,21,19
India,Bihar,Gaya,"Kareemganj, Gaya - BSPCB",07-09-2025 07:00:00,24.792403,84.992416,PM10,38,137,78
India,Andhra_Pradesh,Vijayawada,"HB Colony, Vijayawada - APPCB",07-09-2025 07:00:00,16.536107,80.594233,NO2,23,23,23
India,Andhra_Pradesh,Vijayawada,"Rajiv Gandhi Park, Vijayawada - APPCB",07-09-2025 07:00:00,16.509717,80.612222,PM10,33,60,47
India,Andaman and Nicobar,Sri Vijaya Puram,"Police Line, Sri Vijaya Puram - ANPCC",07-09-2025 07:00:00,11.654054,92.734055,OZONE,NA,NA,NA
India,Delhi,Delhi,"Alipur, Delhi - DPCC",07-09-2025 07:00:00,28.815329,77.153010,NO2,10,16,13
India,Delhi,Delhi,"Anand Vihar, Delhi - DPCC",07-09-2025 07:00:00,28.647622,77.3158090,PM2.5,42,253,114
India,Delhi,Delhi,"Anand Vihar, Delhi - DPCC",07-09-2025 07:00:00,28.647622,77.3158090,SO2,26,44,36
India,Delhi,Delhi,"Anand Vihar, Delhi - DPCC",07-09-2025 07:00:00,28.647622,77.3158090,OZONE,7,54,12
India,Delhi,Delhi,"Ashok Vihar, Delhi - DPCC",07-09-2025 07:00:00,28.695381,77.181665,PM10,51,104,79
India,Delhi,Delhi,"Ashok Vihar, Delhi - DPCC",07-09-2025 07:00:00,28.695381,77.181665,NH3,4,6,5
India,Delhi,Delhi,"Ashok Vihar, Delhi - DPCC",07-09-2025 07:00:00,28.695381,77.181665,CO,12,52,22
India,Delhi,Delhi,"Ashok Vihar, Delhi - DPCC",07-09-2025 07:00:00,28.695381,77.181665,OZONE,4,54,8
India,Delhi,Delhi,"Aya Nagar, Delhi - IMD",07-09-2025 07:00:00,28.4706914,77.1099364,OZONE,18,52,23
India,Delhi,Delhi,"Bawana, Delhi - DPCC",07-09-2025 07:00:00,28.776200,77.051074,PM10,45,83,63
India,Delhi,Delhi,"Bawana, Delhi - DPCC",07-09-2025 07:00:00,28.776200,77.051074,SO2,7,9,8
India,Delhi,Delhi,"Bawana, Delhi - DPCC",07-09-2025 07:00:00,28.776200,77.051074,CO,34,55,40
India,Chhattisgarh,Raipur,"AIIMS, Raipur - CECB",07-09-2025 07:00:00,21.258815,81.578979,OZONE,6,15,6
India,Chhattisgarh,Raipur,"Bhatagaon New ISBT, Raipur - CECB",07-09-2025 07:00:00,21.219665,81.630094,NO2,7,27,12
India,Chhattisgarh,Raipur,"Bhatagaon New ISBT, Raipur - CECB",07-09-2025 07:00:00,21.219665,81.630094,NH3,2,2,2
India,Chhattisgarh,Raipur,"Bhatagaon New ISBT, Raipur - CECB",07-09-2025 07:00:00,21.219665,81.630094,SO2,5,7,6
India,Chhattisgarh,Raipur,"Bhatagaon New ISBT, Raipur - CECB",07-09-2025 07:00:00,21.219665,81.630094,CO,10,38,13
India,Chhattisgarh,Raipur,"Krishak Nagar, Raipur - CECB",07-09-2025 07:00:00,21.237755,81.705301,SO2,6,8,6
India,Chhattisgarh,Raipur,"Siltara Phase-II, Raipur - CECB",07-09-2025 07:00:00,21.371751,81.664929,NH3,3,3,3
India,Chhattisgarh,Raipur,"Siltara Phase-II, Raipur - CECB",07-09-2025 07:00:00,21.371751,81.664929,SO2,6,12,8
India,Chhattisgarh,Tumidih,"OP Jindal Industrial Park, Tumidih - CECB",07-09-2025 07:00:00,22.06631475,83.33820077,NO2,12,43,24
India,Bihar,Patna,"DRM Office Danapur, Patna - BSPCB",07-09-2025 07:00:00,25.586562,85.043586,NH3,2,3,3
India,Bihar,Patna,"DRM Office Danapur, Patna - BSPCB",07-09-2025 07:00:00,25.586562,85.043586,OZONE,23,29,25
India,Bihar,Patna,"Govt. High School Shikarpur, Patna - BSPCB",07-09-2025 07:00:00,25.592539,85.227158,PM2.5,23,43,33
India,Bihar,Patna,"Govt. High School Shikarpur, Patna - BSPCB",07-09-2025 07:00:00,25.592539,85.227158,PM10,16,89,45
India,Bihar,Patna,"Govt. High School Shikarpur, Patna - BSPCB",07-09-2025 07:00:00,25.592539,85.227158,SO2,20,23,21
India,Bihar,Patna,"IGSC Planetarium Complex, Patna - BSPCB",07-09-2025 07:00:00,25.610369,85.132568,SO2,NA,NA,NA
India,Bihar,Patna,"Muradpur, Patna - BSPCB",07-09-2025 07:00:00,25.619651,85.147382,PM10,59,181,106
India,Bihar,Patna,"Muradpur, Patna - BSPCB",07-09-2025 07:00:00,25.619651,85.147382,NH3,4,5,5
India,Bihar,Patna,"Muradpur, Patna - BSPCB",07-09-2025 07:00:00,25.619651,85.147382,SO2,13,18,15
India,Chhattisgarh,Bhilai,"Hathkhoj, Bhilai - CECB",07-09-2025 07:00:00,21.224231,81.408350,NH3,3,4,4
India,Chhattisgarh,Bilaspur,"Mangala, Bilaspur - NTPC",07-09-2025 07:00:00,22.08815,82.13737,PM2.5,18,100,41
India,Chhattisgarh,Bilaspur,"Mangala, Bilaspur - NTPC",07-09-2025 07:00:00,22.08815,82.13737,PM10,23,122,54
India,Chhattisgarh,Chhal,"Nawapara SECL Colony, Chhal - CECB",07-09-2025 07:00:00,22.118125,83.140608,PM10,24,135,86
India,Chhattisgarh,Chhal,"Nawapara SECL Colony, Chhal - CECB",07-09-2025 07:00:00,22.118125,83.140608,NO2,6,21,11
India,Chhattisgarh,Chhal,"Nawapara SECL Colony, Chhal - CECB",07-09-2025 07:00:00,22.118125,83.140608,NH3,6,6,6
India,Chhattisgarh,Chhal,"Nawapara SECL Colony, Chhal - CECB",07-09-2025 07:00:00,22.118125,83.140608,SO2,6,43,12
India,Chhattisgarh,Korba,"Rampur, Korba - CECB",07-09-2025 07:00:00,22.368195,82.746431,CO,10,22,19
India,Delhi,Delhi,"CRRI Mathura Road, Delhi - IMD",07-09-2025 07:00:00,28.5512005,77.2735737,PM10,30,86,54
India,Delhi,Delhi,"Chandni Chowk, Delhi - IITM",07-09-2025 07:00:00,28.656756,77.227234,SO2,10,17,13
India,Delhi,Delhi,"DTU, Delhi - CPCB",07-09-2025 07:00:00,28.7500499,77.1112615,CO,18,27,24
India,Delhi,Delhi,"Dr. Karni Singh Shooting Range, Delhi - DPCC",07-09-2025 07:00:00,28.498571,77.264840,PM2.5,30,75,53
India,Delhi,Delhi,"Dr. Karni Singh Shooting Range, Delhi - DPCC",07-09-2025 07:00:00,28.498571,77.264840,OZONE,10,31,15
India,Delhi,Delhi,"Dwarka-Sector 8, Delhi - DPCC ",07-09-2025 07:00:00,28.5710274,77.0719006,PM2.5,27,80,54
India,Delhi,Delhi,"Dwarka-Sector 8, Delhi - DPCC ",07-09-2025 07:00:00,28.5710274,77.0719006,PM10,53,162,100
India,Chandigarh,Chandigarh,"Sector-25, Chandigarh - CPCC",07-09-2025 07:00:00,30.751462,76.762879,NO2,4,19,8
India,Chhattisgarh,Bhilai,"32Bungalows, Bhilai - CECB",07-09-2025 07:00:00,21.194815,81.314770,OZONE,7,29,11
India,Chhattisgarh,Bhilai,"Civic Center, Bhilai - Bhilai Steel Plant",07-09-2025 07:00:00,21.185571,81.343175,PM10,25,41,31
India,Bihar,Patna,"Samanpura, Patna - BSPCB",07-09-2025 07:00:00,25.596727,85.085624,NO2,38,50,43
India,Bihar,Rajgir,"Dangi Tola, Rajgir - BSPCB",07-09-2025 07:00:00,25.03280,85.41948,PM10,NA,NA,NA
India,Bihar,Rajgir,"Dangi Tola, Rajgir - BSPCB",07-09-2025 07:00:00,25.03280,85.41948,SO2,12,26,21
India,Bihar,Samastipur,"DM Office_Kasipur, Samastipur - BSPCB",07-09-2025 07:00:00,25.859655,85.77944,NO2,NA,NA,NA
India,Bihar,Siwan,"Chitragupta Nagar, Siwan - BSPCB",07-09-2025 07:00:00,26.2271665,84.3570427,PM2.5,2,75,39
India,Bihar,Saharsa,"Police Line, Saharsa - BSPCB",07-09-2025 07:00:00,25.892357,86.590325,NO2,6,10,7
India,Delhi,Delhi,"Jawaharlal Nehru Stadium, Delhi - DPCC",07-09-2025 07:00:00,28.580280,77.233829,NH3,NA,NA,NA
India,Delhi,Delhi,"Jawaharlal Nehru Stadium, Delhi - DPCC",07-09-2025 07:00:00,28.580280,77.233829,CO,NA,NA,NA
India,Delhi,Delhi,"Jawaharlal Nehru Stadium, Delhi - DPCC",07-09-2025 07:00:00,28.580280,77.233829,OZONE,NA,NA,NA
India,Delhi,Delhi,"Lodhi Road, Delhi - IITM",07-09-2025 07:00:00,28.588333,77.221667,PM10,35,79,60
India,Delhi,Delhi,"Lodhi Road, Delhi - IITM",07-09-2025 07:00:00,28.588333,77.221667,SO2,6,19,13
India,Delhi,Delhi,"Major Dhyan Chand National Stadium, Delhi - DPCC",07-09-2025 07:00:00,28.611281,77.237738,NO2,12,72,36
India,Delhi,Delhi,"Major Dhyan Chand National Stadium, Delhi - DPCC",07-09-2025 07:00:00,28.611281,77.237738,SO2,2,11,6
India,Delhi,Delhi,"Major Dhyan Chand National Stadium, Delhi - DPCC",07-09-2025 07:00:00,28.611281,77.237738,CO,16,74,28
India,Delhi,Delhi,"Mundka, Delhi - DPCC",07-09-2025 07:00:00,28.684678,77.076574,NH3,6,8,6
India,Delhi,Delhi,"Wazirpur, Delhi - DPCC",07-09-2025 07:00:00,28.699793,77.165453,NH3,6,8,7
India,Gujarat,Ahmedabad,"Chandkheda, Ahmedabad - IITM",07-09-2025 07:00:00,23.107969,72.574648,PM2.5,6,26,14
India,Gujarat,Ahmedabad,"Chandkheda, Ahmedabad - IITM",07-09-2025 07:00:00,23.107969,72.574648,NO2,1,6,4
India,Gujarat,Ahmedabad,"Chandkheda, Ahmedabad - IITM",07-09-2025 07:00:00,23.107969,72.574648,CO,12,34,14
India,Gujarat,Ahmedabad,"Gyaspur, Ahmedabad - IITM",07-09-2025 07:00:00,22.977134,72.553024,OZONE,9,23,20
India,Gujarat,Ahmedabad,"Raikhad, Ahmedabad - IITM",07-09-2025 07:00:00,23.020509,72.579261,PM2.5,19,53,35
India,Gujarat,Ahmedabad,"Raikhad, Ahmedabad - IITM",07-09-2025 07:00:00,23.020509,72.579261,NO2,5,15,9
India,Delhi,Delhi,"Sonia Vihar, Delhi - DPCC",07-09-2025 07:00:00,28.710508,77.249485,CO,33,76,42
India,Delhi,Delhi,"Sri Aurobindo Marg, Delhi - DPCC",07-09-2025 07:00:00,28.531346,77.190156,PM2.5,18,52,32
India,Delhi,Delhi,"Sri Aurobindo Marg, Delhi - DPCC",07-09-2025 07:00:00,28.531346,77.190156,NO2,8,49,20
India,Delhi,Delhi,"Vivek Vihar, Delhi - DPCC",07-09-2025 07:00:00,28.672342,77.315260,PM2.5,NA,NA,NA
India,Delhi,Delhi,"Vivek Vihar, Delhi - DPCC",07-09-2025 07:00:00,28.672342,77.315260,NH3,NA,NA,NA
India,Delhi,Delhi,"Wazirpur, Delhi - DPCC",07-09-2025 07:00:00,28.699793,77.165453,PM10,91,277,149
India,Delhi,Delhi,"Pusa, Delhi - DPCC",07-09-2025 07:00:00,28.639652,77.146275,OZONE,3,48,9
India,Delhi,Delhi,"R K Puram, Delhi - DPCC",07-09-2025 07:00:00,28.563262,77.186937,SO2,6,15,10
India,Delhi,Delhi,"Rohini, Delhi - DPCC",07-09-2025 07:00:00,28.732528,77.119920,NH3,3,6,4
India,Delhi,Delhi,"Shadipur, Delhi - CPCB",07-09-2025 07:00:00,28.6514781,77.1473105,PM2.5,59,113,79
India,Delhi,Delhi,"Shadipur, Delhi - CPCB",07-09-2025 07:00:00,28.6514781,77.1473105,NH3,6,8,7
India,Gujarat,Ankleshwar,"GIDC, Ankleshwar - GPCB",07-09-2025 07:00:00,21.613267,73.010555,NH3,4,4,4
India,Gujarat,Gandhinagar,"GIFT City, Gandhinagar - IITM",07-09-2025 07:00:00,23.163798,72.677768,NH3,1,5,3
India,Gujarat,Gandhinagar,"IIPHG Lekawada, Gandhinagar - IITM",07-09-2025 07:00:00,23.243639,72.68994,PM2.5,10,40,21
India,Gujarat,Gandhinagar,"IIPHG Lekawada, Gandhinagar - IITM",07-09-2025 07:00:00,23.243639,72.68994,CO,40,62,42
India,Delhi,Delhi,"NSIT Dwarka, Delhi - CPCB",07-09-2025 07:00:00,28.60909,77.0325413,PM10,46,84,65
India,Delhi,Delhi,"Najafgarh, Delhi - DPCC",07-09-2025 07:00:00,28.570173,76.933762,OZONE,5,24,8
India,Delhi,Delhi,"Narela, Delhi - DPCC",07-09-2025 07:00:00,28.822836,77.101981,SO2,5,16,8
India,Delhi,Delhi,"Nehru Nagar, Delhi - DPCC",07-09-2025 07:00:00,28.567890,77.250515,CO,7,44,16
India,Gujarat,Ahmedabad,"Rakhial, Ahmedabad - IITM",07-09-2025 07:00:00,23.016834,72.625775,PM2.5,9,65,35
India,Gujarat,Ahmedabad,"Rakhial, Ahmedabad - IITM",07-09-2025 07:00:00,23.016834,72.625775,CO,48,73,52
India,Gujarat,Ahmedabad,"SAC ISRO Satellite, Ahmedabad - IITM",07-09-2025 07:00:00,23.023389,72.515201,NH3,4,4,4
India,Gujarat,Ankleshwar,"GIDC, Ankleshwar - GPCB",07-09-2025 07:00:00,21.613267,73.010555,PM2.5,21,68,40
India,Delhi,Delhi,"Patparganj, Delhi - DPCC",07-09-2025 07:00:00,28.623763,77.287209,SO2,7,14,11
India,Delhi,Delhi,"Punjabi Bagh, Delhi - DPCC",07-09-2025 07:00:00,28.674045,77.131023,CO,36,96,54
India,Delhi,Delhi,"Pusa, Delhi - DPCC",07-09-2025 07:00:00,28.639652,77.146275,PM2.5,28,85,47
India,Delhi,Delhi,"IHBAS, Dilshad Garden, Delhi - CPCB",07-09-2025 07:00:00,28.6811736,77.3025234,PM2.5,24,53,33
India,Delhi,Delhi,"IHBAS, Dilshad Garden, Delhi - CPCB",07-09-2025 07:00:00,28.6811736,77.3025234,NO2,40,58,49
India,Delhi,Delhi,"IHBAS, Dilshad Garden, Delhi - CPCB",07-09-2025 07:00:00,28.6811736,77.3025234,CO,17,58,23
India,Karnataka,Yadgir,"Collector Office, Yadgir - KSPCB",07-09-2025 07:00:00,16.7602,77.1428,SO2,NA,NA,NA
India,Karnataka,Yadgir,"Collector Office, Yadgir - KSPCB",07-09-2025 07:00:00,16.7602,77.1428,CO,NA,NA,NA
India,Kerala,Eloor,"Udyogamandal, Eloor - Kerala PCB",07-09-2025 07:00:00,10.073232,76.302765,SO2,NA,NA,NA
India,Kerala,Eloor,"Udyogamandal, Eloor - Kerala PCB",07-09-2025 07:00:00,10.073232,76.302765,CO,NA,NA,NA
India,Kerala,Eloor,"Udyogamandal, Eloor - Kerala PCB",07-09-2025 07:00:00,10.073232,76.302765,OZONE,NA,NA,NA
India,Kerala,Kannur,"Thavakkara, Kannur - Kerala PCB",07-09-2025 07:00:00,11.875000,75.373200,PM2.5,55,62,58
India,Kerala,Kollam,"Polayathode, Kollam - Kerala PCB",07-09-2025 07:00:00,8.8787,76.6073,PM2.5,20,27,24
India,Kerala,Kollam,"Polayathode, Kollam - Kerala PCB",07-09-2025 07:00:00,8.8787,76.6073,SO2,2,3,2
India,Kerala,Thiruvananthapuram,"Kariavattom, Thiruvananthapuram - Kerala PCB",07-09-2025 07:00:00,8.563700,76.886500,PM2.5,36,43,39
India,Kerala,Thiruvananthapuram,"Plammoodu, Thiruvananthapuram - Kerala PCB",07-09-2025 07:00:00,8.5149093,76.9435879,PM10,1,91,25
India,Kerala,Thiruvananthapuram,"Plammoodu, Thiruvananthapuram - Kerala PCB",07-09-2025 07:00:00,8.5149093,76.9435879,NO2,58,98,71
India,Kerala,Thiruvananthapuram,"Plammoodu, Thiruvananthapuram - Kerala PCB",07-09-2025 07:00:00,8.5149093,76.9435879,SO2,10,24,16
India,Kerala,Thrissur,"Corporation Ground, Thrissur - Kerala PCB",07-09-2025 07:00:00,10.532400,76.215900,NO2,9,10,10
India,Kerala,Thrissur,"Corporation Ground, Thrissur - Kerala PCB",07-09-2025 07:00:00,10.532400,76.215900,CO,33,38,35
India,Kerala,Thrissur,"Corporation Ground, Thrissur - Kerala PCB",07-09-2025 07:00:00,10.532400,76.215900,OZONE,30,31,30
India,Madhya Pradesh,Bhopal,"Idgah Hills, Bhopal - MPPCB",07-09-2025 07:00:00,23.264759,77.381568,PM2.5,10,42,18
India,Madhya Pradesh,Bhopal,"Idgah Hills, Bhopal - MPPCB",07-09-2025 07:00:00,23.264759,77.381568,SO2,8,10,9
India,Karnataka,Bengaluru,"Jayanagar 5th Block, Bengaluru - KSPCB",07-09-2025 07:00:00,12.920984,77.584908,PM10,NA,NA,NA
India,Karnataka,Bengaluru,"Jayanagar 5th Block, Bengaluru - KSPCB",07-09-2025 07:00:00,12.920984,77.584908,CO,2,42,10
India,Karnataka,Bengaluru,"Jigani, Bengaluru - KSPCB",07-09-2025 07:00:00,12.7816279,77.6299145,NO2,29,30,29
India,Karnataka,Bengaluru,"Peenya, Bengaluru - CPCB",07-09-2025 07:00:00,13.0270199,77.494094,SO2,1,9,5
India,Karnataka,Bengaluru,"Peenya, Bengaluru - CPCB",07-09-2025 07:00:00,13.0270199,77.494094,OZONE,27,28,28
India,Karnataka,Bengaluru,"RVCE-Mailasandra, Bengaluru - KSPCB",07-09-2025 07:00:00,12.921418,77.502466,NO2,31,32,31
India,Karnataka,Bengaluru,"RVCE-Mailasandra, Bengaluru - KSPCB",07-09-2025 07:00:00,12.921418,77.502466,NH3,5,5,5
India,Karnataka,Bengaluru,"RVCE-Mailasandra, Bengaluru - KSPCB",07-09-2025 07:00:00,12.921418,77.502466,SO2,6,7,6
India,Gujarat,Vapi,"Phase-1 GIDC, Vapi - GPCB",07-09-2025 07:00:00,20.362421,72.918013,NH3,10,10,10
India,Haryana,Gurugram,"NISE Gwal Pahari, Gurugram - IMD",07-09-2025 07:00:00,28.422681,77.148944,PM10,36,96,53
India,Jharkhand,Dhanbad,"Sardar Patel Nagar, Dhanbad - JSPCB",07-09-2025 07:00:00,23.80569,86.44268,PM10,NA,NA,NA
India,Jharkhand,Dhanbad,"Sardar Patel Nagar, Dhanbad - JSPCB",07-09-2025 07:00:00,23.80569,86.44268,CO,22,72,47
India,Jharkhand,Dhanbad,"Sardar Patel Nagar, Dhanbad - JSPCB",07-09-2025 07:00:00,23.80569,86.44268,OZONE,10,25,10
India,Jharkhand,Jorapokhar,"Tata Stadium, Jorapokhar - JSPCB",07-09-2025 07:00:00,23.707909,86.414670,PM10,25,65,41
India,Karnataka,Bengaluru,"Shivapura_Peenya, Bengaluru - KSPCB",07-09-2025 07:00:00,13.0246342,77.5080115,PM2.5,49,75,60
India,Karnataka,Bengaluru,"Shivapura_Peenya, Bengaluru - KSPCB",07-09-2025 07:00:00,13.0246342,77.5080115,NO2,21,25,24
India,Karnataka,Bidar,"Naubad, Bidar - KSPCB",07-09-2025 07:00:00,17.930306,77.482194,NH3,NA,NA,NA
India,Karnataka,Chamarajanagar,"Urban, Chamarajanagar - KSPCB",07-09-2025 07:00:00,11.55358,76.55521,PM2.5,26,52,33
India,Karnataka,Chamarajanagar,"Urban, Chamarajanagar - KSPCB",07-09-2025 07:00:00,11.55358,76.55521,NO2,22,36,31
India,Karnataka,Chikkaballapur,"Chikkaballapur Rural, Chikkaballapur - KSPCB",07-09-2025 07:00:00,13.428828,77.731418,PM10,13,58,27
India,Karnataka,Kalaburagi,"Lal Bahadur Shastri Nagar, Kalaburagi - KSPCB",07-09-2025 07:00:00,17.321993,76.822628,NH3,NA,NA,NA
India,Karnataka,Kalaburagi,"Mahatma Basaveswar Colony, Kalaburgi - KSPCB",07-09-2025 07:00:00,17.336318,76.847397,PM2.5,20,60,37
India,Karnataka,Kalaburagi,"Mahatma Basaveswar Colony, Kalaburgi - KSPCB",07-09-2025 07:00:00,17.336318,76.847397,NO2,11,17,13
India,Karnataka,Koppal,"Diwator Nagar, Koppal - KSPCB",07-09-2025 07:00:00,15.347630,76.181767,OZONE,4,9,6
India,Karnataka,Madikeri,"Stuart Hill, Madikeri - KSPCB",07-09-2025 07:00:00,12.415911,75.735050,OZONE,3,6,4
India,Karnataka,Mysuru,"Hebbal 1st Stage, Mysuru - KSPCB",07-09-2025 07:00:00,12.21041,76.37376,NO2,NA,NA,NA
India,Karnataka,Mysuru,"Hebbal 1st Stage, Mysuru - KSPCB",07-09-2025 07:00:00,12.21041,76.37376,SO2,NA,NA,NA
India,Karnataka,Shivamogga,"Vinoba Nagara, Shivamogga - KSPCB",07-09-2025 07:00:00,13.940000,75.555917,PM10,44,65,59
India,Karnataka,Shivamogga,"Vinoba Nagara, Shivamogga - KSPCB",07-09-2025 07:00:00,13.940000,75.555917,CO,15,35,24
India,Karnataka,Vijayapura,"Ibrahimpur, Vijayapura - KSPCB",07-09-2025 07:00:00,16.802639,75.722694,OZONE,14,17,16
India,Karnataka,Davanagere,"Devaraj Urs Badavane, Davanagere - KSPCB",07-09-2025 07:00:00,14.475800,75.905200,PM2.5,24,47,37
India,Karnataka,Haveri,"Ashwini Nagar, Haveri - KSPCB",07-09-2025 07:00:00,14.791800,75.389600,CO,NA,NA,NA
India,Karnataka,Hubballi,"Lingaraj Nagar, Hubballi - KSPCB",07-09-2025 07:00:00,15.3714823,75.1160168,NH3,1,2,1
India,Karnataka,Hubballi,"Lingaraj Nagar, Hubballi - KSPCB",07-09-2025 07:00:00,15.3714823,75.1160168,CO,8,14,13
India,Karnataka,Bagalkot,"Vidayagiri, Bagalkot - KSPCB",07-09-2025 07:00:00,16.172806,75.659694,PM10,42,43,42
India,Karnataka,Bengaluru,"BTM Layout, Bengaluru - CPCB",07-09-2025 07:00:00,12.9135218,77.5950804,NH3,4,4,4
India,Karnataka,Bengaluru,"Bapuji Nagar, Bengaluru - KSPCB",07-09-2025 07:00:00,12.951913,77.539784,NO2,4,10,6
India,Madhya Pradesh,Katni,"Gole Bazar, Katni - MPPCB",07-09-2025 07:00:00,23.50016,80.23284,PM2.5,20,40,26
India,Madhya Pradesh,Katni,"Gole Bazar, Katni - MPPCB",07-09-2025 07:00:00,23.50016,80.23284,CO,20,30,26
India,Madhya Pradesh,Maihar,"Sahilara, Maihar - KJS Cements",07-09-2025 07:00:00,24.2613009,80.7231783,CO,16,34,32
India,Madhya Pradesh,Pithampur,"Sector-2 Industrial Area, Pithampur - MPPCB",07-09-2025 07:00:00,22.624758,75.675238,PM2.5,23,45,35
India,Madhya Pradesh,Pithampur,"Sector-2 Industrial Area, Pithampur - MPPCB",07-09-2025 07:00:00,22.624758,75.675238,PM10,30,64,43
India,Madhya Pradesh,Pithampur,"Sector-2 Industrial Area, Pithampur - MPPCB",07-09-2025 07:00:00,22.624758,75.675238,NH3,3,3,3
India,Madhya Pradesh,Pithampur,"Sector-2 Industrial Area, Pithampur - MPPCB",07-09-2025 07:00:00,22.624758,75.675238,CO,14,24,18
India,Madhya Pradesh,Ratlam,"Shasthri Nagar, Ratlam - IPCA Lab",07-09-2025 07:00:00,23.331731,75.045981,NO2,34,35,35
India,Madhya Pradesh,Sagar,"Civil Lines, Sagar - MPPCB",07-09-2025 07:00:00,23.838586,78.759431,NH3,1,1,1
India,Madhya Pradesh,Indore,"Regional Park, Indore - IMC",07-09-2025 07:00:00,22.6780,75.8559,CO,15,18,16
India,Madhya Pradesh,Indore,"Regional Park, Indore - IMC",07-09-2025 07:00:00,22.6780,75.8559,OZONE,5,7,6
India,Madhya Pradesh,Indore,"Residency Area, Indore - IMC",07-09-2025 07:00:00,22.7084,75.8815,NO2,11,19,15
India,Madhya Pradesh,Indore,"Residency Area, Indore - IMC",07-09-2025 07:00:00,22.7084,75.8815,OZONE,9,12,11
India,Madhya Pradesh,Jabalpur,"Govindh Bhavan Colony, Jabalpur - JMC",07-09-2025 07:00:00,23.163174,79.973061,PM10,20,51,36
India,Madhya Pradesh,Jabalpur,"Govindh Bhavan Colony, Jabalpur - JMC",07-09-2025 07:00:00,23.163174,79.973061,NH3,1,1,1
India,Madhya Pradesh,Jabalpur,"Gupteshwar, Jabalpur - JMC",07-09-2025 07:00:00,23.142888,79.916147,PM2.5,22,50,36
India,Madhya Pradesh,Jabalpur,"Gupteshwar, Jabalpur - JMC",07-09-2025 07:00:00,23.142888,79.916147,NH3,3,6,5
India,Madhya Pradesh,Jabalpur,"Gupteshwar, Jabalpur - JMC",07-09-2025 07:00:00,23.142888,79.916147,SO2,3,22,10
India,Madhya Pradesh,Jabalpur,"Suhagi, Jabalpur - JMC",07-09-2025 07:00:00,23.218135,79.957770,PM2.5,18,58,30
India,Maharashtra,Kolhapur,"Sinchan Bhavan, Kolhapur - MPCB",07-09-2025 07:00:00,16.7143745,74.2426398,PM10,19,57,42
India,Maharashtra,Kolhapur,"Sinchan Bhavan, Kolhapur - MPCB",07-09-2025 07:00:00,16.7143745,74.2426398,CO,5,12,9
India,Maharashtra,Latur,"Sawe Wadi, Latur - MPCB",07-09-2025 07:00:00,18.39963,76.57452,PM10,19,73,40
India,Maharashtra,Latur,"Sawe Wadi, Latur - MPCB",07-09-2025 07:00:00,18.39963,76.57452,OZONE,15,35,18
India,Maharashtra,Mahad,"Kamble Tarf Birwadi, Mahad - MPCB",07-09-2025 07:00:00,18.1023399,73.4783687,PM2.5,8,57,29
India,Maharashtra,Mahad,"Kamble Tarf Birwadi, Mahad - MPCB",07-09-2025 07:00:00,18.1023399,73.4783687,CO,18,30,24
India,Maharashtra,Mahad,"Kamble Tarf Birwadi, Mahad - MPCB",07-09-2025 07:00:00,18.1023399,73.4783687,OZONE,13,52,26
India,Maharashtra,Malegaon,"Mahesh Nagar, Malegaon - MPCB",07-09-2025 07:00:00,20.555712,74.529236,NH3,4,5,5
India,Madhya Pradesh,Singrauli,"Suryakiran Bhawan NCL, Singrauli - MPPCB",07-09-2025 07:00:00,24.108970,82.645580,PM10,55,238,97
India,Madhya Pradesh,Singrauli,"Suryakiran Bhawan NCL, Singrauli - MPPCB",07-09-2025 07:00:00,24.108970,82.645580,NO2,18,40,25
India,Maharashtra,Ahmednagar,"Tarakpur, Ahmednagar - MPCB",07-09-2025 07:00:00,19.10122,74.73339,NH3,4,7,5
India,Maharashtra,Akola,"Ramdaspeth, Akola - MPCB",07-09-2025 07:00:00,20.719516,77.000253,CO,12,38,21
India,Maharashtra,Amravati,"Shivneri Colony, Amravati - MPCB",07-09-2025 07:00:00,20.9402359,77.7895248,PM2.5,6,25,14
India,Maharashtra,Amravati,"Shivneri Colony, Amravati - MPCB",07-09-2025 07:00:00,20.9402359,77.7895248,CO,12,23,16
India,Maharashtra,Dhule,"Deopur, Dhule - MPCB",07-09-2025 07:00:00,20.918946,74.776388,NO2,2,18,11
India,Maharashtra,Dhule,"Deopur, Dhule - MPCB",07-09-2025 07:00:00,20.918946,74.776388,NH3,3,4,4
India,Maharashtra,Dhule,"Deopur, Dhule - MPCB",07-09-2025 07:00:00,20.918946,74.776388,OZONE,11,21,12
India,Maharashtra,Jalgaon,"Prabhat Colony, Jalgaon - MPCB",07-09-2025 07:00:00,21.001264,75.565602,SO2,9,11,10
India,Maharashtra,Kalyan,"Khadakpada, Kalyan - MPCB",07-09-2025 07:00:00,19.25292,73.142019,NO2,7,9,8
India,Maharashtra,Kalyan,"Khadakpada, Kalyan - MPCB",07-09-2025 07:00:00,19.25292,73.142019,NH3,1,2,1
India,Maharashtra,Aurangabad,"More Chowk Waluj, Aurangabad - MPCB",07-09-2025 07:00:00,19.8389439,75.244448,NO2,11,22,18
India,Maharashtra,Aurangabad,"More Chowk Waluj, Aurangabad - MPCB",07-09-2025 07:00:00,19.8389439,75.244448,NH3,10,11,11
India,Maharashtra,Badlapur,"Katrap, Badlapur - MPCB",07-09-2025 07:00:00,19.16485,73.23409,OZONE,20,33,21
India,Maharashtra,Belapur,"CBD Belapur, Belapur - MPCB",07-09-2025 07:00:00,19.0243902,73.0406721,PM2.5,14,25,21
India,Maharashtra,Belapur,"CBD Belapur, Belapur - MPCB",07-09-2025 07:00:00,19.0243902,73.0406721,NO2,8,16,12
India,Maharashtra,Bhiwandi,"Gokul Nagar, Bhiwandi - MPCB",07-09-2025 07:00:00,19.309073,73.057223,CO,20,40,31
India,Maharashtra,Boisar,"Khaira, Boisar - MPCB",07-09-2025 07:00:00,19.786089,72.757971,PM2.5,14,53,27
India,Maharashtra,Chandrapur,"MIDC Khutala, Chandrapur - MPCB",07-09-2025 07:00:00,19.9775302,79.2337086,NH3,1,3,2
India,Maharashtra,Dhule,"Deopur, Dhule - MPCB",07-09-2025 07:00:00,20.918946,74.776388,PM2.5,3,54,20
India,Madhya Pradesh,Gwalior,"Maharaj Bada, Gwalior - MPPCB",07-09-2025 07:00:00,26.200388,78.147714,OZONE,9,42,40
India,Madhya Pradesh,Indore,"Chhoti Gwaltoli, Indore - MPPCB",07-09-2025 07:00:00,22.4310,75.5213,SO2,11,13,12
India,Madhya Pradesh,Indore,"Maguda Nagar, Indore - IMC",07-09-2025 07:00:00,22.7524,75.8872,NO2,1,2,2
India,Madhya Pradesh,Indore,"Maguda Nagar, Indore - IMC",07-09-2025 07:00:00,22.7524,75.8872,OZONE,7,11,8
India,Madhya Pradesh,Gwalior,"City Center, Gwalior - MPPCB",07-09-2025 07:00:00,26.203442,78.193251,SO2,11,15,13
India,Madhya Pradesh,Gwalior,"City Center, Gwalior - MPPCB",07-09-2025 07:00:00,26.203442,78.193251,OZONE,21,47,23
India,Maharashtra,Mumbai,"Shivaji Nagar, Mumbai - BMC",07-09-2025 07:00:00,19.060498,72.923356,PM10,25,116,66
India,Maharashtra,Mumbai,"Shivaji Nagar, Mumbai - BMC",07-09-2025 07:00:00,19.060498,72.923356,SO2,12,13,12
India,Maharashtra,Mumbai,"Shivaji Nagar, Mumbai - BMC",07-09-2025 07:00:00,19.060498,72.923356,CO,2,82,34
India,Maharashtra,Mumbai,"Siddharth Nagar-Worli, Mumbai - IITM",07-09-2025 07:00:00,19.000083,72.813993,NH3,5,5,5
India,Maharashtra,Mumbai,"Siddharth Nagar-Worli, Mumbai - IITM",07-09-2025 07:00:00,19.000083,72.813993,OZONE,7,29,22
India,Maharashtra,Mumbai,"Worli, Mumbai - MPCB",07-09-2025 07:00:00,18.9936162,72.8128113,PM10,52,84,65
India,Maharashtra,Mumbai,"Worli, Mumbai - MPCB",07-09-2025 07:00:00,18.9936162,72.8128113,NO2,3,19,12
India,Maharashtra,Mumbai,"Worli, Mumbai - MPCB",07-09-2025 07:00:00,18.9936162,72.8128113,SO2,17,28,23
India,Maharashtra,Nagpur,"Ambazari, Nagpur - MPCB",07-09-2025 07:00:00,21.121801,79.04952,PM2.5,22,58,36
India,Maharashtra,Nagpur,"Mahal, Nagpur - MPCB",07-09-2025 07:00:00,21.14472,79.107595,PM2.5,19,72,38
India,Maharashtra,Nagpur,"Mahal, Nagpur - MPCB",07-09-2025 07:00:00,21.14472,79.107595,PM10,25,97,50
India,Maharashtra,Navi Mumbai,"Mahape, Navi Mumbai - MPCB",07-09-2025 07:00:00,19.1135051,73.008978,CO,32,36,33
India,Maharashtra,Navi Mumbai,"Mahape, Navi Mumbai - MPCB",07-09-2025 07:00:00,19.1135051,73.008978,OZONE,10,22,12
India,Maharashtra,Navi Mumbai,"Sanpada, Navi Mumbai - MPCB",07-09-2025 07:00:00,19.0575752,73.0151367,PM2.5,12,28,19
India,Maharashtra,Navi Mumbai,"Sanpada, Navi Mumbai - MPCB",07-09-2025 07:00:00,19.0575752,73.0151367,OZONE,10,11,10
India,Maharashtra,Navi Mumbai,"Sector-2E Kalamboli, Navi Mumbai - MPCB",07-09-2025 07:00:00,19.02579,73.10297,PM2.5,17,51,31
India,Maharashtra,Navi Mumbai,"Sector-2E Kalamboli, Navi Mumbai - MPCB",07-09-2025 07:00:00,19.02579,73.10297,NH3,1,4,3
India,Maharashtra,Navi Mumbai,"Tondare-Taloja, Navi Mumbai - MPCB",07-09-2025 07:00:00,19.0630,73.1209,PM2.5,4,378,58
India,Maharashtra,Navi Mumbai,"Tondare-Taloja, Navi Mumbai - MPCB",07-09-2025 07:00:00,19.0630,73.1209,NH3,3,6,4
India,Maharashtra,Mumbai,"Mazgaon, Mumbai - IITM",07-09-2025 07:00:00,18.96702,72.84214,SO2,1,4,2
India,Maharashtra,Mumbai,"Mazgaon, Mumbai - IITM",07-09-2025 07:00:00,18.96702,72.84214,CO,29,62,50
India,Maharashtra,Mumbai,"Mindspace-Malad West, Mumbai - MPCB",07-09-2025 07:00:00,19.1878657,72.8304069,PM10,35,37,36
India,Maharashtra,Mumbai,"Mindspace-Malad West, Mumbai - MPCB",07-09-2025 07:00:00,19.1878657,72.8304069,CO,29,31,30
India,Maharashtra,Mumbai,"Navy Nagar-Colaba, Mumbai - IITM",07-09-2025 07:00:00,18.897756,72.813320,OZONE,13,20,16
India,Maharashtra,Mumbai,"Sewri, Mumbai - BMC",07-09-2025 07:00:00,19.000084,72.856730,PM2.5,2,8,4
India,Maharashtra,Mumbai,"Sewri, Mumbai - BMC",07-09-2025 07:00:00,19.000084,72.856730,PM10,6,40,19
India,Maharashtra,Mumbai,"Sewri, Mumbai - BMC",07-09-2025 07:00:00,19.000084,72.856730,NO2,1,3,1
India,Maharashtra,Mumbai,"Deonar, Mumbai - IITM",07-09-2025 07:00:00,19.04946,72.9230,PM10,33,93,59
India,Maharashtra,Mumbai,"Deonar, Mumbai - IITM",07-09-2025 07:00:00,19.04946,72.9230,CO,NA,NA,NA
India,Maharashtra,Mumbai,"Deonar, Mumbai - IITM",07-09-2025 07:00:00,19.04946,72.9230,OZONE,1,6,2
India,Maharashtra,Mumbai,"Ghatkopar, Mumbai - BMC",07-09-2025 07:00:00,19.083694,72.920967,SO2,8,10,9
India,Maharashtra,Mumbai,"Kandivali East, Mumbai - MPCB",07-09-2025 07:00:00,19.205800,72.868200,NO2,7,13,9
India,Maharashtra,Mumbai,"Kandivali West, Mumbai - BMC",07-09-2025 07:00:00,19.215859,72.831718,NO2,4,16,9
India,Maharashtra,Mumbai,"Kherwadi_Bandra East, Mumbai - MPCB",07-09-2025 07:00:00,19.0632143,72.8456324,PM10,22,53,37
India,Maharashtra,Mira-Bhayandar,"Bhayandar West, Mira-Bhayandar - MPCB",07-09-2025 07:00:00,19.296481,72.840923,CO,25,61,32
India,Maharashtra,Mumbai,"Bandra Kurla Complex, Mumbai - IITM",07-09-2025 07:00:00,19.053536,72.84643,SO2,4,5,5
India,Maharashtra,Mumbai,"Bandra Kurla Complex, Mumbai - MPCB",07-09-2025 07:00:00,19.065931,72.862131,PM10,16,43,29
India,Maharashtra,Mumbai,"Bandra Kurla Complex, Mumbai - MPCB",07-09-2025 07:00:00,19.065931,72.862131,NO2,7,31,18
India,Maharashtra,Mumbai,"Borivali East, Mumbai - IITM",07-09-2025 07:00:00,19.23241,72.86895,CO,NA,NA,NA
India,Maharashtra,Mumbai,"Borivali East, Mumbai - MPCB",07-09-2025 07:00:00,19.2243333,72.8658113,PM2.5,14,35,25
India,Maharashtra,Mumbai,"Byculla, Mumbai - BMC",07-09-2025 07:00:00,18.9767,72.8380,CO,4,28,7
India,Maharashtra,Mumbai,"Chakala-Andheri East, Mumbai - IITM",07-09-2025 07:00:00,19.11074,72.86084,NO2,2,6,5
India,Maharashtra,Mumbai,"Chembur, Mumbai - MPCB",07-09-2025 07:00:00,19.0364585,72.8954371,PM2.5,22,35,29
India,Maharashtra,Mumbai,"Chhatrapati Shivaji Intl. Airport (T2), Mumbai - MPCB",07-09-2025 07:00:00,19.10078,72.87462,SO2,20,21,20
India,Maharashtra,Mumbai,"Colaba, Mumbai - MPCB",07-09-2025 07:00:00,18.910000,72.820000,NO2,22,23,23
India,Maharashtra,Mumbai,"Khindipada-Bhandup West, Mumbai - IITM",07-09-2025 07:00:00,19.1653323,72.922099,SO2,1,12,5
India,Maharashtra,Mumbai,"Khindipada-Bhandup West, Mumbai - IITM",07-09-2025 07:00:00,19.1653323,72.922099,OZONE,6,27,11
India,Maharashtra,Mumbai,"Malad West, Mumbai - IITM",07-09-2025 07:00:00,19.19709,72.82204,PM10,15,151,57
India,Maharashtra,Mumbai,"Malad West, Mumbai - IITM",07-09-2025 07:00:00,19.19709,72.82204,NO2,26,74,44
India,Maharashtra,Mumbai,"Malad West, Mumbai - IITM",07-09-2025 07:00:00,19.19709,72.82204,SO2,4,11,7
India,Maharashtra,Nashik,"MIDC Ambad, Nashik - MPCB",07-09-2025 07:00:00,19.950220,73.731480,PM10,7,56,21
India,Maharashtra,Nashik,"Pandav Nagari, Nashik - MPCB",07-09-2025 07:00:00,19.9591346,73.7788008,PM10,4,26,10
India,Maharashtra,Nashik,"Pandav Nagari, Nashik - MPCB",07-09-2025 07:00:00,19.9591346,73.7788008,OZONE,14,27,18
India,Maharashtra,Navi Mumbai,"Kopripada-Vashi, Navi Mumbai - MPCB",07-09-2025 07:00:00,19.090337,73.014232,NO2,7,19,12
India,Maharashtra,Nagpur,"Opp GPO Civil Lines, Nagpur - MPCB",07-09-2025 07:00:00,21.152875,79.0517531,NO2,7,26,16
India,Maharashtra,Nagpur,"Ram Nagar, Nagpur - MPCB",07-09-2025 07:00:00,21.143383,79.048912,NO2,6,8,7
India,Maharashtra,Nagpur,"Ram Nagar, Nagpur - MPCB",07-09-2025 07:00:00,21.143383,79.048912,NH3,2,4,3
India,Maharashtra,Nagpur,"Ram Nagar, Nagpur - MPCB",07-09-2025 07:00:00,21.143383,79.048912,CO,10,22,15
India,Maharashtra,Pune,"Savitribai Phule Pune University, Pune - MPCB",07-09-2025 07:00:00,18.547056,73.826908,OZONE,2,13,3
India,Maharashtra,Pune,"Transport Nagar-Nigdi, Pune - IITM",07-09-2025 07:00:00,18.664282,73.763966,PM2.5,3,31,15
India,Maharashtra,Sangli,"Vijay Nagar, Sangli - MPCB",07-09-2025 07:00:00, 16.5038,74.3623,CO,14,18,16
India,Maharashtra,Solapur,"Dnyaneshwar Nagar, Solapur - MPCB",07-09-2025 07:00:00,17.6336264,75.9132495,PM2.5,14,50,28
India,Maharashtra,Solapur,"Dnyaneshwar Nagar, Solapur - MPCB",07-09-2025 07:00:00,17.6336264,75.9132495,PM10,36,94,64
India,Maharashtra,Solapur,"Dnyaneshwar Nagar, Solapur - MPCB",07-09-2025 07:00:00,17.6336264,75.9132495,NO2,1,11,5
India,Maharashtra,Navi Mumbai,"Tondare-Taloja, Navi Mumbai - MPCB",07-09-2025 07:00:00,19.0630,73.1209,OZONE,3,15,10
India,Maharashtra,Parbhani,"Masoom Colony, Parbhani - MPCB",07-09-2025 07:00:00,19.265594,76.761463,OZONE,10,10,10
India,Maharashtra,Pimpri-Chinchwad,"Gavalinagar, Pimpri Chinchwad - MPCB",07-09-2025 07:00:00,18.63673,73.82487,NH3,3,3,3
India,Maharashtra,Pimpri-Chinchwad,"Gavalinagar, Pimpri Chinchwad - MPCB",07-09-2025 07:00:00,18.63673,73.82487,OZONE,6,20,12
India,Maharashtra,Pimpri-Chinchwad,"Park Street Wakad, Pimpri Chinchwad - MPCB",07-09-2025 07:00:00,18.59051,73.77946,PM2.5,9,34,22
India,Meghalaya,Shillong,"Lumpyngngad, Shillong - Meghalaya PCB",07-09-2025 07:00:00,25.5586,91.8985,PM10,8,16,12
India,Meghalaya,Shillong,"Lumpyngngad, Shillong - Meghalaya PCB",07-09-2025 07:00:00,25.5586,91.8985,SO2,5,6,5
India,Odisha,Angul,"Hakimapada, Angul - OSPCB",07-09-2025 07:00:00,20.832874,85.104082,CO,31,70,46
India,Odisha,Angul,"Hakimapada, Angul - OSPCB",07-09-2025 07:00:00,20.832874,85.104082,OZONE,3,14,4
India,Odisha,Barbil,"Forest Office, Barbil - OSPCB",07-09-2025 07:00:00,22.1166054,85.3945546,PM10,22,132,61
India,Maharashtra,Solapur,"Ratandeep Housing Society, Solapur - MPCB",07-09-2025 07:00:00,17.65439,75.90649,NH3,2,5,3
India,Maharashtra,Solapur,"Ratandeep Housing Society, Solapur - MPCB",07-09-2025 07:00:00,17.65439,75.90649,SO2,1,4,3
India,Maharashtra,Solapur,"Ratandeep Housing Society, Solapur - MPCB",07-09-2025 07:00:00,17.65439,75.90649,CO,8,34,15
India,Maharashtra,Thane,"Upvan Fort, Thane - MPCB",07-09-2025 07:00:00,19.222279,72.957979,CO,52,94,63
India,Maharashtra,Ulhasnagar,"Sidhi Vinayak Nagar, Ulhasnagar - MPCB",07-09-2025 07:00:00,19.235581,73.159121,CO,18,52,30
India,Maharashtra,Pimpri-Chinchwad,"Thergaon, Pimpri Chinchwad - MPCB",07-09-2025 07:00:00,18.616318,73.765797,OZONE,12,20,16
India,Maharashtra,Pune,"Katraj Dairy, Pune - MPCB",07-09-2025 07:00:00,18.454450,73.854155,PM10,NA,NA,NA
India,Maharashtra,Pune,"Katraj Dairy, Pune - MPCB",07-09-2025 07:00:00,18.454450,73.854155,NO2,NA,NA,NA
India,Maharashtra,Pune,"Katraj Dairy, Pune - MPCB",07-09-2025 07:00:00,18.454450,73.854155,CO,4,58,13
India,Maharashtra,Pune,"Mhada Colony, Pune - IITM",07-09-2025 07:00:00,18.573040,73.927715,PM2.5,25,55,40
India,Odisha,Tensa,"Barsua Iron Ore Mines, Tensa - OSPCB",07-09-2025 07:00:00,21.869985,85.167016,PM2.5,NA,NA,NA
India,Odisha,Tensa,"Barsua Iron Ore Mines, Tensa - OSPCB",07-09-2025 07:00:00,21.869985,85.167016,NO2,NA,NA,NA
India,Punjab,Amritsar,"Golden Temple, Amritsar - PPCB",07-09-2025 07:00:00,31.620000,74.876512,PM10,48,54,50
India,Punjab,Amritsar,"Golden Temple, Amritsar - PPCB",07-09-2025 07:00:00,31.620000,74.876512,OZONE,27,37,31
India,Odisha,Bileipada,"Tata Township, Bileipada - OSPCB",07-09-2025 07:00:00,22.06156703,85.47409613,NH3,4,4,4
India,Odisha,Brajrajnagar,"GM Office, Brajrajnagar - OSPCB",07-09-2025 07:00:00,21.8004996,83.8396977,PM2.5,18,64,36
India,Odisha,Brajrajnagar,"GM Office, Brajrajnagar - OSPCB",07-09-2025 07:00:00,21.8004996,83.8396977,NH3,8,10,8
India,Odisha,Baripada,"Meher Colony, Baripada - OSPCB",07-09-2025 07:00:00,21.941841,86.728318,CO,32,44,36
India,Odisha,Bhubaneswar,"Patia, Bhubaneswar - OSPCB",07-09-2025 07:00:00,20.34652,85.81630,PM10,19,68,38
India,Odisha,Bhubaneswar,"Patia, Bhubaneswar - OSPCB",07-09-2025 07:00:00,20.34652,85.81630,SO2,2,4,3
India,Odisha,Rourkela,"Fertilizer Township, Rourkela - OSPCB",07-09-2025 07:00:00,22.18972222,84.86277778,PM10,56,73,61
India,Odisha,Rourkela,"Raghunathpali, Rourkela - OSPCB",07-09-2025 07:00:00,22.220833,84.809444,CO,22,42,27
India,Punjab,Khanna,"Kalal Majra, Khanna - PPCB",07-09-2025 07:00:00,30.736056 ,76.209694,PM2.5,9,31,19
India,Punjab,Khanna,"Kalal Majra, Khanna - PPCB",07-09-2025 07:00:00,30.736056 ,76.209694,NH3,7,8,7
India,Punjab,Khanna,"Kalal Majra, Khanna - PPCB",07-09-2025 07:00:00,30.736056 ,76.209694,SO2,5,6,6
India,Punjab,Ludhiana,"Punjab Agricultural University, Ludhiana - PPCB",07-09-2025 07:00:00,30.9028,75.8086,PM2.5,32,51,37
India,Punjab,Ludhiana,"Punjab Agricultural University, Ludhiana - PPCB",07-09-2025 07:00:00,30.9028,75.8086,SO2,3,13,8
India,Punjab,Ludhiana,"Punjab Agricultural University, Ludhiana - PPCB",07-09-2025 07:00:00,30.9028,75.8086,CO,8,30,25
India,Punjab,Mandi Gobindgarh,"RIMT University, Mandi Gobindgarh - PPCB",07-09-2025 07:00:00,30.649961,76.331442,PM2.5,NA,NA,NA
India,Punjab,Patiala,"Model Town, Patiala - PPCB",07-09-2025 07:00:00,30.349388,76.366642,PM10,11,25,18
India,Punjab,Patiala,"Model Town, Patiala - PPCB",07-09-2025 07:00:00,30.349388,76.366642,CO,7,26,18
India,Punjab,Patiala,"Model Town, Patiala - PPCB",07-09-2025 07:00:00,30.349388,76.366642,OZONE,17,20,18
India,Rajasthan,Ajmer,"Civil Lines,  Ajmer - RSPCB",07-09-2025 07:00:00,26.470859,74.646594,PM2.5,45,88,53
India,Rajasthan,Ajmer,"Civil Lines,  Ajmer - RSPCB",07-09-2025 07:00:00,26.470859,74.646594,PM10,30,65,44
India,Rajasthan,Jaipur,"Shastri Nagar, Jaipur - RSPCB",07-09-2025 07:00:00,26.9502929,75.730943,CO,46,82,60
India,Rajasthan,Jaipur,"Shastri Nagar, Jaipur - RSPCB",07-09-2025 07:00:00,26.9502929,75.730943,OZONE,15,22,20
India,Rajasthan,Jaisalmer,"Sadar Bazar, Jaisalmer - RSPCB",07-09-2025 07:00:00,26.912329,70.909168,SO2,3,5,3
India,Rajasthan,Jalore,"Mudtra Sili, Jalore - RSPCB",07-09-2025 07:00:00,25.344694,72.626208,NH3,3,6,4
India,Rajasthan,Jalore,"Mudtra Sili, Jalore - RSPCB",07-09-2025 07:00:00,25.344694,72.626208,CO,11,27,12
India,Rajasthan,Jhalawar,"Rajlaxmi Nagar, Jhalawar - RSPCB",07-09-2025 07:00:00,24.588397,76.172782,PM2.5,4,53,29
India,Rajasthan,Jhalawar,"Rajlaxmi Nagar, Jhalawar - RSPCB",07-09-2025 07:00:00,24.588397,76.172782,SO2,6,10,8
India,Rajasthan,Jhunjhunu,"Indra Nagar, Jhunjhunu - RSPCB",07-09-2025 07:00:00,28.108988,75.386577,PM2.5,12,56,28
India,Rajasthan,Jhunjhunu,"Indra Nagar, Jhunjhunu - RSPCB",07-09-2025 07:00:00,28.108988,75.386577,NH3,3,6,4
India,Rajasthan,Jhunjhunu,"Indra Nagar, Jhunjhunu - RSPCB",07-09-2025 07:00:00,28.108988,75.386577,CO,14,37,16
India,Rajasthan,Jodhpur,"Collectorate, Jodhpur - RSPCB",07-09-2025 07:00:00,26.268249,73.0193853,NH3,NA,NA,NA
India,Rajasthan,Jodhpur,"Collectorate, Jodhpur - RSPCB",07-09-2025 07:00:00,26.268249,73.0193853,OZONE,NA,NA,NA
India,Rajasthan,Jodhpur,"Digari Kalan, Jodhpur - RSPCB",07-09-2025 07:00:00,26.295810,73.082283,PM10,13,35,22
India,Rajasthan,Jodhpur,"Digari Kalan, Jodhpur - RSPCB",07-09-2025 07:00:00,26.295810,73.082283,NO2,2,12,5
India,Rajasthan,Jodhpur,"Digari Kalan, Jodhpur - RSPCB",07-09-2025 07:00:00,26.295810,73.082283,CO,8,22,13
India,Rajasthan,Jodhpur,"Jhalamand, Jodhpur - RSPCB",07-09-2025 07:00:00,26.215415,73.070156,PM2.5,3,57,16
India,Rajasthan,Jodhpur,"Jhalamand, Jodhpur - RSPCB",07-09-2025 07:00:00,26.215415,73.070156,PM10,16,35,23
India,Rajasthan,Jodhpur,"Jhalamand, Jodhpur - RSPCB",07-09-2025 07:00:00,26.215415,73.070156,NH3,4,5,4
India,Rajasthan,Jodhpur,"Jhalamand, Jodhpur - RSPCB",07-09-2025 07:00:00,26.215415,73.070156,CO,12,17,13
India,Rajasthan,Jodhpur,"Mandor, Jodhpur - RSPCB",07-09-2025 07:00:00,26.358805,73.047444,NH3,2,4,3
India,Rajasthan,Dausa,"Khatikan Mohalla, Dausa - RSPCB",07-09-2025 07:00:00,26.895552,76.334753,OZONE,22,30,25
India,Rajasthan,Dholpur,"Raja Ganj, Dholpur - RSPCB",07-09-2025 07:00:00,26.699557,77.898881,CO,4,119,15
India,Rajasthan,Dungarpur,"Bhoiwada, Dungarpur - RSPCB",07-09-2025 07:00:00,23.837789,73.714926,PM10,12,29,18
India,Rajasthan,Hanumangarh,"Housing Board, Hanumangarh - RSPCB",07-09-2025 07:00:00,29.610750,74.283608,SO2,2,5,3
India,Rajasthan,Jaipur,"Adarsh Nagar, Jaipur - RSPCB",07-09-2025 07:00:00,26.902909,75.836858,PM10,18,37,26
India,Rajasthan,Jaipur,"Adarsh Nagar, Jaipur - RSPCB",07-09-2025 07:00:00,26.902909,75.836858,OZONE,22,44,31
India,Rajasthan,Jaipur,"Mansarovar Sector-12, Jaipur - RSPCB",07-09-2025 07:00:00,26.843698,75.766894,NH3,7,8,7
India,Rajasthan,Jaipur,"Police Commissionerate, Jaipur - RSPCB",07-09-2025 07:00:00,26.9164092,75.7994901,PM10,20,72,36
India,Rajasthan,Jaipur,"RIICO Sitapura, Jaipur - RSPCB",07-09-2025 07:00:00,26.786682,75.827928,OZONE,4,23,9
India,Rajasthan,Barmer,"Railway Colony, Barmer - RSPCB",07-09-2025 07:00:00,25.747299,71.393989,NH3,1,8,3
India,Rajasthan,Bhilwara,"Pratap Nagar, Bhilwara - RSPCB",07-09-2025 07:00:00,25.339605,74.618883,PM2.5,3,42,17
India,Rajasthan,Bhiwadi,"Vasundhara Nagar_UIT, Bhiwadi - RSPCB",07-09-2025 07:00:00,28.207266,76.829265,PM2.5,26,108,63
India,Rajasthan,Bhiwadi,"Vasundhara Nagar_UIT, Bhiwadi - RSPCB",07-09-2025 07:00:00,28.207266,76.829265,PM10,38,112,70
India,Rajasthan,Bikaner,"MM Ground, Bikaner - RSPCB",07-09-2025 07:00:00,28.018792,73.292658,NO2,6,35,18
India,Rajasthan,Bikaner,"MM Ground, Bikaner - RSPCB",07-09-2025 07:00:00,28.018792,73.292658,NH3,4,4,4
India,Rajasthan,Chittorgarh,"Shastri Nagar, Chittorgarh - RSPCB",07-09-2025 07:00:00,24.892047,74.623527,NH3,1,2,2
India,Rajasthan,Churu,"Subash Chowk, Churu - RSPCB",07-09-2025 07:00:00,28.296139,74.961696,SO2,2,4,3
India,Rajasthan,Baran,"Bamboliya, Baran - RSPCB",07-09-2025 07:00:00,25.106006,76.469948,PM10,6,23,13
India,Rajasthan,Baran,"Bamboliya, Baran - RSPCB",07-09-2025 07:00:00,25.106006,76.469948,SO2,4,6,5
India,Rajasthan,Barmer,"Railway Colony, Barmer - RSPCB",07-09-2025 07:00:00,25.747299,71.393989,PM10,4,41,23
India,Rajasthan,Alwar,"Moti Doongri, Alwar - RSPCB",07-09-2025 07:00:00,27.554793,76.611536,SO2,21,48,34
India,Rajasthan,Banswara,"Rati Talai, Banswara - RSPCB",07-09-2025 07:00:00,23.555190,74.440010,PM2.5,8,57,34
India,Rajasthan,Kota,"Shrinath Puram, Kota - RSPCB",07-09-2025 07:00:00,25.14389,75.821256,OZONE,19,28,23
India,Rajasthan,Nagaur,"Karni Colony, Nagaur - RSPCB",07-09-2025 07:00:00,27.213494,73.734444,PM2.5,3,37,18
India,Rajasthan,Nagaur,"Karni Colony, Nagaur - RSPCB",07-09-2025 07:00:00,27.213494,73.734444,OZONE,5,48,29
India,Rajasthan,Pali,"Indira Colony Vistar, Pali - RSPCB",07-09-2025 07:00:00,25.771061, 73.340227,PM2.5,25,36,27
India,Rajasthan,Pratapgarh,"Pragati Nagar, Pratapgarh - RSPCB",07-09-2025 07:00:00,24.041198,74.780702,PM10,NA,NA,NA
India,Rajasthan,Pratapgarh,"Pragati Nagar, Pratapgarh - RSPCB",07-09-2025 07:00:00,24.041198,74.780702,NO2,6,14,10
India,Rajasthan,Pratapgarh,"Pragati Nagar, Pratapgarh - RSPCB",07-09-2025 07:00:00,24.041198,74.780702,NH3,1,5,3
India,Rajasthan,Pratapgarh,"Pragati Nagar, Pratapgarh - RSPCB",07-09-2025 07:00:00,24.041198,74.780702,CO,10,20,12
India,Rajasthan,Rajsamand,"Dhoinda, Rajsamand - RSPCB",07-09-2025 07:00:00,25.036360,73.883502,PM2.5,7,38,15
India,Rajasthan,Rajsamand,"Dhoinda, Rajsamand - RSPCB",07-09-2025 07:00:00,25.036360,73.883502,CO,10,14,13
India,Rajasthan,Rajsamand,"Dhoinda, Rajsamand - RSPCB",07-09-2025 07:00:00,25.036360,73.883502,OZONE,12,228,55
India,TamilNadu,Palkalaiperur,"Bharathidasan University, Palkalaiperur - TNPCB",07-09-2025 07:00:00,10.681158,78.741746,NO2,7,7,7
India,TamilNadu,Palkalaiperur,"Bharathidasan University, Palkalaiperur - TNPCB",07-09-2025 07:00:00,10.681158,78.741746,NH3,1,1,1
India,TamilNadu,Perundurai,"SIPCOT Industrial Park, Perundurai - TNPCB",07-09-2025 07:00:00,11.258242,77.552761,NH3,2,3,2
India,TamilNadu,Ramanathapuram,"Chalai Bazaar, Ramanathapuram - TNPCB",07-09-2025 07:00:00,9.36399,78.831977,CO,22,26,24
India,TamilNadu,Ramanathapuram,"Chalai Bazaar, Ramanathapuram - TNPCB",07-09-2025 07:00:00,9.36399,78.831977,OZONE,4,5,4
India,TamilNadu,Salem,"Sona College of Technology, Salem - TNPCB",07-09-2025 07:00:00,11.679111,78.125052,PM2.5,NA,NA,NA
India,TamilNadu,Thanjavur,"Parisutham Nagar, Thanjavur - TNPCB",07-09-2025 07:00:00,10.7654824,79.1389968,PM2.5,NA,NA,NA
India,TamilNadu,Karur,"Kamadenu Nagar, Karur - TNPCB",07-09-2025 07:00:00,10.967820,78.080882,OZONE,7,10,8
India,TamilNadu,Madurai,"Uchapatti, Madurai - TNPCB",07-09-2025 07:00:00,9.865935,78.022669,SO2,NA,NA,NA
India,TamilNadu,Nagapattinam,"Velippalayam, Nagapattinam - TNPCB",07-09-2025 07:00:00,10.798548,79.838212,PM10,10,500,52
India,TamilNadu,Nagapattinam,"Velippalayam, Nagapattinam - TNPCB",07-09-2025 07:00:00,10.798548,79.838212,NO2,5,5,5
India,TamilNadu,Nagapattinam,"Velippalayam, Nagapattinam - TNPCB",07-09-2025 07:00:00,10.798548,79.838212,CO,12,23,19
India,TamilNadu,Namakkal,"Ponnusamy Nagar, Namakkal - TNPCB",07-09-2025 07:00:00,11.273992,78.163545,NH3,1,1,1
India,TamilNadu,Ooty,"Bombay Castel, Ooty - TNPCB",07-09-2025 07:00:00,11.4068288,76.7138973,NO2,2,5,3
India,Rajasthan,Sri Ganganagar,"Old City, Sri Ganganagar - RSPCB",07-09-2025 07:00:00,29.931624,73.864511,CO,12,40,24
India,Rajasthan,Tonk,"Shastri Nagar, Tonk - RSPCB",07-09-2025 07:00:00,26.159933,75.780517,PM10,26,70,39
India,Rajasthan,Tonk,"Shastri Nagar, Tonk - RSPCB",07-09-2025 07:00:00,26.159933,75.780517,CO,4,27,11
India,Rajasthan,Tonk,"Shastri Nagar, Tonk - RSPCB",07-09-2025 07:00:00,26.159933,75.780517,OZONE,12,27,16
India,Rajasthan,Udaipur,"Ashok Nagar, Udaipur - RSPCB",07-09-2025 07:00:00,24.5886166,73.6321397,PM2.5,8,36,16
India,Rajasthan,Udaipur,"Ashok Nagar, Udaipur - RSPCB",07-09-2025 07:00:00,24.5886166,73.6321397,OZONE,9,53,37
India,Sikkim,Gangtok,"Zero Point GICI, Gangtok - SSPCB",07-09-2025 07:00:00,27.338530,88.614099,NH3,1,1,1
India,Rajasthan,Sawai Madhopur,"Sahu Nagar, Sawai Madhopur - RSPCB",07-09-2025 07:00:00,26.031443,76.359327,NO2,12,16,14
India,Rajasthan,Sawai Madhopur,"Sahu Nagar, Sawai Madhopur - RSPCB",07-09-2025 07:00:00,26.031443,76.359327,NH3,7,8,7
India,Rajasthan,Sawai Madhopur,"Sahu Nagar, Sawai Madhopur - RSPCB",07-09-2025 07:00:00,26.031443,76.359327,OZONE,11,33,18
India,Rajasthan,Sikar,"Radhakishan Pura, Sikar - RSPCB",07-09-2025 07:00:00,27.608912,75.153302,PM2.5,2,19,10
India,Rajasthan,Sikar,"Radhakishan Pura, Sikar - RSPCB",07-09-2025 07:00:00,27.608912,75.153302,NO2,8,20,12
India,Rajasthan,Sikar,"Radhakishan Pura, Sikar - RSPCB",07-09-2025 07:00:00,27.608912,75.153302,NH3,1,6,5
India,Rajasthan,Sikar,"Radhakishan Pura, Sikar - RSPCB",07-09-2025 07:00:00,27.608912,75.153302,SO2,2,4,3
India,Rajasthan,Sikar,"Radhakishan Pura, Sikar - RSPCB",07-09-2025 07:00:00,27.608912,75.153302,OZONE,29,61,40
India,TamilNadu,Chennai,"Royapuram, Chennai - TNPCB",07-09-2025 07:00:00,13.1036,80.2909,OZONE,8,11,9
India,TamilNadu,Chennai,"Velachery Res. Area, Chennai - CPCB",07-09-2025 07:00:00,13.0052189,80.2398125,SO2,7,9,8
India,TamilNadu,Chennai,"Velachery Res. Area, Chennai - CPCB",07-09-2025 07:00:00,13.0052189,80.2398125,CO,44,54,47
India,TamilNadu,Cuddalore,"Kudikadu, Cuddalore - TNPCB",07-09-2025 07:00:00,11.6829898,79.7532099,PM10,10,88,41
India,TamilNadu,Cuddalore,"Semmandalam, Cuddalore - TNPCB",07-09-2025 07:00:00,11.7637683,79.7499835,PM2.5,8,62,29
India,TamilNadu,Chengalpattu,"Crescent University, Chengalpattu - TNPCB",07-09-2025 07:00:00,12.8777316,80.0834807,SO2,NA,NA,NA
India,TamilNadu,Chengalpattu,"Crescent University, Chengalpattu - TNPCB",07-09-2025 07:00:00,12.8777316,80.0834807,OZONE,5,17,9
India,TamilNadu,Chennai,"Kodungaiyur, Chennai - TNPCB",07-09-2025 07:00:00,13.1278,80.2642,PM2.5,14,217,72
India,TamilNadu,Chennai,"Manali Village, Chennai - TNPCB",07-09-2025 07:00:00,13.1662,80.2584,NH3,1,2,1
India,TamilNadu,Chennai,"Manali Village, Chennai - TNPCB",07-09-2025 07:00:00,13.1662,80.2584,SO2,20,30,22
India,Rajasthan,Jodhpur,"Samrat Ashok Udhyan, Jodhpur - RSPCB",07-09-2025 07:00:00,26.253384,72.976571,SO2,1,8,2
India,Rajasthan,Kota,"Dhanmandi, Kota - RSPCB",07-09-2025 07:00:00,25.164090,75.858137,CO,29,56,34
India,Rajasthan,Kota,"Nayapura, Kota - RSPCB",07-09-2025 07:00:00,25.196024,75.855668,PM10,19,48,30
India,Rajasthan,Kota,"Shrinath Puram, Kota - RSPCB",07-09-2025 07:00:00,25.14389,75.821256,NO2,14,15,14
India,TamilNadu,Gummidipoondi,"Anthoni Pillai Nagar, Gummidipoondi - TNPCB",07-09-2025 07:00:00,13.4127,80.1081,PM2.5,48,370,124
India,TamilNadu,Gummidipoondi,"Anthoni Pillai Nagar, Gummidipoondi - TNPCB",07-09-2025 07:00:00,13.4127,80.1081,PM10,72,193,113
India,TamilNadu,Gummidipoondi,"Anthoni Pillai Nagar, Gummidipoondi - TNPCB",07-09-2025 07:00:00,13.4127,80.1081,NH3,1,4,2
India,TamilNadu,Vellore,"Vasanthapuram, Vellore - TNPCB",07-09-2025 07:00:00,12.909494,79.131861,SO2,19,20,19
India,TamilNadu,Virudhunagar,"Collectorate Office, Virudhunagar - TNPCB",07-09-2025 07:00:00,9.559382,77.948828,NH3,NA,NA,NA
India,TamilNadu,Virudhunagar,"Collectorate Office, Virudhunagar - TNPCB",07-09-2025 07:00:00,9.559382,77.948828,SO2,NA,NA,NA
India,TamilNadu,Virudhunagar,"Collectorate Office, Virudhunagar - TNPCB",07-09-2025 07:00:00,9.559382,77.948828,CO,18,20,18
India,TamilNadu,Virudhunagar,"Collectorate Office, Virudhunagar - TNPCB",07-09-2025 07:00:00,9.559382,77.948828,OZONE,3,4,4
India,Telangana,Hyderabad,"Bollaram Industrial Area, Hyderabad - TSPCB",07-09-2025 07:00:00,17.540891,78.358528,NO2,22,59,35
India,Telangana,Hyderabad,"Bollaram Industrial Area, Hyderabad - TSPCB",07-09-2025 07:00:00,17.540891,78.358528,SO2,4,12,7
India,Telangana,Hyderabad,"Central University, Hyderabad - TSPCB",07-09-2025 07:00:00,17.460103,78.334361,NO2,19,64,44
India,Telangana,Hyderabad,"Central University, Hyderabad - TSPCB",07-09-2025 07:00:00,17.460103,78.334361,NH3,3,9,7
India,Telangana,Hyderabad,"ECIL Kapra, Hyderabad - TSPCB",07-09-2025 07:00:00,17.470431,78.566959,SO2,11,19,16
India,Telangana,Hyderabad,"ECIL Kapra, Hyderabad - TSPCB",07-09-2025 07:00:00,17.470431,78.566959,CO,6,34,14
India,Uttar_Pradesh,Ghaziabad,"Indirapuram, Ghaziabad - UPPCB",07-09-2025 07:00:00,28.646233,77.358075,CO,37,100,43
India,Uttar_Pradesh,Ghaziabad,"Indirapuram, Ghaziabad - UPPCB",07-09-2025 07:00:00,28.646233,77.358075,OZONE,14,71,30
India,Uttar_Pradesh,Ghaziabad,"Loni, Ghaziabad - UPPCB",07-09-2025 07:00:00,28.757294,77.278792,CO,40,60,51
India,Uttar_Pradesh,Ghaziabad,"Sanjay Nagar, Ghaziabad - UPPCB",07-09-2025 07:00:00,28.685382,77.453839,CO,20,64,27
India,Uttar_Pradesh,Ghaziabad,"Vasundhara, Ghaziabad - UPPCB",07-09-2025 07:00:00,28.6603346,77.3572563,PM10,28,98,68
India,Uttar_Pradesh,Ghaziabad,"Vasundhara, Ghaziabad - UPPCB",07-09-2025 07:00:00,28.6603346,77.3572563,CO,32,66,38
India,Uttar_Pradesh,Greater Noida,"Knowledge Park - III, Greater Noida - UPPCB",07-09-2025 07:00:00,28.47272,77.482000,NO2,13,47,26
India,Tripura,Agartala,"Bardowali, Agartala - Tripura SPCB",07-09-2025 07:00:00,23.8175497,91.2726974,PM2.5,4,16,10
India,Tripura,Agartala,"Bardowali, Agartala - Tripura SPCB",07-09-2025 07:00:00,23.8175497,91.2726974,NO2,4,16,9
India,Tripura,Agartala,"Bardowali, Agartala - Tripura SPCB",07-09-2025 07:00:00,23.8175497,91.2726974,OZONE,6,6,6
India,Uttar_Pradesh,Agra,"Manoharpur, Agra - UPPCB",07-09-2025 07:00:00,27.23711,78.01936,CO,11,14,13
India,Uttar_Pradesh,Agra,"Manoharpur, Agra - UPPCB",07-09-2025 07:00:00,27.23711,78.01936,OZONE,8,37,11
India,Uttar_Pradesh,Agra,"Sanjay Palace, Agra - UPPCB",07-09-2025 07:00:00,27.19865833,78.00598056,PM10,8,35,22
India,Uttar_Pradesh,Agra,"Sector-3B Avas Vikas Colony, Agra - UPPCB",07-09-2025 07:00:00,27.19412,77.96237,NH3,2,2,2
India,Uttar_Pradesh,Greater Noida,"Knowledge Park - V, Greater Noida - UPPCB",07-09-2025 07:00:00,28.557054,77.453663,NO2,NA,NA,NA
India,Uttar_Pradesh,Hapur,"Anand Vihar, Hapur - UPPCB",07-09-2025 07:00:00,28.725645,77.749675,PM10,30,56,43
India,Uttar_Pradesh,Hapur,"Anand Vihar, Hapur - UPPCB",07-09-2025 07:00:00,28.725645,77.749675,CO,8,36,16
India,Uttar_Pradesh,Jhansi,"Shivaji Nagar, Jhansi - UPPCB",07-09-2025 07:00:00,25.4547,78.6039,SO2,5,12,8
India,Uttar_Pradesh,Kanpur,"FTI Kidwai Nagar, Kanpur - UPPCB",07-09-2025 07:00:00,26.428282,80.327067,PM10,37,90,56
India,Uttar_Pradesh,Kanpur,"FTI Kidwai Nagar, Kanpur - UPPCB",07-09-2025 07:00:00,26.428282,80.327067,NH3,2,2,2
India,Uttar_Pradesh,Agra,"Shahjahan Garden, Agra - UPPCB",07-09-2025 07:00:00,27.169338,78.03582,PM2.5,16,54,37
India,Uttar_Pradesh,Agra,"Shastripuram, Agra - UPPCB",07-09-2025 07:00:00,27.19862,77.92066,SO2,17,27,22
India,Uttar_Pradesh,Baghpat,"Sardar Patel Inter College, Baghpat - UPPCB",07-09-2025 07:00:00,28.964949,77.278761,PM10,18,61,39
India,Uttar_Pradesh,Baghpat,"Sardar Patel Inter College, Baghpat - UPPCB",07-09-2025 07:00:00,28.964949,77.278761,NO2,29,52,45
India,Uttar_Pradesh,Baghpat,"Sardar Patel Inter College, Baghpat - UPPCB",07-09-2025 07:00:00,28.964949,77.278761,SO2,3,35,14
India,Uttar_Pradesh,Bareilly,"Civil Lines, Bareilly - UPPCB",07-09-2025 07:00:00,28.359581,79.414455,PM2.5,1,10,4
India,Uttar_Pradesh,Bulandshahr,"Yamunapuram, Bulandshahr - UPPCB",07-09-2025 07:00:00,28.406963,77.849831,NO2,6,24,11
India,Uttar_Pradesh,Firozabad,"Nagla Bhau, Firozabad - UPPCB",07-09-2025 07:00:00,27.168897,78.376960,CO,14,24,17
India,Uttar_Pradesh,Firozabad,"Vibhab Nagar, Firozabad - UPPCB",07-09-2025 07:00:00,27.1594,78.3953,PM10,29,74,49
India,Uttar_Pradesh,Firozabad,"Vibhab Nagar, Firozabad - UPPCB",07-09-2025 07:00:00,27.1594,78.3953,NO2,15,15,15
India,Uttar_Pradesh,Firozabad,"Vibhab Nagar, Firozabad - UPPCB",07-09-2025 07:00:00,27.1594,78.3953,CO,9,22,13
India,Uttar_Pradesh,Firozabad,"Vibhab Nagar, Firozabad - UPPCB",07-09-2025 07:00:00,27.1594,78.3953,OZONE,4,6,6
India,Telangana,Hyderabad,"New Malakpet, Hyderabad - TSPCB",07-09-2025 07:00:00,17.37206,78.50864,PM2.5,43,48,45
India,Telangana,Hyderabad,"Ramachandrapuram, Hyderabad - TSPCB",07-09-2025 07:00:00,17.528544,78.286195,CO,29,37,32
India,Telangana,Hyderabad,"Sanathnagar, Hyderabad - TSPCB",07-09-2025 07:00:00,17.4559458,78.4332152,NO2,25,29,27
India,Telangana,Hyderabad,"Sanathnagar, Hyderabad - TSPCB",07-09-2025 07:00:00,17.4559458,78.4332152,CO,2,12,6
India,Telangana,Hyderabad,"Zoo Park, Hyderabad - TSPCB",07-09-2025 07:00:00,17.349694,78.451437,PM2.5,NA,NA,NA
India,Telangana,Hyderabad,"Zoo Park, Hyderabad - TSPCB",07-09-2025 07:00:00,17.349694,78.451437,SO2,NA,NA,NA
India,Telangana,Hyderabad,"IITH Kandi, Hyderabad - TSPCB",07-09-2025 07:00:00,17.585705,78.126199,OZONE,16,36,35
India,Telangana,Hyderabad,"Kokapet, Hyderabad - TSPCB",07-09-2025 07:00:00,17.393559,78.339194,SO2,NA,NA,NA
India,Telangana,Hyderabad,"Kokapet, Hyderabad - TSPCB",07-09-2025 07:00:00,17.393559,78.339194,CO,NA,NA,NA
India,Telangana,Hyderabad,"Nacharam_TSIIC IALA, Hyderabad - TSPCB",07-09-2025 07:00:00,17.429398,78.569354,NH3,5,6,6
India,Telangana,Hyderabad,"Nacharam_TSIIC IALA, Hyderabad - TSPCB",07-09-2025 07:00:00,17.429398,78.569354,SO2,11,16,15
India,TamilNadu,Thoothukudi,"Meelavittan, Thoothukudi - TNPCB",07-09-2025 07:00:00,8.816428 ,78.099039,SO2,1,16,7
India,TamilNadu,Vellore,"Vasanthapuram, Vellore - TNPCB",07-09-2025 07:00:00,12.909494,79.131861,NO2,NA,NA,NA
India,West_Bengal,Asansol,"Evelyn Lodge, Asansol - WBPCB",07-09-2025 07:00:00,23.6979360,86.9443950,CO,6,40,17
India,West_Bengal,Asansol,"Mahabir Colliery, Asansol - WBPCB",07-09-2025 07:00:00,23.6181830,87.1057180,PM2.5,15,41,26
India,West_Bengal,Asansol,"Mahabir Colliery, Asansol - WBPCB",07-09-2025 07:00:00,23.6181830,87.1057180,CO,18,98,25
India,West_Bengal,Asansol,"Trivenidevi Bhalotia College, Asansol - WBPCB",07-09-2025 07:00:00,23.616515,87.119133,PM2.5,37,74,52
India,West_Bengal,Asansol,"Trivenidevi Bhalotia College, Asansol - WBPCB",07-09-2025 07:00:00,23.616515,87.119133,PM10,42,62,52
India,West_Bengal,Barrackpore,"SVSPA Campus, Barrackpore - WBPCB",07-09-2025 07:00:00,22.7605581,88.3617589,PM10,53,88,68
India,West_Bengal,Barrackpore,"SVSPA Campus, Barrackpore - WBPCB",07-09-2025 07:00:00,22.7605581,88.3617589,NH3,11,15,13
India,West_Bengal,Durgapur,"Mahishkapur Road_B-Zone, Durgapur - WBPCB",07-09-2025 07:00:00,23.567923,87.306843,PM2.5,23,64,37
India,West_Bengal,Durgapur,"Mahishkapur Road_B-Zone, Durgapur - WBPCB",07-09-2025 07:00:00,23.567923,87.306843,PM10,68,114,86
India,Uttar_Pradesh,Varanasi,"Maldahiya, Varanasi - UPPCB",07-09-2025 07:00:00,25.32393,82.99687,NO2,2,2,2
India,Uttar_Pradesh,Vrindavan,"Omex Eternity, Vrindavan - UPPCB",07-09-2025 07:00:00,27.5714090,77.6557570,NO2,12,12,12
India,Uttar_Pradesh,Vrindavan,"Omex Eternity, Vrindavan - UPPCB",07-09-2025 07:00:00,27.5714090,77.6557570,OZONE,15,15,15
India,Uttarakhand,Dehradun,"Doon University, Dehradun - UKPCB",07-09-2025 07:00:00,30.269444,78.044167,SO2,NA,NA,NA
India,Uttarakhand,Dehradun,"Doon University, Dehradun - UKPCB",07-09-2025 07:00:00,30.269444,78.044167,CO,2,28,14
India,Uttarakhand,Kashipur,"Govt. Girls Inter College, Kashipur - UKPCB",07-09-2025 07:00:00,29.2124114,78.9611753,PM10,14,52,31
India,Uttarakhand,Kashipur,"Govt. Girls Inter College, Kashipur - UKPCB",07-09-2025 07:00:00,29.2124114,78.9611753,NH3,1,3,2
India,West_Bengal,Asansol,"Asansol Court Area, Asansol - WBPCB",07-09-2025 07:00:00,23.685297,86.945968,OZONE,14,20,15
India,Uttar_Pradesh,Kanpur,"NSI Kalyanpur, Kanpur - UPPCB",07-09-2025 07:00:00,26.509954,80.249612,NH3,2,2,2
India,Uttar_Pradesh,Kanpur,"Nehru Nagar, Kanpur - UPPCB",07-09-2025 07:00:00,26.4703136,80.3229863,SO2,12,14,13
India,Uttar_Pradesh,Kanpur,"Nehru Nagar, Kanpur - UPPCB",07-09-2025 07:00:00,26.4703136,80.3229863,OZONE,6,59,6
India,Uttar_Pradesh,Khurja,"Kalindi Kunj, Khurja - UPPCB",07-09-2025 07:00:00,28.2348927,77.8683002,PM10,21,85,34
India,Uttar_Pradesh,Khurja,"Kalindi Kunj, Khurja - UPPCB",07-09-2025 07:00:00,28.2348927,77.8683002,NH3,1,1,1
India,Uttar_Pradesh,Khurja,"Kalindi Kunj, Khurja - UPPCB",07-09-2025 07:00:00,28.2348927,77.8683002,CO,22,52,28
India,Uttar_Pradesh,Lucknow,"B R Ambedkar University, Lucknow - UPPCB",07-09-2025 07:00:00,26.766433,80.927299,PM2.5,37,60,48
India,Uttar_Pradesh,Lucknow,"B R Ambedkar University, Lucknow - UPPCB",07-09-2025 07:00:00,26.766433,80.927299,PM10,32,65,50
India,Uttar_Pradesh,Lucknow,"Gomti Nagar, Lucknow - UPPCB",07-09-2025 07:00:00,26.868120,81.005119,NO2,9,10,9
India,West_Bengal,Durgapur,"PCBL Residential Complex, Durgapur - WBPCB",07-09-2025 07:00:00,23.5087640,87.3544400,SO2,4,5,4
India,West_Bengal,Durgapur,"PCBL Residential Complex, Durgapur - WBPCB",07-09-2025 07:00:00,23.5087640,87.3544400,OZONE,5,6,6
India,West_Bengal,Durgapur,"Womens College_City Center, Durgapur - WBPCB (Formerly known as Sidhu Kanhu Indoor Stadium)",07-09-2025 07:00:00,23.549395,87.300496,PM2.5,39,68,54
India,West_Bengal,Durgapur,"Womens College_City Center, Durgapur - WBPCB (Formerly known as Sidhu Kanhu Indoor Stadium)",07-09-2025 07:00:00,23.549395,87.300496,NO2,24,32,27
India,West_Bengal,Haldia,"Priyambada Housing Estate, Haldia - WBPCB",07-09-2025 07:00:00,22.06047,88.109737,PM2.5,23,42,33
India,West_Bengal,Haldia,"Priyambada Housing Estate, Haldia - WBPCB",07-09-2025 07:00:00,22.06047,88.109737,CO,20,24,23
India,West_Bengal,Howrah,"Belur Math, Howrah - WBPCB",07-09-2025 07:00:00,22.629801,88.352017,CO,7,28,22
India,Uttar_Pradesh,Moradabad,"Kashiram Nagar, Moradabad - UPPCB",07-09-2025 07:00:00,28.849399,78.742362,NO2,25,25,25
India,Uttar_Pradesh,Moradabad,"Kashiram Nagar, Moradabad - UPPCB",07-09-2025 07:00:00,28.849399,78.742362,SO2,20,61,44
India,Uttar_Pradesh,Moradabad,"Kashiram Nagar, Moradabad - UPPCB",07-09-2025 07:00:00,28.849399,78.742362,CO,15,24,20
India,Uttar_Pradesh,Moradabad,"Transport Nagar, Moradabad - UPPCB",07-09-2025 07:00:00,28.802625,78.753728,SO2,47,50,48
India,Uttar_Pradesh,Muzaffarnagar,"New Mandi, Muzaffarnagar - UPPCB",07-09-2025 07:00:00,29.4723508,77.7194031,OZONE,11,73,21
India,Uttar_Pradesh,Noida,"Sector - 125, Noida - UPPCB",07-09-2025 07:00:00,28.5447608,77.3231257,PM2.5,32,72,54
India,Uttar_Pradesh,Noida,"Sector - 125, Noida - UPPCB",07-09-2025 07:00:00,28.5447608,77.3231257,SO2,7,14,10
India,Uttar_Pradesh,Lucknow,"Kendriya Vidyalaya, Lucknow - CPCB",07-09-2025 07:00:00,26.906111,80.948222,OZONE,10,78,14
India,Uttar_Pradesh,Lucknow,"Kukrail Picnic Spot-1, Lucknow - UPPCB",07-09-2025 07:00:00,26.90723,80.98579,SO2,38,43,41
India,Uttar_Pradesh,Lucknow,"Lalbagh, Lucknow - CPCB",07-09-2025 07:00:00,26.8458805,80.9365541,NH3,14,23,16
India,Uttar_Pradesh,Lucknow,"Talkatora District Industries Center, Lucknow - CPCB",07-09-2025 07:00:00,26.83399722,80.8917361,NO2,31,47,40
India,Uttar_Pradesh,Meerut,"Ganga Nagar, Meerut - UPPCB",07-09-2025 07:00:00,28.999264,77.7590354,NH3,3,6,4
India,Uttar_Pradesh,Prayagraj,"Motilal Nehru NIT, Prayagraj - UPPCB",07-09-2025 07:00:00,25.494,81.863,NH3,8,8,8
India,Uttar_Pradesh,Prayagraj,"Motilal Nehru NIT, Prayagraj - UPPCB",07-09-2025 07:00:00,25.494,81.863,SO2,19,26,24
India,Uttar_Pradesh,Prayagraj,"Motilal Nehru NIT, Prayagraj - UPPCB",07-09-2025 07:00:00,25.494,81.863,OZONE,11,27,15
India,Uttar_Pradesh,Varanasi,"IESD Banaras Hindu University, Varanasi - UPPCB",07-09-2025 07:00:00,25.262326,82.995408,NO2,2,2,2
India,Uttar_Pradesh,Varanasi,"Maldahiya, Varanasi - UPPCB",07-09-2025 07:00:00,25.32393,82.99687,PM2.5,12,26,18
India,Uttar_Pradesh,Noida,"Sector-1, Noida - UPPCB",07-09-2025 07:00:00,28.5898,77.3101,NH3,15,18,17
India,Uttar_Pradesh,Prayagraj,"Jhunsi, Prayagraj - UPPCB",07-09-2025 07:00:00,25.425602,81.917152,NO2,5,6,6
India,Uttar_Pradesh,Prayagraj,"Jhunsi, Prayagraj - UPPCB",07-09-2025 07:00:00,25.425602,81.917152,CO,6,21,13
India,Uttar_Pradesh,Moradabad,"Employment Office, Moradabad - UPPCB",07-09-2025 07:00:00,28.88528,78.73880,SO2,36,38,37
India,Uttar_Pradesh,Moradabad,"Jigar Colony, Moradabad - UPPCB",07-09-2025 07:00:00,28.856664,78.772638,PM2.5,24,45,35
India,Uttar_Pradesh,Moradabad,"Jigar Colony, Moradabad - UPPCB",07-09-2025 07:00:00,28.856664,78.772638,NO2,24,25,25
India,West_Bengal,Howrah,"Botanical Garden, Howrah - WBPCB",07-09-2025 07:00:00,22.554954,88.292568,OZONE,20,23,21
India,West_Bengal,Howrah,"Dasnagar, Howrah - WBPCB",07-09-2025 07:00:00,22.6025571,88.3105664,NH3,1,2,1
India,West_Bengal,Howrah,"Dasnagar, Howrah - WBPCB",07-09-2025 07:00:00,22.6025571,88.3105664,OZONE,1,42,4
India,West_Bengal,Howrah,"Ghusuri, Howrah - WBPCB",07-09-2025 07:00:00,22.611968,88.347422,PM10,NA,NA,NA
India,West_Bengal,Howrah,"Ghusuri, Howrah - WBPCB",07-09-2025 07:00:00,22.611968,88.347422,NH3,9,10,10
India,West_Bengal,Howrah,"Ghusuri, Howrah - WBPCB",07-09-2025 07:00:00,22.611968,88.347422,OZONE,16,45,19
India,West_Bengal,Howrah,"Padmapukur, Howrah - WBPCB",07-09-2025 07:00:00,22.5687319,88.2797276,PM10,38,94,83
India,West_Bengal,Howrah,"Padmapukur, Howrah - WBPCB",07-09-2025 07:00:00,22.5687319,88.2797276,NH3,3,11,7
India,West_Bengal,Kolkata,"Ballygunge, Kolkata - WBPCB",07-09-2025 07:00:00,22.5367507,88.3638022,PM2.5,32,55,44
India,West_Bengal,Kolkata,"Bidhannagar, Kolkata - WBPCB",07-09-2025 07:00:00,22.58157048,88.41002457,PM2.5,24,45,35
India,West_Bengal,Kolkata,"Bidhannagar, Kolkata - WBPCB",07-09-2025 07:00:00,22.58157048,88.41002457,CO,32,36,34
India,West_Bengal,Kolkata,"Rabindra Bharati University, Kolkata - WBPCB",07-09-2025 07:00:00,22.627847,88.380669,NH3,8,12,11
India,West_Bengal,Kolkata,"Rabindra Bharati University, Kolkata - WBPCB",07-09-2025 07:00:00,22.627847,88.380669,OZONE,NA,NA,NA
India,West_Bengal,Kolkata,"Rabindra Sarobar, Kolkata - WBPCB",07-09-2025 07:00:00,22.51106,88.35142,CO,14,25,16
India,West_Bengal,Kolkata,"Victoria, Kolkata - WBPCB",07-09-2025 07:00:00,22.5448082,88.3403691,NO2,12,25,18
India,Andhra_Pradesh,Visakhapatnam,"GVM Corporation, Visakhapatnam - APPCB",07-09-2025 07:00:00,17.72,83.3,PM2.5,50,138,85
India,Andhra_Pradesh,Visakhapatnam,"GVM Corporation, Visakhapatnam - APPCB",07-09-2025 07:00:00,17.72,83.3,NO2,16,79,48
India,Arunachal_Pradesh,Naharlagun,"Naharlagun, Naharlagun - APSPCB",07-09-2025 07:00:00,27.103358,93.679645,OZONE,4,5,4
India,Assam,Byrnihat,"Central Academy for SFS, Byrnihat - PCBA",07-09-2025 07:00:00,26.071318,91.87488,PM2.5,NA,NA,NA
India,Assam,Byrnihat,"Central Academy for SFS, Byrnihat - PCBA",07-09-2025 07:00:00,26.071318,91.87488,SO2,NA,NA,NA
India,Assam,Guwahati,"LGBI Airport, Guwahati - PCBA",07-09-2025 07:00:00,26.10887,91.589544,PM2.5,5,500,103
India,Assam,Guwahati,"LGBI Airport, Guwahati - PCBA",07-09-2025 07:00:00,26.10887,91.589544,NO2,13,48,16
India,Assam,Guwahati,"LGBI Airport, Guwahati - PCBA",07-09-2025 07:00:00,26.10887,91.589544,OZONE,12,18,15
India,Bihar,Begusarai,"Lohiyanagar, Begusarai - BSPCB",07-09-2025 07:00:00,25.42742023,86.13886079,OZONE,24,61,42
India,Bihar,Bettiah,"Kamalnath Nagar, Bettiah - BSPCB",07-09-2025 07:00:00,26.80365,84.51954,OZONE,18,31,24
India,Bihar,Bhagalpur,"DM Office_Kachari Chowk, Bhagalpur - BSPCB",07-09-2025 07:00:00,25.251013,86.989001,PM10,61,271,142
India,Bihar,Bhagalpur,"Mayaganj, Bhagalpur - BSPCB",07-09-2025 07:00:00,25.265194,87.012947,SO2,27,74,49
India,Bihar,Bihar Sharif,"D M Colony, Bihar Sharif - BSPCB",07-09-2025 07:00:00,25.204762,85.514960,CO,2,6,4
India,Bihar,Buxar,"Charitra Van, Buxar - BSPCB",07-09-2025 07:00:00,25.567520,83.966379,NO2,9,10,9
India,Bihar,Hajipur,"Industrial Area, Hajipur - BSPCB",07-09-2025 07:00:00,25.697189,85.245900,PM10,NA,NA,NA
India,Bihar,Hajipur,"Industrial Area, Hajipur - BSPCB",07-09-2025 07:00:00,25.697189,85.245900,OZONE,NA,NA,NA
India,Bihar,Katihar,"Mirchaibari, Katihar - BSPCB",07-09-2025 07:00:00,25.560083,87.553265,PM10,33,36,34
India,Bihar,Katihar,"Mirchaibari, Katihar - BSPCB",07-09-2025 07:00:00,25.560083,87.553265,SO2,16,23,20
India,Bihar,Kishanganj,"SDM Office_Khagra, Kishanganj - BSPCB",07-09-2025 07:00:00,26.0881305,87.93840336,NO2,7,8,8
India,Bihar,Manguraha,"Forest Rest House, Manguraha - BSPCB",07-09-2025 07:00:00,27.308328,84.531742,PM10,17,153,35
India,Bihar,Motihari,"Gandak Colony, Motihari - BSPCB",07-09-2025 07:00:00,26.63086,84.90051,SO2,2,3,2
India,Andhra_Pradesh,Amaravati,"Secretariat, Amaravati - APPCB",07-09-2025 07:00:00,16.5150833,80.5181667,NO2,10,30,16
India,Andhra_Pradesh,Amaravati,"Secretariat, Amaravati - APPCB",07-09-2025 07:00:00,16.5150833,80.5181667,CO,8,22,16
India,Andhra_Pradesh,Anantapur,"Gulzarpet, Anantapur - APPCB",07-09-2025 07:00:00,14.675886,77.593027,NH3,5,6,5
India,Andhra_Pradesh,Chittoor,"Gangineni Cheruvu, Chittoor - APPCB",07-09-2025 07:00:00,13.204880,79.097889,PM2.5,58,129,86
India,Andhra_Pradesh,Kadapa,"Yerramukkapalli, Kadapa - APPCB",07-09-2025 07:00:00,14.465052,78.824187,NH3,5,5,5
India,Andhra_Pradesh,Kadapa,"Yerramukkapalli, Kadapa - APPCB",07-09-2025 07:00:00,14.465052,78.824187,SO2,20,22,21
India,Assam,Sivasagar,"Girls College, Sivasagar - PCBA",07-09-2025 07:00:00,26.987634,94.636574,PM10,27,63,41
India,Bihar,Araria,"Kharahiya Basti, Araria - BSPCB",07-09-2025 07:00:00,26.146529,87.454184,PM2.5,NA,NA,NA
India,Bihar,Araria,"Kharahiya Basti, Araria - BSPCB",07-09-2025 07:00:00,26.146529,87.454184,NH3,4,5,5
India,Bihar,Araria,"Kharahiya Basti, Araria - BSPCB",07-09-2025 07:00:00,26.146529,87.454184,SO2,4,23,15
India,Bihar,Begusarai,"Lohiyanagar, Begusarai - BSPCB",07-09-2025 07:00:00,25.42742023,86.13886079,PM2.5,27,60,42
India,Bihar,Begusarai,"Lohiyanagar, Begusarai - BSPCB",07-09-2025 07:00:00,25.42742023,86.13886079,PM10,26,66,46
India,Andhra_Pradesh,Tirupati,"Vaikuntapuram, Tirupati - APPCB",07-09-2025 07:00:00,13.615387,79.409230,NH3,5,7,6
India,Andhra_Pradesh,Tirupati,"Vaikuntapuram, Tirupati - APPCB",07-09-2025 07:00:00,13.615387,79.409230,SO2,27,28,27
India,Andhra_Pradesh,Tirupati,"Vaikuntapuram, Tirupati - APPCB",07-09-2025 07:00:00,13.615387,79.409230,OZONE,30,31,30
India,Andhra_Pradesh,Vijayawada,"HB Colony, Vijayawada - APPCB",07-09-2025 07:00:00,16.536107,80.594233,NH3,5,5,5
India,Andhra_Pradesh,Vijayawada,"HB Colony, Vijayawada - APPCB",07-09-2025 07:00:00,16.536107,80.594233,CO,46,46,46
India,Andhra_Pradesh,Vijayawada,"Rajiv Nagar, Vijayawada - APPCB",07-09-2025 07:00:00,16.554731,80.649110,SO2,21,31,25
India,Assam,Guwahati,"Railway Colony, Guwahati - PCBA",07-09-2025 07:00:00,26.181742,91.78063,NO2,3,4,3
India,Assam,Nagaon,"Christianpatty, Nagaon - PCBA",07-09-2025 07:00:00,26.349082,92.68449,PM2.5,33,47,38
India,Assam,Nagaon,"Christianpatty, Nagaon - PCBA",07-09-2025 07:00:00,26.349082,92.68449,SO2,8,14,11
India,Assam,Nalbari,"Bata Chowk, Nalbari - PCBA",07-09-2025 07:00:00,26.446912,91.439057,SO2,4,8,8
India,Assam,Silchar,"Tarapur, Silchar - PCBA",07-09-2025 07:00:00,24.82827,92.79525,NO2,15,18,15
India,Bihar,Chhapra,"Darshan Nagar, Chhapra - BSPCB",07-09-2025 07:00:00,25.7808257,84.7446768,PM10,22,314,127
India,Bihar,Chhapra,"Darshan Nagar, Chhapra - BSPCB",07-09-2025 07:00:00,25.7808257,84.7446768,CO,3,7,4
India,Bihar,Gaya,"Collectorate, Gaya - BSPCB",07-09-2025 07:00:00,24.7955,84.9994,CO,16,44,19
India,Bihar,Gaya,"Kareemganj, Gaya - BSPCB",07-09-2025 07:00:00,24.792403,84.992416,NO2,2,8,4
India,Bihar,Gaya,"Kareemganj, Gaya - BSPCB",07-09-2025 07:00:00,24.792403,84.992416,SO2,14,17,16
India,Bihar,Muzaffarpur,"MIT-Daudpur Kothi, Muzaffarpur - BSPCB",07-09-2025 07:00:00,26.1403345,85.3650192,PM2.5,35,53,43
India,Bihar,Muzaffarpur,"MIT-Daudpur Kothi, Muzaffarpur - BSPCB",07-09-2025 07:00:00,26.1403345,85.3650192,NH3,2,3,3
India,Bihar,Muzaffarpur,"MIT-Daudpur Kothi, Muzaffarpur - BSPCB",07-09-2025 07:00:00,26.1403345,85.3650192,SO2,9,10,10
India,Bihar,Muzaffarpur,"Muzaffarpur Collectorate, Muzaffarpur - BSPCB",07-09-2025 07:00:00,26.1209,85.3647,PM2.5,30,60,41
India,Andaman and Nicobar,Sri Vijaya Puram,"Police Line, Sri Vijaya Puram - ANPCC",07-09-2025 07:00:00,11.654054,92.734055,CO,NA,NA,NA
India,Andhra_Pradesh,Amaravati,"Secretariat, Amaravati - APPCB",07-09-2025 07:00:00,16.5150833,80.5181667,PM2.5,11,34,20
India,Delhi,Delhi,"Chandni Chowk, Delhi - IITM",07-09-2025 07:00:00,28.656756,77.227234,CO,64,98,71
India,Delhi,Delhi,"DTU, Delhi - CPCB",07-09-2025 07:00:00,28.7500499,77.1112615,PM2.5,16,70,39
India,Delhi,Delhi,"DTU, Delhi - CPCB",07-09-2025 07:00:00,28.7500499,77.1112615,NO2,52,59,57
India,Delhi,Delhi,"DTU, Delhi - CPCB",07-09-2025 07:00:00,28.7500499,77.1112615,NH3,7,9,9
India,Delhi,Delhi,"Dr. Karni Singh Shooting Range, Delhi - DPCC",07-09-2025 07:00:00,28.498571,77.264840,NO2,22,51,28
India,Delhi,Delhi,"Dr. Karni Singh Shooting Range, Delhi - DPCC",07-09-2025 07:00:00,28.498571,77.264840,NH3,3,6,4
India,Delhi,Delhi,"Dwarka-Sector 8, Delhi - DPCC ",07-09-2025 07:00:00,28.5710274,77.0719006,CO,39,86,52
India,Delhi,Delhi,"IGI Airport (T3), Delhi - IMD",07-09-2025 07:00:00,28.5627763,77.1180053,PM10,61,148,96
India,Delhi,Delhi,"IGI Airport (T3), Delhi - IMD",07-09-2025 07:00:00,28.5627763,77.1180053,OZONE,1,2,1
India,Bihar,Samastipur,"DM Office_Kasipur, Samastipur - BSPCB",07-09-2025 07:00:00,25.859655,85.77944,SO2,NA,NA,NA
India,Bihar,Sasaram,"Dada Peer, Sasaram - BSPCB",07-09-2025 07:00:00,24.952822,84.002396,PM2.5,7,22,12
India,Bihar,Siwan,"Chitragupta Nagar, Siwan - BSPCB",07-09-2025 07:00:00,26.2271665,84.3570427,SO2,1,4,2
India,Bihar,Siwan,"Chitragupta Nagar, Siwan - BSPCB",07-09-2025 07:00:00,26.2271665,84.3570427,OZONE,1,6,3
India,Chandigarh,Chandigarh,"Sector 22, Chandigarh - CPCC",07-09-2025 07:00:00,30.735567,76.775714,NO2,13,54,29
India,Chandigarh,Chandigarh,"Sector-25, Chandigarh - CPCC",07-09-2025 07:00:00,30.751462,76.762879,PM10,15,45,28
India,Chandigarh,Chandigarh,"Sector-53, Chandigarh - CPCC",07-09-2025 07:00:00,30.719859,76.738637,PM10,6,29,15
India,Bihar,Patna,"IGSC Planetarium Complex, Patna - BSPCB",07-09-2025 07:00:00,25.610369,85.132568,PM2.5,NA,NA,NA
India,Bihar,Patna,"IGSC Planetarium Complex, Patna - BSPCB",07-09-2025 07:00:00,25.610369,85.132568,CO,NA,NA,NA
India,Bihar,Patna,"Muradpur, Patna - BSPCB",07-09-2025 07:00:00,25.619651,85.147382,PM2.5,35,117,63
India,Bihar,Patna,"Muradpur, Patna - BSPCB",07-09-2025 07:00:00,25.619651,85.147382,NO2,8,10,9
India,Bihar,Patna,"Rajbansi Nagar, Patna - BSPCB",07-09-2025 07:00:00,25.599486,85.113666,PM2.5,15,56,35
India,Bihar,Patna,"Rajbansi Nagar, Patna - BSPCB",07-09-2025 07:00:00,25.599486,85.113666,PM10,30,50,39
India,Bihar,Patna,"Rajbansi Nagar, Patna - BSPCB",07-09-2025 07:00:00,25.599486,85.113666,NO2,21,26,23
India,Bihar,Patna,"Rajbansi Nagar, Patna - BSPCB",07-09-2025 07:00:00,25.599486,85.113666,SO2,4,11,7
India,Bihar,Patna,"Rajbansi Nagar, Patna - BSPCB",07-09-2025 07:00:00,25.599486,85.113666,CO,12,34,22
India,Chhattisgarh,Raipur,"Krishak Nagar, Raipur - CECB",07-09-2025 07:00:00,21.237755,81.705301,PM2.5,6,36,16
India,Chhattisgarh,Raipur,"Krishak Nagar, Raipur - CECB",07-09-2025 07:00:00,21.237755,81.705301,NO2,14,17,15
India,Chhattisgarh,Raipur,"Krishak Nagar, Raipur - CECB",07-09-2025 07:00:00,21.237755,81.705301,NH3,2,2,2
India,Chhattisgarh,Tumidih,"OP Jindal Industrial Park, Tumidih - CECB",07-09-2025 07:00:00,22.06631475,83.33820077,NH3,1,2,2
India,Delhi,Delhi,"Aya Nagar, Delhi - IMD",07-09-2025 07:00:00,28.4706914,77.1099364,PM2.5,21,76,42
India,Delhi,Delhi,"Bawana, Delhi - DPCC",07-09-2025 07:00:00,28.776200,77.051074,NO2,5,10,8
India,Delhi,Delhi,"Bawana, Delhi - DPCC",07-09-2025 07:00:00,28.776200,77.051074,NH3,3,6,5
India,Delhi,Delhi,"Burari Crossing, Delhi - IMD",07-09-2025 07:00:00,28.7256504,77.2011573,NO2,NA,NA,NA
India,Bihar,Saharsa,"Police Line, Saharsa - BSPCB",07-09-2025 07:00:00,25.892357,86.590325,NH3,4,4,4
India,Bihar,Saharsa,"Police Line, Saharsa - BSPCB",07-09-2025 07:00:00,25.892357,86.590325,SO2,13,17,16
India,Bihar,Saharsa,"Police Line, Saharsa - BSPCB",07-09-2025 07:00:00,25.892357,86.590325,OZONE,5,21,15
India,Bihar,Samastipur,"DM Office_Kasipur, Samastipur - BSPCB",07-09-2025 07:00:00,25.859655,85.77944,NH3,NA,NA,NA
India,Chhattisgarh,Bhilai,"32Bungalows, Bhilai - CECB",07-09-2025 07:00:00,21.194815,81.314770,CO,6,10,9
India,Chhattisgarh,Bhilai,"Civic Center, Bhilai - Bhilai Steel Plant",07-09-2025 07:00:00,21.185571,81.343175,NO2,8,11,9
India,Chhattisgarh,Bilaspur,"Mangala, Bilaspur - NTPC",07-09-2025 07:00:00,22.08815,82.13737,NO2,NA,NA,NA
India,Chhattisgarh,Chhal,"Nawapara SECL Colony, Chhal - CECB",07-09-2025 07:00:00,22.118125,83.140608,CO,20,33,28
India,Chhattisgarh,Raipur,"AIIMS, Raipur - CECB",07-09-2025 07:00:00,21.258815,81.578979,PM10,11,53,26
India,Chhattisgarh,Raipur,"AIIMS, Raipur - CECB",07-09-2025 07:00:00,21.258815,81.578979,NO2,6,11,8
India,Chhattisgarh,Raipur,"AIIMS, Raipur - CECB",07-09-2025 07:00:00,21.258815,81.578979,CO,21,29,25
India,Bihar,Purnia,"Mariam Nagar, Purnia - BSPCB",07-09-2025 07:00:00,25.366336,87.117468,PM10,43,113,54
India,Bihar,Purnia,"Mariam Nagar, Purnia - BSPCB",07-09-2025 07:00:00,25.366336,87.117468,SO2,NA,NA,NA
India,Bihar,Purnia,"Mariam Nagar, Purnia - BSPCB",07-09-2025 07:00:00,25.366336,87.117468,OZONE,18,46,30
India,Delhi,Delhi,"Najafgarh, Delhi - DPCC",07-09-2025 07:00:00,28.570173,76.933762,CO,18,40,35
India,Delhi,Delhi,"Narela, Delhi - DPCC",07-09-2025 07:00:00,28.822836,77.101981,PM10,33,113,65
India,Delhi,Delhi,"Narela, Delhi - DPCC",07-09-2025 07:00:00,28.822836,77.101981,CO,36,56,41
India,Delhi,Delhi,"Nehru Nagar, Delhi - DPCC",07-09-2025 07:00:00,28.567890,77.250515,PM2.5,30,123,57
India,Delhi,Delhi,"Nehru Nagar, Delhi - DPCC",07-09-2025 07:00:00,28.567890,77.250515,NO2,17,45,28
India,Delhi,Delhi,"Nehru Nagar, Delhi - DPCC",07-09-2025 07:00:00,28.567890,77.250515,SO2,4,13,9
India,Delhi,Delhi,"North Campus, DU, Delhi - IMD",07-09-2025 07:00:00,28.6573814,77.1585447,OZONE,1,81,6
India,Delhi,Delhi,"Okhla Phase-2, Delhi - DPCC",07-09-2025 07:00:00,28.530785,77.271255,NH3,5,6,5
India,Delhi,Delhi,"Okhla Phase-2, Delhi - DPCC",07-09-2025 07:00:00,28.530785,77.271255,SO2,6,8,6
India,Delhi,Delhi,"Okhla Phase-2, Delhi - DPCC",07-09-2025 07:00:00,28.530785,77.271255,CO,32,72,42
India,Gujarat,Ahmedabad,"SAC ISRO Satellite, Ahmedabad - IITM",07-09-2025 07:00:00,23.023389,72.515201,PM10,10,46,28
India,Gujarat,Ahmedabad,"SAC ISRO Satellite, Ahmedabad - IITM",07-09-2025 07:00:00,23.023389,72.515201,SO2,2,4,3
India,Gujarat,Ahmedabad,"SAC ISRO Satellite, Ahmedabad - IITM",07-09-2025 07:00:00,23.023389,72.515201,CO,3,40,9
India,Gujarat,Ahmedabad,"SAC ISRO Satellite, Ahmedabad - IITM",07-09-2025 07:00:00,23.023389,72.515201,OZONE,11,324,90
India,Gujarat,Ahmedabad,"SVPI Airport Hansol, Ahmedabad - IITM",07-09-2025 07:00:00,23.076793,72.627874,NO2,13,39,26
India,Gujarat,Ankleshwar,"GIDC, Ankleshwar - GPCB",07-09-2025 07:00:00,21.613267,73.010555,PM10,49,49,49
India,Gujarat,Gandhinagar,"GIFT City, Gandhinagar - IITM",07-09-2025 07:00:00,23.163798,72.677768,PM2.5,4,46,19
India,Gujarat,Gandhinagar,"GIFT City, Gandhinagar - IITM",07-09-2025 07:00:00,23.163798,72.677768,SO2,4,13,7
India,Gujarat,Gandhinagar,"IIPHG Lekawada, Gandhinagar - IITM",07-09-2025 07:00:00,23.243639,72.68994,PM10,11,41,24
India,Delhi,Delhi,"Sri Aurobindo Marg, Delhi - DPCC",07-09-2025 07:00:00,28.531346,77.190156,OZONE,10,30,13
India,Delhi,Delhi,"Vivek Vihar, Delhi - DPCC",07-09-2025 07:00:00,28.672342,77.315260,PM10,NA,NA,NA
India,Delhi,Delhi,"Vivek Vihar, Delhi - DPCC",07-09-2025 07:00:00,28.672342,77.315260,CO,NA,NA,NA
India,Delhi,Delhi,"Wazirpur, Delhi - DPCC",07-09-2025 07:00:00,28.699793,77.165453,OZONE,13,40,20
India,Gujarat,Ahmedabad,"Chandkheda, Ahmedabad - IITM",07-09-2025 07:00:00,23.107969,72.574648,NH3,1,2,1
India,Gujarat,Ahmedabad,"Chandkheda, Ahmedabad - IITM",07-09-2025 07:00:00,23.107969,72.574648,SO2,2,9,5
India,Delhi,Delhi,"Shadipur, Delhi - CPCB",07-09-2025 07:00:00,28.6514781,77.1473105,SO2,5,15,12
India,Delhi,Delhi,"Sirifort, Delhi - CPCB",07-09-2025 07:00:00,28.5504249,77.2159377,PM2.5,32,71,47
India,Delhi,Delhi,"Sirifort, Delhi - CPCB",07-09-2025 07:00:00,28.5504249,77.2159377,NH3,13,15,13
India,Delhi,Delhi,"Sirifort, Delhi - CPCB",07-09-2025 07:00:00,28.5504249,77.2159377,SO2,25,26,25
India,Delhi,Delhi,"Sonia Vihar, Delhi - DPCC",07-09-2025 07:00:00,28.710508,77.249485,PM2.5,40,338,114
India,Delhi,Delhi,"Sonia Vihar, Delhi - DPCC",07-09-2025 07:00:00,28.710508,77.249485,PM10,51,167,86
India,Gujarat,Gandhinagar,"Sector-10, Gandhinagar - GPCB",07-09-2025 07:00:00,23.221714,72.654328,PM2.5,4,23,12
India,Gujarat,Gandhinagar,"Sector-10, Gandhinagar - GPCB",07-09-2025 07:00:00,23.221714,72.654328,NO2,9,9,9
India,Gujarat,Vapi,"Phase-1 GIDC, Vapi - GPCB",07-09-2025 07:00:00,20.362421,72.918013,PM10,23,223,52
India,Gujarat,Vapi,"Phase-1 GIDC, Vapi - GPCB",07-09-2025 07:00:00,20.362421,72.918013,NO2,13,14,14
India,Haryana,Gurugram,"NISE Gwal Pahari, Gurugram - IMD",07-09-2025 07:00:00,28.422681,77.148944,OZONE,25,65,33
India,Delhi,Delhi,"ITO, Delhi - CPCB",07-09-2025 07:00:00,28.628624,77.241060,PM2.5,41,74,54
India,Delhi,Delhi,"ITO, Delhi - CPCB",07-09-2025 07:00:00,28.628624,77.241060,NO2,77,92,87
India,Delhi,Delhi,"ITO, Delhi - CPCB",07-09-2025 07:00:00,28.628624,77.241060,OZONE,8,11,8
India,Delhi,Delhi,"Jawaharlal Nehru Stadium, Delhi - DPCC",07-09-2025 07:00:00,28.580280,77.233829,PM2.5,NA,NA,NA
India,Delhi,Delhi,"Jawaharlal Nehru Stadium, Delhi - DPCC",07-09-2025 07:00:00,28.580280,77.233829,SO2,NA,NA,NA
India,Delhi,Delhi,"Major Dhyan Chand National Stadium, Delhi - DPCC",07-09-2025 07:00:00,28.611281,77.237738,PM2.5,28,80,57
India,Delhi,Delhi,"Mundka, Delhi - DPCC",07-09-2025 07:00:00,28.684678,77.076574,CO,20,53,40
India,Delhi,Delhi,"NSIT Dwarka, Delhi - CPCB",07-09-2025 07:00:00,28.60909,77.0325413,NO2,6,48,34
India,Delhi,Delhi,"NSIT Dwarka, Delhi - CPCB",07-09-2025 07:00:00,28.60909,77.0325413,SO2,4,10,7
India,Delhi,Delhi,"Najafgarh, Delhi - DPCC",07-09-2025 07:00:00,28.570173,76.933762,NO2,43,73,50
India,Delhi,Delhi,"Najafgarh, Delhi - DPCC",07-09-2025 07:00:00,28.570173,76.933762,NH3,1,1,1
India,Gujarat,Ahmedabad,"Gyaspur, Ahmedabad - IITM",07-09-2025 07:00:00,22.977134,72.553024,SO2,5,12,7
India,Gujarat,Ahmedabad,"Maninagar, Ahmedabad - GPCB",07-09-2025 07:00:00,23.002657,72.591912,PM10,15,65,41
India,Gujarat,Ahmedabad,"Rakhial, Ahmedabad - IITM",07-09-2025 07:00:00,23.016834,72.625775,PM10,21,68,45
India,Gujarat,Ahmedabad,"SAC ISRO Bopal, Ahmedabad - IITM",07-09-2025 07:00:00,23.041137,72.456691,SO2,2,4,3
India,Delhi,Delhi,"Punjabi Bagh, Delhi - DPCC",07-09-2025 07:00:00,28.674045,77.131023,PM2.5,12,113,53
India,Delhi,Delhi,"Pusa, Delhi - DPCC",07-09-2025 07:00:00,28.639652,77.146275,NO2,14,66,29
India,Delhi,Delhi,"Pusa, Delhi - DPCC",07-09-2025 07:00:00,28.639652,77.146275,CO,43,78,51
India,Delhi,Delhi,"Pusa, Delhi - IMD",07-09-2025 07:00:00,28.636110,77.173332,PM10,9,471,105
India,Delhi,Delhi,"Pusa, Delhi - IMD",07-09-2025 07:00:00,28.636110,77.173332,CO,82,105,94
India,Karnataka,Tumakuru,"Thimmalapura, Tumakuru - KSPCB",07-09-2025 07:00:00,13.377516,77.099072,SO2,NA,NA,NA
India,Karnataka,Tumakuru,"Thimmalapura, Tumakuru - KSPCB",07-09-2025 07:00:00,13.377516,77.099072,CO,NA,NA,NA
India,Karnataka,Vijayapura,"Ibrahimpur, Vijayapura - KSPCB",07-09-2025 07:00:00,16.802639,75.722694,NO2,9,10,9
India,Karnataka,Yadgir,"Collector Office, Yadgir - KSPCB",07-09-2025 07:00:00,16.7602,77.1428,PM2.5,NA,NA,NA
India,Karnataka,Yadgir,"Collector Office, Yadgir - KSPCB",07-09-2025 07:00:00,16.7602,77.1428,NH3,NA,NA,NA
India,Kerala,Kannur,"Thavakkara, Kannur - Kerala PCB",07-09-2025 07:00:00,11.875000,75.373200,PM10,58,63,59
India,Kerala,Kannur,"Thavakkara, Kannur - Kerala PCB",07-09-2025 07:00:00,11.875000,75.373200,SO2,4,5,5
India,Kerala,Kannur,"Thavakkara, Kannur - Kerala PCB",07-09-2025 07:00:00,11.875000,75.373200,CO,18,20,18
India,Karnataka,Bidar,"Naubad, Bidar - KSPCB",07-09-2025 07:00:00,17.930306,77.482194,CO,NA,NA,NA
India,Karnataka,Chamarajanagar,"Urban, Chamarajanagar - KSPCB",07-09-2025 07:00:00,11.55358,76.55521,NH3,2,3,2
India,Karnataka,Chamarajanagar,"Urban, Chamarajanagar - KSPCB",07-09-2025 07:00:00,11.55358,76.55521,CO,18,120,33
India,Karnataka,Chikkaballapur,"Chikkaballapur Rural, Chikkaballapur - KSPCB",07-09-2025 07:00:00,13.428828,77.731418,SO2,NA,NA,NA
India,Karnataka,Chikkamagaluru,"Kalyana Nagara, Chikkamagaluru - KSPCB",07-09-2025 07:00:00,13.328028,75.797056,PM2.5,8,47,19
India,Karnataka,Davanagere,"Devaraj Urs Badavane, Davanagere - KSPCB",07-09-2025 07:00:00,14.475800,75.905200,CO,6,25,11
India,Madhya Pradesh,Bhopal,"Idgah Hills, Bhopal - MPPCB",07-09-2025 07:00:00,23.264759,77.381568,OZONE,21,30,26
India,Madhya Pradesh,Bhopal,"T T Nagar, Bhopal - MPPCB",07-09-2025 07:00:00,23.233584,77.400574,CO,12,51,19
India,Madhya Pradesh,Dewas,"Bhopal Chauraha, Dewas - MPPCB",07-09-2025 07:00:00,22.9682591,76.064118,PM2.5,13,67,32
India,Madhya Pradesh,Dewas,"Bhopal Chauraha, Dewas - MPPCB",07-09-2025 07:00:00,22.9682591,76.064118,PM10,27,74,45
India,Madhya Pradesh,Dewas,"Bhopal Chauraha, Dewas - MPPCB",07-09-2025 07:00:00,22.9682591,76.064118,SO2,3,52,22
India,Madhya Pradesh,Gwalior,"City Center, Gwalior - MPPCB",07-09-2025 07:00:00,26.203442,78.193251,PM2.5,5,47,13
India,Madhya Pradesh,Gwalior,"City Center, Gwalior - MPPCB",07-09-2025 07:00:00,26.203442,78.193251,PM10,16,52,25
India,Jharkhand,Dhanbad,"Sardar Patel Nagar, Dhanbad - JSPCB",07-09-2025 07:00:00,23.80569,86.44268,SO2,NA,NA,NA
India,Karnataka,Bagalkot,"Vidayagiri, Bagalkot - KSPCB",07-09-2025 07:00:00,16.172806,75.659694,PM2.5,33,34,34
India,Karnataka,Bagalkot,"Vidayagiri, Bagalkot - KSPCB",07-09-2025 07:00:00,16.172806,75.659694,NO2,9,11,9
India,Karnataka,Bagalkot,"Vidayagiri, Bagalkot - KSPCB",07-09-2025 07:00:00,16.172806,75.659694,OZONE,10,16,15
India,Karnataka,Bengaluru,"BTM Layout, Bengaluru - CPCB",07-09-2025 07:00:00,12.9135218,77.5950804,PM2.5,24,36,26
India,Karnataka,Bengaluru,"BTM Layout, Bengaluru - CPCB",07-09-2025 07:00:00,12.9135218,77.5950804,SO2,19,20,19
India,Karnataka,Bengaluru,"BTM Layout, Bengaluru - CPCB",07-09-2025 07:00:00,12.9135218,77.5950804,OZONE,20,21,20
India,Karnataka,Madikeri,"Stuart Hill, Madikeri - KSPCB",07-09-2025 07:00:00,12.415911,75.735050,PM10,16,37,25
India,Karnataka,Mangalore,"Kadri, Mangalore - KSPCB",07-09-2025 07:00:00,12.889250,74.853000,PM2.5,12,23,18
India,Karnataka,Mangalore,"Kadri, Mangalore - KSPCB",07-09-2025 07:00:00,12.889250,74.853000,SO2,6,7,7
India,Karnataka,Mysuru,"Hebbal 1st Stage, Mysuru - KSPCB",07-09-2025 07:00:00,12.21041,76.37376,NH3,NA,NA,NA
India,Karnataka,Shivamogga,"Vinoba Nagara, Shivamogga - KSPCB",07-09-2025 07:00:00,13.940000,75.555917,NO2,10,15,13
India,Karnataka,Bengaluru,"Peenya, Bengaluru - CPCB",07-09-2025 07:00:00,13.0270199,77.494094,PM10,57,75,64
India,Karnataka,Bengaluru,"Peenya, Bengaluru - CPCB",07-09-2025 07:00:00,13.0270199,77.494094,NH3,2,3,3
India,Karnataka,Bengaluru,"RVCE-Mailasandra, Bengaluru - KSPCB",07-09-2025 07:00:00,12.921418,77.502466,PM10,70,104,82
India,Karnataka,Bengaluru,"RVCE-Mailasandra, Bengaluru - KSPCB",07-09-2025 07:00:00,12.921418,77.502466,CO,22,44,38
India,Karnataka,Bengaluru,"RVCE-Mailasandra, Bengaluru - KSPCB",07-09-2025 07:00:00,12.921418,77.502466,OZONE,21,22,21
India,Karnataka,Bidar,"Naubad, Bidar - KSPCB",07-09-2025 07:00:00,17.930306,77.482194,PM10,NA,NA,NA
India,Kerala,Thiruvananthapuram,"Kariavattom, Thiruvananthapuram - Kerala PCB",07-09-2025 07:00:00,8.563700,76.886500,NO2,6,7,6
India,Kerala,Thiruvananthapuram,"Plammoodu, Thiruvananthapuram - Kerala PCB",07-09-2025 07:00:00,8.5149093,76.9435879,PM2.5,6,150,37
India,Kerala,Thrissur,"Corporation Ground, Thrissur - Kerala PCB",07-09-2025 07:00:00,10.532400,76.215900,PM2.5,50,58,53
India,Karnataka,Bengaluru,"City Railway Station, Bengaluru - KSPCB",07-09-2025 07:00:00,12.9756843,77.5660749,PM10,82,96,87
India,Karnataka,Bengaluru,"Hebbal, Bengaluru - KSPCB",07-09-2025 07:00:00,13.029152,77.585901,CO,5,36,15
India,Karnataka,Bengaluru,"Jayanagar 5th Block, Bengaluru - KSPCB",07-09-2025 07:00:00,12.920984,77.584908,SO2,3,8,5
India,Karnataka,Hubballi,"Lingaraj Nagar, Hubballi - KSPCB",07-09-2025 07:00:00,15.3714823,75.1160168,PM10,34,48,42
India,Karnataka,Hubballi,"Lingaraj Nagar, Hubballi - KSPCB",07-09-2025 07:00:00,15.3714823,75.1160168,SO2,1,2,1
India,Madhya Pradesh,Sagar,"Civil Lines, Sagar - MPPCB",07-09-2025 07:00:00,23.838586,78.759431,NO2,3,3,3
India,Madhya Pradesh,Satna,"Bandhavgar Colony, Satna - Birla Cement",07-09-2025 07:00:00,24.58434363,80.8549414,PM10,58,60,59
India,Madhya Pradesh,Singrauli,"Suryakiran Bhawan NCL, Singrauli - MPPCB",07-09-2025 07:00:00,24.108970,82.645580,CO,12,15,12
India,Maharashtra,Ahmednagar,"Tarakpur, Ahmednagar - MPCB",07-09-2025 07:00:00,19.10122,74.73339,PM10,NA,NA,NA
India,Maharashtra,Ahmednagar,"Tarakpur, Ahmednagar - MPCB",07-09-2025 07:00:00,19.10122,74.73339,SO2,NA,NA,NA
India,Maharashtra,Ahmednagar,"Tarakpur, Ahmednagar - MPCB",07-09-2025 07:00:00,19.10122,74.73339,CO,13,54,24
India,Maharashtra,Akola,"Ramdaspeth, Akola - MPCB",07-09-2025 07:00:00,20.719516,77.000253,PM10,11,33,20
India,Maharashtra,Akola,"Ramdaspeth, Akola - MPCB",07-09-2025 07:00:00,20.719516,77.000253,SO2,12,20,14
India,Maharashtra,Bhiwandi,"Gokul Nagar, Bhiwandi - MPCB",07-09-2025 07:00:00,19.309073,73.057223,PM2.5,23,46,35
India,Maharashtra,Bhiwandi,"Gokul Nagar, Bhiwandi - MPCB",07-09-2025 07:00:00,19.309073,73.057223,SO2,7,21,17
India,Maharashtra,Boisar,"Khaira, Boisar - MPCB",07-09-2025 07:00:00,19.786089,72.757971,PM10,22,51,32
India,Maharashtra,Boisar,"Khaira, Boisar - MPCB",07-09-2025 07:00:00,19.786089,72.757971,NO2,5,15,8
India,Maharashtra,Boisar,"Khaira, Boisar - MPCB",07-09-2025 07:00:00,19.786089,72.757971,NH3,3,10,6
India,Maharashtra,Chandrapur,"Chauhan Colony, Chandrapur - MPCB",07-09-2025 07:00:00,19.962900,79.298714,PM2.5,3,24,10
India,Maharashtra,Chandrapur,"Chauhan Colony, Chandrapur - MPCB",07-09-2025 07:00:00,19.962900,79.298714,PM10,26,102,61
India,Maharashtra,Chandrapur,"Chauhan Colony, Chandrapur - MPCB",07-09-2025 07:00:00,19.962900,79.298714,NO2,16,20,18
India,Maharashtra,Chandrapur,"Chauhan Colony, Chandrapur - MPCB",07-09-2025 07:00:00,19.962900,79.298714,NH3,2,2,2
India,Maharashtra,Chandrapur,"Chauhan Colony, Chandrapur - MPCB",07-09-2025 07:00:00,19.962900,79.298714,CO,23,30,26
India,Maharashtra,Chandrapur,"Chauhan Colony, Chandrapur - MPCB",07-09-2025 07:00:00,19.962900,79.298714,OZONE,19,19,19
India,Maharashtra,Amravati,"Shivneri Colony, Amravati - MPCB",07-09-2025 07:00:00,20.9402359,77.7895248,NO2,3,8,4
India,Maharashtra,Amravati,"Shri Shivaji Science College, Amravati - MPCB",07-09-2025 07:00:00,20.939198,77.765701,SO2,2,9,6
India,Maharashtra,Amravati,"Shri Shivaji Science College, Amravati - MPCB",07-09-2025 07:00:00,20.939198,77.765701,OZONE,2,29,6
India,Maharashtra,Aurangabad,"MIDC Chilkalthana, Aurangabad - MPCB",07-09-2025 07:00:00,19.875620,75.387310,PM10,18,25,21
India,Maharashtra,Aurangabad,"MIDC Chilkalthana, Aurangabad - MPCB",07-09-2025 07:00:00,19.875620,75.387310,SO2,4,11,3
India,Maharashtra,Aurangabad,"More Chowk Waluj, Aurangabad - MPCB",07-09-2025 07:00:00,19.8389439,75.244448,PM10,27,45,34
India,Maharashtra,Badlapur,"Katrap, Badlapur - MPCB",07-09-2025 07:00:00,19.16485,73.23409,PM10,47,102,75
India,Maharashtra,Badlapur,"Katrap, Badlapur - MPCB",07-09-2025 07:00:00,19.16485,73.23409,CO,24,42,31
India,Madhya Pradesh,Jabalpur,"Suhagi, Jabalpur - JMC",07-09-2025 07:00:00,23.218135,79.957770,PM10,17,91,39
India,Madhya Pradesh,Jabalpur,"Suhagi, Jabalpur - JMC",07-09-2025 07:00:00,23.218135,79.957770,SO2,4,11,8
India,Madhya Pradesh,Jabalpur,"Suhagi, Jabalpur - JMC",07-09-2025 07:00:00,23.218135,79.957770,CO,13,74,19
India,Madhya Pradesh,Katni,"Gole Bazar, Katni - MPPCB",07-09-2025 07:00:00,23.50016,80.23284,OZONE,9,58,20
India,Madhya Pradesh,Maihar,"Sahilara, Maihar - KJS Cements",07-09-2025 07:00:00,24.2613009,80.7231783,PM2.5,NA,NA,NA
India,Madhya Pradesh,Pithampur,"Sector-2 Industrial Area, Pithampur - MPPCB",07-09-2025 07:00:00,22.624758,75.675238,OZONE,20,31,24
India,Madhya Pradesh,Ratlam,"Shasthri Nagar, Ratlam - IPCA Lab",07-09-2025 07:00:00,23.331731,75.045981,PM10,3,46,27
India,Madhya Pradesh,Gwalior,"Deen Dayal Nagar, Gwalior - MPPCB",07-09-2025 07:00:00,26.259242,78.216432,NH3,2,3,2
India,Madhya Pradesh,Gwalior,"Deen Dayal Nagar, Gwalior - MPPCB",07-09-2025 07:00:00,26.259242,78.216432,CO,31,75,36
India,Madhya Pradesh,Gwalior,"Maharaj Bada, Gwalior - MPPCB",07-09-2025 07:00:00,26.200388,78.147714,PM2.5,10,62,23
India,Madhya Pradesh,Gwalior,"Maharaj Bada, Gwalior - MPPCB",07-09-2025 07:00:00,26.200388,78.147714,SO2,4,8,7
India,Madhya Pradesh,Indore,"Airport Area, Indore - IMC",07-09-2025 07:00:00,22.7289,75.8076,PM10,NA,NA,NA
India,Madhya Pradesh,Indore,"Airport Area, Indore - IMC",07-09-2025 07:00:00,22.7289,75.8076,SO2,23,54,37
India,Madhya Pradesh,Indore,"Airport Area, Indore - IMC",07-09-2025 07:00:00,22.7289,75.8076,OZONE,1,20,1
India,Madhya Pradesh,Indore,"Chhoti Gwaltoli, Indore - MPPCB",07-09-2025 07:00:00,22.4310,75.5213,OZONE,20,38,25
India,Maharashtra,Kolhapur,"Shivaji University, Kolhapur - MPCB",07-09-2025 07:00:00,16.6870449,74.2505872,SO2,1,2,2
India,Maharashtra,Kolhapur,"Shivaji University, Kolhapur - MPCB",07-09-2025 07:00:00,16.6870449,74.2505872,CO,4,25,16
India,Maharashtra,Latur,"Sawe Wadi, Latur - MPCB",07-09-2025 07:00:00,18.39963,76.57452,NO2,4,30,11
India,Maharashtra,Mahad,"Kamble Tarf Birwadi, Mahad - MPCB",07-09-2025 07:00:00,18.1023399,73.4783687,PM10,16,57,41
India,Maharashtra,Mahad,"Kamble Tarf Birwadi, Mahad - MPCB",07-09-2025 07:00:00,18.1023399,73.4783687,NH3,3,5,4
India,Maharashtra,Chandrapur,"MIDC Khutala, Chandrapur - MPCB",07-09-2025 07:00:00,19.9775302,79.2337086,CO,50,55,52
India,Maharashtra,Dhule,"Deopur, Dhule - MPCB",07-09-2025 07:00:00,20.918946,74.776388,CO,12,26,17
India,Maharashtra,Jalna,"Old MIDC, Jalna - MPCB",07-09-2025 07:00:00,19.854616,75.905894,NO2,40,50,45
India,Maharashtra,Kalyan,"Khadakpada, Kalyan - MPCB",07-09-2025 07:00:00,19.25292,73.142019,CO,10,12,11
India,Madhya Pradesh,Indore,"Regional Park, Indore - IMC",07-09-2025 07:00:00,22.6780,75.8559,NH3,1,20,1
India,Madhya Pradesh,Indore,"Residency Area, Indore - IMC",07-09-2025 07:00:00,22.7084,75.8815,SO2,37,38,38
India,Madhya Pradesh,Indore,"Residency Area, Indore - IMC",07-09-2025 07:00:00,22.7084,75.8815,CO,12,13,12
India,Madhya Pradesh,Jabalpur,"Govindh Bhavan Colony, Jabalpur - JMC",07-09-2025 07:00:00,23.163174,79.973061,OZONE,4,53,9
India,Maharashtra,Mumbai,"Bandra Kurla Complex, Mumbai - IITM",07-09-2025 07:00:00,19.053536,72.84643,PM10,16,91,52
India,Maharashtra,Mumbai,"Bandra Kurla Complex, Mumbai - IITM",07-09-2025 07:00:00,19.053536,72.84643,NO2,8,15,10
India,Maharashtra,Mumbai,"Bandra Kurla Complex, Mumbai - MPCB",07-09-2025 07:00:00,19.065931,72.862131,OZONE,2,18,11
India,Maharashtra,Mumbai,"Borivali East, Mumbai - IITM",07-09-2025 07:00:00,19.23241,72.86895,OZONE,NA,NA,NA
India,Maharashtra,Parbhani,"Masoom Colony, Parbhani - MPCB",07-09-2025 07:00:00,19.265594,76.761463,PM10,30,69,54
India,Maharashtra,Parbhani,"Masoom Colony, Parbhani - MPCB",07-09-2025 07:00:00,19.265594,76.761463,NO2,1,3,2
India,Maharashtra,Parbhani,"Masoom Colony, Parbhani - MPCB",07-09-2025 07:00:00,19.265594,76.761463,CO,10,17,12
India,Maharashtra,Pimpri-Chinchwad,"Gavalinagar, Pimpri Chinchwad - MPCB",07-09-2025 07:00:00,18.63673,73.82487,PM10,49,93,70
India,Maharashtra,Pimpri-Chinchwad,"Gavalinagar, Pimpri Chinchwad - MPCB",07-09-2025 07:00:00,18.63673,73.82487,NO2,18,29,22
India,Maharashtra,Pimpri-Chinchwad,"Gavalinagar, Pimpri Chinchwad - MPCB",07-09-2025 07:00:00,18.63673,73.82487,CO,4,15,8
India,Maharashtra,Pimpri-Chinchwad,"Park Street Wakad, Pimpri Chinchwad - MPCB",07-09-2025 07:00:00,18.59051,73.77946,PM10,25,49,38
India,Maharashtra,Pimpri-Chinchwad,"Savta Mali Nagar, Pimpri-Chinchwad - IITM",07-09-2025 07:00:00,18.614767,73.799516,PM2.5,12,69,33
India,Maharashtra,Pimpri-Chinchwad,"Savta Mali Nagar, Pimpri-Chinchwad - IITM",07-09-2025 07:00:00,18.614767,73.799516,CO,42,80,68
India,Maharashtra,Pimpri-Chinchwad,"Savta Mali Nagar, Pimpri-Chinchwad - IITM",07-09-2025 07:00:00,18.614767,73.799516,OZONE,8,19,11
India,Maharashtra,Pimpri-Chinchwad,"Thergaon, Pimpri Chinchwad - MPCB",07-09-2025 07:00:00,18.616318,73.765797,PM2.5,26,54,43
India,Maharashtra,Pimpri-Chinchwad,"Thergaon, Pimpri Chinchwad - MPCB",07-09-2025 07:00:00,18.616318,73.765797,NH3,1,7,4
India,Maharashtra,Nashik,"Gangapur Road, Nashik - MPCB",07-09-2025 07:00:00,20.0073285,73.7762427,OZONE,15,18,15
India,Maharashtra,Nashik,"Hirawadi, Nashik - MPCB",07-09-2025 07:00:00,20.021503,73.813844,PM2.5,11,45,25
India,Maharashtra,Nashik,"MIDC Ambad, Nashik - MPCB",07-09-2025 07:00:00,19.950220,73.731480,PM2.5,8,47,22
India,Maharashtra,Nashik,"MIDC Ambad, Nashik - MPCB",07-09-2025 07:00:00,19.950220,73.731480,CO,8,14,12
India,Maharashtra,Nashik,"Pandav Nagari, Nashik - MPCB",07-09-2025 07:00:00,19.9591346,73.7788008,CO,8,22,10
India,Maharashtra,Navi Mumbai,"Kopripada-Vashi, Navi Mumbai - MPCB",07-09-2025 07:00:00,19.090337,73.014232,CO,23,62,30
India,Maharashtra,Navi Mumbai,"Mahape, Navi Mumbai - MPCB",07-09-2025 07:00:00,19.1135051,73.008978,PM2.5,6,9,7
India,Maharashtra,Navi Mumbai,"Mahape, Navi Mumbai - MPCB",07-09-2025 07:00:00,19.1135051,73.008978,NO2,34,36,35
India,Maharashtra,Mumbai,"Borivali East, Mumbai - MPCB",07-09-2025 07:00:00,19.2243333,72.8658113,NH3,1,1,1
India,Maharashtra,Mumbai,"Byculla, Mumbai - BMC",07-09-2025 07:00:00,18.9767,72.8380,NH3,1,10,4
India,Maharashtra,Mumbai,"Byculla, Mumbai - BMC",07-09-2025 07:00:00,18.9767,72.8380,SO2,1,3,2
India,Maharashtra,Mumbai,"Chakala-Andheri East, Mumbai - IITM",07-09-2025 07:00:00,19.11074,72.86084,OZONE,4,26,13
India,Maharashtra,Mumbai,"Chembur, Mumbai - MPCB",07-09-2025 07:00:00,19.0364585,72.8954371,PM10,29,50,40
India,Maharashtra,Mumbai,"Chembur, Mumbai - MPCB",07-09-2025 07:00:00,19.0364585,72.8954371,NO2,9,41,22
India,Maharashtra,Mumbai,"Chhatrapati Shivaji Intl. Airport (T2), Mumbai - MPCB",07-09-2025 07:00:00,19.10078,72.87462,NO2,28,32,30
India,Maharashtra,Mumbai,"Chhatrapati Shivaji Intl. Airport (T2), Mumbai - MPCB",07-09-2025 07:00:00,19.10078,72.87462,OZONE,7,7,7
India,Maharashtra,Nagpur,"Mahal, Nagpur - MPCB",07-09-2025 07:00:00,21.14472,79.107595,SO2,3,34,15
India,Maharashtra,Nagpur,"Opp GPO Civil Lines, Nagpur - MPCB",07-09-2025 07:00:00,21.152875,79.0517531,SO2,2,10,6
India,Maharashtra,Nagpur,"Ram Nagar, Nagpur - MPCB",07-09-2025 07:00:00,21.143383,79.048912,SO2,4,6,5
India,Maharashtra,Nanded,"Sneh Nagar, Nanded - MPCB",07-09-2025 07:00:00,19.173852,77.296291,PM10,44,69,55
India,Maharashtra,Nanded,"Sneh Nagar, Nanded - MPCB",07-09-2025 07:00:00,19.173852,77.296291,NO2,15,19,17
India,Maharashtra,Nanded,"Sneh Nagar, Nanded - MPCB",07-09-2025 07:00:00,19.173852,77.296291,CO,18,43,29
India,Maharashtra,Nashik,"Gangapur Road, Nashik - MPCB",07-09-2025 07:00:00,20.0073285,73.7762427,PM10,9,47,19
India,Maharashtra,Mumbai,"Colaba, Mumbai - MPCB",07-09-2025 07:00:00,18.910000,72.820000,PM2.5,NA,NA,NA
India,Maharashtra,Mumbai,"Colaba, Mumbai - MPCB",07-09-2025 07:00:00,18.910000,72.820000,NH3,3,3,3
India,Maharashtra,Mumbai,"Deonar, Mumbai - IITM",07-09-2025 07:00:00,19.04946,72.9230,PM2.5,5,50,17
India,Maharashtra,Mumbai,"Ghatkopar, Mumbai - BMC",07-09-2025 07:00:00,19.083694,72.920967,CO,46,58,52
India,Maharashtra,Mumbai,"Ghatkopar, Mumbai - BMC",07-09-2025 07:00:00,19.083694,72.920967,OZONE,1,5,2
India,Maharashtra,Mumbai,"Kandivali East, Mumbai - MPCB",07-09-2025 07:00:00,19.205800,72.868200,CO,16,33,32
India,Maharashtra,Mumbai,"Kandivali West, Mumbai - BMC",07-09-2025 07:00:00,19.215859,72.831718,OZONE,4,27,11
India,Maharashtra,Mumbai,"Mazgaon, Mumbai - IITM",07-09-2025 07:00:00,18.96702,72.84214,NH3,6,8,7
India,Maharashtra,Mumbai,"Mindspace-Malad West, Mumbai - MPCB",07-09-2025 07:00:00,19.1878657,72.8304069,NH3,5,6,6
India,Maharashtra,Mumbai,"Mindspace-Malad West, Mumbai - MPCB",07-09-2025 07:00:00,19.1878657,72.8304069,SO2,6,7,6
India,Maharashtra,Mumbai,"Mulund West, Mumbai - MPCB",07-09-2025 07:00:00,19.1750,72.9419,PM10,NA,NA,NA
India,Maharashtra,Mumbai,"Navy Nagar-Colaba, Mumbai - IITM",07-09-2025 07:00:00,18.897756,72.813320,NO2,7,25,12
