country,state,city,station,last_update,latitude,longitude,pollutant_id,min_value,max_value,avg_value
India,Andhra_Pradesh,Visakhapatnam,"GVM Corporation, Visakhapatnam - APPCB",14-04-2026 09:00:00,17.72,83.3,SO2,1,105,39
India,Arunachal_Pradesh,Naharlagun,"Naharlagun, Naharlagun - APSPCB",14-04-2026 09:00:00,27.103358,93.679645,PM2.5,27,71,48
India,Arunachal_Pradesh,Naharlagun,"Naharlagun, Naharlagun - APSPCB",14-04-2026 09:00:00,27.103358,93.679645,NO2,7,7,7
India,Assam,Byrnihat,"Central Academy for SFS, Byrnihat - PCBA",14-04-2026 09:00:00,26.071318,91.87488,CO,31,108,75
India,Assam,Byrnihat,"Central Academy for SFS, Byrnihat - PCBA",14-04-2026 09:00:00,26.071318,91.87488,OZONE,13,50,16
India,Assam,Guwahati,"IITG, Guwahati - PCBA",14-04-2026 09:00:00,26.2028636,91.70046436,SO2,NA,NA,NA
India,Assam,Guwahati,"IITG, Guwahati - PCBA",14-04-2026 09:00:00,26.2028636,91.70046436,OZONE,NA,NA,NA
India,Assam,Guwahati,"LGBI Airport, Guwahati - PCBA",14-04-2026 09:00:00,26.10887,91.589544,SO2,NA,NA,NA
India,Assam,Guwahati,"LGBI Airport, Guwahati - PCBA",14-04-2026 09:00:00,26.10887,91.589544,CO,35,68,39
India,Assam,Guwahati,"Railway Colony, Guwahati - PCBA",14-04-2026 09:00:00,26.181742,91.78063,NO2,3,4,3
India,Bihar,Bihar Sharif,"D M Colony, Bihar Sharif - BSPCB",14-04-2026 09:00:00,25.204762,85.514960,NO2,9,10,9
India,Bihar,Bihar Sharif,"D M Colony, Bihar Sharif - BSPCB",14-04-2026 09:00:00,25.204762,85.514960,SO2,10,10,10
India,Bihar,Buxar,"Charitra Van, Buxar - BSPCB",14-04-2026 09:00:00,25.567520,83.966379,CO,22,28,24
India,Bihar,Buxar,"Charitra Van, Buxar - BSPCB",14-04-2026 09:00:00,25.567520,83.966379,OZONE,2,32,5
India,Bihar,Chhapra,"Darshan Nagar, Chhapra - BSPCB",14-04-2026 09:00:00,25.7808257,84.7446768,PM10,60,92,75
India,Bihar,Chhapra,"Darshan Nagar, Chhapra - BSPCB",14-04-2026 09:00:00,25.7808257,84.7446768,NO2,3,4,4
India,Bihar,Chhapra,"Darshan Nagar, Chhapra - BSPCB",14-04-2026 09:00:00,25.7808257,84.7446768,SO2,20,23,21
India,Bihar,Gaya,"Kareemganj, Gaya - BSPCB",14-04-2026 09:00:00,24.792403,84.992416,PM10,124,352,189
India,Bihar,Gaya,"Kareemganj, Gaya - BSPCB",14-04-2026 09:00:00,24.792403,84.992416,NO2,8,13,11
India,Andhra_Pradesh,Guntur,"Rajendra Nagar North, Guntur - APPCB",14-04-2026 09:00:00,16.316553,80.413302,CO,12,30,15
India,Andhra_Pradesh,Kadapa,"Yerramukkapalli, Kadapa - APPCB",14-04-2026 09:00:00,14.465052,78.824187,SO2,8,20,18
India,Andhra_Pradesh,Kadapa,"Yerramukkapalli, Kadapa - APPCB",14-04-2026 09:00:00,14.465052,78.824187,CO,22,52,23
India,Andhra_Pradesh,Machilipatnam,"Srinivas Nagar Colony, Machilipatnam - APPCB",14-04-2026 09:00:00,16.186555,81.13219,SO2,12,25,14
India,Andhra_Pradesh,Rajamahendravaram,"Anand Kala Kshetram, Rajamahendravaram - APPCB",14-04-2026 09:00:00,16.9872867,81.7363176,CO,18,31,25
India,Andhra_Pradesh,Rajamahendravaram,"Anand Kala Kshetram, Rajamahendravaram - APPCB",14-04-2026 09:00:00,16.9872867,81.7363176,OZONE,1,22,5
India,Andhra_Pradesh,Tirumala,"Toll Gate, Tirumala - APPCB",14-04-2026 09:00:00,13.67,79.35,NO2,21,86,44
India,Andhra_Pradesh,Anantapur,"Gulzarpet, Anantapur - APPCB",14-04-2026 09:00:00,14.675886,77.593027,PM10,52,113,66
India,Andhra_Pradesh,Anantapur,"Gulzarpet, Anantapur - APPCB",14-04-2026 09:00:00,14.675886,77.593027,CO,24,60,39
India,Andhra_Pradesh,Anantapur,"Gulzarpet, Anantapur - APPCB",14-04-2026 09:00:00,14.675886,77.593027,OZONE,29,39,30
India,Andhra_Pradesh,Chittoor,"Gangineni Cheruvu, Chittoor - APPCB",14-04-2026 09:00:00,13.204880,79.097889,PM2.5,44,76,56
India,Andhra_Pradesh,Eluru,"District Court, Eluru - APPCB",14-04-2026 09:00:00,16.711754,81.092095,SO2,9,19,13
India,Andhra_Pradesh,Eluru,"District Court, Eluru - APPCB",14-04-2026 09:00:00,16.711754,81.092095,CO,18,35,25
India,Andhra_Pradesh,Guntur,"Rajendra Nagar North, Guntur - APPCB",14-04-2026 09:00:00,16.316553,80.413302,PM10,49,131,87
India,Andhra_Pradesh,Guntur,"Rajendra Nagar North, Guntur - APPCB",14-04-2026 09:00:00,16.316553,80.413302,SO2,9,23,12
India,Assam,Nagaon,"Christianpatty, Nagaon - PCBA",14-04-2026 09:00:00,26.349082,92.68449,NO2,1,4,1
India,Assam,Nalbari,"Bata Chowk, Nalbari - PCBA",14-04-2026 09:00:00,26.446912,91.439057,SO2,7,9,8
India,Assam,Sivasagar,"Girls College, Sivasagar - PCBA",14-04-2026 09:00:00,26.987634,94.636574,SO2,6,7,6
India,Bihar,Araria,"Kharahiya Basti, Araria - BSPCB",14-04-2026 09:00:00,26.146529,87.454184,NH3,5,6,6
India,Bihar,Arrah,"New DM Office, Arrah - BSPCB",14-04-2026 09:00:00,25.5626095,84.663264,PM2.5,22,230,69
India,Bihar,Arrah,"New DM Office, Arrah - BSPCB",14-04-2026 09:00:00,25.5626095,84.663264,PM10,18,131,54
India,Andhra_Pradesh,Vijayawada,"HB Colony, Vijayawada - APPCB",14-04-2026 09:00:00,16.536107,80.594233,SO2,8,18,12
India,Andhra_Pradesh,Vijayawada,"Kanuru, Vijayawada - APPCB",14-04-2026 09:00:00,16.486692,80.699436,SO2,13,18,16
India,Andhra_Pradesh,Vijayawada,"Kanuru, Vijayawada - APPCB",14-04-2026 09:00:00,16.486692,80.699436,OZONE,59,74,59
India,Andhra_Pradesh,Vijayawada,"Rajiv Gandhi Park, Vijayawada - APPCB",14-04-2026 09:00:00,16.509717,80.612222,PM2.5,43,72,59
India,Andhra_Pradesh,Vijayawada,"Rajiv Gandhi Park, Vijayawada - APPCB",14-04-2026 09:00:00,16.509717,80.612222,NH3,6,6,6
India,Andhra_Pradesh,Vijayawada,"Rajiv Nagar, Vijayawada - APPCB",14-04-2026 09:00:00,16.554731,80.649110,PM10,49,69,59
India,Bihar,Katihar,"Mirchaibari, Katihar - BSPCB",14-04-2026 09:00:00,25.560083,87.553265,CO,85,102,93
India,Bihar,Katihar,"Mirchaibari, Katihar - BSPCB",14-04-2026 09:00:00,25.560083,87.553265,OZONE,5,34,6
India,Bihar,Kishanganj,"SDM Office_Khagra, Kishanganj - BSPCB",14-04-2026 09:00:00,26.0881305,87.93840336,CO,14,17,15
India,Bihar,Manguraha,"Forest Rest House, Manguraha - BSPCB",14-04-2026 09:00:00,27.308328,84.531742,PM2.5,37,500,223
India,Bihar,Bettiah,"Kamalnath Nagar, Bettiah - BSPCB",14-04-2026 09:00:00,26.80365,84.51954,SO2,15,33,25
India,Bihar,Bhagalpur,"DM Office_Kachari Chowk, Bhagalpur - BSPCB",14-04-2026 09:00:00,25.251013,86.989001,NO2,10,13,12
India,Bihar,Katihar,"Mirchaibari, Katihar - BSPCB",14-04-2026 09:00:00,25.560083,87.553265,PM10,NA,NA,NA
India,Bihar,Gaya,"SFTI Kusdihra, Gaya - BSPCB",14-04-2026 09:00:00,24.762518,84.982348,SO2,8,9,8
India,Bihar,Patna,"Govt. High School Shikarpur, Patna - BSPCB",14-04-2026 09:00:00,25.592539,85.227158,NO2,12,42,24
India,Bihar,Patna,"Govt. High School Shikarpur, Patna - BSPCB",14-04-2026 09:00:00,25.592539,85.227158,CO,6,136,30
India,Bihar,Patna,"IGSC Planetarium Complex, Patna - BSPCB",14-04-2026 09:00:00,25.610369,85.132568,CO,28,67,66
India,Bihar,Patna,"Rajbansi Nagar, Patna - BSPCB",14-04-2026 09:00:00,25.599486,85.113666,NH3,2,3,3
India,Bihar,Patna,"Samanpura, Patna - BSPCB",14-04-2026 09:00:00,25.596727,85.085624,PM10,96,182,135
India,Bihar,Patna,"Samanpura, Patna - BSPCB",14-04-2026 09:00:00,25.596727,85.085624,NH3,11,22,15
India,Bihar,Patna,"Samanpura, Patna - BSPCB",14-04-2026 09:00:00,25.596727,85.085624,CO,49,115,90
India,Bihar,Purnia,"Mariam Nagar, Purnia - BSPCB",14-04-2026 09:00:00,25.366336,87.117468,PM2.5,67,95,76
India,Bihar,Purnia,"Mariam Nagar, Purnia - BSPCB",14-04-2026 09:00:00,25.366336,87.117468,PM10,53,74,60
India,Bihar,Purnia,"Mariam Nagar, Purnia - BSPCB",14-04-2026 09:00:00,25.366336,87.117468,CO,58,60,59
India,Bihar,Rajgir,"Dangi Tola, Rajgir - BSPCB",14-04-2026 09:00:00,25.03280,85.41948,SO2,2,3,3
India,Bihar,Rajgir,"Dangi Tola, Rajgir - BSPCB",14-04-2026 09:00:00,25.03280,85.41948,CO,34,56,42
India,Bihar,Saharsa,"Police Line, Saharsa - BSPCB",14-04-2026 09:00:00,25.892357,86.590325,SO2,16,17,16
India,Bihar,Samastipur,"DM Office_Kasipur, Samastipur - BSPCB",14-04-2026 09:00:00,25.859655,85.77944,CO,1,6,6
India,Bihar,Sasaram,"Dada Peer, Sasaram - BSPCB",14-04-2026 09:00:00,24.952822,84.002396,PM2.5,15,73,32
India,Bihar,Siwan,"Chitragupta Nagar, Siwan - BSPCB",14-04-2026 09:00:00,26.2271665,84.3570427,PM10,60,127,88
India,Bihar,Motihari,"Gandak Colony, Motihari - BSPCB",14-04-2026 09:00:00,26.63086,84.90051,PM2.5,52,336,125
India,Bihar,Motihari,"Gandak Colony, Motihari - BSPCB",14-04-2026 09:00:00,26.63086,84.90051,OZONE,3,9,3
India,Bihar,Munger,"Town Hall, Munger - BSPCB",14-04-2026 09:00:00,25.376776,86.471523,PM2.5,27,68,50
India,Bihar,Munger,"Town Hall, Munger - BSPCB",14-04-2026 09:00:00,25.376776,86.471523,SO2,2,107,56
India,Bihar,Muzaffarpur,"MIT-Daudpur Kothi, Muzaffarpur - BSPCB",14-04-2026 09:00:00,26.1403345,85.3650192,PM10,53,69,59
India,Bihar,Muzaffarpur,"MIT-Daudpur Kothi, Muzaffarpur - BSPCB",14-04-2026 09:00:00,26.1403345,85.3650192,NO2,1,6,4
India,Bihar,Muzaffarpur,"MIT-Daudpur Kothi, Muzaffarpur - BSPCB",14-04-2026 09:00:00,26.1403345,85.3650192,CO,29,50,29
India,Bihar,Muzaffarpur,"Muzaffarpur Collectorate, Muzaffarpur - BSPCB",14-04-2026 09:00:00,26.1209,85.3647,CO,9,49,9
India,Chhattisgarh,Bhilai,"Civic Center, Bhilai - Bhilai Steel Plant",14-04-2026 09:00:00,21.185571,81.343175,CO,25,31,26
India,Chhattisgarh,Bhilai,"Hathkhoj, Bhilai - CECB",14-04-2026 09:00:00,21.224231,81.408350,PM10,42,144,67
India,Chhattisgarh,Chhal,"Nawapara SECL Colony, Chhal - CECB",14-04-2026 09:00:00,22.118125,83.140608,NO2,NA,NA,NA
India,Chhattisgarh,Chhal,"Nawapara SECL Colony, Chhal - CECB",14-04-2026 09:00:00,22.118125,83.140608,NH3,NA,NA,NA
India,Chhattisgarh,Korba,"Urja Nagar, Korba - CECB",14-04-2026 09:00:00,22.348441,82.549611,PM2.5,13,17,14
India,Chandigarh,Chandigarh,"Sector-25, Chandigarh - CPCC",14-04-2026 09:00:00,30.751462,76.762879,NH3,NA,NA,NA
India,Chandigarh,Chandigarh,"Sector-53, Chandigarh - CPCC",14-04-2026 09:00:00,30.719859,76.738637,NH3,14,17,16
India,Chandigarh,Chandigarh,"Sector-53, Chandigarh - CPCC",14-04-2026 09:00:00,30.719859,76.738637,OZONE,3,82,18
India,Chhattisgarh,Bhilai,"32Bungalows, Bhilai - CECB",14-04-2026 09:00:00,21.194815,81.314770,SO2,10,25,14
India,Chhattisgarh,Bhilai,"32Bungalows, Bhilai - CECB",14-04-2026 09:00:00,21.194815,81.314770,CO,18,74,34
India,Chhattisgarh,Bhilai,"32Bungalows, Bhilai - CECB",14-04-2026 09:00:00,21.194815,81.314770,OZONE,7,61,20
India,Chhattisgarh,Kunjemura,"OP Jindal School, Kunjemura - CECB",14-04-2026 09:00:00,22.126650,83.483212,SO2,15,93,40
India,Chhattisgarh,Milupara,"Govt. Higher Secondary School, Milupara - CECB",14-04-2026 09:00:00,22.1910172,83.5197009,OZONE,9,199,23
India,Chhattisgarh,Raipur,"AIIMS, Raipur - CECB",14-04-2026 09:00:00,21.258815,81.578979,NO2,23,62,45
India,Chhattisgarh,Raipur,"AIIMS, Raipur - CECB",14-04-2026 09:00:00,21.258815,81.578979,NH3,3,4,3
India,Delhi,Delhi,"Ashok Vihar, Delhi - DPCC",14-04-2026 09:00:00,28.695381,77.181665,SO2,11,51,28
India,Delhi,Delhi,"Bawana, Delhi - DPCC",14-04-2026 09:00:00,28.776200,77.051074,PM2.5,23,404,141
India,Delhi,Delhi,"Bawana, Delhi - DPCC",14-04-2026 09:00:00,28.776200,77.051074,NO2,6,54,26
India,Delhi,Delhi,"Bawana, Delhi - DPCC",14-04-2026 09:00:00,28.776200,77.051074,SO2,7,85,25
India,Delhi,Delhi,"Burari Crossing, Delhi - IMD",14-04-2026 09:00:00,28.7256504,77.2011573,NO2,15,74,46
India,Delhi,Delhi,"Alipur, Delhi - DPCC",14-04-2026 09:00:00,28.815329,77.153010,NO2,18,103,51
India,Delhi,Delhi,"Alipur, Delhi - DPCC",14-04-2026 09:00:00,28.815329,77.153010,NH3,1,8,5
India,Delhi,Delhi,"Alipur, Delhi - DPCC",14-04-2026 09:00:00,28.815329,77.153010,SO2,12,63,20
India,Delhi,Delhi,"Alipur, Delhi - DPCC",14-04-2026 09:00:00,28.815329,77.153010,OZONE,2,40,8
India,Bihar,Siwan,"Chitragupta Nagar, Siwan - BSPCB",14-04-2026 09:00:00,26.2271665,84.3570427,CO,24,80,70
India,Delhi,Delhi,"Nehru Nagar, Delhi - DPCC",14-04-2026 09:00:00,28.567890,77.250515,SO2,1,118,25
India,Delhi,Delhi,"Nehru Nagar, Delhi - DPCC",14-04-2026 09:00:00,28.567890,77.250515,OZONE,1,59,9
India,Delhi,Delhi,"North Campus, DU, Delhi - IMD",14-04-2026 09:00:00,28.6573814,77.1585447,PM2.5,10,279,92
India,Delhi,Delhi,"North Campus, DU, Delhi - IMD",14-04-2026 09:00:00,28.6573814,77.1585447,NO2,5,85,40
India,Delhi,Delhi,"Okhla Phase-2, Delhi - DPCC",14-04-2026 09:00:00,28.530785,77.271255,PM10,89,241,142
India,Delhi,Delhi,"Patparganj, Delhi - DPCC",14-04-2026 09:00:00,28.623763,77.287209,NH3,7,10,8
India,Delhi,Delhi,"Patparganj, Delhi - DPCC",14-04-2026 09:00:00,28.623763,77.287209,OZONE,4,65,18
India,Delhi,Delhi,"Punjabi Bagh, Delhi - DPCC",14-04-2026 09:00:00,28.674045,77.131023,NO2,18,72,44
India,Delhi,Delhi,"Pusa, Delhi - DPCC",14-04-2026 09:00:00,28.639652,77.146275,SO2,11,72,28
India,Delhi,Delhi,"Dr. Karni Singh Shooting Range, Delhi - DPCC",14-04-2026 09:00:00,28.498571,77.264840,NH3,3,9,6
India,Delhi,Delhi,"Dr. Karni Singh Shooting Range, Delhi - DPCC",14-04-2026 09:00:00,28.498571,77.264840,CO,28,80,51
India,Delhi,Delhi,"Dwarka-Sector 8, Delhi - DPCC ",14-04-2026 09:00:00,28.5710274,77.0719006,OZONE,11,56,20
India,Delhi,Delhi,"IGNOU_Maidan Garhi, Delhi - DPCC",14-04-2026 09:00:00,28.493624 ,77.201159 ,PM2.5,8,180,86
India,Delhi,Delhi,"IGNOU_Maidan Garhi, Delhi - DPCC",14-04-2026 09:00:00,28.493624 ,77.201159 ,PM10,65,198,130
India,Delhi,Delhi,"IGNOU_Maidan Garhi, Delhi - DPCC",14-04-2026 09:00:00,28.493624 ,77.201159 ,SO2,7,26,13
India,Delhi,Delhi,"NSIT Dwarka, Delhi - CPCB",14-04-2026 09:00:00,28.60909,77.0325413,NH3,1,6,3
India,Delhi,Delhi,"NSIT Dwarka, Delhi - CPCB",14-04-2026 09:00:00,28.60909,77.0325413,SO2,2,20,10
India,Delhi,Delhi,"NSUT Jaffarpur, Delhi - DPCC",14-04-2026 09:00:00,28.594004 ,76.909423 ,PM10,8,380,153
India,Delhi,Delhi,"NSUT Jaffarpur, Delhi - DPCC",14-04-2026 09:00:00,28.594004 ,76.909423 ,OZONE,29,90,39
India,Delhi,Delhi,"Narela, Delhi - DPCC",14-04-2026 09:00:00,28.822836,77.101981,PM2.5,22,316,150
India,Delhi,Delhi,"Narela, Delhi - DPCC",14-04-2026 09:00:00,28.822836,77.101981,SO2,6,49,16
India,Delhi,Delhi,"Narela, Delhi - DPCC",14-04-2026 09:00:00,28.822836,77.101981,OZONE,10,61,15
India,Delhi,Delhi,"Jahangirpuri, Delhi - DPCC",14-04-2026 09:00:00,28.732820,77.170633,PM10,105,339,192
India,Delhi,Delhi,"Jahangirpuri, Delhi - DPCC",14-04-2026 09:00:00,28.732820,77.170633,NO2,31,110,71
India,Delhi,Delhi,"Jahangirpuri, Delhi - DPCC",14-04-2026 09:00:00,28.732820,77.170633,CO,13,84,50
India,Delhi,Delhi,"Jawaharlal Nehru Stadium, Delhi - DPCC",14-04-2026 09:00:00,28.580280,77.233829,PM2.5,22,325,97
India,Delhi,Delhi,"Jawaharlal Nehru Stadium, Delhi - DPCC",14-04-2026 09:00:00,28.580280,77.233829,NO2,31,141,84
India,Delhi,Delhi,"Jawaharlal Nehru Stadium, Delhi - DPCC",14-04-2026 09:00:00,28.580280,77.233829,CO,10,102,61
India,Delhi,Delhi,"Jawaharlal Nehru Stadium, Delhi - DPCC",14-04-2026 09:00:00,28.580280,77.233829,OZONE,2,90,9
India,Delhi,Delhi,"R K Puram, Delhi - DPCC",14-04-2026 09:00:00,28.563262,77.186937,NH3,6,10,9
India,Delhi,Delhi,"Rohini, Delhi - DPCC",14-04-2026 09:00:00,28.732528,77.119920,OZONE,6,71,11
India,Delhi,Delhi,"Shadipur, Delhi - CPCB",14-04-2026 09:00:00,28.6514781,77.1473105,SO2,10,20,15
India,Delhi,Delhi,"Sirifort, Delhi - CPCB",14-04-2026 09:00:00,28.5504249,77.2159377,PM10,81,280,140
India,Delhi,Delhi,"Sirifort, Delhi - CPCB",14-04-2026 09:00:00,28.5504249,77.2159377,NO2,22,32,27
India,Delhi,Delhi,"Sonia Vihar, Delhi - DPCC",14-04-2026 09:00:00,28.710508,77.249485,NH3,5,9,7
India,Delhi,Delhi,"Sri Aurobindo Marg, Delhi - DPCC",14-04-2026 09:00:00,28.531346,77.190156,PM2.5,27,140,71
India,Delhi,Delhi,"Sri Aurobindo Marg, Delhi - DPCC",14-04-2026 09:00:00,28.531346,77.190156,NO2,4,88,41
India,Delhi,Delhi,"Sri Aurobindo Marg, Delhi - DPCC",14-04-2026 09:00:00,28.531346,77.190156,NH3,2,6,5
India,Delhi,Delhi,"Sri Aurobindo Marg, Delhi - DPCC",14-04-2026 09:00:00,28.531346,77.190156,OZONE,2,57,6
India,Delhi,Delhi,"CRRI Mathura Road, Delhi - IMD",14-04-2026 09:00:00,28.5512005,77.2735737,CO,26,111,103
India,Delhi,Delhi,"Chandni Chowk, Delhi - IITM",14-04-2026 09:00:00,28.656756,77.227234,PM2.5,41,88,65
India,Delhi,Delhi,"Chandni Chowk, Delhi - IITM",14-04-2026 09:00:00,28.656756,77.227234,PM10,100,227,144
India,Delhi,Delhi,"Major Dhyan Chand National Stadium, Delhi - DPCC",14-04-2026 09:00:00,28.611281,77.237738,SO2,7,56,16
India,Delhi,Delhi,"Pusa, Delhi - DPCC",14-04-2026 09:00:00,28.639652,77.146275,OZONE,4,40,11
India,Gujarat,Ahmedabad,"SAC ISRO Satellite, Ahmedabad - IITM",14-04-2026 09:00:00,23.023389,72.515201,PM2.5,79,161,104
India,Gujarat,Ahmedabad,"SAC ISRO Satellite, Ahmedabad - IITM",14-04-2026 09:00:00,23.023389,72.515201,NO2,7,28,13
India,Gujarat,Ahmedabad,"SAC ISRO Satellite, Ahmedabad - IITM",14-04-2026 09:00:00,23.023389,72.515201,CO,1,43,4
India,Gujarat,Ahmedabad,"SVPI Airport Hansol, Ahmedabad - IITM",14-04-2026 09:00:00,23.076793,72.627874,PM2.5,49,93,71
India,Gujarat,Ahmedabad,"SVPI Airport Hansol, Ahmedabad - IITM",14-04-2026 09:00:00,23.076793,72.627874,PM10,76,161,117
India,Gujarat,Ankleshwar,"GIDC, Ankleshwar - GPCB",14-04-2026 09:00:00,21.613267,73.010555,NH3,6,8,7
India,Gujarat,Ankleshwar,"GIDC, Ankleshwar - GPCB",14-04-2026 09:00:00,21.613267,73.010555,SO2,17,24,19
India,Gujarat,Bhavnagar,"Vidhyanagar, Bhavnagar - Nexteng Enviro",14-04-2026 09:00:00,21.755417,72.139056,PM2.5,35,77,55
India,Gujarat,Bhavnagar,"Vidhyanagar, Bhavnagar - Nexteng Enviro",14-04-2026 09:00:00,21.755417,72.139056,PM10,94,137,115
India,Gujarat,Bhavnagar,"Vidhyanagar, Bhavnagar - Nexteng Enviro",14-04-2026 09:00:00,21.755417,72.139056,OZONE,4,36,8
India,Gujarat,Gandhinagar,"IIPHG Lekawada, Gandhinagar - IITM",14-04-2026 09:00:00,23.243639,72.68994,NO2,7,26,15
India,Gujarat,Gandhinagar,"IIPHG Lekawada, Gandhinagar - IITM",14-04-2026 09:00:00,23.243639,72.68994,NH3,1,2,1
India,Gujarat,Gandhinagar,"IIPHG Lekawada, Gandhinagar - IITM",14-04-2026 09:00:00,23.243639,72.68994,SO2,3,13,6
India,Gujarat,Surat,"Science Center, Surat - SMC",14-04-2026 09:00:00,21.170046,72.795405,PM10,72,184,103
India,Gujarat,Vadodara,"Bapunagar, Vadodara - Nexteng Enviro",14-04-2026 09:00:00,22.320153,73.216285,PM2.5,39,237,93
India,Gujarat,Vadodara,"Bapunagar, Vadodara - Nexteng Enviro",14-04-2026 09:00:00,22.320153,73.216285,PM10,55,183,103
India,Gujarat,Vadodara,"Bapunagar, Vadodara - Nexteng Enviro",14-04-2026 09:00:00,22.320153,73.216285,NO2,12,27,17
India,Gujarat,Vadodara,"Bapunagar, Vadodara - Nexteng Enviro",14-04-2026 09:00:00,22.320153,73.216285,CO,76,110,97
India,Gujarat,Vadodara,"Bapunagar, Vadodara - Nexteng Enviro",14-04-2026 09:00:00,22.320153,73.216285,OZONE,2,17,3
India,Gujarat,Vapi,"Phase-1 GIDC, Vapi - GPCB",14-04-2026 09:00:00,20.362421,72.918013,OZONE,NA,NA,NA
India,Gujarat,Vatva,"Phase-4 GIDC, Vatva - GPCB",14-04-2026 09:00:00,22.969611,72.643500,PM10,99,198,134
India,Gujarat,Vatva,"Phase-4 GIDC, Vatva - GPCB",14-04-2026 09:00:00,22.969611,72.643500,NO2,44,67,60
India,Haryana,Ambala,"Patti Mehar, Ambala - HSPCB",14-04-2026 09:00:00,30.379589,76.778328,NH3,7,8,8
India,Haryana,Ambala,"Patti Mehar, Ambala - HSPCB",14-04-2026 09:00:00,30.379589,76.778328,SO2,15,32,22
India,Haryana,Fatehabad,"Huda Sector, Fatehabad - HSPCB",14-04-2026 09:00:00,29.503664,75.467934,OZONE,21,27,25
India,Haryana,Gurugram,"NISE Gwal Pahari, Gurugram - IMD",14-04-2026 09:00:00,28.422681,77.148944,NO2,9,60,37
India,Haryana,Gurugram,"Sector-51, Gurugram - HSPCB",14-04-2026 09:00:00,28.4227,77.0667,NO2,4,10,6
India,Haryana,Gurugram,"Sector-51, Gurugram - HSPCB",14-04-2026 09:00:00,28.4227,77.0667,SO2,2,6,4
India,Haryana,Gurugram,"Vikas Sadan, Gurugram - HSPCB",14-04-2026 09:00:00,28.4501238,77.0263051,NO2,9,46,26
India,Haryana,Gurugram,"Vikas Sadan, Gurugram - HSPCB",14-04-2026 09:00:00,28.4501238,77.0263051,CO,66,114,97
India,Haryana,Gurugram,"Vikas Sadan, Gurugram - HSPCB",14-04-2026 09:00:00,28.4501238,77.0263051,OZONE,5,31,12
India,Haryana,Hisar,"Urban Estate-II, Hisar - HSPCB",14-04-2026 09:00:00,29.140560,75.744941,PM2.5,NA,NA,NA
India,Haryana,Hisar,"Urban Estate-II, Hisar - HSPCB",14-04-2026 09:00:00,29.140560,75.744941,CO,NA,NA,NA
India,Haryana,Hisar,"Urban Estate-II, Hisar - HSPCB",14-04-2026 09:00:00,29.140560,75.744941,OZONE,NA,NA,NA
India,Gujarat,Mehsana,"Sadanand Nagar, Mehsana - Nexteng Enviro",14-04-2026 09:00:00,23.593150,72.372792,PM2.5,17,127,57
India,Gujarat,Mehsana,"Sadanand Nagar, Mehsana - Nexteng Enviro",14-04-2026 09:00:00,23.593150,72.372792,PM10,66,185,120
India,Gujarat,Nandesari,"GIDC, Nandesari - Nandesari Ind. Association",14-04-2026 09:00:00,22.410802,73.097923,PM2.5,55,301,148
India,Gujarat,Nandesari,"GIDC, Nandesari - Nandesari Ind. Association",14-04-2026 09:00:00,22.410802,73.097923,SO2,3,16,5
India,Gujarat,Rajkot,"Mavdi, Rajkot - Nexteng Enviro ",14-04-2026 09:00:00,22.248853,70.776774,NH3,1,1,1
India,Gujarat,Rajkot,"Mavdi, Rajkot - Nexteng Enviro ",14-04-2026 09:00:00,22.248853,70.776774,SO2,14,46,24
India,Gujarat,Rajkot,"Mavdi, Rajkot - Nexteng Enviro ",14-04-2026 09:00:00,22.248853,70.776774,OZONE,5,13,6
India,Gujarat,Surat,"Katargam, Surat - Nexteng Enviro",14-04-2026 09:00:00,21.217779 ,72.834787 ,PM2.5,20,191,67
India,Gujarat,Ahmedabad,"Chandkheda, Ahmedabad - IITM",14-04-2026 09:00:00,23.107969,72.574648,NH3,4,9,6
India,Gujarat,Ahmedabad,"Chandkheda, Ahmedabad - IITM",14-04-2026 09:00:00,23.107969,72.574648,OZONE,8,170,17
India,Gujarat,Ahmedabad,"Gyaspur, Ahmedabad - IITM",14-04-2026 09:00:00,22.977134,72.553024,NH3,4,17,9
India,Gujarat,Ahmedabad,"Raikhad, Ahmedabad - IITM",14-04-2026 09:00:00,23.020509,72.579261,PM10,85,154,127
India,Gujarat,Ahmedabad,"Raikhad, Ahmedabad - IITM",14-04-2026 09:00:00,23.020509,72.579261,OZONE,2,56,9
India,Gujarat,Ahmedabad,"Rakhial, Ahmedabad - IITM",14-04-2026 09:00:00,23.016834,72.625775,SO2,9,115,36
India,Gujarat,Ahmedabad,"Rakhial, Ahmedabad - IITM",14-04-2026 09:00:00,23.016834,72.625775,CO,26,115,45
India,Gujarat,Ahmedabad,"SAC ISRO Bopal, Ahmedabad - IITM",14-04-2026 09:00:00,23.041137,72.456691,PM2.5,73,198,99
India,Gujarat,Ahmedabad,"SAC ISRO Bopal, Ahmedabad - IITM",14-04-2026 09:00:00,23.041137,72.456691,NH3,3,7,5
India,Haryana,Dharuhera,"Municipal Corporation Office, Dharuhera -  HSPCB",14-04-2026 09:00:00,28.206800,76.799700,PM2.5,47,282,127
India,Haryana,Faridabad,"New Industrial Town, Faridabad - HSPCB",14-04-2026 09:00:00,28.39072,77.30059,NO2,24,27,25
India,Haryana,Faridabad,"New Industrial Town, Faridabad - HSPCB",14-04-2026 09:00:00,28.39072,77.30059,OZONE,14,18,15
India,Haryana,Faridabad,"Sector 30, Faridabad - HSPCB",14-04-2026 09:00:00,28.4417,77.3217,PM10,60,434,118
India,Haryana,Faridabad,"Sector 30, Faridabad - HSPCB",14-04-2026 09:00:00,28.4417,77.3217,NO2,36,39,37
India,Haryana,Fatehabad,"Huda Sector, Fatehabad - HSPCB",14-04-2026 09:00:00,29.503664,75.467934,PM2.5,37,84,62
India,Haryana,Jind,"Police Lines, Jind - HSPCB",14-04-2026 09:00:00,29.307814,76.337619,OZONE,14,63,25
India,Haryana,Kaithal,"Rishi Nagar, Kaithal - HSPCB",14-04-2026 09:00:00,29.8006,76.4155,CO,2,68,21
India,Haryana,Kaithal,"Rishi Nagar, Kaithal - HSPCB",14-04-2026 09:00:00,29.8006,76.4155,OZONE,8,17,10
India,Haryana,Karnal,"Sector-12, Karnal - HSPCB",14-04-2026 09:00:00,29.695300,77.002700,CO,12,20,14
India,Haryana,Ballabgarh,"Nathu Colony, Ballabgarh - HSPCB",14-04-2026 09:00:00,28.3419248,77.319699,PM10,173,419,254
India,Haryana,Ballabgarh,"Nathu Colony, Ballabgarh - HSPCB",14-04-2026 09:00:00,28.3419248,77.319699,SO2,4,9,6
India,Haryana,Bhiwani,"H.B. Colony, Bhiwani - HSPCB",14-04-2026 09:00:00,28.806223,76.141105,OZONE,2,13,7
India,Delhi,Delhi,"Vivek Vihar, Delhi - DPCC",14-04-2026 09:00:00,28.672342,77.315260,CO,42,107,63
India,Delhi,Delhi,"Wazirpur, Delhi - DPCC",14-04-2026 09:00:00,28.699793,77.165453,NH3,6,9,7
India,Karnataka,Chikkamagaluru,"Kalyana Nagara, Chikkamagaluru - KSPCB",14-04-2026 09:00:00,13.328028,75.797056,PM10,35,149,68
India,Karnataka,Dharwad,"Kalabhavan, Dharwad - KSPCB",14-04-2026 09:00:00,15.459706,75.008381,NO2,31,31,31
India,Karnataka,Hubballi,"Lingaraj Nagar, Hubballi - KSPCB",14-04-2026 09:00:00,15.3714823,75.1160168,NH3,1,2,2
India,Karnataka,Hubballi,"Lingaraj Nagar, Hubballi - KSPCB",14-04-2026 09:00:00,15.3714823,75.1160168,CO,13,26,21
India,Karnataka,Kalaburagi,"Mahatma Basaveswar Colony, Kalaburgi - KSPCB",14-04-2026 09:00:00,17.336318,76.847397,NH3,2,3,3
India,Karnataka,Madikeri,"Stuart Hill, Madikeri - KSPCB",14-04-2026 09:00:00,12.415911,75.735050,CO,8,22,15
India,Karnataka,Madikeri,"Stuart Hill, Madikeri - KSPCB",14-04-2026 09:00:00,12.415911,75.735050,OZONE,1,5,3
India,Haryana,Sonipat,"Murthal, Sonipat - HSPCB",14-04-2026 09:00:00,29.027200,77.062100,PM2.5,61,301,157
India,Haryana,Sonipat,"Murthal, Sonipat - HSPCB",14-04-2026 09:00:00,29.027200,77.062100,PM10,107,199,154
India,Haryana,Yamuna Nagar,"Gobind Pura, Yamuna Nagar - HSPCB",14-04-2026 09:00:00,30.1480566,77.2893471,NO2,11,19,15
India,Himachal Pradesh,Baddi,"HIMUDA Complex Phase-1, Baddi - HPPCB",14-04-2026 09:00:00,30.943887,76.801991,PM2.5,63,227,106
India,Himachal Pradesh,Baddi,"HIMUDA Complex Phase-1, Baddi - HPPCB",14-04-2026 09:00:00,30.943887,76.801991,PM10,109,244,149
India,Himachal Pradesh,Baddi,"HIMUDA Complex Phase-1, Baddi - HPPCB",14-04-2026 09:00:00,30.943887,76.801991,CO,40,77,58
India,Jharkhand,Dhanbad,"Sardar Patel Nagar, Dhanbad - JSPCB",14-04-2026 09:00:00,23.80569,86.44268,PM2.5,NA,NA,NA
India,Karnataka,Bengaluru,"Hebbal, Bengaluru - KSPCB",14-04-2026 09:00:00,13.029152,77.585901,SO2,3,16,9
India,Karnataka,Bengaluru,"Hebbal, Bengaluru - KSPCB",14-04-2026 09:00:00,13.029152,77.585901,CO,5,48,22
India,Karnataka,Bengaluru,"Hombegowda Nagar, Bengaluru - KSPCB",14-04-2026 09:00:00,12.938539,77.590100,NH3,3,4,3
India,Karnataka,Bengaluru,"Jayanagar 5th Block, Bengaluru - KSPCB",14-04-2026 09:00:00,12.920984,77.584908,SO2,8,40,23
India,Karnataka,Bengaluru,"Jayanagar 5th Block, Bengaluru - KSPCB",14-04-2026 09:00:00,12.920984,77.584908,CO,6,74,10
India,Karnataka,Bengaluru,"Jigani, Bengaluru - KSPCB",14-04-2026 09:00:00,12.7816279,77.6299145,CO,28,44,28
India,Karnataka,Bengaluru,"Peenya, Bengaluru - CPCB",14-04-2026 09:00:00,13.0270199,77.494094,NH3,3,5,3
India,Haryana,Mandikhera,"General Hospital, Mandikhera(Nuh) - HSPCB",14-04-2026 09:00:00,27.9002,76.9938,NH3,9,11,10
India,Haryana,Manesar,"Sector-2 IMT, Manesar - HSPCB",14-04-2026 09:00:00,28.360699,76.936090,NO2,27,43,38
India,Haryana,Manesar,"Sector-2 IMT, Manesar - HSPCB",14-04-2026 09:00:00,28.360699,76.936090,SO2,2,7,4
India,Haryana,Narnaul,"Shastri Nagar, Narnaul - HSPCB",14-04-2026 09:00:00,28.060249,76.113115,SO2,8,9,8
India,Haryana,Narnaul,"Shastri Nagar, Narnaul - HSPCB",14-04-2026 09:00:00,28.060249,76.113115,CO,21,54,48
India,Haryana,Palwal,"Shyam Nagar, Palwal - HSPCB",14-04-2026 09:00:00,28.1485564,77.3320667,PM2.5,45,69,56
India,Karnataka,Bengaluru,"RVCE-Mailasandra, Bengaluru - KSPCB",14-04-2026 09:00:00,12.921418,77.502466,PM10,86,500,155
India,Karnataka,Bengaluru,"RVCE-Mailasandra, Bengaluru - KSPCB",14-04-2026 09:00:00,12.921418,77.502466,SO2,NA,NA,NA
India,Karnataka,Bengaluru,"Shivapura_Peenya, Bengaluru - KSPCB",14-04-2026 09:00:00,13.0246342,77.5080115,NH3,4,4,4
India,Karnataka,Chamarajanagar,"Urban, Chamarajanagar - KSPCB",14-04-2026 09:00:00,11.55358,76.55521,NO2,13,35,22
India,Karnataka,Chikkaballapur,"Chikkaballapur Rural, Chikkaballapur - KSPCB",14-04-2026 09:00:00,13.428828,77.731418,PM10,64,117,91
India,Karnataka,Bagalkot,"Vidayagiri, Bagalkot - KSPCB",14-04-2026 09:00:00,16.172806,75.659694,PM10,53,54,54
India,Karnataka,Bengaluru,"BWSSB Kadabesanahalli, Bengaluru - CPCB",14-04-2026 09:00:00,12.9352049,77.6814488,PM10,13,105,66
India,Karnataka,Bengaluru,"Bapuji Nagar, Bengaluru - KSPCB",14-04-2026 09:00:00,12.951913,77.539784,PM2.5,33,78,56
India,Karnataka,Bengaluru,"City Railway Station, Bengaluru - KSPCB",14-04-2026 09:00:00,12.9756843,77.5660749,SO2,14,15,15
India,Haryana,Panchgaon,"Amity University, Panchgaon - IITM",14-04-2026 09:00:00,28.3153,76.9143,CO,26,66,48
India,Haryana,Panchkula,"Sector-6, Panchkula - HSPCB ",14-04-2026 09:00:00,30.7057778,76.8531805555555,CO,16,56,50
India,Haryana,Panchkula,"Sector-6, Panchkula - HSPCB ",14-04-2026 09:00:00,30.7057778,76.8531805555555,OZONE,5,57,10
India,Jharkhand,Dhanbad,"Sardar Patel Nagar, Dhanbad - JSPCB",14-04-2026 09:00:00,23.80569,86.44268,OZONE,1,114,10
India,Jharkhand,Jorapokhar,"Tata Stadium, Jorapokhar - JSPCB",14-04-2026 09:00:00,23.707909,86.414670,PM10,104,198,130
India,Jharkhand,Jorapokhar,"Tata Stadium, Jorapokhar - JSPCB",14-04-2026 09:00:00,23.707909,86.414670,SO2,4,4,4
India,Kerala,Thrissur,"Corporation Ground, Thrissur - Kerala PCB",14-04-2026 09:00:00,10.532400,76.215900,PM10,65,81,74
India,Kerala,Thrissur,"Corporation Ground, Thrissur - Kerala PCB",14-04-2026 09:00:00,10.532400,76.215900,OZONE,29,30,29
India,Madhya Pradesh,Bhopal,"Idgah Hills, Bhopal - MPPCB",14-04-2026 09:00:00,23.264759,77.381568,PM10,88,145,113
India,Madhya Pradesh,Bhopal,"Idgah Hills, Bhopal - MPPCB",14-04-2026 09:00:00,23.264759,77.381568,CO,4,27,13
India,Madhya Pradesh,Bhopal,"Idgah Hills, Bhopal - MPPCB",14-04-2026 09:00:00,23.264759,77.381568,OZONE,45,91,56
India,Madhya Pradesh,Dewas,"Bhopal Chauraha, Dewas - MPPCB",14-04-2026 09:00:00,22.9682591,76.064118,PM10,96,435,164
India,Madhya Pradesh,Dewas,"Bhopal Chauraha, Dewas - MPPCB",14-04-2026 09:00:00,22.9682591,76.064118,NO2,62,138,105
India,Madhya Pradesh,Jabalpur,"Govindh Bhavan Colony, Jabalpur - JMC",14-04-2026 09:00:00,23.163174,79.973061,NO2,5,13,10
India,Madhya Pradesh,Jabalpur,"Gupteshwar, Jabalpur - JMC",14-04-2026 09:00:00,23.142888,79.916147,NO2,8,88,29
India,Madhya Pradesh,Jabalpur,"Marhatal, Jabalpur - MPPCB",14-04-2026 09:00:00,23.168606,79.932247,OZONE,11,59,24
India,Madhya Pradesh,Jabalpur,"Suhagi, Jabalpur - JMC",14-04-2026 09:00:00,23.218135,79.957770,PM2.5,20,98,53
India,Madhya Pradesh,Katni,"Gole Bazar, Katni - MPPCB",14-04-2026 09:00:00,23.50016,80.23284,PM10,68,249,133
India,Madhya Pradesh,Katni,"Gole Bazar, Katni - MPPCB",14-04-2026 09:00:00,23.50016,80.23284,OZONE,12,122,25
India,Karnataka,Mangalore,"Kadri, Mangalore - KSPCB",14-04-2026 09:00:00,12.889250,74.853000,NH3,1,2,1
India,Karnataka,Mysuru,"Hebbal 1st Stage, Mysuru - KSPCB",14-04-2026 09:00:00,12.21041,76.37376,NO2,7,29,17
India,Karnataka,Shivamogga,"Vinoba Nagara, Shivamogga - KSPCB",14-04-2026 09:00:00,13.940000,75.555917,PM10,50,83,58
India,Karnataka,Shivamogga,"Vinoba Nagara, Shivamogga - KSPCB",14-04-2026 09:00:00,13.940000,75.555917,NO2,20,31,28
India,Karnataka,Shivamogga,"Vinoba Nagara, Shivamogga - KSPCB",14-04-2026 09:00:00,13.940000,75.555917,SO2,2,5,3
India,Karnataka,Tumakuru,"Thimmalapura, Tumakuru - KSPCB",14-04-2026 09:00:00,13.377516,77.099072,PM2.5,NA,NA,NA
India,Madhya Pradesh,Dewas,"Bhopal Chauraha, Dewas - MPPCB",14-04-2026 09:00:00,22.9682591,76.064118,NH3,1,6,3
India,Madhya Pradesh,Gwalior,"City Center, Gwalior - MPPCB",14-04-2026 09:00:00,26.203442,78.193251,CO,3,118,40
India,Madhya Pradesh,Gwalior,"Maharaj Bada, Gwalior - MPPCB",14-04-2026 09:00:00,26.200388,78.147714,OZONE,8,216,46
India,Madhya Pradesh,Indore,"Airport Area, Indore - IMC",14-04-2026 09:00:00,22.7289,75.8076,CO,52,72,68
India,Madhya Pradesh,Indore,"Chhoti Gwaltoli, Indore - MPPCB",14-04-2026 09:00:00,22.4310,75.5213,PM2.5,46,326,189
India,Madhya Pradesh,Ratlam,"Shasthri Nagar, Ratlam - IPCA Lab",14-04-2026 09:00:00,23.331731,75.045981,PM10,72,244,133
India,Madhya Pradesh,Satna,"Bandhavgar Colony, Satna - Birla Cement",14-04-2026 09:00:00,24.58434363,80.8549414,PM10,70,71,70
India,Madhya Pradesh,Satna,"Bandhavgar Colony, Satna - Birla Cement",14-04-2026 09:00:00,24.58434363,80.8549414,CO,16,50,28
India,Madhya Pradesh,Singrauli,"Suryakiran Bhawan NCL, Singrauli - MPPCB",14-04-2026 09:00:00,24.108970,82.645580,NH3,1,3,2
India,Karnataka,Yadgir,"Collector Office, Yadgir - KSPCB",14-04-2026 09:00:00,16.7602,77.1428,NO2,13,33,19
India,Kerala,Kannur,"Thavakkara, Kannur - Kerala PCB",14-04-2026 09:00:00,11.875000,75.373200,SO2,NA,NA,NA
India,Kerala,Kannur,"Thavakkara, Kannur - Kerala PCB",14-04-2026 09:00:00,11.875000,75.373200,CO,12,16,15
India,Kerala,Kollam,"Polayathode, Kollam - Kerala PCB",14-04-2026 09:00:00,8.8787,76.6073,PM2.5,42,52,46
India,Kerala,Kollam,"Polayathode, Kollam - Kerala PCB",14-04-2026 09:00:00,8.8787,76.6073,NO2,8,10,9
India,Madhya Pradesh,Indore,"Maguda Nagar, Indore - IMC",14-04-2026 09:00:00,22.7524,75.8872,SO2,29,38,32
India,Madhya Pradesh,Indore,"Regional Park, Indore - IMC",14-04-2026 09:00:00,22.6780,75.8559,SO2,58,63,60
India,Madhya Pradesh,Indore,"Residency Area, Indore - IMC",14-04-2026 09:00:00,22.7084,75.8815,OZONE,5,22,6
India,Madhya Pradesh,Jabalpur,"Govindh Bhavan Colony, Jabalpur - JMC",14-04-2026 09:00:00,23.163174,79.973061,PM2.5,18,123,45
India,Madhya Pradesh,Pithampur,"Sector-2 Industrial Area, Pithampur - MPPCB",14-04-2026 09:00:00,22.624758,75.675238,SO2,3,84,20
India,Madhya Pradesh,Pithampur,"Sector-2 Industrial Area, Pithampur - MPPCB",14-04-2026 09:00:00,22.624758,75.675238,OZONE,72,212,102
India,Karnataka,Tumakuru,"Thimmalapura, Tumakuru - KSPCB",14-04-2026 09:00:00,13.377516,77.099072,OZONE,23,23,23
India,Maharashtra,Latur,"Sawe Wadi, Latur - MPCB",14-04-2026 09:00:00,18.39963,76.57452,CO,2,117,25
India,Maharashtra,Mahad,"Kamble Tarf Birwadi, Mahad - MPCB",14-04-2026 09:00:00,18.1023399,73.4783687,NO2,5,25,8
India,Maharashtra,Mahad,"Kamble Tarf Birwadi, Mahad - MPCB",14-04-2026 09:00:00,18.1023399,73.4783687,NH3,3,8,6
India,Maharashtra,Malegaon,"Mahesh Nagar, Malegaon - MPCB",14-04-2026 09:00:00,20.555712,74.529236,PM2.5,NA,NA,NA
India,Maharashtra,Malegaon,"Mahesh Nagar, Malegaon - MPCB",14-04-2026 09:00:00,20.555712,74.529236,NH3,NA,NA,NA
India,Maharashtra,Malegaon,"Mahesh Nagar, Malegaon - MPCB",14-04-2026 09:00:00,20.555712,74.529236,SO2,NA,NA,NA
India,Maharashtra,Mira-Bhayandar,"Bhayandar West, Mira-Bhayandar - MPCB",14-04-2026 09:00:00,19.296481,72.840923,PM10,53,83,65
India,Maharashtra,Mira-Bhayandar,"Bhayandar West, Mira-Bhayandar - MPCB",14-04-2026 09:00:00,19.296481,72.840923,NH3,4,7,5
India,Maharashtra,Mira-Bhayandar,"Bhayandar West, Mira-Bhayandar - MPCB",14-04-2026 09:00:00,19.296481,72.840923,OZONE,NA,NA,NA
India,Maharashtra,Mumbai,"Bandra Kurla Complex, Mumbai - MPCB",14-04-2026 09:00:00,19.065931,72.862131,PM2.5,56,81,69
India,Maharashtra,Mumbai,"Bandra Kurla Complex, Mumbai - MPCB",14-04-2026 09:00:00,19.065931,72.862131,PM10,85,115,100
India,Maharashtra,Mumbai,"Bandra Kurla Complex, Mumbai - MPCB",14-04-2026 09:00:00,19.065931,72.862131,CO,7,14,10
India,Maharashtra,Amravati,"Shri Shivaji Science College, Amravati - MPCB",14-04-2026 09:00:00,20.939198,77.765701,OZONE,5,77,23
India,Maharashtra,Aurangabad,"MIDC Chilkalthana, Aurangabad - MPCB",14-04-2026 09:00:00,19.875620,75.387310,CO,7,12,10
India,Maharashtra,Aurangabad,"More Chowk Waluj, Aurangabad - MPCB",14-04-2026 09:00:00,19.8389439,75.244448,PM2.5,48,85,66
India,Maharashtra,Aurangabad,"Rachnakar Colony, Aurangabad - MPCB",14-04-2026 09:00:00,19.863756,75.321188,PM2.5,55,143,74
India,Maharashtra,Aurangabad,"Rachnakar Colony, Aurangabad - MPCB",14-04-2026 09:00:00,19.863756,75.321188,SO2,3,21,14
India,Maharashtra,Aurangabad,"Rachnakar Colony, Aurangabad - MPCB",14-04-2026 09:00:00,19.863756,75.321188,CO,8,60,30
India,Maharashtra,Badlapur,"Katrap, Badlapur - MPCB",14-04-2026 09:00:00,19.16485,73.23409,PM2.5,43,93,73
India,Maharashtra,Badlapur,"Katrap, Badlapur - MPCB",14-04-2026 09:00:00,19.16485,73.23409,NO2,11,34,24
India,Maharashtra,Beed,"Bir, Beed - MPCB",14-04-2026 09:00:00,18.988474,75.753873,SO2,5,32,15
India,Maharashtra,Hingoli,"Ashta Vinayak Nagar, Hingoli - MPCB",14-04-2026 09:00:00,19.710842,77.151824,SO2,6,28,11
India,Maharashtra,Jalgaon,"Prabhat Colony, Jalgaon - MPCB",14-04-2026 09:00:00,21.001264,75.565602,PM10,19,137,101
India,Maharashtra,Jalgaon,"Prabhat Colony, Jalgaon - MPCB",14-04-2026 09:00:00,21.001264,75.565602,OZONE,46,126,60
India,Maharashtra,Jalna,"Old MIDC, Jalna - MPCB",14-04-2026 09:00:00,19.854616,75.905894,NO2,18,28,21
India,Maharashtra,Jalna,"Old MIDC, Jalna - MPCB",14-04-2026 09:00:00,19.854616,75.905894,SO2,8,16,11
India,Maharashtra,Jalna,"Old MIDC, Jalna - MPCB",14-04-2026 09:00:00,19.854616,75.905894,OZONE,12,76,49
India,Maharashtra,Kolhapur,"Shivaji University, Kolhapur - MPCB",14-04-2026 09:00:00,16.6870449,74.2505872,SO2,NA,NA,NA
India,Maharashtra,Latur,"Sawe Wadi, Latur - MPCB",14-04-2026 09:00:00,18.39963,76.57452,PM2.5,54,94,69
India,Maharashtra,Latur,"Sawe Wadi, Latur - MPCB",14-04-2026 09:00:00,18.39963,76.57452,PM10,44,90,68
India,Madhya Pradesh,Ujjain,"Mahashweta Nagar, Ujjain - MPPCB",14-04-2026 09:00:00,23.1633321,75.800225,NH3,NA,NA,NA
India,Maharashtra,Ahmednagar,"Tarakpur, Ahmednagar - MPCB",14-04-2026 09:00:00,19.10122,74.73339,CO,NA,NA,NA
India,Maharashtra,Ambernath,"Chinchpada, Ambernath - MPCB",14-04-2026 09:00:00,19.2157840,73.1997810,OZONE,3,68,6
India,Maharashtra,Amravati,"Shivneri Colony, Amravati - MPCB",14-04-2026 09:00:00,20.9402359,77.7895248,PM2.5,7,110,66
India,Maharashtra,Amravati,"Shri Shivaji Science College, Amravati - MPCB",14-04-2026 09:00:00,20.939198,77.765701,PM10,98,141,118
India,Maharashtra,Amravati,"Shri Shivaji Science College, Amravati - MPCB",14-04-2026 09:00:00,20.939198,77.765701,NO2,5,62,23
India,Maharashtra,Belapur,"CBD Belapur, Belapur - MPCB",14-04-2026 09:00:00,19.0243902,73.0406721,PM2.5,24,180,77
India,Maharashtra,Belapur,"CBD Belapur, Belapur - MPCB",14-04-2026 09:00:00,19.0243902,73.0406721,NO2,27,92,55
India,Maharashtra,Belapur,"CBD Belapur, Belapur - MPCB",14-04-2026 09:00:00,19.0243902,73.0406721,SO2,13,14,13
India,Maharashtra,Bhiwandi,"Gokul Nagar, Bhiwandi - MPCB",14-04-2026 09:00:00,19.309073,73.057223,PM2.5,44,217,94
India,Maharashtra,Boisar,"Khaira, Boisar - MPCB",14-04-2026 09:00:00,19.786089,72.757971,SO2,16,25,22
India,Maharashtra,Chandrapur,"Chauhan Colony, Chandrapur - MPCB",14-04-2026 09:00:00,19.962900,79.298714,PM10,112,158,138
India,Maharashtra,Chandrapur,"MIDC Khutala, Chandrapur - MPCB",14-04-2026 09:00:00,19.9775302,79.2337086,PM10,92,160,116
India,Maharashtra,Mumbai,"Chhatrapati Shivaji Intl. Airport (T2), Mumbai - MPCB",14-04-2026 09:00:00,19.10078,72.87462,PM10,69,110,85
India,Maharashtra,Mumbai,"Deonar, Mumbai - IITM",14-04-2026 09:00:00,19.04946,72.9230,PM2.5,55,118,76
India,Maharashtra,Mumbai,"Deonar, Mumbai - IITM",14-04-2026 09:00:00,19.04946,72.9230,SO2,1,3,2
India,Maharashtra,Mumbai,"Ghatkopar, Mumbai - BMC",14-04-2026 09:00:00,19.083694,72.920967,PM10,88,149,113
India,Maharashtra,Mumbai,"Ghatkopar, Mumbai - BMC",14-04-2026 09:00:00,19.083694,72.920967,CO,18,28,21
India,Maharashtra,Mumbai,"Kandivali East, Mumbai - MPCB",14-04-2026 09:00:00,19.205800,72.868200,PM2.5,10,29,17
India,Maharashtra,Mumbai,"Kherwadi_Bandra East, Mumbai - MPCB",14-04-2026 09:00:00,19.0632143,72.8456324,SO2,4,5,4
India,Maharashtra,Mumbai,"Khindipada-Bhandup West, Mumbai - IITM",14-04-2026 09:00:00,19.1653323,72.922099,CO,17,34,28
India,Maharashtra,Mumbai,"Kurla, Mumbai - MPCB",14-04-2026 09:00:00,19.0863,72.8888,PM10,77,133,105
India,Maharashtra,Mumbai,"Kurla, Mumbai - MPCB",14-04-2026 09:00:00,19.0863,72.8888,CO,9,31,13
India,Maharashtra,Mumbai,"Mazgaon, Mumbai - IITM",14-04-2026 09:00:00,18.96702,72.84214,PM2.5,71,97,81
India,Maharashtra,Mumbai,"Borivali East, Mumbai - IITM",14-04-2026 09:00:00,19.23241,72.86895,PM10,106,139,125
India,Maharashtra,Mumbai,"Borivali East, Mumbai - IITM",14-04-2026 09:00:00,19.23241,72.86895,NH3,4,4,4
India,Maharashtra,Mumbai,"Byculla, Mumbai - BMC",14-04-2026 09:00:00,18.9767,72.8380,PM10,68,109,92
India,Maharashtra,Mumbai,"Byculla, Mumbai - BMC",14-04-2026 09:00:00,18.9767,72.8380,OZONE,1,31,9
India,Maharashtra,Mumbai,"Chakala-Andheri East, Mumbai - IITM",14-04-2026 09:00:00,19.11074,72.86084,PM10,97,174,123
India,Maharashtra,Dhule,"Deopur, Dhule - MPCB",14-04-2026 09:00:00,20.918946,74.776388,NH3,1,2,1
India,Maharashtra,Dhule,"Deopur, Dhule - MPCB",14-04-2026 09:00:00,20.918946,74.776388,SO2,5,25,14
India,Maharashtra,Dombivli,"Kalu Nagar, Dombivli - MPCB",14-04-2026 09:00:00,19.2268427 ,73.0788456 ,PM2.5,22,60,32
India,Maharashtra,Dombivli,"Kalu Nagar, Dombivli - MPCB",14-04-2026 09:00:00,19.2268427 ,73.0788456 ,NO2,16,45,27
India,Maharashtra,Dombivli,"Kalu Nagar, Dombivli - MPCB",14-04-2026 09:00:00,19.2268427 ,73.0788456 ,SO2,1,12,4
India,Maharashtra,Nashik,"MIDC Ambad, Nashik - MPCB",14-04-2026 09:00:00,19.950220,73.731480,CO,35,40,38
India,Maharashtra,Nashik,"Pandav Nagari, Nashik - MPCB",14-04-2026 09:00:00,19.9591346,73.7788008,PM2.5,51,115,76
India,Maharashtra,Nashik,"Pandav Nagari, Nashik - MPCB",14-04-2026 09:00:00,19.9591346,73.7788008,NO2,6,17,10
India,Maharashtra,Navi Mumbai,"Kopripada-Vashi, Navi Mumbai - MPCB",14-04-2026 09:00:00,19.090337,73.014232,SO2,1,4,2
India,Maharashtra,Navi Mumbai,"Kopripada-Vashi, Navi Mumbai - MPCB",14-04-2026 09:00:00,19.090337,73.014232,OZONE,4,32,7
India,Maharashtra,Navi Mumbai,"Mahape, Navi Mumbai - MPCB",14-04-2026 09:00:00,19.1135051,73.008978,PM2.5,55,98,71
India,Maharashtra,Navi Mumbai,"Mahape, Navi Mumbai - MPCB",14-04-2026 09:00:00,19.1135051,73.008978,NO2,58,59,58
India,Maharashtra,Navi Mumbai,"Mahape, Navi Mumbai - MPCB",14-04-2026 09:00:00,19.1135051,73.008978,OZONE,6,12,10
India,Maharashtra,Navi Mumbai,"Nerul, Navi Mumbai - MPCB",14-04-2026 09:00:00,19.008751,73.016620,NO2,55,55,55
India,Maharashtra,Navi Mumbai,"Nerul, Navi Mumbai - MPCB",14-04-2026 09:00:00,19.008751,73.016620,SO2,NA,NA,NA
India,Maharashtra,Nagpur,"Mahal, Nagpur - MPCB",14-04-2026 09:00:00,21.14472,79.107595,PM10,105,197,131
India,Maharashtra,Nagpur,"Opp GPO Civil Lines, Nagpur - MPCB",14-04-2026 09:00:00,21.152875,79.0517531,NH3,3,22,8
India,Maharashtra,Nagpur,"Opp GPO Civil Lines, Nagpur - MPCB",14-04-2026 09:00:00,21.152875,79.0517531,SO2,8,88,28
India,Maharashtra,Nagpur,"Ram Nagar, Nagpur - MPCB",14-04-2026 09:00:00,21.143383,79.048912,NH3,4,4,4
India,Maharashtra,Nanded,"Sneh Nagar, Nanded - MPCB",14-04-2026 09:00:00,19.173852,77.296291,PM10,80,122,100
India,Maharashtra,Nanded,"Sneh Nagar, Nanded - MPCB",14-04-2026 09:00:00,19.173852,77.296291,SO2,4,14,8
India,Maharashtra,Nanded,"Sneh Nagar, Nanded - MPCB",14-04-2026 09:00:00,19.173852,77.296291,CO,18,28,22
India,Maharashtra,Nashik,"Gangapur Road, Nashik - MPCB",14-04-2026 09:00:00,20.0073285,73.7762427,OZONE,10,29,29
India,Maharashtra,Pune,"Katraj Dairy, Pune - MPCB",14-04-2026 09:00:00,18.454450,73.854155,OZONE,13,89,14
India,Maharashtra,Pune,"Mhada Colony, Pune - IITM",14-04-2026 09:00:00,18.573040,73.927715,PM10,83,116,100
India,Maharashtra,Pune,"Mhada Colony, Pune - IITM",14-04-2026 09:00:00,18.573040,73.927715,CO,2,81,62
India,Maharashtra,Pune,"Panchawati_Pashan, Pune - IITM",14-04-2026 09:00:00,18.536457,73.805454,OZONE,1,50,4
India,Maharashtra,Sangli,"Vijay Nagar, Sangli - MPCB",14-04-2026 09:00:00, 16.5038,74.3623,PM2.5,35,57,48
India,Maharashtra,Solapur,"Dnyaneshwar Nagar, Solapur - MPCB",14-04-2026 09:00:00,17.6336264,75.9132495,NO2,NA,NA,NA
India,Maharashtra,Solapur,"Dnyaneshwar Nagar, Solapur - MPCB",14-04-2026 09:00:00,17.6336264,75.9132495,NH3,NA,NA,NA
India,Maharashtra,Pimpri-Chinchwad,"Transport Nagar-Nigdi, Pune - IITM",14-04-2026 09:00:00,18.664282,73.763966,PM2.5,29,74,51
India,Maharashtra,Pimpri-Chinchwad,"Transport Nagar-Nigdi, Pune - IITM",14-04-2026 09:00:00,18.664282,73.763966,PM10,51,96,74
India,Maharashtra,Pimpri-Chinchwad,"Transport Nagar-Nigdi, Pune - IITM",14-04-2026 09:00:00,18.664282,73.763966,OZONE,1,28,2
India,Maharashtra,Pune,"Dhankawadi, Pune - IITM",14-04-2026 09:00:00,18.459883,73.852193,CO,NA,NA,NA
India,Maharashtra,Pune,"Hadapsar, Pune - IITM",14-04-2026 09:00:00,18.501793,73.927532,OZONE,2,84,14
India,Maharashtra,Pune,"Katraj Dairy, Pune - MPCB",14-04-2026 09:00:00,18.454450,73.854155,PM10,37,83,59
India,Maharashtra,Pune,"Katraj Dairy, Pune - MPCB",14-04-2026 09:00:00,18.454450,73.854155,NO2,7,31,19
India,Maharashtra,Mumbai,"Powai, Mumbai - MPCB",14-04-2026 09:00:00,19.137500,72.915056,NO2,7,8,8
India,Maharashtra,Mumbai,"Sewri, Mumbai - BMC",14-04-2026 09:00:00,19.000084,72.856730,PM10,55,73,63
India,Maharashtra,Mumbai,"Sewri, Mumbai - BMC",14-04-2026 09:00:00,19.000084,72.856730,CO,5,16,12
India,Maharashtra,Mumbai,"Sewri, Mumbai - BMC",14-04-2026 09:00:00,19.000084,72.856730,OZONE,8,27,13
India,Maharashtra,Mumbai,"Shivaji Nagar, Mumbai - BMC",14-04-2026 09:00:00,19.060498,72.923356,NO2,12,22,18
India,Maharashtra,Mumbai,"Siddharth Nagar-Worli, Mumbai - IITM",14-04-2026 09:00:00,19.000083,72.813993,PM2.5,36,76,56
India,Maharashtra,Mumbai,"Siddharth Nagar-Worli, Mumbai - IITM",14-04-2026 09:00:00,19.000083,72.813993,CO,14,30,26
India,Maharashtra,Navi Mumbai,"Tondare-Taloja, Navi Mumbai - MPCB",14-04-2026 09:00:00,19.0630,73.1209,PM2.5,41,139,73
India,Maharashtra,Navi Mumbai,"Tondare-Taloja, Navi Mumbai - MPCB",14-04-2026 09:00:00,19.0630,73.1209,SO2,2,7,3
India,Maharashtra,Parbhani,"Masoom Colony, Parbhani - MPCB",14-04-2026 09:00:00,19.265594,76.761463,NH3,3,5,4
India,Maharashtra,Pimpri-Chinchwad,"Park Street Wakad, Pimpri Chinchwad - MPCB",14-04-2026 09:00:00,18.59051,73.77946,NH3,2,3,3
India,Maharashtra,Mumbai,"Mazgaon, Mumbai - IITM",14-04-2026 09:00:00,18.96702,72.84214,SO2,3,11,8
India,Maharashtra,Mumbai,"Mindspace-Malad West, Mumbai - MPCB",14-04-2026 09:00:00,19.1878657,72.8304069,PM10,NA,NA,NA
India,Maharashtra,Mumbai,"Mindspace-Malad West, Mumbai - MPCB",14-04-2026 09:00:00,19.1878657,72.8304069,CO,6,30,20
India,Maharashtra,Mumbai,"Navy Nagar-Colaba, Mumbai - IITM",14-04-2026 09:00:00,18.897756,72.813320,NH3,7,14,10
India,Maharashtra,Mumbai,"Vile Parle West, Mumbai - MPCB",14-04-2026 09:00:00,19.10861,72.83622,CO,30,32,31
India,Maharashtra,Mumbai,"Worli, Mumbai -MPCB",14-04-2026 09:00:00,18.9942180,72.8158167,NH3,NA,NA,NA
India,Maharashtra,Nagpur,"Ambazari, Nagpur - MPCB",14-04-2026 09:00:00,21.121801,79.04952,NH3,1,32,8
India,Maharashtra,Nashik,"Hirawadi, Nashik - MPCB",14-04-2026 09:00:00,20.021503,73.813844,PM2.5,50,89,73
India,Maharashtra,Nashik,"Hirawadi, Nashik - MPCB",14-04-2026 09:00:00,20.021503,73.813844,NH3,1,4,2
India,Maharashtra,Nashik,"MIDC Ambad, Nashik - MPCB",14-04-2026 09:00:00,19.950220,73.731480,PM2.5,35,152,79
India,Punjab,Khanna,"Kalal Majra, Khanna - PPCB",14-04-2026 09:00:00,30.736056 ,76.209694,CO,14,39,17
India,Punjab,Ludhiana,"Punjab Agricultural University, Ludhiana - PPCB",14-04-2026 09:00:00,30.9028,75.8086,NO2,38,44,41
India,Punjab,Ludhiana,"Punjab Agricultural University, Ludhiana - PPCB",14-04-2026 09:00:00,30.9028,75.8086,NH3,8,9,8
India,Punjab,Mandi Gobindgarh,"RIMT University, Mandi Gobindgarh - PPCB",14-04-2026 09:00:00,30.649961,76.331442,PM2.5,46,264,113
India,Punjab,Patiala,"Model Town, Patiala - PPCB",14-04-2026 09:00:00,30.349388,76.366642,NO2,16,19,17
India,Punjab,Rupnagar,"Ratanpura, Rupnagar - Ambuja Cements",14-04-2026 09:00:00,31.0325454,76.5623046,PM10,15,32,21
India,Rajasthan,Ajmer,"Civil Lines,  Ajmer - RSPCB",14-04-2026 09:00:00,26.470859,74.646594,PM10,80,122,100
India,Rajasthan,Alwar,"Moti Doongri, Alwar - RSPCB",14-04-2026 09:00:00,27.554793,76.611536,NH3,10,14,12
India,Odisha,Bhubaneswar,"Patia, Bhubaneswar - OSPCB",14-04-2026 09:00:00,20.34652,85.81630,PM2.5,7,58,29
India,Odisha,Bhubaneswar,"Patia, Bhubaneswar - OSPCB",14-04-2026 09:00:00,20.34652,85.81630,PM10,21,89,56
India,Odisha,Bileipada,"Tata Township, Bileipada - OSPCB",14-04-2026 09:00:00,22.06156703,85.47409613,NH3,5,5,5
India,Odisha,Bileipada,"Tata Township, Bileipada - OSPCB",14-04-2026 09:00:00,22.06156703,85.47409613,CO,28,58,47
India,Odisha,Brajrajnagar,"GM Office, Brajrajnagar - OSPCB",14-04-2026 09:00:00,21.8004996,83.8396977,NH3,6,6,6
India,Odisha,Brajrajnagar,"GM Office, Brajrajnagar - OSPCB",14-04-2026 09:00:00,21.8004996,83.8396977,OZONE,45,75,45
India,Odisha,Byasanagar,"Ferro Chrome Colony, Byasanagar - OSPCB",14-04-2026 09:00:00,20.94185,86.11510,NO2,7,11,8
India,Odisha,Byasanagar,"Ferro Chrome Colony, Byasanagar - OSPCB",14-04-2026 09:00:00,20.94185,86.11510,CO,8,19,12
India,Odisha,Keonjhar,"Jagamohanpur, Keonjhar - OSPCB",14-04-2026 09:00:00,21.643900,85.599355,NO2,12,19,15
India,Maharashtra,Solapur,"Ratandeep Housing Society, Solapur - MPCB",14-04-2026 09:00:00,17.65439,75.90649,NH3,3,12,6
India,Maharashtra,Solapur,"Ratandeep Housing Society, Solapur - MPCB",14-04-2026 09:00:00,17.65439,75.90649,OZONE,17,247,22
India,Maharashtra,Thane,"Kasarvadavali, Thane - MPCB",14-04-2026 09:00:00,19.26777,72.97182,PM10,62,92,75
India,Maharashtra,Thane,"Kasarvadavali, Thane - MPCB",14-04-2026 09:00:00,19.26777,72.97182,NO2,9,26,18
India,Maharashtra,Thane,"Upvan Fort, Thane - MPCB",14-04-2026 09:00:00,19.222279,72.957979,SO2,2,18,9
India,Maharashtra,Ulhasnagar,"Vithalwadi, Ulhasnagar - MPCB",14-04-2026 09:00:00,19.2307571 ,73.1551920,NH3,3,5,4
India,Maharashtra,Ulhasnagar,"Vithalwadi, Ulhasnagar - MPCB",14-04-2026 09:00:00,19.2307571 ,73.1551920,OZONE,10,72,13
India,Maharashtra,Virar,"Bolinj, Virar - MPCB",14-04-2026 09:00:00,19.4458210,72.7988231,PM2.5,NA,NA,NA
India,Punjab,Amritsar,"Golden Temple, Amritsar - PPCB",14-04-2026 09:00:00,31.620000,74.876512,PM10,68,120,89
India,Punjab,Amritsar,"Golden Temple, Amritsar - PPCB",14-04-2026 09:00:00,31.620000,74.876512,NO2,9,131,27
India,Punjab,Bathinda,"Hardev Nagar, Bathinda - PPCB",14-04-2026 09:00:00,30.233011,74.907758,SO2,10,10,10
India,Punjab,Jalandhar,"Civil Line, Jalandhar - PPCB",14-04-2026 09:00:00,31.321907,75.578914,PM2.5,34,97,62
India,Punjab,Jalandhar,"Civil Line, Jalandhar - PPCB",14-04-2026 09:00:00,31.321907,75.578914,NH3,2,3,3
India,Punjab,Jalandhar,"Civil Line, Jalandhar - PPCB",14-04-2026 09:00:00,31.321907,75.578914,SO2,16,19,17
India,Punjab,Khanna,"Kalal Majra, Khanna - PPCB",14-04-2026 09:00:00,30.736056 ,76.209694,NH3,7,8,7
India,Odisha,Balasore,"Kalidaspur, Balasore - OSPCB",14-04-2026 09:00:00,21.51161,86.89088,PM10,37,111,77
India,Odisha,Balasore,"Kalidaspur, Balasore - OSPCB",14-04-2026 09:00:00,21.51161,86.89088,OZONE,12,87,16
India,Odisha,Barbil,"Forest Office, Barbil - OSPCB",14-04-2026 09:00:00,22.1166054,85.3945546,PM10,101,430,181
India,Odisha,Baripada,"Meher Colony, Baripada - OSPCB",14-04-2026 09:00:00,21.941841,86.728318,PM2.5,33,88,58
India,Odisha,Baripada,"Meher Colony, Baripada - OSPCB",14-04-2026 09:00:00,21.941841,86.728318,NH3,1,2,1
India,Odisha,Rourkela,"Raghunathpali, Rourkela - OSPCB",14-04-2026 09:00:00,22.220833,84.809444,NH3,1,2,2
India,Odisha,Rourkela,"Raghunathpali, Rourkela - OSPCB",14-04-2026 09:00:00,22.220833,84.809444,OZONE,9,30,10
India,Odisha,Suakati,"OMC Colony, Suakati - OSPCB",14-04-2026 09:00:00,21.606865,85.510538,OZONE,15,137,45
India,Odisha,Talcher,"Talcher Coalfields,Talcher - OSPCB",14-04-2026 09:00:00,20.9360711,85.1707021,PM10,1,105,65
India,Odisha,Talcher,"Talcher Coalfields,Talcher - OSPCB",14-04-2026 09:00:00,20.9360711,85.1707021,NH3,4,4,4
India,Odisha,Rourkela,"Fertilizer Township, Rourkela - OSPCB",14-04-2026 09:00:00,22.18972222,84.86277778,PM2.5,38,93,76
India,Odisha,Rourkela,"Fertilizer Township, Rourkela - OSPCB",14-04-2026 09:00:00,22.18972222,84.86277778,PM10,46,82,69
India,Odisha,Rourkela,"Fertilizer Township, Rourkela - OSPCB",14-04-2026 09:00:00,22.18972222,84.86277778,NO2,11,11,11
India,Meghalaya,Byrnihat,"15th Mile-Nongthymmai, Byrnihat - Meghalaya PCB",14-04-2026 09:00:00,26.05374,91.86796,CO,20,74,25
India,Odisha,Nayagarh,"Dabuna, Nayagarh - OSPCB",14-04-2026 09:00:00,21.847279,85.416905,NO2,3,6,4
India,Rajasthan,Kota,"Nayapura, Kota - RSPCB",14-04-2026 09:00:00,25.196024,75.855668,SO2,13,23,17
India,Rajasthan,Kota,"Nayapura, Kota - RSPCB",14-04-2026 09:00:00,25.196024,75.855668,OZONE,6,169,19
India,Rajasthan,Kota,"Shrinath Puram, Kota - RSPCB",14-04-2026 09:00:00,25.14389,75.821256,PM10,73,116,84
India,Rajasthan,Kota,"Shrinath Puram, Kota - RSPCB",14-04-2026 09:00:00,25.14389,75.821256,SO2,4,48,18
India,Rajasthan,Nagaur,"Karni Colony, Nagaur - RSPCB",14-04-2026 09:00:00,27.213494,73.734444,PM2.5,15,358,69
India,Rajasthan,Pali,"Indira Colony Vistar, Pali - RSPCB",14-04-2026 09:00:00,25.771061, 73.340227,NO2,14,18,16
India,Rajasthan,Pali,"Indira Colony Vistar, Pali - RSPCB",14-04-2026 09:00:00,25.771061, 73.340227,NH3,1,7,4
India,Rajasthan,Pali,"Indira Colony Vistar, Pali - RSPCB",14-04-2026 09:00:00,25.771061, 73.340227,SO2,8,11,9
India,Rajasthan,Pali,"Indira Colony Vistar, Pali - RSPCB",14-04-2026 09:00:00,25.771061, 73.340227,CO,13,70,47
India,Rajasthan,Pratapgarh,"Pragati Nagar, Pratapgarh - RSPCB",14-04-2026 09:00:00,24.041198,74.780702,PM2.5,17,73,45
India,Rajasthan,Pratapgarh,"Pragati Nagar, Pratapgarh - RSPCB",14-04-2026 09:00:00,24.041198,74.780702,PM10,70,183,103
India,Rajasthan,Pratapgarh,"Pragati Nagar, Pratapgarh - RSPCB",14-04-2026 09:00:00,24.041198,74.780702,SO2,2,9,4
India,Rajasthan,Rajsamand,"Dhoinda, Rajsamand - RSPCB",14-04-2026 09:00:00,25.036360,73.883502,PM2.5,10,197,50
India,Rajasthan,Rajsamand,"Dhoinda, Rajsamand - RSPCB",14-04-2026 09:00:00,25.036360,73.883502,NO2,11,62,27
India,Rajasthan,Rajsamand,"Dhoinda, Rajsamand - RSPCB",14-04-2026 09:00:00,25.036360,73.883502,SO2,6,17,9
India,Rajasthan,Jaipur,"Mansarovar Sector-12, Jaipur - RSPCB",14-04-2026 09:00:00,26.843698,75.766894,NH3,10,20,15
India,Rajasthan,Jaipur,"Mansarovar Sector-12, Jaipur - RSPCB",14-04-2026 09:00:00,26.843698,75.766894,CO,4,125,19
India,Rajasthan,Jaipur,"Mansarovar Sector-12, Jaipur - RSPCB",14-04-2026 09:00:00,26.843698,75.766894,OZONE,1,123,33
India,Rajasthan,Jaipur,"Police Commissionerate, Jaipur - RSPCB",14-04-2026 09:00:00,26.9164092,75.7994901,PM10,52,149,94
India,Rajasthan,Jaipur,"Police Commissionerate, Jaipur - RSPCB",14-04-2026 09:00:00,26.9164092,75.7994901,SO2,36,49,42
India,Rajasthan,Jaipur,"Sector-2 Murlipura, Jaipur - RSPCB",14-04-2026 09:00:00,26.960669,75.771817,PM10,67,168,106
India,Rajasthan,Jaipur,"Sector-2 Murlipura, Jaipur - RSPCB",14-04-2026 09:00:00,26.960669,75.771817,NH3,3,5,4
India,Rajasthan,Jaipur,"Sector-2 Murlipura, Jaipur - RSPCB",14-04-2026 09:00:00,26.960669,75.771817,SO2,4,45,9
India,Rajasthan,Jaipur,"Sector-2 Murlipura, Jaipur - RSPCB",14-04-2026 09:00:00,26.960669,75.771817,CO,30,101,52
India,Rajasthan,Jaipur,"Sector-2 Murlipura, Jaipur - RSPCB",14-04-2026 09:00:00,26.960669,75.771817,OZONE,2,120,38
India,Rajasthan,Jaipur,"Shastri Nagar, Jaipur - RSPCB",14-04-2026 09:00:00,26.9502929,75.730943,NO2,36,134,72
India,Rajasthan,Jaisalmer,"Sadar Bazar, Jaisalmer - RSPCB",14-04-2026 09:00:00,26.912329,70.909168,PM10,NA,NA,NA
India,Rajasthan,Udaipur,"Ashok Nagar, Udaipur - RSPCB",14-04-2026 09:00:00,24.5886166,73.6321397,OZONE,1,108,6
India,Sikkim,Gangtok,"Zero Point GICI, Gangtok - SSPCB",14-04-2026 09:00:00,27.338530,88.614099,PM10,32,79,61
India,Sikkim,Gangtok,"Zero Point GICI, Gangtok - SSPCB",14-04-2026 09:00:00,27.338530,88.614099,CO,5,12,6
India,TamilNadu,Chennai,"Arumbakkam, Chennai - TNPCB",14-04-2026 09:00:00,13.0664,80.2112 ,NO2,9,18,12
India,TamilNadu,Chennai,"Kodungaiyur, Chennai - TNPCB",14-04-2026 09:00:00,13.1278,80.2642,PM10,6,48,26
India,TamilNadu,Chennai,"Kodungaiyur, Chennai - TNPCB",14-04-2026 09:00:00,13.1278,80.2642,SO2,4,7,6
India,TamilNadu,Chennai,"Manali Village, Chennai - TNPCB",14-04-2026 09:00:00,13.1662,80.2584,PM10,9,64,34
India,TamilNadu,Chennai,"Manali Village, Chennai - TNPCB",14-04-2026 09:00:00,13.1662,80.2584,NO2,4,46,8
India,TamilNadu,Chennai,"Manali, Chennai - CPCB",14-04-2026 09:00:00,13.164544,80.26285,SO2,12,19,16
India,Rajasthan,Sawai Madhopur,"Sahu Nagar, Sawai Madhopur - RSPCB",14-04-2026 09:00:00,26.031443,76.359327,CO,2,75,59
India,Rajasthan,Sikar,"Radhakishan Pura, Sikar - RSPCB",14-04-2026 09:00:00,27.608912,75.153302,NO2,10,105,30
India,Rajasthan,Sikar,"Radhakishan Pura, Sikar - RSPCB",14-04-2026 09:00:00,27.608912,75.153302,NH3,6,15,8
India,Rajasthan,Sirohi,"Vedhaynath Colony, Sirohi - RSPCB",14-04-2026 09:00:00,24.885261,72.857549,NH3,2,3,3
India,Rajasthan,Sirohi,"Vedhaynath Colony, Sirohi - RSPCB",14-04-2026 09:00:00,24.885261,72.857549,SO2,5,10,7
India,Rajasthan,Sri Ganganagar,"Old City, Sri Ganganagar - RSPCB",14-04-2026 09:00:00,29.931624,73.864511,NO2,16,48,28
India,Rajasthan,Tonk,"Shastri Nagar, Tonk - RSPCB",14-04-2026 09:00:00,26.159933,75.780517,PM2.5,24,159,66
India,Rajasthan,Udaipur,"Ashok Nagar, Udaipur - RSPCB",14-04-2026 09:00:00,24.5886166,73.6321397,CO,6,43,12
India,Rajasthan,Jaisalmer,"Sadar Bazar, Jaisalmer - RSPCB",14-04-2026 09:00:00,26.912329,70.909168,NO2,NA,NA,NA
India,Rajasthan,Jaisalmer,"Sadar Bazar, Jaisalmer - RSPCB",14-04-2026 09:00:00,26.912329,70.909168,CO,14,38,15
India,Rajasthan,Jalore,"Mudtra Sili, Jalore - RSPCB",14-04-2026 09:00:00,25.344694,72.626208,NH3,4,6,5
India,Rajasthan,Jhalawar,"Rajlaxmi Nagar, Jhalawar - RSPCB",14-04-2026 09:00:00,24.588397,76.172782,CO,12,99,60
India,Rajasthan,Jhunjhunu,"Indra Nagar, Jhunjhunu - RSPCB",14-04-2026 09:00:00,28.108988,75.386577,PM10,36,354,124
India,Rajasthan,Jodhpur,"Digari Kalan, Jodhpur - RSPCB",14-04-2026 09:00:00,26.295810,73.082283,PM10,74,486,187
India,Rajasthan,Jodhpur,"Digari Kalan, Jodhpur - RSPCB",14-04-2026 09:00:00,26.295810,73.082283,NO2,11,84,36
India,Rajasthan,Jodhpur,"Digari Kalan, Jodhpur - RSPCB",14-04-2026 09:00:00,26.295810,73.082283,NH3,1,3,2
India,Rajasthan,Jodhpur,"Digari Kalan, Jodhpur - RSPCB",14-04-2026 09:00:00,26.295810,73.082283,SO2,1,5,2
India,Rajasthan,Churu,"Subash Chowk, Churu - RSPCB",14-04-2026 09:00:00,28.296139,74.961696,NH3,4,7,6
India,Rajasthan,Churu,"Subash Chowk, Churu - RSPCB",14-04-2026 09:00:00,28.296139,74.961696,SO2,2,10,6
India,Rajasthan,Churu,"Subash Chowk, Churu - RSPCB",14-04-2026 09:00:00,28.296139,74.961696,CO,12,39,19
India,Rajasthan,Churu,"Subash Chowk, Churu - RSPCB",14-04-2026 09:00:00,28.296139,74.961696,OZONE,66,144,78
India,Rajasthan,Dausa,"Khatikan Mohalla, Dausa - RSPCB",14-04-2026 09:00:00,26.895552,76.334753,OZONE,4,145,36
India,Rajasthan,Dholpur,"Raja Ganj, Dholpur - RSPCB",14-04-2026 09:00:00,26.699557,77.898881,NO2,20,166,57
India,Rajasthan,Dholpur,"Raja Ganj, Dholpur - RSPCB",14-04-2026 09:00:00,26.699557,77.898881,NH3,10,18,13
India,Rajasthan,Jaipur,"Adarsh Nagar, Jaipur - RSPCB",14-04-2026 09:00:00,26.902909,75.836858,PM10,64,111,81
India,Rajasthan,Jaipur,"Adarsh Nagar, Jaipur - RSPCB",14-04-2026 09:00:00,26.902909,75.836858,NO2,16,120,50
India,Rajasthan,Bhiwadi,"RIICO Ind. Area III, Bhiwadi - RSPCB",14-04-2026 09:00:00,28.194909,76.862296,PM2.5,83,299,184
India,Rajasthan,Bhiwadi,"RIICO Ind. Area III, Bhiwadi - RSPCB",14-04-2026 09:00:00,28.194909,76.862296,SO2,10,31,17
India,Rajasthan,Bhiwadi,"Vasundhara Nagar_UIT, Bhiwadi - RSPCB",14-04-2026 09:00:00,28.207266,76.829265,PM2.5,20,266,102
India,Rajasthan,Bhiwadi,"Vasundhara Nagar_UIT, Bhiwadi - RSPCB",14-04-2026 09:00:00,28.207266,76.829265,NH3,5,38,13
India,Rajasthan,Bhiwadi,"Vasundhara Nagar_UIT, Bhiwadi - RSPCB",14-04-2026 09:00:00,28.207266,76.829265,CO,14,78,37
India,Rajasthan,Bikaner,"MM Ground, Bikaner - RSPCB",14-04-2026 09:00:00,28.018792,73.292658,NH3,2,10,8
India,Rajasthan,Chittorgarh,"Shastri Nagar, Chittorgarh - RSPCB",14-04-2026 09:00:00,24.892047,74.623527,SO2,2,70,13
India,Rajasthan,Jodhpur,"Mandor, Jodhpur - RSPCB",14-04-2026 09:00:00,26.358805,73.047444,PM2.5,23,133,56
India,Rajasthan,Jodhpur,"Mandor, Jodhpur - RSPCB",14-04-2026 09:00:00,26.358805,73.047444,NH3,3,7,5
India,Rajasthan,Jodhpur,"Mandor, Jodhpur - RSPCB",14-04-2026 09:00:00,26.358805,73.047444,CO,8,46,16
India,Rajasthan,Jodhpur,"Samrat Ashok Udhyan, Jodhpur - RSPCB",14-04-2026 09:00:00,26.253384,72.976571,NH3,5,9,7
India,Rajasthan,Jodhpur,"Samrat Ashok Udhyan, Jodhpur - RSPCB",14-04-2026 09:00:00,26.253384,72.976571,SO2,2,24,7
India,Rajasthan,Jodhpur,"Samrat Ashok Udhyan, Jodhpur - RSPCB",14-04-2026 09:00:00,26.253384,72.976571,OZONE,30,90,59
India,Rajasthan,Kota,"Dhanmandi, Kota - RSPCB",14-04-2026 09:00:00,25.164090,75.858137,PM2.5,10,167,64
India,Rajasthan,Alwar,"Moti Doongri, Alwar - RSPCB",14-04-2026 09:00:00,27.554793,76.611536,CO,28,70,38
India,Rajasthan,Baran,"Bamboliya, Baran - RSPCB",14-04-2026 09:00:00,25.106006,76.469948,CO,8,66,44
India,Rajasthan,Barmer,"Railway Colony, Barmer - RSPCB",14-04-2026 09:00:00,25.747299,71.393989,SO2,2,54,6
India,Rajasthan,Bhilwara,"Pratap Nagar, Bhilwara - RSPCB",14-04-2026 09:00:00,25.339605,74.618883,PM2.5,12,177,58
India,Rajasthan,Bhilwara,"Pratap Nagar, Bhilwara - RSPCB",14-04-2026 09:00:00,25.339605,74.618883,PM10,52,309,130
India,Uttar_Pradesh,Jhansi,"Shivaji Nagar, Jhansi - UPPCB",14-04-2026 09:00:00,25.4547,78.6039,SO2,12,19,14
India,Uttar_Pradesh,Kanpur,"FTI Kidwai Nagar, Kanpur - UPPCB",14-04-2026 09:00:00,26.428282,80.327067,SO2,18,26,22
India,Uttar_Pradesh,Kanpur,"NSI Kalyanpur, Kanpur - UPPCB",14-04-2026 09:00:00,26.509954,80.249612,PM2.5,18,130,57
India,Uttar_Pradesh,Kanpur,"NSI Kalyanpur, Kanpur - UPPCB",14-04-2026 09:00:00,26.509954,80.249612,PM10,54,133,100
India,Uttar_Pradesh,Kanpur,"Nehru Nagar, Kanpur - UPPCB",14-04-2026 09:00:00,26.4703136,80.3229863,PM10,14,178,63
India,Uttar_Pradesh,Kanpur,"Nehru Nagar, Kanpur - UPPCB",14-04-2026 09:00:00,26.4703136,80.3229863,NO2,43,50,46
India,Uttar_Pradesh,Khora,"Prashant Garden, Khora - UPPCB",14-04-2026 09:00:00,28.61119,77.34206,PM2.5,108,333,251
India,Uttar_Pradesh,Khora,"Prashant Garden, Khora - UPPCB",14-04-2026 09:00:00,28.61119,77.34206,NH3,4,40,10
India,Uttar_Pradesh,Khurja,"Kalindi Kunj, Khurja - UPPCB",14-04-2026 09:00:00,28.2348927,77.8683002,PM10,54,193,121
India,Uttar_Pradesh,Khurja,"Kalindi Kunj, Khurja - UPPCB",14-04-2026 09:00:00,28.2348927,77.8683002,NH3,1,1,1
India,Uttar_Pradesh,Khurja,"Kalindi Kunj, Khurja - UPPCB",14-04-2026 09:00:00,28.2348927,77.8683002,SO2,10,10,10
India,Uttar_Pradesh,Lucknow,"B R Ambedkar University, Lucknow - UPPCB",14-04-2026 09:00:00,26.766433,80.927299,NO2,11,12,12
India,TamilNadu,Chennai,"Royapuram, Chennai - TNPCB",14-04-2026 09:00:00,13.1036,80.2909,PM2.5,3,38,18
India,TamilNadu,Chennai,"Velachery Res. Area, Chennai - CPCB",14-04-2026 09:00:00,13.0052189,80.2398125,PM2.5,43,57,47
India,TamilNadu,Chennai,"Velachery Res. Area, Chennai - CPCB",14-04-2026 09:00:00,13.0052189,80.2398125,NH3,3,4,3
India,TamilNadu,Coimbatore,"PSG College of Arts and Science, Coimbatore - TNPCB",14-04-2026 09:00:00,11.0328,77.0349,NO2,NA,NA,NA
India,TamilNadu,Coimbatore,"SIDCO Kurichi, Coimbatore - TNPCB",14-04-2026 09:00:00,10.942451,76.978996,PM10,59,77,67
India,TamilNadu,Coimbatore,"SIDCO Kurichi, Coimbatore - TNPCB",14-04-2026 09:00:00,10.942451,76.978996,CO,24,44,29
India,TamilNadu,Coimbatore,"SIDCO Kurichi, Coimbatore - TNPCB",14-04-2026 09:00:00,10.942451,76.978996,OZONE,20,24,20
India,TamilNadu,Madurai,"Uchapatti, Madurai - TNPCB",14-04-2026 09:00:00,9.865935,78.022669,PM10,NA,NA,NA
India,TamilNadu,Ooty,"Bombay Castel, Ooty - TNPCB",14-04-2026 09:00:00,11.4068288,76.7138973,CO,28,28,28
India,TamilNadu,Ooty,"Bombay Castel, Ooty - TNPCB",14-04-2026 09:00:00,11.4068288,76.7138973,OZONE,4,7,6
India,TamilNadu,Perundurai,"SIPCOT Industrial Park, Perundurai - TNPCB",14-04-2026 09:00:00,11.258242,77.552761,SO2,NA,NA,NA
India,TamilNadu,Thoothukudi,"Meelavittan, Thoothukudi - TNPCB",14-04-2026 09:00:00,8.816428 ,78.099039,NO2,11,21,15
India,TamilNadu,Tirupur,"Kumaran College, Tirupur - TNPCB",14-04-2026 09:00:00,11.0973603,77.3228673,SO2,35,38,37
India,Telangana,Hyderabad,"New Malakpet, Hyderabad - TSPCB",14-04-2026 09:00:00,17.37206,78.50864,PM10,78,112,95
India,Telangana,Hyderabad,"New Malakpet, Hyderabad - TSPCB",14-04-2026 09:00:00,17.37206,78.50864,NH3,2,4,3
India,Telangana,Hyderabad,"New Malakpet, Hyderabad - TSPCB",14-04-2026 09:00:00,17.37206,78.50864,CO,24,44,24
India,Telangana,Hyderabad,"Ramachandrapuram, Hyderabad - TSPCB",14-04-2026 09:00:00,17.528544,78.286195,NH3,3,7,6
India,Telangana,Hyderabad,"Ramachandrapuram, Hyderabad - TSPCB",14-04-2026 09:00:00,17.528544,78.286195,SO2,12,15,14
India,Telangana,Hyderabad,"Somajiguda, Hyderabad - TSPCB",14-04-2026 09:00:00,17.417094,78.457437,NH3,4,4,4
India,Telangana,Hyderabad,"Zoo Park, Hyderabad - TSPCB",14-04-2026 09:00:00,17.349694,78.451437,SO2,2,2,2
India,Telangana,Hyderabad,"Zoo Park, Hyderabad - TSPCB",14-04-2026 09:00:00,17.349694,78.451437,OZONE,23,27,24
India,Uttar_Pradesh,Firozabad,"Nagla Bhau, Firozabad - UPPCB",14-04-2026 09:00:00,27.168897,78.376960,SO2,29,44,35
India,Uttar_Pradesh,Ghaziabad,"Indirapuram, Ghaziabad - UPPCB",14-04-2026 09:00:00,28.646233,77.358075,NH3,13,16,14
India,Uttar_Pradesh,Ghaziabad,"Indirapuram, Ghaziabad - UPPCB",14-04-2026 09:00:00,28.646233,77.358075,CO,26,100,40
India,Uttar_Pradesh,Ghaziabad,"Loni, Ghaziabad - UPPCB",14-04-2026 09:00:00,28.757294,77.278792,NH3,1,8,4
India,Uttar_Pradesh,Ghaziabad,"Loni, Ghaziabad - UPPCB",14-04-2026 09:00:00,28.757294,77.278792,CO,20,80,30
India,Uttar_Pradesh,Ghaziabad,"Vasundhara, Ghaziabad - UPPCB",14-04-2026 09:00:00,28.6603346,77.3572563,PM2.5,25,300,149
India,Uttar_Pradesh,Baghpat,"Sardar Patel Inter College, Baghpat - UPPCB",14-04-2026 09:00:00,28.964949,77.278761,PM10,94,435,222
India,Uttar_Pradesh,Baghpat,"Sardar Patel Inter College, Baghpat - UPPCB",14-04-2026 09:00:00,28.964949,77.278761,SO2,22,89,45
India,Uttar_Pradesh,Baghpat,"Sardar Patel Inter College, Baghpat - UPPCB",14-04-2026 09:00:00,28.964949,77.278761,CO,30,106,74
India,Uttar_Pradesh,Bareilly,"Rajendra Nagar, Bareilly - UPPCB",14-04-2026 09:00:00,28.38910936,79.42963708,OZONE,1,30,2
India,Uttar_Pradesh,Bulandshahr,"Yamunapuram, Bulandshahr - UPPCB",14-04-2026 09:00:00,28.406963,77.849831,NO2,12,117,64
India,Telangana,Hyderabad,"IITH Kandi, Hyderabad - TSPCB",14-04-2026 09:00:00,17.585705,78.126199,PM2.5,31,139,77
India,Telangana,Hyderabad,"IITH Kandi, Hyderabad - TSPCB",14-04-2026 09:00:00,17.585705,78.126199,NH3,4,5,5
India,Telangana,Hyderabad,"Kokapet, Hyderabad - TSPCB",14-04-2026 09:00:00,17.393559,78.339194,PM2.5,46,81,60
India,Telangana,Hyderabad,"Kompally Municipal Office, Hyderabad - TSPCB",14-04-2026 09:00:00,17.544899,78.486949,PM2.5,40,57,50
India,Telangana,Hyderabad,"Nacharam_TSIIC IALA, Hyderabad - TSPCB",14-04-2026 09:00:00,17.429398,78.569354,PM10,81,97,94
India,Uttar_Pradesh,Ghaziabad,"Ved Vihar-Loni, Ghaziabad - UPPCB",14-04-2026 09:00:00,28.739153 ,77.273668 ,SO2,4,6,5
India,Uttar_Pradesh,Gorakhpur,"Madan Mohan Malaviya University of Technology, Gorakhpur - UPPCB",14-04-2026 09:00:00,26.730136,83.433859,SO2,47,49,48
India,Uttar_Pradesh,Hapur,"Anand Vihar, Hapur - UPPCB",14-04-2026 09:00:00,28.725645,77.749675,PM10,104,337,182
India,Uttar_Pradesh,Agra,"Manoharpur, Agra - UPPCB",14-04-2026 09:00:00,27.23711,78.01936,SO2,11,44,14
India,Uttar_Pradesh,Agra,"Manoharpur, Agra - UPPCB",14-04-2026 09:00:00,27.23711,78.01936,CO,18,20,20
India,Uttar_Pradesh,Agra,"Sector-3B Avas Vikas Colony, Agra - UPPCB",14-04-2026 09:00:00,27.19412,77.96237,NO2,36,36,36
India,Uttar_Pradesh,Moradabad,"Transport Nagar, Moradabad - UPPCB",14-04-2026 09:00:00,28.802625,78.753728,OZONE,27,55,29
India,Uttar_Pradesh,Muzaffarnagar,"New Mandi, Muzaffarnagar - UPPCB",14-04-2026 09:00:00,29.4723508,77.7194031,PM10,62,168,111
India,Uttar_Pradesh,Muzaffarnagar,"New Mandi, Muzaffarnagar - UPPCB",14-04-2026 09:00:00,29.4723508,77.7194031,CO,12,82,48
India,Uttar_Pradesh,Muzaffarnagar,"New Mandi, Muzaffarnagar - UPPCB",14-04-2026 09:00:00,29.4723508,77.7194031,OZONE,38,175,61
India,Uttar_Pradesh,Noida,"Sector - 125, Noida - UPPCB",14-04-2026 09:00:00,28.5447608,77.3231257,NH3,11,18,15
India,Uttar_Pradesh,Noida,"Sector - 125, Noida - UPPCB",14-04-2026 09:00:00,28.5447608,77.3231257,SO2,10,28,18
India,Uttar_Pradesh,Noida,"Sector - 62, Noida - IMD",14-04-2026 09:00:00,28.6245479,77.3577104,PM2.5,21,308,114
India,Uttar_Pradesh,Noida,"Sector - 62, Noida - IMD",14-04-2026 09:00:00,28.6245479,77.3577104,NO2,18,32,25
India,Uttar_Pradesh,Noida,"Sector-1, Noida - UPPCB",14-04-2026 09:00:00,28.5898,77.3101,PM10,110,319,181
India,Uttar_Pradesh,Noida,"Sector-116, Noida - UPPCB",14-04-2026 09:00:00,28.569230,77.393848,PM10,93,239,149
India,Uttar_Pradesh,Noida,"Sector-116, Noida - UPPCB",14-04-2026 09:00:00,28.569230,77.393848,NH3,5,8,6
India,Uttar_Pradesh,Noida,"Sector-116, Noida - UPPCB",14-04-2026 09:00:00,28.569230,77.393848,SO2,14,36,21
India,Uttar_Pradesh,Lucknow,"Kukrail Picnic Spot-1, Lucknow - UPPCB",14-04-2026 09:00:00,26.90723,80.98579,OZONE,9,35,14
India,Uttar_Pradesh,Lucknow,"Lalbagh, Lucknow - CPCB",14-04-2026 09:00:00,26.8458805,80.9365541,PM2.5,77,173,109
India,Uttar_Pradesh,Lucknow,"Talkatora District Industries Center, Lucknow - CPCB",14-04-2026 09:00:00,26.83399722,80.8917361,NH3,7,10,8
India,Uttar_Pradesh,Meerut,"Ganga Nagar, Meerut - UPPCB",14-04-2026 09:00:00,28.999264,77.7590354,PM10,90,208,138
India,Uttar_Pradesh,Meerut,"Ganga Nagar, Meerut - UPPCB",14-04-2026 09:00:00,28.999264,77.7590354,NH3,5,7,6
India,Uttar_Pradesh,Meerut,"Jai Bhim Nagar, Meerut - UPPCB",14-04-2026 09:00:00,28.9535882,77.7622941,PM2.5,12,125,57
India,Uttar_Pradesh,Meerut,"Pallavpuram Phase 2, Meerut - UPPCB",14-04-2026 09:00:00,29.063510,77.709723,PM2.5,9,192,76
India,Uttar_Pradesh,Modinagar,"SRM University, Modinagar - UPPCB",14-04-2026 09:00:00,28.798171 ,77.540243 ,PM2.5,46,364,223
India,Uttar_Pradesh,Modinagar,"SRM University, Modinagar - UPPCB",14-04-2026 09:00:00,28.798171 ,77.540243 ,PM10,133,464,226
India,Uttar_Pradesh,Lucknow,"B R Ambedkar University, Lucknow - UPPCB",14-04-2026 09:00:00,26.766433,80.927299,SO2,20,20,20
India,Uttar_Pradesh,Lucknow,"Gomti Nagar, Lucknow - UPPCB",14-04-2026 09:00:00,26.868120,81.005119,PM2.5,58,142,85
India,Uttar_Pradesh,Lucknow,"Gomti Nagar, Lucknow - UPPCB",14-04-2026 09:00:00,26.868120,81.005119,OZONE,37,49,39
India,Uttar_Pradesh,Lucknow,"Kendriya Vidyalaya, Lucknow - CPCB",14-04-2026 09:00:00,26.906111,80.948222,NO2,26,29,28
India,Uttar_Pradesh,Lucknow,"Kendriya Vidyalaya, Lucknow - CPCB",14-04-2026 09:00:00,26.906111,80.948222,SO2,4,14,10
India,Uttar_Pradesh,Lucknow,"Kukrail Picnic Spot-1, Lucknow - UPPCB",14-04-2026 09:00:00,26.90723,80.98579,NO2,31,32,32
India,Uttar_Pradesh,Lucknow,"Kukrail Picnic Spot-1, Lucknow - UPPCB",14-04-2026 09:00:00,26.90723,80.98579,SO2,19,22,20
India,Uttarakhand,Kashipur,"Govt. Girls Inter College, Kashipur - UKPCB",14-04-2026 09:00:00,29.2124114,78.9611753,NH3,NA,NA,NA
India,Uttarakhand,Rishikesh,"Shivaji Nagar, Rishikesh - UKPCB",14-04-2026 09:00:00,30.075911,78.2859547,CO,37,37,37
India,West_Bengal,Asansol,"Asansol Court Area, Asansol - WBPCB",14-04-2026 09:00:00,23.685297,86.945968,PM2.5,67,166,107
India,West_Bengal,Asansol,"Asansol Court Area, Asansol - WBPCB",14-04-2026 09:00:00,23.685297,86.945968,PM10,84,122,103
India,West_Bengal,Asansol,"Asansol Court Area, Asansol - WBPCB",14-04-2026 09:00:00,23.685297,86.945968,SO2,13,63,27
India,West_Bengal,Asansol,"Evelyn Lodge, Asansol - WBPCB",14-04-2026 09:00:00,23.6979360,86.9443950,PM10,84,120,104
India,Uttar_Pradesh,Prayagraj,"Jhunsi, Prayagraj - UPPCB",14-04-2026 09:00:00,25.425602,81.917152,NO2,6,6,6
India,Uttar_Pradesh,Prayagraj,"Motilal Nehru NIT, Prayagraj - UPPCB",14-04-2026 09:00:00,25.494,81.863,PM10,37,119,78
India,Uttar_Pradesh,Prayagraj,"Motilal Nehru NIT, Prayagraj - UPPCB",14-04-2026 09:00:00,25.494,81.863,NH3,6,9,8
India,Uttar_Pradesh,Prayagraj,"Nagar Nigam, Prayagraj - UPPCB",14-04-2026 09:00:00,25.44919916 ,81.82735986 ,OZONE,11,13,11
India,Uttar_Pradesh,Varanasi,"Bhelupur, Varanasi - UPPCB",14-04-2026 09:00:00,25.301778,82.996789,PM2.5,21,73,44
India,Uttar_Pradesh,Varanasi,"Bhelupur, Varanasi - UPPCB",14-04-2026 09:00:00,25.301778,82.996789,NH3,1,1,1
India,Uttar_Pradesh,Modinagar,"SRM University, Modinagar - UPPCB",14-04-2026 09:00:00,28.798171 ,77.540243 ,CO,40,100,79
India,Uttar_Pradesh,Moradabad,"Buddhi Vihar, Moradabad - UPPCB",14-04-2026 09:00:00,28.83526,78.74460,CO,20,46,35
India,Uttar_Pradesh,Moradabad,"Eco Herbal Park, Moradabad - UPPCB",14-04-2026 09:00:00,28.840739,78.697531,PM10,33,162,95
India,Uttar_Pradesh,Moradabad,"Kashiram Nagar, Moradabad - UPPCB",14-04-2026 09:00:00,28.849399,78.742362,SO2,1,51,20
India,Uttar_Pradesh,Moradabad,"Kashiram Nagar, Moradabad - UPPCB",14-04-2026 09:00:00,28.849399,78.742362,OZONE,17,101,36
India,Uttar_Pradesh,Varanasi,"IESD Banaras Hindu University, Varanasi - UPPCB",14-04-2026 09:00:00,25.262326,82.995408,PM2.5,13,66,39
India,Uttar_Pradesh,Varanasi,"IESD Banaras Hindu University, Varanasi - UPPCB",14-04-2026 09:00:00,25.262326,82.995408,PM10,42,131,88
India,Uttar_Pradesh,Varanasi,"IESD Banaras Hindu University, Varanasi - UPPCB",14-04-2026 09:00:00,25.262326,82.995408,CO,2,12,10
India,Uttar_Pradesh,Varanasi,"Maldahiya, Varanasi - UPPCB",14-04-2026 09:00:00,25.32393,82.99687,PM2.5,22,89,50
India,Uttar_Pradesh,Varanasi,"Maldahiya, Varanasi - UPPCB",14-04-2026 09:00:00,25.32393,82.99687,NO2,2,6,3
India,Uttar_Pradesh,Varanasi,"Maldahiya, Varanasi - UPPCB",14-04-2026 09:00:00,25.32393,82.99687,SO2,29,33,30
India,West_Bengal,Barrackpore,"SVSPA Campus, Barrackpore - WBPCB",14-04-2026 09:00:00,22.7605581,88.3617589,PM2.5,30,70,46
India,West_Bengal,Durgapur,"PCBL Residential Complex, Durgapur - WBPCB",14-04-2026 09:00:00,23.5087640,87.3544400,PM10,59,122,79
India,West_Bengal,Durgapur,"PCBL Residential Complex, Durgapur - WBPCB",14-04-2026 09:00:00,23.5087640,87.3544400,SO2,5,7,6
India,West_Bengal,Durgapur,"Womens College_City Center, Durgapur - WBPCB",14-04-2026 09:00:00,23.549395,87.300496,PM10,49,147,95
India,West_Bengal,Howrah,"Belur Math, Howrah - WBPCB",14-04-2026 09:00:00,22.629801,88.352017,NH3,4,6,5
India,West_Bengal,Howrah,"Botanical Garden, Howrah - WBPCB",14-04-2026 09:00:00,22.554954,88.292568,PM10,35,81,57
India,West_Bengal,Howrah,"Botanical Garden, Howrah - WBPCB",14-04-2026 09:00:00,22.554954,88.292568,CO,6,16,7
India,West_Bengal,Howrah,"Botanical Garden, Howrah - WBPCB",14-04-2026 09:00:00,22.554954,88.292568,OZONE,10,45,12
India,West_Bengal,Howrah,"Ghusuri, Howrah - WBPCB",14-04-2026 09:00:00,22.611968,88.347422,PM2.5,26,85,52
India,West_Bengal,Kolkata,"Bidhannagar, Kolkata - WBPCB",14-04-2026 09:00:00,22.58157048,88.41002457,PM2.5,20,57,36
India,West_Bengal,Kolkata,"Fort William, Kolkata - WBPCB",14-04-2026 09:00:00,22.556640,88.342674,PM2.5,23,46,35
India,West_Bengal,Kolkata,"Fort William, Kolkata - WBPCB",14-04-2026 09:00:00,22.556640,88.342674,PM10,25,48,37
India,West_Bengal,Kolkata,"Fort William, Kolkata - WBPCB",14-04-2026 09:00:00,22.556640,88.342674,CO,12,20,14
India,West_Bengal,Kolkata,"Jadavpur, Kolkata - WBPCB",14-04-2026 09:00:00,22.49929,88.36917,PM10,39,69,52
India,West_Bengal,Kolkata,"Rabindra Sarobar, Kolkata - WBPCB",14-04-2026 09:00:00,22.51106,88.35142,PM2.5,19,46,32
India,West_Bengal,Kolkata,"Victoria, Kolkata - WBPCB",14-04-2026 09:00:00,22.5448082,88.3403691,PM10,46,71,56
India,West_Bengal,Siliguri,"Ward-32 Bapupara, Siliguri - WBPCB",14-04-2026 09:00:00,26.6879226,88.4152495,PM10,48,131,81
India,West_Bengal,Siliguri,"Ward-32 Bapupara, Siliguri - WBPCB",14-04-2026 09:00:00,26.6879226,88.4152495,NH3,8,14,10
India,West_Bengal,Siliguri,"Ward-32 Bapupara, Siliguri - WBPCB",14-04-2026 09:00:00,26.6879226,88.4152495,SO2,14,19,16
India,West_Bengal,Siliguri,"Ward-32 Bapupara, Siliguri - WBPCB",14-04-2026 09:00:00,26.6879226,88.4152495,CO,18,74,32
India,Andhra_Pradesh,Guntur,"Rajendra Nagar North, Guntur - APPCB",14-04-2026 09:00:00,16.316553,80.413302,OZONE,16,45,22
India,Andhra_Pradesh,Kadapa,"Yerramukkapalli, Kadapa - APPCB",14-04-2026 09:00:00,14.465052,78.824187,PM2.5,57,88,79
India,Andhra_Pradesh,Kadapa,"Yerramukkapalli, Kadapa - APPCB",14-04-2026 09:00:00,14.465052,78.824187,NO2,15,28,24
India,Andhra_Pradesh,Machilipatnam,"Srinivas Nagar Colony, Machilipatnam - APPCB",14-04-2026 09:00:00,16.186555,81.13219,PM2.5,52,80,73
India,Andhra_Pradesh,Machilipatnam,"Srinivas Nagar Colony, Machilipatnam - APPCB",14-04-2026 09:00:00,16.186555,81.13219,NO2,6,23,13
India,Andhra_Pradesh,Nellore,"Ambedkar Nagar, Nellore - APPCB ",14-04-2026 09:00:00,14.438164 ,79.966814 ,PM2.5,25,70,39
India,Andhra_Pradesh,Nellore,"Ambedkar Nagar, Nellore - APPCB ",14-04-2026 09:00:00,14.438164 ,79.966814 ,NH3,3,6,4
India,Andhra_Pradesh,Nellore,"Ambedkar Nagar, Nellore - APPCB ",14-04-2026 09:00:00,14.438164 ,79.966814 ,OZONE,2,41,4
India,Andhra_Pradesh,Rajamahendravaram,"Anand Kala Kshetram, Rajamahendravaram - APPCB",14-04-2026 09:00:00,16.9872867,81.7363176,PM2.5,5,28,17
India,Andhra_Pradesh,Rajamahendravaram,"Anand Kala Kshetram, Rajamahendravaram - APPCB",14-04-2026 09:00:00,16.9872867,81.7363176,NO2,5,22,12
India,Andhra_Pradesh,Rajamahendravaram,"Anand Kala Kshetram, Rajamahendravaram - APPCB",14-04-2026 09:00:00,16.9872867,81.7363176,SO2,4,22,6
India,Andhra_Pradesh,Tirumala,"Toll Gate, Tirumala - APPCB",14-04-2026 09:00:00,13.67,79.35,SO2,2,10,6
India,Andhra_Pradesh,Tirupati,"Vaikuntapuram, Tirupati - APPCB",14-04-2026 09:00:00,13.615387,79.409230,PM10,56,75,60
India,Andhra_Pradesh,Tirupati,"Vaikuntapuram, Tirupati - APPCB",14-04-2026 09:00:00,13.615387,79.409230,NO2,20,33,27
India,Bihar,Manguraha,"Forest Rest House, Manguraha - BSPCB",14-04-2026 09:00:00,27.308328,84.531742,OZONE,8,11,10
India,Bihar,Motihari,"Gandak Colony, Motihari - BSPCB",14-04-2026 09:00:00,26.63086,84.90051,NO2,3,10,5
India,Bihar,Munger,"Town Hall, Munger - BSPCB",14-04-2026 09:00:00,25.376776,86.471523,CO,24,33,28
India,Bihar,Muzaffarpur,"Buddha Colony, Muzaffarpur - BSPCB",14-04-2026 09:00:00,26.11442,85.39813,NH3,15,23,20
India,Bihar,Muzaffarpur,"MIT-Daudpur Kothi, Muzaffarpur - BSPCB",14-04-2026 09:00:00,26.1403345,85.3650192,SO2,3,20,11
India,Bihar,Muzaffarpur,"MIT-Daudpur Kothi, Muzaffarpur - BSPCB",14-04-2026 09:00:00,26.1403345,85.3650192,OZONE,10,64,11
India,Bihar,Muzaffarpur,"Muzaffarpur Collectorate, Muzaffarpur - BSPCB",14-04-2026 09:00:00,26.1209,85.3647,NO2,5,16,9
India,Bihar,Muzaffarpur,"Muzaffarpur Collectorate, Muzaffarpur - BSPCB",14-04-2026 09:00:00,26.1209,85.3647,SO2,4,8,6
India,Bihar,Muzaffarpur,"Muzaffarpur Collectorate, Muzaffarpur - BSPCB",14-04-2026 09:00:00,26.1209,85.3647,OZONE,7,15,7
India,Bihar,Patna,"DRM Office Danapur, Patna - BSPCB",14-04-2026 09:00:00,25.586562,85.043586,NO2,34,41,38
India,Andhra_Pradesh,Amaravati,"Secretariat, Amaravati - APPCB",14-04-2026 09:00:00,16.5150833,80.5181667,PM10,16,96,52
India,Andhra_Pradesh,Amaravati,"Secretariat, Amaravati - APPCB",14-04-2026 09:00:00,16.5150833,80.5181667,OZONE,6,81,10
India,Andhra_Pradesh,Anantapur,"Gulzarpet, Anantapur - APPCB",14-04-2026 09:00:00,14.675886,77.593027,NH3,5,8,5
India,Andhra_Pradesh,Chittoor,"Gangineni Cheruvu, Chittoor - APPCB",14-04-2026 09:00:00,13.204880,79.097889,NO2,32,40,36
India,Andhra_Pradesh,Chittoor,"Gangineni Cheruvu, Chittoor - APPCB",14-04-2026 09:00:00,13.204880,79.097889,SO2,9,16,12
India,Andhra_Pradesh,Chittoor,"Gangineni Cheruvu, Chittoor - APPCB",14-04-2026 09:00:00,13.204880,79.097889,CO,1,102,9
India,Andhra_Pradesh,Chittoor,"Gangineni Cheruvu, Chittoor - APPCB",14-04-2026 09:00:00,13.204880,79.097889,OZONE,21,36,26
India,Andhra_Pradesh,Eluru,"District Court, Eluru - APPCB",14-04-2026 09:00:00,16.711754,81.092095,NH3,1,4,2
India,Andhra_Pradesh,Eluru,"District Court, Eluru - APPCB",14-04-2026 09:00:00,16.711754,81.092095,OZONE,2,37,5
India,Andhra_Pradesh,Guntur,"Rajendra Nagar North, Guntur - APPCB",14-04-2026 09:00:00,16.316553,80.413302,PM2.5,49,192,95
India,Bihar,Aurangabad,"Gurdeo Nagar, Aurangabad - BSPCB",14-04-2026 09:00:00,24.75746,84.366208,NO2,7,8,8
India,Bihar,Aurangabad,"Gurdeo Nagar, Aurangabad - BSPCB",14-04-2026 09:00:00,24.75746,84.366208,CO,101,103,102
India,Bihar,Begusarai,"Lohiyanagar, Begusarai - BSPCB",14-04-2026 09:00:00,25.42742023,86.13886079,NO2,6,15,13
India,Bihar,Bettiah,"Kamalnath Nagar, Bettiah - BSPCB",14-04-2026 09:00:00,26.80365,84.51954,PM10,15,71,40
India,Bihar,Bettiah,"Kamalnath Nagar, Bettiah - BSPCB",14-04-2026 09:00:00,26.80365,84.51954,NO2,5,12,8
India,Bihar,Bettiah,"Kamalnath Nagar, Bettiah - BSPCB",14-04-2026 09:00:00,26.80365,84.51954,NH3,1,1,1
India,Bihar,Bettiah,"Kamalnath Nagar, Bettiah - BSPCB",14-04-2026 09:00:00,26.80365,84.51954,CO,19,88,36
India,Bihar,Bettiah,"Kamalnath Nagar, Bettiah - BSPCB",14-04-2026 09:00:00,26.80365,84.51954,OZONE,22,36,23
India,Bihar,Bhagalpur,"Mayaganj, Bhagalpur - BSPCB",14-04-2026 09:00:00,25.265194,87.012947,CO,80,102,86
India,Bihar,Bihar Sharif,"D M Colony, Bihar Sharif - BSPCB",14-04-2026 09:00:00,25.204762,85.514960,PM10,16,77,42
India,Assam,Nalbari,"Bata Chowk, Nalbari - PCBA",14-04-2026 09:00:00,26.446912,91.439057,CO,20,22,22
India,Assam,Silchar,"Tarapur, Silchar - PCBA",14-04-2026 09:00:00,24.82827,92.79525,NO2,17,24,21
India,Assam,Silchar,"Tarapur, Silchar - PCBA",14-04-2026 09:00:00,24.82827,92.79525,NH3,1,1,1
India,Assam,Sivasagar,"Girls College, Sivasagar - PCBA",14-04-2026 09:00:00,26.987634,94.636574,NH3,5,8,7
India,Bihar,Araria,"Kharahiya Basti, Araria - BSPCB",14-04-2026 09:00:00,26.146529,87.454184,SO2,37,73,55
India,Bihar,Aurangabad,"Gurdeo Nagar, Aurangabad - BSPCB",14-04-2026 09:00:00,24.75746,84.366208,PM2.5,12,50,30
India,Andhra_Pradesh,Visakhapatnam,"GVM Corporation, Visakhapatnam - APPCB",14-04-2026 09:00:00,17.72,83.3,CO,4,64,15
India,Arunachal_Pradesh,Naharlagun,"Naharlagun, Naharlagun - APSPCB",14-04-2026 09:00:00,27.103358,93.679645,PM10,31,77,54
India,Assam,Byrnihat,"Central Academy for SFS, Byrnihat - PCBA",14-04-2026 09:00:00,26.071318,91.87488,SO2,18,32,30
India,Assam,Guwahati,"IITG, Guwahati - PCBA",14-04-2026 09:00:00,26.2028636,91.70046436,NO2,NA,NA,NA
India,Assam,Guwahati,"LGBI Airport, Guwahati - PCBA",14-04-2026 09:00:00,26.10887,91.589544,PM10,NA,NA,NA
India,Bihar,Buxar,"Charitra Van, Buxar - BSPCB",14-04-2026 09:00:00,25.567520,83.966379,NH3,3,3,3
India,Bihar,Chhapra,"Darshan Nagar, Chhapra - BSPCB",14-04-2026 09:00:00,25.7808257,84.7446768,NH3,6,12,8
India,Bihar,Chhapra,"Darshan Nagar, Chhapra - BSPCB",14-04-2026 09:00:00,25.7808257,84.7446768,CO,10,20,13
India,Bihar,Chhapra,"Darshan Nagar, Chhapra - BSPCB",14-04-2026 09:00:00,25.7808257,84.7446768,OZONE,4,24,7
India,Bihar,Gaya,"Collectorate, Gaya - BSPCB",14-04-2026 09:00:00,24.7955,84.9994,NO2,5,9,9
India,Andhra_Pradesh,Tirupati,"Vaikuntapuram, Tirupati - APPCB",14-04-2026 09:00:00,13.615387,79.409230,OZONE,18,36,18
India,Andhra_Pradesh,Vijayawada,"Kanuru, Vijayawada - APPCB",14-04-2026 09:00:00,16.486692,80.699436,PM2.5,54,99,63
India,Andhra_Pradesh,Visakhapatnam,"GVM Corporation, Visakhapatnam - APPCB",14-04-2026 09:00:00,17.72,83.3,PM10,40,216,101
India,Andhra_Pradesh,Visakhapatnam,"GVM Corporation, Visakhapatnam - APPCB",14-04-2026 09:00:00,17.72,83.3,NO2,20,80,52
India,Bihar,Kishanganj,"SDM Office_Khagra, Kishanganj - BSPCB",14-04-2026 09:00:00,26.0881305,87.93840336,PM2.5,37,88,53
India,Bihar,Kishanganj,"SDM Office_Khagra, Kishanganj - BSPCB",14-04-2026 09:00:00,26.0881305,87.93840336,NH3,3,4,3
India,Bihar,Manguraha,"Forest Rest House, Manguraha - BSPCB",14-04-2026 09:00:00,27.308328,84.531742,NO2,3,27,10
India,Bihar,Manguraha,"Forest Rest House, Manguraha - BSPCB",14-04-2026 09:00:00,27.308328,84.531742,CO,30,32,32
India,Bihar,Gaya,"Kareemganj, Gaya - BSPCB",14-04-2026 09:00:00,24.792403,84.992416,CO,1,10,5
India,Bihar,Gaya,"SFTI Kusdihra, Gaya - BSPCB",14-04-2026 09:00:00,24.762518,84.982348,OZONE,13,70,21
India,Chhattisgarh,Kunjemura,"OP Jindal School, Kunjemura - CECB",14-04-2026 09:00:00,22.126650,83.483212,PM2.5,40,77,58
India,Chhattisgarh,Kunjemura,"OP Jindal School, Kunjemura - CECB",14-04-2026 09:00:00,22.126650,83.483212,NO2,19,96,52
India,Chhattisgarh,Kunjemura,"OP Jindal School, Kunjemura - CECB",14-04-2026 09:00:00,22.126650,83.483212,NH3,2,2,2
India,Chhattisgarh,Milupara,"Govt. Higher Secondary School, Milupara - CECB",14-04-2026 09:00:00,22.1910172,83.5197009,SO2,14,36,18
India,Chhattisgarh,Raipur,"AIIMS, Raipur - CECB",14-04-2026 09:00:00,21.258815,81.578979,PM10,60,162,95
India,Chhattisgarh,Raipur,"Bhatagaon New ISBT, Raipur - CECB",14-04-2026 09:00:00,21.219665,81.630094,PM10,51,413,107
India,Chhattisgarh,Raipur,"Bhatagaon New ISBT, Raipur - CECB",14-04-2026 09:00:00,21.219665,81.630094,NO2,3,57,29
India,Chhattisgarh,Raipur,"Bhatagaon New ISBT, Raipur - CECB",14-04-2026 09:00:00,21.219665,81.630094,SO2,3,53,22
India,Chhattisgarh,Raipur,"Bhatagaon New ISBT, Raipur - CECB",14-04-2026 09:00:00,21.219665,81.630094,OZONE,1,11,3
India,Chhattisgarh,Raipur,"Krishak Nagar, Raipur - CECB",14-04-2026 09:00:00,21.237755,81.705301,PM2.5,39,166,70
India,Chhattisgarh,Raipur,"Krishak Nagar, Raipur - CECB",14-04-2026 09:00:00,21.237755,81.705301,NH3,2,24,3
India,Chhattisgarh,Raipur,"Siltara Phase-II, Raipur - CECB",14-04-2026 09:00:00,21.371751,81.664929,PM10,24,155,97
India,Chhattisgarh,Raipur,"Siltara Phase-II, Raipur - CECB",14-04-2026 09:00:00,21.371751,81.664929,NO2,14,57,29
India,Bihar,Purnia,"Mariam Nagar, Purnia - BSPCB",14-04-2026 09:00:00,25.366336,87.117468,SO2,17,17,17
India,Bihar,Rajgir,"Dangi Tola, Rajgir - BSPCB",14-04-2026 09:00:00,25.03280,85.41948,PM10,36,71,50
India,Bihar,Rajgir,"Dangi Tola, Rajgir - BSPCB",14-04-2026 09:00:00,25.03280,85.41948,NH3,3,3,3
India,Bihar,Saharsa,"Police Line, Saharsa - BSPCB",14-04-2026 09:00:00,25.892357,86.590325,PM10,54,185,103
India,Bihar,Saharsa,"Police Line, Saharsa - BSPCB",14-04-2026 09:00:00,25.892357,86.590325,NO2,3,9,7
India,Bihar,Saharsa,"Police Line, Saharsa - BSPCB",14-04-2026 09:00:00,25.892357,86.590325,NH3,4,4,4
India,Bihar,Saharsa,"Police Line, Saharsa - BSPCB",14-04-2026 09:00:00,25.892357,86.590325,CO,38,39,38
India,Bihar,Samastipur,"DM Office_Kasipur, Samastipur - BSPCB",14-04-2026 09:00:00,25.859655,85.77944,OZONE,7,9,8
India,Bihar,Sasaram,"Dada Peer, Sasaram - BSPCB",14-04-2026 09:00:00,24.952822,84.002396,NO2,2,10,3
India,Bihar,Sasaram,"Dada Peer, Sasaram - BSPCB",14-04-2026 09:00:00,24.952822,84.002396,NH3,2,16,4
India,Bihar,Siwan,"Chitragupta Nagar, Siwan - BSPCB",14-04-2026 09:00:00,26.2271665,84.3570427,NH3,1,1,1
India,Bihar,Patna,"DRM Office Danapur, Patna - BSPCB",14-04-2026 09:00:00,25.586562,85.043586,OZONE,10,17,10
India,Bihar,Patna,"Govt. High School Shikarpur, Patna - BSPCB",14-04-2026 09:00:00,25.592539,85.227158,PM10,114,207,165
India,Bihar,Patna,"Muradpur, Patna - BSPCB",14-04-2026 09:00:00,25.619651,85.147382,PM2.5,90,323,198
India,Bihar,Patna,"Muradpur, Patna - BSPCB",14-04-2026 09:00:00,25.619651,85.147382,PM10,122,206,158
India,Bihar,Patna,"Muradpur, Patna - BSPCB",14-04-2026 09:00:00,25.619651,85.147382,NH3,4,5,5
India,Bihar,Patna,"Muradpur, Patna - BSPCB",14-04-2026 09:00:00,25.619651,85.147382,SO2,1,15,8
India,Bihar,Patna,"Muradpur, Patna - BSPCB",14-04-2026 09:00:00,25.619651,85.147382,CO,2,106,26
India,Bihar,Patna,"Rajbansi Nagar, Patna - BSPCB",14-04-2026 09:00:00,25.599486,85.113666,OZONE,24,34,29
India,Bihar,Patna,"Samanpura, Patna - BSPCB",14-04-2026 09:00:00,25.596727,85.085624,OZONE,8,143,30
India,Chhattisgarh,Bhilai,"Civic Center, Bhilai - Bhilai Steel Plant",14-04-2026 09:00:00,21.185571,81.343175,NH3,3,3,3
India,Chhattisgarh,Bhilai,"Hathkhoj, Bhilai - CECB",14-04-2026 09:00:00,21.224231,81.408350,PM2.5,29,204,54
India,Chhattisgarh,Bhilai,"Hathkhoj, Bhilai - CECB",14-04-2026 09:00:00,21.224231,81.408350,NO2,18,77,38
India,Chhattisgarh,Bilaspur,"Mangala, Bilaspur - NTPC",14-04-2026 09:00:00,22.08815,82.13737,PM2.5,61,128,82
India,Chhattisgarh,Bilaspur,"Mangala, Bilaspur - NTPC",14-04-2026 09:00:00,22.08815,82.13737,CO,2,138,35
India,Chhattisgarh,Korba,"Rampur, Korba - CECB",14-04-2026 09:00:00,22.368195,82.746431,NH3,1,1,1
India,Chhattisgarh,Korba,"Rampur, Korba - CECB",14-04-2026 09:00:00,22.368195,82.746431,SO2,6,128,49
India,Chhattisgarh,Raipur,"Siltara Phase-II, Raipur - CECB",14-04-2026 09:00:00,21.371751,81.664929,CO,17,20,18
India,Chhattisgarh,Raipur,"Siltara Phase-II, Raipur - CECB",14-04-2026 09:00:00,21.371751,81.664929,OZONE,4,72,8
India,Chhattisgarh,Tumidih,"OP Jindal Industrial Park, Tumidih - CECB",14-04-2026 09:00:00,22.06631475,83.33820077,CO,19,54,31
India,Delhi,Delhi,"Anand Vihar, Delhi - DPCC",14-04-2026 09:00:00,28.647622,77.3158090,PM2.5,15,318,129
India,Delhi,Delhi,"Anand Vihar, Delhi - DPCC",14-04-2026 09:00:00,28.647622,77.3158090,NH3,5,8,6
India,Delhi,Delhi,"Anand Vihar, Delhi - DPCC",14-04-2026 09:00:00,28.647622,77.3158090,SO2,24,49,34
India,Chandigarh,Chandigarh,"Sector-53, Chandigarh - CPCC",14-04-2026 09:00:00,30.719859,76.738637,PM2.5,8,88,29
India,Chandigarh,Chandigarh,"Sector-53, Chandigarh - CPCC",14-04-2026 09:00:00,30.719859,76.738637,SO2,6,6,6
India,Chhattisgarh,Bhilai,"32Bungalows, Bhilai - CECB",14-04-2026 09:00:00,21.194815,81.314770,PM2.5,38,55,47
India,Chhattisgarh,Bhilai,"32Bungalows, Bhilai - CECB",14-04-2026 09:00:00,21.194815,81.314770,NO2,5,72,26
India,Chhattisgarh,Bhilai,"Civic Center, Bhilai - Bhilai Steel Plant",14-04-2026 09:00:00,21.185571,81.343175,PM2.5,22,70,41
India,Delhi,Delhi,"Ashok Vihar, Delhi - DPCC",14-04-2026 09:00:00,28.695381,77.181665,PM10,121,430,213
India,Delhi,Delhi,"Aya Nagar, Delhi - IMD",14-04-2026 09:00:00,28.4706914,77.1099364,PM2.5,1,188,51
India,Delhi,Delhi,"Aya Nagar, Delhi - IMD",14-04-2026 09:00:00,28.4706914,77.1099364,CO,34,64,50
India,Delhi,Delhi,"Burari Crossing, Delhi - IMD",14-04-2026 09:00:00,28.7256504,77.2011573,PM2.5,4,263,99
India,Delhi,Delhi,"Commonwealth Sports Complex, Delhi - DPCC",14-04-2026 09:00:00,28.615828 ,77.271992 ,PM2.5,6,318,107
India,Delhi,Delhi,"Commonwealth Sports Complex, Delhi - DPCC",14-04-2026 09:00:00,28.615828 ,77.271992 ,CO,28,102,56
India,Delhi,Delhi,"DTU, Delhi - CPCB",14-04-2026 09:00:00,28.7500499,77.1112615,PM2.5,12,372,119
India,Delhi,Delhi,"DTU, Delhi - CPCB",14-04-2026 09:00:00,28.7500499,77.1112615,NH3,7,12,11
India,Bihar,Siwan,"Chitragupta Nagar, Siwan - BSPCB",14-04-2026 09:00:00,26.2271665,84.3570427,OZONE,10,13,13
India,Chandigarh,Chandigarh,"Sector 22, Chandigarh - CPCC",14-04-2026 09:00:00,30.735567,76.775714,NO2,5,15,10
India,Delhi,Delhi,"DTU, Delhi - CPCB",14-04-2026 09:00:00,28.7500499,77.1112615,OZONE,26,37,28
India,Delhi,Delhi,"Dr. Karni Singh Shooting Range, Delhi - DPCC",14-04-2026 09:00:00,28.498571,77.264840,PM10,83,246,143
India,Delhi,Delhi,"Dr. Karni Singh Shooting Range, Delhi - DPCC",14-04-2026 09:00:00,28.498571,77.264840,OZONE,11,73,21
India,Delhi,Delhi,"Dwarka-Sector 8, Delhi - DPCC ",14-04-2026 09:00:00,28.5710274,77.0719006,NO2,30,140,75
India,Delhi,Delhi,"IGI Airport (T3), Delhi - IMD",14-04-2026 09:00:00,28.5627763,77.1180053,PM2.5,15,242,72
India,Delhi,Delhi,"IGI Airport (T3), Delhi - IMD",14-04-2026 09:00:00,28.5627763,77.1180053,PM10,61,296,137
India,Delhi,Delhi,"IGI Airport (T3), Delhi - IMD",14-04-2026 09:00:00,28.5627763,77.1180053,NO2,12,48,30
India,Delhi,Delhi,"IGI Airport (T3), Delhi - IMD",14-04-2026 09:00:00,28.5627763,77.1180053,CO,33,73,60
India,Delhi,Delhi,"IGI Airport (T3), Delhi - IMD",14-04-2026 09:00:00,28.5627763,77.1180053,OZONE,20,86,22
India,Delhi,Delhi,"IGNOU_Maidan Garhi, Delhi - DPCC",14-04-2026 09:00:00,28.493624 ,77.201159 ,NH3,1,5,3
India,Delhi,Delhi,"IGNOU_Maidan Garhi, Delhi - DPCC",14-04-2026 09:00:00,28.493624 ,77.201159 ,OZONE,13,160,32
India,Delhi,Delhi,"IHBAS, Dilshad Garden, Delhi - CPCB",14-04-2026 09:00:00,28.6811736,77.3025234,SO2,3,34,19
India,Delhi,Delhi,"IIT Delhi, Delhi - IITM",14-04-2026 09:00:00,28.542460,77.191651,PM2.5,10,100,59
India,Delhi,Delhi,"IIT Delhi, Delhi - IITM",14-04-2026 09:00:00,28.542460,77.191651,PM10,96,227,134
India,Delhi,Delhi,"IIT Delhi, Delhi - IITM",14-04-2026 09:00:00,28.542460,77.191651,CO,66,105,90
India,Delhi,Delhi,"IIT Delhi, Delhi - IITM",14-04-2026 09:00:00,28.542460,77.191651,OZONE,6,57,10
India,Delhi,Delhi,"ITO, Delhi - CPCB",14-04-2026 09:00:00,28.628624,77.241060,PM10,54,261,128
India,Delhi,Delhi,"ITO, Delhi - CPCB",14-04-2026 09:00:00,28.628624,77.241060,NH3,2,8,4
India,Delhi,Delhi,"ITO, Delhi - CPCB",14-04-2026 09:00:00,28.628624,77.241060,CO,30,107,65
India,Delhi,Delhi,"JNU, Delhi - DPCC",14-04-2026 09:00:00,28.540721 ,77.168544 ,NH3,2,4,2
India,Delhi,Delhi,"Lodhi Road, Delhi - IMD",14-04-2026 09:00:00,28.5918245,77.2273074,CO,17,42,31
India,Delhi,Delhi,"Major Dhyan Chand National Stadium, Delhi - DPCC",14-04-2026 09:00:00,28.611281,77.237738,PM10,59,213,116
India,Delhi,Delhi,"NSIT Dwarka, Delhi - CPCB",14-04-2026 09:00:00,28.60909,77.0325413,OZONE,28,155,48
India,Delhi,Delhi,"NSUT Jaffarpur, Delhi - DPCC",14-04-2026 09:00:00,28.594004 ,76.909423 ,PM2.5,2,375,185
India,Delhi,Delhi,"NSUT Jaffarpur, Delhi - DPCC",14-04-2026 09:00:00,28.594004 ,76.909423 ,NO2,6,113,47
India,Delhi,Delhi,"NSUT Jaffarpur, Delhi - DPCC",14-04-2026 09:00:00,28.594004 ,76.909423 ,NH3,1,3,2
India,Delhi,Delhi,"Najafgarh, Delhi - DPCC",14-04-2026 09:00:00,28.570173,76.933762,SO2,17,96,38
India,Delhi,Delhi,"Narela, Delhi - DPCC",14-04-2026 09:00:00,28.822836,77.101981,NH3,4,7,6
India,Delhi,Delhi,"Narela, Delhi - DPCC",14-04-2026 09:00:00,28.822836,77.101981,CO,28,54,39
India,Delhi,Delhi,"R K Puram, Delhi - DPCC",14-04-2026 09:00:00,28.563262,77.186937,PM2.5,12,306,96
India,Delhi,Delhi,"R K Puram, Delhi - DPCC",14-04-2026 09:00:00,28.563262,77.186937,NO2,1,124,61
India,Delhi,Delhi,"Rohini, Delhi - DPCC",14-04-2026 09:00:00,28.732528,77.119920,NH3,5,8,6
India,Delhi,Delhi,"Rohini, Delhi - DPCC",14-04-2026 09:00:00,28.732528,77.119920,SO2,8,81,26
India,Delhi,Delhi,"Shadipur, Delhi - CPCB",14-04-2026 09:00:00,28.6514781,77.1473105,NO2,28,91,56
India,Delhi,Delhi,"Shadipur, Delhi - CPCB",14-04-2026 09:00:00,28.6514781,77.1473105,NH3,5,9,7
India,Delhi,Delhi,"Vivek Vihar, Delhi - DPCC",14-04-2026 09:00:00,28.672342,77.315260,NH3,5,8,7
India,Delhi,Delhi,"Vivek Vihar, Delhi - DPCC",14-04-2026 09:00:00,28.672342,77.315260,OZONE,9,72,22
India,Delhi,Delhi,"Wazirpur, Delhi - DPCC",14-04-2026 09:00:00,28.699793,77.165453,NO2,57,156,109
India,Delhi,Delhi,"Wazirpur, Delhi - DPCC",14-04-2026 09:00:00,28.699793,77.165453,CO,40,105,56
India,Gujarat,Ahmedabad,"Chandkheda, Ahmedabad - IITM",14-04-2026 09:00:00,23.107969,72.574648,PM2.5,31,70,52
India,Delhi,Delhi,"Major Dhyan Chand National Stadium, Delhi - DPCC",14-04-2026 09:00:00,28.611281,77.237738,NH3,10,16,12
India,Delhi,Delhi,"Major Dhyan Chand National Stadium, Delhi - DPCC",14-04-2026 09:00:00,28.611281,77.237738,CO,34,100,72
India,Delhi,Delhi,"Mandir Marg, Delhi - DPCC",14-04-2026 09:00:00,28.636429,77.201067,PM2.5,70,353,145
India,Delhi,Delhi,"Mundka, Delhi - DPCC",14-04-2026 09:00:00,28.684678,77.076574,NO2,30,112,77
India,Delhi,Delhi,"Mundka, Delhi - DPCC",14-04-2026 09:00:00,28.684678,77.076574,CO,8,94,65
India,Delhi,Delhi,"New Moti Bagh, Delhi - MHUA",14-04-2026 09:00:00,28.57834,77.18400,CO,12,65,32
India,Delhi,Delhi,"Okhla Phase-2, Delhi - DPCC",14-04-2026 09:00:00,28.530785,77.271255,PM2.5,18,311,84
India,Delhi,Delhi,"Okhla Phase-2, Delhi - DPCC",14-04-2026 09:00:00,28.530785,77.271255,SO2,9,48,28
India,Delhi,Delhi,"Punjabi Bagh, Delhi - DPCC",14-04-2026 09:00:00,28.674045,77.131023,PM2.5,2,328,127
India,Delhi,Delhi,"Punjabi Bagh, Delhi - DPCC",14-04-2026 09:00:00,28.674045,77.131023,CO,40,74,53
India,Delhi,Delhi,"Sonia Vihar, Delhi - DPCC",14-04-2026 09:00:00,28.710508,77.249485,CO,18,110,73
India,Delhi,Delhi,"Sri Aurobindo Marg, Delhi - DPCC",14-04-2026 09:00:00,28.531346,77.190156,PM10,69,199,102
India,Delhi,Delhi,"Sri Aurobindo Marg, Delhi - DPCC",14-04-2026 09:00:00,28.531346,77.190156,CO,6,50,27
India,Delhi,Delhi,"Vivek Vihar, Delhi - DPCC",14-04-2026 09:00:00,28.672342,77.315260,PM2.5,22,258,96
India,Delhi,Delhi,"Pusa, Delhi - IMD",14-04-2026 09:00:00,28.636110,77.173332,PM2.5,11,99,59
India,Delhi,Delhi,"Pusa, Delhi - IMD",14-04-2026 09:00:00,28.636110,77.173332,PM10,93,177,121
India,Delhi,Delhi,"Pusa, Delhi - IMD",14-04-2026 09:00:00,28.636110,77.173332,NO2,16,111,48
India,Gujarat,Gandhinagar,"IIPHG Lekawada, Gandhinagar - IITM",14-04-2026 09:00:00,23.243639,72.68994,CO,36,109,67
India,Gujarat,Gandhinagar,"Sector-10, Gandhinagar - GPCB",14-04-2026 09:00:00,23.221714,72.654328,OZONE,10,31,12
India,Gujarat,Mehsana,"Sadanand Nagar, Mehsana - Nexteng Enviro",14-04-2026 09:00:00,23.593150,72.372792,NH3,2,5,4
India,Gujarat,Nandesari,"GIDC, Nandesari - Nandesari Ind. Association",14-04-2026 09:00:00,22.410802,73.097923,NO2,5,280,43
India,Gujarat,Rajkot,"Mavdi, Rajkot - Nexteng Enviro ",14-04-2026 09:00:00,22.248853,70.776774,PM2.5,17,73,41
India,Gujarat,Surat,"Katargam, Surat - Nexteng Enviro",14-04-2026 09:00:00,21.217779 ,72.834787 ,NH3,1,1,1
India,Haryana,Mandikhera,"General Hospital, Mandikhera(Nuh) - HSPCB",14-04-2026 09:00:00,27.9002,76.9938,NO2,19,23,21
India,Haryana,Mandikhera,"General Hospital, Mandikhera(Nuh) - HSPCB",14-04-2026 09:00:00,27.9002,76.9938,OZONE,23,32,28
India,Haryana,Manesar,"Sector-2 IMT, Manesar - HSPCB",14-04-2026 09:00:00,28.360699,76.936090,PM10,45,178,107
India,Haryana,Narnaul,"Shastri Nagar, Narnaul - HSPCB",14-04-2026 09:00:00,28.060249,76.113115,NH3,4,5,5
India,Haryana,Palwal,"Shyam Nagar, Palwal - HSPCB",14-04-2026 09:00:00,28.1485564,77.3320667,PM10,57,87,70
India,Haryana,Palwal,"Shyam Nagar, Palwal - HSPCB",14-04-2026 09:00:00,28.1485564,77.3320667,NH3,8,9,9
India,Haryana,Panchgaon,"Amity University, Panchgaon - IITM",14-04-2026 09:00:00,28.3153,76.9143,PM10,55,134,85
India,Gujarat,Ahmedabad,"SAC ISRO Bopal, Ahmedabad - IITM",14-04-2026 09:00:00,23.041137,72.456691,OZONE,10,132,19
India,Gujarat,Ahmedabad,"SVPI Airport Hansol, Ahmedabad - IITM",14-04-2026 09:00:00,23.076793,72.627874,NO2,8,71,30
India,Gujarat,Bhavnagar,"Vidhyanagar, Bhavnagar - Nexteng Enviro",14-04-2026 09:00:00,21.755417,72.139056,NO2,58,76,65
India,Gujarat,Bhavnagar,"Vidhyanagar, Bhavnagar - Nexteng Enviro",14-04-2026 09:00:00,21.755417,72.139056,NH3,3,4,3
India,Gujarat,Gandhinagar,"GIFT City, Gandhinagar - IITM",14-04-2026 09:00:00,23.163798,72.677768,CO,14,80,38
India,Gujarat,Gandhinagar,"GIFT City, Gandhinagar - IITM",14-04-2026 09:00:00,23.163798,72.677768,OZONE,2,124,9
India,Gujarat,Gandhinagar,"IIPHG Lekawada, Gandhinagar - IITM",14-04-2026 09:00:00,23.243639,72.68994,PM10,68,188,121
India,Gujarat,Surat,"Science Center, Surat - SMC",14-04-2026 09:00:00,21.170046,72.795405,NO2,NA,NA,NA
India,Gujarat,Surat,"Science Center, Surat - SMC",14-04-2026 09:00:00,21.170046,72.795405,SO2,17,20,19
India,Gujarat,Vatva,"Phase-4 GIDC, Vatva - GPCB",14-04-2026 09:00:00,22.969611,72.643500,SO2,70,110,90
India,Gujarat,Vatva,"Phase-4 GIDC, Vatva - GPCB",14-04-2026 09:00:00,22.969611,72.643500,CO,36,108,52
India,Haryana,Ambala,"Patti Mehar, Ambala - HSPCB",14-04-2026 09:00:00,30.379589,76.778328,OZONE,15,24,20
India,Haryana,Bahadurgarh,"Arya Nagar, Bahadurgarh - HSPCB",14-04-2026 09:00:00,28.6701,76.9254,PM2.5,54,81,64
India,Haryana,Bahadurgarh,"Arya Nagar, Bahadurgarh - HSPCB",14-04-2026 09:00:00,28.6701,76.9254,PM10,79,102,88
India,Haryana,Gurugram,"NISE Gwal Pahari, Gurugram - IMD",14-04-2026 09:00:00,28.422681,77.148944,PM2.5,11,168,74
India,Haryana,Gurugram,"Sector-51, Gurugram - HSPCB",14-04-2026 09:00:00,28.4227,77.0667,PM2.5,118,397,247
India,Haryana,Gurugram,"Sector-51, Gurugram - HSPCB",14-04-2026 09:00:00,28.4227,77.0667,CO,10,60,40
India,Haryana,Gurugram,"Teri Gram, Gurugram - HSPCB",14-04-2026 09:00:00,28.4275,77.1465,PM2.5,123,252,207
India,Haryana,Gurugram,"Teri Gram, Gurugram - HSPCB",14-04-2026 09:00:00,28.4275,77.1465,NO2,36,77,52
India,Haryana,Jind,"Police Lines, Jind - HSPCB",14-04-2026 09:00:00,29.307814,76.337619,NO2,29,52,38
India,Gujarat,Ahmedabad,"Chandkheda, Ahmedabad - IITM",14-04-2026 09:00:00,23.107969,72.574648,CO,4,56,22
India,Gujarat,Ahmedabad,"Gyaspur, Ahmedabad - IITM",14-04-2026 09:00:00,22.977134,72.553024,PM10,NA,NA,NA
India,Gujarat,Ahmedabad,"Raikhad, Ahmedabad - IITM",14-04-2026 09:00:00,23.020509,72.579261,PM2.5,47,91,71
India,Gujarat,Ahmedabad,"Raikhad, Ahmedabad - IITM",14-04-2026 09:00:00,23.020509,72.579261,SO2,10,84,19
India,Gujarat,Ahmedabad,"Rakhial, Ahmedabad - IITM",14-04-2026 09:00:00,23.016834,72.625775,PM2.5,37,255,90
India,Gujarat,Ahmedabad,"SAC ISRO Bopal, Ahmedabad - IITM",14-04-2026 09:00:00,23.041137,72.456691,PM10,80,149,104
India,Haryana,Dharuhera,"Municipal Corporation Office, Dharuhera -  HSPCB",14-04-2026 09:00:00,28.206800,76.799700,PM10,47,159,98
India,Haryana,Dharuhera,"Municipal Corporation Office, Dharuhera -  HSPCB",14-04-2026 09:00:00,28.206800,76.799700,SO2,6,7,7
India,Haryana,Dharuhera,"Municipal Corporation Office, Dharuhera -  HSPCB",14-04-2026 09:00:00,28.206800,76.799700,CO,54,102,85
India,Haryana,Dharuhera,"Municipal Corporation Office, Dharuhera -  HSPCB",14-04-2026 09:00:00,28.206800,76.799700,OZONE,23,28,26
India,Haryana,Faridabad,"New Industrial Town, Faridabad - HSPCB",14-04-2026 09:00:00,28.39072,77.30059,CO,82,98,93
India,Haryana,Faridabad,"Sector 11, Faridabad - HSPCB",14-04-2026 09:00:00,28.376058,77.315741,NO2,30,32,31
India,Haryana,Karnal,"Sector-12, Karnal - HSPCB",14-04-2026 09:00:00,29.695300,77.002700,PM2.5,59,121,83
India,Haryana,Karnal,"Sector-12, Karnal - HSPCB",14-04-2026 09:00:00,29.695300,77.002700,SO2,7,11,9
India,Haryana,Kurukshetra,"Sector-7, Kurukshetra - HSPCB",14-04-2026 09:00:00,29.966942,76.875879,PM10,20,218,133
