country,state,city,station,last_update,latitude,longitude,pollutant_id,min_value,max_value,avg_value
India,Assam,Guwahati,"Pan Bazaar, Guwahati - PCBA",17-11-2025 07:00:00,26.187500,91.744194,PM2.5,14,97,54
India,Assam,Guwahati,"Railway Colony, Guwahati - PCBA",17-11-2025 07:00:00,26.181742,91.78063,SO2,31,34,32
India,Assam,Nagaon,"Christianpatty, Nagaon - PCBA",17-11-2025 07:00:00,26.349082,92.68449,PM2.5,28,29,28
India,Assam,Nagaon,"Christianpatty, Nagaon - PCBA",17-11-2025 07:00:00,26.349082,92.68449,NH3,4,4,4
India,Assam,Nagaon,"Christianpatty, Nagaon - PCBA",17-11-2025 07:00:00,26.349082,92.68449,SO2,11,13,12
India,Assam,Nagaon,"Christianpatty, Nagaon - PCBA",17-11-2025 07:00:00,26.349082,92.68449,OZONE,8,9,9
India,Assam,Nalbari,"Bata Chowk, Nalbari - PCBA",17-11-2025 07:00:00,26.446912,91.439057,NH3,4,8,6
India,Assam,Nalbari,"Bata Chowk, Nalbari - PCBA",17-11-2025 07:00:00,26.446912,91.439057,SO2,7,8,8
India,Assam,Silchar,"Tarapur, Silchar - PCBA",17-11-2025 07:00:00,24.82827,92.79525,PM10,52,73,62
India,Assam,Silchar,"Tarapur, Silchar - PCBA",17-11-2025 07:00:00,24.82827,92.79525,NH3,1,1,1
India,Andhra_Pradesh,Rajamahendravaram,"Anand Kala Kshetram, Rajamahendravaram - APPCB",17-11-2025 07:00:00,16.9872867,81.7363176,OZONE,15,55,25
India,Andhra_Pradesh,Tirumala,"Toll Gate, Tirumala - APPCB",17-11-2025 07:00:00,13.67,79.35,NO2,15,24,21
India,Andhra_Pradesh,Tirumala,"Toll Gate, Tirumala - APPCB",17-11-2025 07:00:00,13.67,79.35,NH3,1,1,1
India,Andhra_Pradesh,Vijayawada,"HB Colony, Vijayawada - APPCB",17-11-2025 07:00:00,16.536107,80.594233,OZONE,NA,NA,NA
India,Andhra_Pradesh,Vijayawada,"Rajiv Gandhi Park, Vijayawada - APPCB",17-11-2025 07:00:00,16.509717,80.612222,NO2,53,116,80
India,Andhra_Pradesh,Vijayawada,"Rajiv Gandhi Park, Vijayawada - APPCB",17-11-2025 07:00:00,16.509717,80.612222,SO2,9,14,10
India,Andhra_Pradesh,Vijayawada,"Rajiv Gandhi Park, Vijayawada - APPCB",17-11-2025 07:00:00,16.509717,80.612222,OZONE,10,58,19
India,Andhra_Pradesh,Vijayawada,"Rajiv Nagar, Vijayawada - APPCB",17-11-2025 07:00:00,16.554731,80.649110,PM10,37,47,40
India,Andhra_Pradesh,Amaravati,"Secretariat, Amaravati - APPCB",17-11-2025 07:00:00,16.5150833,80.5181667,OZONE,6,54,21
India,Andhra_Pradesh,Anantapur,"Gulzarpet, Anantapur - APPCB",17-11-2025 07:00:00,14.675886,77.593027,PM2.5,45,71,61
India,Andhra_Pradesh,Chittoor,"Gangineni Cheruvu, Chittoor - APPCB",17-11-2025 07:00:00,13.204880,79.097889,OZONE,51,58,55
India,Andhra_Pradesh,Kadapa,"Yerramukkapalli, Kadapa - APPCB",17-11-2025 07:00:00,14.465052,78.824187,NO2,14,14,14
India,Andhra_Pradesh,Rajamahendravaram,"Anand Kala Kshetram, Rajamahendravaram - APPCB",17-11-2025 07:00:00,16.9872867,81.7363176,PM2.5,68,178,115
India,Andhra_Pradesh,Rajamahendravaram,"Anand Kala Kshetram, Rajamahendravaram - APPCB",17-11-2025 07:00:00,16.9872867,81.7363176,PM10,72,148,115
India,Assam,Sivasagar,"Girls College, Sivasagar - PCBA",17-11-2025 07:00:00,26.987634,94.636574,NH3,7,23,13
India,Bihar,Araria,"Kharahiya Basti, Araria - BSPCB",17-11-2025 07:00:00,26.146529,87.454184,CO,26,34,31
India,Bihar,Araria,"Kharahiya Basti, Araria - BSPCB",17-11-2025 07:00:00,26.146529,87.454184,OZONE,9,10,10
India,Bihar,Arrah,"New DM Office, Arrah - BSPCB",17-11-2025 07:00:00,25.5626095,84.663264,PM2.5,33,164,84
India,Bihar,Arrah,"New DM Office, Arrah - BSPCB",17-11-2025 07:00:00,25.5626095,84.663264,NO2,5,9,7
India,Bihar,Arrah,"New DM Office, Arrah - BSPCB",17-11-2025 07:00:00,25.5626095,84.663264,SO2,9,10,10
India,Bihar,Arrah,"New DM Office, Arrah - BSPCB",17-11-2025 07:00:00,25.5626095,84.663264,OZONE,5,15,8
India,Bihar,Aurangabad,"Gurdeo Nagar, Aurangabad - BSPCB",17-11-2025 07:00:00,24.75746,84.366208,NO2,7,8,8
India,Bihar,Gaya,"Kareemganj, Gaya - BSPCB",17-11-2025 07:00:00,24.792403,84.992416,NO2,1,7,4
India,Bihar,Gaya,"Kareemganj, Gaya - BSPCB",17-11-2025 07:00:00,24.792403,84.992416,CO,38,44,41
India,Bihar,Gaya,"SFTI Kusdihra, Gaya - BSPCB",17-11-2025 07:00:00,24.762518,84.982348,SO2,8,16,10
India,Bihar,Hajipur,"Industrial Area, Hajipur - BSPCB",17-11-2025 07:00:00,25.697189,85.245900,SO2,NA,NA,NA
India,Bihar,Hajipur,"Industrial Area, Hajipur - BSPCB",17-11-2025 07:00:00,25.697189,85.245900,CO,NA,NA,NA
India,Bihar,Katihar,"Mirchaibari, Katihar - BSPCB",17-11-2025 07:00:00,25.560083,87.553265,OZONE,4,9,6
India,Bihar,Kishanganj,"SDM Office_Khagra, Kishanganj - BSPCB",17-11-2025 07:00:00,26.0881305,87.93840336,PM2.5,38,57,45
India,Andhra_Pradesh,Visakhapatnam,"GVM Corporation, Visakhapatnam - APPCB",17-11-2025 07:00:00,17.72,83.3,PM10,122,156,137
India,Andhra_Pradesh,Visakhapatnam,"GVM Corporation, Visakhapatnam - APPCB",17-11-2025 07:00:00,17.72,83.3,CO,10,42,18
India,Assam,Byrnihat,"Central Academy for SFS, Byrnihat - PCBA",17-11-2025 07:00:00,26.071318,91.87488,NH3,4,4,4
India,Assam,Guwahati,"IITG, Guwahati - PCBA",17-11-2025 07:00:00,26.2028636,91.70046436,PM10,36,95,68
India,Assam,Guwahati,"IITG, Guwahati - PCBA",17-11-2025 07:00:00,26.2028636,91.70046436,CO,7,12,11
India,Assam,Guwahati,"IITG, Guwahati - PCBA",17-11-2025 07:00:00,26.2028636,91.70046436,OZONE,1,39,1
India,Assam,Guwahati,"LGBI Airport, Guwahati - PCBA",17-11-2025 07:00:00,26.10887,91.589544,PM10,39,92,70
India,Bihar,Manguraha,"Forest Rest House, Manguraha - BSPCB",17-11-2025 07:00:00,27.308328,84.531742,NH3,1,2,2
India,Bihar,Motihari,"Gandak Colony, Motihari - BSPCB",17-11-2025 07:00:00,26.63086,84.90051,PM2.5,25,200,97
India,Bihar,Motihari,"Gandak Colony, Motihari - BSPCB",17-11-2025 07:00:00,26.63086,84.90051,NO2,9,13,11
India,Bihar,Munger,"Town Hall, Munger - BSPCB",17-11-2025 07:00:00,25.376776,86.471523,NO2,4,5,5
India,Bihar,Munger,"Town Hall, Munger - BSPCB",17-11-2025 07:00:00,25.376776,86.471523,NH3,5,7,6
India,Bihar,Munger,"Town Hall, Munger - BSPCB",17-11-2025 07:00:00,25.376776,86.471523,SO2,16,18,17
India,Bihar,Muzaffarpur,"Buddha Colony, Muzaffarpur - BSPCB",17-11-2025 07:00:00,26.11442,85.39813,PM10,70,117,98
India,Bihar,Muzaffarpur,"Buddha Colony, Muzaffarpur - BSPCB",17-11-2025 07:00:00,26.11442,85.39813,OZONE,29,181,54
India,Bihar,Muzaffarpur,"MIT-Daudpur Kothi, Muzaffarpur - BSPCB",17-11-2025 07:00:00,26.1403345,85.3650192,PM10,62,69,66
India,Bihar,Muzaffarpur,"MIT-Daudpur Kothi, Muzaffarpur - BSPCB",17-11-2025 07:00:00,26.1403345,85.3650192,NO2,17,18,17
India,Bihar,Muzaffarpur,"Muzaffarpur Collectorate, Muzaffarpur - BSPCB",17-11-2025 07:00:00,26.1209,85.3647,NO2,6,15,11
India,Bihar,Patna,"DRM Office Danapur, Patna - BSPCB",17-11-2025 07:00:00,25.586562,85.043586,NH3,7,18,10
India,Bihar,Patna,"Govt. High School Shikarpur, Patna - BSPCB",17-11-2025 07:00:00,25.592539,85.227158,NO2,11,29,18
India,Bihar,Bhagalpur,"Mayaganj, Bhagalpur - BSPCB",17-11-2025 07:00:00,25.265194,87.012947,OZONE,30,107,62
India,Bihar,Bihar Sharif,"D M Colony, Bihar Sharif - BSPCB",17-11-2025 07:00:00,25.204762,85.514960,PM2.5,53,257,118
India,Bihar,Chhapra,"Darshan Nagar, Chhapra - BSPCB",17-11-2025 07:00:00,25.7808257,84.7446768,PM10,1,71,40
India,Bihar,Gaya,"Kareemganj, Gaya - BSPCB",17-11-2025 07:00:00,24.792403,84.992416,PM2.5,58,303,141
India,Bihar,Begusarai,"Lohiyanagar, Begusarai - BSPCB",17-11-2025 07:00:00,25.42742023,86.13886079,SO2,36,39,38
India,Bihar,Bettiah,"Kamalnath Nagar, Bettiah - BSPCB",17-11-2025 07:00:00,26.80365,84.51954,OZONE,19,23,22
India,Bihar,Bhagalpur,"Mayaganj, Bhagalpur - BSPCB",17-11-2025 07:00:00,25.265194,87.012947,NO2,6,8,7
India,Delhi,Delhi,"Chandni Chowk, Delhi - IITM",17-11-2025 07:00:00,28.656756,77.227234,PM2.5,285,431,373
India,Delhi,Delhi,"Chandni Chowk, Delhi - IITM",17-11-2025 07:00:00,28.656756,77.227234,PM10,174,469,383
India,Delhi,Delhi,"Chandni Chowk, Delhi - IITM",17-11-2025 07:00:00,28.656756,77.227234,NO2,19,33,26
India,Delhi,Delhi,"Chandni Chowk, Delhi - IITM",17-11-2025 07:00:00,28.656756,77.227234,CO,86,117,116
India,Delhi,Delhi,"DTU, Delhi - CPCB",17-11-2025 07:00:00,28.7500499,77.1112615,PM2.5,219,500,402
India,Delhi,Delhi,"DTU, Delhi - CPCB",17-11-2025 07:00:00,28.7500499,77.1112615,PM10,135,408,303
India,Delhi,Delhi,"DTU, Delhi - CPCB",17-11-2025 07:00:00,28.7500499,77.1112615,SO2,32,35,33
India,Delhi,Delhi,"DTU, Delhi - CPCB",17-11-2025 07:00:00,28.7500499,77.1112615,CO,26,87,72
India,Delhi,Delhi,"Dr. Karni Singh Shooting Range, Delhi - DPCC",17-11-2025 07:00:00,28.498571,77.264840,SO2,22,40,29
India,Bihar,Sasaram,"Dada Peer, Sasaram - BSPCB",17-11-2025 07:00:00,24.952822,84.002396,PM2.5,44,179,78
India,Bihar,Sasaram,"Dada Peer, Sasaram - BSPCB",17-11-2025 07:00:00,24.952822,84.002396,PM10,NA,NA,NA
India,Bihar,Sasaram,"Dada Peer, Sasaram - BSPCB",17-11-2025 07:00:00,24.952822,84.002396,NH3,2,6,3
India,Bihar,Siwan,"Chitragupta Nagar, Siwan - BSPCB",17-11-2025 07:00:00,26.2271665,84.3570427,SO2,8,8,8
India,Bihar,Siwan,"Chitragupta Nagar, Siwan - BSPCB",17-11-2025 07:00:00,26.2271665,84.3570427,OZONE,13,14,13
India,Chandigarh,Chandigarh,"Sector 22, Chandigarh - CPCC",17-11-2025 07:00:00,30.735567,76.775714,NH3,6,10,9
India,Chandigarh,Chandigarh,"Sector 22, Chandigarh - CPCC",17-11-2025 07:00:00,30.735567,76.775714,OZONE,5,71,6
India,Chandigarh,Chandigarh,"Sector-53, Chandigarh - CPCC",17-11-2025 07:00:00,30.719859,76.738637,PM2.5,55,273,140
India,Chandigarh,Chandigarh,"Sector-53, Chandigarh - CPCC",17-11-2025 07:00:00,30.719859,76.738637,PM10,52,161,106
India,Chhattisgarh,Bhilai,"32Bungalows, Bhilai - CECB",17-11-2025 07:00:00,21.194815,81.314770,NH3,1,4,3
India,Chhattisgarh,Bhilai,"32Bungalows, Bhilai - CECB",17-11-2025 07:00:00,21.194815,81.314770,CO,18,76,41
India,Chhattisgarh,Bhilai,"32Bungalows, Bhilai - CECB",17-11-2025 07:00:00,21.194815,81.314770,OZONE,3,80,14
India,Chhattisgarh,Bhilai,"Civic Center, Bhilai - Bhilai Steel Plant",17-11-2025 07:00:00,21.185571,81.343175,PM2.5,NA,NA,NA
India,Delhi,Delhi,"Ashok Vihar, Delhi - DPCC",17-11-2025 07:00:00,28.695381,77.181665,PM2.5,177,500,390
India,Delhi,Delhi,"Aya Nagar, Delhi - IMD",17-11-2025 07:00:00,28.4706914,77.1099364,PM2.5,191,382,312
India,Delhi,Delhi,"Aya Nagar, Delhi - IMD",17-11-2025 07:00:00,28.4706914,77.1099364,NO2,15,66,37
India,Delhi,Delhi,"Aya Nagar, Delhi - IMD",17-11-2025 07:00:00,28.4706914,77.1099364,OZONE,22,149,31
India,Delhi,Delhi,"Burari Crossing, Delhi - IMD",17-11-2025 07:00:00,28.7256504,77.2011573,PM2.5,162,476,348
India,Delhi,Delhi,"Burari Crossing, Delhi - IMD",17-11-2025 07:00:00,28.7256504,77.2011573,OZONE,14,143,19
India,Chhattisgarh,Korba,"Urja Nagar, Korba - CECB",17-11-2025 07:00:00,22.348441,82.549611,SO2,1,12,5
India,Chhattisgarh,Kunjemura,"OP Jindal School, Kunjemura - CECB",17-11-2025 07:00:00,22.126650,83.483212,SO2,2,22,11
India,Chhattisgarh,Kunjemura,"OP Jindal School, Kunjemura - CECB",17-11-2025 07:00:00,22.126650,83.483212,OZONE,5,74,7
India,Chhattisgarh,Raipur,"AIIMS, Raipur - CECB",17-11-2025 07:00:00,21.258815,81.578979,OZONE,6,6,6
India,Chhattisgarh,Raipur,"Bhatagaon New ISBT, Raipur - CECB",17-11-2025 07:00:00,21.219665,81.630094,PM2.5,31,55,47
India,Chhattisgarh,Raipur,"Krishak Nagar, Raipur - CECB",17-11-2025 07:00:00,21.237755,81.705301,NO2,19,24,22
India,Chhattisgarh,Raipur,"Siltara Phase-II, Raipur - CECB",17-11-2025 07:00:00,21.371751,81.664929,PM10,35,165,112
India,Chhattisgarh,Raipur,"Siltara Phase-II, Raipur - CECB",17-11-2025 07:00:00,21.371751,81.664929,NH3,3,3,3
India,Delhi,Delhi,"Anand Vihar, Delhi - DPCC",17-11-2025 07:00:00,28.647622,77.3158090,PM10,159,467,362
India,Bihar,Purnia,"Mariam Nagar, Purnia - BSPCB",17-11-2025 07:00:00,25.366336,87.117468,SO2,13,16,15
India,Bihar,Saharsa,"Police Line, Saharsa - BSPCB",17-11-2025 07:00:00,25.892357,86.590325,NO2,6,9,7
India,Bihar,Patna,"Muradpur, Patna - BSPCB",17-11-2025 07:00:00,25.619651,85.147382,PM10,31,411,127
India,Bihar,Patna,"Rajbansi Nagar, Patna - BSPCB",17-11-2025 07:00:00,25.599486,85.113666,SO2,6,8,7
India,Chhattisgarh,Korba,"Rampur, Korba - CECB",17-11-2025 07:00:00,22.368195,82.746431,NO2,17,28,22
India,Chhattisgarh,Korba,"Urja Nagar, Korba - CECB",17-11-2025 07:00:00,22.348441,82.549611,NH3,1,2,2
India,Delhi,Delhi,"Lodhi Road, Delhi - IITM",17-11-2025 07:00:00,28.588333,77.221667,PM2.5,96,305,226
India,Delhi,Delhi,"Lodhi Road, Delhi - IITM",17-11-2025 07:00:00,28.588333,77.221667,NO2,15,191,85
India,Delhi,Delhi,"Lodhi Road, Delhi - IMD",17-11-2025 07:00:00,28.5918245,77.2273074,PM2.5,214,399,336
India,Delhi,Delhi,"Lodhi Road, Delhi - IMD",17-11-2025 07:00:00,28.5918245,77.2273074,CO,41,86,77
India,Delhi,Delhi,"Major Dhyan Chand National Stadium, Delhi - DPCC",17-11-2025 07:00:00,28.611281,77.237738,NO2,29,163,100
India,Delhi,Delhi,"Major Dhyan Chand National Stadium, Delhi - DPCC",17-11-2025 07:00:00,28.611281,77.237738,SO2,21,51,30
India,Delhi,Delhi,"Mandir Marg, Delhi - DPCC",17-11-2025 07:00:00,28.636429,77.201067,PM10,NA,NA,NA
India,Delhi,Delhi,"NSIT Dwarka, Delhi - CPCB",17-11-2025 07:00:00,28.60909,77.0325413,PM10,169,243,206
India,Delhi,Delhi,"NSIT Dwarka, Delhi - CPCB",17-11-2025 07:00:00,28.60909,77.0325413,NH3,6,11,9
India,Delhi,Delhi,"NSIT Dwarka, Delhi - CPCB",17-11-2025 07:00:00,28.60909,77.0325413,SO2,10,14,10
India,Delhi,Delhi,"NSIT Dwarka, Delhi - CPCB",17-11-2025 07:00:00,28.60909,77.0325413,CO,28,55,35
India,Delhi,Delhi,"NSIT Dwarka, Delhi - CPCB",17-11-2025 07:00:00,28.60909,77.0325413,OZONE,12,89,12
India,Delhi,Delhi,"Narela, Delhi - DPCC",17-11-2025 07:00:00,28.822836,77.101981,NO2,20,85,53
India,Delhi,Delhi,"Nehru Nagar, Delhi - DPCC",17-11-2025 07:00:00,28.567890,77.250515,SO2,16,52,29
India,Delhi,Delhi,"IHBAS, Dilshad Garden, Delhi - CPCB",17-11-2025 07:00:00,28.6811736,77.3025234,PM2.5,152,366,283
India,Delhi,Delhi,"ITO, Delhi - CPCB",17-11-2025 07:00:00,28.628624,77.241060,PM10,139,426,322
India,Delhi,Delhi,"Jahangirpuri, Delhi - DPCC",17-11-2025 07:00:00,28.732820,77.170633,OZONE,6,145,7
India,Delhi,Delhi,"Jawaharlal Nehru Stadium, Delhi - DPCC",17-11-2025 07:00:00,28.580280,77.233829,NH3,5,6,5
India,Delhi,Delhi,"Wazirpur, Delhi - DPCC",17-11-2025 07:00:00,28.699793,77.165453,NH3,8,11,10
India,Gujarat,Ahmedabad,"Chandkheda, Ahmedabad - IITM",17-11-2025 07:00:00,23.107969,72.574648,NO2,11,107,42
India,Gujarat,Ahmedabad,"Gyaspur, Ahmedabad - IITM",17-11-2025 07:00:00,22.977134,72.553024,CO,16,100,48
India,Gujarat,Ahmedabad,"Maninagar, Ahmedabad - GPCB",17-11-2025 07:00:00,23.002657,72.591912,CO,12,54,31
India,Delhi,Delhi,"North Campus, DU, Delhi - IMD",17-11-2025 07:00:00,28.6573814,77.1585447,PM10,169,419,285
India,Delhi,Delhi,"Okhla Phase-2, Delhi - DPCC",17-11-2025 07:00:00,28.530785,77.271255,NO2,68,174,124
India,Delhi,Delhi,"Okhla Phase-2, Delhi - DPCC",17-11-2025 07:00:00,28.530785,77.271255,NH3,8,13,11
India,Delhi,Delhi,"Punjabi Bagh, Delhi - DPCC",17-11-2025 07:00:00,28.674045,77.131023,NO2,28,79,54
India,Gujarat,Ahmedabad,"Raikhad, Ahmedabad - IITM",17-11-2025 07:00:00,23.020509,72.579261,NO2,25,153,71
India,Gujarat,Ahmedabad,"Raikhad, Ahmedabad - IITM",17-11-2025 07:00:00,23.020509,72.579261,NH3,9,21,13
India,Gujarat,Ahmedabad,"Rakhial, Ahmedabad - IITM",17-11-2025 07:00:00,23.016834,72.625775,NH3,2,5,2
India,Gujarat,Ahmedabad,"SAC ISRO Satellite, Ahmedabad - IITM",17-11-2025 07:00:00,23.023389,72.515201,NH3,3,10,5
India,Delhi,Delhi,"Sonia Vihar, Delhi - DPCC",17-11-2025 07:00:00,28.710508,77.249485,PM2.5,193,500,379
India,Delhi,Delhi,"Sonia Vihar, Delhi - DPCC",17-11-2025 07:00:00,28.710508,77.249485,CO,46,125,120
India,Delhi,Delhi,"Sri Aurobindo Marg, Delhi - DPCC",17-11-2025 07:00:00,28.531346,77.190156,NH3,5,6,5
India,Delhi,Delhi,"Rohini, Delhi - DPCC",17-11-2025 07:00:00,28.732528,77.119920,PM10,160,446,353
India,Delhi,Delhi,"Rohini, Delhi - DPCC",17-11-2025 07:00:00,28.732528,77.119920,CO,27,106,90
India,Delhi,Delhi,"Pusa, Delhi - DPCC",17-11-2025 07:00:00,28.639652,77.146275,CO,68,107,96
India,Haryana,Bahadurgarh,"Arya Nagar, Bahadurgarh - HSPCB",17-11-2025 07:00:00,28.6701,76.9254,NH3,12,13,13
India,Haryana,Bahadurgarh,"Arya Nagar, Bahadurgarh - HSPCB",17-11-2025 07:00:00,28.6701,76.9254,SO2,7,7,7
India,Haryana,Bahadurgarh,"Arya Nagar, Bahadurgarh - HSPCB",17-11-2025 07:00:00,28.6701,76.9254,CO,44,50,47
India,Haryana,Ballabgarh,"Nathu Colony, Ballabgarh - HSPCB",17-11-2025 07:00:00,28.3419248,77.319699,SO2,7,14,10
India,Haryana,Ballabgarh,"Nathu Colony, Ballabgarh - HSPCB",17-11-2025 07:00:00,28.3419248,77.319699,OZONE,14,15,15
India,Haryana,Bhiwani,"H.B. Colony, Bhiwani - HSPCB",17-11-2025 07:00:00,28.806223,76.141105,PM2.5,89,410,195
India,Haryana,Bhiwani,"H.B. Colony, Bhiwani - HSPCB",17-11-2025 07:00:00,28.806223,76.141105,NO2,1,34,31
India,Haryana,Bhiwani,"H.B. Colony, Bhiwani - HSPCB",17-11-2025 07:00:00,28.806223,76.141105,NH3,1,9,8
India,Haryana,Charkhi Dadri,"Mini Secretariat, Charkhi Dadri - HSPCB",17-11-2025 07:00:00,28.593883,76.270653,PM10,123,199,151
India,Haryana,Charkhi Dadri,"Mini Secretariat, Charkhi Dadri - HSPCB",17-11-2025 07:00:00,28.593883,76.270653,NH3,5,8,6
India,Haryana,Dharuhera,"Municipal Corporation Office, Dharuhera -  HSPCB",17-11-2025 07:00:00,28.206800,76.799700,PM10,107,260,169
India,Haryana,Faridabad,"New Industrial Town, Faridabad - HSPCB",17-11-2025 07:00:00,28.39072,77.30059,CO,10,12,11
India,Haryana,Faridabad,"New Industrial Town, Faridabad - HSPCB",17-11-2025 07:00:00,28.39072,77.30059,OZONE,27,33,30
India,Haryana,Faridabad,"Sector 11, Faridabad - HSPCB",17-11-2025 07:00:00,28.376058,77.315741,NO2,1,44,12
India,Haryana,Faridabad,"Sector 11, Faridabad - HSPCB",17-11-2025 07:00:00,28.376058,77.315741,CO,12,80,58
India,Haryana,Faridabad,"Sector 30, Faridabad - HSPCB",17-11-2025 07:00:00,28.4417,77.3217,PM2.5,207,222,213
India,Haryana,Faridabad,"Sector 30, Faridabad - HSPCB",17-11-2025 07:00:00,28.4417,77.3217,PM10,163,169,165
India,Haryana,Fatehabad,"Huda Sector, Fatehabad - HSPCB",17-11-2025 07:00:00,29.503664,75.467934,PM2.5,143,391,303
India,Haryana,Fatehabad,"Huda Sector, Fatehabad - HSPCB",17-11-2025 07:00:00,29.503664,75.467934,PM10,127,414,274
India,Haryana,Panchgaon,"Amity University, Panchgaon - IITM",17-11-2025 07:00:00,28.3153,76.9143,NH3,9,18,13
India,Haryana,Panchkula,"Sector-6, Panchkula - HSPCB ",17-11-2025 07:00:00,30.7057778,76.8531805555555,PM2.5,67,307,156
India,Haryana,Panchkula,"Sector-6, Panchkula - HSPCB ",17-11-2025 07:00:00,30.7057778,76.8531805555555,NO2,23,27,25
India,Haryana,Panchkula,"Sector-6, Panchkula - HSPCB ",17-11-2025 07:00:00,30.7057778,76.8531805555555,CO,19,23,22
India,Haryana,Panipat,"Sector-18, Panipat - HSPCB",17-11-2025 07:00:00,29.432304,76.972765,PM10,28,146,101
India,Haryana,Panipat,"Sector-18, Panipat - HSPCB",17-11-2025 07:00:00,29.432304,76.972765,NH3,2,3,3
India,Haryana,Kurukshetra,"Sector-7, Kurukshetra - HSPCB",17-11-2025 07:00:00,29.966942,76.875879,NO2,16,21,19
India,Haryana,Kurukshetra,"Sector-7, Kurukshetra - HSPCB",17-11-2025 07:00:00,29.966942,76.875879,SO2,3,12,7
India,Haryana,Mandikhera,"General Hospital, Mandikhera - HSPCB",17-11-2025 07:00:00,27.9002,76.9938,PM2.5,52,106,79
India,Haryana,Mandikhera,"General Hospital, Mandikhera - HSPCB",17-11-2025 07:00:00,27.9002,76.9938,NO2,19,23,21
India,Haryana,Manesar,"Sector-2 IMT, Manesar - HSPCB",17-11-2025 07:00:00,28.360699,76.936090,CO,24,50,44
India,Gujarat,Surat,"Science Center, Surat - SMC",17-11-2025 07:00:00,21.170046,72.795405,PM10,51,166,102
India,Gujarat,Surat,"Science Center, Surat - SMC",17-11-2025 07:00:00,21.170046,72.795405,SO2,27,33,29
India,Gujarat,Vatva,"Phase-4 GIDC, Vatva - GPCB",17-11-2025 07:00:00,22.969611,72.643500,PM10,43,130,80
India,Gujarat,Vatva,"Phase-4 GIDC, Vatva - GPCB",17-11-2025 07:00:00,22.969611,72.643500,OZONE,22,59,29
India,Haryana,Ambala,"Patti Mehar, Ambala - HSPCB",17-11-2025 07:00:00,30.379589,76.778328,PM10,132,216,174
India,Haryana,Jind,"Police Lines, Jind - HSPCB",17-11-2025 07:00:00,29.307814,76.337619,NH3,4,6,5
India,Haryana,Jind,"Police Lines, Jind - HSPCB",17-11-2025 07:00:00,29.307814,76.337619,SO2,27,30,28
India,Haryana,Kaithal,"Rishi Nagar, Kaithal - HSPCB",17-11-2025 07:00:00,29.8006,76.4155,NO2,28,34,31
India,Haryana,Karnal,"Sector-12, Karnal - HSPCB",17-11-2025 07:00:00,29.695300,77.002700,NO2,9,11,10
India,Haryana,Karnal,"Sector-12, Karnal - HSPCB",17-11-2025 07:00:00,29.695300,77.002700,SO2,14,17,15
India,Gujarat,Gandhinagar,"IIPHG Lekawada, Gandhinagar - IITM",17-11-2025 07:00:00,23.243639,72.68994,PM2.5,59,99,81
India,Gujarat,Gandhinagar,"IIPHG Lekawada, Gandhinagar - IITM",17-11-2025 07:00:00,23.243639,72.68994,NO2,8,13,9
India,Haryana,Dharuhera,"Municipal Corporation Office, Dharuhera -  HSPCB",17-11-2025 07:00:00,28.206800,76.799700,NH3,8,22,16
India,Haryana,Gurugram,"Sector-51, Gurugram - HSPCB",17-11-2025 07:00:00,28.4227,77.0667,PM2.5,104,348,257
India,Karnataka,Bengaluru,"Hombegowda Nagar, Bengaluru - KSPCB",17-11-2025 07:00:00,12.938539,77.590100,OZONE,33,61,38
India,Karnataka,Bengaluru,"Jayanagar 5th Block, Bengaluru - KSPCB",17-11-2025 07:00:00,12.920984,77.584908,PM2.5,72,177,99
India,Karnataka,Bengaluru,"Jayanagar 5th Block, Bengaluru - KSPCB",17-11-2025 07:00:00,12.920984,77.584908,CO,9,62,19
India,Karnataka,Bengaluru,"Jayanagar 5th Block, Bengaluru - KSPCB",17-11-2025 07:00:00,12.920984,77.584908,OZONE,25,71,53
India,Karnataka,Bengaluru,"Jigani, Bengaluru - KSPCB",17-11-2025 07:00:00,12.7816279,77.6299145,NH3,3,3,3
India,Karnataka,Bengaluru,"Jigani, Bengaluru - KSPCB",17-11-2025 07:00:00,12.7816279,77.6299145,CO,38,39,38
India,Karnataka,Bengaluru,"Kasturi Nagar, Bengaluru - KSPCB",17-11-2025 07:00:00,13.003872,77.664217,PM2.5,57,59,58
India,Karnataka,Bengaluru,"Kasturi Nagar, Bengaluru - KSPCB",17-11-2025 07:00:00,13.003872,77.664217,CO,40,64,49
India,Karnataka,Bengaluru,"Kasturi Nagar, Bengaluru - KSPCB",17-11-2025 07:00:00,13.003872,77.664217,OZONE,20,21,20
India,Karnataka,Bengaluru,"Peenya, Bengaluru - CPCB",17-11-2025 07:00:00,13.0270199,77.494094,PM2.5,18,57,34
India,Karnataka,Bengaluru,"RVCE-Mailasandra, Bengaluru - KSPCB",17-11-2025 07:00:00,12.921418,77.502466,PM10,66,145,115
India,Karnataka,Bengaluru,"Shivapura_Peenya, Bengaluru - KSPCB",17-11-2025 07:00:00,13.0246342,77.5080115,NO2,34,36,35
India,Karnataka,Bengaluru,"Silk Board, Bengaluru - KSPCB",17-11-2025 07:00:00,12.917348,77.622813,PM10,115,160,138
India,Karnataka,Bengaluru,"Silk Board, Bengaluru - KSPCB",17-11-2025 07:00:00,12.917348,77.622813,NO2,11,15,12
India,Karnataka,Bengaluru,"Silk Board, Bengaluru - KSPCB",17-11-2025 07:00:00,12.917348,77.622813,NH3,2,2,2
India,Karnataka,Bengaluru,"Silk Board, Bengaluru - KSPCB",17-11-2025 07:00:00,12.917348,77.622813,SO2,8,9,8
India,Karnataka,Bengaluru,"Silk Board, Bengaluru - KSPCB",17-11-2025 07:00:00,12.917348,77.622813,OZONE,12,13,13
India,Karnataka,Bidar,"Naubad, Bidar - KSPCB",17-11-2025 07:00:00,17.930306,77.482194,NH3,NA,NA,NA
India,Karnataka,Chamarajanagar,"Urban, Chamarajanagar - KSPCB",17-11-2025 07:00:00,11.55358,76.55521,SO2,2,5,3
India,Haryana,Rohtak,"MD University, Rohtak - HSPCB",17-11-2025 07:00:00,28.52123,76.37138,CO,34,167,102
India,Haryana,Sirsa,"F-Block, Sirsa - HSPCB",17-11-2025 07:00:00,29.536400,75.015800,PM10,36,149,109
India,Haryana,Sonipat,"Murthal, Sonipat - HSPCB",17-11-2025 07:00:00,29.027200,77.062100,OZONE,25,26,26
India,Haryana,Yamuna Nagar,"Gobind Pura, Yamuna Nagar - HSPCB",17-11-2025 07:00:00,30.1480566,77.2893471,NO2,11,12,11
India,Himachal Pradesh,Baddi,"HIMUDA Complex Phase-1, Baddi - HPPCB",17-11-2025 07:00:00,30.943887,76.801991,PM2.5,50,322,178
India,Himachal Pradesh,Baddi,"HIMUDA Complex Phase-1, Baddi - HPPCB",17-11-2025 07:00:00,30.943887,76.801991,CO,47,100,79
India,Jharkhand,Dhanbad,"Sardar Patel Nagar, Dhanbad - JSPCB",17-11-2025 07:00:00,23.80569,86.44268,CO,2,44,7
India,Karnataka,Bagalkot,"Vidayagiri, Bagalkot - KSPCB",17-11-2025 07:00:00,16.172806,75.659694,NH3,1,2,1
India,Karnataka,Belgaum,"Ramteerth Nagar, Belgaum - KSPCB",17-11-2025 07:00:00,15.888653,74.541751,PM2.5,32,92,62
India,Karnataka,Belgaum,"Ramteerth Nagar, Belgaum - KSPCB",17-11-2025 07:00:00,15.888653,74.541751,CO,14,22,16
India,Karnataka,Bengaluru,"BTM Layout, Bengaluru - CPCB",17-11-2025 07:00:00,12.9135218,77.5950804,PM10,68,69,68
India,Karnataka,Bengaluru,"BTM Layout, Bengaluru - CPCB",17-11-2025 07:00:00,12.9135218,77.5950804,NO2,62,86,72
India,Karnataka,Bengaluru,"BTM Layout, Bengaluru - CPCB",17-11-2025 07:00:00,12.9135218,77.5950804,NH3,15,20,17
India,Karnataka,Bengaluru,"BWSSB Kadabesanahalli, Bengaluru - CPCB",17-11-2025 07:00:00,12.9352049,77.6814488,PM10,215,215,215
India,Karnataka,Davanagere,"Devaraj Urs Badavane, Davanagere - KSPCB",17-11-2025 07:00:00,14.475800,75.905200,SO2,1,6,3
India,Karnataka,Gadag,"Panchal Nagar, Gadag - KSPCB",17-11-2025 07:00:00,15.411456,75.638133,PM10,97,239,134
India,Karnataka,Gadag,"Panchal Nagar, Gadag - KSPCB",17-11-2025 07:00:00,15.411456,75.638133,NO2,NA,NA,NA
India,Karnataka,Chamarajanagar,"Urban, Chamarajanagar - KSPCB",17-11-2025 07:00:00,11.55358,76.55521,CO,14,120,29
India,Karnataka,Davanagere,"Devaraj Urs Badavane, Davanagere - KSPCB",17-11-2025 07:00:00,14.475800,75.905200,PM2.5,73,209,118
India,Karnataka,Bengaluru,"City Railway Station, Bengaluru - KSPCB",17-11-2025 07:00:00,12.9756843,77.5660749,NO2,41,50,46
India,Karnataka,Bengaluru,"Hombegowda Nagar, Bengaluru - KSPCB",17-11-2025 07:00:00,12.938539,77.590100,SO2,5,13,10
India,Karnataka,Yadgir,"Collector Office, Yadgir - KSPCB",17-11-2025 07:00:00,16.7602,77.1428,CO,1,20,13
India,Kerala,Kannur,"Thavakkara, Kannur - Kerala PCB",17-11-2025 07:00:00,11.875000,75.373200,PM2.5,43,51,47
India,Kerala,Kannur,"Thavakkara, Kannur - Kerala PCB",17-11-2025 07:00:00,11.875000,75.373200,OZONE,28,32,28
India,Kerala,Thiruvananthapuram,"Kariavattom, Thiruvananthapuram - Kerala PCB",17-11-2025 07:00:00,8.563700,76.886500,PM2.5,43,50,45
India,Kerala,Thiruvananthapuram,"Plammoodu, Thiruvananthapuram - Kerala PCB",17-11-2025 07:00:00,8.5149093,76.9435879,NO2,9,54,32
India,Kerala,Thiruvananthapuram,"Plammoodu, Thiruvananthapuram - Kerala PCB",17-11-2025 07:00:00,8.5149093,76.9435879,NH3,2,5,3
India,Kerala,Thrissur,"Corporation Ground, Thrissur - Kerala PCB",17-11-2025 07:00:00,10.532400,76.215900,PM2.5,46,56,52
India,Kerala,Thrissur,"Corporation Ground, Thrissur - Kerala PCB",17-11-2025 07:00:00,10.532400,76.215900,NO2,7,8,7
India,Madhya Pradesh,Bhopal,"Idgah Hills, Bhopal - MPPCB",17-11-2025 07:00:00,23.264759,77.381568,PM10,NA,NA,NA
India,Karnataka,Hubballi,"Lingaraj Nagar, Hubballi - KSPCB",17-11-2025 07:00:00,15.3714823,75.1160168,CO,14,24,19
India,Karnataka,Kalaburagi,"Lal Bahadur Shastri Nagar, Kalaburagi - KSPCB",17-11-2025 07:00:00,17.321993,76.822628,PM2.5,NA,NA,NA
India,Karnataka,Kalaburagi,"Lal Bahadur Shastri Nagar, Kalaburagi - KSPCB",17-11-2025 07:00:00,17.321993,76.822628,PM10,NA,NA,NA
India,Karnataka,Kalaburagi,"Mahatma Basaveswar Colony, Kalaburgi - KSPCB",17-11-2025 07:00:00,17.336318,76.847397,PM10,30,66,45
India,Karnataka,Madikeri,"Stuart Hill, Madikeri - KSPCB",17-11-2025 07:00:00,12.415911,75.735050,PM2.5,43,118,59
India,Karnataka,Madikeri,"Stuart Hill, Madikeri - KSPCB",17-11-2025 07:00:00,12.415911,75.735050,SO2,7,7,7
India,Karnataka,Madikeri,"Stuart Hill, Madikeri - KSPCB",17-11-2025 07:00:00,12.415911,75.735050,OZONE,4,7,4
India,Madhya Pradesh,Ratlam,"Shasthri Nagar, Ratlam - IPCA Lab",17-11-2025 07:00:00,23.331731,75.045981,PM2.5,49,165,104
India,Madhya Pradesh,Sagar,"Civil Lines, Sagar - MPPCB",17-11-2025 07:00:00,23.838586,78.759431,PM10,92,163,133
India,Madhya Pradesh,Sagar,"Civil Lines, Sagar - MPPCB",17-11-2025 07:00:00,23.838586,78.759431,NH3,1,2,1
India,Madhya Pradesh,Sagar,"Civil Lines, Sagar - MPPCB",17-11-2025 07:00:00,23.838586,78.759431,SO2,10,17,13
India,Madhya Pradesh,Satna,"Bandhavgar Colony, Satna - Birla Cement",17-11-2025 07:00:00,24.58434363,80.8549414,SO2,19,20,20
India,Madhya Pradesh,Singrauli,"Suryakiran Bhawan NCL, Singrauli - MPPCB",17-11-2025 07:00:00,24.108970,82.645580,PM2.5,44,266,96
India,Karnataka,Mangalore,"Kadri, Mangalore - KSPCB",17-11-2025 07:00:00,12.889250,74.853000,NH3,1,2,1
India,Karnataka,Mysuru,"Hebbal 1st Stage, Mysuru - KSPCB",17-11-2025 07:00:00,12.21041,76.37376,PM2.5,38,93,56
India,Karnataka,Shivamogga,"Vinoba Nagara, Shivamogga - KSPCB",17-11-2025 07:00:00,13.940000,75.555917,CO,10,28,13
India,Karnataka,Vijayapura,"Ibrahimpur, Vijayapura - KSPCB",17-11-2025 07:00:00,16.802639,75.722694,PM2.5,26,31,30
India,Karnataka,Vijayapura,"Ibrahimpur, Vijayapura - KSPCB",17-11-2025 07:00:00,16.802639,75.722694,NH3,1,2,1
India,Karnataka,Yadgir,"Collector Office, Yadgir - KSPCB",17-11-2025 07:00:00,16.7602,77.1428,PM2.5,69,167,99
India,Madhya Pradesh,Jabalpur,"Suhagi, Jabalpur - JMC",17-11-2025 07:00:00,23.218135,79.957770,SO2,6,7,7
India,Madhya Pradesh,Katni,"Gole Bazar, Katni - MPPCB",17-11-2025 07:00:00,23.50016,80.23284,SO2,21,109,52
India,Madhya Pradesh,Maihar,"Sahilara, Maihar - KJS Cements",17-11-2025 07:00:00,24.2613009,80.7231783,PM2.5,18,97,50
India,Madhya Pradesh,Mandideep,"Sector-D Industrial Area, Mandideep - MPPCB",17-11-2025 07:00:00,23.108440,77.511428,SO2,24,137,78
India,Madhya Pradesh,Pithampur,"Sector-2 Industrial Area, Pithampur - MPPCB",17-11-2025 07:00:00,22.624758,75.675238,PM2.5,74,335,214
India,Madhya Pradesh,Gwalior,"City Center, Gwalior - MPPCB",17-11-2025 07:00:00,26.203442,78.193251,NO2,19,126,51
India,Madhya Pradesh,Gwalior,"City Center, Gwalior - MPPCB",17-11-2025 07:00:00,26.203442,78.193251,NH3,2,4,3
India,Madhya Pradesh,Gwalior,"Deen Dayal Nagar, Gwalior - MPPCB",17-11-2025 07:00:00,26.259242,78.216432,PM10,87,197,136
India,Madhya Pradesh,Gwalior,"Maharaj Bada, Gwalior - MPPCB",17-11-2025 07:00:00,26.200388,78.147714,PM2.5,90,332,215
India,Madhya Pradesh,Indore,"Chhoti Gwaltoli, Indore - MPPCB",17-11-2025 07:00:00,22.4310,75.5213,NO2,99,189,134
India,Madhya Pradesh,Indore,"Regional Park, Indore - IMC",17-11-2025 07:00:00,22.6780,75.8559,NO2,7,9,7
India,Madhya Pradesh,Jabalpur,"Govindh Bhavan Colony, Jabalpur - JMC",17-11-2025 07:00:00,23.163174,79.973061,PM2.5,77,253,154
India,Madhya Pradesh,Jabalpur,"Govindh Bhavan Colony, Jabalpur - JMC",17-11-2025 07:00:00,23.163174,79.973061,CO,42,64,61
India,Madhya Pradesh,Jabalpur,"Gupteshwar, Jabalpur - JMC",17-11-2025 07:00:00,23.142888,79.916147,NO2,18,132,52
India,Madhya Pradesh,Jabalpur,"Marhatal, Jabalpur - MPPCB",17-11-2025 07:00:00,23.168606,79.932247,OZONE,2,96,12
India,Madhya Pradesh,Bhopal,"Paryavaran Parisar, Bhopal - MPPCB",17-11-2025 07:00:00,23.210494,77.425409,SO2,8,17,12
India,Madhya Pradesh,Bhopal,"T T Nagar, Bhopal - MPPCB",17-11-2025 07:00:00,23.233584,77.400574,SO2,8,13,10
India,Madhya Pradesh,Dewas,"Bhopal Chauraha, Dewas - MPPCB",17-11-2025 07:00:00,22.9682591,76.064118,PM2.5,84,290,187
India,Madhya Pradesh,Dewas,"Bhopal Chauraha, Dewas - MPPCB",17-11-2025 07:00:00,22.9682591,76.064118,NO2,6,7,7
India,Madhya Pradesh,Dewas,"Bhopal Chauraha, Dewas - MPPCB",17-11-2025 07:00:00,22.9682591,76.064118,OZONE,22,25,24
India,Madhya Pradesh,Singrauli,"Suryakiran Bhawan NCL, Singrauli - MPPCB",17-11-2025 07:00:00,24.108970,82.645580,PM10,84,221,126
India,Maharashtra,Ahmednagar,"Tarakpur, Ahmednagar - MPCB",17-11-2025 07:00:00,19.10122,74.73339,CO,10,105,47
India,Maharashtra,Akola,"Ramdaspeth, Akola - MPCB",17-11-2025 07:00:00,20.719516,77.000253,NO2,20,92,44
India,Maharashtra,Akola,"Ramdaspeth, Akola - MPCB",17-11-2025 07:00:00,20.719516,77.000253,CO,14,104,40
India,Maharashtra,Amravati,"Shri Shivaji Science College, Amravati - MPCB",17-11-2025 07:00:00,20.939198,77.765701,PM10,66,169,106
India,Maharashtra,Amravati,"Shri Shivaji Science College, Amravati - MPCB",17-11-2025 07:00:00,20.939198,77.765701,NH3,1,13,4
India,Maharashtra,Aurangabad,"MIDC Chilkalthana, Aurangabad - MPCB",17-11-2025 07:00:00,19.875620,75.387310,PM10,19,114,83
India,Maharashtra,Aurangabad,"MIDC Chilkalthana, Aurangabad - MPCB",17-11-2025 07:00:00,19.875620,75.387310,NO2,12,83,41
India,Maharashtra,Aurangabad,"MIDC Chilkalthana, Aurangabad - MPCB",17-11-2025 07:00:00,19.875620,75.387310,CO,20,64,42
India,Maharashtra,Aurangabad,"Rachnakar Colony, Aurangabad - MPCB",17-11-2025 07:00:00,19.863756,75.321188,SO2,11,33,20
India,Maharashtra,Mumbai,"Ghatkopar, Mumbai - BMC",17-11-2025 07:00:00,19.083694,72.920967,CO,14,46,37
India,Maharashtra,Mumbai,"Kandivali West, Mumbai - BMC",17-11-2025 07:00:00,19.215859,72.831718,OZONE,5,69,29
India,Maharashtra,Mumbai,"Kherwadi_Bandra East, Mumbai - MPCB",17-11-2025 07:00:00,19.0632143,72.8456324,PM10,90,160,126
India,Maharashtra,Mumbai,"Kherwadi_Bandra East, Mumbai - MPCB",17-11-2025 07:00:00,19.0632143,72.8456324,NH3,10,18,13
India,Maharashtra,Mumbai,"Khindipada-Bhandup West, Mumbai - IITM",17-11-2025 07:00:00,19.1653323,72.922099,SO2,1,18,10
India,Maharashtra,Mumbai,"Malad West, Mumbai - IITM",17-11-2025 07:00:00,19.19709,72.82204,NH3,4,15,7
India,Maharashtra,Mumbai,"Malad West, Mumbai - IITM",17-11-2025 07:00:00,19.19709,72.82204,SO2,2,9,6
India,Maharashtra,Mumbai,"Mazgaon, Mumbai - IITM",17-11-2025 07:00:00,18.96702,72.84214,PM2.5,91,303,202
India,Maharashtra,Mumbai,"Mindspace-Malad West, Mumbai - MPCB",17-11-2025 07:00:00,19.1878657,72.8304069,SO2,14,15,15
India,Maharashtra,Mumbai,"Mulund West, Mumbai - MPCB",17-11-2025 07:00:00,19.1750,72.9419,PM10,102,176,134
India,Maharashtra,Latur,"Sawe Wadi, Latur - MPCB",17-11-2025 07:00:00,18.39963,76.57452,NH3,3,10,7
India,Maharashtra,Latur,"Sawe Wadi, Latur - MPCB",17-11-2025 07:00:00,18.39963,76.57452,SO2,1,5,4
India,Maharashtra,Mahad,"Kamble Tarf Birwadi, Mahad - MPCB",17-11-2025 07:00:00,18.1023399,73.4783687,PM2.5,41,291,132
India,Maharashtra,Mumbai,"Bandra Kurla Complex, Mumbai - IITM",17-11-2025 07:00:00,19.053536,72.84643,PM2.5,NA,NA,NA
India,Maharashtra,Mumbai,"Bandra Kurla Complex, Mumbai - IITM",17-11-2025 07:00:00,19.053536,72.84643,PM10,NA,NA,NA
India,Maharashtra,Badlapur,"Katrap, Badlapur - MPCB",17-11-2025 07:00:00,19.16485,73.23409,PM10,90,176,124
India,Maharashtra,Belapur,"CBD Belapur, Belapur - MPCB",17-11-2025 07:00:00,19.0243902,73.0406721,PM2.5,20,500,140
India,Maharashtra,Bhiwandi,"Gokul Nagar, Bhiwandi - MPCB",17-11-2025 07:00:00,19.309073,73.057223,NH3,4,7,5
India,Maharashtra,Boisar,"Khaira, Boisar - MPCB",17-11-2025 07:00:00,19.786089,72.757971,CO,14,72,32
India,Maharashtra,Jalna,"Old MIDC, Jalna - MPCB",17-11-2025 07:00:00,19.854616,75.905894,OZONE,28,185,49
India,Maharashtra,Kalyan,"Khadakpada, Kalyan - MPCB",17-11-2025 07:00:00,19.25292,73.142019,NO2,36,36,36
India,Maharashtra,Kalyan,"Pimpleshwar Mandir, Kalyan - MPCB",17-11-2025 07:00:00,19.192056,72.9585188,NO2,3,26,11
India,Maharashtra,Kolhapur,"Sinchan Bhavan, Kolhapur - MPCB",17-11-2025 07:00:00,16.7143745,74.2426398,CO,23,77,43
India,Maharashtra,Mumbai,"Borivali East, Mumbai - IITM",17-11-2025 07:00:00,19.23241,72.86895,PM10,118,258,156
India,Maharashtra,Mumbai,"Borivali East, Mumbai - IITM",17-11-2025 07:00:00,19.23241,72.86895,OZONE,18,157,67
India,Maharashtra,Mumbai,"Byculla, Mumbai - BMC",17-11-2025 07:00:00,18.9767,72.8380,PM10,NA,NA,NA
India,Maharashtra,Mumbai,"Byculla, Mumbai - BMC",17-11-2025 07:00:00,18.9767,72.8380,OZONE,1,56,6
India,Maharashtra,Mumbai,"Chakala-Andheri East, Mumbai - IITM",17-11-2025 07:00:00,19.11074,72.86084,PM2.5,88,204,139
India,Maharashtra,Chandrapur,"Chauhan Colony, Chandrapur - MPCB",17-11-2025 07:00:00,19.962900,79.298714,PM10,100,187,134
India,Maharashtra,Chandrapur,"MIDC Khutala, Chandrapur - MPCB",17-11-2025 07:00:00,19.9775302,79.2337086,PM2.5,NA,NA,NA
India,Maharashtra,Chandrapur,"MIDC Khutala, Chandrapur - MPCB",17-11-2025 07:00:00,19.9775302,79.2337086,NH3,NA,NA,NA
India,Maharashtra,Jalgaon,"Prabhat Colony, Jalgaon - MPCB",17-11-2025 07:00:00,21.001264,75.565602,OZONE,22,107,39
India,Maharashtra,Mumbai,"Chembur, Mumbai - MPCB",17-11-2025 07:00:00,19.0364585,72.8954371,NO2,NA,NA,NA
India,Maharashtra,Mumbai,"Deonar, Mumbai - IITM",17-11-2025 07:00:00,19.04946,72.9230,PM10,132,420,251
India,Maharashtra,Pimpri-Chinchwad,"Savta Mali Nagar, Pimpri-Chinchwad - IITM",17-11-2025 07:00:00,18.614767,73.799516,NO2,27,131,68
India,Maharashtra,Pimpri-Chinchwad,"Savta Mali Nagar, Pimpri-Chinchwad - IITM",17-11-2025 07:00:00,18.614767,73.799516,CO,56,108,85
India,Maharashtra,Pimpri-Chinchwad,"Thergaon, Pimpri Chinchwad - MPCB",17-11-2025 07:00:00,18.616318,73.765797,SO2,1,5,3
India,Maharashtra,Pune,"Hadapsar, Pune - IITM",17-11-2025 07:00:00,18.501793,73.927532,PM2.5,43,236,115
India,Maharashtra,Pune,"Katraj Dairy, Pune - MPCB",17-11-2025 07:00:00,18.454450,73.854155,NH3,NA,NA,NA
India,Maharashtra,Pune,"Katraj Dairy, Pune - MPCB",17-11-2025 07:00:00,18.454450,73.854155,SO2,NA,NA,NA
India,Maharashtra,Pune,"Mhada Colony, Pune - IITM",17-11-2025 07:00:00,18.573040,73.927715,PM2.5,33,115,70
India,Maharashtra,Nashik,"Pandav Nagari, Nashik - MPCB",17-11-2025 07:00:00,19.9591346,73.7788008,OZONE,23,75,45
India,Maharashtra,Navi Mumbai,"Kopripada-Vashi, Navi Mumbai - MPCB",17-11-2025 07:00:00,19.090337,73.014232,PM2.5,25,106,83
India,Maharashtra,Navi Mumbai,"Kopripada-Vashi, Navi Mumbai - MPCB",17-11-2025 07:00:00,19.090337,73.014232,NO2,10,60,34
India,Maharashtra,Navi Mumbai,"Mahape, Navi Mumbai - MPCB",17-11-2025 07:00:00,19.1135051,73.008978,PM10,NA,NA,NA
India,Maharashtra,Navi Mumbai,"Sanpada, Navi Mumbai - MPCB",17-11-2025 07:00:00,19.0575752,73.0151367,PM2.5,67,266,132
India,Maharashtra,Navi Mumbai,"Sanpada, Navi Mumbai - MPCB",17-11-2025 07:00:00,19.0575752,73.0151367,SO2,9,25,13
India,Maharashtra,Navi Mumbai,"Sanpada, Navi Mumbai - MPCB",17-11-2025 07:00:00,19.0575752,73.0151367,OZONE,15,15,15
India,Maharashtra,Nagpur,"Ambazari, Nagpur - MPCB",17-11-2025 07:00:00,21.121801,79.04952,SO2,13,111,33
India,Maharashtra,Nagpur,"Ambazari, Nagpur - MPCB",17-11-2025 07:00:00,21.121801,79.04952,CO,12,74,42
India,Maharashtra,Nagpur,"Ambazari, Nagpur - MPCB",17-11-2025 07:00:00,21.121801,79.04952,OZONE,3,108,42
India,Maharashtra,Nagpur,"Mahal, Nagpur - MPCB",17-11-2025 07:00:00,21.14472,79.107595,OZONE,1,30,14
India,Maharashtra,Nagpur,"Opp GPO Civil Lines, Nagpur - MPCB",17-11-2025 07:00:00,21.152875,79.0517531,SO2,1,105,24
India,Maharashtra,Nagpur,"Ram Nagar, Nagpur - MPCB",17-11-2025 07:00:00,21.143383,79.048912,NH3,2,8,4
India,Maharashtra,Nanded,"Sneh Nagar, Nanded - MPCB",17-11-2025 07:00:00,19.173852,77.296291,NO2,11,37,20
India,Maharashtra,Nanded,"Sneh Nagar, Nanded - MPCB",17-11-2025 07:00:00,19.173852,77.296291,SO2,1,2,1
India,Maharashtra,Nashik,"Gangapur Road, Nashik - MPCB",17-11-2025 07:00:00,20.0073285,73.7762427,OZONE,10,13,12
India,Maharashtra,Nashik,"MIDC Ambad, Nashik - MPCB",17-11-2025 07:00:00,19.950220,73.731480,PM2.5,50,108,86
India,Maharashtra,Nashik,"MIDC Ambad, Nashik - MPCB",17-11-2025 07:00:00,19.950220,73.731480,NH3,7,10,8
India,Maharashtra,Nashik,"MIDC Ambad, Nashik - MPCB",17-11-2025 07:00:00,19.950220,73.731480,CO,13,16,14
India,Maharashtra,Nashik,"MIDC Ambad, Nashik - MPCB",17-11-2025 07:00:00,19.950220,73.731480,OZONE,17,105,54
India,Maharashtra,Nashik,"Pandav Nagari, Nashik - MPCB",17-11-2025 07:00:00,19.9591346,73.7788008,SO2,3,9,5
India,Maharashtra,Mumbai,"Sion, Mumbai - MPCB",17-11-2025 07:00:00,19.047000,72.874600,NO2,7,8,8
India,Maharashtra,Mumbai,"Vasai West, Mumbai - MPCB",17-11-2025 07:00:00,19.383200,72.820400,CO,48,52,51
India,Maharashtra,Mumbai,"Vile Parle West, Mumbai - MPCB",17-11-2025 07:00:00,19.10861,72.83622,PM2.5,41,201,80
India,Maharashtra,Mumbai,"Vile Parle West, Mumbai - MPCB",17-11-2025 07:00:00,19.10861,72.83622,NH3,1,5,4
India,Maharashtra,Mumbai,"Worli, Mumbai - MPCB",17-11-2025 07:00:00,18.9936162,72.8128113,NH3,1,3,1
India,Maharashtra,Mumbai,"Worli, Mumbai - MPCB",17-11-2025 07:00:00,18.9936162,72.8128113,SO2,17,26,20
India,Maharashtra,Navi Mumbai,"Tondare-Taloja, Navi Mumbai - MPCB",17-11-2025 07:00:00,19.0630,73.1209,PM2.5,51,188,104
India,Maharashtra,Navi Mumbai,"Tondare-Taloja, Navi Mumbai - MPCB",17-11-2025 07:00:00,19.0630,73.1209,CO,29,43,30
India,Maharashtra,Parbhani,"Masoom Colony, Parbhani - MPCB",17-11-2025 07:00:00,19.265594,76.761463,PM2.5,99,262,189
India,Maharashtra,Parbhani,"Masoom Colony, Parbhani - MPCB",17-11-2025 07:00:00,19.265594,76.761463,CO,8,16,12
India,Maharashtra,Mumbai,"Mulund West, Mumbai - MPCB",17-11-2025 07:00:00,19.1750,72.9419,NH3,3,4,3
India,Maharashtra,Mumbai,"Navy Nagar-Colaba, Mumbai - IITM",17-11-2025 07:00:00,18.897756,72.813320,NH3,2,5,3
India,Maharashtra,Mumbai,"Shivaji Nagar, Mumbai - BMC",17-11-2025 07:00:00,19.060498,72.923356,NH3,2,8,3
India,Maharashtra,Mumbai,"Shivaji Nagar, Mumbai - BMC",17-11-2025 07:00:00,19.060498,72.923356,OZONE,6,126,21
India,Maharashtra,Sangli,"Vijay Nagar, Sangli - MPCB",17-11-2025 07:00:00, 16.5038,74.3623,CO,32,42,36
India,Maharashtra,Solapur,"Ratandeep Housing Society, Solapur - MPCB",17-11-2025 07:00:00,17.65439,75.90649,PM2.5,68,160,104
India,Maharashtra,Thane,"Upvan Fort, Thane - MPCB",17-11-2025 07:00:00,19.222279,72.957979,PM2.5,43,143,76
India,Maharashtra,Pune,"Mhada Colony, Pune - IITM",17-11-2025 07:00:00,18.573040,73.927715,CO,2,80,62
India,Maharashtra,Pune,"Transport Nagar-Nigdi, Pune - IITM",17-11-2025 07:00:00,18.664282,73.763966,OZONE,9,82,31
India,Maharashtra,Sangli,"Vijay Nagar, Sangli - MPCB",17-11-2025 07:00:00, 16.5038,74.3623,NH3,1,4,3
India,Rajasthan,Barmer,"Railway Colony, Barmer - RSPCB",17-11-2025 07:00:00,25.747299,71.393989,SO2,6,81,15
India,Rajasthan,Barmer,"Railway Colony, Barmer - RSPCB",17-11-2025 07:00:00,25.747299,71.393989,CO,11,100,29
India,Rajasthan,Bharatpur,"Krishna Nagar, Bharatpur - RSPCB",17-11-2025 07:00:00,27.215415,77.50873,NH3,6,10,8
India,Rajasthan,Bharatpur,"Krishna Nagar, Bharatpur - RSPCB",17-11-2025 07:00:00,27.215415,77.50873,SO2,6,20,12
India,Rajasthan,Bhilwara,"Pratap Nagar, Bhilwara - RSPCB",17-11-2025 07:00:00,25.339605,74.618883,PM10,92,261,152
India,Rajasthan,Bhilwara,"Pratap Nagar, Bhilwara - RSPCB",17-11-2025 07:00:00,25.339605,74.618883,SO2,8,48,20
India,Rajasthan,Bhilwara,"Pratap Nagar, Bhilwara - RSPCB",17-11-2025 07:00:00,25.339605,74.618883,CO,26,116,62
India,Rajasthan,Bhiwadi,"RIICO Ind. Area III, Bhiwadi - RSPCB",17-11-2025 07:00:00,28.194909,76.862296,PM10,123,267,170
India,Rajasthan,Bhiwadi,"Vasundhara Nagar_UIT, Bhiwadi - RSPCB",17-11-2025 07:00:00,28.207266,76.829265,PM10,118,322,204
India,Rajasthan,Bhiwadi,"Vasundhara Nagar_UIT, Bhiwadi - RSPCB",17-11-2025 07:00:00,28.207266,76.829265,NO2,20,137,63
India,Rajasthan,Bhiwadi,"Vasundhara Nagar_UIT, Bhiwadi - RSPCB",17-11-2025 07:00:00,28.207266,76.829265,NH3,3,6,5
India,Rajasthan,Bhiwadi,"Vasundhara Nagar_UIT, Bhiwadi - RSPCB",17-11-2025 07:00:00,28.207266,76.829265,CO,18,89,56
India,Odisha,Tensa,"Barsua Iron Ore Mines, Tensa - OSPCB",17-11-2025 07:00:00,21.869985,85.167016,CO,34,50,40
India,Puducherry,Puducherry,"Jawahar Nagar, Puducherry - PPCC",17-11-2025 07:00:00,11.9309,79.8027,NH3,NA,NA,NA
India,Puducherry,Puducherry,"Jawahar Nagar, Puducherry - PPCC",17-11-2025 07:00:00,11.9309,79.8027,SO2,NA,NA,NA
India,Puducherry,Puducherry,"Jawahar Nagar, Puducherry - PPCC",17-11-2025 07:00:00,11.9309,79.8027,CO,22,50,28
India,Punjab,Amritsar,"Golden Temple, Amritsar - PPCB",17-11-2025 07:00:00,31.620000,74.876512,OZONE,26,40,36
India,Punjab,Bathinda,"Hardev Nagar, Bathinda - PPCB",17-11-2025 07:00:00,30.233011,74.907758,PM2.5,60,285,156
India,Punjab,Jalandhar,"Civil Line, Jalandhar - PPCB",17-11-2025 07:00:00,31.321907,75.578914,PM2.5,82,242,155
India,Punjab,Jalandhar,"Civil Line, Jalandhar - PPCB",17-11-2025 07:00:00,31.321907,75.578914,PM10,107,186,145
India,Punjab,Jalandhar,"Civil Line, Jalandhar - PPCB",17-11-2025 07:00:00,31.321907,75.578914,CO,66,72,70
India,Maharashtra,Ulhasnagar,"Sidhi Vinayak Nagar, Ulhasnagar - MPCB",17-11-2025 07:00:00,19.235581,73.159121,PM2.5,66,263,117
India,Maharashtra,Virar,"Bolinj, Virar - MPCB",17-11-2025 07:00:00,19.4458210,72.7988231,PM2.5,65,92,76
India,Maharashtra,Virar,"Bolinj, Virar - MPCB",17-11-2025 07:00:00,19.4458210,72.7988231,PM10,71,112,91
India,Maharashtra,Virar,"Bolinj, Virar - MPCB",17-11-2025 07:00:00,19.4458210,72.7988231,NO2,11,49,25
India,Meghalaya,Shillong,"Lumpyngngad, Shillong - Meghalaya PCB",17-11-2025 07:00:00,25.5586,91.8985,NO2,NA,NA,NA
India,Nagaland,Kohima,"PWD Junction, Kohima - NPCB",17-11-2025 07:00:00,25.6635413,94.0989878,CO,2,18,4
India,Odisha,Angul,"Hakimapada, Angul - OSPCB",17-11-2025 07:00:00,20.832874,85.104082,PM10,98,202,142
India,Odisha,Nayagarh,"Dabuna, Nayagarh - OSPCB",17-11-2025 07:00:00,21.847279,85.416905,SO2,7,16,10
India,Odisha,Rairangpur,"Divisional Forest Office, Rairangpur - OSPCB",17-11-2025 07:00:00,22.265816,86.174829,NH3,1,1,1
India,Odisha,Rairangpur,"Divisional Forest Office, Rairangpur - OSPCB",17-11-2025 07:00:00,22.265816,86.174829,SO2,6,12,8
India,Odisha,Rairangpur,"Divisional Forest Office, Rairangpur - OSPCB",17-11-2025 07:00:00,22.265816,86.174829,OZONE,18,41,20
India,Odisha,Rourkela,"Fertilizer Township, Rourkela - OSPCB",17-11-2025 07:00:00,22.18972222,84.86277778,PM2.5,109,165,124
India,Odisha,Rourkela,"Raghunathpali, Rourkela - OSPCB",17-11-2025 07:00:00,22.220833,84.809444,SO2,3,7,4
India,Odisha,Talcher,"Talcher Coalfields,Talcher - OSPCB",17-11-2025 07:00:00,20.9360711,85.1707021,CO,42,148,104
India,Odisha,Bileipada,"Tata Township, Bileipada - OSPCB",17-11-2025 07:00:00,22.06156703,85.47409613,NO2,6,7,7
India,Odisha,Brajrajnagar,"GM Office, Brajrajnagar - OSPCB",17-11-2025 07:00:00,21.8004996,83.8396977,CO,8,27,10
India,Odisha,Byasanagar,"Ferro Chrome Colony, Byasanagar - OSPCB",17-11-2025 07:00:00,20.94185,86.11510,NO2,7,34,15
India,Odisha,Byasanagar,"Ferro Chrome Colony, Byasanagar - OSPCB",17-11-2025 07:00:00,20.94185,86.11510,CO,20,50,27
India,Odisha,Cuttack,"CDA Area, Cuttack - OSPCB",17-11-2025 07:00:00,20.48891     ,85.84768     ,NO2,15,128,48
India,Rajasthan,Ajmer,"Civil Lines,  Ajmer - RSPCB",17-11-2025 07:00:00,26.470859,74.646594,NH3,2,3,3
India,Rajasthan,Alwar,"Moti Doongri, Alwar - RSPCB",17-11-2025 07:00:00,27.554793,76.611536,OZONE,12,40,13
India,Rajasthan,Banswara,"Rati Talai, Banswara - RSPCB",17-11-2025 07:00:00,23.555190,74.440010,PM10,96,164,120
India,Rajasthan,Banswara,"Rati Talai, Banswara - RSPCB",17-11-2025 07:00:00,23.555190,74.440010,NH3,5,11,6
India,Rajasthan,Barmer,"Railway Colony, Barmer - RSPCB",17-11-2025 07:00:00,25.747299,71.393989,NO2,9,122,35
India,Odisha,Balasore,"Kalidaspur, Balasore - OSPCB",17-11-2025 07:00:00,21.51161,86.89088,NO2,7,84,23
India,Odisha,Balasore,"Kalidaspur, Balasore - OSPCB",17-11-2025 07:00:00,21.51161,86.89088,SO2,8,19,11
India,Odisha,Barbil,"Forest Office, Barbil - OSPCB",17-11-2025 07:00:00,22.1166054,85.3945546,CO,32,70,44
India,Odisha,Bhubaneswar,"Lingraj Mandir, Bhubaneswar - OSPCB",17-11-2025 07:00:00,20.240790,85.836784,PM2.5,117,390,248
India,Odisha,Bhubaneswar,"Lingraj Mandir, Bhubaneswar - OSPCB",17-11-2025 07:00:00,20.240790,85.836784,SO2,14,58,23
India,Punjab,Ludhiana,"Punjab Agricultural University, Ludhiana - PPCB",17-11-2025 07:00:00,30.9028,75.8086,PM2.5,110,186,162
India,Punjab,Rupnagar,"Ratanpura, Rupnagar - Ambuja Cements",17-11-2025 07:00:00,31.0325454,76.5623046,SO2,10,17,14
India,Rajasthan,Jaipur,"Police Commissionerate, Jaipur - RSPCB",17-11-2025 07:00:00,26.9164092,75.7994901,SO2,7,8,8
India,Rajasthan,Jaipur,"Police Commissionerate, Jaipur - RSPCB",17-11-2025 07:00:00,26.9164092,75.7994901,OZONE,1,81,32
India,Rajasthan,Jaipur,"RIICO Sitapura, Jaipur - RSPCB",17-11-2025 07:00:00,26.786682,75.827928,NH3,3,19,11
India,Rajasthan,Jaipur,"Sector-2 Murlipura, Jaipur - RSPCB",17-11-2025 07:00:00,26.960669,75.771817,PM2.5,28,303,87
India,Rajasthan,Jaipur,"Sector-2 Murlipura, Jaipur - RSPCB",17-11-2025 07:00:00,26.960669,75.771817,NH3,2,23,8
India,Rajasthan,Jaipur,"Sector-2 Murlipura, Jaipur - RSPCB",17-11-2025 07:00:00,26.960669,75.771817,SO2,1,107,19
India,Rajasthan,Jaipur,"Shastri Nagar, Jaipur - RSPCB",17-11-2025 07:00:00,26.9502929,75.730943,OZONE,12,38,14
India,Rajasthan,Jaisalmer,"Sadar Bazar, Jaisalmer - RSPCB",17-11-2025 07:00:00,26.912329,70.909168,PM2.5,20,338,92
India,Rajasthan,Jaisalmer,"Sadar Bazar, Jaisalmer - RSPCB",17-11-2025 07:00:00,26.912329,70.909168,NH3,10,19,12
India,Rajasthan,Sikar,"Radhakishan Pura, Sikar - RSPCB",17-11-2025 07:00:00,27.608912,75.153302,OZONE,9,119,23
India,Rajasthan,Sirohi,"Vedhaynath Colony, Sirohi - RSPCB",17-11-2025 07:00:00,24.885261,72.857549,PM2.5,33,68,52
India,Rajasthan,Sirohi,"Vedhaynath Colony, Sirohi - RSPCB",17-11-2025 07:00:00,24.885261,72.857549,NH3,1,2,2
India,Rajasthan,Sirohi,"Vedhaynath Colony, Sirohi - RSPCB",17-11-2025 07:00:00,24.885261,72.857549,SO2,7,31,14
India,Rajasthan,Sirohi,"Vedhaynath Colony, Sirohi - RSPCB",17-11-2025 07:00:00,24.885261,72.857549,OZONE,42,119,83
India,Rajasthan,Tonk,"Shastri Nagar, Tonk - RSPCB",17-11-2025 07:00:00,26.159933,75.780517,NH3,5,11,9
India,Rajasthan,Udaipur,"Ashok Nagar, Udaipur - RSPCB",17-11-2025 07:00:00,24.5886166,73.6321397,SO2,1,15,8
India,TamilNadu,Ariyalur,"Keelapalur, Ariyalur - TNPCB",17-11-2025 07:00:00,11.06825,79.07033,NO2,9,9,9
India,Rajasthan,Kota,"Dhanmandi, Kota - RSPCB",17-11-2025 07:00:00,25.164090,75.858137,PM2.5,75,365,230
India,Rajasthan,Kota,"Nayapura, Kota - RSPCB",17-11-2025 07:00:00,25.196024,75.855668,NO2,25,106,59
India,Rajasthan,Kota,"Shrinath Puram, Kota - RSPCB",17-11-2025 07:00:00,25.14389,75.821256,PM10,59,207,130
India,Rajasthan,Kota,"Shrinath Puram, Kota - RSPCB",17-11-2025 07:00:00,25.14389,75.821256,NO2,15,17,16
India,Rajasthan,Kota,"Shrinath Puram, Kota - RSPCB",17-11-2025 07:00:00,25.14389,75.821256,SO2,7,11,9
India,Rajasthan,Nagaur,"Karni Colony, Nagaur - RSPCB",17-11-2025 07:00:00,27.213494,73.734444,PM10,76,500,233
India,Rajasthan,Nagaur,"Karni Colony, Nagaur - RSPCB",17-11-2025 07:00:00,27.213494,73.734444,NO2,11,118,56
India,Rajasthan,Nagaur,"Karni Colony, Nagaur - RSPCB",17-11-2025 07:00:00,27.213494,73.734444,CO,10,110,64
India,Rajasthan,Dungarpur,"Bhoiwada, Dungarpur - RSPCB",17-11-2025 07:00:00,23.837789,73.714926,OZONE,7,149,23
India,Rajasthan,Hanumangarh,"Housing Board, Hanumangarh - RSPCB",17-11-2025 07:00:00,29.610750,74.283608,PM10,18,105,69
India,Rajasthan,Hanumangarh,"Housing Board, Hanumangarh - RSPCB",17-11-2025 07:00:00,29.610750,74.283608,NH3,10,24,17
India,Rajasthan,Jaipur,"Adarsh Nagar, Jaipur - RSPCB",17-11-2025 07:00:00,26.902909,75.836858,NO2,28,127,79
India,Rajasthan,Jaipur,"Adarsh Nagar, Jaipur - RSPCB",17-11-2025 07:00:00,26.902909,75.836858,CO,39,107,56
India,Rajasthan,Jaipur,"Police Commissionerate, Jaipur - RSPCB",17-11-2025 07:00:00,26.9164092,75.7994901,PM2.5,NA,NA,NA
India,Rajasthan,Jalore,"Mudtra Sili, Jalore - RSPCB",17-11-2025 07:00:00,25.344694,72.626208,PM10,60,184,116
India,Rajasthan,Jalore,"Mudtra Sili, Jalore - RSPCB",17-11-2025 07:00:00,25.344694,72.626208,NO2,12,149,53
India,Rajasthan,Jhalawar,"Rajlaxmi Nagar, Jhalawar - RSPCB",17-11-2025 07:00:00,24.588397,76.172782,NO2,38,73,50
India,Rajasthan,Jhalawar,"Rajlaxmi Nagar, Jhalawar - RSPCB",17-11-2025 07:00:00,24.588397,76.172782,CO,16,108,62
India,Rajasthan,Jodhpur,"Collectorate, Jodhpur - RSPCB",17-11-2025 07:00:00,26.268249,73.0193853,CO,7,132,101
India,Rajasthan,Jodhpur,"Digari Kalan, Jodhpur - RSPCB",17-11-2025 07:00:00,26.295810,73.082283,PM2.5,20,270,102
India,TamilNadu,Chennai,"Arumbakkam, Chennai - TNPCB",17-11-2025 07:00:00,13.0664,80.2112 ,NO2,9,20,14
India,TamilNadu,Chennai,"Gandhi Nagar_Ennore, Chennai - TNPCB",17-11-2025 07:00:00,13.218341,80.32027,SO2,22,23,22
India,TamilNadu,Chennai,"Kodungaiyur, Chennai - TNPCB",17-11-2025 07:00:00,13.1278,80.2642,PM2.5,96,201,144
India,TamilNadu,Chennai,"Kodungaiyur, Chennai - TNPCB",17-11-2025 07:00:00,13.1278,80.2642,PM10,74,129,106
India,TamilNadu,Chennai,"Manali Village, Chennai - TNPCB",17-11-2025 07:00:00,13.1662,80.2584,SO2,11,13,12
India,TamilNadu,Chennai,"Manali Village, Chennai - TNPCB",17-11-2025 07:00:00,13.1662,80.2584,OZONE,27,47,44
India,Rajasthan,Bikaner,"MM Ground, Bikaner - RSPCB",17-11-2025 07:00:00,28.018792,73.292658,SO2,2,16,10
India,Rajasthan,Bundi,"New Colony, Bundi - RSPCB",17-11-2025 07:00:00,25.435774,75.644272,CO,26,70,32
India,Rajasthan,Chittorgarh,"Shastri Nagar, Chittorgarh - RSPCB",17-11-2025 07:00:00,24.892047,74.623527,NH3,2,6,3
India,Rajasthan,Churu,"Subash Chowk, Churu - RSPCB",17-11-2025 07:00:00,28.296139,74.961696,PM2.5,38,431,178
India,Rajasthan,Churu,"Subash Chowk, Churu - RSPCB",17-11-2025 07:00:00,28.296139,74.961696,PM10,76,500,214
India,Rajasthan,Jodhpur,"Jhalamand, Jodhpur - RSPCB",17-11-2025 07:00:00,26.215415,73.070156,PM2.5,25,180,79
India,Rajasthan,Jodhpur,"Mandor, Jodhpur - RSPCB",17-11-2025 07:00:00,26.358805,73.047444,NO2,6,100,38
India,Rajasthan,Jodhpur,"Mandor, Jodhpur - RSPCB",17-11-2025 07:00:00,26.358805,73.047444,SO2,4,17,6
India,Rajasthan,Jodhpur,"Mandor, Jodhpur - RSPCB",17-11-2025 07:00:00,26.358805,73.047444,CO,11,55,29
India,Rajasthan,Jodhpur,"Mandor, Jodhpur - RSPCB",17-11-2025 07:00:00,26.358805,73.047444,OZONE,15,126,25
India,Rajasthan,Jodhpur,"Samrat Ashok Udhyan, Jodhpur - RSPCB",17-11-2025 07:00:00,26.253384,72.976571,SO2,1,10,3
India,Rajasthan,Pali,"Indira Colony Vistar, Pali - RSPCB",17-11-2025 07:00:00,25.771061, 73.340227,SO2,8,15,11
India,Rajasthan,Pratapgarh,"Pragati Nagar, Pratapgarh - RSPCB",17-11-2025 07:00:00,24.041198,74.780702,CO,16,36,22
India,Rajasthan,Sawai Madhopur,"Sahu Nagar, Sawai Madhopur - RSPCB",17-11-2025 07:00:00,26.031443,76.359327,SO2,2,16,6
India,Rajasthan,Sikar,"Radhakishan Pura, Sikar - RSPCB",17-11-2025 07:00:00,27.608912,75.153302,CO,26,114,58
India,TamilNadu,Cuddalore,"Semmandalam, Cuddalore - TNPCB",17-11-2025 07:00:00,11.7637683,79.7499835,OZONE,1,2,2
India,TamilNadu,Dindigul,"Mendonsa Colony, Dindigul - TNPCB",17-11-2025 07:00:00,10.358535,77.984321,CO,17,21,19
India,TamilNadu,Gummidipoondi,"Anthoni Pillai Nagar, Gummidipoondi - TNPCB",17-11-2025 07:00:00,13.4127,80.1081,PM2.5,130,352,220
India,TamilNadu,Gummidipoondi,"Anthoni Pillai Nagar, Gummidipoondi - TNPCB",17-11-2025 07:00:00,13.4127,80.1081,PM10,105,196,142
India,TamilNadu,Kanchipuram,"Kilambi, Kanchipuram - TNPCB",17-11-2025 07:00:00,12.864618,79.659968,SO2,9,10,9
India,TamilNadu,Kanchipuram,"Kilambi, Kanchipuram - TNPCB",17-11-2025 07:00:00,12.864618,79.659968,CO,24,32,25
India,TamilNadu,Kanchipuram,"Kilambi, Kanchipuram - TNPCB",17-11-2025 07:00:00,12.864618,79.659968,OZONE,8,8,8
India,TamilNadu,Madurai,"Uchapatti, Madurai - TNPCB",17-11-2025 07:00:00,9.865935,78.022669,PM10,79,120,95
India,TamilNadu,Madurai,"Uchapatti, Madurai - TNPCB",17-11-2025 07:00:00,9.865935,78.022669,NO2,16,16,16
India,TamilNadu,Madurai,"Uchapatti, Madurai - TNPCB",17-11-2025 07:00:00,9.865935,78.022669,OZONE,1,1,1
India,TamilNadu,Nagapattinam,"Velippalayam, Nagapattinam - TNPCB",17-11-2025 07:00:00,10.798548,79.838212,SO2,6,12,10
India,TamilNadu,Nagapattinam,"Velippalayam, Nagapattinam - TNPCB",17-11-2025 07:00:00,10.798548,79.838212,CO,18,30,24
India,TamilNadu,Palkalaiperur,"Bharathidasan University, Palkalaiperur - TNPCB",17-11-2025 07:00:00,10.681158,78.741746,NH3,2,3,2
India,TamilNadu,Pudukottai,"SIPCOT Nathampannai, Pudukottai - TNPCB",17-11-2025 07:00:00,10.423417,78.784889,NO2,16,23,19
India,TamilNadu,Ramanathapuram,"Chalai Bazaar, Ramanathapuram - TNPCB",17-11-2025 07:00:00,9.36399,78.831977,PM10,NA,NA,NA
India,TamilNadu,Ramanathapuram,"Chalai Bazaar, Ramanathapuram - TNPCB",17-11-2025 07:00:00,9.36399,78.831977,SO2,NA,NA,NA
India,TamilNadu,Thanjavur,"Parisutham Nagar, Thanjavur - TNPCB",17-11-2025 07:00:00,10.7654824,79.1389968,PM2.5,62,91,72
India,TamilNadu,Thanjavur,"Parisutham Nagar, Thanjavur - TNPCB",17-11-2025 07:00:00,10.7654824,79.1389968,PM10,80,113,93
India,TamilNadu,Thanjavur,"Parisutham Nagar, Thanjavur - TNPCB",17-11-2025 07:00:00,10.7654824,79.1389968,NO2,3,4,3
India,Uttar_Pradesh,Agra,"Manoharpur, Agra - UPPCB",17-11-2025 07:00:00,27.23711,78.01936,PM2.5,47,206,98
India,Uttar_Pradesh,Agra,"Manoharpur, Agra - UPPCB",17-11-2025 07:00:00,27.23711,78.01936,OZONE,7,7,7
India,Uttar_Pradesh,Agra,"Rohta, Agra - UPPCB",17-11-2025 07:00:00,27.106972,78.000111,PM2.5,45,187,98
India,Uttar_Pradesh,Agra,"Rohta, Agra - UPPCB",17-11-2025 07:00:00,27.106972,78.000111,SO2,17,27,22
India,Uttar_Pradesh,Agra,"Rohta, Agra - UPPCB",17-11-2025 07:00:00,27.106972,78.000111,CO,30,48,42
India,Uttar_Pradesh,Agra,"Rohta, Agra - UPPCB",17-11-2025 07:00:00,27.106972,78.000111,OZONE,11,14,13
India,Uttar_Pradesh,Agra,"Sector-3B Avas Vikas Colony, Agra - UPPCB",17-11-2025 07:00:00,27.19412,77.96237,PM10,101,484,165
India,Uttar_Pradesh,Agra,"Sector-3B Avas Vikas Colony, Agra - UPPCB",17-11-2025 07:00:00,27.19412,77.96237,NO2,38,39,39
India,TamilNadu,Chennai,"Velachery Res. Area, Chennai - CPCB",17-11-2025 07:00:00,13.0052189,80.2398125,OZONE,5,8,6
India,TamilNadu,Coimbatore,"PSG College of Arts and Science, Coimbatore - TNPCB",17-11-2025 07:00:00,11.0328,77.0349,SO2,1,2,2
India,TamilNadu,Coimbatore,"PSG College of Arts and Science, Coimbatore - TNPCB",17-11-2025 07:00:00,11.0328,77.0349,OZONE,3,6,4
India,TamilNadu,Coimbatore,"SIDCO Kurichi, Coimbatore - TNPCB",17-11-2025 07:00:00,10.942451,76.978996,OZONE,11,80,50
India,TamilNadu,Tirupur,"Kumaran College, Tirupur - TNPCB",17-11-2025 07:00:00,11.0973603,77.3228673,OZONE,3,3,3
India,Telangana,Hyderabad,"Bollaram Industrial Area, Hyderabad - TSPCB",17-11-2025 07:00:00,17.540891,78.358528,SO2,5,9,7
India,Telangana,Hyderabad,"ECIL Kapra, Hyderabad - TSPCB",17-11-2025 07:00:00,17.470431,78.566959,PM2.5,46,50,47
India,Telangana,Hyderabad,"ICRISAT Patancheru, Hyderabad - TSPCB",17-11-2025 07:00:00,17.518400,78.278777,PM2.5,72,176,139
India,Telangana,Hyderabad,"ICRISAT Patancheru, Hyderabad - TSPCB",17-11-2025 07:00:00,17.518400,78.278777,PM10,81,158,134
India,Telangana,Hyderabad,"ICRISAT Patancheru, Hyderabad - TSPCB",17-11-2025 07:00:00,17.518400,78.278777,NO2,6,18,12
India,Telangana,Hyderabad,"Kokapet, Hyderabad - TSPCB",17-11-2025 07:00:00,17.393559,78.339194,PM2.5,37,51,44
India,Telangana,Hyderabad,"New Malakpet, Hyderabad - TSPCB",17-11-2025 07:00:00,17.37206,78.50864,CO,22,34,23
India,Telangana,Hyderabad,"Ramachandrapuram, Hyderabad - TSPCB",17-11-2025 07:00:00,17.528544,78.286195,PM2.5,34,46,41
India,Telangana,Hyderabad,"Somajiguda, Hyderabad - TSPCB",17-11-2025 07:00:00,17.417094,78.457437,CO,20,48,31
India,Telangana,Hyderabad,"Kompally Municipal Office, Hyderabad - TSPCB",17-11-2025 07:00:00,17.544899,78.486949,NO2,12,14,13
India,Telangana,Hyderabad,"Nacharam_TSIIC IALA, Hyderabad - TSPCB",17-11-2025 07:00:00,17.429398,78.569354,PM10,NA,NA,NA
India,Telangana,Hyderabad,"Nacharam_TSIIC IALA, Hyderabad - TSPCB",17-11-2025 07:00:00,17.429398,78.569354,NH3,NA,NA,NA
India,TamilNadu,Tiruchirappalli,"St Joseph College, Tiruchirappalli - TNPCB",17-11-2025 07:00:00,10.830158,78.691849,PM10,30,65,45
India,TamilNadu,Tiruchirappalli,"St Joseph College, Tiruchirappalli - TNPCB",17-11-2025 07:00:00,10.830158,78.691849,NH3,1,1,1
India,TamilNadu,Tiruchirappalli,"St Joseph College, Tiruchirappalli - TNPCB",17-11-2025 07:00:00,10.830158,78.691849,OZONE,4,19,10
India,Uttar_Pradesh,Bareilly,"Rajendra Nagar, Bareilly - UPPCB",17-11-2025 07:00:00,28.38910936,79.42963708,PM2.5,26,98,58
India,Uttar_Pradesh,Bareilly,"Rajendra Nagar, Bareilly - UPPCB",17-11-2025 07:00:00,28.38910936,79.42963708,PM10,49,143,96
India,Uttar_Pradesh,Firozabad,"Nagla Bhau, Firozabad - UPPCB",17-11-2025 07:00:00,27.168897,78.376960,NH3,2,2,2
India,Uttar_Pradesh,Ghaziabad,"Indirapuram, Ghaziabad - UPPCB",17-11-2025 07:00:00,28.646233,77.358075,PM10,169,452,352
India,Uttar_Pradesh,Ghaziabad,"Indirapuram, Ghaziabad - UPPCB",17-11-2025 07:00:00,28.646233,77.358075,NH3,8,13,10
India,Uttar_Pradesh,Ghaziabad,"Indirapuram, Ghaziabad - UPPCB",17-11-2025 07:00:00,28.646233,77.358075,SO2,6,32,17
India,Uttar_Pradesh,Ghaziabad,"Loni, Ghaziabad - UPPCB",17-11-2025 07:00:00,28.757294,77.278792,NO2,33,134,90
India,Uttar_Pradesh,Lucknow,"Kukrail Picnic Spot-1, Lucknow - UPPCB",17-11-2025 07:00:00,26.90723,80.98579,PM10,58,173,115
India,Uttar_Pradesh,Lucknow,"Kukrail Picnic Spot-1, Lucknow - UPPCB",17-11-2025 07:00:00,26.90723,80.98579,NH3,5,5,5
India,Uttar_Pradesh,Lucknow,"Kukrail Picnic Spot-1, Lucknow - UPPCB",17-11-2025 07:00:00,26.90723,80.98579,SO2,40,43,42
India,Uttar_Pradesh,Lucknow,"Kukrail Picnic Spot-1, Lucknow - UPPCB",17-11-2025 07:00:00,26.90723,80.98579,CO,11,20,15
India,Uttar_Pradesh,Lucknow,"Talkatora District Industries Center, Lucknow - CPCB",17-11-2025 07:00:00,26.83399722,80.8917361,NH3,4,15,11
India,Uttar_Pradesh,Meerut,"Ganga Nagar, Meerut - UPPCB",17-11-2025 07:00:00,28.999264,77.7590354,PM2.5,91,359,268
India,Uttar_Pradesh,Meerut,"Ganga Nagar, Meerut - UPPCB",17-11-2025 07:00:00,28.999264,77.7590354,PM10,124,421,281
India,Uttar_Pradesh,Ghaziabad,"Loni, Ghaziabad - UPPCB",17-11-2025 07:00:00,28.757294,77.278792,CO,18,112,105
India,Uttar_Pradesh,Ghaziabad,"Sanjay Nagar, Ghaziabad - UPPCB",17-11-2025 07:00:00,28.685382,77.453839,NO2,12,34,23
India,Uttar_Pradesh,Gorakhpur,"Madan Mohan Malaviya University of Technology, Gorakhpur - UPPCB",17-11-2025 07:00:00,26.730136,83.433859,SO2,30,32,31
India,Uttar_Pradesh,Greater Noida,"Knowledge Park - V, Greater Noida - UPPCB",17-11-2025 07:00:00,28.557054,77.453663,NH3,6,12,8
India,Uttar_Pradesh,Meerut,"Jai Bhim Nagar, Meerut - UPPCB",17-11-2025 07:00:00,28.9535882,77.7622941,PM10,130,500,328
India,Uttar_Pradesh,Meerut,"Jai Bhim Nagar, Meerut - UPPCB",17-11-2025 07:00:00,28.9535882,77.7622941,SO2,6,37,17
India,Uttar_Pradesh,Moradabad,"Eco Herbal Park, Moradabad - UPPCB",17-11-2025 07:00:00,28.840739,78.697531,PM2.5,98,253,188
India,Uttar_Pradesh,Moradabad,"Employment Office, Moradabad - UPPCB",17-11-2025 07:00:00,28.88528,78.73880,PM10,53,128,98
India,Uttar_Pradesh,Moradabad,"Employment Office, Moradabad - UPPCB",17-11-2025 07:00:00,28.88528,78.73880,NH3,4,4,4
India,Uttar_Pradesh,Moradabad,"Employment Office, Moradabad - UPPCB",17-11-2025 07:00:00,28.88528,78.73880,CO,22,36,35
India,Uttar_Pradesh,Moradabad,"Jigar Colony, Moradabad - UPPCB",17-11-2025 07:00:00,28.856664,78.772638,NO2,25,25,25
India,Uttar_Pradesh,Moradabad,"Jigar Colony, Moradabad - UPPCB",17-11-2025 07:00:00,28.856664,78.772638,NH3,6,6,6
India,Uttar_Pradesh,Moradabad,"Jigar Colony, Moradabad - UPPCB",17-11-2025 07:00:00,28.856664,78.772638,CO,40,40,40
India,Uttar_Pradesh,Moradabad,"Kashiram Nagar, Moradabad - UPPCB",17-11-2025 07:00:00,28.849399,78.742362,NO2,25,25,25
India,Uttar_Pradesh,Moradabad,"Kashiram Nagar, Moradabad - UPPCB",17-11-2025 07:00:00,28.849399,78.742362,SO2,29,128,72
India,Uttar_Pradesh,Agra,"Shahjahan Garden, Agra - UPPCB",17-11-2025 07:00:00,27.169338,78.03582,OZONE,NA,NA,NA
India,Uttar_Pradesh,Agra,"Shastripuram, Agra - UPPCB",17-11-2025 07:00:00,27.19862,77.92066,SO2,10,21,15
India,Uttar_Pradesh,Baghpat,"Sardar Patel Inter College, Baghpat - UPPCB",17-11-2025 07:00:00,28.964949,77.278761,SO2,NA,NA,NA
India,Uttar_Pradesh,Baghpat,"Sardar Patel Inter College, Baghpat - UPPCB",17-11-2025 07:00:00,28.964949,77.278761,OZONE,NA,NA,NA
India,Uttar_Pradesh,Bareilly,"Civil Lines, Bareilly - UPPCB",17-11-2025 07:00:00,28.359581,79.414455,SO2,8,24,18
India,Uttar_Pradesh,Jhansi,"Shivaji Nagar, Jhansi - UPPCB",17-11-2025 07:00:00,25.4547,78.6039,PM2.5,40,134,75
India,Uttar_Pradesh,Jhansi,"Shivaji Nagar, Jhansi - UPPCB",17-11-2025 07:00:00,25.4547,78.6039,NH3,4,4,4
India,Uttar_Pradesh,Kanpur,"FTI Kidwai Nagar, Kanpur - UPPCB",17-11-2025 07:00:00,26.428282,80.327067,PM10,40,176,106
India,Uttar_Pradesh,Kanpur,"FTI Kidwai Nagar, Kanpur - UPPCB",17-11-2025 07:00:00,26.428282,80.327067,CO,37,58,55
India,Uttar_Pradesh,Lucknow,"Gomti Nagar, Lucknow - UPPCB",17-11-2025 07:00:00,26.868120,81.005119,NO2,7,9,8
India,Uttar_Pradesh,Lucknow,"Gomti Nagar, Lucknow - UPPCB",17-11-2025 07:00:00,26.868120,81.005119,CO,31,38,32
India,Uttar_Pradesh,Lucknow,"Kendriya Vidyalaya, Lucknow - CPCB",17-11-2025 07:00:00,26.906111,80.948222,PM2.5,93,306,203
India,Uttar_Pradesh,Lucknow,"Kendriya Vidyalaya, Lucknow - CPCB",17-11-2025 07:00:00,26.906111,80.948222,NO2,38,49,42
India,Uttar_Pradesh,Khurja,"Kalindi Kunj, Khurja - UPPCB",17-11-2025 07:00:00,28.2348927,77.8683002,CO,56,98,69
India,Uttar_Pradesh,Khurja,"Kalindi Kunj, Khurja - UPPCB",17-11-2025 07:00:00,28.2348927,77.8683002,OZONE,126,230,169
India,Uttar_Pradesh,Lucknow,"B R Ambedkar University, Lucknow - UPPCB",17-11-2025 07:00:00,26.766433,80.927299,PM10,58,190,120
India,Uttarakhand,Kashipur,"Govt. Girls Inter College, Kashipur - UKPCB",17-11-2025 07:00:00,29.2124114,78.9611753,PM10,19,363,103
India,Uttarakhand,Rishikesh,"Shivaji Nagar, Rishikesh - UKPCB",17-11-2025 07:00:00,30.075911,78.2859547,NO2,13,17,15
India,Uttarakhand,Rishikesh,"Shivaji Nagar, Rishikesh - UKPCB",17-11-2025 07:00:00,30.075911,78.2859547,NH3,5,8,6
India,Uttarakhand,Rishikesh,"Shivaji Nagar, Rishikesh - UKPCB",17-11-2025 07:00:00,30.075911,78.2859547,CO,18,34,22
India,West_Bengal,Asansol,"Asansol Court Area, Asansol - WBPCB",17-11-2025 07:00:00,23.685297,86.945968,NO2,15,28,23
India,West_Bengal,Asansol,"Evelyn Lodge, Asansol - WBPCB",17-11-2025 07:00:00,23.6979360,86.9443950,PM2.5,52,192,118
India,West_Bengal,Asansol,"Evelyn Lodge, Asansol - WBPCB",17-11-2025 07:00:00,23.6979360,86.9443950,NO2,8,38,20
India,West_Bengal,Asansol,"Evelyn Lodge, Asansol - WBPCB",17-11-2025 07:00:00,23.6979360,86.9443950,NH3,3,3,3
India,West_Bengal,Kolkata,"Ballygunge, Kolkata - WBPCB",17-11-2025 07:00:00,22.5367507,88.3638022,NO2,27,67,48
India,West_Bengal,Kolkata,"Ballygunge, Kolkata - WBPCB",17-11-2025 07:00:00,22.5367507,88.3638022,NH3,7,13,9
India,West_Bengal,Kolkata,"Ballygunge, Kolkata - WBPCB",17-11-2025 07:00:00,22.5367507,88.3638022,SO2,8,19,13
India,West_Bengal,Kolkata,"Ballygunge, Kolkata - WBPCB",17-11-2025 07:00:00,22.5367507,88.3638022,CO,13,109,72
India,West_Bengal,Kolkata,"Bidhannagar, Kolkata - WBPCB",17-11-2025 07:00:00,22.58157048,88.41002457,PM10,66,136,103
India,West_Bengal,Kolkata,"Fort William, Kolkata - WBPCB",17-11-2025 07:00:00,22.556640,88.342674,NH3,10,17,13
India,West_Bengal,Kolkata,"Jadavpur, Kolkata - WBPCB",17-11-2025 07:00:00,22.49929,88.36917,NO2,34,82,52
India,West_Bengal,Durgapur,"Womens College_City Center, Durgapur - WBPCB (Formerly known as Sidhu Kanhu Indoor Stadium)",17-11-2025 07:00:00,23.549395,87.300496,NO2,24,30,25
India,West_Bengal,Durgapur,"Womens College_City Center, Durgapur - WBPCB (Formerly known as Sidhu Kanhu Indoor Stadium)",17-11-2025 07:00:00,23.549395,87.300496,OZONE,3,54,4
India,West_Bengal,Haldia,"Priyambada Housing Estate, Haldia - WBPCB",17-11-2025 07:00:00,22.06047,88.109737,SO2,NA,NA,NA
India,West_Bengal,Howrah,"Belur Math, Howrah - WBPCB",17-11-2025 07:00:00,22.629801,88.352017,NH3,NA,NA,NA
India,West_Bengal,Howrah,"Belur Math, Howrah - WBPCB",17-11-2025 07:00:00,22.629801,88.352017,SO2,NA,NA,NA
India,West_Bengal,Howrah,"Belur Math, Howrah - WBPCB",17-11-2025 07:00:00,22.629801,88.352017,OZONE,NA,NA,NA
India,West_Bengal,Howrah,"Dasnagar, Howrah - WBPCB",17-11-2025 07:00:00,22.6025571,88.3105664,PM2.5,58,187,126
India,West_Bengal,Howrah,"Dasnagar, Howrah - WBPCB",17-11-2025 07:00:00,22.6025571,88.3105664,OZONE,1,103,1
India,West_Bengal,Howrah,"Ghusuri, Howrah - WBPCB",17-11-2025 07:00:00,22.611968,88.347422,CO,17,56,44
India,West_Bengal,Howrah,"Padmapukur, Howrah - WBPCB",17-11-2025 07:00:00,22.5687319,88.2797276,PM10,68,166,131
India,West_Bengal,Howrah,"Padmapukur, Howrah - WBPCB",17-11-2025 07:00:00,22.5687319,88.2797276,NH3,3,11,7
India,West_Bengal,Kolkata,"Ballygunge, Kolkata - WBPCB",17-11-2025 07:00:00,22.5367507,88.3638022,PM2.5,76,246,145
India,Uttar_Pradesh,Noida,"Sector - 125, Noida - UPPCB",17-11-2025 07:00:00,28.5447608,77.3231257,PM10,153,416,335
India,Uttar_Pradesh,Noida,"Sector - 125, Noida - UPPCB",17-11-2025 07:00:00,28.5447608,77.3231257,SO2,7,30,15
India,Uttar_Pradesh,Noida,"Sector - 62, Noida - IMD",17-11-2025 07:00:00,28.6245479,77.3577104,PM2.5,109,409,319
India,Uttar_Pradesh,Noida,"Sector - 62, Noida - IMD",17-11-2025 07:00:00,28.6245479,77.3577104,NO2,13,33,24
India,Uttar_Pradesh,Noida,"Sector-116, Noida - UPPCB",17-11-2025 07:00:00,28.569230,77.393848,PM2.5,200,466,380
India,Uttar_Pradesh,Noida,"Sector-116, Noida - UPPCB",17-11-2025 07:00:00,28.569230,77.393848,OZONE,10,206,13
India,Uttar_Pradesh,Prayagraj,"Jhunsi, Prayagraj - UPPCB",17-11-2025 07:00:00,25.425602,81.917152,PM10,68,331,164
India,Uttar_Pradesh,Prayagraj,"Jhunsi, Prayagraj - UPPCB",17-11-2025 07:00:00,25.425602,81.917152,CO,34,101,88
India,Uttar_Pradesh,Prayagraj,"Motilal Nehru NIT, Prayagraj - UPPCB",17-11-2025 07:00:00,25.494,81.863,PM10,88,216,148
India,Uttar_Pradesh,Prayagraj,"Motilal Nehru NIT, Prayagraj - UPPCB",17-11-2025 07:00:00,25.494,81.863,NH3,8,8,8
India,Uttar_Pradesh,Varanasi,"Ardhali Bazar, Varanasi - UPPCB",17-11-2025 07:00:00,25.3505986,82.9083074,CO,12,16,14
India,Uttar_Pradesh,Varanasi,"Bhelupur, Varanasi - UPPCB",17-11-2025 07:00:00,25.301778,82.996789,SO2,28,32,30
India,Uttar_Pradesh,Varanasi,"IESD Banaras Hindu University, Varanasi - UPPCB",17-11-2025 07:00:00,25.262326,82.995408,PM2.5,43,182,98
India,Uttar_Pradesh,Varanasi,"Maldahiya, Varanasi - UPPCB",17-11-2025 07:00:00,25.32393,82.99687,PM2.5,57,251,113
India,Uttar_Pradesh,Vrindavan,"Omex Eternity, Vrindavan - UPPCB",17-11-2025 07:00:00,27.5714090,77.6557570,SO2,11,12,11
India,West_Bengal,Asansol,"Mahabir Colliery, Asansol - WBPCB",17-11-2025 07:00:00,23.6181830,87.1057180,NO2,9,48,26
India,West_Bengal,Durgapur,"Mahishkapur Road_B-Zone, Durgapur - WBPCB",17-11-2025 07:00:00,23.567923,87.306843,SO2,13,48,19
India,West_Bengal,Durgapur,"PCBL Residential Complex, Durgapur - WBPCB",17-11-2025 07:00:00,23.5087640,87.3544400,PM2.5,42,209,95
India,West_Bengal,Durgapur,"PCBL Residential Complex, Durgapur - WBPCB",17-11-2025 07:00:00,23.5087640,87.3544400,NO2,16,33,22
India,Uttar_Pradesh,Moradabad,"Transport Nagar, Moradabad - UPPCB",17-11-2025 07:00:00,28.802625,78.753728,CO,23,46,39
India,Uttar_Pradesh,Moradabad,"Transport Nagar, Moradabad - UPPCB",17-11-2025 07:00:00,28.802625,78.753728,OZONE,24,65,26
India,Uttar_Pradesh,Muzaffarnagar,"New Mandi, Muzaffarnagar - UPPCB",17-11-2025 07:00:00,29.4723508,77.7194031,SO2,14,40,25
India,West_Bengal,Kolkata,"Rabindra Bharati University, Kolkata - WBPCB",17-11-2025 07:00:00,22.627847,88.380669,OZONE,6,97,19
India,West_Bengal,Kolkata,"Rabindra Sarobar, Kolkata - WBPCB",17-11-2025 07:00:00,22.51106,88.35142,NO2,33,235,123
India,West_Bengal,Kolkata,"Rabindra Sarobar, Kolkata - WBPCB",17-11-2025 07:00:00,22.51106,88.35142,SO2,7,30,12
India,West_Bengal,Kolkata,"Victoria, Kolkata - WBPCB",17-11-2025 07:00:00,22.5448082,88.3403691,SO2,2,15,8
India,West_Bengal,Siliguri,"Ward-32 Bapupara, Siliguri - WBPCB",17-11-2025 07:00:00,26.6879226,88.4152495,SO2,13,19,15
India,Bihar,Begusarai,"Lohiyanagar, Begusarai - BSPCB",17-11-2025 07:00:00,25.42742023,86.13886079,PM2.5,53,250,122
India,Bihar,Begusarai,"Lohiyanagar, Begusarai - BSPCB",17-11-2025 07:00:00,25.42742023,86.13886079,PM10,46,139,92
India,Bihar,Begusarai,"Lohiyanagar, Begusarai - BSPCB",17-11-2025 07:00:00,25.42742023,86.13886079,CO,20,22,21
India,Bihar,Bettiah,"Kamalnath Nagar, Bettiah - BSPCB",17-11-2025 07:00:00,26.80365,84.51954,NO2,6,11,8
India,Bihar,Bhagalpur,"DM Office_Kachari Chowk, Bhagalpur - BSPCB",17-11-2025 07:00:00,25.251013,86.989001,NH3,NA,NA,NA
India,Bihar,Bhagalpur,"DM Office_Kachari Chowk, Bhagalpur - BSPCB",17-11-2025 07:00:00,25.251013,86.989001,OZONE,NA,NA,NA
India,Bihar,Bhagalpur,"Mayaganj, Bhagalpur - BSPCB",17-11-2025 07:00:00,25.265194,87.012947,SO2,4,64,40
India,Andhra_Pradesh,Tirumala,"Toll Gate, Tirumala - APPCB",17-11-2025 07:00:00,13.67,79.35,PM2.5,127,214,174
India,Andhra_Pradesh,Tirumala,"Toll Gate, Tirumala - APPCB",17-11-2025 07:00:00,13.67,79.35,CO,30,40,37
India,Andhra_Pradesh,Vijayawada,"HB Colony, Vijayawada - APPCB",17-11-2025 07:00:00,16.536107,80.594233,PM10,43,80,63
India,Andhra_Pradesh,Vijayawada,"HB Colony, Vijayawada - APPCB",17-11-2025 07:00:00,16.536107,80.594233,NO2,22,22,22
India,Andhra_Pradesh,Vijayawada,"Rajiv Gandhi Park, Vijayawada - APPCB",17-11-2025 07:00:00,16.509717,80.612222,NH3,1,4,3
India,Andhra_Pradesh,Vijayawada,"Rajiv Nagar, Vijayawada - APPCB",17-11-2025 07:00:00,16.554731,80.649110,SO2,2,13,6
India,Andhra_Pradesh,Vijayawada,"Rajiv Nagar, Vijayawada - APPCB",17-11-2025 07:00:00,16.554731,80.649110,OZONE,65,85,69
India,Bihar,Bihar Sharif,"D M Colony, Bihar Sharif - BSPCB",17-11-2025 07:00:00,25.204762,85.514960,PM10,42,157,80
India,Bihar,Bihar Sharif,"D M Colony, Bihar Sharif - BSPCB",17-11-2025 07:00:00,25.204762,85.514960,OZONE,20,37,31
India,Bihar,Chhapra,"Darshan Nagar, Chhapra - BSPCB",17-11-2025 07:00:00,25.7808257,84.7446768,PM2.5,2,93,55
India,Bihar,Chhapra,"Darshan Nagar, Chhapra - BSPCB",17-11-2025 07:00:00,25.7808257,84.7446768,CO,2,17,8
India,Bihar,Gaya,"Collectorate, Gaya - BSPCB",17-11-2025 07:00:00,24.7955,84.9994,PM2.5,79,311,156
India,Bihar,Gaya,"Collectorate, Gaya - BSPCB",17-11-2025 07:00:00,24.7955,84.9994,OZONE,19,20,20
India,Bihar,Gaya,"Kareemganj, Gaya - BSPCB",17-11-2025 07:00:00,24.792403,84.992416,NH3,4,6,5
India,Bihar,Gaya,"Kareemganj, Gaya - BSPCB",17-11-2025 07:00:00,24.792403,84.992416,SO2,15,18,17
India,Bihar,Hajipur,"Industrial Area, Hajipur - BSPCB",17-11-2025 07:00:00,25.697189,85.245900,PM2.5,NA,NA,NA
India,Bihar,Hajipur,"Industrial Area, Hajipur - BSPCB",17-11-2025 07:00:00,25.697189,85.245900,PM10,NA,NA,NA
India,Bihar,Hajipur,"Industrial Area, Hajipur - BSPCB",17-11-2025 07:00:00,25.697189,85.245900,NH3,NA,NA,NA
India,Bihar,Katihar,"Mirchaibari, Katihar - BSPCB",17-11-2025 07:00:00,25.560083,87.553265,NO2,12,21,17
India,Andhra_Pradesh,Anantapur,"Gulzarpet, Anantapur - APPCB",17-11-2025 07:00:00,14.675886,77.593027,SO2,17,17,17
India,Andhra_Pradesh,Chittoor,"Gangineni Cheruvu, Chittoor - APPCB",17-11-2025 07:00:00,13.204880,79.097889,PM2.5,90,283,125
India,Andhra_Pradesh,Chittoor,"Gangineni Cheruvu, Chittoor - APPCB",17-11-2025 07:00:00,13.204880,79.097889,NO2,20,24,23
India,Andhra_Pradesh,Chittoor,"Gangineni Cheruvu, Chittoor - APPCB",17-11-2025 07:00:00,13.204880,79.097889,CO,22,39,31
India,Andhra_Pradesh,Kadapa,"Yerramukkapalli, Kadapa - APPCB",17-11-2025 07:00:00,14.465052,78.824187,CO,38,44,40
India,Bihar,Motihari,"Gandak Colony, Motihari - BSPCB",17-11-2025 07:00:00,26.63086,84.90051,PM10,30,153,102
India,Bihar,Motihari,"Gandak Colony, Motihari - BSPCB",17-11-2025 07:00:00,26.63086,84.90051,CO,40,58,43
India,Bihar,Motihari,"Gandak Colony, Motihari - BSPCB",17-11-2025 07:00:00,26.63086,84.90051,OZONE,2,4,3
India,Bihar,Munger,"Town Hall, Munger - BSPCB",17-11-2025 07:00:00,25.376776,86.471523,PM10,59,149,95
India,Bihar,Munger,"Town Hall, Munger - BSPCB",17-11-2025 07:00:00,25.376776,86.471523,CO,20,52,33
India,Andhra_Pradesh,Visakhapatnam,"GVM Corporation, Visakhapatnam - APPCB",17-11-2025 07:00:00,17.72,83.3,SO2,18,59,28
India,Assam,Byrnihat,"Central Academy for SFS, Byrnihat - PCBA",17-11-2025 07:00:00,26.071318,91.87488,OZONE,16,27,18
India,Assam,Guwahati,"IITG, Guwahati - PCBA",17-11-2025 07:00:00,26.2028636,91.70046436,NO2,1,5,2
India,Assam,Sivasagar,"Girls College, Sivasagar - PCBA",17-11-2025 07:00:00,26.987634,94.636574,NO2,16,34,24
India,Assam,Sivasagar,"Girls College, Sivasagar - PCBA",17-11-2025 07:00:00,26.987634,94.636574,SO2,7,12,10
India,Assam,Sivasagar,"Girls College, Sivasagar - PCBA",17-11-2025 07:00:00,26.987634,94.636574,CO,8,78,46
India,Bihar,Aurangabad,"Gurdeo Nagar, Aurangabad - BSPCB",17-11-2025 07:00:00,24.75746,84.366208,PM10,75,201,127
India,Assam,Guwahati,"Railway Colony, Guwahati - PCBA",17-11-2025 07:00:00,26.181742,91.78063,PM2.5,38,210,95
India,Assam,Nalbari,"Bata Chowk, Nalbari - PCBA",17-11-2025 07:00:00,26.446912,91.439057,CO,14,30,22
India,Assam,Silchar,"Tarapur, Silchar - PCBA",17-11-2025 07:00:00,24.82827,92.79525,NO2,15,21,18
India,Bihar,Muzaffarpur,"Muzaffarpur Collectorate, Muzaffarpur - BSPCB",17-11-2025 07:00:00,26.1209,85.3647,PM2.5,82,95,89
India,Bihar,Patna,"DRM Office Danapur, Patna - BSPCB",17-11-2025 07:00:00,25.586562,85.043586,SO2,7,11,9
India,Bihar,Patna,"Govt. High School Shikarpur, Patna - BSPCB",17-11-2025 07:00:00,25.592539,85.227158,CO,50,112,85
India,Bihar,Patna,"Govt. High School Shikarpur, Patna - BSPCB",17-11-2025 07:00:00,25.592539,85.227158,OZONE,8,13,10
India,Bihar,Patna,"IGSC Planetarium Complex, Patna - BSPCB",17-11-2025 07:00:00,25.610369,85.132568,NO2,5,18,15
India,Bihar,Patna,"IGSC Planetarium Complex, Patna - BSPCB",17-11-2025 07:00:00,25.610369,85.132568,CO,43,68,67
India,Bihar,Patna,"Muradpur, Patna - BSPCB",17-11-2025 07:00:00,25.619651,85.147382,NO2,7,10,8
India,Bihar,Patna,"Muradpur, Patna - BSPCB",17-11-2025 07:00:00,25.619651,85.147382,SO2,8,10,9
India,Bihar,Patna,"Muradpur, Patna - BSPCB",17-11-2025 07:00:00,25.619651,85.147382,OZONE,4,40,6
India,Bihar,Patna,"Rajbansi Nagar, Patna - BSPCB",17-11-2025 07:00:00,25.599486,85.113666,PM10,92,182,126
India,Bihar,Patna,"Rajbansi Nagar, Patna - BSPCB",17-11-2025 07:00:00,25.599486,85.113666,OZONE,11,60,22
India,Chandigarh,Chandigarh,"Sector-25, Chandigarh - CPCC",17-11-2025 07:00:00,30.751462,76.762879,CO,17,45,35
India,Chandigarh,Chandigarh,"Sector-53, Chandigarh - CPCC",17-11-2025 07:00:00,30.719859,76.738637,NH3,5,14,7
India,Chandigarh,Chandigarh,"Sector-53, Chandigarh - CPCC",17-11-2025 07:00:00,30.719859,76.738637,SO2,12,78,21
India,Chandigarh,Chandigarh,"Sector-53, Chandigarh - CPCC",17-11-2025 07:00:00,30.719859,76.738637,CO,26,116,62
India,Chhattisgarh,Bhilai,"32Bungalows, Bhilai - CECB",17-11-2025 07:00:00,21.194815,81.314770,PM2.5,29,60,43
India,Chhattisgarh,Bhilai,"32Bungalows, Bhilai - CECB",17-11-2025 07:00:00,21.194815,81.314770,NO2,16,90,42
India,Chhattisgarh,Bhilai,"Civic Center, Bhilai - Bhilai Steel Plant",17-11-2025 07:00:00,21.185571,81.343175,PM10,NA,NA,NA
India,Chhattisgarh,Bhilai,"Civic Center, Bhilai - Bhilai Steel Plant",17-11-2025 07:00:00,21.185571,81.343175,NO2,17,189,84
India,Bihar,Saharsa,"Police Line, Saharsa - BSPCB",17-11-2025 07:00:00,25.892357,86.590325,CO,35,38,36
India,Bihar,Samastipur,"DM Office_Kasipur, Samastipur - BSPCB",17-11-2025 07:00:00,25.859655,85.77944,PM10,NA,NA,NA
India,Bihar,Samastipur,"DM Office_Kasipur, Samastipur - BSPCB",17-11-2025 07:00:00,25.859655,85.77944,SO2,NA,NA,NA
India,Bihar,Sasaram,"Dada Peer, Sasaram - BSPCB",17-11-2025 07:00:00,24.952822,84.002396,SO2,1,8,3
India,Bihar,Siwan,"Chitragupta Nagar, Siwan - BSPCB",17-11-2025 07:00:00,26.2271665,84.3570427,NH3,1,1,1
India,Chandigarh,Chandigarh,"Sector 22, Chandigarh - CPCC",17-11-2025 07:00:00,30.735567,76.775714,NO2,5,45,17
India,Delhi,Delhi,"Ashok Vihar, Delhi - DPCC",17-11-2025 07:00:00,28.695381,77.181665,SO2,12,42,26
India,Delhi,Delhi,"Aya Nagar, Delhi - IMD",17-11-2025 07:00:00,28.4706914,77.1099364,CO,8,66,53
India,Delhi,Delhi,"Bawana, Delhi - DPCC",17-11-2025 07:00:00,28.776200,77.051074,NO2,12,86,47
India,Delhi,Delhi,"Burari Crossing, Delhi - IMD",17-11-2025 07:00:00,28.7256504,77.2011573,PM10,155,436,305
India,Delhi,Delhi,"Burari Crossing, Delhi - IMD",17-11-2025 07:00:00,28.7256504,77.2011573,NO2,66,159,110
India,Delhi,Delhi,"CRRI Mathura Road, Delhi - IMD",17-11-2025 07:00:00,28.5512005,77.2735737,PM2.5,167,422,344
India,Delhi,Delhi,"CRRI Mathura Road, Delhi - IMD",17-11-2025 07:00:00,28.5512005,77.2735737,PM10,138,401,292
India,Chhattisgarh,Korba,"Urja Nagar, Korba - CECB",17-11-2025 07:00:00,22.348441,82.549611,CO,20,34,27
India,Chhattisgarh,Korba,"Urja Nagar, Korba - CECB",17-11-2025 07:00:00,22.348441,82.549611,OZONE,35,36,36
India,Chhattisgarh,Kunjemura,"OP Jindal School, Kunjemura - CECB",17-11-2025 07:00:00,22.126650,83.483212,CO,10,27,24
India,Chhattisgarh,Raipur,"AIIMS, Raipur - CECB",17-11-2025 07:00:00,21.258815,81.578979,PM10,28,133,69
India,Chhattisgarh,Raipur,"Bhatagaon New ISBT, Raipur - CECB",17-11-2025 07:00:00,21.219665,81.630094,SO2,5,14,7
India,Chhattisgarh,Raipur,"Krishak Nagar, Raipur - CECB",17-11-2025 07:00:00,21.237755,81.705301,PM2.5,17,28,22
India,Chhattisgarh,Raipur,"Krishak Nagar, Raipur - CECB",17-11-2025 07:00:00,21.237755,81.705301,CO,24,36,35
India,Chhattisgarh,Raipur,"Siltara Phase-II, Raipur - CECB",17-11-2025 07:00:00,21.371751,81.664929,SO2,3,5,4
India,Delhi,Delhi,"Alipur, Delhi - DPCC",17-11-2025 07:00:00,28.815329,77.153010,PM2.5,150,500,386
India,Delhi,Delhi,"Alipur, Delhi - DPCC",17-11-2025 07:00:00,28.815329,77.153010,PM10,149,500,374
India,Delhi,Delhi,"Alipur, Delhi - DPCC",17-11-2025 07:00:00,28.815329,77.153010,SO2,11,41,19
India,Delhi,Delhi,"Anand Vihar, Delhi - DPCC",17-11-2025 07:00:00,28.647622,77.3158090,CO,72,132,124
India,Bihar,Patna,"Samanpura, Patna - BSPCB",17-11-2025 07:00:00,25.596727,85.085624,OZONE,2,257,4
India,Bihar,Purnia,"Mariam Nagar, Purnia - BSPCB",17-11-2025 07:00:00,25.366336,87.117468,PM10,19,89,68
India,Bihar,Purnia,"Mariam Nagar, Purnia - BSPCB",17-11-2025 07:00:00,25.366336,87.117468,NO2,4,7,5
India,Bihar,Saharsa,"Police Line, Saharsa - BSPCB",17-11-2025 07:00:00,25.892357,86.590325,NH3,4,4,4
India,Chhattisgarh,Korba,"Rampur, Korba - CECB",17-11-2025 07:00:00,22.368195,82.746431,OZONE,2,6,2
India,Chhattisgarh,Korba,"Urja Nagar, Korba - CECB",17-11-2025 07:00:00,22.348441,82.549611,PM2.5,54,72,55
India,Chhattisgarh,Korba,"Urja Nagar, Korba - CECB",17-11-2025 07:00:00,22.348441,82.549611,PM10,72,73,72
India,Chhattisgarh,Bhilai,"Hathkhoj, Bhilai - CECB",17-11-2025 07:00:00,21.224231,81.408350,CO,13,58,40
India,Chhattisgarh,Bhilai,"Hathkhoj, Bhilai - CECB",17-11-2025 07:00:00,21.224231,81.408350,OZONE,10,58,22
India,Chhattisgarh,Korba,"Rampur, Korba - CECB",17-11-2025 07:00:00,22.368195,82.746431,PM2.5,37,58,49
India,Delhi,Delhi,"IGI Airport (T3), Delhi - IMD",17-11-2025 07:00:00,28.5627763,77.1180053,OZONE,1,4,3
India,Delhi,Delhi,"IHBAS, Dilshad Garden, Delhi - CPCB",17-11-2025 07:00:00,28.6811736,77.3025234,NO2,50,55,53
India,Delhi,Delhi,"IHBAS, Dilshad Garden, Delhi - CPCB",17-11-2025 07:00:00,28.6811736,77.3025234,SO2,11,52,30
India,Delhi,Delhi,"ITO, Delhi - CPCB",17-11-2025 07:00:00,28.628624,77.241060,NO2,28,149,81
India,Delhi,Delhi,"ITO, Delhi - CPCB",17-11-2025 07:00:00,28.628624,77.241060,CO,34,114,99
India,Delhi,Delhi,"Jahangirpuri, Delhi - DPCC",17-11-2025 07:00:00,28.732820,77.170633,SO2,14,55,37
India,Delhi,Delhi,"Jawaharlal Nehru Stadium, Delhi - DPCC",17-11-2025 07:00:00,28.580280,77.233829,PM10,177,443,339
India,Delhi,Delhi,"Jawaharlal Nehru Stadium, Delhi - DPCC",17-11-2025 07:00:00,28.580280,77.233829,NO2,32,153,100
India,Delhi,Delhi,"Wazirpur, Delhi - DPCC",17-11-2025 07:00:00,28.699793,77.165453,PM10,194,495,402
India,Delhi,Delhi,"Wazirpur, Delhi - DPCC",17-11-2025 07:00:00,28.699793,77.165453,NO2,48,145,96
India,Delhi,Delhi,"Wazirpur, Delhi - DPCC",17-11-2025 07:00:00,28.699793,77.165453,SO2,10,34,22
India,Gujarat,Ahmedabad,"Chandkheda, Ahmedabad - IITM",17-11-2025 07:00:00,23.107969,72.574648,PM10,94,180,124
India,Gujarat,Ahmedabad,"Chandkheda, Ahmedabad - IITM",17-11-2025 07:00:00,23.107969,72.574648,OZONE,4,69,22
India,Gujarat,Ahmedabad,"Gyaspur, Ahmedabad - IITM",17-11-2025 07:00:00,22.977134,72.553024,OZONE,12,32,14
India,Gujarat,Ahmedabad,"Maninagar, Ahmedabad - GPCB",17-11-2025 07:00:00,23.002657,72.591912,PM10,44,182,96
India,Gujarat,Ahmedabad,"Maninagar, Ahmedabad - GPCB",17-11-2025 07:00:00,23.002657,72.591912,SO2,33,52,45
India,Gujarat,Ahmedabad,"Maninagar, Ahmedabad - GPCB",17-11-2025 07:00:00,23.002657,72.591912,OZONE,5,48,19
India,Delhi,Delhi,"Sirifort, Delhi - CPCB",17-11-2025 07:00:00,28.5504249,77.2159377,NO2,46,73,56
India,Delhi,Delhi,"Sirifort, Delhi - CPCB",17-11-2025 07:00:00,28.5504249,77.2159377,OZONE,6,18,6
India,Delhi,Delhi,"Sonia Vihar, Delhi - DPCC",17-11-2025 07:00:00,28.710508,77.249485,NO2,23,103,56
India,Delhi,Delhi,"Sonia Vihar, Delhi - DPCC",17-11-2025 07:00:00,28.710508,77.249485,NH3,6,10,7
India,Delhi,Delhi,"Sri Aurobindo Marg, Delhi - DPCC",17-11-2025 07:00:00,28.531346,77.190156,PM10,140,336,224
India,Delhi,Delhi,"Sri Aurobindo Marg, Delhi - DPCC",17-11-2025 07:00:00,28.531346,77.190156,OZONE,1,154,2
India,Delhi,Delhi,"Vivek Vihar, Delhi - DPCC",17-11-2025 07:00:00,28.672342,77.315260,PM10,157,430,340
India,Delhi,Delhi,"Vivek Vihar, Delhi - DPCC",17-11-2025 07:00:00,28.672342,77.315260,NH3,10,12,11
India,Delhi,Delhi,"Vivek Vihar, Delhi - DPCC",17-11-2025 07:00:00,28.672342,77.315260,SO2,12,43,22
India,Delhi,Delhi,"CRRI Mathura Road, Delhi - IMD",17-11-2025 07:00:00,28.5512005,77.2735737,NO2,6,38,23
India,Delhi,Delhi,"Dr. Karni Singh Shooting Range, Delhi - DPCC",17-11-2025 07:00:00,28.498571,77.264840,PM10,165,405,294
India,Delhi,Delhi,"Dr. Karni Singh Shooting Range, Delhi - DPCC",17-11-2025 07:00:00,28.498571,77.264840,NO2,69,149,98
India,Delhi,Delhi,"Dr. Karni Singh Shooting Range, Delhi - DPCC",17-11-2025 07:00:00,28.498571,77.264840,NH3,7,10,9
India,Delhi,Delhi,"Dwarka-Sector 8, Delhi - DPCC ",17-11-2025 07:00:00,28.5710274,77.0719006,PM10,177,405,304
India,Delhi,Delhi,"Dwarka-Sector 8, Delhi - DPCC ",17-11-2025 07:00:00,28.5710274,77.0719006,NH3,15,22,19
India,Delhi,Delhi,"Dwarka-Sector 8, Delhi - DPCC ",17-11-2025 07:00:00,28.5710274,77.0719006,SO2,16,31,24
India,Delhi,Delhi,"Okhla Phase-2, Delhi - DPCC",17-11-2025 07:00:00,28.530785,77.271255,PM10,162,366,288
India,Delhi,Delhi,"Okhla Phase-2, Delhi - DPCC",17-11-2025 07:00:00,28.530785,77.271255,SO2,15,27,20
India,Delhi,Delhi,"Okhla Phase-2, Delhi - DPCC",17-11-2025 07:00:00,28.530785,77.271255,CO,41,106,87
India,Delhi,Delhi,"Patparganj, Delhi - DPCC",17-11-2025 07:00:00,28.623763,77.287209,NO2,26,180,105
India,Delhi,Delhi,"Punjabi Bagh, Delhi - DPCC",17-11-2025 07:00:00,28.674045,77.131023,NH3,4,5,4
India,Delhi,Delhi,"Punjabi Bagh, Delhi - DPCC",17-11-2025 07:00:00,28.674045,77.131023,OZONE,1,126,1
India,Delhi,Delhi,"Lodhi Road, Delhi - IMD",17-11-2025 07:00:00,28.5918245,77.2273074,NO2,16,70,39
India,Delhi,Delhi,"Major Dhyan Chand National Stadium, Delhi - DPCC",17-11-2025 07:00:00,28.611281,77.237738,PM2.5,170,415,341
India,Delhi,Delhi,"Major Dhyan Chand National Stadium, Delhi - DPCC",17-11-2025 07:00:00,28.611281,77.237738,OZONE,8,73,9
India,Delhi,Delhi,"Mundka, Delhi - DPCC",17-11-2025 07:00:00,28.684678,77.076574,PM2.5,237,478,395
India,Delhi,Delhi,"Mundka, Delhi - DPCC",17-11-2025 07:00:00,28.684678,77.076574,NH3,6,16,12
India,Delhi,Delhi,"NSIT Dwarka, Delhi - CPCB",17-11-2025 07:00:00,28.60909,77.0325413,PM2.5,34,388,225
India,Delhi,Delhi,"NSIT Dwarka, Delhi - CPCB",17-11-2025 07:00:00,28.60909,77.0325413,NO2,65,106,82
India,Delhi,Delhi,"Najafgarh, Delhi - DPCC",17-11-2025 07:00:00,28.570173,76.933762,PM2.5,213,411,323
India,Delhi,Delhi,"Najafgarh, Delhi - DPCC",17-11-2025 07:00:00,28.570173,76.933762,SO2,11,33,22
India,Delhi,Delhi,"Nehru Nagar, Delhi - DPCC",17-11-2025 07:00:00,28.567890,77.250515,PM2.5,207,466,389
India,Delhi,Delhi,"Rohini, Delhi - DPCC",17-11-2025 07:00:00,28.732528,77.119920,OZONE,4,256,5
India,Delhi,Delhi,"Shadipur, Delhi - CPCB",17-11-2025 07:00:00,28.6514781,77.1473105,NO2,68,156,112
India,Delhi,Delhi,"Shadipur, Delhi - CPCB",17-11-2025 07:00:00,28.6514781,77.1473105,OZONE,7,42,10
India,Delhi,Delhi,"Pusa, Delhi - IMD",17-11-2025 07:00:00,28.636110,77.173332,PM10,153,421,288
India,Delhi,Delhi,"Pusa, Delhi - IMD",17-11-2025 07:00:00,28.636110,77.173332,NO2,11,131,69
India,Delhi,Delhi,"Pusa, Delhi - IMD",17-11-2025 07:00:00,28.636110,77.173332,CO,6,118,93
India,Delhi,Delhi,"Pusa, Delhi - IMD",17-11-2025 07:00:00,28.636110,77.173332,OZONE,14,60,17
India,Haryana,Palwal,"Shyam Nagar, Palwal - HSPCB",17-11-2025 07:00:00,28.1485564,77.3320667,PM2.5,46,89,71
India,Haryana,Palwal,"Shyam Nagar, Palwal - HSPCB",17-11-2025 07:00:00,28.1485564,77.3320667,NO2,24,24,24
India,Haryana,Palwal,"Shyam Nagar, Palwal - HSPCB",17-11-2025 07:00:00,28.1485564,77.3320667,CO,28,28,28
India,Haryana,Palwal,"Shyam Nagar, Palwal - HSPCB",17-11-2025 07:00:00,28.1485564,77.3320667,OZONE,23,25,24
India,Haryana,Panchgaon,"Amity University, Panchgaon - IITM",17-11-2025 07:00:00,28.3153,76.9143,PM2.5,56,140,83
India,Haryana,Panchgaon,"Amity University, Panchgaon - IITM",17-11-2025 07:00:00,28.3153,76.9143,PM10,70,133,94
India,Haryana,Panchkula,"Sector-6, Panchkula - HSPCB ",17-11-2025 07:00:00,30.7057778,76.8531805555555,SO2,8,9,9
India,Haryana,Panipat,"Sector-18, Panipat - HSPCB",17-11-2025 07:00:00,29.432304,76.972765,NO2,31,32,31
India,Haryana,Panipat,"Sector-18, Panipat - HSPCB",17-11-2025 07:00:00,29.432304,76.972765,CO,24,26,25
India,Haryana,Karnal,"Sector-12, Karnal - HSPCB",17-11-2025 07:00:00,29.695300,77.002700,CO,42,60,47
India,Haryana,Karnal,"Sector-12, Karnal - HSPCB",17-11-2025 07:00:00,29.695300,77.002700,OZONE,26,26,26
India,Haryana,Kurukshetra,"Sector-7, Kurukshetra - HSPCB",17-11-2025 07:00:00,29.966942,76.875879,PM10,104,178,143
India,Haryana,Mandikhera,"General Hospital, Mandikhera - HSPCB",17-11-2025 07:00:00,27.9002,76.9938,SO2,31,37,34
India,Haryana,Manesar,"Sector-2 IMT, Manesar - HSPCB",17-11-2025 07:00:00,28.360699,76.936090,OZONE,7,37,9
India,Haryana,Narnaul,"Shastri Nagar, Narnaul - HSPCB",17-11-2025 07:00:00,28.060249,76.113115,NO2,14,41,24
India,Haryana,Narnaul,"Shastri Nagar, Narnaul - HSPCB",17-11-2025 07:00:00,28.060249,76.113115,SO2,11,12,11
India,Gujarat,Ahmedabad,"SVPI Airport Hansol, Ahmedabad - IITM",17-11-2025 07:00:00,23.076793,72.627874,SO2,7,15,9
India,Gujarat,Ahmedabad,"SVPI Airport Hansol, Ahmedabad - IITM",17-11-2025 07:00:00,23.076793,72.627874,CO,7,75,45
India,Gujarat,Ahmedabad,"SVPI Airport Hansol, Ahmedabad - IITM",17-11-2025 07:00:00,23.076793,72.627874,OZONE,2,62,20
India,Gujarat,Gandhinagar,"GIFT City, Gandhinagar - IITM",17-11-2025 07:00:00,23.163798,72.677768,NH3,3,10,5
India,Gujarat,Gandhinagar,"IIPHG Lekawada, Gandhinagar - IITM",17-11-2025 07:00:00,23.243639,72.68994,PM10,76,121,100
India,Gujarat,Gandhinagar,"IIPHG Lekawada, Gandhinagar - IITM",17-11-2025 07:00:00,23.243639,72.68994,CO,18,105,84
India,Gujarat,Gandhinagar,"Sector-10, Gandhinagar - GPCB",17-11-2025 07:00:00,23.221714,72.654328,PM2.5,44,107,72
India,Gujarat,Ahmedabad,"Raikhad, Ahmedabad - IITM",17-11-2025 07:00:00,23.020509,72.579261,PM2.5,88,240,142
India,Gujarat,Ahmedabad,"Raikhad, Ahmedabad - IITM",17-11-2025 07:00:00,23.020509,72.579261,CO,4,100,34
India,Gujarat,Ahmedabad,"Rakhial, Ahmedabad - IITM",17-11-2025 07:00:00,23.016834,72.625775,PM10,76,144,100
India,Gujarat,Ahmedabad,"Rakhial, Ahmedabad - IITM",17-11-2025 07:00:00,23.016834,72.625775,OZONE,2,83,32
India,Gujarat,Ahmedabad,"SAC ISRO Bopal, Ahmedabad - IITM",17-11-2025 07:00:00,23.041137,72.456691,NH3,2,3,3
India,Gujarat,Ahmedabad,"SAC ISRO Bopal, Ahmedabad - IITM",17-11-2025 07:00:00,23.041137,72.456691,SO2,1,5,3
India,Gujarat,Ahmedabad,"SAC ISRO Satellite, Ahmedabad - IITM",17-11-2025 07:00:00,23.023389,72.515201,CO,42,103,77
India,Gujarat,Surat,"Science Center, Surat - SMC",17-11-2025 07:00:00,21.170046,72.795405,PM2.5,53,185,90
India,Gujarat,Vatva,"Phase-4 GIDC, Vatva - GPCB",17-11-2025 07:00:00,22.969611,72.643500,PM2.5,16,87,45
India,Gujarat,Vatva,"Phase-4 GIDC, Vatva - GPCB",17-11-2025 07:00:00,22.969611,72.643500,NO2,22,32,27
India,Gujarat,Vatva,"Phase-4 GIDC, Vatva - GPCB",17-11-2025 07:00:00,22.969611,72.643500,NH3,3,5,4
India,Haryana,Ambala,"Patti Mehar, Ambala - HSPCB",17-11-2025 07:00:00,30.379589,76.778328,CO,97,101,99
India,Haryana,Dharuhera,"Municipal Corporation Office, Dharuhera -  HSPCB",17-11-2025 07:00:00,28.206800,76.799700,CO,56,72,66
India,Haryana,Faridabad,"New Industrial Town, Faridabad - HSPCB",17-11-2025 07:00:00,28.39072,77.30059,NO2,24,27,25
India,Haryana,Faridabad,"Sector 30, Faridabad - HSPCB",17-11-2025 07:00:00,28.4417,77.3217,NO2,36,39,37
India,Haryana,Faridabad,"Sector 30, Faridabad - HSPCB",17-11-2025 07:00:00,28.4417,77.3217,SO2,6,6,6
India,Haryana,Hisar,"Urban Estate-II, Hisar - HSPCB",17-11-2025 07:00:00,29.140560,75.744941,PM2.5,49,136,90
India,Haryana,Hisar,"Urban Estate-II, Hisar - HSPCB",17-11-2025 07:00:00,29.140560,75.744941,OZONE,48,112,56
India,Haryana,Jind,"Police Lines, Jind - HSPCB",17-11-2025 07:00:00,29.307814,76.337619,CO,4,152,69
India,Haryana,Jind,"Police Lines, Jind - HSPCB",17-11-2025 07:00:00,29.307814,76.337619,OZONE,7,43,10
India,Haryana,Gurugram,"NISE Gwal Pahari, Gurugram - IMD",17-11-2025 07:00:00,28.422681,77.148944,OZONE,4,81,5
India,Haryana,Gurugram,"Sector-51, Gurugram - HSPCB",17-11-2025 07:00:00,28.4227,77.0667,CO,23,33,29
India,Haryana,Gurugram,"Teri Gram, Gurugram - HSPCB",17-11-2025 07:00:00,28.4275,77.1465,NO2,2,44,17
India,Haryana,Bhiwani,"H.B. Colony, Bhiwani - HSPCB",17-11-2025 07:00:00,28.806223,76.141105,OZONE,9,19,15
India,Karnataka,Davanagere,"Devaraj Urs Badavane, Davanagere - KSPCB",17-11-2025 07:00:00,14.475800,75.905200,PM10,91,137,110
India,Karnataka,Davanagere,"Devaraj Urs Badavane, Davanagere - KSPCB",17-11-2025 07:00:00,14.475800,75.905200,OZONE,19,21,20
India,Karnataka,Dharwad,"Kalabhavan, Dharwad - KSPCB",17-11-2025 07:00:00,15.459706,75.008381,PM2.5,54,64,57
India,Karnataka,Dharwad,"Kalabhavan, Dharwad - KSPCB",17-11-2025 07:00:00,15.459706,75.008381,NO2,25,27,26
India,Karnataka,Dharwad,"Kalabhavan, Dharwad - KSPCB",17-11-2025 07:00:00,15.459706,75.008381,SO2,4,5,4
India,Karnataka,Dharwad,"Kalabhavan, Dharwad - KSPCB",17-11-2025 07:00:00,15.459706,75.008381,OZONE,18,21,18
India,Karnataka,Gadag,"Panchal Nagar, Gadag - KSPCB",17-11-2025 07:00:00,15.411456,75.638133,PM2.5,NA,NA,NA
India,Karnataka,Gadag,"Panchal Nagar, Gadag - KSPCB",17-11-2025 07:00:00,15.411456,75.638133,NH3,NA,NA,NA
India,Karnataka,Gadag,"Panchal Nagar, Gadag - KSPCB",17-11-2025 07:00:00,15.411456,75.638133,SO2,6,23,16
India,Karnataka,Gadag,"Panchal Nagar, Gadag - KSPCB",17-11-2025 07:00:00,15.411456,75.638133,OZONE,25,54,35
India,Karnataka,Hubballi,"Lingaraj Nagar, Hubballi - KSPCB",17-11-2025 07:00:00,15.3714823,75.1160168,PM2.5,39,49,40
India,Haryana,Rohtak,"MD University, Rohtak - HSPCB",17-11-2025 07:00:00,28.52123,76.37138,PM2.5,6,500,233
India,Haryana,Rohtak,"MD University, Rohtak - HSPCB",17-11-2025 07:00:00,28.52123,76.37138,NO2,1,20,8
India,Haryana,Sirsa,"F-Block, Sirsa - HSPCB",17-11-2025 07:00:00,29.536400,75.015800,NO2,10,25,20
India,Haryana,Sirsa,"F-Block, Sirsa - HSPCB",17-11-2025 07:00:00,29.536400,75.015800,SO2,11,12,11
India,Haryana,Yamuna Nagar,"Gobind Pura, Yamuna Nagar - HSPCB",17-11-2025 07:00:00,30.1480566,77.2893471,NH3,9,10,10
India,Haryana,Yamuna Nagar,"Gobind Pura, Yamuna Nagar - HSPCB",17-11-2025 07:00:00,30.1480566,77.2893471,SO2,10,15,12
India,Haryana,Yamuna Nagar,"Gobind Pura, Yamuna Nagar - HSPCB",17-11-2025 07:00:00,30.1480566,77.2893471,CO,8,100,61
India,Karnataka,Bengaluru,"RVCE-Mailasandra, Bengaluru - KSPCB",17-11-2025 07:00:00,12.921418,77.502466,PM2.5,27,29,28
India,Karnataka,Bengaluru,"RVCE-Mailasandra, Bengaluru - KSPCB",17-11-2025 07:00:00,12.921418,77.502466,CO,22,42,33
India,Karnataka,Bengaluru,"Sanegurava Halli, Bengaluru - KSPCB",17-11-2025 07:00:00,12.990328,77.5431385,NO2,20,22,20
India,Karnataka,Bengaluru,"Sanegurava Halli, Bengaluru - KSPCB",17-11-2025 07:00:00,12.990328,77.5431385,CO,20,38,27
India,Karnataka,Bengaluru,"Shivapura_Peenya, Bengaluru - KSPCB",17-11-2025 07:00:00,13.0246342,77.5080115,PM2.5,NA,NA,NA
India,Karnataka,Bengaluru,"Shivapura_Peenya, Bengaluru - KSPCB",17-11-2025 07:00:00,13.0246342,77.5080115,PM10,NA,NA,NA
India,Karnataka,Bengaluru,"Shivapura_Peenya, Bengaluru - KSPCB",17-11-2025 07:00:00,13.0246342,77.5080115,OZONE,19,20,20
India,Himachal Pradesh,Baddi,"HIMUDA Complex Phase-1, Baddi - HPPCB",17-11-2025 07:00:00,30.943887,76.801991,SO2,23,87,34
India,Himachal Pradesh,Baddi,"HIMUDA Complex Phase-1, Baddi - HPPCB",17-11-2025 07:00:00,30.943887,76.801991,OZONE,21,193,39
India,Jharkhand,Dhanbad,"Sardar Patel Nagar, Dhanbad - JSPCB",17-11-2025 07:00:00,23.80569,86.44268,PM2.5,14,178,91
India,Jharkhand,Dhanbad,"Sardar Patel Nagar, Dhanbad - JSPCB",17-11-2025 07:00:00,23.80569,86.44268,OZONE,2,41,9
India,Karnataka,Chamarajanagar,"Urban, Chamarajanagar - KSPCB",17-11-2025 07:00:00,11.55358,76.55521,OZONE,14,35,16
India,Karnataka,Chikkamagaluru,"Kalyana Nagara, Chikkamagaluru - KSPCB",17-11-2025 07:00:00,13.328028,75.797056,NH3,2,3,2
India,Karnataka,Chikkamagaluru,"Kalyana Nagara, Chikkamagaluru - KSPCB",17-11-2025 07:00:00,13.328028,75.797056,SO2,6,6,6
India,Karnataka,Chikkamagaluru,"Kalyana Nagara, Chikkamagaluru - KSPCB",17-11-2025 07:00:00,13.328028,75.797056,OZONE,18,28,18
India,Karnataka,Bengaluru,"Hebbal, Bengaluru - KSPCB",17-11-2025 07:00:00,13.029152,77.585901,PM10,81,108,96
India,Karnataka,Bengaluru,"Hebbal, Bengaluru - KSPCB",17-11-2025 07:00:00,13.029152,77.585901,OZONE,10,15,12
India,Karnataka,Bengaluru,"Hombegowda Nagar, Bengaluru - KSPCB",17-11-2025 07:00:00,12.938539,77.590100,PM2.5,50,78,66
India,Karnataka,Bengaluru,"Hombegowda Nagar, Bengaluru - KSPCB",17-11-2025 07:00:00,12.938539,77.590100,NO2,11,23,16
India,Karnataka,Bengaluru,"BTM Layout, Bengaluru - CPCB",17-11-2025 07:00:00,12.9135218,77.5950804,PM2.5,38,70,56
India,Karnataka,Bengaluru,"BTM Layout, Bengaluru - CPCB",17-11-2025 07:00:00,12.9135218,77.5950804,CO,44,54,47
India,Karnataka,Bengaluru,"BWSSB Kadabesanahalli, Bengaluru - CPCB",17-11-2025 07:00:00,12.9352049,77.6814488,PM2.5,58,61,61
India,Karnataka,Bengaluru,"BWSSB Kadabesanahalli, Bengaluru - CPCB",17-11-2025 07:00:00,12.9352049,77.6814488,NO2,23,25,25
India,Karnataka,Bengaluru,"Peenya, Bengaluru - CPCB",17-11-2025 07:00:00,13.0270199,77.494094,PM10,86,107,97
India,Karnataka,Bengaluru,"Peenya, Bengaluru - CPCB",17-11-2025 07:00:00,13.0270199,77.494094,NH3,5,7,6
India,Karnataka,Bengaluru,"Peenya, Bengaluru - CPCB",17-11-2025 07:00:00,13.0270199,77.494094,CO,22,46,35
India,Karnataka,Bengaluru,"BWSSB Kadabesanahalli, Bengaluru - CPCB",17-11-2025 07:00:00,12.9352049,77.6814488,NH3,4,5,5
India,Karnataka,Mangalore,"Kadri, Mangalore - KSPCB",17-11-2025 07:00:00,12.889250,74.853000,SO2,14,15,15
India,Karnataka,Mysuru,"Hebbal 1st Stage, Mysuru - KSPCB",17-11-2025 07:00:00,12.21041,76.37376,PM10,74,110,91
India,Karnataka,Shivamogga,"Vinoba Nagara, Shivamogga - KSPCB",17-11-2025 07:00:00,13.940000,75.555917,NH3,1,61,6
India,Karnataka,Udupi,"Brahmagiri, Udupi - KSPCB",17-11-2025 07:00:00,13.34194444,74.74694444,PM10,NA,NA,NA
India,Karnataka,Vijayapura,"Ibrahimpur, Vijayapura - KSPCB",17-11-2025 07:00:00,16.802639,75.722694,PM10,42,43,43
India,Karnataka,Vijayapura,"Ibrahimpur, Vijayapura - KSPCB",17-11-2025 07:00:00,16.802639,75.722694,NO2,11,12,11
India,Karnataka,Vijayapura,"Ibrahimpur, Vijayapura - KSPCB",17-11-2025 07:00:00,16.802639,75.722694,CO,10,120,33
India,Karnataka,Vijayapura,"Ibrahimpur, Vijayapura - KSPCB",17-11-2025 07:00:00,16.802639,75.722694,OZONE,14,16,16
India,Karnataka,Yadgir,"Collector Office, Yadgir - KSPCB",17-11-2025 07:00:00,16.7602,77.1428,PM10,67,111,87
India,Karnataka,Yadgir,"Collector Office, Yadgir - KSPCB",17-11-2025 07:00:00,16.7602,77.1428,NO2,7,50,23
India,Madhya Pradesh,Bhopal,"Idgah Hills, Bhopal - MPPCB",17-11-2025 07:00:00,23.264759,77.381568,SO2,NA,NA,NA
India,Madhya Pradesh,Bhopal,"Idgah Hills, Bhopal - MPPCB",17-11-2025 07:00:00,23.264759,77.381568,CO,NA,NA,NA
India,Madhya Pradesh,Bhopal,"Paryavaran Parisar, Bhopal - MPPCB",17-11-2025 07:00:00,23.210494,77.425409,PM2.5,92,326,185
India,Madhya Pradesh,Bhopal,"Paryavaran Parisar, Bhopal - MPPCB",17-11-2025 07:00:00,23.210494,77.425409,PM10,122,336,186
India,Madhya Pradesh,Bhopal,"Paryavaran Parisar, Bhopal - MPPCB",17-11-2025 07:00:00,23.210494,77.425409,NH3,5,9,7
India,Madhya Pradesh,Bhopal,"T T Nagar, Bhopal - MPPCB",17-11-2025 07:00:00,23.233584,77.400574,PM2.5,132,381,286
India,Madhya Pradesh,Damoh,"Shrivastav Colony, Damoh - MPPCB",17-11-2025 07:00:00,23.81748678,79.446246,SO2,26,26,26
India,Madhya Pradesh,Dewas,"Bhopal Chauraha, Dewas - MPPCB",17-11-2025 07:00:00,22.9682591,76.064118,PM10,104,214,143
India,Madhya Pradesh,Dewas,"Bhopal Chauraha, Dewas - MPPCB",17-11-2025 07:00:00,22.9682591,76.064118,CO,20,42,26
India,Madhya Pradesh,Gwalior,"City Center, Gwalior - MPPCB",17-11-2025 07:00:00,26.203442,78.193251,PM2.5,77,322,187
India,Karnataka,Yadgir,"Collector Office, Yadgir - KSPCB",17-11-2025 07:00:00,16.7602,77.1428,SO2,5,28,16
India,Kerala,Kannur,"Thavakkara, Kannur - Kerala PCB",17-11-2025 07:00:00,11.875000,75.373200,PM10,55,59,56
India,Kerala,Thiruvananthapuram,"Plammoodu, Thiruvananthapuram - Kerala PCB",17-11-2025 07:00:00,8.5149093,76.9435879,CO,11,20,18
India,Kerala,Thiruvananthapuram,"Plammoodu, Thiruvananthapuram - Kerala PCB",17-11-2025 07:00:00,8.5149093,76.9435879,OZONE,8,33,21
India,Kerala,Thrissur,"Corporation Ground, Thrissur - Kerala PCB",17-11-2025 07:00:00,10.532400,76.215900,PM10,48,57,53
India,Kerala,Thrissur,"Corporation Ground, Thrissur - Kerala PCB",17-11-2025 07:00:00,10.532400,76.215900,CO,13,17,15
