country,state,city,station,last_update,latitude,longitude,pollutant_id,min_value,max_value,avg_value
India,Bihar,Aurangabad,"Gurdeo Nagar, Aurangabad - BSPCB",08-12-2025 08:00:00,24.75746,84.366208,OZONE,11,54,16
India,Bihar,Begusarai,"Lohiyanagar, Begusarai - BSPCB",08-12-2025 08:00:00,25.42742023,86.13886079,NH3,3,3,3
India,Bihar,Begusarai,"Lohiyanagar, Begusarai - BSPCB",08-12-2025 08:00:00,25.42742023,86.13886079,CO,NA,NA,NA
India,Bihar,Begusarai,"Lohiyanagar, Begusarai - BSPCB",08-12-2025 08:00:00,25.42742023,86.13886079,OZONE,1,10,3
India,Bihar,Bhagalpur,"DM Office_Kachari Chowk, Bhagalpur - BSPCB",08-12-2025 08:00:00,25.251013,86.989001,SO2,37,69,53
India,Bihar,Bhagalpur,"Mayaganj, Bhagalpur - BSPCB",08-12-2025 08:00:00,25.265194,87.012947,NH3,10,17,13
India,Bihar,Bhagalpur,"Mayaganj, Bhagalpur - BSPCB",08-12-2025 08:00:00,25.265194,87.012947,SO2,47,82,64
India,Bihar,Bhagalpur,"Mayaganj, Bhagalpur - BSPCB",08-12-2025 08:00:00,25.265194,87.012947,OZONE,13,116,24
India,Bihar,Bihar Sharif,"D M Colony, Bihar Sharif - BSPCB",08-12-2025 08:00:00,25.204762,85.514960,PM2.5,87,308,190
India,Assam,Guwahati,"Railway Colony, Guwahati - PCBA",08-12-2025 08:00:00,26.181742,91.78063,PM10,61,220,131
India,Assam,Nagaon,"Christianpatty, Nagaon - PCBA",08-12-2025 08:00:00,26.349082,92.68449,NO2,1,1,1
India,Assam,Nagaon,"Christianpatty, Nagaon - PCBA",08-12-2025 08:00:00,26.349082,92.68449,OZONE,6,9,9
India,Assam,Nalbari,"Bata Chowk, Nalbari - PCBA",08-12-2025 08:00:00,26.446912,91.439057,PM2.5,10,358,76
India,Assam,Nalbari,"Bata Chowk, Nalbari - PCBA",08-12-2025 08:00:00,26.446912,91.439057,OZONE,15,16,15
India,Assam,Silchar,"Tarapur, Silchar - PCBA",08-12-2025 08:00:00,24.82827,92.79525,PM10,51,62,55
India,Assam,Sivasagar,"Girls College, Sivasagar - PCBA",08-12-2025 08:00:00,26.987634,94.636574,PM2.5,18,100,57
India,Andhra_Pradesh,Rajamahendravaram,"Anand Kala Kshetram, Rajamahendravaram - APPCB",08-12-2025 08:00:00,16.9872867,81.7363176,SO2,6,30,18
India,Andhra_Pradesh,Rajamahendravaram,"Anand Kala Kshetram, Rajamahendravaram - APPCB",08-12-2025 08:00:00,16.9872867,81.7363176,CO,26,56,36
India,Andhra_Pradesh,Tirumala,"Toll Gate, Tirumala - APPCB",08-12-2025 08:00:00,13.67,79.35,CO,2,42,19
India,Andhra_Pradesh,Tirupati,"Vaikuntapuram, Tirupati - APPCB",08-12-2025 08:00:00,13.615387,79.409230,PM10,57,64,60
India,Andhra_Pradesh,Vijayawada,"HB Colony, Vijayawada - APPCB",08-12-2025 08:00:00,16.536107,80.594233,PM10,37,73,60
India,Andhra_Pradesh,Vijayawada,"Kanuru, Vijayawada - APPCB",08-12-2025 08:00:00,16.486692,80.699436,NO2,NA,NA,NA
India,Andhra_Pradesh,Vijayawada,"Kanuru, Vijayawada - APPCB",08-12-2025 08:00:00,16.486692,80.699436,NH3,NA,NA,NA
India,Andhra_Pradesh,Anantapur,"Gulzarpet, Anantapur - APPCB",08-12-2025 08:00:00,14.675886,77.593027,PM2.5,45,327,169
India,Andhra_Pradesh,Anantapur,"Gulzarpet, Anantapur - APPCB",08-12-2025 08:00:00,14.675886,77.593027,NH3,5,5,5
India,Andhra_Pradesh,Anantapur,"Gulzarpet, Anantapur - APPCB",08-12-2025 08:00:00,14.675886,77.593027,OZONE,18,67,33
India,Andhra_Pradesh,Chittoor,"Gangineni Cheruvu, Chittoor - APPCB",08-12-2025 08:00:00,13.204880,79.097889,OZONE,53,59,55
India,Andhra_Pradesh,Kadapa,"Yerramukkapalli, Kadapa - APPCB",08-12-2025 08:00:00,14.465052,78.824187,PM10,32,128,59
India,Andhra_Pradesh,Rajamahendravaram,"Anand Kala Kshetram, Rajamahendravaram - APPCB",08-12-2025 08:00:00,16.9872867,81.7363176,PM2.5,95,302,187
India,Andhra_Pradesh,Vijayawada,"Kanuru, Vijayawada - APPCB",08-12-2025 08:00:00,16.486692,80.699436,CO,NA,NA,NA
India,Andhra_Pradesh,Vijayawada,"Rajiv Gandhi Park, Vijayawada - APPCB",08-12-2025 08:00:00,16.509717,80.612222,NO2,41,115,62
India,Andhra_Pradesh,Visakhapatnam,"GVM Corporation, Visakhapatnam - APPCB",08-12-2025 08:00:00,17.72,83.3,PM2.5,104,308,200
India,Andhra_Pradesh,Visakhapatnam,"GVM Corporation, Visakhapatnam - APPCB",08-12-2025 08:00:00,17.72,83.3,OZONE,3,93,15
India,Arunachal_Pradesh,Naharlagun,"Naharlagun, Naharlagun - APSPCB",08-12-2025 08:00:00,27.103358,93.679645,PM10,20,413,124
India,Assam,Byrnihat,"Central Academy for SFS, Byrnihat - PCBA",08-12-2025 08:00:00,26.071318,91.87488,NH3,4,4,4
India,Assam,Byrnihat,"Central Academy for SFS, Byrnihat - PCBA",08-12-2025 08:00:00,26.071318,91.87488,SO2,5,7,6
India,Assam,Guwahati,"IITG, Guwahati - PCBA",08-12-2025 08:00:00,26.2028636,91.70046436,PM10,70,152,114
India,Assam,Guwahati,"IITG, Guwahati - PCBA",08-12-2025 08:00:00,26.2028636,91.70046436,CO,8,28,21
India,Assam,Guwahati,"LGBI Airport, Guwahati - PCBA",08-12-2025 08:00:00,26.10887,91.589544,CO,18,48,35
India,Assam,Guwahati,"Pan Bazaar, Guwahati - PCBA",08-12-2025 08:00:00,26.187500,91.744194,PM10,39,106,77
India,Bihar,Gaya,"SFTI Kusdihra, Gaya - BSPCB",08-12-2025 08:00:00,24.762518,84.982348,NO2,18,19,18
India,Bihar,Gaya,"SFTI Kusdihra, Gaya - BSPCB",08-12-2025 08:00:00,24.762518,84.982348,NH3,3,3,3
India,Bihar,Hajipur,"Industrial Area, Hajipur - BSPCB",08-12-2025 08:00:00,25.697189,85.245900,PM2.5,121,375,248
India,Bihar,Hajipur,"Industrial Area, Hajipur - BSPCB",08-12-2025 08:00:00,25.697189,85.245900,PM10,82,220,132
India,Bihar,Hajipur,"Industrial Area, Hajipur - BSPCB",08-12-2025 08:00:00,25.697189,85.245900,CO,72,140,133
India,Bihar,Katihar,"Mirchaibari, Katihar - BSPCB",08-12-2025 08:00:00,25.560083,87.553265,NO2,14,18,16
India,Andaman and Nicobar,Sri Vijaya Puram,"Police Line, Sri Vijaya Puram - ANPCC",08-12-2025 08:00:00,11.654054,92.734055,SO2,NA,NA,NA
India,Andhra_Pradesh,Amaravati,"Secretariat, Amaravati - APPCB",08-12-2025 08:00:00,16.5150833,80.5181667,PM2.5,148,344,212
India,Andhra_Pradesh,Amaravati,"Secretariat, Amaravati - APPCB",08-12-2025 08:00:00,16.5150833,80.5181667,NH3,2,4,3
India,Andhra_Pradesh,Amaravati,"Secretariat, Amaravati - APPCB",08-12-2025 08:00:00,16.5150833,80.5181667,SO2,1,24,6
India,Assam,Sivasagar,"Girls College, Sivasagar - PCBA",08-12-2025 08:00:00,26.987634,94.636574,SO2,7,10,9
India,Bihar,Arrah,"New DM Office, Arrah - BSPCB",08-12-2025 08:00:00,25.5626095,84.663264,NO2,4,9,7
India,Bihar,Aurangabad,"Gurdeo Nagar, Aurangabad - BSPCB",08-12-2025 08:00:00,24.75746,84.366208,PM2.5,NA,NA,NA
India,Bihar,Aurangabad,"Gurdeo Nagar, Aurangabad - BSPCB",08-12-2025 08:00:00,24.75746,84.366208,SO2,12,14,13
India,Bihar,Chhapra,"Darshan Nagar, Chhapra - BSPCB",08-12-2025 08:00:00,25.7808257,84.7446768,PM2.5,82,312,228
India,Bihar,Chhapra,"Darshan Nagar, Chhapra - BSPCB",08-12-2025 08:00:00,25.7808257,84.7446768,SO2,20,23,21
India,Bihar,Gaya,"Collectorate, Gaya - BSPCB",08-12-2025 08:00:00,24.7955,84.9994,CO,34,110,41
India,Bihar,Gaya,"Kareemganj, Gaya - BSPCB",08-12-2025 08:00:00,24.792403,84.992416,NO2,2,7,5
India,Chhattisgarh,Milupara,"Govt. Higher Secondary School, Milupara - CECB",08-12-2025 08:00:00,22.1910172,83.5197009,PM10,31,295,93
India,Chhattisgarh,Raipur,"Bhatagaon New ISBT, Raipur - CECB",08-12-2025 08:00:00,21.219665,81.630094,NO2,NA,NA,NA
India,Chhattisgarh,Raipur,"Bhatagaon New ISBT, Raipur - CECB",08-12-2025 08:00:00,21.219665,81.630094,SO2,6,21,9
India,Chhattisgarh,Raipur,"Krishak Nagar, Raipur - CECB",08-12-2025 08:00:00,21.237755,81.705301,NH3,2,2,2
India,Chhattisgarh,Raipur,"Siltara Phase-II, Raipur - CECB",08-12-2025 08:00:00,21.371751,81.664929,PM10,42,163,104
India,Chhattisgarh,Raipur,"Siltara Phase-II, Raipur - CECB",08-12-2025 08:00:00,21.371751,81.664929,NO2,8,24,16
India,Chhattisgarh,Chhal,"Nawapara SECL Colony, Chhal - CECB",08-12-2025 08:00:00,22.118125,83.140608,PM2.5,33,70,52
India,Chhattisgarh,Chhal,"Nawapara SECL Colony, Chhal - CECB",08-12-2025 08:00:00,22.118125,83.140608,NH3,6,6,6
India,Chhattisgarh,Korba,"Rampur, Korba - CECB",08-12-2025 08:00:00,22.368195,82.746431,PM2.5,48,86,51
India,Chhattisgarh,Korba,"Rampur, Korba - CECB",08-12-2025 08:00:00,22.368195,82.746431,OZONE,2,5,3
India,Chhattisgarh,Korba,"Urja Nagar, Korba - CECB",08-12-2025 08:00:00,22.348441,82.549611,CO,21,80,36
India,Chhattisgarh,Kunjemura,"OP Jindal School, Kunjemura - CECB",08-12-2025 08:00:00,22.126650,83.483212,PM10,26,102,71
India,Chhattisgarh,Bhilai,"32Bungalows, Bhilai - CECB",08-12-2025 08:00:00,21.194815,81.314770,NO2,22,118,62
India,Chhattisgarh,Bhilai,"Civic Center, Bhilai - Bhilai Steel Plant",08-12-2025 08:00:00,21.185571,81.343175,NO2,18,23,20
India,Chhattisgarh,Bhilai,"Civic Center, Bhilai - Bhilai Steel Plant",08-12-2025 08:00:00,21.185571,81.343175,CO,21,22,22
India,Chhattisgarh,Bhilai,"Civic Center, Bhilai - Bhilai Steel Plant",08-12-2025 08:00:00,21.185571,81.343175,OZONE,6,14,12
India,Chhattisgarh,Bhilai,"Hathkhoj, Bhilai - CECB",08-12-2025 08:00:00,21.224231,81.408350,SO2,9,104,26
India,Chhattisgarh,Bilaspur,"Mangala, Bilaspur - NTPC",08-12-2025 08:00:00,22.08815,82.13737,PM2.5,34,96,60
India,Bihar,Munger,"Town Hall, Munger - BSPCB",08-12-2025 08:00:00,25.376776,86.471523,OZONE,14,30,20
India,Bihar,Muzaffarpur,"Buddha Colony, Muzaffarpur - BSPCB",08-12-2025 08:00:00,26.11442,85.39813,CO,32,134,57
India,Bihar,Muzaffarpur,"MIT-Daudpur Kothi, Muzaffarpur - BSPCB",08-12-2025 08:00:00,26.1403345,85.3650192,NO2,1,3,1
India,Bihar,Muzaffarpur,"MIT-Daudpur Kothi, Muzaffarpur - BSPCB",08-12-2025 08:00:00,26.1403345,85.3650192,CO,39,56,52
India,Bihar,Patna,"DRM Office Danapur, Patna - BSPCB",08-12-2025 08:00:00,25.586562,85.043586,PM10,116,237,160
India,Bihar,Patna,"Samanpura, Patna - BSPCB",08-12-2025 08:00:00,25.596727,85.085624,SO2,1,6,4
India,Bihar,Patna,"Samanpura, Patna - BSPCB",08-12-2025 08:00:00,25.596727,85.085624,OZONE,31,36,33
India,Bihar,Saharsa,"Police Line, Saharsa - BSPCB",08-12-2025 08:00:00,25.892357,86.590325,PM10,84,183,126
India,Bihar,Saharsa,"Police Line, Saharsa - BSPCB",08-12-2025 08:00:00,25.892357,86.590325,NH3,4,4,4
India,Bihar,Saharsa,"Police Line, Saharsa - BSPCB",08-12-2025 08:00:00,25.892357,86.590325,SO2,11,19,17
India,Bihar,Kishanganj,"SDM Office_Khagra, Kishanganj - BSPCB",08-12-2025 08:00:00,26.0881305,87.93840336,NO2,9,14,11
India,Bihar,Munger,"Town Hall, Munger - BSPCB",08-12-2025 08:00:00,25.376776,86.471523,PM2.5,93,308,164
India,Bihar,Munger,"Town Hall, Munger - BSPCB",08-12-2025 08:00:00,25.376776,86.471523,PM10,94,181,123
India,Bihar,Munger,"Town Hall, Munger - BSPCB",08-12-2025 08:00:00,25.376776,86.471523,NO2,4,5,5
India,Bihar,Patna,"Govt. High School Shikarpur, Patna - BSPCB",08-12-2025 08:00:00,25.592539,85.227158,PM10,85,161,109
India,Bihar,Patna,"Govt. High School Shikarpur, Patna - BSPCB",08-12-2025 08:00:00,25.592539,85.227158,OZONE,7,12,11
India,Bihar,Patna,"Muradpur, Patna - BSPCB",08-12-2025 08:00:00,25.619651,85.147382,SO2,7,11,9
India,Delhi,Delhi,"Alipur, Delhi - DPCC",08-12-2025 08:00:00,28.815329,77.153010,CO,58,80,68
India,Delhi,Delhi,"Alipur, Delhi - DPCC",08-12-2025 08:00:00,28.815329,77.153010,OZONE,12,60,21
India,Delhi,Delhi,"Ashok Vihar, Delhi - DPCC",08-12-2025 08:00:00,28.695381,77.181665,PM2.5,307,373,337
India,Chandigarh,Chandigarh,"Sector 22, Chandigarh - CPCC",08-12-2025 08:00:00,30.735567,76.775714,PM10,70,135,99
India,Chandigarh,Chandigarh,"Sector-25, Chandigarh - CPCC",08-12-2025 08:00:00,30.751462,76.762879,PM10,87,137,108
India,Delhi,Delhi,"Mundka, Delhi - DPCC",08-12-2025 08:00:00,28.684678,77.076574,CO,42,84,60
India,Delhi,Delhi,"NSIT Dwarka, Delhi - CPCB",08-12-2025 08:00:00,28.60909,77.0325413,PM2.5,92,354,232
India,Delhi,Delhi,"NSIT Dwarka, Delhi - CPCB",08-12-2025 08:00:00,28.60909,77.0325413,PM10,127,474,225
India,Delhi,Delhi,"NSIT Dwarka, Delhi - CPCB",08-12-2025 08:00:00,28.60909,77.0325413,SO2,10,18,15
India,Delhi,Delhi,"Najafgarh, Delhi - DPCC",08-12-2025 08:00:00,28.570173,76.933762,PM2.5,200,327,293
India,Delhi,Delhi,"Najafgarh, Delhi - DPCC",08-12-2025 08:00:00,28.570173,76.933762,CO,38,57,48
India,Delhi,Delhi,"Narela, Delhi - DPCC",08-12-2025 08:00:00,28.822836,77.101981,NH3,6,8,7
India,Delhi,Delhi,"Nehru Nagar, Delhi - DPCC",08-12-2025 08:00:00,28.567890,77.250515,PM2.5,308,440,350
India,Delhi,Delhi,"Ashok Vihar, Delhi - DPCC",08-12-2025 08:00:00,28.695381,77.181665,NH3,1,1,1
India,Delhi,Delhi,"Aya Nagar, Delhi - IMD",08-12-2025 08:00:00,28.4706914,77.1099364,PM10,175,304,220
India,Delhi,Delhi,"Aya Nagar, Delhi - IMD",08-12-2025 08:00:00,28.4706914,77.1099364,OZONE,15,85,33
India,Delhi,Delhi,"Bawana, Delhi - DPCC",08-12-2025 08:00:00,28.776200,77.051074,SO2,10,30,17
India,Delhi,Delhi,"CRRI Mathura Road, Delhi - IMD",08-12-2025 08:00:00,28.5512005,77.2735737,PM2.5,228,327,301
India,Delhi,Delhi,"Chandni Chowk, Delhi - IITM",08-12-2025 08:00:00,28.656756,77.227234,NO2,16,47,32
India,Delhi,Delhi,"Chandni Chowk, Delhi - IITM",08-12-2025 08:00:00,28.656756,77.227234,NH3,6,8,7
India,Delhi,Delhi,"IHBAS, Dilshad Garden, Delhi - CPCB",08-12-2025 08:00:00,28.6811736,77.3025234,OZONE,25,53,26
India,Delhi,Delhi,"ITO, Delhi - CPCB",08-12-2025 08:00:00,28.628624,77.241060,PM10,153,266,196
India,Delhi,Delhi,"ITO, Delhi - CPCB",08-12-2025 08:00:00,28.628624,77.241060,NO2,59,112,78
India,Delhi,Delhi,"ITO, Delhi - CPCB",08-12-2025 08:00:00,28.628624,77.241060,SO2,1,30,17
India,Delhi,Delhi,"ITO, Delhi - CPCB",08-12-2025 08:00:00,28.628624,77.241060,OZONE,10,25,11
India,Delhi,Delhi,"Jahangirpuri, Delhi - DPCC",08-12-2025 08:00:00,28.732820,77.170633,CO,60,116,78
India,Delhi,Delhi,"Jawaharlal Nehru Stadium, Delhi - DPCC",08-12-2025 08:00:00,28.580280,77.233829,PM10,175,398,250
India,Delhi,Delhi,"DTU, Delhi - CPCB",08-12-2025 08:00:00,28.7500499,77.1112615,PM10,151,280,198
India,Delhi,Delhi,"DTU, Delhi - CPCB",08-12-2025 08:00:00,28.7500499,77.1112615,NH3,5,6,6
India,Delhi,Delhi,"Dr. Karni Singh Shooting Range, Delhi - DPCC",08-12-2025 08:00:00,28.498571,77.264840,OZONE,9,48,14
India,Delhi,Delhi,"IGI Airport (T3), Delhi - IMD",08-12-2025 08:00:00,28.5627763,77.1180053,PM2.5,133,293,229
India,Delhi,Delhi,"IGI Airport (T3), Delhi - IMD",08-12-2025 08:00:00,28.5627763,77.1180053,CO,21,62,48
India,Delhi,Delhi,"IHBAS, Dilshad Garden, Delhi - CPCB",08-12-2025 08:00:00,28.6811736,77.3025234,PM10,273,367,313
India,Delhi,Delhi,"Vivek Vihar, Delhi - DPCC",08-12-2025 08:00:00,28.672342,77.315260,NO2,40,129,76
India,Delhi,Delhi,"Wazirpur, Delhi - DPCC",08-12-2025 08:00:00,28.699793,77.165453,PM2.5,315,380,349
India,Gujarat,Ahmedabad,"Chandkheda, Ahmedabad - IITM",08-12-2025 08:00:00,23.107969,72.574648,NH3,3,15,5
India,Gujarat,Ahmedabad,"Chandkheda, Ahmedabad - IITM",08-12-2025 08:00:00,23.107969,72.574648,SO2,3,12,7
India,Gujarat,Ahmedabad,"Gyaspur, Ahmedabad - IITM",08-12-2025 08:00:00,22.977134,72.553024,PM2.5,95,303,164
India,Gujarat,Ahmedabad,"Gyaspur, Ahmedabad - IITM",08-12-2025 08:00:00,22.977134,72.553024,PM10,123,186,156
India,Delhi,Delhi,"Shadipur, Delhi - CPCB",08-12-2025 08:00:00,28.6514781,77.1473105,NO2,62,104,77
India,Delhi,Delhi,"Shadipur, Delhi - CPCB",08-12-2025 08:00:00,28.6514781,77.1473105,SO2,6,21,14
India,Delhi,Delhi,"Sirifort, Delhi - CPCB",08-12-2025 08:00:00,28.5504249,77.2159377,OZONE,10,27,16
India,Delhi,Delhi,"Sonia Vihar, Delhi - DPCC",08-12-2025 08:00:00,28.710508,77.249485,NH3,8,10,9
India,Delhi,Delhi,"Sonia Vihar, Delhi - DPCC",08-12-2025 08:00:00,28.710508,77.249485,OZONE,12,176,21
India,Delhi,Delhi,"Sri Aurobindo Marg, Delhi - DPCC",08-12-2025 08:00:00,28.531346,77.190156,PM2.5,207,331,297
India,Delhi,Delhi,"Jawaharlal Nehru Stadium, Delhi - DPCC",08-12-2025 08:00:00,28.580280,77.233829,NO2,48,152,95
India,Delhi,Delhi,"Major Dhyan Chand National Stadium, Delhi - DPCC",08-12-2025 08:00:00,28.611281,77.237738,PM2.5,197,329,295
India,Delhi,Delhi,"Major Dhyan Chand National Stadium, Delhi - DPCC",08-12-2025 08:00:00,28.611281,77.237738,OZONE,1,164,3
India,Delhi,Delhi,"Mandir Marg, Delhi - DPCC",08-12-2025 08:00:00,28.636429,77.201067,OZONE,2,110,6
India,Delhi,Delhi,"Mundka, Delhi - DPCC",08-12-2025 08:00:00,28.684678,77.076574,NO2,65,122,90
India,Delhi,Delhi,"Okhla Phase-2, Delhi - DPCC",08-12-2025 08:00:00,28.530785,77.271255,PM2.5,287,362,324
India,Delhi,Delhi,"Okhla Phase-2, Delhi - DPCC",08-12-2025 08:00:00,28.530785,77.271255,OZONE,6,116,9
India,Delhi,Delhi,"Patparganj, Delhi - DPCC",08-12-2025 08:00:00,28.623763,77.287209,OZONE,1,176,2
India,Delhi,Delhi,"Punjabi Bagh, Delhi - DPCC",08-12-2025 08:00:00,28.674045,77.131023,PM2.5,250,379,334
India,Delhi,Delhi,"R K Puram, Delhi - DPCC",08-12-2025 08:00:00,28.563262,77.186937,PM2.5,293,404,334
India,Haryana,Faridabad,"Sector 11, Faridabad - HSPCB",08-12-2025 08:00:00,28.376058,77.315741,NO2,29,33,31
India,Haryana,Faridabad,"Sector 11, Faridabad - HSPCB",08-12-2025 08:00:00,28.376058,77.315741,CO,10,80,25
India,Haryana,Faridabad,"Sector 30, Faridabad - HSPCB",08-12-2025 08:00:00,28.4417,77.3217,CO,58,65,62
India,Haryana,Fatehabad,"Huda Sector, Fatehabad - HSPCB",08-12-2025 08:00:00,29.503664,75.467934,PM2.5,127,304,215
India,Haryana,Fatehabad,"Huda Sector, Fatehabad - HSPCB",08-12-2025 08:00:00,29.503664,75.467934,PM10,124,200,160
India,Haryana,Gurugram,"NISE Gwal Pahari, Gurugram - IMD",08-12-2025 08:00:00,28.422681,77.148944,NO2,22,46,31
India,Haryana,Jind,"Police Lines, Jind - HSPCB",08-12-2025 08:00:00,29.307814,76.337619,SO2,NA,NA,NA
India,Haryana,Jind,"Police Lines, Jind - HSPCB",08-12-2025 08:00:00,29.307814,76.337619,CO,4,143,64
India,Haryana,Kaithal,"Rishi Nagar, Kaithal - HSPCB",08-12-2025 08:00:00,29.8006,76.4155,NH3,5,6,6
India,Haryana,Karnal,"Sector-12, Karnal - HSPCB",08-12-2025 08:00:00,29.695300,77.002700,CO,38,62,51
India,Haryana,Kurukshetra,"Sector-7, Kurukshetra - HSPCB",08-12-2025 08:00:00,29.966942,76.875879,OZONE,20,78,36
India,Haryana,Gurugram,"Sector-51, Gurugram - HSPCB",08-12-2025 08:00:00,28.4227,77.0667,PM10,134,354,211
India,Haryana,Gurugram,"Sector-51, Gurugram - HSPCB",08-12-2025 08:00:00,28.4227,77.0667,SO2,NA,NA,NA
India,Haryana,Gurugram,"Teri Gram, Gurugram - HSPCB",08-12-2025 08:00:00,28.4275,77.1465,OZONE,10,43,11
India,Haryana,Hisar,"Urban Estate-II, Hisar - HSPCB",08-12-2025 08:00:00,29.140560,75.744941,CO,55,78,58
India,Haryana,Dharuhera,"Municipal Corporation Office, Dharuhera -  HSPCB",08-12-2025 08:00:00,28.206800,76.799700,SO2,2,10,7
India,Haryana,Dharuhera,"Municipal Corporation Office, Dharuhera -  HSPCB",08-12-2025 08:00:00,28.206800,76.799700,CO,24,57,41
India,Haryana,Faridabad,"New Industrial Town, Faridabad - HSPCB",08-12-2025 08:00:00,28.39072,77.30059,OZONE,26,34,31
India,Gujarat,Gandhinagar,"IIPHG Lekawada, Gandhinagar - IITM",08-12-2025 08:00:00,23.243639,72.68994,SO2,4,9,6
India,Gujarat,Vatva,"Phase-4 GIDC, Vatva - GPCB",08-12-2025 08:00:00,22.969611,72.643500,PM2.5,60,146,92
India,Gujarat,Vatva,"Phase-4 GIDC, Vatva - GPCB",08-12-2025 08:00:00,22.969611,72.643500,PM10,67,127,92
India,Haryana,Bhiwani,"H.B. Colony, Bhiwani - HSPCB",08-12-2025 08:00:00,28.806223,76.141105,OZONE,10,19,14
India,Haryana,Charkhi Dadri,"Mini Secretariat, Charkhi Dadri - HSPCB",08-12-2025 08:00:00,28.593883,76.270653,PM10,109,173,146
India,Haryana,Charkhi Dadri,"Mini Secretariat, Charkhi Dadri - HSPCB",08-12-2025 08:00:00,28.593883,76.270653,SO2,10,11,10
India,Gujarat,Ankleshwar,"GIDC, Ankleshwar - GPCB",08-12-2025 08:00:00,21.613267,73.010555,OZONE,38,43,39
India,Gujarat,Gandhinagar,"IIPHG Lekawada, Gandhinagar - IITM",08-12-2025 08:00:00,23.243639,72.68994,NO2,7,8,7
India,Haryana,Ambala,"Patti Mehar, Ambala - HSPCB",08-12-2025 08:00:00,30.379589,76.778328,CO,98,101,100
India,Haryana,Bhiwani,"H.B. Colony, Bhiwani - HSPCB",08-12-2025 08:00:00,28.806223,76.141105,NO2,2,36,31
India,Gujarat,Ahmedabad,"Maninagar, Ahmedabad - GPCB",08-12-2025 08:00:00,23.002657,72.591912,NO2,63,64,63
India,Karnataka,Davanagere,"Devaraj Urs Badavane, Davanagere - KSPCB",08-12-2025 08:00:00,14.475800,75.905200,NO2,20,30,26
India,Karnataka,Davanagere,"Devaraj Urs Badavane, Davanagere - KSPCB",08-12-2025 08:00:00,14.475800,75.905200,NH3,2,4,2
India,Karnataka,Davanagere,"Devaraj Urs Badavane, Davanagere - KSPCB",08-12-2025 08:00:00,14.475800,75.905200,CO,41,46,42
India,Karnataka,Davanagere,"Devaraj Urs Badavane, Davanagere - KSPCB",08-12-2025 08:00:00,14.475800,75.905200,OZONE,19,21,20
India,Karnataka,Dharwad,"Kalabhavan, Dharwad - KSPCB",08-12-2025 08:00:00,15.459706,75.008381,SO2,2,4,3
India,Karnataka,Dharwad,"Kalabhavan, Dharwad - KSPCB",08-12-2025 08:00:00,15.459706,75.008381,OZONE,32,32,32
India,Karnataka,Hubballi,"Lingaraj Nagar, Hubballi - KSPCB",08-12-2025 08:00:00,15.3714823,75.1160168,PM2.5,37,44,41
India,Karnataka,Hubballi,"Lingaraj Nagar, Hubballi - KSPCB",08-12-2025 08:00:00,15.3714823,75.1160168,OZONE,17,24,17
India,Karnataka,Kalaburagi,"Lal Bahadur Shastri Nagar, Kalaburagi - KSPCB",08-12-2025 08:00:00,17.321993,76.822628,NO2,NA,NA,NA
India,Karnataka,Bengaluru,"BWSSB Kadabesanahalli, Bengaluru - CPCB",08-12-2025 08:00:00,12.9352049,77.6814488,CO,105,109,106
India,Karnataka,Bengaluru,"City Railway Station, Bengaluru - KSPCB",08-12-2025 08:00:00,12.9756843,77.5660749,CO,85,88,87
India,Karnataka,Bengaluru,"Hebbal, Bengaluru - KSPCB",08-12-2025 08:00:00,13.029152,77.585901,PM10,72,123,95
India,Karnataka,Bengaluru,"Hombegowda Nagar, Bengaluru - KSPCB",08-12-2025 08:00:00,12.938539,77.590100,OZONE,20,51,29
India,Karnataka,Bengaluru,"Jayanagar 5th Block, Bengaluru - KSPCB",08-12-2025 08:00:00,12.920984,77.584908,NH3,1,2,1
India,Karnataka,Bengaluru,"Jigani, Bengaluru - KSPCB",08-12-2025 08:00:00,12.7816279,77.6299145,PM2.5,NA,NA,NA
India,Karnataka,Bengaluru,"Jigani, Bengaluru - KSPCB",08-12-2025 08:00:00,12.7816279,77.6299145,NO2,25,26,25
India,Karnataka,Bengaluru,"Sanegurava Halli, Bengaluru - KSPCB",08-12-2025 08:00:00,12.990328,77.5431385,CO,20,40,26
India,Karnataka,Bengaluru,"Shivapura_Peenya, Bengaluru - KSPCB",08-12-2025 08:00:00,13.0246342,77.5080115,PM2.5,73,139,102
India,Karnataka,Bengaluru,"Shivapura_Peenya, Bengaluru - KSPCB",08-12-2025 08:00:00,13.0246342,77.5080115,PM10,62,166,118
India,Karnataka,Bengaluru,"Silk Board, Bengaluru - KSPCB",08-12-2025 08:00:00,12.917348,77.622813,OZONE,13,22,21
India,Karnataka,Chamarajanagar,"Urban, Chamarajanagar - KSPCB",08-12-2025 08:00:00,11.55358,76.55521,PM2.5,19,39,29
India,Karnataka,Chikkamagaluru,"Kalyana Nagara, Chikkamagaluru - KSPCB",08-12-2025 08:00:00,13.328028,75.797056,PM2.5,11,42,21
India,Karnataka,Chikkamagaluru,"Kalyana Nagara, Chikkamagaluru - KSPCB",08-12-2025 08:00:00,13.328028,75.797056,NH3,2,3,3
India,Karnataka,Bengaluru,"Jigani, Bengaluru - KSPCB",08-12-2025 08:00:00,12.7816279,77.6299145,NH3,4,4,4
India,Karnataka,Bengaluru,"Kasturi Nagar, Bengaluru - KSPCB",08-12-2025 08:00:00,13.003872,77.664217,PM10,70,72,71
India,Karnataka,Bengaluru,"Kasturi Nagar, Bengaluru - KSPCB",08-12-2025 08:00:00,13.003872,77.664217,NH3,2,3,2
India,Karnataka,Bengaluru,"Kasturi Nagar, Bengaluru - KSPCB",08-12-2025 08:00:00,13.003872,77.664217,SO2,10,11,11
India,Karnataka,Bengaluru,"Peenya, Bengaluru - CPCB",08-12-2025 08:00:00,13.0270199,77.494094,PM2.5,20,49,34
India,Karnataka,Bengaluru,"Peenya, Bengaluru - CPCB",08-12-2025 08:00:00,13.0270199,77.494094,OZONE,25,26,25
India,Karnataka,Bengaluru,"Sanegurava Halli, Bengaluru - KSPCB",08-12-2025 08:00:00,12.990328,77.5431385,NO2,20,21,20
India,Jharkhand,Dhanbad,"Sardar Patel Nagar, Dhanbad - JSPCB",08-12-2025 08:00:00,23.80569,86.44268,NO2,79,82,80
India,Jharkhand,Jorapokhar,"Tata Stadium, Jorapokhar - JSPCB",08-12-2025 08:00:00,23.707909,86.414670,OZONE,NA,NA,NA
India,Karnataka,Bagalkot,"Vidayagiri, Bagalkot - KSPCB",08-12-2025 08:00:00,16.172806,75.659694,PM10,53,54,53
India,Karnataka,Bagalkot,"Vidayagiri, Bagalkot - KSPCB",08-12-2025 08:00:00,16.172806,75.659694,NO2,11,12,12
India,Karnataka,Bagalkot,"Vidayagiri, Bagalkot - KSPCB",08-12-2025 08:00:00,16.172806,75.659694,SO2,7,7,7
India,Karnataka,Bengaluru,"BTM Layout, Bengaluru - CPCB",08-12-2025 08:00:00,12.9135218,77.5950804,NH3,NA,NA,NA
India,Haryana,Sirsa,"F-Block, Sirsa - HSPCB",08-12-2025 08:00:00,29.536400,75.015800,NH3,10,16,14
India,Haryana,Yamuna Nagar,"Gobind Pura, Yamuna Nagar - HSPCB",08-12-2025 08:00:00,30.1480566,77.2893471,PM2.5,150,283,183
India,Himachal Pradesh,Baddi,"HIMUDA Complex Phase-1, Baddi - HPPCB",08-12-2025 08:00:00,30.943887,76.801991,PM10,85,216,146
India,Himachal Pradesh,Baddi,"HIMUDA Complex Phase-1, Baddi - HPPCB",08-12-2025 08:00:00,30.943887,76.801991,NH3,7,13,10
India,Himachal Pradesh,Baddi,"HIMUDA Complex Phase-1, Baddi - HPPCB",08-12-2025 08:00:00,30.943887,76.801991,CO,46,107,76
India,Haryana,Mandikhera,"General Hospital, Mandikhera(Nuh) - HSPCB",08-12-2025 08:00:00,27.9002,76.9938,NH3,12,14,13
India,Haryana,Mandikhera,"General Hospital, Mandikhera(Nuh) - HSPCB",08-12-2025 08:00:00,27.9002,76.9938,SO2,30,37,34
India,Haryana,Mandikhera,"General Hospital, Mandikhera(Nuh) - HSPCB",08-12-2025 08:00:00,27.9002,76.9938,CO,54,88,76
India,Haryana,Manesar,"Sector-2 IMT, Manesar - HSPCB",08-12-2025 08:00:00,28.360699,76.936090,NH3,10,15,12
India,Haryana,Manesar,"Sector-2 IMT, Manesar - HSPCB",08-12-2025 08:00:00,28.360699,76.936090,OZONE,6,27,7
India,Haryana,Narnaul,"Shastri Nagar, Narnaul - HSPCB",08-12-2025 08:00:00,28.060249,76.113115,CO,16,47,36
India,Haryana,Panipat,"Sector-18, Panipat - HSPCB",08-12-2025 08:00:00,29.432304,76.972765,PM2.5,2,320,247
India,Haryana,Panipat,"Sector-18, Panipat - HSPCB",08-12-2025 08:00:00,29.432304,76.972765,PM10,125,171,145
India,Haryana,Panipat,"Sector-18, Panipat - HSPCB",08-12-2025 08:00:00,29.432304,76.972765,NH3,2,3,3
India,Haryana,Sirsa,"F-Block, Sirsa - HSPCB",08-12-2025 08:00:00,29.536400,75.015800,PM2.5,61,125,92
India,Karnataka,Koppal,"Diwator Nagar, Koppal - KSPCB",08-12-2025 08:00:00,15.347630,76.181767,SO2,8,19,10
India,Karnataka,Mangalore,"Kadri, Mangalore - KSPCB",08-12-2025 08:00:00,12.889250,74.853000,PM2.5,46,139,86
India,Karnataka,Mangalore,"Kadri, Mangalore - KSPCB",08-12-2025 08:00:00,12.889250,74.853000,NH3,1,2,1
India,Karnataka,Mangalore,"Kadri, Mangalore - KSPCB",08-12-2025 08:00:00,12.889250,74.853000,SO2,16,16,16
India,Karnataka,Mysuru,"Hebbal 1st Stage, Mysuru - KSPCB",08-12-2025 08:00:00,12.21041,76.37376,NH3,4,7,5
India,Karnataka,Mysuru,"Hebbal 1st Stage, Mysuru - KSPCB",08-12-2025 08:00:00,12.21041,76.37376,SO2,2,6,4
India,Karnataka,Yadgir,"Collector Office, Yadgir - KSPCB",08-12-2025 08:00:00,16.7602,77.1428,PM10,73,119,99
India,Karnataka,Yadgir,"Collector Office, Yadgir - KSPCB",08-12-2025 08:00:00,16.7602,77.1428,SO2,6,26,14
India,Karnataka,Yadgir,"Collector Office, Yadgir - KSPCB",08-12-2025 08:00:00,16.7602,77.1428,OZONE,12,29,19
India,Kerala,Eloor,"Udyogamandal, Eloor - Kerala PCB",08-12-2025 08:00:00,10.073232,76.302765,SO2,1,1,1
India,Kerala,Eloor,"Udyogamandal, Eloor - Kerala PCB",08-12-2025 08:00:00,10.073232,76.302765,CO,8,83,24
India,Kerala,Kannur,"Thavakkara, Kannur - Kerala PCB",08-12-2025 08:00:00,11.875000,75.373200,PM2.5,46,56,52
India,Kerala,Kannur,"Thavakkara, Kannur - Kerala PCB",08-12-2025 08:00:00,11.875000,75.373200,NH3,2,2,2
India,Kerala,Kollam,"Polayathode, Kollam - Kerala PCB",08-12-2025 08:00:00,8.8787,76.6073,PM10,89,114,100
India,Kerala,Thiruvananthapuram,"Kariavattom, Thiruvananthapuram - Kerala PCB",08-12-2025 08:00:00,8.563700,76.886500,PM2.5,NA,NA,NA
India,Kerala,Thiruvananthapuram,"Kariavattom, Thiruvananthapuram - Kerala PCB",08-12-2025 08:00:00,8.563700,76.886500,PM10,NA,NA,NA
India,Kerala,Thiruvananthapuram,"Kariavattom, Thiruvananthapuram - Kerala PCB",08-12-2025 08:00:00,8.563700,76.886500,NO2,NA,NA,NA
India,Kerala,Thiruvananthapuram,"Kariavattom, Thiruvananthapuram - Kerala PCB",08-12-2025 08:00:00,8.563700,76.886500,CO,NA,NA,NA
India,Kerala,Thiruvananthapuram,"Plammoodu, Thiruvananthapuram - Kerala PCB",08-12-2025 08:00:00,8.5149093,76.9435879,NO2,4,55,25
India,Kerala,Thiruvananthapuram,"Plammoodu, Thiruvananthapuram - Kerala PCB",08-12-2025 08:00:00,8.5149093,76.9435879,CO,10,22,12
India,Madhya Pradesh,Bhopal,"Idgah Hills, Bhopal - MPPCB",08-12-2025 08:00:00,23.264759,77.381568,PM10,93,254,150
India,Madhya Pradesh,Bhopal,"Idgah Hills, Bhopal - MPPCB",08-12-2025 08:00:00,23.264759,77.381568,SO2,9,23,13
India,Madhya Pradesh,Bhopal,"T T Nagar, Bhopal - MPPCB",08-12-2025 08:00:00,23.233584,77.400574,NO2,53,121,86
India,Madhya Pradesh,Bhopal,"T T Nagar, Bhopal - MPPCB",08-12-2025 08:00:00,23.233584,77.400574,NH3,4,7,6
India,Madhya Pradesh,Bhopal,"T T Nagar, Bhopal - MPPCB",08-12-2025 08:00:00,23.233584,77.400574,SO2,10,43,16
India,Madhya Pradesh,Damoh,"Shrivastav Colony, Damoh - MPPCB",08-12-2025 08:00:00,23.81748678,79.446246,CO,NA,NA,NA
India,Madhya Pradesh,Gwalior,"City Center, Gwalior - MPPCB",08-12-2025 08:00:00,26.203442,78.193251,NH3,2,4,3
India,Madhya Pradesh,Gwalior,"City Center, Gwalior - MPPCB",08-12-2025 08:00:00,26.203442,78.193251,CO,4,117,29
India,Bihar,Aurangabad,"Gurdeo Nagar, Aurangabad - BSPCB",08-12-2025 08:00:00,24.75746,84.366208,PM10,100,196,130
India,Bihar,Aurangabad,"Gurdeo Nagar, Aurangabad - BSPCB",08-12-2025 08:00:00,24.75746,84.366208,NO2,7,8,8
India,Bihar,Bettiah,"Kamalnath Nagar, Bettiah - BSPCB",08-12-2025 08:00:00,26.80365,84.51954,PM2.5,63,253,154
India,Bihar,Bettiah,"Kamalnath Nagar, Bettiah - BSPCB",08-12-2025 08:00:00,26.80365,84.51954,PM10,73,171,128
India,Bihar,Bettiah,"Kamalnath Nagar, Bettiah - BSPCB",08-12-2025 08:00:00,26.80365,84.51954,NO2,6,10,8
India,Bihar,Bettiah,"Kamalnath Nagar, Bettiah - BSPCB",08-12-2025 08:00:00,26.80365,84.51954,SO2,5,23,12
India,Bihar,Bettiah,"Kamalnath Nagar, Bettiah - BSPCB",08-12-2025 08:00:00,26.80365,84.51954,OZONE,21,23,22
India,Bihar,Bhagalpur,"DM Office_Kachari Chowk, Bhagalpur - BSPCB",08-12-2025 08:00:00,25.251013,86.989001,PM2.5,120,297,204
India,Bihar,Bhagalpur,"DM Office_Kachari Chowk, Bhagalpur - BSPCB",08-12-2025 08:00:00,25.251013,86.989001,OZONE,9,20,15
India,Bihar,Bhagalpur,"Mayaganj, Bhagalpur - BSPCB",08-12-2025 08:00:00,25.265194,87.012947,PM10,109,167,133
India,Andhra_Pradesh,Kadapa,"Yerramukkapalli, Kadapa - APPCB",08-12-2025 08:00:00,14.465052,78.824187,OZONE,20,23,21
India,Andhra_Pradesh,Tirumala,"Toll Gate, Tirumala - APPCB",08-12-2025 08:00:00,13.67,79.35,PM2.5,152,310,219
India,Andhra_Pradesh,Tirumala,"Toll Gate, Tirumala - APPCB",08-12-2025 08:00:00,13.67,79.35,NO2,16,22,19
India,Andhra_Pradesh,Tirupati,"Vaikuntapuram, Tirupati - APPCB",08-12-2025 08:00:00,13.615387,79.409230,PM2.5,48,55,52
India,Andhra_Pradesh,Tirupati,"Vaikuntapuram, Tirupati - APPCB",08-12-2025 08:00:00,13.615387,79.409230,NO2,13,17,15
India,Andhra_Pradesh,Tirupati,"Vaikuntapuram, Tirupati - APPCB",08-12-2025 08:00:00,13.615387,79.409230,OZONE,17,19,18
India,Andhra_Pradesh,Vijayawada,"HB Colony, Vijayawada - APPCB",08-12-2025 08:00:00,16.536107,80.594233,NH3,5,5,5
India,Arunachal_Pradesh,Naharlagun,"Naharlagun, Naharlagun - APSPCB",08-12-2025 08:00:00,27.103358,93.679645,NO2,6,8,7
India,Arunachal_Pradesh,Naharlagun,"Naharlagun, Naharlagun - APSPCB",08-12-2025 08:00:00,27.103358,93.679645,CO,8,66,16
India,Assam,Byrnihat,"Central Academy for SFS, Byrnihat - PCBA",08-12-2025 08:00:00,26.071318,91.87488,PM2.5,103,192,141
India,Assam,Byrnihat,"Central Academy for SFS, Byrnihat - PCBA",08-12-2025 08:00:00,26.071318,91.87488,NO2,4,8,7
India,Assam,Guwahati,"LGBI Airport, Guwahati - PCBA",08-12-2025 08:00:00,26.10887,91.589544,PM2.5,58,138,92
India,Assam,Guwahati,"LGBI Airport, Guwahati - PCBA",08-12-2025 08:00:00,26.10887,91.589544,NO2,13,17,15
India,Assam,Guwahati,"LGBI Airport, Guwahati - PCBA",08-12-2025 08:00:00,26.10887,91.589544,NH3,5,5,5
India,Assam,Sivasagar,"Girls College, Sivasagar - PCBA",08-12-2025 08:00:00,26.987634,94.636574,NO2,23,37,28
India,Assam,Sivasagar,"Girls College, Sivasagar - PCBA",08-12-2025 08:00:00,26.987634,94.636574,CO,12,102,50
India,Bihar,Araria,"Kharahiya Basti, Araria - BSPCB",08-12-2025 08:00:00,26.146529,87.454184,PM2.5,27,324,217
India,Bihar,Araria,"Kharahiya Basti, Araria - BSPCB",08-12-2025 08:00:00,26.146529,87.454184,SO2,6,56,28
India,Bihar,Araria,"Kharahiya Basti, Araria - BSPCB",08-12-2025 08:00:00,26.146529,87.454184,CO,9,88,40
India,Bihar,Arrah,"New DM Office, Arrah - BSPCB",08-12-2025 08:00:00,25.5626095,84.663264,PM2.5,85,312,218
India,Bihar,Arrah,"New DM Office, Arrah - BSPCB",08-12-2025 08:00:00,25.5626095,84.663264,SO2,10,10,10
India,Andhra_Pradesh,Vijayawada,"HB Colony, Vijayawada - APPCB",08-12-2025 08:00:00,16.536107,80.594233,OZONE,54,54,54
India,Andhra_Pradesh,Vijayawada,"Kanuru, Vijayawada - APPCB",08-12-2025 08:00:00,16.486692,80.699436,PM10,NA,NA,NA
India,Andhra_Pradesh,Vijayawada,"Rajiv Gandhi Park, Vijayawada - APPCB",08-12-2025 08:00:00,16.509717,80.612222,CO,34,34,34
India,Andhra_Pradesh,Vijayawada,"Rajiv Nagar, Vijayawada - APPCB",08-12-2025 08:00:00,16.554731,80.649110,PM10,50,102,64
India,Andhra_Pradesh,Visakhapatnam,"GVM Corporation, Visakhapatnam - APPCB",08-12-2025 08:00:00,17.72,83.3,PM10,116,400,179
India,Bihar,Gaya,"Collectorate, Gaya - BSPCB",08-12-2025 08:00:00,24.7955,84.9994,PM2.5,91,339,201
India,Bihar,Gaya,"Collectorate, Gaya - BSPCB",08-12-2025 08:00:00,24.7955,84.9994,NO2,9,9,9
India,Bihar,Gaya,"Collectorate, Gaya - BSPCB",08-12-2025 08:00:00,24.7955,84.9994,SO2,8,28,13
India,Bihar,Gaya,"Collectorate, Gaya - BSPCB",08-12-2025 08:00:00,24.7955,84.9994,OZONE,19,21,19
India,Bihar,Gaya,"Kareemganj, Gaya - BSPCB",08-12-2025 08:00:00,24.792403,84.992416,NH3,3,6,5
India,Bihar,Gaya,"Kareemganj, Gaya - BSPCB",08-12-2025 08:00:00,24.792403,84.992416,SO2,15,17,16
India,Bihar,Gaya,"SFTI Kusdihra, Gaya - BSPCB",08-12-2025 08:00:00,24.762518,84.982348,PM2.5,32,61,41
India,Bihar,Bhagalpur,"Mayaganj, Bhagalpur - BSPCB",08-12-2025 08:00:00,25.265194,87.012947,NO2,6,9,7
India,Bihar,Buxar,"Charitra Van, Buxar - BSPCB",08-12-2025 08:00:00,25.567520,83.966379,CO,21,30,24
India,Bihar,Buxar,"Charitra Van, Buxar - BSPCB",08-12-2025 08:00:00,25.567520,83.966379,OZONE,10,141,14
India,Bihar,Chhapra,"Darshan Nagar, Chhapra - BSPCB",08-12-2025 08:00:00,25.7808257,84.7446768,PM10,107,255,185
India,Assam,Guwahati,"Pan Bazaar, Guwahati - PCBA",08-12-2025 08:00:00,26.187500,91.744194,SO2,19,43,29
India,Assam,Guwahati,"Pan Bazaar, Guwahati - PCBA",08-12-2025 08:00:00,26.187500,91.744194,OZONE,17,45,22
India,Assam,Guwahati,"Railway Colony, Guwahati - PCBA",08-12-2025 08:00:00,26.181742,91.78063,CO,26,101,73
India,Assam,Nalbari,"Bata Chowk, Nalbari - PCBA",08-12-2025 08:00:00,26.446912,91.439057,SO2,8,8,8
India,Andhra_Pradesh,Chittoor,"Gangineni Cheruvu, Chittoor - APPCB",08-12-2025 08:00:00,13.204880,79.097889,PM2.5,74,319,213
India,Andhra_Pradesh,Chittoor,"Gangineni Cheruvu, Chittoor - APPCB",08-12-2025 08:00:00,13.204880,79.097889,PM10,69,188,134
India,Andhra_Pradesh,Chittoor,"Gangineni Cheruvu, Chittoor - APPCB",08-12-2025 08:00:00,13.204880,79.097889,CO,28,60,32
India,Andhra_Pradesh,Kadapa,"Yerramukkapalli, Kadapa - APPCB",08-12-2025 08:00:00,14.465052,78.824187,PM2.5,34,172,63
India,Andaman and Nicobar,Sri Vijaya Puram,"Police Line, Sri Vijaya Puram - ANPCC",08-12-2025 08:00:00,11.654054,92.734055,PM2.5,NA,NA,NA
India,Chhattisgarh,Korba,"Urja Nagar, Korba - CECB",08-12-2025 08:00:00,22.348441,82.549611,OZONE,35,36,36
India,Chhattisgarh,Kunjemura,"OP Jindal School, Kunjemura - CECB",08-12-2025 08:00:00,22.126650,83.483212,NH3,2,2,2
India,Chhattisgarh,Kunjemura,"OP Jindal School, Kunjemura - CECB",08-12-2025 08:00:00,22.126650,83.483212,CO,8,34,30
India,Chhattisgarh,Milupara,"Govt. Higher Secondary School, Milupara - CECB",08-12-2025 08:00:00,22.1910172,83.5197009,SO2,12,25,16
India,Chhattisgarh,Raipur,"Bhatagaon New ISBT, Raipur - CECB",08-12-2025 08:00:00,21.219665,81.630094,PM2.5,27,109,71
India,Chhattisgarh,Raipur,"Bhatagaon New ISBT, Raipur - CECB",08-12-2025 08:00:00,21.219665,81.630094,CO,46,113,103
India,Chhattisgarh,Raipur,"Krishak Nagar, Raipur - CECB",08-12-2025 08:00:00,21.237755,81.705301,PM2.5,47,138,78
India,Chhattisgarh,Raipur,"Krishak Nagar, Raipur - CECB",08-12-2025 08:00:00,21.237755,81.705301,PM10,53,174,99
India,Chandigarh,Chandigarh,"Sector-25, Chandigarh - CPCC",08-12-2025 08:00:00,30.751462,76.762879,CO,38,53,44
India,Chandigarh,Chandigarh,"Sector-53, Chandigarh - CPCC",08-12-2025 08:00:00,30.719859,76.738637,PM2.5,70,217,134
India,Chandigarh,Chandigarh,"Sector-53, Chandigarh - CPCC",08-12-2025 08:00:00,30.719859,76.738637,NO2,25,107,50
India,Chandigarh,Chandigarh,"Sector-53, Chandigarh - CPCC",08-12-2025 08:00:00,30.719859,76.738637,OZONE,9,80,28
India,Chhattisgarh,Bhilai,"32Bungalows, Bhilai - CECB",08-12-2025 08:00:00,21.194815,81.314770,NH3,NA,NA,NA
India,Chhattisgarh,Bhilai,"Civic Center, Bhilai - Bhilai Steel Plant",08-12-2025 08:00:00,21.185571,81.343175,PM2.5,25,127,70
India,Chhattisgarh,Bhilai,"Civic Center, Bhilai - Bhilai Steel Plant",08-12-2025 08:00:00,21.185571,81.343175,SO2,5,11,8
India,Chhattisgarh,Bhilai,"Hathkhoj, Bhilai - CECB",08-12-2025 08:00:00,21.224231,81.408350,PM10,17,160,48
India,Bihar,Kishanganj,"SDM Office_Khagra, Kishanganj - BSPCB",08-12-2025 08:00:00,26.0881305,87.93840336,PM10,42,197,142
India,Bihar,Kishanganj,"SDM Office_Khagra, Kishanganj - BSPCB",08-12-2025 08:00:00,26.0881305,87.93840336,NH3,3,3,3
India,Bihar,Manguraha,"Forest Rest House, Manguraha - BSPCB",08-12-2025 08:00:00,27.308328,84.531742,NO2,4,14,7
India,Bihar,Manguraha,"Forest Rest House, Manguraha - BSPCB",08-12-2025 08:00:00,27.308328,84.531742,NH3,1,2,1
India,Bihar,Manguraha,"Forest Rest House, Manguraha - BSPCB",08-12-2025 08:00:00,27.308328,84.531742,SO2,16,17,16
India,Bihar,Motihari,"Gandak Colony, Motihari - BSPCB",08-12-2025 08:00:00,26.63086,84.90051,NO2,9,12,10
India,Bihar,Motihari,"Gandak Colony, Motihari - BSPCB",08-12-2025 08:00:00,26.63086,84.90051,SO2,2,3,3
India,Bihar,Motihari,"Gandak Colony, Motihari - BSPCB",08-12-2025 08:00:00,26.63086,84.90051,CO,38,56,44
India,Chhattisgarh,Raipur,"Siltara Phase-II, Raipur - CECB",08-12-2025 08:00:00,21.371751,81.664929,OZONE,3,5,3
India,Chhattisgarh,Tumidih,"OP Jindal Industrial Park, Tumidih - CECB",08-12-2025 08:00:00,22.06631475,83.33820077,PM10,NA,NA,NA
India,Chhattisgarh,Tumidih,"OP Jindal Industrial Park, Tumidih - CECB",08-12-2025 08:00:00,22.06631475,83.33820077,NO2,NA,NA,NA
India,Delhi,Delhi,"Alipur, Delhi - DPCC",08-12-2025 08:00:00,28.815329,77.153010,PM2.5,257,365,322
India,Delhi,Delhi,"Alipur, Delhi - DPCC",08-12-2025 08:00:00,28.815329,77.153010,PM10,177,384,242
India,Delhi,Delhi,"Alipur, Delhi - DPCC",08-12-2025 08:00:00,28.815329,77.153010,NO2,30,68,47
India,Delhi,Delhi,"Alipur, Delhi - DPCC",08-12-2025 08:00:00,28.815329,77.153010,NH3,6,9,8
India,Bihar,Patna,"DRM Office Danapur, Patna - BSPCB",08-12-2025 08:00:00,25.586562,85.043586,NO2,45,90,60
India,Bihar,Patna,"Govt. High School Shikarpur, Patna - BSPCB",08-12-2025 08:00:00,25.592539,85.227158,NO2,19,59,34
India,Bihar,Patna,"IGSC Planetarium Complex, Patna - BSPCB",08-12-2025 08:00:00,25.610369,85.132568,PM2.5,NA,NA,NA
India,Bihar,Patna,"IGSC Planetarium Complex, Patna - BSPCB",08-12-2025 08:00:00,25.610369,85.132568,OZONE,29,30,29
India,Bihar,Patna,"Muradpur, Patna - BSPCB",08-12-2025 08:00:00,25.619651,85.147382,PM10,89,179,130
India,Bihar,Patna,"Rajbansi Nagar, Patna - BSPCB",08-12-2025 08:00:00,25.599486,85.113666,NH3,1,9,7
India,Bihar,Samastipur,"DM Office_Kasipur, Samastipur - BSPCB",08-12-2025 08:00:00,25.859655,85.77944,SO2,22,28,25
India,Bihar,Siwan,"Chitragupta Nagar, Siwan - BSPCB",08-12-2025 08:00:00,26.2271665,84.3570427,PM10,60,121,93
India,Bihar,Siwan,"Chitragupta Nagar, Siwan - BSPCB",08-12-2025 08:00:00,26.2271665,84.3570427,NO2,1,4,1
India,Chandigarh,Chandigarh,"Sector 22, Chandigarh - CPCC",08-12-2025 08:00:00,30.735567,76.775714,NH3,13,16,14
India,Chhattisgarh,Bilaspur,"Mangala, Bilaspur - NTPC",08-12-2025 08:00:00,22.08815,82.13737,NO2,NA,NA,NA
India,Chhattisgarh,Bilaspur,"Mangala, Bilaspur - NTPC",08-12-2025 08:00:00,22.08815,82.13737,CO,29,134,47
India,Chhattisgarh,Korba,"Rampur, Korba - CECB",08-12-2025 08:00:00,22.368195,82.746431,PM10,72,86,85
India,Chhattisgarh,Korba,"Urja Nagar, Korba - CECB",08-12-2025 08:00:00,22.348441,82.549611,NH3,1,2,2
India,Chhattisgarh,Korba,"Urja Nagar, Korba - CECB",08-12-2025 08:00:00,22.348441,82.549611,SO2,5,22,13
India,Bihar,Munger,"Town Hall, Munger - BSPCB",08-12-2025 08:00:00,25.376776,86.471523,NH3,5,9,6
India,Bihar,Muzaffarpur,"MIT-Daudpur Kothi, Muzaffarpur - BSPCB",08-12-2025 08:00:00,26.1403345,85.3650192,OZONE,8,15,15
India,Bihar,Muzaffarpur,"Muzaffarpur Collectorate, Muzaffarpur - BSPCB",08-12-2025 08:00:00,26.1209,85.3647,NO2,6,13,10
India,Bihar,Muzaffarpur,"Muzaffarpur Collectorate, Muzaffarpur - BSPCB",08-12-2025 08:00:00,26.1209,85.3647,SO2,4,6,5
India,Bihar,Purnia,"Mariam Nagar, Purnia - BSPCB",08-12-2025 08:00:00,25.366336,87.117468,PM10,33,109,81
India,Bihar,Purnia,"Mariam Nagar, Purnia - BSPCB",08-12-2025 08:00:00,25.366336,87.117468,CO,52,59,56
India,Bihar,Saharsa,"Police Line, Saharsa - BSPCB",08-12-2025 08:00:00,25.892357,86.590325,PM2.5,67,304,153
India,Delhi,Delhi,"Jahangirpuri, Delhi - DPCC",08-12-2025 08:00:00,28.732820,77.170633,NH3,7,10,9
India,Delhi,Delhi,"Jahangirpuri, Delhi - DPCC",08-12-2025 08:00:00,28.732820,77.170633,OZONE,7,147,21
India,Delhi,Delhi,"Lodhi Road, Delhi - IITM",08-12-2025 08:00:00,28.588333,77.221667,PM10,145,183,163
India,Delhi,Delhi,"Lodhi Road, Delhi - IITM",08-12-2025 08:00:00,28.588333,77.221667,SO2,8,15,12
India,Delhi,Delhi,"Major Dhyan Chand National Stadium, Delhi - DPCC",08-12-2025 08:00:00,28.611281,77.237738,CO,52,105,77
India,Delhi,Delhi,"Mandir Marg, Delhi - DPCC",08-12-2025 08:00:00,28.636429,77.201067,PM2.5,92,367,253
India,Delhi,Delhi,"Mandir Marg, Delhi - DPCC",08-12-2025 08:00:00,28.636429,77.201067,NO2,67,114,83
India,Delhi,Delhi,"Nehru Nagar, Delhi - DPCC",08-12-2025 08:00:00,28.567890,77.250515,PM10,188,428,250
India,Delhi,Delhi,"Nehru Nagar, Delhi - DPCC",08-12-2025 08:00:00,28.567890,77.250515,SO2,1,19,11
India,Delhi,Delhi,"Nehru Nagar, Delhi - DPCC",08-12-2025 08:00:00,28.567890,77.250515,OZONE,2,298,3
India,Delhi,Delhi,"North Campus, DU, Delhi - IMD",08-12-2025 08:00:00,28.6573814,77.1585447,NO2,35,189,99
India,Delhi,Delhi,"Okhla Phase-2, Delhi - DPCC",08-12-2025 08:00:00,28.530785,77.271255,NO2,111,188,147
India,Delhi,Delhi,"Okhla Phase-2, Delhi - DPCC",08-12-2025 08:00:00,28.530785,77.271255,NH3,11,16,13
India,Delhi,Delhi,"Patparganj, Delhi - DPCC",08-12-2025 08:00:00,28.623763,77.287209,NH3,10,12,11
India,Delhi,Delhi,"Mandir Marg, Delhi - DPCC",08-12-2025 08:00:00,28.636429,77.201067,CO,56,102,70
India,Delhi,Delhi,"Mundka, Delhi - DPCC",08-12-2025 08:00:00,28.684678,77.076574,OZONE,3,105,6
India,Delhi,Delhi,"NSIT Dwarka, Delhi - CPCB",08-12-2025 08:00:00,28.60909,77.0325413,CO,49,105,61
India,Delhi,Delhi,"Najafgarh, Delhi - DPCC",08-12-2025 08:00:00,28.570173,76.933762,NH3,15,19,17
India,Delhi,Delhi,"Narela, Delhi - DPCC",08-12-2025 08:00:00,28.822836,77.101981,NO2,17,70,32
India,Delhi,Delhi,"Rohini, Delhi - DPCC",08-12-2025 08:00:00,28.732528,77.119920,NO2,29,83,51
India,Delhi,Delhi,"Rohini, Delhi - DPCC",08-12-2025 08:00:00,28.732528,77.119920,CO,34,74,45
India,Delhi,Delhi,"Shadipur, Delhi - CPCB",08-12-2025 08:00:00,28.6514781,77.1473105,NH3,9,13,11
India,Delhi,Delhi,"Sonia Vihar, Delhi - DPCC",08-12-2025 08:00:00,28.710508,77.249485,NO2,32,92,56
India,Delhi,Delhi,"Sri Aurobindo Marg, Delhi - DPCC",08-12-2025 08:00:00,28.531346,77.190156,PM10,149,217,179
India,Delhi,Delhi,"CRRI Mathura Road, Delhi - IMD",08-12-2025 08:00:00,28.5512005,77.2735737,NO2,38,47,42
India,Delhi,Delhi,"DTU, Delhi - CPCB",08-12-2025 08:00:00,28.7500499,77.1112615,NO2,39,69,62
India,Delhi,Delhi,"DTU, Delhi - CPCB",08-12-2025 08:00:00,28.7500499,77.1112615,CO,26,52,42
India,Delhi,Delhi,"Dwarka-Sector 8, Delhi - DPCC ",08-12-2025 08:00:00,28.5710274,77.0719006,NH3,18,21,19
India,Delhi,Delhi,"Dwarka-Sector 8, Delhi - DPCC ",08-12-2025 08:00:00,28.5710274,77.0719006,OZONE,1,137,2
India,Delhi,Delhi,"Punjabi Bagh, Delhi - DPCC",08-12-2025 08:00:00,28.674045,77.131023,SO2,6,24,17
India,Delhi,Delhi,"Pusa, Delhi - DPCC",08-12-2025 08:00:00,28.639652,77.146275,CO,52,110,66
India,Delhi,Delhi,"Pusa, Delhi - DPCC",08-12-2025 08:00:00,28.639652,77.146275,OZONE,17,27,21
India,Delhi,Delhi,"Pusa, Delhi - IMD",08-12-2025 08:00:00,28.636110,77.173332,OZONE,26,107,27
India,Delhi,Delhi,"R K Puram, Delhi - DPCC",08-12-2025 08:00:00,28.563262,77.186937,NO2,28,121,79
India,Delhi,Delhi,"Sri Aurobindo Marg, Delhi - DPCC",08-12-2025 08:00:00,28.531346,77.190156,SO2,1,17,9
India,Delhi,Delhi,"Vivek Vihar, Delhi - DPCC",08-12-2025 08:00:00,28.672342,77.315260,CO,58,112,74
India,Delhi,Delhi,"Wazirpur, Delhi - DPCC",08-12-2025 08:00:00,28.699793,77.165453,NH3,10,12,11
India,Delhi,Delhi,"Anand Vihar, Delhi - DPCC",08-12-2025 08:00:00,28.647622,77.3158090,NH3,11,14,13
India,Delhi,Delhi,"Burari Crossing, Delhi - IMD",08-12-2025 08:00:00,28.7256504,77.2011573,NO2,44,140,91
India,Delhi,Delhi,"Burari Crossing, Delhi - IMD",08-12-2025 08:00:00,28.7256504,77.2011573,OZONE,13,303,23
India,Delhi,Delhi,"IGI Airport (T3), Delhi - IMD",08-12-2025 08:00:00,28.5627763,77.1180053,OZONE,4,70,6
India,Delhi,Delhi,"IHBAS, Dilshad Garden, Delhi - CPCB",08-12-2025 08:00:00,28.6811736,77.3025234,NH3,8,12,10
India,Haryana,Fatehabad,"Huda Sector, Fatehabad - HSPCB",08-12-2025 08:00:00,29.503664,75.467934,OZONE,15,19,16
India,Haryana,Gurugram,"NISE Gwal Pahari, Gurugram - IMD",08-12-2025 08:00:00,28.422681,77.148944,PM2.5,191,377,300
India,Haryana,Gurugram,"Sector-51, Gurugram - HSPCB",08-12-2025 08:00:00,28.4227,77.0667,PM2.5,152,389,296
India,Haryana,Gurugram,"Sector-51, Gurugram - HSPCB",08-12-2025 08:00:00,28.4227,77.0667,NO2,4,10,7
India,Haryana,Gurugram,"Sector-51, Gurugram - HSPCB",08-12-2025 08:00:00,28.4227,77.0667,NH3,6,10,8
India,Haryana,Gurugram,"Teri Gram, Gurugram - HSPCB",08-12-2025 08:00:00,28.4275,77.1465,PM2.5,280,408,340
India,Haryana,Gurugram,"Vikas Sadan, Gurugram - HSPCB",08-12-2025 08:00:00,28.4501238,77.0263051,PM10,129,146,138
India,Haryana,Hisar,"Urban Estate-II, Hisar - HSPCB",08-12-2025 08:00:00,29.140560,75.744941,PM2.5,38,79,65
India,Gujarat,Vatva,"Phase-4 GIDC, Vatva - GPCB",08-12-2025 08:00:00,22.969611,72.643500,CO,10,25,14
India,Gujarat,Vatva,"Phase-4 GIDC, Vatva - GPCB",08-12-2025 08:00:00,22.969611,72.643500,OZONE,19,45,27
India,Haryana,Ambala,"Patti Mehar, Ambala - HSPCB",08-12-2025 08:00:00,30.379589,76.778328,NO2,19,25,23
India,Haryana,Bahadurgarh,"Arya Nagar, Bahadurgarh - HSPCB",08-12-2025 08:00:00,28.6701,76.9254,PM10,31,255,151
India,Haryana,Bahadurgarh,"Arya Nagar, Bahadurgarh - HSPCB",08-12-2025 08:00:00,28.6701,76.9254,SO2,7,7,7
India,Haryana,Ballabgarh,"Nathu Colony, Ballabgarh - HSPCB",08-12-2025 08:00:00,28.3419248,77.319699,PM2.5,271,329,310
India,Haryana,Ballabgarh,"Nathu Colony, Ballabgarh - HSPCB",08-12-2025 08:00:00,28.3419248,77.319699,PM10,189,280,234
India,Haryana,Ballabgarh,"Nathu Colony, Ballabgarh - HSPCB",08-12-2025 08:00:00,28.3419248,77.319699,NO2,19,21,20
India,Haryana,Ballabgarh,"Nathu Colony, Ballabgarh - HSPCB",08-12-2025 08:00:00,28.3419248,77.319699,SO2,5,13,8
India,Haryana,Faridabad,"New Industrial Town, Faridabad - HSPCB",08-12-2025 08:00:00,28.39072,77.30059,SO2,8,8,8
India,Haryana,Faridabad,"Sector 11, Faridabad - HSPCB",08-12-2025 08:00:00,28.376058,77.315741,SO2,4,5,4
India,Haryana,Faridabad,"Sector 30, Faridabad - HSPCB",08-12-2025 08:00:00,28.4417,77.3217,PM2.5,165,199,186
India,Haryana,Faridabad,"Sector 30, Faridabad - HSPCB",08-12-2025 08:00:00,28.4417,77.3217,PM10,145,151,149
India,Haryana,Faridabad,"Sector 30, Faridabad - HSPCB",08-12-2025 08:00:00,28.4417,77.3217,NO2,36,39,37
India,Haryana,Faridabad,"Sector 30, Faridabad - HSPCB",08-12-2025 08:00:00,28.4417,77.3217,NH3,11,12,11
India,Haryana,Fatehabad,"Huda Sector, Fatehabad - HSPCB",08-12-2025 08:00:00,29.503664,75.467934,NO2,18,20,19
India,Haryana,Fatehabad,"Huda Sector, Fatehabad - HSPCB",08-12-2025 08:00:00,29.503664,75.467934,NH3,13,14,14
India,Haryana,Fatehabad,"Huda Sector, Fatehabad - HSPCB",08-12-2025 08:00:00,29.503664,75.467934,SO2,10,11,11
India,Gujarat,Ahmedabad,"Gyaspur, Ahmedabad - IITM",08-12-2025 08:00:00,22.977134,72.553024,NO2,39,312,110
India,Gujarat,Ahmedabad,"Gyaspur, Ahmedabad - IITM",08-12-2025 08:00:00,22.977134,72.553024,OZONE,10,21,11
India,Gujarat,Ahmedabad,"Maninagar, Ahmedabad - GPCB",08-12-2025 08:00:00,23.002657,72.591912,OZONE,48,78,60
India,Gujarat,Ahmedabad,"Raikhad, Ahmedabad - IITM",08-12-2025 08:00:00,23.020509,72.579261,PM10,98,185,125
India,Gujarat,Ahmedabad,"Raikhad, Ahmedabad - IITM",08-12-2025 08:00:00,23.020509,72.579261,NH3,5,10,7
India,Gujarat,Ahmedabad,"Raikhad, Ahmedabad - IITM",08-12-2025 08:00:00,23.020509,72.579261,SO2,9,14,11
India,Gujarat,Ahmedabad,"Rakhial, Ahmedabad - IITM",08-12-2025 08:00:00,23.016834,72.625775,NO2,15,77,28
India,Haryana,Ballabgarh,"Nathu Colony, Ballabgarh - HSPCB",08-12-2025 08:00:00,28.3419248,77.319699,OZONE,15,15,15
India,Haryana,Bhiwani,"H.B. Colony, Bhiwani - HSPCB",08-12-2025 08:00:00,28.806223,76.141105,PM10,122,152,133
India,Haryana,Bhiwani,"H.B. Colony, Bhiwani - HSPCB",08-12-2025 08:00:00,28.806223,76.141105,SO2,12,13,12
India,Haryana,Charkhi Dadri,"Mini Secretariat, Charkhi Dadri - HSPCB",08-12-2025 08:00:00,28.593883,76.270653,OZONE,13,17,15
India,Gujarat,Ahmedabad,"SAC ISRO Bopal, Ahmedabad - IITM",08-12-2025 08:00:00,23.041137,72.456691,PM2.5,48,183,97
India,Gujarat,Ahmedabad,"SAC ISRO Bopal, Ahmedabad - IITM",08-12-2025 08:00:00,23.041137,72.456691,PM10,50,157,95
India,Gujarat,Ahmedabad,"SAC ISRO Satellite, Ahmedabad - IITM",08-12-2025 08:00:00,23.023389,72.515201,NO2,11,59,25
India,Gujarat,Ahmedabad,"SVPI Airport Hansol, Ahmedabad - IITM",08-12-2025 08:00:00,23.076793,72.627874,OZONE,9,48,17
India,Haryana,Jind,"Police Lines, Jind - HSPCB",08-12-2025 08:00:00,29.307814,76.337619,NH3,2,3,2
India,Haryana,Kaithal,"Rishi Nagar, Kaithal - HSPCB",08-12-2025 08:00:00,29.8006,76.4155,OZONE,8,18,9
India,Haryana,Karnal,"Sector-12, Karnal - HSPCB",08-12-2025 08:00:00,29.695300,77.002700,NO2,6,7,6
India,Gujarat,Gandhinagar,"Sector-10, Gandhinagar - GPCB",08-12-2025 08:00:00,23.221714,72.654328,NO2,17,35,20
India,Gujarat,Gandhinagar,"Sector-10, Gandhinagar - GPCB",08-12-2025 08:00:00,23.221714,72.654328,SO2,1,10,5
India,Gujarat,Vapi,"Phase-1 GIDC, Vapi - GPCB",08-12-2025 08:00:00,20.362421,72.918013,OZONE,8,12,8
India,Haryana,Faridabad,"New Industrial Town, Faridabad - HSPCB",08-12-2025 08:00:00,28.39072,77.30059,NH3,11,12,11
India,Karnataka,Bengaluru,"BWSSB Kadabesanahalli, Bengaluru - CPCB",08-12-2025 08:00:00,12.9352049,77.6814488,PM2.5,NA,NA,NA
India,Karnataka,Bengaluru,"BWSSB Kadabesanahalli, Bengaluru - CPCB",08-12-2025 08:00:00,12.9352049,77.6814488,PM10,64,198,150
India,Karnataka,Bengaluru,"BWSSB Kadabesanahalli, Bengaluru - CPCB",08-12-2025 08:00:00,12.9352049,77.6814488,NH3,1,1,1
India,Karnataka,Bengaluru,"BWSSB Kadabesanahalli, Bengaluru - CPCB",08-12-2025 08:00:00,12.9352049,77.6814488,SO2,4,7,6
India,Karnataka,Bengaluru,"City Railway Station, Bengaluru - KSPCB",08-12-2025 08:00:00,12.9756843,77.5660749,PM10,87,88,88
India,Karnataka,Bengaluru,"City Railway Station, Bengaluru - KSPCB",08-12-2025 08:00:00,12.9756843,77.5660749,SO2,11,18,14
India,Karnataka,Bengaluru,"Hebbal, Bengaluru - KSPCB",08-12-2025 08:00:00,13.029152,77.585901,OZONE,7,12,9
India,Karnataka,Bengaluru,"Hombegowda Nagar, Bengaluru - KSPCB",08-12-2025 08:00:00,12.938539,77.590100,NH3,2,3,3
India,Karnataka,Bengaluru,"Hombegowda Nagar, Bengaluru - KSPCB",08-12-2025 08:00:00,12.938539,77.590100,CO,16,30,23
India,Haryana,Rohtak,"MD University, Rohtak - HSPCB",08-12-2025 08:00:00,28.52123,76.37138,NO2,10,12,11
India,Haryana,Rohtak,"MD University, Rohtak - HSPCB",08-12-2025 08:00:00,28.52123,76.37138,OZONE,25,26,25
India,Haryana,Sirsa,"F-Block, Sirsa - HSPCB",08-12-2025 08:00:00,29.536400,75.015800,CO,36,54,47
India,Haryana,Sonipat,"Murthal, Sonipat - HSPCB",08-12-2025 08:00:00,29.027200,77.062100,PM2.5,115,392,278
India,Haryana,Sonipat,"Murthal, Sonipat - HSPCB",08-12-2025 08:00:00,29.027200,77.062100,NO2,10,51,41
India,Haryana,Sonipat,"Murthal, Sonipat - HSPCB",08-12-2025 08:00:00,29.027200,77.062100,CO,29,41,35
India,Haryana,Sonipat,"Murthal, Sonipat - HSPCB",08-12-2025 08:00:00,29.027200,77.062100,OZONE,25,26,26
India,Haryana,Yamuna Nagar,"Gobind Pura, Yamuna Nagar - HSPCB",08-12-2025 08:00:00,30.1480566,77.2893471,PM10,113,156,124
India,Karnataka,Kalaburagi,"Mahatma Basaveswar Colony, Kalaburgi - KSPCB",08-12-2025 08:00:00,17.336318,76.847397,PM2.5,24,58,38
India,Karnataka,Kalaburagi,"Mahatma Basaveswar Colony, Kalaburgi - KSPCB",08-12-2025 08:00:00,17.336318,76.847397,PM10,30,78,49
India,Karnataka,Kalaburagi,"Mahatma Basaveswar Colony, Kalaburgi - KSPCB",08-12-2025 08:00:00,17.336318,76.847397,NO2,11,18,13
India,Karnataka,Kalaburagi,"Mahatma Basaveswar Colony, Kalaburgi - KSPCB",08-12-2025 08:00:00,17.336318,76.847397,CO,42,71,49
India,Karnataka,Koppal,"Diwator Nagar, Koppal - KSPCB",08-12-2025 08:00:00,15.347630,76.181767,PM2.5,38,43,40
India,Karnataka,Koppal,"Diwator Nagar, Koppal - KSPCB",08-12-2025 08:00:00,15.347630,76.181767,PM10,56,84,70
India,Karnataka,Koppal,"Diwator Nagar, Koppal - KSPCB",08-12-2025 08:00:00,15.347630,76.181767,NO2,32,37,34
India,Karnataka,Koppal,"Diwator Nagar, Koppal - KSPCB",08-12-2025 08:00:00,15.347630,76.181767,OZONE,5,6,6
India,Karnataka,Chikkamagaluru,"Kalyana Nagara, Chikkamagaluru - KSPCB",08-12-2025 08:00:00,13.328028,75.797056,SO2,2,6,4
India,Karnataka,Chikkamagaluru,"Kalyana Nagara, Chikkamagaluru - KSPCB",08-12-2025 08:00:00,13.328028,75.797056,OZONE,19,19,19
India,Karnataka,Davanagere,"Devaraj Urs Badavane, Davanagere - KSPCB",08-12-2025 08:00:00,14.475800,75.905200,SO2,3,6,5
India,Karnataka,Dharwad,"Kalabhavan, Dharwad - KSPCB",08-12-2025 08:00:00,15.459706,75.008381,PM10,NA,NA,NA
India,Karnataka,Hubballi,"Lingaraj Nagar, Hubballi - KSPCB",08-12-2025 08:00:00,15.3714823,75.1160168,SO2,NA,NA,NA
India,Karnataka,Hubballi,"Lingaraj Nagar, Hubballi - KSPCB",08-12-2025 08:00:00,15.3714823,75.1160168,CO,8,34,14
India,Haryana,Palwal,"Shyam Nagar, Palwal - HSPCB",08-12-2025 08:00:00,28.1485564,77.3320667,PM10,90,118,105
India,Haryana,Palwal,"Shyam Nagar, Palwal - HSPCB",08-12-2025 08:00:00,28.1485564,77.3320667,NH3,8,9,9
India,Haryana,Panchkula,"Sector-6, Panchkula - HSPCB ",08-12-2025 08:00:00,30.7057778,76.8531805555555,NO2,24,26,25
India,Haryana,Panchkula,"Sector-6, Panchkula - HSPCB ",08-12-2025 08:00:00,30.7057778,76.8531805555555,SO2,8,9,9
India,Haryana,Panchkula,"Sector-6, Panchkula - HSPCB ",08-12-2025 08:00:00,30.7057778,76.8531805555555,CO,20,22,20
India,Haryana,Panipat,"Sector-18, Panipat - HSPCB",08-12-2025 08:00:00,29.432304,76.972765,SO2,11,11,11
India,Haryana,Panipat,"Sector-18, Panipat - HSPCB",08-12-2025 08:00:00,29.432304,76.972765,CO,32,49,48
India,Jammu_and_Kashmir,Srinagar,"Rajbagh, Srinagar - JKSPCB",08-12-2025 08:00:00,34.066206,74.819820,PM2.5,84,228,150
India,Jammu_and_Kashmir,Srinagar,"Rajbagh, Srinagar - JKSPCB",08-12-2025 08:00:00,34.066206,74.819820,OZONE,1,3,1
India,Jharkhand,Jorapokhar,"Tata Stadium, Jorapokhar - JSPCB",08-12-2025 08:00:00,23.707909,86.414670,PM2.5,NA,NA,NA
India,Karnataka,Bagalkot,"Vidayagiri, Bagalkot - KSPCB",08-12-2025 08:00:00,16.172806,75.659694,OZONE,12,17,16
India,Karnataka,Bengaluru,"BTM Layout, Bengaluru - CPCB",08-12-2025 08:00:00,12.9135218,77.5950804,PM10,NA,NA,NA
India,Karnataka,Bengaluru,"Jayanagar 5th Block, Bengaluru - KSPCB",08-12-2025 08:00:00,12.920984,77.584908,CO,18,52,24
India,Karnataka,Bengaluru,"Jigani, Bengaluru - KSPCB",08-12-2025 08:00:00,12.7816279,77.6299145,CO,42,44,42
India,Karnataka,Bengaluru,"Kasturi Nagar, Bengaluru - KSPCB",08-12-2025 08:00:00,13.003872,77.664217,CO,45,70,55
India,Karnataka,Bengaluru,"Peenya, Bengaluru - CPCB",08-12-2025 08:00:00,13.0270199,77.494094,NO2,19,27,24
India,Karnataka,Bengaluru,"RVCE-Mailasandra, Bengaluru - KSPCB",08-12-2025 08:00:00,12.921418,77.502466,NO2,18,24,22
India,Karnataka,Bengaluru,"RVCE-Mailasandra, Bengaluru - KSPCB",08-12-2025 08:00:00,12.921418,77.502466,SO2,5,6,6
India,Karnataka,Chamarajanagar,"Urban, Chamarajanagar - KSPCB",08-12-2025 08:00:00,11.55358,76.55521,CO,14,120,32
India,Haryana,Kurukshetra,"Sector-7, Kurukshetra - HSPCB",08-12-2025 08:00:00,29.966942,76.875879,PM10,118,170,145
India,Karnataka,Madikeri,"Stuart Hill, Madikeri - KSPCB",08-12-2025 08:00:00,12.415911,75.735050,OZONE,3,6,4
India,Karnataka,Mangalore,"Kadri, Mangalore - KSPCB",08-12-2025 08:00:00,12.889250,74.853000,OZONE,11,29,22
India,Karnataka,Shivamogga,"Vinoba Nagara, Shivamogga - KSPCB",08-12-2025 08:00:00,13.940000,75.555917,PM2.5,20,30,26
India,Karnataka,Yadgir,"Collector Office, Yadgir - KSPCB",08-12-2025 08:00:00,16.7602,77.1428,NH3,1,2,1
India,Kerala,Eloor,"Udyogamandal, Eloor - Kerala PCB",08-12-2025 08:00:00,10.073232,76.302765,PM10,49,72,58
India,Kerala,Kollam,"Polayathode, Kollam - Kerala PCB",08-12-2025 08:00:00,8.8787,76.6073,PM2.5,121,226,164
India,Kerala,Thiruvananthapuram,"Plammoodu, Thiruvananthapuram - Kerala PCB",08-12-2025 08:00:00,8.5149093,76.9435879,NH3,2,5,3
India,Kerala,Thiruvananthapuram,"Plammoodu, Thiruvananthapuram - Kerala PCB",08-12-2025 08:00:00,8.5149093,76.9435879,SO2,9,24,17
India,Kerala,Thiruvananthapuram,"Plammoodu, Thiruvananthapuram - Kerala PCB",08-12-2025 08:00:00,8.5149093,76.9435879,OZONE,7,22,18
India,Kerala,Thrissur,"Corporation Ground, Thrissur - Kerala PCB",08-12-2025 08:00:00,10.532400,76.215900,PM10,50,57,53
India,Kerala,Thrissur,"Corporation Ground, Thrissur - Kerala PCB",08-12-2025 08:00:00,10.532400,76.215900,OZONE,31,32,31
India,Madhya Pradesh,Bhopal,"Idgah Hills, Bhopal - MPPCB",08-12-2025 08:00:00,23.264759,77.381568,NO2,20,75,33
India,Madhya Pradesh,Bhopal,"Idgah Hills, Bhopal - MPPCB",08-12-2025 08:00:00,23.264759,77.381568,NH3,4,6,5
India,Madhya Pradesh,Bhopal,"T T Nagar, Bhopal - MPPCB",08-12-2025 08:00:00,23.233584,77.400574,PM2.5,82,340,235
India,Madhya Pradesh,Bhopal,"T T Nagar, Bhopal - MPPCB",08-12-2025 08:00:00,23.233584,77.400574,PM10,125,387,200
India,Madhya Pradesh,Dewas,"Bhopal Chauraha, Dewas - MPPCB",08-12-2025 08:00:00,22.9682591,76.064118,NO2,7,8,7
India,Madhya Pradesh,Dewas,"Bhopal Chauraha, Dewas - MPPCB",08-12-2025 08:00:00,22.9682591,76.064118,CO,14,32,18
India,Madhya Pradesh,Dewas,"Bhopal Chauraha, Dewas - MPPCB",08-12-2025 08:00:00,22.9682591,76.064118,OZONE,23,27,24
India,Andhra_Pradesh,Vijayawada,"HB Colony, Vijayawada - APPCB",08-12-2025 08:00:00,16.536107,80.594233,NO2,19,19,19
India,Andhra_Pradesh,Vijayawada,"Rajiv Gandhi Park, Vijayawada - APPCB",08-12-2025 08:00:00,16.509717,80.612222,SO2,15,17,16
India,Andhra_Pradesh,Vijayawada,"Rajiv Gandhi Park, Vijayawada - APPCB",08-12-2025 08:00:00,16.509717,80.612222,OZONE,7,66,11
India,Andhra_Pradesh,Vijayawada,"Rajiv Nagar, Vijayawada - APPCB",08-12-2025 08:00:00,16.554731,80.649110,SO2,21,27,25
India,Andhra_Pradesh,Vijayawada,"Rajiv Nagar, Vijayawada - APPCB",08-12-2025 08:00:00,16.554731,80.649110,CO,35,57,41
India,Andhra_Pradesh,Vijayawada,"Rajiv Nagar, Vijayawada - APPCB",08-12-2025 08:00:00,16.554731,80.649110,OZONE,90,264,157
India,Andhra_Pradesh,Visakhapatnam,"GVM Corporation, Visakhapatnam - APPCB",08-12-2025 08:00:00,17.72,83.3,NO2,23,166,94
India,Andhra_Pradesh,Kadapa,"Yerramukkapalli, Kadapa - APPCB",08-12-2025 08:00:00,14.465052,78.824187,NH3,4,5,4
India,Andhra_Pradesh,Kadapa,"Yerramukkapalli, Kadapa - APPCB",08-12-2025 08:00:00,14.465052,78.824187,SO2,11,11,11
India,Andhra_Pradesh,Kadapa,"Yerramukkapalli, Kadapa - APPCB",08-12-2025 08:00:00,14.465052,78.824187,CO,28,40,31
India,Andhra_Pradesh,Rajamahendravaram,"Anand Kala Kshetram, Rajamahendravaram - APPCB",08-12-2025 08:00:00,16.9872867,81.7363176,PM10,108,178,136
India,Andhra_Pradesh,Rajamahendravaram,"Anand Kala Kshetram, Rajamahendravaram - APPCB",08-12-2025 08:00:00,16.9872867,81.7363176,NO2,18,67,32
India,Andhra_Pradesh,Tirumala,"Toll Gate, Tirumala - APPCB",08-12-2025 08:00:00,13.67,79.35,PM10,93,157,110
India,Andhra_Pradesh,Tirumala,"Toll Gate, Tirumala - APPCB",08-12-2025 08:00:00,13.67,79.35,SO2,5,7,6
India,Bihar,Kishanganj,"SDM Office_Khagra, Kishanganj - BSPCB",08-12-2025 08:00:00,26.0881305,87.93840336,PM2.5,40,52,45
India,Bihar,Kishanganj,"SDM Office_Khagra, Kishanganj - BSPCB",08-12-2025 08:00:00,26.0881305,87.93840336,OZONE,16,18,16
India,Bihar,Manguraha,"Forest Rest House, Manguraha - BSPCB",08-12-2025 08:00:00,27.308328,84.531742,PM10,56,183,101
India,Bihar,Motihari,"Gandak Colony, Motihari - BSPCB",08-12-2025 08:00:00,26.63086,84.90051,PM2.5,NA,NA,NA
India,Bihar,Motihari,"Gandak Colony, Motihari - BSPCB",08-12-2025 08:00:00,26.63086,84.90051,PM10,NA,NA,NA
India,Bihar,Motihari,"Gandak Colony, Motihari - BSPCB",08-12-2025 08:00:00,26.63086,84.90051,NH3,3,3,3
India,Bihar,Chhapra,"Darshan Nagar, Chhapra - BSPCB",08-12-2025 08:00:00,25.7808257,84.7446768,OZONE,27,58,29
India,Bihar,Gaya,"Kareemganj, Gaya - BSPCB",08-12-2025 08:00:00,24.792403,84.992416,PM2.5,80,325,190
India,Bihar,Gaya,"Kareemganj, Gaya - BSPCB",08-12-2025 08:00:00,24.792403,84.992416,OZONE,1,31,4
India,Bihar,Gaya,"SFTI Kusdihra, Gaya - BSPCB",08-12-2025 08:00:00,24.762518,84.982348,CO,20,46,44
India,Bihar,Hajipur,"Industrial Area, Hajipur - BSPCB",08-12-2025 08:00:00,25.697189,85.245900,NO2,26,57,39
India,Assam,Nalbari,"Bata Chowk, Nalbari - PCBA",08-12-2025 08:00:00,26.446912,91.439057,CO,10,22,21
India,Assam,Silchar,"Tarapur, Silchar - PCBA",08-12-2025 08:00:00,24.82827,92.79525,NH3,1,1,1
India,Bihar,Araria,"Kharahiya Basti, Araria - BSPCB",08-12-2025 08:00:00,26.146529,87.454184,NH3,4,4,4
India,Bihar,Arrah,"New DM Office, Arrah - BSPCB",08-12-2025 08:00:00,25.5626095,84.663264,PM10,104,231,169
India,Bihar,Arrah,"New DM Office, Arrah - BSPCB",08-12-2025 08:00:00,25.5626095,84.663264,NH3,1,1,1
India,Assam,Guwahati,"Pan Bazaar, Guwahati - PCBA",08-12-2025 08:00:00,26.187500,91.744194,PM2.5,46,155,94
India,Assam,Guwahati,"Railway Colony, Guwahati - PCBA",08-12-2025 08:00:00,26.181742,91.78063,NO2,3,3,3
India,Assam,Guwahati,"Railway Colony, Guwahati - PCBA",08-12-2025 08:00:00,26.181742,91.78063,SO2,32,35,34
India,Assam,Nagaon,"Christianpatty, Nagaon - PCBA",08-12-2025 08:00:00,26.349082,92.68449,NH3,4,4,4
India,Assam,Nalbari,"Bata Chowk, Nalbari - PCBA",08-12-2025 08:00:00,26.446912,91.439057,PM10,10,263,60
India,Andhra_Pradesh,Amaravati,"Secretariat, Amaravati - APPCB",08-12-2025 08:00:00,16.5150833,80.5181667,CO,22,66,36
India,Andhra_Pradesh,Amaravati,"Secretariat, Amaravati - APPCB",08-12-2025 08:00:00,16.5150833,80.5181667,OZONE,7,70,15
India,Andhra_Pradesh,Anantapur,"Gulzarpet, Anantapur - APPCB",08-12-2025 08:00:00,14.675886,77.593027,CO,18,32,23
India,Andhra_Pradesh,Chittoor,"Gangineni Cheruvu, Chittoor - APPCB",08-12-2025 08:00:00,13.204880,79.097889,NO2,16,25,22
India,Bihar,Bhagalpur,"Mayaganj, Bhagalpur - BSPCB",08-12-2025 08:00:00,25.265194,87.012947,PM2.5,83,197,139
India,Bihar,Bhagalpur,"Mayaganj, Bhagalpur - BSPCB",08-12-2025 08:00:00,25.265194,87.012947,CO,71,107,94
India,Bihar,Bihar Sharif,"D M Colony, Bihar Sharif - BSPCB",08-12-2025 08:00:00,25.204762,85.514960,PM10,70,151,109
India,Bihar,Bihar Sharif,"D M Colony, Bihar Sharif - BSPCB",08-12-2025 08:00:00,25.204762,85.514960,SO2,10,10,10
India,Bihar,Bihar Sharif,"D M Colony, Bihar Sharif - BSPCB",08-12-2025 08:00:00,25.204762,85.514960,OZONE,1,13,1
India,Arunachal_Pradesh,Naharlagun,"Naharlagun, Naharlagun - APSPCB",08-12-2025 08:00:00,27.103358,93.679645,PM2.5,18,400,135
India,Arunachal_Pradesh,Naharlagun,"Naharlagun, Naharlagun - APSPCB",08-12-2025 08:00:00,27.103358,93.679645,NH3,1,1,1
India,Arunachal_Pradesh,Naharlagun,"Naharlagun, Naharlagun - APSPCB",08-12-2025 08:00:00,27.103358,93.679645,OZONE,5,6,5
India,Bihar,Aurangabad,"Gurdeo Nagar, Aurangabad - BSPCB",08-12-2025 08:00:00,24.75746,84.366208,NH3,1,2,1
India,Bihar,Samastipur,"DM Office_Kasipur, Samastipur - BSPCB",08-12-2025 08:00:00,25.859655,85.77944,PM10,40,127,84
India,Bihar,Samastipur,"DM Office_Kasipur, Samastipur - BSPCB",08-12-2025 08:00:00,25.859655,85.77944,CO,48,108,62
India,Bihar,Sasaram,"Dada Peer, Sasaram - BSPCB",08-12-2025 08:00:00,24.952822,84.002396,PM10,127,494,262
India,Bihar,Sasaram,"Dada Peer, Sasaram - BSPCB",08-12-2025 08:00:00,24.952822,84.002396,NH3,2,7,3
India,Bihar,Sasaram,"Dada Peer, Sasaram - BSPCB",08-12-2025 08:00:00,24.952822,84.002396,CO,48,86,53
India,Bihar,Sasaram,"Dada Peer, Sasaram - BSPCB",08-12-2025 08:00:00,24.952822,84.002396,OZONE,14,36,17
India,Bihar,Siwan,"Chitragupta Nagar, Siwan - BSPCB",08-12-2025 08:00:00,26.2271665,84.3570427,NH3,1,1,1
India,Bihar,Siwan,"Chitragupta Nagar, Siwan - BSPCB",08-12-2025 08:00:00,26.2271665,84.3570427,SO2,3,4,4
India,Bihar,Siwan,"Chitragupta Nagar, Siwan - BSPCB",08-12-2025 08:00:00,26.2271665,84.3570427,OZONE,6,7,6
India,Chandigarh,Chandigarh,"Sector 22, Chandigarh - CPCC",08-12-2025 08:00:00,30.735567,76.775714,PM2.5,78,280,146
India,Chandigarh,Chandigarh,"Sector 22, Chandigarh - CPCC",08-12-2025 08:00:00,30.735567,76.775714,CO,57,101,75
India,Bihar,Muzaffarpur,"Muzaffarpur Collectorate, Muzaffarpur - BSPCB",08-12-2025 08:00:00,26.1209,85.3647,CO,8,30,9
India,Bihar,Muzaffarpur,"Muzaffarpur Collectorate, Muzaffarpur - BSPCB",08-12-2025 08:00:00,26.1209,85.3647,OZONE,8,38,18
India,Bihar,Patna,"DRM Office Danapur, Patna - BSPCB",08-12-2025 08:00:00,25.586562,85.043586,PM2.5,98,308,214
India,Bihar,Patna,"DRM Office Danapur, Patna - BSPCB",08-12-2025 08:00:00,25.586562,85.043586,OZONE,7,60,7
India,Bihar,Patna,"Govt. High School Shikarpur, Patna - BSPCB",08-12-2025 08:00:00,25.592539,85.227158,NH3,4,5,5
India,Bihar,Patna,"Govt. High School Shikarpur, Patna - BSPCB",08-12-2025 08:00:00,25.592539,85.227158,SO2,9,14,12
India,Bihar,Patna,"IGSC Planetarium Complex, Patna - BSPCB",08-12-2025 08:00:00,25.610369,85.132568,CO,34,57,55
India,Bihar,Patna,"Muradpur, Patna - BSPCB",08-12-2025 08:00:00,25.619651,85.147382,NO2,4,12,6
India,Bihar,Patna,"Muradpur, Patna - BSPCB",08-12-2025 08:00:00,25.619651,85.147382,OZONE,5,24,6
India,Chandigarh,Chandigarh,"Sector 22, Chandigarh - CPCC",08-12-2025 08:00:00,30.735567,76.775714,OZONE,8,103,37
India,Chandigarh,Chandigarh,"Sector-25, Chandigarh - CPCC",08-12-2025 08:00:00,30.751462,76.762879,NO2,18,35,25
India,Chandigarh,Chandigarh,"Sector-25, Chandigarh - CPCC",08-12-2025 08:00:00,30.751462,76.762879,NH3,2,3,3
India,Chandigarh,Chandigarh,"Sector-25, Chandigarh - CPCC",08-12-2025 08:00:00,30.751462,76.762879,OZONE,1,74,16
India,Chandigarh,Chandigarh,"Sector-53, Chandigarh - CPCC",08-12-2025 08:00:00,30.719859,76.738637,PM10,85,133,106
India,Chhattisgarh,Bhilai,"32Bungalows, Bhilai - CECB",08-12-2025 08:00:00,21.194815,81.314770,PM2.5,18,52,35
India,Chhattisgarh,Bhilai,"32Bungalows, Bhilai - CECB",08-12-2025 08:00:00,21.194815,81.314770,SO2,5,99,18
India,Chhattisgarh,Bhilai,"32Bungalows, Bhilai - CECB",08-12-2025 08:00:00,21.194815,81.314770,CO,20,106,57
India,Chhattisgarh,Bhilai,"Civic Center, Bhilai - Bhilai Steel Plant",08-12-2025 08:00:00,21.185571,81.343175,PM10,29,123,73
India,Delhi,Delhi,"Ashok Vihar, Delhi - DPCC",08-12-2025 08:00:00,28.695381,77.181665,PM10,179,356,250
India,Delhi,Delhi,"Ashok Vihar, Delhi - DPCC",08-12-2025 08:00:00,28.695381,77.181665,SO2,10,28,18
India,Delhi,Delhi,"Ashok Vihar, Delhi - DPCC",08-12-2025 08:00:00,28.695381,77.181665,OZONE,10,117,29
India,Delhi,Delhi,"Aya Nagar, Delhi - IMD",08-12-2025 08:00:00,28.4706914,77.1099364,NO2,5,50,20
India,Delhi,Delhi,"Bawana, Delhi - DPCC",08-12-2025 08:00:00,28.776200,77.051074,NO2,13,72,32
India,Delhi,Delhi,"Bawana, Delhi - DPCC",08-12-2025 08:00:00,28.776200,77.051074,CO,56,102,63
India,Delhi,Delhi,"Burari Crossing, Delhi - IMD",08-12-2025 08:00:00,28.7256504,77.2011573,PM2.5,225,380,327
India,Chhattisgarh,Bilaspur,"Mangala, Bilaspur - NTPC",08-12-2025 08:00:00,22.08815,82.13737,PM10,45,110,73
India,Chhattisgarh,Chhal,"Nawapara SECL Colony, Chhal - CECB",08-12-2025 08:00:00,22.118125,83.140608,PM10,40,100,61
India,Chhattisgarh,Korba,"Rampur, Korba - CECB",08-12-2025 08:00:00,22.368195,82.746431,SO2,11,18,14
India,Chhattisgarh,Korba,"Rampur, Korba - CECB",08-12-2025 08:00:00,22.368195,82.746431,CO,22,36,31
India,Chhattisgarh,Korba,"Urja Nagar, Korba - CECB",08-12-2025 08:00:00,22.348441,82.549611,PM10,92,93,93
India,Chhattisgarh,Korba,"Urja Nagar, Korba - CECB",08-12-2025 08:00:00,22.348441,82.549611,NO2,43,63,50
India,Chhattisgarh,Kunjemura,"OP Jindal School, Kunjemura - CECB",08-12-2025 08:00:00,22.126650,83.483212,SO2,5,54,18
India,Chhattisgarh,Kunjemura,"OP Jindal School, Kunjemura - CECB",08-12-2025 08:00:00,22.126650,83.483212,OZONE,1,59,1
India,Chhattisgarh,Milupara,"Govt. Higher Secondary School, Milupara - CECB",08-12-2025 08:00:00,22.1910172,83.5197009,PM2.5,33,80,57
India,Chhattisgarh,Milupara,"Govt. Higher Secondary School, Milupara - CECB",08-12-2025 08:00:00,22.1910172,83.5197009,NO2,22,75,38
India,Chhattisgarh,Milupara,"Govt. Higher Secondary School, Milupara - CECB",08-12-2025 08:00:00,22.1910172,83.5197009,CO,18,46,30
India,Chhattisgarh,Raipur,"Krishak Nagar, Raipur - CECB",08-12-2025 08:00:00,21.237755,81.705301,OZONE,NA,NA,NA
India,Chhattisgarh,Raipur,"Siltara Phase-II, Raipur - CECB",08-12-2025 08:00:00,21.371751,81.664929,NH3,3,3,3
India,Delhi,Delhi,"Alipur, Delhi - DPCC",08-12-2025 08:00:00,28.815329,77.153010,SO2,7,26,15
India,Bihar,Patna,"Samanpura, Patna - BSPCB",08-12-2025 08:00:00,25.596727,85.085624,NO2,20,22,21
India,Bihar,Purnia,"Mariam Nagar, Purnia - BSPCB",08-12-2025 08:00:00,25.366336,87.117468,PM2.5,38,160,102
India,Bihar,Purnia,"Mariam Nagar, Purnia - BSPCB",08-12-2025 08:00:00,25.366336,87.117468,NO2,5,6,6
India,Bihar,Purnia,"Mariam Nagar, Purnia - BSPCB",08-12-2025 08:00:00,25.366336,87.117468,NH3,3,3,3
India,Bihar,Muzaffarpur,"Buddha Colony, Muzaffarpur - BSPCB",08-12-2025 08:00:00,26.11442,85.39813,NO2,21,66,36
India,Bihar,Muzaffarpur,"MIT-Daudpur Kothi, Muzaffarpur - BSPCB",08-12-2025 08:00:00,26.1403345,85.3650192,PM2.5,NA,NA,NA
India,Delhi,Delhi,"Narela, Delhi - DPCC",08-12-2025 08:00:00,28.822836,77.101981,CO,41,76,49
India,Delhi,Delhi,"Nehru Nagar, Delhi - DPCC",08-12-2025 08:00:00,28.567890,77.250515,NH3,16,33,21
India,Delhi,Delhi,"Nehru Nagar, Delhi - DPCC",08-12-2025 08:00:00,28.567890,77.250515,CO,106,115,109
India,Delhi,Delhi,"North Campus, DU, Delhi - IMD",08-12-2025 08:00:00,28.6573814,77.1585447,PM10,159,283,207
India,Delhi,Delhi,"North Campus, DU, Delhi - IMD",08-12-2025 08:00:00,28.6573814,77.1585447,CO,55,117,84
India,Delhi,Delhi,"Okhla Phase-2, Delhi - DPCC",08-12-2025 08:00:00,28.530785,77.271255,SO2,6,19,11
India,Delhi,Delhi,"Okhla Phase-2, Delhi - DPCC",08-12-2025 08:00:00,28.530785,77.271255,CO,84,118,105
India,Gujarat,Ahmedabad,"Chandkheda, Ahmedabad - IITM",08-12-2025 08:00:00,23.107969,72.574648,OZONE,21,124,55
India,Gujarat,Ahmedabad,"Gyaspur, Ahmedabad - IITM",08-12-2025 08:00:00,22.977134,72.553024,NH3,3,47,12
India,Gujarat,Ahmedabad,"Maninagar, Ahmedabad - GPCB",08-12-2025 08:00:00,23.002657,72.591912,PM10,76,259,113
India,Gujarat,Ahmedabad,"Raikhad, Ahmedabad - IITM",08-12-2025 08:00:00,23.020509,72.579261,PM2.5,84,171,114
India,Gujarat,Ahmedabad,"Raikhad, Ahmedabad - IITM",08-12-2025 08:00:00,23.020509,72.579261,NO2,25,134,61
India,Gujarat,Ahmedabad,"Rakhial, Ahmedabad - IITM",08-12-2025 08:00:00,23.016834,72.625775,PM2.5,2,17,10
India,Delhi,Delhi,"Chandni Chowk, Delhi - IITM",08-12-2025 08:00:00,28.656756,77.227234,CO,48,74,51
India,Delhi,Delhi,"DTU, Delhi - CPCB",08-12-2025 08:00:00,28.7500499,77.1112615,OZONE,15,17,16
India,Delhi,Delhi,"Dr. Karni Singh Shooting Range, Delhi - DPCC",08-12-2025 08:00:00,28.498571,77.264840,NH3,8,11,10
India,Delhi,Delhi,"Dr. Karni Singh Shooting Range, Delhi - DPCC",08-12-2025 08:00:00,28.498571,77.264840,SO2,12,23,16
India,Delhi,Delhi,"Dwarka-Sector 8, Delhi - DPCC ",08-12-2025 08:00:00,28.5710274,77.0719006,PM10,164,321,215
India,Delhi,Delhi,"Sri Aurobindo Marg, Delhi - DPCC",08-12-2025 08:00:00,28.531346,77.190156,NH3,5,8,7
India,Delhi,Delhi,"Sri Aurobindo Marg, Delhi - DPCC",08-12-2025 08:00:00,28.531346,77.190156,OZONE,3,105,8
India,Delhi,Delhi,"Vivek Vihar, Delhi - DPCC",08-12-2025 08:00:00,28.672342,77.315260,NH3,12,14,13
India,Delhi,Delhi,"Wazirpur, Delhi - DPCC",08-12-2025 08:00:00,28.699793,77.165453,OZONE,1,170,22
India,Gujarat,Ahmedabad,"Chandkheda, Ahmedabad - IITM",08-12-2025 08:00:00,23.107969,72.574648,NO2,19,130,51
India,Delhi,Delhi,"Mandir Marg, Delhi - DPCC",08-12-2025 08:00:00,28.636429,77.201067,PM10,149,368,211
India,Delhi,Delhi,"Mundka, Delhi - DPCC",08-12-2025 08:00:00,28.684678,77.076574,SO2,5,20,12
India,Delhi,Delhi,"Najafgarh, Delhi - DPCC",08-12-2025 08:00:00,28.570173,76.933762,PM10,131,188,160
India,Delhi,Delhi,"Najafgarh, Delhi - DPCC",08-12-2025 08:00:00,28.570173,76.933762,NO2,62,82,73
India,Delhi,Delhi,"Najafgarh, Delhi - DPCC",08-12-2025 08:00:00,28.570173,76.933762,SO2,1,31,20
India,Delhi,Delhi,"Narela, Delhi - DPCC",08-12-2025 08:00:00,28.822836,77.101981,PM2.5,263,488,345
India,Delhi,Delhi,"IHBAS, Dilshad Garden, Delhi - CPCB",08-12-2025 08:00:00,28.6811736,77.3025234,PM2.5,149,370,316
India,Delhi,Delhi,"IHBAS, Dilshad Garden, Delhi - CPCB",08-12-2025 08:00:00,28.6811736,77.3025234,SO2,15,23,19
India,Delhi,Delhi,"IIT Delhi, Delhi - IITM",08-12-2025 08:00:00,28.542460,77.191651,PM2.5,196,339,277
India,Delhi,Delhi,"IIT Delhi, Delhi - IITM",08-12-2025 08:00:00,28.542460,77.191651,CO,15,56,40
India,Delhi,Delhi,"ITO, Delhi - CPCB",08-12-2025 08:00:00,28.628624,77.241060,PM2.5,260,368,326
India,Delhi,Delhi,"ITO, Delhi - CPCB",08-12-2025 08:00:00,28.628624,77.241060,CO,44,113,65
India,Delhi,Delhi,"R K Puram, Delhi - DPCC",08-12-2025 08:00:00,28.563262,77.186937,OZONE,17,185,22
India,Delhi,Delhi,"Shadipur, Delhi - CPCB",08-12-2025 08:00:00,28.6514781,77.1473105,CO,28,105,57
India,Delhi,Delhi,"Sirifort, Delhi - CPCB",08-12-2025 08:00:00,28.5504249,77.2159377,PM2.5,279,360,330
India,Delhi,Delhi,"Sonia Vihar, Delhi - DPCC",08-12-2025 08:00:00,28.710508,77.249485,PM2.5,302,375,342
India,Delhi,Delhi,"Pusa, Delhi - IMD",08-12-2025 08:00:00,28.636110,77.173332,PM2.5,218,377,319
India,Delhi,Delhi,"R K Puram, Delhi - DPCC",08-12-2025 08:00:00,28.563262,77.186937,PM10,155,295,209
India,Delhi,Delhi,"R K Puram, Delhi - DPCC",08-12-2025 08:00:00,28.563262,77.186937,NH3,6,9,7
India,Delhi,Delhi,"R K Puram, Delhi - DPCC",08-12-2025 08:00:00,28.563262,77.186937,SO2,1,6,3
India,Delhi,Delhi,"Jahangirpuri, Delhi - DPCC",08-12-2025 08:00:00,28.732820,77.170633,SO2,20,69,36
India,Gujarat,Ahmedabad,"Rakhial, Ahmedabad - IITM",08-12-2025 08:00:00,23.016834,72.625775,SO2,19,49,29
India,Gujarat,Ahmedabad,"Rakhial, Ahmedabad - IITM",08-12-2025 08:00:00,23.016834,72.625775,CO,20,102,33
India,Gujarat,Ahmedabad,"Rakhial, Ahmedabad - IITM",08-12-2025 08:00:00,23.016834,72.625775,OZONE,16,81,37
India,Gujarat,Ahmedabad,"SAC ISRO Bopal, Ahmedabad - IITM",08-12-2025 08:00:00,23.041137,72.456691,NO2,22,56,39
India,Gujarat,Ahmedabad,"SAC ISRO Satellite, Ahmedabad - IITM",08-12-2025 08:00:00,23.023389,72.515201,PM10,53,109,77
India,Gujarat,Ahmedabad,"SAC ISRO Satellite, Ahmedabad - IITM",08-12-2025 08:00:00,23.023389,72.515201,CO,14,85,44
India,Gujarat,Ahmedabad,"SVPI Airport Hansol, Ahmedabad - IITM",08-12-2025 08:00:00,23.076793,72.627874,PM2.5,39,79,59
India,Gujarat,Ahmedabad,"SVPI Airport Hansol, Ahmedabad - IITM",08-12-2025 08:00:00,23.076793,72.627874,PM10,31,123,78
India,Gujarat,Ahmedabad,"SVPI Airport Hansol, Ahmedabad - IITM",08-12-2025 08:00:00,23.076793,72.627874,NO2,21,112,54
India,Gujarat,Ahmedabad,"SVPI Airport Hansol, Ahmedabad - IITM",08-12-2025 08:00:00,23.076793,72.627874,SO2,5,11,8
India,Gujarat,Ahmedabad,"SVPI Airport Hansol, Ahmedabad - IITM",08-12-2025 08:00:00,23.076793,72.627874,CO,44,92,55
India,Haryana,Kurukshetra,"Sector-7, Kurukshetra - HSPCB",08-12-2025 08:00:00,29.966942,76.875879,SO2,3,13,7
India,Haryana,Kurukshetra,"Sector-7, Kurukshetra - HSPCB",08-12-2025 08:00:00,29.966942,76.875879,CO,18,43,38
India,Haryana,Mandikhera,"General Hospital, Mandikhera(Nuh) - HSPCB",08-12-2025 08:00:00,27.9002,76.9938,PM2.5,55,99,86
India,Haryana,Mandikhera,"General Hospital, Mandikhera(Nuh) - HSPCB",08-12-2025 08:00:00,27.9002,76.9938,PM10,62,107,95
India,Haryana,Manesar,"Sector-2 IMT, Manesar - HSPCB",08-12-2025 08:00:00,28.360699,76.936090,PM2.5,129,322,236
India,Haryana,Manesar,"Sector-2 IMT, Manesar - HSPCB",08-12-2025 08:00:00,28.360699,76.936090,NO2,40,50,45
India,Haryana,Narnaul,"Shastri Nagar, Narnaul - HSPCB",08-12-2025 08:00:00,28.060249,76.113115,PM2.5,157,307,212
India,Haryana,Narnaul,"Shastri Nagar, Narnaul - HSPCB",08-12-2025 08:00:00,28.060249,76.113115,NO2,76,164,102
India,Haryana,Hisar,"Urban Estate-II, Hisar - HSPCB",08-12-2025 08:00:00,29.140560,75.744941,SO2,7,14,11
India,Haryana,Hisar,"Urban Estate-II, Hisar - HSPCB",08-12-2025 08:00:00,29.140560,75.744941,OZONE,38,93,57
India,Haryana,Jind,"Police Lines, Jind - HSPCB",08-12-2025 08:00:00,29.307814,76.337619,PM10,108,132,121
India,Haryana,Jind,"Police Lines, Jind - HSPCB",08-12-2025 08:00:00,29.307814,76.337619,NO2,35,50,44
India,Haryana,Kaithal,"Rishi Nagar, Kaithal - HSPCB",08-12-2025 08:00:00,29.8006,76.4155,PM2.5,79,144,100
India,Haryana,Karnal,"Sector-12, Karnal - HSPCB",08-12-2025 08:00:00,29.695300,77.002700,NH3,6,7,6
India,Gujarat,Vapi,"Phase-1 GIDC, Vapi - GPCB",08-12-2025 08:00:00,20.362421,72.918013,NO2,3,12,7
India,Haryana,Ambala,"Patti Mehar, Ambala - HSPCB",08-12-2025 08:00:00,30.379589,76.778328,NH3,9,11,10
India,Haryana,Ambala,"Patti Mehar, Ambala - HSPCB",08-12-2025 08:00:00,30.379589,76.778328,SO2,31,32,31
India,Haryana,Ambala,"Patti Mehar, Ambala - HSPCB",08-12-2025 08:00:00,30.379589,76.778328,OZONE,48,52,50
India,Haryana,Bahadurgarh,"Arya Nagar, Bahadurgarh - HSPCB",08-12-2025 08:00:00,28.6701,76.9254,PM2.5,39,385,283
India,Haryana,Bahadurgarh,"Arya Nagar, Bahadurgarh - HSPCB",08-12-2025 08:00:00,28.6701,76.9254,CO,11,52,48
India,Haryana,Gurugram,"NISE Gwal Pahari, Gurugram - IMD",08-12-2025 08:00:00,28.422681,77.148944,PM10,168,404,243
India,Haryana,Gurugram,"NISE Gwal Pahari, Gurugram - IMD",08-12-2025 08:00:00,28.422681,77.148944,OZONE,6,69,12
India,Haryana,Gurugram,"Teri Gram, Gurugram - HSPCB",08-12-2025 08:00:00,28.4275,77.1465,CO,16,68,57
India,Haryana,Gurugram,"Vikas Sadan, Gurugram - HSPCB",08-12-2025 08:00:00,28.4501238,77.0263051,NO2,2,11,6
India,Haryana,Gurugram,"Vikas Sadan, Gurugram - HSPCB",08-12-2025 08:00:00,28.4501238,77.0263051,CO,80,124,108
India,Haryana,Gurugram,"Vikas Sadan, Gurugram - HSPCB",08-12-2025 08:00:00,28.4501238,77.0263051,OZONE,6,43,14
India,Gujarat,Ankleshwar,"GIDC, Ankleshwar - GPCB",08-12-2025 08:00:00,21.613267,73.010555,PM10,85,215,120
India,Gujarat,Ankleshwar,"GIDC, Ankleshwar - GPCB",08-12-2025 08:00:00,21.613267,73.010555,NO2,18,19,19
India,Gujarat,Ankleshwar,"GIDC, Ankleshwar - GPCB",08-12-2025 08:00:00,21.613267,73.010555,NH3,6,6,6
India,Gujarat,Gandhinagar,"IIPHG Lekawada, Gandhinagar - IITM",08-12-2025 08:00:00,23.243639,72.68994,PM10,7,24,13
India,Gujarat,Gandhinagar,"Sector-10, Gandhinagar - GPCB",08-12-2025 08:00:00,23.221714,72.654328,PM2.5,42,75,61
India,Haryana,Ballabgarh,"Nathu Colony, Ballabgarh - HSPCB",08-12-2025 08:00:00,28.3419248,77.319699,CO,21,88,43
India,Haryana,Bhiwani,"H.B. Colony, Bhiwani - HSPCB",08-12-2025 08:00:00,28.806223,76.141105,CO,8,14,12
India,Haryana,Charkhi Dadri,"Mini Secretariat, Charkhi Dadri - HSPCB",08-12-2025 08:00:00,28.593883,76.270653,NO2,9,23,16
India,Haryana,Charkhi Dadri,"Mini Secretariat, Charkhi Dadri - HSPCB",08-12-2025 08:00:00,28.593883,76.270653,CO,8,25,16
India,Haryana,Faridabad,"New Industrial Town, Faridabad - HSPCB",08-12-2025 08:00:00,28.39072,77.30059,PM10,163,171,168
India,Haryana,Faridabad,"Sector 11, Faridabad - HSPCB",08-12-2025 08:00:00,28.376058,77.315741,PM10,93,419,167
India,Haryana,Faridabad,"Sector 11, Faridabad - HSPCB",08-12-2025 08:00:00,28.376058,77.315741,OZONE,14,16,15
India,Haryana,Faridabad,"Sector 30, Faridabad - HSPCB",08-12-2025 08:00:00,28.4417,77.3217,OZONE,17,19,18
India,Haryana,Dharuhera,"Municipal Corporation Office, Dharuhera -  HSPCB",08-12-2025 08:00:00,28.206800,76.799700,NO2,10,35,25
India,Karnataka,Bengaluru,"RVCE-Mailasandra, Bengaluru - KSPCB",08-12-2025 08:00:00,12.921418,77.502466,PM2.5,50,64,53
India,Karnataka,Bengaluru,"RVCE-Mailasandra, Bengaluru - KSPCB",08-12-2025 08:00:00,12.921418,77.502466,PM10,87,143,126
India,Karnataka,Bengaluru,"RVCE-Mailasandra, Bengaluru - KSPCB",08-12-2025 08:00:00,12.921418,77.502466,NH3,4,5,4
India,Karnataka,Bengaluru,"Sanegurava Halli, Bengaluru - KSPCB",08-12-2025 08:00:00,12.990328,77.5431385,PM10,54,57,54
India,Karnataka,Bengaluru,"Shivapura_Peenya, Bengaluru - KSPCB",08-12-2025 08:00:00,13.0246342,77.5080115,CO,NA,NA,NA
India,Karnataka,Bengaluru,"Shivapura_Peenya, Bengaluru - KSPCB",08-12-2025 08:00:00,13.0246342,77.5080115,OZONE,19,20,20
India,Karnataka,Bengaluru,"Silk Board, Bengaluru - KSPCB",08-12-2025 08:00:00,12.917348,77.622813,PM10,90,429,177
India,Karnataka,Bengaluru,"Silk Board, Bengaluru - KSPCB",08-12-2025 08:00:00,12.917348,77.622813,NO2,10,13,12
India,Karnataka,Bengaluru,"Silk Board, Bengaluru - KSPCB",08-12-2025 08:00:00,12.917348,77.622813,SO2,6,11,8
India,Karnataka,Bengaluru,"Silk Board, Bengaluru - KSPCB",08-12-2025 08:00:00,12.917348,77.622813,CO,40,90,54
India,Karnataka,Chamarajanagar,"Urban, Chamarajanagar - KSPCB",08-12-2025 08:00:00,11.55358,76.55521,PM10,29,50,41
India,Karnataka,Bengaluru,"Jayanagar 5th Block, Bengaluru - KSPCB",08-12-2025 08:00:00,12.920984,77.584908,PM10,86,162,110
India,Karnataka,Bengaluru,"Jigani, Bengaluru - KSPCB",08-12-2025 08:00:00,12.7816279,77.6299145,PM10,NA,NA,NA
India,Karnataka,Bengaluru,"Jigani, Bengaluru - KSPCB",08-12-2025 08:00:00,12.7816279,77.6299145,SO2,16,18,17
India,Karnataka,Bengaluru,"Jigani, Bengaluru - KSPCB",08-12-2025 08:00:00,12.7816279,77.6299145,OZONE,23,25,24
India,Karnataka,Bengaluru,"Kasturi Nagar, Bengaluru - KSPCB",08-12-2025 08:00:00,13.003872,77.664217,PM2.5,59,62,60
India,Karnataka,Bengaluru,"Peenya, Bengaluru - CPCB",08-12-2025 08:00:00,13.0270199,77.494094,PM10,49,59,52
India,Karnataka,Bengaluru,"Peenya, Bengaluru - CPCB",08-12-2025 08:00:00,13.0270199,77.494094,SO2,5,13,8
India,Haryana,Palwal,"Shyam Nagar, Palwal - HSPCB",08-12-2025 08:00:00,28.1485564,77.3320667,PM2.5,78,122,94
India,Haryana,Palwal,"Shyam Nagar, Palwal - HSPCB",08-12-2025 08:00:00,28.1485564,77.3320667,SO2,12,13,13
India,Haryana,Panchgaon,"Amity University, Panchgaon - IITM",08-12-2025 08:00:00,28.3153,76.9143,NO2,40,120,77
India,Haryana,Panchgaon,"Amity University, Panchgaon - IITM",08-12-2025 08:00:00,28.3153,76.9143,SO2,1,8,4
India,Haryana,Panipat,"Sector-18, Panipat - HSPCB",08-12-2025 08:00:00,29.432304,76.972765,NO2,31,32,31
India,Karnataka,Madikeri,"Stuart Hill, Madikeri - KSPCB",08-12-2025 08:00:00,12.415911,75.735050,SO2,7,7,7
India,Karnataka,Mangalore,"Kadri, Mangalore - KSPCB",08-12-2025 08:00:00,12.889250,74.853000,PM10,48,114,85
India,Karnataka,Mysuru,"Hebbal 1st Stage, Mysuru - KSPCB",08-12-2025 08:00:00,12.21041,76.37376,NO2,17,35,21
India,Karnataka,Mysuru,"Hebbal 1st Stage, Mysuru - KSPCB",08-12-2025 08:00:00,12.21041,76.37376,OZONE,5,67,7
India,Karnataka,Bengaluru,"Hebbal, Bengaluru - KSPCB",08-12-2025 08:00:00,13.029152,77.585901,PM2.5,58,196,107
India,Karnataka,Bengaluru,"Hebbal, Bengaluru - KSPCB",08-12-2025 08:00:00,13.029152,77.585901,NO2,NA,NA,NA
India,Karnataka,Bengaluru,"Hebbal, Bengaluru - KSPCB",08-12-2025 08:00:00,13.029152,77.585901,SO2,5,11,7
India,Karnataka,Bengaluru,"Hombegowda Nagar, Bengaluru - KSPCB",08-12-2025 08:00:00,12.938539,77.590100,PM2.5,38,80,61
India,Karnataka,Bengaluru,"Hombegowda Nagar, Bengaluru - KSPCB",08-12-2025 08:00:00,12.938539,77.590100,PM10,68,120,99
India,Haryana,Sirsa,"F-Block, Sirsa - HSPCB",08-12-2025 08:00:00,29.536400,75.015800,PM10,73,123,104
India,Haryana,Sonipat,"Murthal, Sonipat - HSPCB",08-12-2025 08:00:00,29.027200,77.062100,NH3,16,42,24
India,Haryana,Yamuna Nagar,"Gobind Pura, Yamuna Nagar - HSPCB",08-12-2025 08:00:00,30.1480566,77.2893471,CO,24,100,71
India,Karnataka,Chikkamagaluru,"Kalyana Nagara, Chikkamagaluru - KSPCB",08-12-2025 08:00:00,13.328028,75.797056,PM10,20,30,25
India,Karnataka,Dharwad,"Kalabhavan, Dharwad - KSPCB",08-12-2025 08:00:00,15.459706,75.008381,CO,66,96,74
India,Karnataka,Hubballi,"Lingaraj Nagar, Hubballi - KSPCB",08-12-2025 08:00:00,15.3714823,75.1160168,PM10,55,62,60
India,Jharkhand,Dhanbad,"Sardar Patel Nagar, Dhanbad - JSPCB",08-12-2025 08:00:00,23.80569,86.44268,SO2,10,24,19
India,Jharkhand,Dhanbad,"Sardar Patel Nagar, Dhanbad - JSPCB",08-12-2025 08:00:00,23.80569,86.44268,CO,2,17,7
India,Karnataka,Bagalkot,"Vidayagiri, Bagalkot - KSPCB",08-12-2025 08:00:00,16.172806,75.659694,NH3,1,2,1
India,Karnataka,Kalaburagi,"Lal Bahadur Shastri Nagar, Kalaburagi - KSPCB",08-12-2025 08:00:00,17.321993,76.822628,NH3,NA,NA,NA
India,Karnataka,Kalaburagi,"Lal Bahadur Shastri Nagar, Kalaburagi - KSPCB",08-12-2025 08:00:00,17.321993,76.822628,SO2,NA,NA,NA
India,Karnataka,Kalaburagi,"Lal Bahadur Shastri Nagar, Kalaburagi - KSPCB",08-12-2025 08:00:00,17.321993,76.822628,CO,NA,NA,NA
India,Karnataka,Kalaburagi,"Mahatma Basaveswar Colony, Kalaburgi - KSPCB",08-12-2025 08:00:00,17.336318,76.847397,OZONE,14,21,15
India,Karnataka,Yadgir,"Collector Office, Yadgir - KSPCB",08-12-2025 08:00:00,16.7602,77.1428,PM2.5,89,213,120
India,Kerala,Kannur,"Thavakkara, Kannur - Kerala PCB",08-12-2025 08:00:00,11.875000,75.373200,NO2,14,17,16
India,Kerala,Kollam,"Polayathode, Kollam - Kerala PCB",08-12-2025 08:00:00,8.8787,76.6073,NH3,1,1,1
India,Kerala,Kollam,"Polayathode, Kollam - Kerala PCB",08-12-2025 08:00:00,8.8787,76.6073,SO2,2,3,2
India,Kerala,Kollam,"Polayathode, Kollam - Kerala PCB",08-12-2025 08:00:00,8.8787,76.6073,OZONE,30,37,31
India,Kerala,Thiruvananthapuram,"Kariavattom, Thiruvananthapuram - Kerala PCB",08-12-2025 08:00:00,8.563700,76.886500,SO2,NA,NA,NA
India,Kerala,Thiruvananthapuram,"Plammoodu, Thiruvananthapuram - Kerala PCB",08-12-2025 08:00:00,8.5149093,76.9435879,PM10,23,70,45
India,Kerala,Thrissur,"Corporation Ground, Thrissur - Kerala PCB",08-12-2025 08:00:00,10.532400,76.215900,NO2,7,8,8
India,Madhya Pradesh,Bhopal,"Idgah Hills, Bhopal - MPPCB",08-12-2025 08:00:00,23.264759,77.381568,PM2.5,67,344,190
India,Madhya Pradesh,Bhopal,"Idgah Hills, Bhopal - MPPCB",08-12-2025 08:00:00,23.264759,77.381568,CO,20,67,41
India,Madhya Pradesh,Bhopal,"Paryavaran Parisar, Bhopal - MPPCB",08-12-2025 08:00:00,23.210494,77.425409,PM10,75,422,213
India,Madhya Pradesh,Bhopal,"Paryavaran Parisar, Bhopal - MPPCB",08-12-2025 08:00:00,23.210494,77.425409,NO2,41,102,70
India,Madhya Pradesh,Bhopal,"Paryavaran Parisar, Bhopal - MPPCB",08-12-2025 08:00:00,23.210494,77.425409,SO2,2,18,10
India,Madhya Pradesh,Damoh,"Shrivastav Colony, Damoh - MPPCB",08-12-2025 08:00:00,23.81748678,79.446246,PM10,22,108,40
India,Madhya Pradesh,Damoh,"Shrivastav Colony, Damoh - MPPCB",08-12-2025 08:00:00,23.81748678,79.446246,SO2,5,29,10
India,Madhya Pradesh,Dewas,"Bhopal Chauraha, Dewas - MPPCB",08-12-2025 08:00:00,22.9682591,76.064118,PM2.5,48,167,75
India,Madhya Pradesh,Dewas,"Bhopal Chauraha, Dewas - MPPCB",08-12-2025 08:00:00,22.9682591,76.064118,NH3,2,3,2
India,Madhya Pradesh,Gwalior,"City Center, Gwalior - MPPCB",08-12-2025 08:00:00,26.203442,78.193251,NO2,17,121,53
India,Madhya Pradesh,Gwalior,"City Center, Gwalior - MPPCB",08-12-2025 08:00:00,26.203442,78.193251,OZONE,56,71,61
India,Madhya Pradesh,Gwalior,"Maharaj Bada, Gwalior - MPPCB",08-12-2025 08:00:00,26.200388,78.147714,NO2,31,146,68
India,Madhya Pradesh,Indore,"Airport Area, Indore - IMC",08-12-2025 08:00:00,22.7289,75.8076,NO2,2,2,2
India,Bihar,Arrah,"New DM Office, Arrah - BSPCB",08-12-2025 08:00:00,25.5626095,84.663264,OZONE,5,29,9
India,Bihar,Aurangabad,"Gurdeo Nagar, Aurangabad - BSPCB",08-12-2025 08:00:00,24.75746,84.366208,CO,101,103,102
India,Bihar,Begusarai,"Lohiyanagar, Begusarai - BSPCB",08-12-2025 08:00:00,25.42742023,86.13886079,PM2.5,10,36,21
India,Bihar,Begusarai,"Lohiyanagar, Begusarai - BSPCB",08-12-2025 08:00:00,25.42742023,86.13886079,PM10,4,33,18
India,Bihar,Begusarai,"Lohiyanagar, Begusarai - BSPCB",08-12-2025 08:00:00,25.42742023,86.13886079,SO2,1,6,3
India,Bihar,Bettiah,"Kamalnath Nagar, Bettiah - BSPCB",08-12-2025 08:00:00,26.80365,84.51954,NH3,1,1,1
India,Bihar,Bhagalpur,"DM Office_Kachari Chowk, Bhagalpur - BSPCB",08-12-2025 08:00:00,25.251013,86.989001,NO2,6,12,9
India,Bihar,Bihar Sharif,"D M Colony, Bihar Sharif - BSPCB",08-12-2025 08:00:00,25.204762,85.514960,NO2,9,10,9
India,Bihar,Buxar,"Charitra Van, Buxar - BSPCB",08-12-2025 08:00:00,25.567520,83.966379,PM2.5,117,308,186
India,Bihar,Buxar,"Charitra Van, Buxar - BSPCB",08-12-2025 08:00:00,25.567520,83.966379,NH3,3,3,3
India,Bihar,Chhapra,"Darshan Nagar, Chhapra - BSPCB",08-12-2025 08:00:00,25.7808257,84.7446768,NO2,2,3,3
India,Bihar,Chhapra,"Darshan Nagar, Chhapra - BSPCB",08-12-2025 08:00:00,25.7808257,84.7446768,NH3,5,8,7
India,Assam,Guwahati,"LGBI Airport, Guwahati - PCBA",08-12-2025 08:00:00,26.10887,91.589544,OZONE,10,13,12
India,Assam,Guwahati,"Railway Colony, Guwahati - PCBA",08-12-2025 08:00:00,26.181742,91.78063,PM2.5,64,347,201
India,Assam,Nagaon,"Christianpatty, Nagaon - PCBA",08-12-2025 08:00:00,26.349082,92.68449,PM2.5,63,161,123
India,Assam,Nagaon,"Christianpatty, Nagaon - PCBA",08-12-2025 08:00:00,26.349082,92.68449,SO2,10,14,13
India,Assam,Nagaon,"Christianpatty, Nagaon - PCBA",08-12-2025 08:00:00,26.349082,92.68449,CO,12,24,22
India,Andhra_Pradesh,Visakhapatnam,"GVM Corporation, Visakhapatnam - APPCB",08-12-2025 08:00:00,17.72,83.3,CO,20,68,43
India,Assam,Guwahati,"IITG, Guwahati - PCBA",08-12-2025 08:00:00,26.2028636,91.70046436,NO2,1,8,4
India,Assam,Guwahati,"IITG, Guwahati - PCBA",08-12-2025 08:00:00,26.2028636,91.70046436,OZONE,NA,NA,NA
India,Assam,Guwahati,"LGBI Airport, Guwahati - PCBA",08-12-2025 08:00:00,26.10887,91.589544,PM10,65,126,101
India,Andhra_Pradesh,Vijayawada,"HB Colony, Vijayawada - APPCB",08-12-2025 08:00:00,16.536107,80.594233,SO2,16,16,16
India,Andhra_Pradesh,Vijayawada,"Kanuru, Vijayawada - APPCB",08-12-2025 08:00:00,16.486692,80.699436,SO2,NA,NA,NA
India,Andhra_Pradesh,Vijayawada,"Rajiv Gandhi Park, Vijayawada - APPCB",08-12-2025 08:00:00,16.509717,80.612222,PM10,66,87,76
India,Andhra_Pradesh,Vijayawada,"Rajiv Nagar, Vijayawada - APPCB",08-12-2025 08:00:00,16.554731,80.649110,NO2,6,6,6
India,Assam,Silchar,"Tarapur, Silchar - PCBA",08-12-2025 08:00:00,24.82827,92.79525,PM2.5,36,80,54
India,Assam,Silchar,"Tarapur, Silchar - PCBA",08-12-2025 08:00:00,24.82827,92.79525,NO2,16,24,20
India,Assam,Sivasagar,"Girls College, Sivasagar - PCBA",08-12-2025 08:00:00,26.987634,94.636574,PM10,38,88,58
India,Assam,Sivasagar,"Girls College, Sivasagar - PCBA",08-12-2025 08:00:00,26.987634,94.636574,OZONE,4,88,5
India,Andaman and Nicobar,Sri Vijaya Puram,"Police Line, Sri Vijaya Puram - ANPCC",08-12-2025 08:00:00,11.654054,92.734055,NH3,NA,NA,NA
India,Andhra_Pradesh,Kadapa,"Yerramukkapalli, Kadapa - APPCB",08-12-2025 08:00:00,14.465052,78.824187,NO2,21,21,21
India,Andhra_Pradesh,Rajamahendravaram,"Anand Kala Kshetram, Rajamahendravaram - APPCB",08-12-2025 08:00:00,16.9872867,81.7363176,NH3,3,5,4
India,Andhra_Pradesh,Tirupati,"Vaikuntapuram, Tirupati - APPCB",08-12-2025 08:00:00,13.615387,79.409230,NH3,3,4,4
India,Andaman and Nicobar,Sri Vijaya Puram,"Police Line, Sri Vijaya Puram - ANPCC",08-12-2025 08:00:00,11.654054,92.734055,NO2,NA,NA,NA
India,Bihar,Gaya,"Kareemganj, Gaya - BSPCB",08-12-2025 08:00:00,24.792403,84.992416,PM10,129,358,204
India,Chhattisgarh,Raipur,"Siltara Phase-II, Raipur - CECB",08-12-2025 08:00:00,21.371751,81.664929,PM2.5,26,69,40
India,Chhattisgarh,Raipur,"Siltara Phase-II, Raipur - CECB",08-12-2025 08:00:00,21.371751,81.664929,CO,34,36,35
India,Chhattisgarh,Tumidih,"OP Jindal Industrial Park, Tumidih - CECB",08-12-2025 08:00:00,22.06631475,83.33820077,NH3,NA,NA,NA
India,Chhattisgarh,Tumidih,"OP Jindal Industrial Park, Tumidih - CECB",08-12-2025 08:00:00,22.06631475,83.33820077,SO2,NA,NA,NA
India,Chhattisgarh,Tumidih,"OP Jindal Industrial Park, Tumidih - CECB",08-12-2025 08:00:00,22.06631475,83.33820077,CO,NA,NA,NA
India,Chhattisgarh,Tumidih,"OP Jindal Industrial Park, Tumidih - CECB",08-12-2025 08:00:00,22.06631475,83.33820077,OZONE,NA,NA,NA
India,Delhi,Delhi,"Anand Vihar, Delhi - DPCC",08-12-2025 08:00:00,28.647622,77.3158090,PM2.5,306,407,354
India,Delhi,Delhi,"Anand Vihar, Delhi - DPCC",08-12-2025 08:00:00,28.647622,77.3158090,PM10,183,410,284
India,Bihar,Saharsa,"Police Line, Saharsa - BSPCB",08-12-2025 08:00:00,25.892357,86.590325,CO,20,44,32
India,Bihar,Saharsa,"Police Line, Saharsa - BSPCB",08-12-2025 08:00:00,25.892357,86.590325,OZONE,9,14,10
India,Bihar,Samastipur,"DM Office_Kasipur, Samastipur - BSPCB",08-12-2025 08:00:00,25.859655,85.77944,NO2,4,10,8
India,Bihar,Samastipur,"DM Office_Kasipur, Samastipur - BSPCB",08-12-2025 08:00:00,25.859655,85.77944,NH3,1,1,1
India,Bihar,Samastipur,"DM Office_Kasipur, Samastipur - BSPCB",08-12-2025 08:00:00,25.859655,85.77944,OZONE,7,9,8
India,Bihar,Siwan,"Chitragupta Nagar, Siwan - BSPCB",08-12-2025 08:00:00,26.2271665,84.3570427,CO,28,34,29
India,Chandigarh,Chandigarh,"Sector 22, Chandigarh - CPCC",08-12-2025 08:00:00,30.735567,76.775714,SO2,7,26,11
India,Bihar,Patna,"Rajbansi Nagar, Patna - BSPCB",08-12-2025 08:00:00,25.599486,85.113666,PM10,97,127,114
India,Bihar,Patna,"Rajbansi Nagar, Patna - BSPCB",08-12-2025 08:00:00,25.599486,85.113666,NO2,22,130,68
India,Bihar,Patna,"Rajbansi Nagar, Patna - BSPCB",08-12-2025 08:00:00,25.599486,85.113666,SO2,6,8,7
India,Bihar,Patna,"Samanpura, Patna - BSPCB",08-12-2025 08:00:00,25.596727,85.085624,PM2.5,148,332,271
India,Bihar,Patna,"Samanpura, Patna - BSPCB",08-12-2025 08:00:00,25.596727,85.085624,NH3,5,5,5
India,Bihar,Purnia,"Mariam Nagar, Purnia - BSPCB",08-12-2025 08:00:00,25.366336,87.117468,SO2,15,17,16
India,Bihar,Purnia,"Mariam Nagar, Purnia - BSPCB",08-12-2025 08:00:00,25.366336,87.117468,OZONE,21,52,22
India,Bihar,Saharsa,"Police Line, Saharsa - BSPCB",08-12-2025 08:00:00,25.892357,86.590325,NO2,6,7,7
India,Bihar,Motihari,"Gandak Colony, Motihari - BSPCB",08-12-2025 08:00:00,26.63086,84.90051,OZONE,3,5,3
India,Bihar,Muzaffarpur,"Buddha Colony, Muzaffarpur - BSPCB",08-12-2025 08:00:00,26.11442,85.39813,NH3,5,13,10
India,Bihar,Muzaffarpur,"Buddha Colony, Muzaffarpur - BSPCB",08-12-2025 08:00:00,26.11442,85.39813,SO2,5,12,8
India,Bihar,Muzaffarpur,"Buddha Colony, Muzaffarpur - BSPCB",08-12-2025 08:00:00,26.11442,85.39813,OZONE,3,199,16
India,Bihar,Muzaffarpur,"MIT-Daudpur Kothi, Muzaffarpur - BSPCB",08-12-2025 08:00:00,26.1403345,85.3650192,PM10,NA,NA,NA
India,Bihar,Muzaffarpur,"Muzaffarpur Collectorate, Muzaffarpur - BSPCB",08-12-2025 08:00:00,26.1209,85.3647,PM2.5,75,103,88
India,Chandigarh,Chandigarh,"Sector-25, Chandigarh - CPCC",08-12-2025 08:00:00,30.751462,76.762879,SO2,5,19,10
India,Chandigarh,Chandigarh,"Sector-53, Chandigarh - CPCC",08-12-2025 08:00:00,30.719859,76.738637,SO2,8,14,11
India,Chhattisgarh,Bhilai,"32Bungalows, Bhilai - CECB",08-12-2025 08:00:00,21.194815,81.314770,PM10,34,110,75
India,Chhattisgarh,Bhilai,"Civic Center, Bhilai - Bhilai Steel Plant",08-12-2025 08:00:00,21.185571,81.343175,NH3,4,6,5
India,Chhattisgarh,Bhilai,"Hathkhoj, Bhilai - CECB",08-12-2025 08:00:00,21.224231,81.408350,PM2.5,19,248,49
India,Chhattisgarh,Bhilai,"Hathkhoj, Bhilai - CECB",08-12-2025 08:00:00,21.224231,81.408350,NO2,22,79,42
India,Chhattisgarh,Chhal,"Nawapara SECL Colony, Chhal - CECB",08-12-2025 08:00:00,22.118125,83.140608,SO2,7,41,14
India,Chhattisgarh,Chhal,"Nawapara SECL Colony, Chhal - CECB",08-12-2025 08:00:00,22.118125,83.140608,CO,26,64,39
India,Chhattisgarh,Chhal,"Nawapara SECL Colony, Chhal - CECB",08-12-2025 08:00:00,22.118125,83.140608,OZONE,2,112,10
India,Chhattisgarh,Korba,"Rampur, Korba - CECB",08-12-2025 08:00:00,22.368195,82.746431,NO2,18,28,22
India,Chhattisgarh,Korba,"Urja Nagar, Korba - CECB",08-12-2025 08:00:00,22.348441,82.549611,PM2.5,70,87,71
India,Chhattisgarh,Kunjemura,"OP Jindal School, Kunjemura - CECB",08-12-2025 08:00:00,22.126650,83.483212,NO2,12,72,34
India,Chhattisgarh,Milupara,"Govt. Higher Secondary School, Milupara - CECB",08-12-2025 08:00:00,22.1910172,83.5197009,NH3,1,3,2
India,Chhattisgarh,Milupara,"Govt. Higher Secondary School, Milupara - CECB",08-12-2025 08:00:00,22.1910172,83.5197009,OZONE,2,131,10
India,Chhattisgarh,Raipur,"Bhatagaon New ISBT, Raipur - CECB",08-12-2025 08:00:00,21.219665,81.630094,PM10,37,155,94
India,Chhattisgarh,Raipur,"Bhatagaon New ISBT, Raipur - CECB",08-12-2025 08:00:00,21.219665,81.630094,OZONE,3,16,3
India,Bihar,Patna,"DRM Office Danapur, Patna - BSPCB",08-12-2025 08:00:00,25.586562,85.043586,CO,26,147,76
India,Bihar,Patna,"Govt. High School Shikarpur, Patna - BSPCB",08-12-2025 08:00:00,25.592539,85.227158,CO,62,180,99
India,Bihar,Patna,"IGSC Planetarium Complex, Patna - BSPCB",08-12-2025 08:00:00,25.610369,85.132568,NO2,1,12,6
India,Bihar,Patna,"IGSC Planetarium Complex, Patna - BSPCB",08-12-2025 08:00:00,25.610369,85.132568,SO2,1,19,10
India,Bihar,Patna,"Muradpur, Patna - BSPCB",08-12-2025 08:00:00,25.619651,85.147382,PM2.5,105,315,236
India,Bihar,Katihar,"Mirchaibari, Katihar - BSPCB",08-12-2025 08:00:00,25.560083,87.553265,PM10,64,138,100
India,Bihar,Manguraha,"Forest Rest House, Manguraha - BSPCB",08-12-2025 08:00:00,27.308328,84.531742,CO,31,32,32
India,Bihar,Manguraha,"Forest Rest House, Manguraha - BSPCB",08-12-2025 08:00:00,27.308328,84.531742,OZONE,9,17,10
India,Delhi,Delhi,"Rohini, Delhi - DPCC",08-12-2025 08:00:00,28.732528,77.119920,PM2.5,308,384,346
India,Delhi,Delhi,"Rohini, Delhi - DPCC",08-12-2025 08:00:00,28.732528,77.119920,PM10,193,298,240
India,Delhi,Delhi,"Rohini, Delhi - DPCC",08-12-2025 08:00:00,28.732528,77.119920,NH3,13,16,14
India,Delhi,Delhi,"Rohini, Delhi - DPCC",08-12-2025 08:00:00,28.732528,77.119920,SO2,15,56,26
India,Delhi,Delhi,"Rohini, Delhi - DPCC",08-12-2025 08:00:00,28.732528,77.119920,OZONE,14,185,32
India,Delhi,Delhi,"Shadipur, Delhi - CPCB",08-12-2025 08:00:00,28.6514781,77.1473105,PM10,173,395,268
India,Delhi,Delhi,"Sirifort, Delhi - CPCB",08-12-2025 08:00:00,28.5504249,77.2159377,PM10,176,305,218
India,Delhi,Delhi,"Sirifort, Delhi - CPCB",08-12-2025 08:00:00,28.5504249,77.2159377,NH3,11,13,12
India,Delhi,Delhi,"Sonia Vihar, Delhi - DPCC",08-12-2025 08:00:00,28.710508,77.249485,PM10,183,321,242
India,Delhi,Delhi,"Sonia Vihar, Delhi - DPCC",08-12-2025 08:00:00,28.710508,77.249485,SO2,13,33,21
India,Delhi,Delhi,"Sonia Vihar, Delhi - DPCC",08-12-2025 08:00:00,28.710508,77.249485,CO,80,114,95
India,Delhi,Delhi,"CRRI Mathura Road, Delhi - IMD",08-12-2025 08:00:00,28.5512005,77.2735737,CO,32,86,52
India,Delhi,Delhi,"CRRI Mathura Road, Delhi - IMD",08-12-2025 08:00:00,28.5512005,77.2735737,OZONE,9,85,12
India,Delhi,Delhi,"Chandni Chowk, Delhi - IITM",08-12-2025 08:00:00,28.656756,77.227234,PM2.5,303,339,321
India,Delhi,Delhi,"Chandni Chowk, Delhi - IITM",08-12-2025 08:00:00,28.656756,77.227234,PM10,161,415,288
India,Delhi,Delhi,"DTU, Delhi - CPCB",08-12-2025 08:00:00,28.7500499,77.1112615,PM2.5,245,394,343
India,Delhi,Delhi,"DTU, Delhi - CPCB",08-12-2025 08:00:00,28.7500499,77.1112615,SO2,30,32,30
India,Delhi,Delhi,"Dr. Karni Singh Shooting Range, Delhi - DPCC",08-12-2025 08:00:00,28.498571,77.264840,PM2.5,260,378,330
India,Delhi,Delhi,"Dwarka-Sector 8, Delhi - DPCC ",08-12-2025 08:00:00,28.5710274,77.0719006,SO2,23,36,26
India,Delhi,Delhi,"Jahangirpuri, Delhi - DPCC",08-12-2025 08:00:00,28.732820,77.170633,PM10,185,399,247
India,Delhi,Delhi,"Jahangirpuri, Delhi - DPCC",08-12-2025 08:00:00,28.732820,77.170633,NO2,59,140,92
India,Delhi,Delhi,"Jawaharlal Nehru Stadium, Delhi - DPCC",08-12-2025 08:00:00,28.580280,77.233829,SO2,2,20,12
India,Delhi,Delhi,"Jawaharlal Nehru Stadium, Delhi - DPCC",08-12-2025 08:00:00,28.580280,77.233829,CO,36,110,73
India,Delhi,Delhi,"Lodhi Road, Delhi - IMD",08-12-2025 08:00:00,28.5918245,77.2273074,PM2.5,197,324,284
India,Delhi,Delhi,"Major Dhyan Chand National Stadium, Delhi - DPCC",08-12-2025 08:00:00,28.611281,77.237738,PM10,177,325,220
India,Delhi,Delhi,"Major Dhyan Chand National Stadium, Delhi - DPCC",08-12-2025 08:00:00,28.611281,77.237738,NH3,19,25,22
India,Delhi,Delhi,"Major Dhyan Chand National Stadium, Delhi - DPCC",08-12-2025 08:00:00,28.611281,77.237738,SO2,12,36,23
India,Delhi,Delhi,"Patparganj, Delhi - DPCC",08-12-2025 08:00:00,28.623763,77.287209,SO2,6,13,10
India,Delhi,Delhi,"Patparganj, Delhi - DPCC",08-12-2025 08:00:00,28.623763,77.287209,CO,27,115,62
India,Delhi,Delhi,"Punjabi Bagh, Delhi - DPCC",08-12-2025 08:00:00,28.674045,77.131023,OZONE,8,86,17
India,Delhi,Delhi,"Pusa, Delhi - DPCC",08-12-2025 08:00:00,28.639652,77.146275,PM2.5,309,406,353
