country,state,city,station,last_update,latitude,longitude,pollutant_id,min_value,max_value,avg_value
India,Andhra_Pradesh,Tirupati,"Vaikuntapuram, Tirupati - APPCB",24-10-2025 07:00:00,13.615387,79.409230,NO2,NA,NA,NA
India,Andhra_Pradesh,Tirupati,"Vaikuntapuram, Tirupati - APPCB",24-10-2025 07:00:00,13.615387,79.409230,CO,NA,NA,NA
India,Andhra_Pradesh,Vijayawada,"HB Colony, Vijayawada - APPCB",24-10-2025 07:00:00,16.536107,80.594233,NH3,2,4,3
India,Andhra_Pradesh,Vijayawada,"Rajiv Gandhi Park, Vijayawada - APPCB",24-10-2025 07:00:00,16.509717,80.612222,PM2.5,45,67,54
India,Andhra_Pradesh,Vijayawada,"Rajiv Gandhi Park, Vijayawada - APPCB",24-10-2025 07:00:00,16.509717,80.612222,NH3,3,6,4
India,Andhra_Pradesh,Vijayawada,"Rajiv Gandhi Park, Vijayawada - APPCB",24-10-2025 07:00:00,16.509717,80.612222,OZONE,21,31,25
India,Andhra_Pradesh,Vijayawada,"Rajiv Nagar, Vijayawada - APPCB",24-10-2025 07:00:00,16.554731,80.649110,NO2,NA,NA,NA
India,Andhra_Pradesh,Vijayawada,"Rajiv Nagar, Vijayawada - APPCB",24-10-2025 07:00:00,16.554731,80.649110,SO2,NA,NA,NA
India,Andhra_Pradesh,Visakhapatnam,"GVM Corporation, Visakhapatnam - APPCB",24-10-2025 07:00:00,17.72,83.3,PM10,30,80,45
India,Andhra_Pradesh,Visakhapatnam,"GVM Corporation, Visakhapatnam - APPCB",24-10-2025 07:00:00,17.72,83.3,NH3,2,4,3
India,Assam,Sivasagar,"Girls College, Sivasagar - PCBA",24-10-2025 07:00:00,26.987634,94.636574,OZONE,2,12,2
India,Bihar,Araria,"Kharahiya Basti, Araria - BSPCB",24-10-2025 07:00:00,26.146529,87.454184,PM10,47,165,84
India,Bihar,Araria,"Kharahiya Basti, Araria - BSPCB",24-10-2025 07:00:00,26.146529,87.454184,NO2,2,26,13
India,Bihar,Araria,"Kharahiya Basti, Araria - BSPCB",24-10-2025 07:00:00,26.146529,87.454184,NH3,5,6,5
India,Bihar,Araria,"Kharahiya Basti, Araria - BSPCB",24-10-2025 07:00:00,26.146529,87.454184,SO2,18,24,21
India,Bihar,Arrah,"New DM Office, Arrah - BSPCB",24-10-2025 07:00:00,25.5626095,84.663264,PM2.5,NA,NA,NA
India,Bihar,Arrah,"New DM Office, Arrah - BSPCB",24-10-2025 07:00:00,25.5626095,84.663264,OZONE,6,46,10
India,Bihar,Aurangabad,"Gurdeo Nagar, Aurangabad - BSPCB",24-10-2025 07:00:00,24.75746,84.366208,PM2.5,58,170,102
India,Bihar,Aurangabad,"Gurdeo Nagar, Aurangabad - BSPCB",24-10-2025 07:00:00,24.75746,84.366208,PM10,47,107,75
India,Bihar,Manguraha,"Forest Rest House, Manguraha - BSPCB",24-10-2025 07:00:00,27.308328,84.531742,CO,32,34,33
India,Bihar,Manguraha,"Forest Rest House, Manguraha - BSPCB",24-10-2025 07:00:00,27.308328,84.531742,OZONE,5,19,8
India,Bihar,Motihari,"Gandak Colony, Motihari - BSPCB",24-10-2025 07:00:00,26.63086,84.90051,NH3,NA,NA,NA
India,Bihar,Munger,"Town Hall, Munger - BSPCB",24-10-2025 07:00:00,25.376776,86.471523,PM2.5,67,301,122
India,Bihar,Munger,"Town Hall, Munger - BSPCB",24-10-2025 07:00:00,25.376776,86.471523,OZONE,10,20,12
India,Bihar,Muzaffarpur,"Buddha Colony, Muzaffarpur - BSPCB",24-10-2025 07:00:00,26.11442,85.39813,NO2,11,40,19
India,Bihar,Muzaffarpur,"MIT-Daudpur Kothi, Muzaffarpur - BSPCB",24-10-2025 07:00:00,26.1403345,85.3650192,PM2.5,38,55,46
India,Bihar,Bettiah,"Kamalnath Nagar, Bettiah - BSPCB",24-10-2025 07:00:00,26.80365,84.51954,SO2,10,24,17
India,Bihar,Bettiah,"Kamalnath Nagar, Bettiah - BSPCB",24-10-2025 07:00:00,26.80365,84.51954,CO,55,92,76
India,Bihar,Bhagalpur,"Mayaganj, Bhagalpur - BSPCB",24-10-2025 07:00:00,25.265194,87.012947,PM2.5,58,319,168
India,Bihar,Bihar Sharif,"D M Colony, Bihar Sharif - BSPCB",24-10-2025 07:00:00,25.204762,85.514960,PM2.5,28,200,104
India,Bihar,Bihar Sharif,"D M Colony, Bihar Sharif - BSPCB",24-10-2025 07:00:00,25.204762,85.514960,SO2,9,10,10
India,Bihar,Bihar Sharif,"D M Colony, Bihar Sharif - BSPCB",24-10-2025 07:00:00,25.204762,85.514960,CO,8,8,8
India,Bihar,Buxar,"Charitra Van, Buxar - BSPCB",24-10-2025 07:00:00,25.567520,83.966379,PM10,NA,NA,NA
India,Assam,Guwahati,"Railway Colony, Guwahati - PCBA",24-10-2025 07:00:00,26.181742,91.78063,NO2,3,4,3
India,Assam,Nagaon,"Christianpatty, Nagaon - PCBA",24-10-2025 07:00:00,26.349082,92.68449,OZONE,8,9,9
India,Assam,Nalbari,"Bata Chowk, Nalbari - PCBA",24-10-2025 07:00:00,26.446912,91.439057,PM10,20,110,54
India,Assam,Nalbari,"Bata Chowk, Nalbari - PCBA",24-10-2025 07:00:00,26.446912,91.439057,NH3,4,9,6
India,Assam,Nalbari,"Bata Chowk, Nalbari - PCBA",24-10-2025 07:00:00,26.446912,91.439057,SO2,6,8,8
India,Assam,Nalbari,"Bata Chowk, Nalbari - PCBA",24-10-2025 07:00:00,26.446912,91.439057,CO,86,122,103
India,Assam,Silchar,"Tarapur, Silchar - PCBA",24-10-2025 07:00:00,24.82827,92.79525,CO,20,60,41
India,Bihar,Gaya,"SFTI Kusdihra, Gaya - BSPCB",24-10-2025 07:00:00,24.762518,84.982348,NO2,24,27,25
India,Bihar,Hajipur,"Industrial Area, Hajipur - BSPCB",24-10-2025 07:00:00,25.697189,85.245900,PM2.5,8,304,192
India,Bihar,Hajipur,"Industrial Area, Hajipur - BSPCB",24-10-2025 07:00:00,25.697189,85.245900,OZONE,2,112,11
India,Bihar,Katihar,"Mirchaibari, Katihar - BSPCB",24-10-2025 07:00:00,25.560083,87.553265,PM2.5,33,153,92
India,Bihar,Kishanganj,"SDM Office_Khagra, Kishanganj - BSPCB",24-10-2025 07:00:00,26.0881305,87.93840336,PM2.5,NA,NA,NA
India,Bihar,Kishanganj,"SDM Office_Khagra, Kishanganj - BSPCB",24-10-2025 07:00:00,26.0881305,87.93840336,NH3,2,3,3
India,Arunachal_Pradesh,Naharlagun,"Naharlagun, Naharlagun - APSPCB",24-10-2025 07:00:00,27.103358,93.679645,NO2,5,6,6
India,Assam,Byrnihat,"Central Academy for SFS, Byrnihat - PCBA",24-10-2025 07:00:00,26.071318,91.87488,SO2,NA,NA,NA
India,Assam,Byrnihat,"Central Academy for SFS, Byrnihat - PCBA",24-10-2025 07:00:00,26.071318,91.87488,OZONE,NA,NA,NA
India,Assam,Guwahati,"LGBI Airport, Guwahati - PCBA",24-10-2025 07:00:00,26.10887,91.589544,NO2,14,17,15
India,Assam,Guwahati,"Pan Bazaar, Guwahati - PCBA",24-10-2025 07:00:00,26.187500,91.744194,PM2.5,18,108,41
India,Bihar,Buxar,"Charitra Van, Buxar - BSPCB",24-10-2025 07:00:00,25.567520,83.966379,NH3,3,3,3
India,Bihar,Chhapra,"Darshan Nagar, Chhapra - BSPCB",24-10-2025 07:00:00,25.7808257,84.7446768,OZONE,14,27,16
India,Bihar,Gaya,"Kareemganj, Gaya - BSPCB",24-10-2025 07:00:00,24.792403,84.992416,PM2.5,42,88,70
India,Bihar,Gaya,"Kareemganj, Gaya - BSPCB",24-10-2025 07:00:00,24.792403,84.992416,PM10,122,188,140
India,Bihar,Gaya,"Kareemganj, Gaya - BSPCB",24-10-2025 07:00:00,24.792403,84.992416,NO2,2,8,5
India,Andhra_Pradesh,Chittoor,"Gangineni Cheruvu, Chittoor - APPCB",24-10-2025 07:00:00,13.204880,79.097889,NO2,NA,NA,NA
India,Andhra_Pradesh,Chittoor,"Gangineni Cheruvu, Chittoor - APPCB",24-10-2025 07:00:00,13.204880,79.097889,SO2,NA,NA,NA
India,Andhra_Pradesh,Rajamahendravaram,"Anand Kala Kshetram, Rajamahendravaram - APPCB",24-10-2025 07:00:00,16.9872867,81.7363176,PM2.5,NA,NA,NA
India,Andhra_Pradesh,Rajamahendravaram,"Anand Kala Kshetram, Rajamahendravaram - APPCB",24-10-2025 07:00:00,16.9872867,81.7363176,SO2,NA,NA,NA
India,Andhra_Pradesh,Amaravati,"Secretariat, Amaravati - APPCB",24-10-2025 07:00:00,16.5150833,80.5181667,NH3,3,5,4
India,Bihar,Rajgir,"Dangi Tola, Rajgir - BSPCB",24-10-2025 07:00:00,25.03280,85.41948,PM10,39,96,62
India,Bihar,Rajgir,"Dangi Tola, Rajgir - BSPCB",24-10-2025 07:00:00,25.03280,85.41948,CO,78,100,89
India,Bihar,Saharsa,"Police Line, Saharsa - BSPCB",24-10-2025 07:00:00,25.892357,86.590325,OZONE,4,42,22
India,Bihar,Samastipur,"DM Office_Kasipur, Samastipur - BSPCB",24-10-2025 07:00:00,25.859655,85.77944,SO2,NA,NA,NA
India,Bihar,Sasaram,"Dada Peer, Sasaram - BSPCB",24-10-2025 07:00:00,24.952822,84.002396,PM10,65,184,115
India,Bihar,Sasaram,"Dada Peer, Sasaram - BSPCB",24-10-2025 07:00:00,24.952822,84.002396,NH3,3,3,3
India,Bihar,Siwan,"Chitragupta Nagar, Siwan - BSPCB",24-10-2025 07:00:00,26.2271665,84.3570427,PM2.5,17,93,37
India,Bihar,Siwan,"Chitragupta Nagar, Siwan - BSPCB",24-10-2025 07:00:00,26.2271665,84.3570427,OZONE,2,3,2
India,Chandigarh,Chandigarh,"Sector 22, Chandigarh - CPCC",24-10-2025 07:00:00,30.735567,76.775714,OZONE,2,49,18
India,Chandigarh,Chandigarh,"Sector-25, Chandigarh - CPCC",24-10-2025 07:00:00,30.751462,76.762879,PM10,40,100,73
India,Chandigarh,Chandigarh,"Sector-25, Chandigarh - CPCC",24-10-2025 07:00:00,30.751462,76.762879,CO,15,32,22
India,Chandigarh,Chandigarh,"Sector-25, Chandigarh - CPCC",24-10-2025 07:00:00,30.751462,76.762879,OZONE,4,60,10
India,Chandigarh,Chandigarh,"Sector-53, Chandigarh - CPCC",24-10-2025 07:00:00,30.719859,76.738637,PM2.5,27,87,52
India,Chandigarh,Chandigarh,"Sector-53, Chandigarh - CPCC",24-10-2025 07:00:00,30.719859,76.738637,NH3,NA,NA,NA
India,Chandigarh,Chandigarh,"Sector-53, Chandigarh - CPCC",24-10-2025 07:00:00,30.719859,76.738637,SO2,6,12,8
India,Bihar,Muzaffarpur,"MIT-Daudpur Kothi, Muzaffarpur - BSPCB",24-10-2025 07:00:00,26.1403345,85.3650192,SO2,17,58,24
India,Bihar,Patna,"DRM Office Danapur, Patna - BSPCB",24-10-2025 07:00:00,25.586562,85.043586,NH3,4,11,7
India,Bihar,Patna,"DRM Office Danapur, Patna - BSPCB",24-10-2025 07:00:00,25.586562,85.043586,SO2,8,11,9
India,Bihar,Patna,"Govt. High School Shikarpur, Patna - BSPCB",24-10-2025 07:00:00,25.592539,85.227158,NO2,13,20,16
India,Bihar,Patna,"Govt. High School Shikarpur, Patna - BSPCB",24-10-2025 07:00:00,25.592539,85.227158,NH3,4,6,6
India,Bihar,Patna,"Govt. High School Shikarpur, Patna - BSPCB",24-10-2025 07:00:00,25.592539,85.227158,OZONE,7,12,10
India,Bihar,Patna,"IGSC Planetarium Complex, Patna - BSPCB",24-10-2025 07:00:00,25.610369,85.132568,SO2,1,25,18
India,Chhattisgarh,Raipur,"AIIMS, Raipur - CECB",24-10-2025 07:00:00,21.258815,81.578979,PM10,28,112,57
India,Chhattisgarh,Raipur,"Bhatagaon New ISBT, Raipur - CECB",24-10-2025 07:00:00,21.219665,81.630094,NO2,12,33,17
India,Chhattisgarh,Raipur,"Bhatagaon New ISBT, Raipur - CECB",24-10-2025 07:00:00,21.219665,81.630094,CO,14,32,20
India,Chhattisgarh,Raipur,"Krishak Nagar, Raipur - CECB",24-10-2025 07:00:00,21.237755,81.705301,PM2.5,33,68,52
India,Chhattisgarh,Raipur,"Siltara Phase-II, Raipur - CECB",24-10-2025 07:00:00,21.371751,81.664929,OZONE,3,62,6
India,Chhattisgarh,Tumidih,"OP Jindal Industrial Park, Tumidih - CECB",24-10-2025 07:00:00,22.06631475,83.33820077,NO2,25,79,39
India,Chhattisgarh,Korba,"Rampur, Korba - CECB",24-10-2025 07:00:00,22.368195,82.746431,CO,15,42,25
India,Chhattisgarh,Korba,"Rampur, Korba - CECB",24-10-2025 07:00:00,22.368195,82.746431,OZONE,2,36,2
India,Chhattisgarh,Korba,"Urja Nagar, Korba - CECB",24-10-2025 07:00:00,22.348441,82.549611,PM10,68,73,69
India,Chhattisgarh,Korba,"Urja Nagar, Korba - CECB",24-10-2025 07:00:00,22.348441,82.549611,SO2,6,10,8
India,Chhattisgarh,Kunjemura,"OP Jindal School, Kunjemura - CECB",24-10-2025 07:00:00,22.126650,83.483212,NH3,2,2,2
India,Chhattisgarh,Kunjemura,"OP Jindal School, Kunjemura - CECB",24-10-2025 07:00:00,22.126650,83.483212,CO,12,41,20
India,Bihar,Patna,"Muradpur, Patna - BSPCB",24-10-2025 07:00:00,25.619651,85.147382,PM10,202,260,236
India,Bihar,Patna,"Rajbansi Nagar, Patna - BSPCB",24-10-2025 07:00:00,25.599486,85.113666,PM10,101,146,117
India,Bihar,Patna,"Samanpura, Patna - BSPCB",24-10-2025 07:00:00,25.596727,85.085624,PM10,94,437,266
India,Bihar,Patna,"Samanpura, Patna - BSPCB",24-10-2025 07:00:00,25.596727,85.085624,CO,18,50,42
India,Bihar,Purnia,"Mariam Nagar, Purnia - BSPCB",24-10-2025 07:00:00,25.366336,87.117468,PM2.5,32,95,71
India,Delhi,Delhi,"Alipur, Delhi - DPCC",24-10-2025 07:00:00,28.815329,77.153010,NO2,35,120,78
India,Delhi,Delhi,"Anand Vihar, Delhi - DPCC",24-10-2025 07:00:00,28.647622,77.3158090,PM2.5,250,484,361
India,Delhi,Delhi,"Anand Vihar, Delhi - DPCC",24-10-2025 07:00:00,28.647622,77.3158090,SO2,21,45,29
India,Delhi,Delhi,"Aya Nagar, Delhi - IMD",24-10-2025 07:00:00,28.4706914,77.1099364,PM10,116,275,198
India,Chhattisgarh,Bhilai,"Civic Center, Bhilai - Bhilai Steel Plant",24-10-2025 07:00:00,21.185571,81.343175,NO2,6,11,7
India,Chhattisgarh,Bhilai,"Civic Center, Bhilai - Bhilai Steel Plant",24-10-2025 07:00:00,21.185571,81.343175,NH3,3,3,3
India,Chhattisgarh,Bhilai,"Civic Center, Bhilai - Bhilai Steel Plant",24-10-2025 07:00:00,21.185571,81.343175,CO,22,22,22
India,Chhattisgarh,Bhilai,"Hathkhoj, Bhilai - CECB",24-10-2025 07:00:00,21.224231,81.408350,PM10,23,132,57
India,Delhi,Delhi,"Aya Nagar, Delhi - IMD",24-10-2025 07:00:00,28.4706914,77.1099364,OZONE,21,277,23
India,Delhi,Delhi,"DTU, Delhi - CPCB",24-10-2025 07:00:00,28.7500499,77.1112615,OZONE,11,30,14
India,Delhi,Delhi,"Dr. Karni Singh Shooting Range, Delhi - DPCC",24-10-2025 07:00:00,28.498571,77.264840,PM10,153,334,205
India,Delhi,Delhi,"Dr. Karni Singh Shooting Range, Delhi - DPCC",24-10-2025 07:00:00,28.498571,77.264840,NO2,52,113,80
India,Delhi,Delhi,"Dr. Karni Singh Shooting Range, Delhi - DPCC",24-10-2025 07:00:00,28.498571,77.264840,OZONE,5,174,7
India,Delhi,Delhi,"Dwarka-Sector 8, Delhi - DPCC ",24-10-2025 07:00:00,28.5710274,77.0719006,SO2,17,22,20
India,Delhi,Delhi,"IGI Airport (T3), Delhi - IMD",24-10-2025 07:00:00,28.5627763,77.1180053,OZONE,1,7,5
India,Delhi,Delhi,"IHBAS, Dilshad Garden, Delhi - CPCB",24-10-2025 07:00:00,28.6811736,77.3025234,SO2,9,17,12
India,Delhi,Delhi,"ITO, Delhi - CPCB",24-10-2025 07:00:00,28.628624,77.241060,PM10,100,188,159
India,Delhi,Delhi,"ITO, Delhi - CPCB",24-10-2025 07:00:00,28.628624,77.241060,NH3,6,10,7
India,Delhi,Delhi,"R K Puram, Delhi - DPCC",24-10-2025 07:00:00,28.563262,77.186937,NO2,28,131,71
India,Delhi,Delhi,"Rohini, Delhi - DPCC",24-10-2025 07:00:00,28.732528,77.119920,PM2.5,110,403,317
India,Delhi,Delhi,"Rohini, Delhi - DPCC",24-10-2025 07:00:00,28.732528,77.119920,NH3,10,13,11
India,Delhi,Delhi,"Shadipur, Delhi - CPCB",24-10-2025 07:00:00,28.6514781,77.1473105,CO,30,106,93
India,Delhi,Delhi,"Sirifort, Delhi - CPCB",24-10-2025 07:00:00,28.5504249,77.2159377,OZONE,9,28,10
India,Delhi,Delhi,"Sonia Vihar, Delhi - DPCC",24-10-2025 07:00:00,28.710508,77.249485,PM2.5,127,375,306
India,Delhi,Delhi,"Sonia Vihar, Delhi - DPCC",24-10-2025 07:00:00,28.710508,77.249485,SO2,36,52,41
India,Delhi,Delhi,"Mandir Marg, Delhi - DPCC",24-10-2025 07:00:00,28.636429,77.201067,PM10,106,311,174
India,Delhi,Delhi,"Mandir Marg, Delhi - DPCC",24-10-2025 07:00:00,28.636429,77.201067,CO,26,108,97
India,Delhi,Delhi,"NSIT Dwarka, Delhi - CPCB",24-10-2025 07:00:00,28.60909,77.0325413,NO2,64,123,90
India,Delhi,Delhi,"NSIT Dwarka, Delhi - CPCB",24-10-2025 07:00:00,28.60909,77.0325413,NH3,6,11,9
India,Delhi,Delhi,"NSIT Dwarka, Delhi - CPCB",24-10-2025 07:00:00,28.60909,77.0325413,OZONE,7,36,7
India,Delhi,Delhi,"Najafgarh, Delhi - DPCC",24-10-2025 07:00:00,28.570173,76.933762,NO2,87,125,114
India,Delhi,Delhi,"Najafgarh, Delhi - DPCC",24-10-2025 07:00:00,28.570173,76.933762,CO,32,61,57
India,Delhi,Delhi,"Patparganj, Delhi - DPCC",24-10-2025 07:00:00,28.623763,77.287209,PM2.5,177,396,323
India,Delhi,Delhi,"Punjabi Bagh, Delhi - DPCC",24-10-2025 07:00:00,28.674045,77.131023,NO2,39,72,55
India,Delhi,Delhi,"Punjabi Bagh, Delhi - DPCC",24-10-2025 07:00:00,28.674045,77.131023,SO2,23,23,23
India,Delhi,Delhi,"Punjabi Bagh, Delhi - DPCC",24-10-2025 07:00:00,28.674045,77.131023,OZONE,4,112,6
India,Delhi,Delhi,"Pusa, Delhi - DPCC",24-10-2025 07:00:00,28.639652,77.146275,PM10,139,376,207
India,Delhi,Delhi,"Pusa, Delhi - DPCC",24-10-2025 07:00:00,28.639652,77.146275,OZONE,6,88,8
India,Delhi,Delhi,"Pusa, Delhi - IMD",24-10-2025 07:00:00,28.636110,77.173332,PM10,82,252,174
India,Delhi,Delhi,"Narela, Delhi - DPCC",24-10-2025 07:00:00,28.822836,77.101981,PM10,129,274,196
India,Delhi,Delhi,"Narela, Delhi - DPCC",24-10-2025 07:00:00,28.822836,77.101981,NO2,11,61,37
India,Delhi,Delhi,"Narela, Delhi - DPCC",24-10-2025 07:00:00,28.822836,77.101981,SO2,8,28,15
India,Delhi,Delhi,"Nehru Nagar, Delhi - DPCC",24-10-2025 07:00:00,28.567890,77.250515,NH3,8,12,10
India,Delhi,Delhi,"Nehru Nagar, Delhi - DPCC",24-10-2025 07:00:00,28.567890,77.250515,CO,14,125,70
India,Delhi,Delhi,"North Campus, DU, Delhi - IMD",24-10-2025 07:00:00,28.6573814,77.1585447,CO,8,127,117
India,Delhi,Delhi,"Jahangirpuri, Delhi - DPCC",24-10-2025 07:00:00,28.732820,77.170633,SO2,7,44,25
India,Delhi,Delhi,"Jawaharlal Nehru Stadium, Delhi - DPCC",24-10-2025 07:00:00,28.580280,77.233829,NO2,36,152,97
India,Delhi,Delhi,"Lodhi Road, Delhi - IMD",24-10-2025 07:00:00,28.5918245,77.2273074,CO,62,105,103
India,Delhi,Delhi,"Major Dhyan Chand National Stadium, Delhi - DPCC",24-10-2025 07:00:00,28.611281,77.237738,NO2,25,145,79
India,Delhi,Delhi,"Sri Aurobindo Marg, Delhi - DPCC",24-10-2025 07:00:00,28.531346,77.190156,OZONE,1,150,2
India,Delhi,Delhi,"Vivek Vihar, Delhi - DPCC",24-10-2025 07:00:00,28.672342,77.315260,NH3,10,11,10
India,Delhi,Delhi,"Vivek Vihar, Delhi - DPCC",24-10-2025 07:00:00,28.672342,77.315260,SO2,11,47,24
India,Delhi,Delhi,"Wazirpur, Delhi - DPCC",24-10-2025 07:00:00,28.699793,77.165453,PM2.5,163,410,334
India,Gujarat,Ahmedabad,"Gyaspur, Ahmedabad - IITM",24-10-2025 07:00:00,22.977134,72.553024,CO,20,34,23
India,Gujarat,Ahmedabad,"Raikhad, Ahmedabad - IITM",24-10-2025 07:00:00,23.020509,72.579261,PM10,80,128,108
India,Gujarat,Ahmedabad,"Raikhad, Ahmedabad - IITM",24-10-2025 07:00:00,23.020509,72.579261,OZONE,38,104,63
India,Gujarat,Ahmedabad,"Rakhial, Ahmedabad - IITM",24-10-2025 07:00:00,23.016834,72.625775,PM2.5,68,154,97
India,Delhi,Delhi,"DTU, Delhi - CPCB",24-10-2025 07:00:00,28.7500499,77.1112615,NO2,44,105,69
India,Haryana,Mandikhera,"General Hospital, Mandikhera - HSPCB",24-10-2025 07:00:00,27.9002,76.9938,PM10,1,52,24
India,Haryana,Mandikhera,"General Hospital, Mandikhera - HSPCB",24-10-2025 07:00:00,27.9002,76.9938,NO2,19,23,22
India,Haryana,Manesar,"Sector-2 IMT, Manesar - HSPCB",24-10-2025 07:00:00,28.360699,76.936090,NO2,18,82,35
India,Haryana,Manesar,"Sector-2 IMT, Manesar - HSPCB",24-10-2025 07:00:00,28.360699,76.936090,NH3,7,17,13
India,Haryana,Manesar,"Sector-2 IMT, Manesar - HSPCB",24-10-2025 07:00:00,28.360699,76.936090,CO,40,70,62
India,Haryana,Manesar,"Sector-2 IMT, Manesar - HSPCB",24-10-2025 07:00:00,28.360699,76.936090,OZONE,10,49,12
India,Haryana,Narnaul,"Shastri Nagar, Narnaul - HSPCB",24-10-2025 07:00:00,28.060249,76.113115,NH3,5,18,10
India,Haryana,Palwal,"Shyam Nagar, Palwal - HSPCB",24-10-2025 07:00:00,28.1485564,77.3320667,NO2,23,24,24
India,Haryana,Palwal,"Shyam Nagar, Palwal - HSPCB",24-10-2025 07:00:00,28.1485564,77.3320667,NH3,8,9,9
India,Haryana,Panchgaon,"Amity University, Panchgaon - IITM",24-10-2025 07:00:00,28.3153,76.9143,PM10,27,137,76
India,Haryana,Panchgaon,"Amity University, Panchgaon - IITM",24-10-2025 07:00:00,28.3153,76.9143,NO2,41,103,61
India,Haryana,Bhiwani,"H.B. Colony, Bhiwani - HSPCB",24-10-2025 07:00:00,28.806223,76.141105,CO,10,13,12
India,Haryana,Charkhi Dadri,"Mini Secretariat, Charkhi Dadri - HSPCB",24-10-2025 07:00:00,28.593883,76.270653,NH3,5,8,6
India,Haryana,Charkhi Dadri,"Mini Secretariat, Charkhi Dadri - HSPCB",24-10-2025 07:00:00,28.593883,76.270653,CO,6,25,14
India,Haryana,Dharuhera,"Municipal Corporation Office, Dharuhera -  HSPCB",24-10-2025 07:00:00,28.206800,76.799700,NH3,9,26,19
India,Haryana,Dharuhera,"Municipal Corporation Office, Dharuhera -  HSPCB",24-10-2025 07:00:00,28.206800,76.799700,OZONE,10,71,13
India,Haryana,Faridabad,"New Industrial Town, Faridabad - HSPCB",24-10-2025 07:00:00,28.39072,77.30059,SO2,7,8,8
India,Haryana,Faridabad,"Sector 30, Faridabad - HSPCB",24-10-2025 07:00:00,28.4417,77.3217,PM2.5,164,169,166
India,Haryana,Faridabad,"Sector 30, Faridabad - HSPCB",24-10-2025 07:00:00,28.4417,77.3217,PM10,165,168,166
India,Haryana,Faridabad,"Sector 30, Faridabad - HSPCB",24-10-2025 07:00:00,28.4417,77.3217,NO2,36,40,37
India,Haryana,Faridabad,"Sector 30, Faridabad - HSPCB",24-10-2025 07:00:00,28.4417,77.3217,NH3,11,12,11
India,Haryana,Sonipat,"Murthal, Sonipat - HSPCB",24-10-2025 07:00:00,29.027200,77.062100,NO2,35,53,44
India,Haryana,Sonipat,"Murthal, Sonipat - HSPCB",24-10-2025 07:00:00,29.027200,77.062100,CO,36,38,37
India,Haryana,Yamuna Nagar,"Gobind Pura, Yamuna Nagar - HSPCB",24-10-2025 07:00:00,30.1480566,77.2893471,NH3,9,10,10
India,Haryana,Yamuna Nagar,"Gobind Pura, Yamuna Nagar - HSPCB",24-10-2025 07:00:00,30.1480566,77.2893471,CO,62,116,86
India,Himachal Pradesh,Baddi,"HIMUDA Complex Phase-1, Baddi - HPPCB",24-10-2025 07:00:00,30.943887,76.801991,CO,36,67,37
India,Himachal Pradesh,Baddi,"HIMUDA Complex Phase-1, Baddi - HPPCB",24-10-2025 07:00:00,30.943887,76.801991,OZONE,62,167,79
India,Jammu_and_Kashmir,Srinagar,"Rajbagh, Srinagar - JKSPCB",24-10-2025 07:00:00,34.066206,74.819820,CO,12,22,16
India,Jharkhand,Dhanbad,"Sardar Patel Nagar, Dhanbad - JSPCB",24-10-2025 07:00:00,23.80569,86.44268,CO,1,16,4
India,Jharkhand,Dhanbad,"Sardar Patel Nagar, Dhanbad - JSPCB",24-10-2025 07:00:00,23.80569,86.44268,OZONE,1,35,3
India,Gujarat,Vatva,"Phase-4 GIDC, Vatva - GPCB",24-10-2025 07:00:00,22.969611,72.643500,NH3,2,3,2
India,Haryana,Bahadurgarh,"Arya Nagar, Bahadurgarh - HSPCB",24-10-2025 07:00:00,28.6701,76.9254,PM10,167,352,267
India,Haryana,Bahadurgarh,"Arya Nagar, Bahadurgarh - HSPCB",24-10-2025 07:00:00,28.6701,76.9254,SO2,6,7,6
India,Haryana,Bahadurgarh,"Arya Nagar, Bahadurgarh - HSPCB",24-10-2025 07:00:00,28.6701,76.9254,CO,24,52,45
India,Haryana,Ballabgarh,"Nathu Colony, Ballabgarh - HSPCB",24-10-2025 07:00:00,28.3419248,77.319699,PM10,24,203,96
India,Haryana,Bhiwani,"H.B. Colony, Bhiwani - HSPCB",24-10-2025 07:00:00,28.806223,76.141105,PM2.5,94,304,212
India,Gujarat,Ahmedabad,"SAC ISRO Bopal, Ahmedabad - IITM",24-10-2025 07:00:00,23.041137,72.456691,NH3,2,3,3
India,Gujarat,Ahmedabad,"SAC ISRO Satellite, Ahmedabad - IITM",24-10-2025 07:00:00,23.023389,72.515201,PM2.5,48,77,59
India,Gujarat,Ahmedabad,"SVPI Airport Hansol, Ahmedabad - IITM",24-10-2025 07:00:00,23.076793,72.627874,PM10,78,127,109
India,Gujarat,Ankleshwar,"GIDC, Ankleshwar - GPCB",24-10-2025 07:00:00,21.613267,73.010555,CO,38,65,58
India,Gujarat,Gandhinagar,"GIFT City, Gandhinagar - IITM",24-10-2025 07:00:00,23.163798,72.677768,PM2.5,75,127,97
India,Haryana,Hisar,"Urban Estate-II, Hisar - HSPCB",24-10-2025 07:00:00,29.140560,75.744941,SO2,14,18,16
India,Haryana,Jind,"Police Lines, Jind - HSPCB",24-10-2025 07:00:00,29.307814,76.337619,SO2,27,29,28
India,Haryana,Jind,"Police Lines, Jind - HSPCB",24-10-2025 07:00:00,29.307814,76.337619,CO,2,87,24
India,Haryana,Karnal,"Sector-12, Karnal - HSPCB",24-10-2025 07:00:00,29.695300,77.002700,PM10,62,347,192
India,Haryana,Karnal,"Sector-12, Karnal - HSPCB",24-10-2025 07:00:00,29.695300,77.002700,NH3,6,7,6
India,Haryana,Karnal,"Sector-12, Karnal - HSPCB",24-10-2025 07:00:00,29.695300,77.002700,CO,41,61,53
India,Haryana,Karnal,"Sector-12, Karnal - HSPCB",24-10-2025 07:00:00,29.695300,77.002700,OZONE,26,26,26
India,Gujarat,Gandhinagar,"GIFT City, Gandhinagar - IITM",24-10-2025 07:00:00,23.163798,72.677768,SO2,1,13,5
India,Gujarat,Gandhinagar,"IIPHG Lekawada, Gandhinagar - IITM",24-10-2025 07:00:00,23.243639,72.68994,SO2,5,9,7
India,Gujarat,Gandhinagar,"Sector-10, Gandhinagar - GPCB",24-10-2025 07:00:00,23.221714,72.654328,NO2,10,10,10
India,Gujarat,Surat,"Science Center, Surat - SMC",24-10-2025 07:00:00,21.170046,72.795405,PM2.5,NA,NA,NA
India,Gujarat,Surat,"Science Center, Surat - SMC",24-10-2025 07:00:00,21.170046,72.795405,SO2,51,64,57
India,Haryana,Fatehabad,"Huda Sector, Fatehabad - HSPCB",24-10-2025 07:00:00,29.503664,75.467934,SO2,3,41,15
India,Haryana,Gurugram,"NISE Gwal Pahari, Gurugram - IMD",24-10-2025 07:00:00,28.422681,77.148944,CO,98,107,106
India,Haryana,Gurugram,"Vikas Sadan, Gurugram - HSPCB",24-10-2025 07:00:00,28.4501238,77.0263051,PM2.5,66,205,136
India,Haryana,Gurugram,"Vikas Sadan, Gurugram - HSPCB",24-10-2025 07:00:00,28.4501238,77.0263051,NO2,9,45,26
India,Haryana,Panchgaon,"Amity University, Panchgaon - IITM",24-10-2025 07:00:00,28.3153,76.9143,SO2,3,14,8
India,Haryana,Panchgaon,"Amity University, Panchgaon - IITM",24-10-2025 07:00:00,28.3153,76.9143,OZONE,2,92,6
India,Haryana,Rohtak,"MD University, Rohtak - HSPCB",24-10-2025 07:00:00,28.52123,76.37138,PM2.5,NA,NA,NA
India,Karnataka,Bengaluru,"Bapuji Nagar, Bengaluru - KSPCB",24-10-2025 07:00:00,12.951913,77.539784,NH3,1,1,1
India,Karnataka,Bengaluru,"City Railway Station, Bengaluru - KSPCB",24-10-2025 07:00:00,12.9756843,77.5660749,NO2,42,46,44
India,Karnataka,Bengaluru,"Hebbal, Bengaluru - KSPCB",24-10-2025 07:00:00,13.029152,77.585901,PM2.5,2,23,9
India,Karnataka,Bengaluru,"Hebbal, Bengaluru - KSPCB",24-10-2025 07:00:00,13.029152,77.585901,OZONE,7,25,7
India,Karnataka,Bengaluru,"Hombegowda Nagar, Bengaluru - KSPCB",24-10-2025 07:00:00,12.938539,77.590100,PM2.5,3,19,9
India,Karnataka,Bengaluru,"Hombegowda Nagar, Bengaluru - KSPCB",24-10-2025 07:00:00,12.938539,77.590100,NO2,5,30,14
India,Karnataka,Bengaluru,"Hombegowda Nagar, Bengaluru - KSPCB",24-10-2025 07:00:00,12.938539,77.590100,SO2,3,13,10
India,Karnataka,Bengaluru,"Jayanagar 5th Block, Bengaluru - KSPCB",24-10-2025 07:00:00,12.920984,77.584908,CO,2,29,9
India,Karnataka,Bengaluru,"Jayanagar 5th Block, Bengaluru - KSPCB",24-10-2025 07:00:00,12.920984,77.584908,OZONE,13,63,40
India,Karnataka,Bengaluru,"Jigani, Bengaluru - KSPCB",24-10-2025 07:00:00,12.7816279,77.6299145,PM10,66,99,72
India,Karnataka,Hubballi,"Deshpande Nagar, Hubballi - KSPCB",24-10-2025 07:00:00,15.351773,75.140726,PM10,NA,NA,NA
India,Karnataka,Hubballi,"Deshpande Nagar, Hubballi - KSPCB",24-10-2025 07:00:00,15.351773,75.140726,NH3,NA,NA,NA
India,Karnataka,Hubballi,"Deshpande Nagar, Hubballi - KSPCB",24-10-2025 07:00:00,15.351773,75.140726,CO,19,20,20
India,Karnataka,Hubballi,"Lingaraj Nagar, Hubballi - KSPCB",24-10-2025 07:00:00,15.3714823,75.1160168,SO2,1,2,1
India,Karnataka,Hubballi,"Lingaraj Nagar, Hubballi - KSPCB",24-10-2025 07:00:00,15.3714823,75.1160168,OZONE,18,24,18
India,Karnataka,Kalaburagi,"Lal Bahadur Shastri Nagar, Kalaburagi - KSPCB",24-10-2025 07:00:00,17.321993,76.822628,PM10,65,101,87
India,Karnataka,Kalaburagi,"Lal Bahadur Shastri Nagar, Kalaburagi - KSPCB",24-10-2025 07:00:00,17.321993,76.822628,OZONE,20,20,20
India,Karnataka,Kalaburagi,"Mahatma Basaveswar Colony, Kalaburgi - KSPCB",24-10-2025 07:00:00,17.336318,76.847397,PM2.5,7,34,17
India,Karnataka,Kalaburagi,"Mahatma Basaveswar Colony, Kalaburgi - KSPCB",24-10-2025 07:00:00,17.336318,76.847397,NH3,2,3,2
India,Karnataka,Karwar,"KHB Colony, Karwar - KSPCB",24-10-2025 07:00:00,14.816666,74.141003,NO2,NA,NA,NA
India,Karnataka,Bengaluru,"Shivapura_Peenya, Bengaluru - KSPCB",24-10-2025 07:00:00,13.0246342,77.5080115,NH3,6,6,6
India,Karnataka,Bengaluru,"Shivapura_Peenya, Bengaluru - KSPCB",24-10-2025 07:00:00,13.0246342,77.5080115,CO,68,83,72
India,Karnataka,Bengaluru,"Shivapura_Peenya, Bengaluru - KSPCB",24-10-2025 07:00:00,13.0246342,77.5080115,OZONE,16,17,16
India,Karnataka,Bengaluru,"Silk Board, Bengaluru - KSPCB",24-10-2025 07:00:00,12.917348,77.622813,PM2.5,18,44,27
India,Karnataka,Bengaluru,"Silk Board, Bengaluru - KSPCB",24-10-2025 07:00:00,12.917348,77.622813,PM10,36,108,68
India,Karnataka,Bidar,"Naubad, Bidar - KSPCB",24-10-2025 07:00:00,17.930306,77.482194,NO2,NA,NA,NA
India,Karnataka,Bidar,"Naubad, Bidar - KSPCB",24-10-2025 07:00:00,17.930306,77.482194,SO2,NA,NA,NA
India,Karnataka,Chamarajanagar,"Urban, Chamarajanagar - KSPCB",24-10-2025 07:00:00,11.55358,76.55521,OZONE,14,38,16
India,Karnataka,Davanagere,"Devaraj Urs Badavane, Davanagere - KSPCB",24-10-2025 07:00:00,14.475800,75.905200,PM2.5,1,73,26
India,Karnataka,Davanagere,"Devaraj Urs Badavane, Davanagere - KSPCB",24-10-2025 07:00:00,14.475800,75.905200,NH3,1,19,3
India,Karnataka,Dharwad,"Kalabhavan, Dharwad - KSPCB",24-10-2025 07:00:00,15.459706,75.008381,PM10,48,59,51
India,Karnataka,Gadag,"Panchal Nagar, Gadag - KSPCB",24-10-2025 07:00:00,15.411456,75.638133,SO2,29,42,35
India,Karnataka,Gadag,"Panchal Nagar, Gadag - KSPCB",24-10-2025 07:00:00,15.411456,75.638133,OZONE,2,42,19
India,Karnataka,Hassan,"B.Katihalli, Hassan - KSPCB",24-10-2025 07:00:00,13.008556,76.125258,PM2.5,27,78,40
India,Karnataka,Hassan,"B.Katihalli, Hassan - KSPCB",24-10-2025 07:00:00,13.008556,76.125258,PM10,32,94,48
India,Karnataka,Hassan,"B.Katihalli, Hassan - KSPCB",24-10-2025 07:00:00,13.008556,76.125258,NO2,7,33,17
India,Karnataka,Hassan,"B.Katihalli, Hassan - KSPCB",24-10-2025 07:00:00,13.008556,76.125258,NH3,1,6,3
India,Karnataka,Haveri,"Ashwini Nagar, Haveri - KSPCB",24-10-2025 07:00:00,14.791800,75.389600,PM2.5,47,83,61
India,Karnataka,Ramanagara,"Vijay Nagar, Ramanagara - KSPCB",24-10-2025 07:00:00,12.733409,77.298051,CO,4,34,20
India,Karnataka,Tumakuru,"Thimmalapura, Tumakuru - KSPCB",24-10-2025 07:00:00,13.377516,77.099072,PM10,NA,NA,NA
India,Karnataka,Tumakuru,"Thimmalapura, Tumakuru - KSPCB",24-10-2025 07:00:00,13.377516,77.099072,NO2,NA,NA,NA
India,Karnataka,Tumakuru,"Thimmalapura, Tumakuru - KSPCB",24-10-2025 07:00:00,13.377516,77.099072,NH3,NA,NA,NA
India,Karnataka,Tumakuru,"Thimmalapura, Tumakuru - KSPCB",24-10-2025 07:00:00,13.377516,77.099072,CO,52,54,54
India,Karnataka,Udupi,"Brahmagiri, Udupi - KSPCB",24-10-2025 07:00:00,13.34194444,74.74694444,NO2,NA,NA,NA
India,Karnataka,Udupi,"Brahmagiri, Udupi - KSPCB",24-10-2025 07:00:00,13.34194444,74.74694444,SO2,NA,NA,NA
India,Karnataka,Udupi,"Brahmagiri, Udupi - KSPCB",24-10-2025 07:00:00,13.34194444,74.74694444,OZONE,NA,NA,NA
India,Karnataka,Vijayapura,"Ibrahimpur, Vijayapura - KSPCB",24-10-2025 07:00:00,16.802639,75.722694,PM10,42,84,45
India,Karnataka,Vijayapura,"Ibrahimpur, Vijayapura - KSPCB",24-10-2025 07:00:00,16.802639,75.722694,NO2,11,12,11
India,Karnataka,Bagalkot,"Vidayagiri, Bagalkot - KSPCB",24-10-2025 07:00:00,16.172806,75.659694,PM10,NA,NA,NA
India,Karnataka,Belgaum,"Ramteerth Nagar, Belgaum - KSPCB",24-10-2025 07:00:00,15.888653,74.541751,NO2,54,95,77
India,Karnataka,Bengaluru,"BTM Layout, Bengaluru - CPCB",24-10-2025 07:00:00,12.9135218,77.5950804,PM10,112,113,113
India,Karnataka,Bengaluru,"BTM Layout, Bengaluru - CPCB",24-10-2025 07:00:00,12.9135218,77.5950804,OZONE,24,25,24
India,Karnataka,Bengaluru,"BWSSB Kadabesanahalli, Bengaluru - CPCB",24-10-2025 07:00:00,12.9352049,77.6814488,NO2,23,23,23
India,Karnataka,Bengaluru,"BWSSB Kadabesanahalli, Bengaluru - CPCB",24-10-2025 07:00:00,12.9352049,77.6814488,NH3,3,3,3
India,Kerala,Eloor,"Udyogamandal, Eloor - Kerala PCB",24-10-2025 07:00:00,10.073232,76.302765,SO2,1,1,1
India,Kerala,Eloor,"Udyogamandal, Eloor - Kerala PCB",24-10-2025 07:00:00,10.073232,76.302765,OZONE,9,13,11
India,Kerala,Kannur,"Thavakkara, Kannur - Kerala PCB",24-10-2025 07:00:00,11.875000,75.373200,CO,NA,NA,NA
India,Kerala,Thiruvananthapuram,"Kariavattom, Thiruvananthapuram - Kerala PCB",24-10-2025 07:00:00,8.563700,76.886500,PM10,37,43,41
India,Karnataka,Bengaluru,"Kasturi Nagar, Bengaluru - KSPCB",24-10-2025 07:00:00,13.003872,77.664217,PM10,69,71,70
India,Karnataka,Bengaluru,"Peenya, Bengaluru - CPCB",24-10-2025 07:00:00,13.0270199,77.494094,SO2,5,12,9
India,Karnataka,Bengaluru,"Sanegurava Halli, Bengaluru - KSPCB",24-10-2025 07:00:00,12.990328,77.5431385,SO2,7,8,7
India,Karnataka,Karwar,"KHB Colony, Karwar - KSPCB",24-10-2025 07:00:00,14.816666,74.141003,NH3,NA,NA,NA
India,Karnataka,Koppal,"Diwator Nagar, Koppal - KSPCB",24-10-2025 07:00:00,15.347630,76.181767,SO2,NA,NA,NA
India,Karnataka,Madikeri,"Stuart Hill, Madikeri - KSPCB",24-10-2025 07:00:00,12.415911,75.735050,CO,5,10,5
India,Madhya Pradesh,Gwalior,"Maharaj Bada, Gwalior - MPPCB",24-10-2025 07:00:00,26.200388,78.147714,SO2,14,29,21
India,Madhya Pradesh,Gwalior,"Maharaj Bada, Gwalior - MPPCB",24-10-2025 07:00:00,26.200388,78.147714,CO,7,119,28
India,Madhya Pradesh,Indore,"Airport Area, Indore - IMC",24-10-2025 07:00:00,22.7289,75.8076,PM10,44,100,76
India,Madhya Pradesh,Indore,"Airport Area, Indore - IMC",24-10-2025 07:00:00,22.7289,75.8076,CO,4,6,6
India,Madhya Pradesh,Indore,"Chhoti Gwaltoli, Indore - MPPCB",24-10-2025 07:00:00,22.4310,75.5213,PM10,73,136,105
India,Madhya Pradesh,Indore,"Chhoti Gwaltoli, Indore - MPPCB",24-10-2025 07:00:00,22.4310,75.5213,SO2,14,20,17
India,Madhya Pradesh,Indore,"Chhoti Gwaltoli, Indore - MPPCB",24-10-2025 07:00:00,22.4310,75.5213,CO,26,56,38
India,Madhya Pradesh,Indore,"Regional Park, Indore - IMC",24-10-2025 07:00:00,22.6780,75.8559,PM10,39,99,72
India,Madhya Pradesh,Indore,"Regional Park, Indore - IMC",24-10-2025 07:00:00,22.6780,75.8559,OZONE,12,22,17
India,Madhya Pradesh,Indore,"Residency Area, Indore - IMC",24-10-2025 07:00:00,22.7084,75.8815,PM2.5,33,103,58
India,Madhya Pradesh,Indore,"Residency Area, Indore - IMC",24-10-2025 07:00:00,22.7084,75.8815,NO2,12,18,15
India,Madhya Pradesh,Jabalpur,"Govindh Bhavan Colony, Jabalpur - JMC",24-10-2025 07:00:00,23.163174,79.973061,PM10,50,102,76
India,Madhya Pradesh,Pithampur,"Sector-2 Industrial Area, Pithampur - MPPCB",24-10-2025 07:00:00,22.624758,75.675238,SO2,16,19,17
India,Madhya Pradesh,Sagar,"Civil Lines, Sagar - MPPCB",24-10-2025 07:00:00,23.838586,78.759431,NH3,1,2,2
India,Madhya Pradesh,Sagar,"Civil Lines, Sagar - MPPCB",24-10-2025 07:00:00,23.838586,78.759431,CO,24,66,42
India,Madhya Pradesh,Satna,"Bandhavgar Colony, Satna - Birla Cement",24-10-2025 07:00:00,24.58434363,80.8549414,PM2.5,53,59,56
India,Madhya Pradesh,Satna,"Bandhavgar Colony, Satna - Birla Cement",24-10-2025 07:00:00,24.58434363,80.8549414,NO2,21,36,29
India,Madhya Pradesh,Singrauli,"Suryakiran Bhawan NCL, Singrauli - MPPCB",24-10-2025 07:00:00,24.108970,82.645580,NO2,22,24,23
India,Maharashtra,Aurangabad,"More Chowk Waluj, Aurangabad - MPCB",24-10-2025 07:00:00,19.8389439,75.244448,PM10,42,86,60
India,Maharashtra,Aurangabad,"More Chowk Waluj, Aurangabad - MPCB",24-10-2025 07:00:00,19.8389439,75.244448,NO2,14,25,19
India,Maharashtra,Aurangabad,"Rachnakar Colony, Aurangabad - MPCB",24-10-2025 07:00:00,19.863756,75.321188,PM10,77,180,110
India,Maharashtra,Aurangabad,"Rachnakar Colony, Aurangabad - MPCB",24-10-2025 07:00:00,19.863756,75.321188,NH3,3,7,5
India,Maharashtra,Badlapur,"Katrap, Badlapur - MPCB",24-10-2025 07:00:00,19.16485,73.23409,NH3,2,6,4
India,Maharashtra,Bhiwandi,"Gokul Nagar, Bhiwandi - MPCB",24-10-2025 07:00:00,19.309073,73.057223,PM2.5,16,174,87
India,Maharashtra,Bhiwandi,"Gokul Nagar, Bhiwandi - MPCB",24-10-2025 07:00:00,19.309073,73.057223,NH3,3,7,5
India,Kerala,Thiruvananthapuram,"Plammoodu, Thiruvananthapuram - Kerala PCB",24-10-2025 07:00:00,8.5149093,76.9435879,SO2,7,24,17
India,Kerala,Thiruvananthapuram,"Plammoodu, Thiruvananthapuram - Kerala PCB",24-10-2025 07:00:00,8.5149093,76.9435879,OZONE,8,22,16
India,Kerala,Thrissur,"Corporation Ground, Thrissur - Kerala PCB",24-10-2025 07:00:00,10.532400,76.215900,PM2.5,46,74,55
India,Madhya Pradesh,Bhopal,"Idgah Hills, Bhopal - MPPCB",24-10-2025 07:00:00,23.264759,77.381568,PM10,63,176,121
India,Madhya Pradesh,Bhopal,"Paryavaran Parisar, Bhopal - MPPCB",24-10-2025 07:00:00,23.210494,77.425409,PM10,62,184,115
India,Madhya Pradesh,Dewas,"Bhopal Chauraha, Dewas - MPPCB",24-10-2025 07:00:00,22.9682591,76.064118,NO2,66,83,75
India,Madhya Pradesh,Dewas,"Bhopal Chauraha, Dewas - MPPCB",24-10-2025 07:00:00,22.9682591,76.064118,SO2,11,62,29
India,Madhya Pradesh,Gwalior,"City Center, Gwalior - MPPCB",24-10-2025 07:00:00,26.203442,78.193251,PM10,103,226,163
India,Madhya Pradesh,Gwalior,"Deen Dayal Nagar, Gwalior - MPPCB",24-10-2025 07:00:00,26.259242,78.216432,SO2,5,16,10
India,Madhya Pradesh,Gwalior,"Maharaj Bada, Gwalior - MPPCB",24-10-2025 07:00:00,26.200388,78.147714,PM2.5,120,431,315
India,Madhya Pradesh,Gwalior,"Maharaj Bada, Gwalior - MPPCB",24-10-2025 07:00:00,26.200388,78.147714,PM10,129,414,231
India,Madhya Pradesh,Singrauli,"Suryakiran Bhawan NCL, Singrauli - MPPCB",24-10-2025 07:00:00,24.108970,82.645580,OZONE,12,62,13
India,Maharashtra,Ahmednagar,"Tarakpur, Ahmednagar - MPCB",24-10-2025 07:00:00,19.10122,74.73339,SO2,1,9,6
India,Maharashtra,Akola,"Ramdaspeth, Akola - MPCB",24-10-2025 07:00:00,20.719516,77.000253,SO2,15,22,18
India,Maharashtra,Akola,"Ramdaspeth, Akola - MPCB",24-10-2025 07:00:00,20.719516,77.000253,CO,18,27,22
India,Maharashtra,Amravati,"Shivneri Colony, Amravati - MPCB",24-10-2025 07:00:00,20.9402359,77.7895248,NO2,4,13,7
India,Madhya Pradesh,Jabalpur,"Govindh Bhavan Colony, Jabalpur - JMC",24-10-2025 07:00:00,23.163174,79.973061,NO2,15,20,17
India,Madhya Pradesh,Jabalpur,"Suhagi, Jabalpur - JMC",24-10-2025 07:00:00,23.218135,79.957770,NO2,16,84,36
India,Madhya Pradesh,Jabalpur,"Suhagi, Jabalpur - JMC",24-10-2025 07:00:00,23.218135,79.957770,SO2,9,10,10
India,Madhya Pradesh,Jabalpur,"Suhagi, Jabalpur - JMC",24-10-2025 07:00:00,23.218135,79.957770,CO,24,104,33
India,Madhya Pradesh,Katni,"Gole Bazar, Katni - MPPCB",24-10-2025 07:00:00,23.50016,80.23284,PM10,114,163,128
India,Madhya Pradesh,Katni,"Gole Bazar, Katni - MPPCB",24-10-2025 07:00:00,23.50016,80.23284,NH3,3,4,3
India,Maharashtra,Boisar,"Khaira, Boisar - MPCB",24-10-2025 07:00:00,19.786089,72.757971,NH3,NA,NA,NA
India,Maharashtra,Boisar,"Khaira, Boisar - MPCB",24-10-2025 07:00:00,19.786089,72.757971,OZONE,NA,NA,NA
India,Maharashtra,Chandrapur,"Chauhan Colony, Chandrapur - MPCB",24-10-2025 07:00:00,19.962900,79.298714,NO2,28,30,30
India,Maharashtra,Chandrapur,"MIDC Khutala, Chandrapur - MPCB",24-10-2025 07:00:00,19.9775302,79.2337086,SO2,8,9,9
India,Maharashtra,Bhiwandi,"Gokul Nagar, Bhiwandi - MPCB",24-10-2025 07:00:00,19.309073,73.057223,SO2,5,22,15
India,Maharashtra,Mumbai,"Vasai West, Mumbai - MPCB",24-10-2025 07:00:00,19.383200,72.820400,PM2.5,8,95,41
India,Maharashtra,Mumbai,"Vasai West, Mumbai - MPCB",24-10-2025 07:00:00,19.383200,72.820400,PM10,27,104,55
India,Maharashtra,Mumbai,"Vasai West, Mumbai - MPCB",24-10-2025 07:00:00,19.383200,72.820400,SO2,8,8,8
India,Maharashtra,Mumbai,"Vasai West, Mumbai - MPCB",24-10-2025 07:00:00,19.383200,72.820400,CO,48,51,50
India,Maharashtra,Mumbai,"Vasai West, Mumbai - MPCB",24-10-2025 07:00:00,19.383200,72.820400,OZONE,11,22,12
India,Maharashtra,Mumbai,"Vile Parle West, Mumbai - MPCB",24-10-2025 07:00:00,19.10861,72.83622,PM2.5,7,64,27
India,Maharashtra,Mumbai,"Vile Parle West, Mumbai - MPCB",24-10-2025 07:00:00,19.10861,72.83622,NO2,4,30,20
India,Maharashtra,Mumbai,"Vile Parle West, Mumbai - MPCB",24-10-2025 07:00:00,19.10861,72.83622,NH3,1,5,3
India,Maharashtra,Mumbai,"Worli, Mumbai - MPCB",24-10-2025 07:00:00,18.9936162,72.8128113,PM10,49,83,69
India,Maharashtra,Mumbai,"Worli, Mumbai - MPCB",24-10-2025 07:00:00,18.9936162,72.8128113,NH3,1,2,1
India,Maharashtra,Nagpur,"Ambazari, Nagpur - MPCB",24-10-2025 07:00:00,21.121801,79.04952,SO2,17,45,25
India,Maharashtra,Mumbai,"Bandra Kurla Complex, Mumbai - IITM",24-10-2025 07:00:00,19.053536,72.84643,NO2,14,55,36
India,Maharashtra,Mumbai,"Bandra Kurla Complex, Mumbai - MPCB",24-10-2025 07:00:00,19.065931,72.862131,CO,8,20,11
India,Maharashtra,Mumbai,"Bandra Kurla Complex, Mumbai - MPCB",24-10-2025 07:00:00,19.065931,72.862131,OZONE,2,51,6
India,Maharashtra,Mumbai,"Borivali East, Mumbai - IITM",24-10-2025 07:00:00,19.23241,72.86895,OZONE,8,86,18
India,Maharashtra,Mumbai,"Borivali East, Mumbai - MPCB",24-10-2025 07:00:00,19.2243333,72.8658113,PM2.5,26,158,62
India,Maharashtra,Mumbai,"Borivali East, Mumbai - MPCB",24-10-2025 07:00:00,19.2243333,72.8658113,SO2,23,32,26
India,Maharashtra,Mumbai,"Borivali East, Mumbai - MPCB",24-10-2025 07:00:00,19.2243333,72.8658113,CO,14,19,15
India,Maharashtra,Mumbai,"Borivali East, Mumbai - MPCB",24-10-2025 07:00:00,19.2243333,72.8658113,OZONE,12,17,15
India,Maharashtra,Mumbai,"Byculla, Mumbai - BMC",24-10-2025 07:00:00,18.9767,72.8380,NH3,4,17,8
India,Maharashtra,Mahad,"Kamble Tarf Birwadi, Mahad - MPCB",24-10-2025 07:00:00,18.1023399,73.4783687,PM2.5,47,111,75
India,Maharashtra,Mahad,"Kamble Tarf Birwadi, Mahad - MPCB",24-10-2025 07:00:00,18.1023399,73.4783687,PM10,56,103,82
India,Maharashtra,Mahad,"Kamble Tarf Birwadi, Mahad - MPCB",24-10-2025 07:00:00,18.1023399,73.4783687,NO2,17,21,19
India,Maharashtra,Malegaon,"Mahesh Nagar, Malegaon - MPCB",24-10-2025 07:00:00,20.555712,74.529236,PM2.5,61,120,87
India,Maharashtra,Malegaon,"Mahesh Nagar, Malegaon - MPCB",24-10-2025 07:00:00,20.555712,74.529236,PM10,52,123,89
India,Maharashtra,Malegaon,"Mahesh Nagar, Malegaon - MPCB",24-10-2025 07:00:00,20.555712,74.529236,OZONE,19,59,36
India,Maharashtra,Mira-Bhayandar,"Bhayandar West, Mira-Bhayandar - MPCB",24-10-2025 07:00:00,19.296481,72.840923,SO2,NA,NA,NA
India,Maharashtra,Mira-Bhayandar,"Bhayandar West, Mira-Bhayandar - MPCB",24-10-2025 07:00:00,19.296481,72.840923,OZONE,5,67,7
India,Maharashtra,Mumbai,"Powai, Mumbai - MPCB",24-10-2025 07:00:00,19.137500,72.915056,NO2,NA,NA,NA
India,Maharashtra,Mumbai,"Powai, Mumbai - MPCB",24-10-2025 07:00:00,19.137500,72.915056,OZONE,NA,NA,NA
India,Maharashtra,Mumbai,"Sewri, Mumbai - BMC",24-10-2025 07:00:00,19.000084,72.856730,NH3,3,16,8
India,Maharashtra,Mumbai,"Siddharth Nagar-Worli, Mumbai - IITM",24-10-2025 07:00:00,19.000083,72.813993,PM10,31,81,49
India,Maharashtra,Mumbai,"Siddharth Nagar-Worli, Mumbai - IITM",24-10-2025 07:00:00,19.000083,72.813993,NH3,3,5,4
India,Maharashtra,Mumbai,"Siddharth Nagar-Worli, Mumbai - IITM",24-10-2025 07:00:00,19.000083,72.813993,OZONE,5,55,16
India,Maharashtra,Mumbai,"Sion, Mumbai - MPCB",24-10-2025 07:00:00,19.047000,72.874600,PM2.5,16,128,44
India,Maharashtra,Mumbai,"Mazgaon, Mumbai - IITM",24-10-2025 07:00:00,18.96702,72.84214,OZONE,7,71,16
India,Maharashtra,Mumbai,"Mindspace-Malad West, Mumbai - MPCB",24-10-2025 07:00:00,19.1878657,72.8304069,PM2.5,3,314,73
India,Maharashtra,Mumbai,"Mindspace-Malad West, Mumbai - MPCB",24-10-2025 07:00:00,19.1878657,72.8304069,SO2,14,16,15
India,Maharashtra,Mumbai,"Mindspace-Malad West, Mumbai - MPCB",24-10-2025 07:00:00,19.1878657,72.8304069,OZONE,11,36,21
India,Maharashtra,Mumbai,"Navy Nagar-Colaba, Mumbai - IITM",24-10-2025 07:00:00,18.897756,72.813320,OZONE,8,96,24
India,Maharashtra,Mumbai,"Powai, Mumbai - MPCB",24-10-2025 07:00:00,19.137500,72.915056,PM10,NA,NA,NA
India,Maharashtra,Mumbai,"Byculla, Mumbai - BMC",24-10-2025 07:00:00,18.9767,72.8380,OZONE,7,60,16
India,Maharashtra,Mumbai,"Chakala-Andheri East, Mumbai - IITM",24-10-2025 07:00:00,19.11074,72.86084,OZONE,1,45,5
India,Maharashtra,Mumbai,"Chembur, Mumbai - MPCB",24-10-2025 07:00:00,19.0364585,72.8954371,SO2,5,110,24
India,Maharashtra,Mumbai,"Chembur, Mumbai - MPCB",24-10-2025 07:00:00,19.0364585,72.8954371,OZONE,5,61,13
India,Maharashtra,Mumbai,"Chhatrapati Shivaji Intl. Airport (T2), Mumbai - MPCB",24-10-2025 07:00:00,19.10078,72.87462,PM2.5,45,94,64
India,Maharashtra,Mumbai,"Colaba, Mumbai - MPCB",24-10-2025 07:00:00,18.910000,72.820000,OZONE,9,11,11
India,Maharashtra,Mumbai,"Deonar, Mumbai - IITM",24-10-2025 07:00:00,19.04946,72.9230,PM2.5,8,138,42
India,Maharashtra,Mumbai,"Kandivali West, Mumbai - BMC",24-10-2025 07:00:00,19.215859,72.831718,SO2,1,10,2
India,Maharashtra,Jalgaon,"Prabhat Colony, Jalgaon - MPCB",24-10-2025 07:00:00,21.001264,75.565602,PM10,7,452,128
India,Maharashtra,Jalgaon,"Prabhat Colony, Jalgaon - MPCB",24-10-2025 07:00:00,21.001264,75.565602,CO,21,32,25
India,Maharashtra,Kalyan,"Khadakpada, Kalyan - MPCB",24-10-2025 07:00:00,19.25292,73.142019,PM2.5,NA,NA,NA
India,Maharashtra,Mumbai,"Kurla, Mumbai - MPCB",24-10-2025 07:00:00,19.0863,72.8888,PM2.5,44,84,59
India,Maharashtra,Mumbai,"Kurla, Mumbai - MPCB",24-10-2025 07:00:00,19.0863,72.8888,SO2,36,37,37
India,Maharashtra,Mumbai,"Kurla, Mumbai - MPCB",24-10-2025 07:00:00,19.0863,72.8888,OZONE,25,29,28
India,Maharashtra,Nagpur,"Mahal, Nagpur - MPCB",24-10-2025 07:00:00,21.14472,79.107595,PM2.5,41,183,85
India,Maharashtra,Nagpur,"Mahal, Nagpur - MPCB",24-10-2025 07:00:00,21.14472,79.107595,OZONE,32,33,32
India,Maharashtra,Nagpur,"Opp GPO Civil Lines, Nagpur - MPCB",24-10-2025 07:00:00,21.152875,79.0517531,PM10,64,132,101
India,Maharashtra,Nagpur,"Ram Nagar, Nagpur - MPCB",24-10-2025 07:00:00,21.143383,79.048912,PM10,80,147,113
India,Maharashtra,Nanded,"Sneh Nagar, Nanded - MPCB",24-10-2025 07:00:00,19.173852,77.296291,NO2,14,19,16
India,Maharashtra,Nanded,"Sneh Nagar, Nanded - MPCB",24-10-2025 07:00:00,19.173852,77.296291,NH3,3,5,4
India,Maharashtra,Nanded,"Sneh Nagar, Nanded - MPCB",24-10-2025 07:00:00,19.173852,77.296291,SO2,2,3,2
India,Maharashtra,Nanded,"Sneh Nagar, Nanded - MPCB",24-10-2025 07:00:00,19.173852,77.296291,OZONE,11,31,17
India,Maharashtra,Nashik,"Gangapur Road, Nashik - MPCB",24-10-2025 07:00:00,20.0073285,73.7762427,PM2.5,21,93,50
India,Meghalaya,Shillong,"JN Stadium, Shillong - Meghalaya PCB",24-10-2025 07:00:00,25.5803419,91.8942571,CO,13,65,26
India,Meghalaya,Shillong,"Lumpyngngad, Shillong - Meghalaya PCB",24-10-2025 07:00:00,25.5586,91.8985,PM2.5,1,12,5
India,Meghalaya,Shillong,"Lumpyngngad, Shillong - Meghalaya PCB",24-10-2025 07:00:00,25.5586,91.8985,PM10,3,18,8
India,Nagaland,Kohima,"PWD Junction, Kohima - NPCB",24-10-2025 07:00:00,25.6635413,94.0989878,CO,4,13,8
India,Odisha,Angul,"Hakimapada, Angul - OSPCB",24-10-2025 07:00:00,20.832874,85.104082,PM2.5,70,423,188
India,Odisha,Angul,"Hakimapada, Angul - OSPCB",24-10-2025 07:00:00,20.832874,85.104082,OZONE,3,33,3
India,Odisha,Balasore,"Kalidaspur, Balasore - OSPCB",24-10-2025 07:00:00,21.51161,86.89088,SO2,5,25,9
India,Odisha,Balasore,"Kalidaspur, Balasore - OSPCB",24-10-2025 07:00:00,21.51161,86.89088,CO,10,51,11
India,Maharashtra,Pimpri-Chinchwad,"Thergaon, Pimpri Chinchwad - MPCB",24-10-2025 07:00:00,18.616318,73.765797,NH3,2,10,4
India,Maharashtra,Pimpri-Chinchwad,"Thergaon, Pimpri Chinchwad - MPCB",24-10-2025 07:00:00,18.616318,73.765797,SO2,2,4,3
India,Maharashtra,Pune,"Bhumkar Nagar, Pune - IITM",24-10-2025 07:00:00,18.605770,73.749976,PM10,NA,NA,NA
India,Maharashtra,Pune,"Bhumkar Nagar, Pune - IITM",24-10-2025 07:00:00,18.605770,73.749976,OZONE,2,23,3
India,Maharashtra,Pune,"Hadapsar, Pune - IITM",24-10-2025 07:00:00,18.501793,73.927532,PM10,32,220,72
India,Maharashtra,Pune,"Mhada Colony, Pune - IITM",24-10-2025 07:00:00,18.573040,73.927715,NO2,22,51,30
India,Maharashtra,Pune,"Panchawati_Pashan, Pune - IITM",24-10-2025 07:00:00,18.536457,73.805454,PM10,32,64,45
India,Maharashtra,Pune,"Savitribai Phule Pune University, Pune - MPCB",24-10-2025 07:00:00,18.547056,73.826908,PM2.5,4,29,15
India,Maharashtra,Thane,"Kasarvadavali, Thane - MPCB",24-10-2025 07:00:00,19.26777,72.97182,NO2,3,40,19
India,Maharashtra,Thane,"Upvan Fort, Thane - MPCB",24-10-2025 07:00:00,19.222279,72.957979,PM2.5,3,500,167
India,Maharashtra,Thane,"Upvan Fort, Thane - MPCB",24-10-2025 07:00:00,19.222279,72.957979,NO2,6,34,19
India,Maharashtra,Thane,"Upvan Fort, Thane - MPCB",24-10-2025 07:00:00,19.222279,72.957979,SO2,5,26,9
India,Maharashtra,Ulhasnagar,"Sidhi Vinayak Nagar, Ulhasnagar - MPCB",24-10-2025 07:00:00,19.235581,73.159121,PM10,45,180,95
India,Meghalaya,Shillong,"JN Stadium, Shillong - Meghalaya PCB",24-10-2025 07:00:00,25.5803419,91.8942571,PM2.5,NA,NA,NA
India,Maharashtra,Nashik,"Gangapur Road, Nashik - MPCB",24-10-2025 07:00:00,20.0073285,73.7762427,CO,26,27,26
India,Maharashtra,Nashik,"Gangapur Road, Nashik - MPCB",24-10-2025 07:00:00,20.0073285,73.7762427,OZONE,9,50,40
India,Maharashtra,Nashik,"Pandav Nagari, Nashik - MPCB",24-10-2025 07:00:00,19.9591346,73.7788008,CO,9,24,15
India,Maharashtra,Navi Mumbai,"Kopripada-Vashi, Navi Mumbai - MPCB",24-10-2025 07:00:00,19.090337,73.014232,PM10,14,46,31
India,Maharashtra,Navi Mumbai,"Kopripada-Vashi, Navi Mumbai - MPCB",24-10-2025 07:00:00,19.090337,73.014232,NH3,3,6,4
India,Maharashtra,Navi Mumbai,"Kopripada-Vashi, Navi Mumbai - MPCB",24-10-2025 07:00:00,19.090337,73.014232,CO,9,34,17
India,Maharashtra,Navi Mumbai,"Nerul, Navi Mumbai - MPCB",24-10-2025 07:00:00,19.008751,73.016620,SO2,NA,NA,NA
India,Maharashtra,Navi Mumbai,"Sector-2E Kalamboli, Navi Mumbai - MPCB",24-10-2025 07:00:00,19.02579,73.10297,PM2.5,35,128,67
India,Maharashtra,Navi Mumbai,"Sector-2E Kalamboli, Navi Mumbai - MPCB",24-10-2025 07:00:00,19.02579,73.10297,CO,1,18,1
India,Maharashtra,Navi Mumbai,"Sector-2E Kalamboli, Navi Mumbai - MPCB",24-10-2025 07:00:00,19.02579,73.10297,OZONE,3,25,6
India,Maharashtra,Navi Mumbai,"Tondare-Taloja, Navi Mumbai - MPCB",24-10-2025 07:00:00,19.0630,73.1209,NO2,7,25,17
India,Maharashtra,Navi Mumbai,"Tondare-Taloja, Navi Mumbai - MPCB",24-10-2025 07:00:00,19.0630,73.1209,SO2,3,4,4
India,Maharashtra,Sangli,"Vijay Nagar, Sangli - MPCB",24-10-2025 07:00:00, 16.5038,74.3623,PM2.5,19,55,31
India,Maharashtra,Solapur,"Dnyaneshwar Nagar, Solapur - MPCB",24-10-2025 07:00:00,17.6336264,75.9132495,NO2,2,9,5
India,Maharashtra,Solapur,"Dnyaneshwar Nagar, Solapur - MPCB",24-10-2025 07:00:00,17.6336264,75.9132495,NH3,6,19,8
India,Maharashtra,Solapur,"Ratandeep Housing Society, Solapur - MPCB",24-10-2025 07:00:00,17.65439,75.90649,PM10,21,45,34
India,Maharashtra,Solapur,"Ratandeep Housing Society, Solapur - MPCB",24-10-2025 07:00:00,17.65439,75.90649,SO2,1,2,2
India,Maharashtra,Navi Mumbai,"Tondare-Taloja, Navi Mumbai - MPCB",24-10-2025 07:00:00,19.0630,73.1209,CO,25,44,33
India,Maharashtra,Parbhani,"Masoom Colony, Parbhani - MPCB",24-10-2025 07:00:00,19.265594,76.761463,PM2.5,27,74,48
India,Maharashtra,Pimpri-Chinchwad,"Gavalinagar, Pimpri Chinchwad - MPCB",24-10-2025 07:00:00,18.63673,73.82487,PM10,31,98,61
India,Maharashtra,Pimpri-Chinchwad,"Gavalinagar, Pimpri Chinchwad - MPCB",24-10-2025 07:00:00,18.63673,73.82487,NO2,21,37,27
India,Maharashtra,Pimpri-Chinchwad,"Savta Mali Nagar, Pimpri-Chinchwad - IITM",24-10-2025 07:00:00,18.614767,73.799516,CO,48,100,81
India,Odisha,Keonjhar,"Jagamohanpur, Keonjhar - OSPCB",24-10-2025 07:00:00,21.643900,85.599355,NH3,8,17,12
India,Odisha,Keonjhar,"Jagamohanpur, Keonjhar - OSPCB",24-10-2025 07:00:00,21.643900,85.599355,SO2,16,24,18
India,Odisha,Nayagarh,"Dabuna, Nayagarh - OSPCB",24-10-2025 07:00:00,21.847279,85.416905,OZONE,12,24,13
India,Odisha,Rairangpur,"Divisional Forest Office, Rairangpur - OSPCB",24-10-2025 07:00:00,22.265816,86.174829,PM2.5,NA,NA,NA
India,Odisha,Rairangpur,"Divisional Forest Office, Rairangpur - OSPCB",24-10-2025 07:00:00,22.265816,86.174829,NO2,14,21,17
India,Odisha,Rairangpur,"Divisional Forest Office, Rairangpur - OSPCB",24-10-2025 07:00:00,22.265816,86.174829,SO2,7,9,8
India,Odisha,Rairangpur,"Divisional Forest Office, Rairangpur - OSPCB",24-10-2025 07:00:00,22.265816,86.174829,OZONE,17,34,18
India,Odisha,Rourkela,"Fertilizer Township, Rourkela - OSPCB",24-10-2025 07:00:00,22.18972222,84.86277778,CO,20,30,24
India,Odisha,Rourkela,"Raghunathpali, Rourkela - OSPCB",24-10-2025 07:00:00,22.220833,84.809444,NH3,1,3,2
India,Odisha,Barbil,"Forest Office, Barbil - OSPCB",24-10-2025 07:00:00,22.1166054,85.3945546,CO,28,88,53
India,Odisha,Baripada,"Meher Colony, Baripada - OSPCB",24-10-2025 07:00:00,21.941841,86.728318,NO2,9,58,27
India,Odisha,Bhubaneswar,"Lingraj Mandir, Bhubaneswar - OSPCB",24-10-2025 07:00:00,20.240790,85.836784,NO2,4,31,18
India,Odisha,Bhubaneswar,"Lingraj Mandir, Bhubaneswar - OSPCB",24-10-2025 07:00:00,20.240790,85.836784,NH3,4,6,5
India,Odisha,Bhubaneswar,"Patia, Bhubaneswar - OSPCB",24-10-2025 07:00:00,20.34652,85.81630,PM10,74,148,106
India,Odisha,Bhubaneswar,"Patia, Bhubaneswar - OSPCB",24-10-2025 07:00:00,20.34652,85.81630,CO,32,60,46
India,Odisha,Bhubaneswar,"Patia, Bhubaneswar - OSPCB",24-10-2025 07:00:00,20.34652,85.81630,OZONE,7,48,11
India,Punjab,Patiala,"Model Town, Patiala - PPCB",24-10-2025 07:00:00,30.349388,76.366642,NO2,15,20,18
India,Punjab,Patiala,"Model Town, Patiala - PPCB",24-10-2025 07:00:00,30.349388,76.366642,OZONE,35,36,35
India,Punjab,Rupnagar,"Ratanpura, Rupnagar - Ambuja Cements",24-10-2025 07:00:00,31.0325454,76.5623046,CO,35,48,40
India,Rajasthan,Ajmer,"Civil Lines,  Ajmer - RSPCB",24-10-2025 07:00:00,26.470859,74.646594,PM10,62,186,107
India,Rajasthan,Alwar,"Moti Doongri, Alwar - RSPCB",24-10-2025 07:00:00,27.554793,76.611536,NO2,41,58,50
India,Rajasthan,Alwar,"Moti Doongri, Alwar - RSPCB",24-10-2025 07:00:00,27.554793,76.611536,SO2,18,54,32
India,Rajasthan,Bhilwara,"Pratap Nagar, Bhilwara - RSPCB",24-10-2025 07:00:00,25.339605,74.618883,SO2,4,34,14
India,Rajasthan,Bhilwara,"Pratap Nagar, Bhilwara - RSPCB",24-10-2025 07:00:00,25.339605,74.618883,CO,8,38,14
India,Rajasthan,Bhiwadi,"RIICO Ind. Area III, Bhiwadi - RSPCB",24-10-2025 07:00:00,28.194909,76.862296,CO,34,88,66
India,Rajasthan,Bhiwadi,"Vasundhara Nagar_UIT, Bhiwadi - RSPCB",24-10-2025 07:00:00,28.207266,76.829265,PM2.5,63,369,247
India,Rajasthan,Bikaner,"MM Ground, Bikaner - RSPCB",24-10-2025 07:00:00,28.018792,73.292658,PM10,97,414,205
India,Rajasthan,Bikaner,"MM Ground, Bikaner - RSPCB",24-10-2025 07:00:00,28.018792,73.292658,OZONE,9,145,79
India,Punjab,Jalandhar,"Civil Line, Jalandhar - PPCB",24-10-2025 07:00:00,31.321907,75.578914,NH3,6,6,6
India,Punjab,Jalandhar,"Civil Line, Jalandhar - PPCB",24-10-2025 07:00:00,31.321907,75.578914,CO,76,83,80
India,Punjab,Khanna,"Kalal Majra, Khanna - PPCB",24-10-2025 07:00:00,30.736056 ,76.209694,OZONE,34,36,35
India,Punjab,Mandi Gobindgarh,"RIMT University, Mandi Gobindgarh - PPCB",24-10-2025 07:00:00,30.649961,76.331442,NH3,6,6,6
India,Odisha,Tensa,"Barsua Iron Ore Mines, Tensa - OSPCB",24-10-2025 07:00:00,21.869985,85.167016,OZONE,6,31,8
India,Puducherry,Puducherry,"Jawahar Nagar, Puducherry - PPCC",24-10-2025 07:00:00,11.9309,79.8027,NO2,6,25,13
India,Punjab,Bathinda,"Hardev Nagar, Bathinda - PPCB",24-10-2025 07:00:00,30.233011,74.907758,PM10,49,123,93
India,Odisha,Bileipada,"Tata Township, Bileipada - OSPCB",24-10-2025 07:00:00,22.06156703,85.47409613,NH3,4,4,4
India,Odisha,Brajrajnagar,"GM Office, Brajrajnagar - OSPCB",24-10-2025 07:00:00,21.8004996,83.8396977,NO2,3,36,14
India,Odisha,Keonjhar,"Jagamohanpur, Keonjhar - OSPCB",24-10-2025 07:00:00,21.643900,85.599355,NO2,17,38,25
India,Rajasthan,Barmer,"Railway Colony, Barmer - RSPCB",24-10-2025 07:00:00,25.747299,71.393989,PM2.5,47,120,82
India,Rajasthan,Barmer,"Railway Colony, Barmer - RSPCB",24-10-2025 07:00:00,25.747299,71.393989,NO2,8,97,30
India,Rajasthan,Barmer,"Railway Colony, Barmer - RSPCB",24-10-2025 07:00:00,25.747299,71.393989,NH3,3,9,5
India,Rajasthan,Barmer,"Railway Colony, Barmer - RSPCB",24-10-2025 07:00:00,25.747299,71.393989,CO,19,84,35
India,Rajasthan,Barmer,"Railway Colony, Barmer - RSPCB",24-10-2025 07:00:00,25.747299,71.393989,OZONE,48,144,83
India,Punjab,Mandi Gobindgarh,"RIMT University, Mandi Gobindgarh - PPCB",24-10-2025 07:00:00,30.649961,76.331442,CO,12,103,39
India,Rajasthan,Sri Ganganagar,"Old City, Sri Ganganagar - RSPCB",24-10-2025 07:00:00,29.931624,73.864511,PM2.5,50,308,138
India,Rajasthan,Sri Ganganagar,"Old City, Sri Ganganagar - RSPCB",24-10-2025 07:00:00,29.931624,73.864511,NO2,34,171,95
India,Rajasthan,Sri Ganganagar,"Old City, Sri Ganganagar - RSPCB",24-10-2025 07:00:00,29.931624,73.864511,OZONE,10,140,11
India,Rajasthan,Tonk,"Shastri Nagar, Tonk - RSPCB",24-10-2025 07:00:00,26.159933,75.780517,PM2.5,72,320,163
India,Rajasthan,Tonk,"Shastri Nagar, Tonk - RSPCB",24-10-2025 07:00:00,26.159933,75.780517,PM10,90,193,130
India,Rajasthan,Tonk,"Shastri Nagar, Tonk - RSPCB",24-10-2025 07:00:00,26.159933,75.780517,NO2,7,46,22
India,Rajasthan,Tonk,"Shastri Nagar, Tonk - RSPCB",24-10-2025 07:00:00,26.159933,75.780517,SO2,2,4,2
India,Sikkim,Gangtok,"Zero Point GICI, Gangtok - SSPCB",24-10-2025 07:00:00,27.338530,88.614099,NO2,NA,NA,NA
India,Sikkim,Gangtok,"Zero Point GICI, Gangtok - SSPCB",24-10-2025 07:00:00,27.338530,88.614099,NH3,1,1,1
India,Rajasthan,Bundi,"New Colony, Bundi - RSPCB",24-10-2025 07:00:00,25.435774,75.644272,NH3,3,6,4
India,Rajasthan,Chittorgarh,"Shastri Nagar, Chittorgarh - RSPCB",24-10-2025 07:00:00,24.892047,74.623527,PM10,89,275,155
India,Rajasthan,Chittorgarh,"Shastri Nagar, Chittorgarh - RSPCB",24-10-2025 07:00:00,24.892047,74.623527,NO2,13,65,32
India,Rajasthan,Chittorgarh,"Shastri Nagar, Chittorgarh - RSPCB",24-10-2025 07:00:00,24.892047,74.623527,OZONE,18,118,29
India,Rajasthan,Churu,"Subash Chowk, Churu - RSPCB",24-10-2025 07:00:00,28.296139,74.961696,PM2.5,21,99,51
India,Rajasthan,Dausa,"Khatikan Mohalla, Dausa - RSPCB",24-10-2025 07:00:00,26.895552,76.334753,PM10,88,195,132
India,Rajasthan,Dausa,"Khatikan Mohalla, Dausa - RSPCB",24-10-2025 07:00:00,26.895552,76.334753,NO2,12,92,39
India,Rajasthan,Jaipur,"Police Commissionerate, Jaipur - RSPCB",24-10-2025 07:00:00,26.9164092,75.7994901,PM2.5,22,94,56
India,Rajasthan,Jaipur,"Police Commissionerate, Jaipur - RSPCB",24-10-2025 07:00:00,26.9164092,75.7994901,PM10,60,116,81
India,Rajasthan,Jaipur,"Police Commissionerate, Jaipur - RSPCB",24-10-2025 07:00:00,26.9164092,75.7994901,NO2,90,102,95
India,Rajasthan,Jaipur,"Police Commissionerate, Jaipur - RSPCB",24-10-2025 07:00:00,26.9164092,75.7994901,NH3,8,12,10
India,Rajasthan,Jaipur,"RIICO Sitapura, Jaipur - RSPCB",24-10-2025 07:00:00,26.786682,75.827928,OZONE,33,163,76
India,Rajasthan,Jaipur,"Sector-2 Murlipura, Jaipur - RSPCB",24-10-2025 07:00:00,26.960669,75.771817,NO2,14,93,42
India,Rajasthan,Jaipur,"Shastri Nagar, Jaipur - RSPCB",24-10-2025 07:00:00,26.9502929,75.730943,PM10,81,129,109
India,Rajasthan,Jhunjhunu,"Indra Nagar, Jhunjhunu - RSPCB",24-10-2025 07:00:00,28.108988,75.386577,PM10,64,197,111
India,Rajasthan,Jhunjhunu,"Indra Nagar, Jhunjhunu - RSPCB",24-10-2025 07:00:00,28.108988,75.386577,NO2,9,151,40
India,Rajasthan,Jhunjhunu,"Indra Nagar, Jhunjhunu - RSPCB",24-10-2025 07:00:00,28.108988,75.386577,NH3,2,11,7
India,Rajasthan,Jodhpur,"Collectorate, Jodhpur - RSPCB",24-10-2025 07:00:00,26.268249,73.0193853,SO2,1,22,6
India,Rajasthan,Jodhpur,"Digari Kalan, Jodhpur - RSPCB",24-10-2025 07:00:00,26.295810,73.082283,NO2,12,118,41
India,Rajasthan,Jodhpur,"Jhalamand, Jodhpur - RSPCB",24-10-2025 07:00:00,26.215415,73.070156,NO2,6,81,25
India,Rajasthan,Jodhpur,"Jhalamand, Jodhpur - RSPCB",24-10-2025 07:00:00,26.215415,73.070156,SO2,2,5,3
India,Rajasthan,Jodhpur,"Mandor, Jodhpur - RSPCB",24-10-2025 07:00:00,26.358805,73.047444,OZONE,39,147,59
India,Rajasthan,Jodhpur,"Samrat Ashok Udhyan, Jodhpur - RSPCB",24-10-2025 07:00:00,26.253384,72.976571,PM10,73,335,128
India,Rajasthan,Karauli,"Satyawati Vihar, Karauli - RSPCB",24-10-2025 07:00:00,26.506177,77.025989,CO,14,42,32
India,Rajasthan,Kota,"Dhanmandi, Kota - RSPCB",24-10-2025 07:00:00,25.164090,75.858137,OZONE,10,173,30
India,Rajasthan,Kota,"Nayapura, Kota - RSPCB",24-10-2025 07:00:00,25.196024,75.855668,PM2.5,100,333,203
India,Rajasthan,Jaisalmer,"Sadar Bazar, Jaisalmer - RSPCB",24-10-2025 07:00:00,26.912329,70.909168,PM2.5,57,210,116
India,Rajasthan,Jaisalmer,"Sadar Bazar, Jaisalmer - RSPCB",24-10-2025 07:00:00,26.912329,70.909168,PM10,97,228,139
India,Rajasthan,Jaisalmer,"Sadar Bazar, Jaisalmer - RSPCB",24-10-2025 07:00:00,26.912329,70.909168,OZONE,10,145,27
India,Rajasthan,Jalore,"Mudtra Sili, Jalore - RSPCB",24-10-2025 07:00:00,25.344694,72.626208,NH3,4,10,5
India,Rajasthan,Jhalawar,"Rajlaxmi Nagar, Jhalawar - RSPCB",24-10-2025 07:00:00,24.588397,76.172782,PM10,96,151,126
India,Rajasthan,Jhalawar,"Rajlaxmi Nagar, Jhalawar - RSPCB",24-10-2025 07:00:00,24.588397,76.172782,SO2,6,16,11
India,Rajasthan,Pratapgarh,"Pragati Nagar, Pratapgarh - RSPCB",24-10-2025 07:00:00,24.041198,74.780702,OZONE,22,103,24
India,Rajasthan,Rajsamand,"Dhoinda, Rajsamand - RSPCB",24-10-2025 07:00:00,25.036360,73.883502,CO,44,56,48
India,Rajasthan,Rajsamand,"Dhoinda, Rajsamand - RSPCB",24-10-2025 07:00:00,25.036360,73.883502,OZONE,18,77,28
India,Rajasthan,Sawai Madhopur,"Sahu Nagar, Sawai Madhopur - RSPCB",24-10-2025 07:00:00,26.031443,76.359327,NH3,9,11,10
India,Rajasthan,Sikar,"Radhakishan Pura, Sikar - RSPCB",24-10-2025 07:00:00,27.608912,75.153302,OZONE,7,130,37
India,Rajasthan,Dungarpur,"Bhoiwada, Dungarpur - RSPCB",24-10-2025 07:00:00,23.837789,73.714926,OZONE,27,148,38
India,Rajasthan,Hanumangarh,"Housing Board, Hanumangarh - RSPCB",24-10-2025 07:00:00,29.610750,74.283608,PM10,93,254,170
India,Rajasthan,Hanumangarh,"Housing Board, Hanumangarh - RSPCB",24-10-2025 07:00:00,29.610750,74.283608,NO2,10,71,34
India,Rajasthan,Hanumangarh,"Housing Board, Hanumangarh - RSPCB",24-10-2025 07:00:00,29.610750,74.283608,NH3,9,20,15
India,Rajasthan,Hanumangarh,"Housing Board, Hanumangarh - RSPCB",24-10-2025 07:00:00,29.610750,74.283608,SO2,4,11,5
India,Rajasthan,Kota,"Nayapura, Kota - RSPCB",24-10-2025 07:00:00,25.196024,75.855668,SO2,1,10,5
India,Rajasthan,Kota,"Shrinath Puram, Kota - RSPCB",24-10-2025 07:00:00,25.14389,75.821256,OZONE,28,43,31
India,TamilNadu,Kanchipuram,"Kilambi, Kanchipuram - TNPCB",24-10-2025 07:00:00,12.864618,79.659968,CO,19,22,20
India,TamilNadu,Kanchipuram,"Kilambi, Kanchipuram - TNPCB",24-10-2025 07:00:00,12.864618,79.659968,OZONE,8,9,8
India,TamilNadu,Karur,"Kamadenu Nagar, Karur - TNPCB",24-10-2025 07:00:00,10.967820,78.080882,NO2,4,28,9
India,TamilNadu,Madurai,"Uchapatti, Madurai - TNPCB",24-10-2025 07:00:00,9.865935,78.022669,NH3,NA,NA,NA
India,TamilNadu,Madurai,"Uchapatti, Madurai - TNPCB",24-10-2025 07:00:00,9.865935,78.022669,OZONE,NA,NA,NA
India,TamilNadu,Nagapattinam,"Velippalayam, Nagapattinam - TNPCB",24-10-2025 07:00:00,10.798548,79.838212,CO,14,23,16
India,TamilNadu,Nagapattinam,"Velippalayam, Nagapattinam - TNPCB",24-10-2025 07:00:00,10.798548,79.838212,OZONE,12,42,38
India,TamilNadu,Ooty,"Bombay Castel, Ooty - TNPCB",24-10-2025 07:00:00,11.4068288,76.7138973,PM2.5,17,80,34
India,TamilNadu,Ooty,"Bombay Castel, Ooty - TNPCB",24-10-2025 07:00:00,11.4068288,76.7138973,CO,19,25,20
India,TamilNadu,Thanjavur,"Parisutham Nagar, Thanjavur - TNPCB",24-10-2025 07:00:00,10.7654824,79.1389968,NH3,NA,NA,NA
India,TamilNadu,Thanjavur,"Parisutham Nagar, Thanjavur - TNPCB",24-10-2025 07:00:00,10.7654824,79.1389968,CO,9,10,10
India,TamilNadu,Thanjavur,"Parisutham Nagar, Thanjavur - TNPCB",24-10-2025 07:00:00,10.7654824,79.1389968,OZONE,15,31,24
India,TamilNadu,Thoothukudi,"Meelavittan, Thoothukudi - TNPCB",24-10-2025 07:00:00,8.816428 ,78.099039,PM10,15,500,51
India,TamilNadu,Thoothukudi,"Meelavittan, Thoothukudi - TNPCB",24-10-2025 07:00:00,8.816428 ,78.099039,SO2,1,5,3
India,TamilNadu,Thoothukudi,"Meelavittan, Thoothukudi - TNPCB",24-10-2025 07:00:00,8.816428 ,78.099039,CO,2,110,78
India,TamilNadu,Thoothukudi,"Meelavittan, Thoothukudi - TNPCB",24-10-2025 07:00:00,8.816428 ,78.099039,OZONE,1,16,6
India,TamilNadu,Tiruchirappalli,"St Joseph College, Tiruchirappalli - TNPCB",24-10-2025 07:00:00,10.830158,78.691849,PM2.5,NA,NA,NA
India,TamilNadu,Tiruchirappalli,"St Joseph College, Tiruchirappalli - TNPCB",24-10-2025 07:00:00,10.830158,78.691849,CO,4,9,6
India,TamilNadu,Tirupur,"Kumaran College, Tirupur - TNPCB",24-10-2025 07:00:00,11.0973603,77.3228673,PM10,16,48,30
India,TamilNadu,Vellore,"Vasanthapuram, Vellore - TNPCB",24-10-2025 07:00:00,12.909494,79.131861,PM2.5,10,33,25
India,TamilNadu,Vellore,"Vasanthapuram, Vellore - TNPCB",24-10-2025 07:00:00,12.909494,79.131861,SO2,17,74,24
India,TamilNadu,Virudhunagar,"Collectorate Office, Virudhunagar - TNPCB",24-10-2025 07:00:00,9.559382,77.948828,SO2,18,22,19
India,TamilNadu,Virudhunagar,"Collectorate Office, Virudhunagar - TNPCB",24-10-2025 07:00:00,9.559382,77.948828,OZONE,1,3,2
India,Telangana,Hyderabad,"Central University, Hyderabad - TSPCB",24-10-2025 07:00:00,17.460103,78.334361,PM2.5,2,10,6
India,TamilNadu,Cuddalore,"Semmandalam, Cuddalore - TNPCB",24-10-2025 07:00:00,11.7637683,79.7499835,PM10,NA,NA,NA
India,TamilNadu,Dindigul,"Mendonsa Colony, Dindigul - TNPCB",24-10-2025 07:00:00,10.358535,77.984321,NO2,13,25,19
India,TamilNadu,Dindigul,"Mendonsa Colony, Dindigul - TNPCB",24-10-2025 07:00:00,10.358535,77.984321,NH3,1,2,2
India,TamilNadu,Dindigul,"Mendonsa Colony, Dindigul - TNPCB",24-10-2025 07:00:00,10.358535,77.984321,SO2,20,24,22
India,TamilNadu,Gummidipoondi,"Anthoni Pillai Nagar, Gummidipoondi - TNPCB",24-10-2025 07:00:00,13.4127,80.1081,PM2.5,24,320,85
India,TamilNadu,Hosur,"SIPCOT Phase-1, Hosur - TNPCB",24-10-2025 07:00:00,12.746998,77.813811,NH3,1,1,1
India,TamilNadu,Chennai,"Royapuram, Chennai - TNPCB",24-10-2025 07:00:00,13.1036,80.2909,OZONE,NA,NA,NA
India,TamilNadu,Chennai,"Velachery Res. Area, Chennai - CPCB",24-10-2025 07:00:00,13.0052189,80.2398125,PM2.5,NA,NA,NA
India,TamilNadu,Coimbatore,"PSG College of Arts and Science, Coimbatore - TNPCB",24-10-2025 07:00:00,11.0328,77.0349,NH3,1,2,2
India,TamilNadu,Coimbatore,"SIDCO Kurichi, Coimbatore - TNPCB",24-10-2025 07:00:00,10.942451,76.978996,NO2,1,9,5
India,TamilNadu,Cuddalore,"Kudikadu, Cuddalore - TNPCB",24-10-2025 07:00:00,11.6829898,79.7532099,PM2.5,14,48,23
India,Sikkim,Gangtok,"Zero Point GICI, Gangtok - SSPCB",24-10-2025 07:00:00,27.338530,88.614099,OZONE,16,37,18
India,TamilNadu,Ariyalur,"Keelapalur, Ariyalur - TNPCB",24-10-2025 07:00:00,11.06825,79.07033,PM10,NA,NA,NA
India,TamilNadu,Ariyalur,"Keelapalur, Ariyalur - TNPCB",24-10-2025 07:00:00,11.06825,79.07033,SO2,NA,NA,NA
India,TamilNadu,Chennai,"Gandhi Nagar_Ennore, Chennai - TNPCB",24-10-2025 07:00:00,13.218341,80.32027,OZONE,9,10,10
India,TamilNadu,Palkalaiperur,"Bharathidasan University, Palkalaiperur - TNPCB",24-10-2025 07:00:00,10.681158,78.741746,SO2,6,6,6
India,TamilNadu,Palkalaiperur,"Bharathidasan University, Palkalaiperur - TNPCB",24-10-2025 07:00:00,10.681158,78.741746,OZONE,14,14,14
India,TamilNadu,Pudukottai,"SIPCOT Nathampannai, Pudukottai - TNPCB",24-10-2025 07:00:00,10.423417,78.784889,PM10,36,49,43
India,TamilNadu,Chennai,"Kodungaiyur, Chennai - TNPCB",24-10-2025 07:00:00,13.1278,80.2642,PM10,3,170,67
India,TamilNadu,Chennai,"Royapuram, Chennai - TNPCB",24-10-2025 07:00:00,13.1036,80.2909,PM2.5,NA,NA,NA
India,TamilNadu,Chennai,"Royapuram, Chennai - TNPCB",24-10-2025 07:00:00,13.1036,80.2909,PM10,NA,NA,NA
India,TamilNadu,Chennai,"Royapuram, Chennai - TNPCB",24-10-2025 07:00:00,13.1036,80.2909,NO2,NA,NA,NA
India,TamilNadu,Chennai,"Royapuram, Chennai - TNPCB",24-10-2025 07:00:00,13.1036,80.2909,NH3,NA,NA,NA
India,TamilNadu,Hosur,"SIPCOT Phase-1, Hosur - TNPCB",24-10-2025 07:00:00,12.746998,77.813811,SO2,47,55,49
India,TamilNadu,Hosur,"SIPCOT Phase-1, Hosur - TNPCB",24-10-2025 07:00:00,12.746998,77.813811,OZONE,9,10,10
India,Uttar_Pradesh,Agra,"Manoharpur, Agra - UPPCB",24-10-2025 07:00:00,27.23711,78.01936,CO,30,36,32
India,Uttar_Pradesh,Agra,"Rohta, Agra - UPPCB",24-10-2025 07:00:00,27.106972,78.000111,OZONE,10,11,11
India,Uttar_Pradesh,Agra,"Sector-3B Avas Vikas Colony, Agra - UPPCB",24-10-2025 07:00:00,27.19412,77.96237,PM2.5,24,235,88
India,Uttar_Pradesh,Agra,"Sector-3B Avas Vikas Colony, Agra - UPPCB",24-10-2025 07:00:00,27.19412,77.96237,SO2,11,13,12
India,Uttar_Pradesh,Agra,"Shahjahan Garden, Agra - UPPCB",24-10-2025 07:00:00,27.169338,78.03582,OZONE,1,31,1
India,Uttar_Pradesh,Agra,"Shastripuram, Agra - UPPCB",24-10-2025 07:00:00,27.19862,77.92066,PM2.5,NA,NA,NA
India,Uttar_Pradesh,Agra,"Shastripuram, Agra - UPPCB",24-10-2025 07:00:00,27.19862,77.92066,NO2,NA,NA,NA
India,Uttar_Pradesh,Baghpat,"Sardar Patel Inter College, Baghpat - UPPCB",24-10-2025 07:00:00,28.964949,77.278761,SO2,12,31,22
India,Uttar_Pradesh,Bareilly,"Rajendra Nagar, Bareilly - UPPCB",24-10-2025 07:00:00,28.38910936,79.42963708,NH3,1,1,1
India,Uttar_Pradesh,Bareilly,"Rajendra Nagar, Bareilly - UPPCB",24-10-2025 07:00:00,28.38910936,79.42963708,CO,30,56,34
India,Uttar_Pradesh,Bulandshahr,"Yamunapuram, Bulandshahr - UPPCB",24-10-2025 07:00:00,28.406963,77.849831,NO2,20,149,87
India,Telangana,Hyderabad,"Kokapet, Hyderabad - TSPCB",24-10-2025 07:00:00,17.393559,78.339194,PM2.5,38,52,43
India,Telangana,Hyderabad,"Kokapet, Hyderabad - TSPCB",24-10-2025 07:00:00,17.393559,78.339194,NH3,2,3,2
India,Telangana,Hyderabad,"Kokapet, Hyderabad - TSPCB",24-10-2025 07:00:00,17.393559,78.339194,SO2,12,15,13
India,Telangana,Hyderabad,"Nacharam_TSIIC IALA, Hyderabad - TSPCB",24-10-2025 07:00:00,17.429398,78.569354,NH3,4,6,5
India,Telangana,Hyderabad,"Nacharam_TSIIC IALA, Hyderabad - TSPCB",24-10-2025 07:00:00,17.429398,78.569354,SO2,12,16,15
India,Telangana,Hyderabad,"New Malakpet, Hyderabad - TSPCB",24-10-2025 07:00:00,17.37206,78.50864,NO2,12,15,14
India,Telangana,Hyderabad,"New Malakpet, Hyderabad - TSPCB",24-10-2025 07:00:00,17.37206,78.50864,NH3,2,3,3
India,Telangana,Hyderabad,"ECIL Kapra, Hyderabad - TSPCB",24-10-2025 07:00:00,17.470431,78.566959,PM10,87,107,94
India,Telangana,Hyderabad,"ICRISAT Patancheru, Hyderabad - TSPCB",24-10-2025 07:00:00,17.518400,78.278777,CO,6,31,9
India,Telangana,Hyderabad,"IDA Pashamylaram, Hyderabad - TSPCB",24-10-2025 07:00:00,17.5316895,78.218939,SO2,NA,NA,NA
India,Telangana,Hyderabad,"IITH Kandi, Hyderabad - TSPCB",24-10-2025 07:00:00,17.585705,78.126199,SO2,8,11,8
India,Telangana,Hyderabad,"IITH Kandi, Hyderabad - TSPCB",24-10-2025 07:00:00,17.585705,78.126199,CO,16,30,20
India,Telangana,Hyderabad,"Ramachandrapuram, Hyderabad - TSPCB",24-10-2025 07:00:00,17.528544,78.286195,OZONE,14,56,43
India,Telangana,Hyderabad,"Somajiguda, Hyderabad - TSPCB",24-10-2025 07:00:00,17.417094,78.457437,OZONE,8,17,10
India,Telangana,Hyderabad,"Zoo Park, Hyderabad - TSPCB",24-10-2025 07:00:00,17.349694,78.451437,NO2,15,23,20
India,Uttar_Pradesh,Agra,"Manoharpur, Agra - UPPCB",24-10-2025 07:00:00,27.23711,78.01936,PM10,59,158,115
India,Uttar_Pradesh,Kanpur,"NSI Kalyanpur, Kanpur - UPPCB",24-10-2025 07:00:00,26.509954,80.249612,CO,37,86,57
India,Uttar_Pradesh,Khurja,"Kalindi Kunj, Khurja - UPPCB",24-10-2025 07:00:00,28.2348927,77.8683002,SO2,14,15,14
India,Uttar_Pradesh,Lucknow,"Gomti Nagar, Lucknow - UPPCB",24-10-2025 07:00:00,26.868120,81.005119,CO,36,42,37
India,Uttar_Pradesh,Lucknow,"Kendriya Vidyalaya, Lucknow - CPCB",24-10-2025 07:00:00,26.906111,80.948222,PM2.5,64,318,181
India,Uttar_Pradesh,Firozabad,"Vibhab Nagar, Firozabad - UPPCB",24-10-2025 07:00:00,27.1594,78.3953,PM2.5,71,216,129
India,Uttar_Pradesh,Firozabad,"Vibhab Nagar, Firozabad - UPPCB",24-10-2025 07:00:00,27.1594,78.3953,PM10,55,115,86
India,Uttar_Pradesh,Firozabad,"Vibhab Nagar, Firozabad - UPPCB",24-10-2025 07:00:00,27.1594,78.3953,NH3,2,2,2
India,Uttar_Pradesh,Ghaziabad,"Loni, Ghaziabad - UPPCB",24-10-2025 07:00:00,28.757294,77.278792,PM10,143,404,256
India,Uttar_Pradesh,Hapur,"Anand Vihar, Hapur - UPPCB",24-10-2025 07:00:00,28.725645,77.749675,PM2.5,87,357,249
India,Uttar_Pradesh,Hapur,"Anand Vihar, Hapur - UPPCB",24-10-2025 07:00:00,28.725645,77.749675,OZONE,9,27,26
India,Uttar_Pradesh,Kanpur,"NSI Kalyanpur, Kanpur - UPPCB",24-10-2025 07:00:00,26.509954,80.249612,PM2.5,95,312,228
India,Uttar_Pradesh,Kanpur,"NSI Kalyanpur, Kanpur - UPPCB",24-10-2025 07:00:00,26.509954,80.249612,NO2,22,23,22
India,Uttar_Pradesh,Ghaziabad,"Sanjay Nagar, Ghaziabad - UPPCB",24-10-2025 07:00:00,28.685382,77.453839,PM10,115,233,164
India,Uttar_Pradesh,Ghaziabad,"Sanjay Nagar, Ghaziabad - UPPCB",24-10-2025 07:00:00,28.685382,77.453839,OZONE,12,142,13
India,Uttar_Pradesh,Greater Noida,"Knowledge Park - III, Greater Noida - UPPCB",24-10-2025 07:00:00,28.47272,77.482000,NH3,8,13,11
India,West_Bengal,Durgapur,"PCBL Residential Complex, Durgapur - WBPCB",24-10-2025 07:00:00,23.5087640,87.3544400,NO2,10,31,17
India,West_Bengal,Durgapur,"PCBL Residential Complex, Durgapur - WBPCB",24-10-2025 07:00:00,23.5087640,87.3544400,NH3,3,4,3
India,West_Bengal,Durgapur,"PCBL Residential Complex, Durgapur - WBPCB",24-10-2025 07:00:00,23.5087640,87.3544400,CO,20,52,42
India,West_Bengal,Durgapur,"PCBL Residential Complex, Durgapur - WBPCB",24-10-2025 07:00:00,23.5087640,87.3544400,OZONE,9,25,16
India,West_Bengal,Durgapur,"Womens College_City Center, Durgapur - WBPCB (Formerly known as Sidhu Kanhu Indoor Stadium)",24-10-2025 07:00:00,23.549395,87.300496,SO2,11,38,26
India,West_Bengal,Durgapur,"Womens College_City Center, Durgapur - WBPCB (Formerly known as Sidhu Kanhu Indoor Stadium)",24-10-2025 07:00:00,23.549395,87.300496,CO,27,66,49
India,West_Bengal,Haldia,"Priyambada Housing Estate, Haldia - WBPCB",24-10-2025 07:00:00,22.06047,88.109737,NO2,11,27,16
India,West_Bengal,Haldia,"Priyambada Housing Estate, Haldia - WBPCB",24-10-2025 07:00:00,22.06047,88.109737,NH3,6,8,7
India,West_Bengal,Haldia,"Priyambada Housing Estate, Haldia - WBPCB",24-10-2025 07:00:00,22.06047,88.109737,OZONE,19,59,22
India,West_Bengal,Howrah,"Belur Math, Howrah - WBPCB",24-10-2025 07:00:00,22.629801,88.352017,NH3,7,12,10
India,West_Bengal,Howrah,"Belur Math, Howrah - WBPCB",24-10-2025 07:00:00,22.629801,88.352017,SO2,8,10,9
India,Uttarakhand,Kashipur,"Govt. Girls Inter College, Kashipur - UKPCB",24-10-2025 07:00:00,29.2124114,78.9611753,NO2,9,60,18
India,Uttarakhand,Kashipur,"Govt. Girls Inter College, Kashipur - UKPCB",24-10-2025 07:00:00,29.2124114,78.9611753,CO,32,36,34
India,Uttarakhand,Rishikesh,"Shivaji Nagar, Rishikesh - UKPCB",24-10-2025 07:00:00,30.075911,78.2859547,NO2,9,12,10
India,Uttarakhand,Rishikesh,"Shivaji Nagar, Rishikesh - UKPCB",24-10-2025 07:00:00,30.075911,78.2859547,NH3,5,7,6
India,West_Bengal,Asansol,"Asansol Court Area, Asansol - WBPCB",24-10-2025 07:00:00,23.685297,86.945968,PM10,91,156,128
India,West_Bengal,Asansol,"Asansol Court Area, Asansol - WBPCB",24-10-2025 07:00:00,23.685297,86.945968,NO2,16,90,33
India,West_Bengal,Asansol,"Asansol Court Area, Asansol - WBPCB",24-10-2025 07:00:00,23.685297,86.945968,NH3,2,32,6
India,West_Bengal,Asansol,"Evelyn Lodge, Asansol - WBPCB",24-10-2025 07:00:00,23.6979360,86.9443950,PM2.5,67,167,108
India,Uttar_Pradesh,Varanasi,"Bhelupur, Varanasi - UPPCB",24-10-2025 07:00:00,25.301778,82.996789,NO2,7,8,8
India,Uttar_Pradesh,Varanasi,"IESD Banaras Hindu University, Varanasi - UPPCB",24-10-2025 07:00:00,25.262326,82.995408,NO2,2,2,2
India,Uttar_Pradesh,Varanasi,"IESD Banaras Hindu University, Varanasi - UPPCB",24-10-2025 07:00:00,25.262326,82.995408,CO,10,18,13
India,Uttar_Pradesh,Varanasi,"Maldahiya, Varanasi - UPPCB",24-10-2025 07:00:00,25.32393,82.99687,PM2.5,31,78,55
India,Uttar_Pradesh,Varanasi,"Maldahiya, Varanasi - UPPCB",24-10-2025 07:00:00,25.32393,82.99687,NO2,1,1,1
India,Uttar_Pradesh,Varanasi,"Maldahiya, Varanasi - UPPCB",24-10-2025 07:00:00,25.32393,82.99687,CO,21,53,31
India,Uttar_Pradesh,Vrindavan,"Omex Eternity, Vrindavan - UPPCB",24-10-2025 07:00:00,27.5714090,77.6557570,OZONE,15,16,15
India,Uttar_Pradesh,Noida,"Sector-116, Noida - UPPCB",24-10-2025 07:00:00,28.569230,77.393848,NH3,11,18,14
India,Uttar_Pradesh,Prayagraj,"Motilal Nehru NIT, Prayagraj - UPPCB",24-10-2025 07:00:00,25.494,81.863,PM2.5,94,236,168
India,Uttar_Pradesh,Prayagraj,"Motilal Nehru NIT, Prayagraj - UPPCB",24-10-2025 07:00:00,25.494,81.863,OZONE,8,32,9
India,Uttar_Pradesh,Prayagraj,"Nagar Nigam, Prayagraj - UPPCB",24-10-2025 07:00:00,25.44919916 ,81.82735986 ,SO2,NA,NA,NA
India,Uttar_Pradesh,Varanasi,"Ardhali Bazar, Varanasi - UPPCB",24-10-2025 07:00:00,25.3505986,82.9083074,PM2.5,72,114,84
India,Uttar_Pradesh,Moradabad,"Employment Office, Moradabad - UPPCB",24-10-2025 07:00:00,28.88528,78.73880,NH3,4,4,4
India,Uttar_Pradesh,Moradabad,"Jigar Colony, Moradabad - UPPCB",24-10-2025 07:00:00,28.856664,78.772638,PM2.5,53,122,80
India,Uttar_Pradesh,Moradabad,"Kashiram Nagar, Moradabad - UPPCB",24-10-2025 07:00:00,28.849399,78.742362,NO2,25,25,25
India,Uttar_Pradesh,Moradabad,"Transport Nagar, Moradabad - UPPCB",24-10-2025 07:00:00,28.802625,78.753728,PM2.5,59,207,111
India,Uttar_Pradesh,Moradabad,"Transport Nagar, Moradabad - UPPCB",24-10-2025 07:00:00,28.802625,78.753728,CO,64,74,65
India,Uttar_Pradesh,Lucknow,"Lalbagh, Lucknow - CPCB",24-10-2025 07:00:00,26.8458805,80.9365541,CO,1,112,52
India,Uttar_Pradesh,Lucknow,"Talkatora District Industries Center, Lucknow - CPCB",24-10-2025 07:00:00,26.83399722,80.8917361,NO2,55,60,58
India,Uttar_Pradesh,Lucknow,"Talkatora District Industries Center, Lucknow - CPCB",24-10-2025 07:00:00,26.83399722,80.8917361,CO,65,98,73
India,Uttar_Pradesh,Meerut,"Ganga Nagar, Meerut - UPPCB",24-10-2025 07:00:00,28.999264,77.7590354,PM10,102,406,209
India,Uttar_Pradesh,Meerut,"Ganga Nagar, Meerut - UPPCB",24-10-2025 07:00:00,28.999264,77.7590354,NO2,35,105,58
India,Uttar_Pradesh,Meerut,"Jai Bhim Nagar, Meerut - UPPCB",24-10-2025 07:00:00,28.9535882,77.7622941,PM2.5,80,415,308
India,Uttar_Pradesh,Meerut,"Jai Bhim Nagar, Meerut - UPPCB",24-10-2025 07:00:00,28.9535882,77.7622941,NH3,5,6,6
India,Uttar_Pradesh,Meerut,"Jai Bhim Nagar, Meerut - UPPCB",24-10-2025 07:00:00,28.9535882,77.7622941,CO,18,104,81
India,Uttar_Pradesh,Meerut,"Pallavpuram Phase 2, Meerut - UPPCB",24-10-2025 07:00:00,29.063510,77.709723,SO2,13,26,19
India,Uttar_Pradesh,Noida,"Sector - 125, Noida - UPPCB",24-10-2025 07:00:00,28.5447608,77.3231257,NH3,13,23,17
India,Uttar_Pradesh,Noida,"Sector - 62, Noida - IMD",24-10-2025 07:00:00,28.6245479,77.3577104,OZONE,18,127,24
India,Uttar_Pradesh,Noida,"Sector-1, Noida - UPPCB",24-10-2025 07:00:00,28.5898,77.3101,CO,25,119,103
India,West_Bengal,Barrackpore,"SVSPA Campus, Barrackpore - WBPCB",24-10-2025 07:00:00,22.7605581,88.3617589,CO,22,54,39
India,West_Bengal,Barrackpore,"SVSPA Campus, Barrackpore - WBPCB",24-10-2025 07:00:00,22.7605581,88.3617589,OZONE,4,59,6
India,West_Bengal,Howrah,"Botanical Garden, Howrah - WBPCB",24-10-2025 07:00:00,22.554954,88.292568,PM10,41,139,83
India,West_Bengal,Howrah,"Botanical Garden, Howrah - WBPCB",24-10-2025 07:00:00,22.554954,88.292568,NH3,4,4,4
India,West_Bengal,Howrah,"Padmapukur, Howrah - WBPCB",24-10-2025 07:00:00,22.5687319,88.2797276,NO2,15,53,30
India,West_Bengal,Howrah,"Padmapukur, Howrah - WBPCB",24-10-2025 07:00:00,22.5687319,88.2797276,CO,2,46,28
India,West_Bengal,Kolkata,"Ballygunge, Kolkata - WBPCB",24-10-2025 07:00:00,22.5367507,88.3638022,PM10,68,152,106
India,West_Bengal,Kolkata,"Bidhannagar, Kolkata - WBPCB",24-10-2025 07:00:00,22.58157048,88.41002457,PM2.5,29,91,58
India,West_Bengal,Kolkata,"Fort William, Kolkata - WBPCB",24-10-2025 07:00:00,22.556640,88.342674,OZONE,14,49,17
India,West_Bengal,Kolkata,"Jadavpur, Kolkata - WBPCB",24-10-2025 07:00:00,22.49929,88.36917,NH3,6,16,9
India,West_Bengal,Kolkata,"Jadavpur, Kolkata - WBPCB",24-10-2025 07:00:00,22.49929,88.36917,CO,50,114,101
India,West_Bengal,Kolkata,"Rabindra Bharati University, Kolkata - WBPCB",24-10-2025 07:00:00,22.627847,88.380669,SO2,6,10,7
India,West_Bengal,Kolkata,"Rabindra Sarobar, Kolkata - WBPCB",24-10-2025 07:00:00,22.51106,88.35142,PM2.5,30,174,75
India,West_Bengal,Kolkata,"Rabindra Sarobar, Kolkata - WBPCB",24-10-2025 07:00:00,22.51106,88.35142,PM10,39,106,68
India,West_Bengal,Kolkata,"Rabindra Sarobar, Kolkata - WBPCB",24-10-2025 07:00:00,22.51106,88.35142,NH3,7,20,12
India,West_Bengal,Siliguri,"Ward-32 Bapupara, Siliguri - WBPCB",24-10-2025 07:00:00,26.6879226,88.4152495,SO2,11,15,12
India,Assam,Guwahati,"IITG, Guwahati - PCBA",24-10-2025 07:00:00,26.2028636,91.70046436,NH3,5,5,5
India,Assam,Guwahati,"LGBI Airport, Guwahati - PCBA",24-10-2025 07:00:00,26.10887,91.589544,PM2.5,86,163,130
India,Assam,Guwahati,"LGBI Airport, Guwahati - PCBA",24-10-2025 07:00:00,26.10887,91.589544,NH3,6,6,6
India,Assam,Guwahati,"LGBI Airport, Guwahati - PCBA",24-10-2025 07:00:00,26.10887,91.589544,SO2,5,12,9
India,Assam,Guwahati,"Pan Bazaar, Guwahati - PCBA",24-10-2025 07:00:00,26.187500,91.744194,PM10,15,86,34
India,Assam,Guwahati,"Pan Bazaar, Guwahati - PCBA",24-10-2025 07:00:00,26.187500,91.744194,OZONE,18,19,18
India,Assam,Guwahati,"Railway Colony, Guwahati - PCBA",24-10-2025 07:00:00,26.181742,91.78063,PM10,23,81,56
India,Assam,Nagaon,"Christianpatty, Nagaon - PCBA",24-10-2025 07:00:00,26.349082,92.68449,PM10,46,80,64
India,Assam,Nagaon,"Christianpatty, Nagaon - PCBA",24-10-2025 07:00:00,26.349082,92.68449,NH3,4,4,4
India,Andhra_Pradesh,Amaravati,"Secretariat, Amaravati - APPCB",24-10-2025 07:00:00,16.5150833,80.5181667,OZONE,5,11,6
India,Andhra_Pradesh,Anantapur,"Gulzarpet, Anantapur - APPCB",24-10-2025 07:00:00,14.675886,77.593027,NO2,11,24,21
India,Andhra_Pradesh,Chittoor,"Gangineni Cheruvu, Chittoor - APPCB",24-10-2025 07:00:00,13.204880,79.097889,PM2.5,NA,NA,NA
India,Andhra_Pradesh,Chittoor,"Gangineni Cheruvu, Chittoor - APPCB",24-10-2025 07:00:00,13.204880,79.097889,PM10,NA,NA,NA
India,Andhra_Pradesh,Chittoor,"Gangineni Cheruvu, Chittoor - APPCB",24-10-2025 07:00:00,13.204880,79.097889,CO,NA,NA,NA
India,Andhra_Pradesh,Chittoor,"Gangineni Cheruvu, Chittoor - APPCB",24-10-2025 07:00:00,13.204880,79.097889,OZONE,NA,NA,NA
India,Andhra_Pradesh,Kadapa,"Yerramukkapalli, Kadapa - APPCB",24-10-2025 07:00:00,14.465052,78.824187,NO2,18,23,22
India,Andhra_Pradesh,Kadapa,"Yerramukkapalli, Kadapa - APPCB",24-10-2025 07:00:00,14.465052,78.824187,NH3,4,6,6
India,Andhra_Pradesh,Kadapa,"Yerramukkapalli, Kadapa - APPCB",24-10-2025 07:00:00,14.465052,78.824187,SO2,17,21,21
India,Bihar,Munger,"Town Hall, Munger - BSPCB",24-10-2025 07:00:00,25.376776,86.471523,NO2,4,5,5
India,Bihar,Munger,"Town Hall, Munger - BSPCB",24-10-2025 07:00:00,25.376776,86.471523,CO,15,48,46
India,Bihar,Muzaffarpur,"MIT-Daudpur Kothi, Muzaffarpur - BSPCB",24-10-2025 07:00:00,26.1403345,85.3650192,PM10,33,45,39
India,Bihar,Muzaffarpur,"MIT-Daudpur Kothi, Muzaffarpur - BSPCB",24-10-2025 07:00:00,26.1403345,85.3650192,NO2,3,13,8
India,Bihar,Muzaffarpur,"MIT-Daudpur Kothi, Muzaffarpur - BSPCB",24-10-2025 07:00:00,26.1403345,85.3650192,OZONE,11,43,15
India,Bihar,Muzaffarpur,"Muzaffarpur Collectorate, Muzaffarpur - BSPCB",24-10-2025 07:00:00,26.1209,85.3647,PM2.5,35,78,53
India,Bihar,Muzaffarpur,"Muzaffarpur Collectorate, Muzaffarpur - BSPCB",24-10-2025 07:00:00,26.1209,85.3647,NO2,8,17,12
India,Bihar,Bhagalpur,"Mayaganj, Bhagalpur - BSPCB",24-10-2025 07:00:00,25.265194,87.012947,NH3,1,9,5
India,Bihar,Bhagalpur,"Mayaganj, Bhagalpur - BSPCB",24-10-2025 07:00:00,25.265194,87.012947,CO,2,68,26
India,Bihar,Bhagalpur,"Mayaganj, Bhagalpur - BSPCB",24-10-2025 07:00:00,25.265194,87.012947,OZONE,10,77,21
India,Bihar,Bihar Sharif,"D M Colony, Bihar Sharif - BSPCB",24-10-2025 07:00:00,25.204762,85.514960,PM10,27,117,80
India,Bihar,Buxar,"Charitra Van, Buxar - BSPCB",24-10-2025 07:00:00,25.567520,83.966379,PM2.5,NA,NA,NA
India,Bihar,Chhapra,"Darshan Nagar, Chhapra - BSPCB",24-10-2025 07:00:00,25.7808257,84.7446768,PM10,51,123,75
India,Andhra_Pradesh,Rajamahendravaram,"Anand Kala Kshetram, Rajamahendravaram - APPCB",24-10-2025 07:00:00,16.9872867,81.7363176,NO2,NA,NA,NA
India,Andhra_Pradesh,Tirumala,"Toll Gate, Tirumala - APPCB",24-10-2025 07:00:00,13.67,79.35,SO2,NA,NA,NA
India,Andhra_Pradesh,Tirupati,"Vaikuntapuram, Tirupati - APPCB",24-10-2025 07:00:00,13.615387,79.409230,SO2,NA,NA,NA
India,Andhra_Pradesh,Vijayawada,"HB Colony, Vijayawada - APPCB",24-10-2025 07:00:00,16.536107,80.594233,CO,20,44,20
India,Andhra_Pradesh,Vijayawada,"Rajiv Gandhi Park, Vijayawada - APPCB",24-10-2025 07:00:00,16.509717,80.612222,PM10,48,62,55
India,Andhra_Pradesh,Vijayawada,"Rajiv Nagar, Vijayawada - APPCB",24-10-2025 07:00:00,16.554731,80.649110,CO,NA,NA,NA
India,Andhra_Pradesh,Visakhapatnam,"GVM Corporation, Visakhapatnam - APPCB",24-10-2025 07:00:00,17.72,83.3,PM2.5,26,88,42
India,Andhra_Pradesh,Visakhapatnam,"GVM Corporation, Visakhapatnam - APPCB",24-10-2025 07:00:00,17.72,83.3,OZONE,1,29,3
India,Arunachal_Pradesh,Naharlagun,"Naharlagun, Naharlagun - APSPCB",24-10-2025 07:00:00,27.103358,93.679645,PM2.5,16,138,51
India,Arunachal_Pradesh,Naharlagun,"Naharlagun, Naharlagun - APSPCB",24-10-2025 07:00:00,27.103358,93.679645,CO,5,42,8
India,Bihar,Chhapra,"Darshan Nagar, Chhapra - BSPCB",24-10-2025 07:00:00,25.7808257,84.7446768,SO2,20,21,20
India,Bihar,Gaya,"SFTI Kusdihra, Gaya - BSPCB",24-10-2025 07:00:00,24.762518,84.982348,SO2,9,10,9
India,Bihar,Gaya,"SFTI Kusdihra, Gaya - BSPCB",24-10-2025 07:00:00,24.762518,84.982348,OZONE,12,55,14
India,Bihar,Hajipur,"Industrial Area, Hajipur - BSPCB",24-10-2025 07:00:00,25.697189,85.245900,NO2,4,17,10
India,Bihar,Hajipur,"Industrial Area, Hajipur - BSPCB",24-10-2025 07:00:00,25.697189,85.245900,SO2,1,6,5
India,Bihar,Aurangabad,"Gurdeo Nagar, Aurangabad - BSPCB",24-10-2025 07:00:00,24.75746,84.366208,NH3,1,2,1
India,Bihar,Aurangabad,"Gurdeo Nagar, Aurangabad - BSPCB",24-10-2025 07:00:00,24.75746,84.366208,SO2,3,17,11
India,Bihar,Begusarai,"Lohiyanagar, Begusarai - BSPCB",24-10-2025 07:00:00,25.42742023,86.13886079,SO2,44,67,54
India,Bihar,Bettiah,"Kamalnath Nagar, Bettiah - BSPCB",24-10-2025 07:00:00,26.80365,84.51954,PM10,38,101,60
India,Assam,Silchar,"Tarapur, Silchar - PCBA",24-10-2025 07:00:00,24.82827,92.79525,PM10,19,70,46
India,Assam,Silchar,"Tarapur, Silchar - PCBA",24-10-2025 07:00:00,24.82827,92.79525,OZONE,1,8,1
India,Assam,Sivasagar,"Girls College, Sivasagar - PCBA",24-10-2025 07:00:00,26.987634,94.636574,PM2.5,19,69,46
India,Assam,Sivasagar,"Girls College, Sivasagar - PCBA",24-10-2025 07:00:00,26.987634,94.636574,NH3,3,10,6
India,Bihar,Katihar,"Mirchaibari, Katihar - BSPCB",24-10-2025 07:00:00,25.560083,87.553265,SO2,14,23,18
India,Bihar,Katihar,"Mirchaibari, Katihar - BSPCB",24-10-2025 07:00:00,25.560083,87.553265,OZONE,3,10,7
India,Bihar,Kishanganj,"SDM Office_Khagra, Kishanganj - BSPCB",24-10-2025 07:00:00,26.0881305,87.93840336,SO2,5,8,7
India,Chhattisgarh,Bhilai,"Hathkhoj, Bhilai - CECB",24-10-2025 07:00:00,21.224231,81.408350,CO,10,38,25
India,Chhattisgarh,Bhilai,"Hathkhoj, Bhilai - CECB",24-10-2025 07:00:00,21.224231,81.408350,OZONE,10,40,13
India,Chhattisgarh,Bilaspur,"Mangala, Bilaspur - NTPC",24-10-2025 07:00:00,22.08815,82.13737,NO2,19,26,22
India,Chhattisgarh,Chhal,"Nawapara SECL Colony, Chhal - CECB",24-10-2025 07:00:00,22.118125,83.140608,PM10,55,170,92
India,Chhattisgarh,Chhal,"Nawapara SECL Colony, Chhal - CECB",24-10-2025 07:00:00,22.118125,83.140608,CO,24,43,32
India,Chhattisgarh,Korba,"Rampur, Korba - CECB",24-10-2025 07:00:00,22.368195,82.746431,PM10,45,69,53
India,Chhattisgarh,Korba,"Rampur, Korba - CECB",24-10-2025 07:00:00,22.368195,82.746431,SO2,6,86,16
India,Chhattisgarh,Korba,"Urja Nagar, Korba - CECB",24-10-2025 07:00:00,22.348441,82.549611,PM2.5,64,68,64
India,Chhattisgarh,Korba,"Urja Nagar, Korba - CECB",24-10-2025 07:00:00,22.348441,82.549611,NO2,22,31,26
India,Chhattisgarh,Korba,"Urja Nagar, Korba - CECB",24-10-2025 07:00:00,22.348441,82.549611,CO,16,44,31
India,Chhattisgarh,Korba,"Urja Nagar, Korba - CECB",24-10-2025 07:00:00,22.348441,82.549611,OZONE,34,36,36
India,Chhattisgarh,Kunjemura,"OP Jindal School, Kunjemura - CECB",24-10-2025 07:00:00,22.126650,83.483212,NO2,3,4,3
India,Chhattisgarh,Milupara,"Govt. Higher Secondary School, Milupara - CECB",24-10-2025 07:00:00,22.1910172,83.5197009,CO,23,38,24
India,Chhattisgarh,Raipur,"AIIMS, Raipur - CECB",24-10-2025 07:00:00,21.258815,81.578979,NO2,17,24,19
India,Chhattisgarh,Raipur,"AIIMS, Raipur - CECB",24-10-2025 07:00:00,21.258815,81.578979,NH3,4,5,4
India,Chhattisgarh,Raipur,"Bhatagaon New ISBT, Raipur - CECB",24-10-2025 07:00:00,21.219665,81.630094,PM10,31,157,59
India,Chhattisgarh,Raipur,"Siltara Phase-II, Raipur - CECB",24-10-2025 07:00:00,21.371751,81.664929,PM10,43,146,106
India,Chhattisgarh,Raipur,"Siltara Phase-II, Raipur - CECB",24-10-2025 07:00:00,21.371751,81.664929,NH3,3,3,3
India,Chhattisgarh,Tumidih,"OP Jindal Industrial Park, Tumidih - CECB",24-10-2025 07:00:00,22.06631475,83.33820077,PM10,65,198,99
India,Chhattisgarh,Tumidih,"OP Jindal Industrial Park, Tumidih - CECB",24-10-2025 07:00:00,22.06631475,83.33820077,SO2,5,64,12
India,Delhi,Delhi,"Alipur, Delhi - DPCC",24-10-2025 07:00:00,28.815329,77.153010,PM2.5,80,354,287
India,Delhi,Delhi,"Alipur, Delhi - DPCC",24-10-2025 07:00:00,28.815329,77.153010,CO,42,104,97
India,Delhi,Delhi,"Alipur, Delhi - DPCC",24-10-2025 07:00:00,28.815329,77.153010,OZONE,2,97,3
India,Bihar,Patna,"Rajbansi Nagar, Patna - BSPCB",24-10-2025 07:00:00,25.599486,85.113666,OZONE,4,85,4
India,Bihar,Patna,"Samanpura, Patna - BSPCB",24-10-2025 07:00:00,25.596727,85.085624,NO2,40,52,45
India,Bihar,Patna,"Samanpura, Patna - BSPCB",24-10-2025 07:00:00,25.596727,85.085624,OZONE,8,96,19
India,Bihar,Rajgir,"Dangi Tola, Rajgir - BSPCB",24-10-2025 07:00:00,25.03280,85.41948,PM2.5,48,137,78
India,Bihar,Saharsa,"Police Line, Saharsa - BSPCB",24-10-2025 07:00:00,25.892357,86.590325,NO2,6,8,7
India,Bihar,Saharsa,"Police Line, Saharsa - BSPCB",24-10-2025 07:00:00,25.892357,86.590325,NH3,4,4,4
India,Bihar,Sasaram,"Dada Peer, Sasaram - BSPCB",24-10-2025 07:00:00,24.952822,84.002396,PM2.5,28,113,60
India,Bihar,Sasaram,"Dada Peer, Sasaram - BSPCB",24-10-2025 07:00:00,24.952822,84.002396,NO2,2,3,2
India,Bihar,Sasaram,"Dada Peer, Sasaram - BSPCB",24-10-2025 07:00:00,24.952822,84.002396,OZONE,16,17,17
India,Bihar,Siwan,"Chitragupta Nagar, Siwan - BSPCB",24-10-2025 07:00:00,26.2271665,84.3570427,CO,90,114,97
India,Chandigarh,Chandigarh,"Sector-25, Chandigarh - CPCC",24-10-2025 07:00:00,30.751462,76.762879,NH3,4,6,5
India,Chandigarh,Chandigarh,"Sector-53, Chandigarh - CPCC",24-10-2025 07:00:00,30.719859,76.738637,PM10,42,143,85
India,Chhattisgarh,Bhilai,"32Bungalows, Bhilai - CECB",24-10-2025 07:00:00,21.194815,81.314770,NO2,5,16,10
India,Chhattisgarh,Bhilai,"32Bungalows, Bhilai - CECB",24-10-2025 07:00:00,21.194815,81.314770,NH3,5,5,5
India,Chhattisgarh,Bhilai,"32Bungalows, Bhilai - CECB",24-10-2025 07:00:00,21.194815,81.314770,OZONE,2,22,2
India,Chhattisgarh,Bhilai,"Hathkhoj, Bhilai - CECB",24-10-2025 07:00:00,21.224231,81.408350,NH3,3,4,4
India,Delhi,Delhi,"Anand Vihar, Delhi - DPCC",24-10-2025 07:00:00,28.647622,77.3158090,NH3,10,15,12
India,Delhi,Delhi,"Anand Vihar, Delhi - DPCC",24-10-2025 07:00:00,28.647622,77.3158090,OZONE,18,42,19
India,Delhi,Delhi,"Ashok Vihar, Delhi - DPCC",24-10-2025 07:00:00,28.695381,77.181665,OZONE,8,156,9
India,Delhi,Delhi,"Bawana, Delhi - DPCC",24-10-2025 07:00:00,28.776200,77.051074,SO2,10,31,17
India,Bihar,Patna,"DRM Office Danapur, Patna - BSPCB",24-10-2025 07:00:00,25.586562,85.043586,OZONE,1,43,4
India,Bihar,Patna,"IGSC Planetarium Complex, Patna - BSPCB",24-10-2025 07:00:00,25.610369,85.132568,NO2,1,16,12
India,Bihar,Patna,"Rajbansi Nagar, Patna - BSPCB",24-10-2025 07:00:00,25.599486,85.113666,NO2,16,75,34
India,Delhi,Delhi,"Burari Crossing, Delhi - IMD",24-10-2025 07:00:00,28.7256504,77.2011573,NO2,7,42,21
India,Delhi,Delhi,"Dwarka-Sector 8, Delhi - DPCC ",24-10-2025 07:00:00,28.5710274,77.0719006,CO,51,169,110
India,Delhi,Delhi,"IGI Airport (T3), Delhi - IMD",24-10-2025 07:00:00,28.5627763,77.1180053,NO2,63,205,134
India,Delhi,Delhi,"IHBAS, Dilshad Garden, Delhi - CPCB",24-10-2025 07:00:00,28.6811736,77.3025234,NH3,4,5,4
India,Delhi,Delhi,"IHBAS, Dilshad Garden, Delhi - CPCB",24-10-2025 07:00:00,28.6811736,77.3025234,OZONE,2,67,4
India,Delhi,Delhi,"ITO, Delhi - CPCB",24-10-2025 07:00:00,28.628624,77.241060,PM2.5,153,359,315
India,Delhi,Delhi,"ITO, Delhi - CPCB",24-10-2025 07:00:00,28.628624,77.241060,NO2,81,128,102
India,Delhi,Delhi,"ITO, Delhi - CPCB",24-10-2025 07:00:00,28.628624,77.241060,CO,52,136,97
India,Delhi,Delhi,"Jahangirpuri, Delhi - DPCC",24-10-2025 07:00:00,28.732820,77.170633,OZONE,6,231,12
India,Delhi,Delhi,"Jawaharlal Nehru Stadium, Delhi - DPCC",24-10-2025 07:00:00,28.580280,77.233829,PM2.5,127,332,290
India,Delhi,Delhi,"Wazirpur, Delhi - DPCC",24-10-2025 07:00:00,28.699793,77.165453,NO2,34,111,69
India,Delhi,Delhi,"Wazirpur, Delhi - DPCC",24-10-2025 07:00:00,28.699793,77.165453,OZONE,14,179,17
India,Gujarat,Ahmedabad,"Chandkheda, Ahmedabad - IITM",24-10-2025 07:00:00,23.107969,72.574648,NH3,8,15,11
India,Gujarat,Ahmedabad,"Chandkheda, Ahmedabad - IITM",24-10-2025 07:00:00,23.107969,72.574648,SO2,34,64,44
India,Gujarat,Ahmedabad,"Gyaspur, Ahmedabad - IITM",24-10-2025 07:00:00,22.977134,72.553024,NO2,24,67,41
India,Gujarat,Ahmedabad,"Maninagar, Ahmedabad - GPCB",24-10-2025 07:00:00,23.002657,72.591912,PM2.5,56,322,130
India,Gujarat,Ahmedabad,"Maninagar, Ahmedabad - GPCB",24-10-2025 07:00:00,23.002657,72.591912,OZONE,51,119,59
India,Delhi,Delhi,"CRRI Mathura Road, Delhi - IMD",24-10-2025 07:00:00,28.5512005,77.2735737,OZONE,13,305,23
India,Delhi,Delhi,"Chandni Chowk, Delhi - IITM",24-10-2025 07:00:00,28.656756,77.227234,SO2,NA,NA,NA
India,Delhi,Delhi,"DTU, Delhi - CPCB",24-10-2025 07:00:00,28.7500499,77.1112615,PM2.5,72,287,156
India,Delhi,Delhi,"DTU, Delhi - CPCB",24-10-2025 07:00:00,28.7500499,77.1112615,SO2,25,31,29
India,Delhi,Delhi,"Dwarka-Sector 8, Delhi - DPCC ",24-10-2025 07:00:00,28.5710274,77.0719006,PM2.5,120,454,292
India,Delhi,Delhi,"Dwarka-Sector 8, Delhi - DPCC ",24-10-2025 07:00:00,28.5710274,77.0719006,NH3,1,5,4
India,Delhi,Delhi,"Mundka, Delhi - DPCC",24-10-2025 07:00:00,28.684678,77.076574,CO,30,74,62
India,Delhi,Delhi,"NSIT Dwarka, Delhi - CPCB",24-10-2025 07:00:00,28.60909,77.0325413,PM2.5,81,358,227
India,Delhi,Delhi,"Najafgarh, Delhi - DPCC",24-10-2025 07:00:00,28.570173,76.933762,PM2.5,95,312,210
India,Delhi,Delhi,"Najafgarh, Delhi - DPCC",24-10-2025 07:00:00,28.570173,76.933762,PM10,101,170,134
India,Delhi,Delhi,"Nehru Nagar, Delhi - DPCC",24-10-2025 07:00:00,28.567890,77.250515,PM10,131,420,222
India,Delhi,Delhi,"Nehru Nagar, Delhi - DPCC",24-10-2025 07:00:00,28.567890,77.250515,NO2,11,62,32
India,Delhi,Delhi,"Lodhi Road, Delhi - IMD",24-10-2025 07:00:00,28.5918245,77.2273074,OZONE,19,276,31
India,Delhi,Delhi,"Major Dhyan Chand National Stadium, Delhi - DPCC",24-10-2025 07:00:00,28.611281,77.237738,PM2.5,113,338,277
India,Delhi,Delhi,"Major Dhyan Chand National Stadium, Delhi - DPCC",24-10-2025 07:00:00,28.611281,77.237738,NH3,16,21,18
India,Delhi,Delhi,"Mundka, Delhi - DPCC",24-10-2025 07:00:00,28.684678,77.076574,PM10,135,472,217
India,Delhi,Delhi,"Mundka, Delhi - DPCC",24-10-2025 07:00:00,28.684678,77.076574,NH3,5,9,7
India,Delhi,Delhi,"Shadipur, Delhi - CPCB",24-10-2025 07:00:00,28.6514781,77.1473105,NO2,47,153,98
India,Delhi,Delhi,"Sirifort, Delhi - CPCB",24-10-2025 07:00:00,28.5504249,77.2159377,NO2,36,59,50
India,Delhi,Delhi,"Sirifort, Delhi - CPCB",24-10-2025 07:00:00,28.5504249,77.2159377,SO2,24,30,27
India,Delhi,Delhi,"Sonia Vihar, Delhi - DPCC",24-10-2025 07:00:00,28.710508,77.249485,NH3,4,5,4
India,Delhi,Delhi,"Nehru Nagar, Delhi - DPCC",24-10-2025 07:00:00,28.567890,77.250515,SO2,10,39,25
India,Delhi,Delhi,"Okhla Phase-2, Delhi - DPCC",24-10-2025 07:00:00,28.530785,77.271255,SO2,16,29,22
India,Delhi,Delhi,"Okhla Phase-2, Delhi - DPCC",24-10-2025 07:00:00,28.530785,77.271255,OZONE,5,261,8
India,Delhi,Delhi,"Pusa, Delhi - IMD",24-10-2025 07:00:00,28.636110,77.173332,NO2,6,119,64
India,Delhi,Delhi,"Rohini, Delhi - DPCC",24-10-2025 07:00:00,28.732528,77.119920,CO,8,88,50
India,Delhi,Delhi,"Sri Aurobindo Marg, Delhi - DPCC",24-10-2025 07:00:00,28.531346,77.190156,NO2,4,45,22
India,Haryana,Faridabad,"New Industrial Town, Faridabad - HSPCB",24-10-2025 07:00:00,28.39072,77.30059,PM2.5,214,237,230
India,Haryana,Faridabad,"New Industrial Town, Faridabad - HSPCB",24-10-2025 07:00:00,28.39072,77.30059,CO,3,12,12
India,Haryana,Faridabad,"Sector 30, Faridabad - HSPCB",24-10-2025 07:00:00,28.4417,77.3217,SO2,6,6,6
India,Haryana,Faridabad,"Sector 30, Faridabad - HSPCB",24-10-2025 07:00:00,28.4417,77.3217,OZONE,17,19,18
India,Haryana,Fatehabad,"Huda Sector, Fatehabad - HSPCB",24-10-2025 07:00:00,29.503664,75.467934,NO2,18,20,19
India,Haryana,Fatehabad,"Huda Sector, Fatehabad - HSPCB",24-10-2025 07:00:00,29.503664,75.467934,CO,25,36,29
India,Haryana,Gurugram,"NISE Gwal Pahari, Gurugram - IMD",24-10-2025 07:00:00,28.422681,77.148944,OZONE,11,100,12
India,Haryana,Gurugram,"Sector-51, Gurugram - HSPCB",24-10-2025 07:00:00,28.4227,77.0667,PM2.5,99,441,286
India,Haryana,Gurugram,"Sector-51, Gurugram - HSPCB",24-10-2025 07:00:00,28.4227,77.0667,PM10,143,495,296
India,Haryana,Bahadurgarh,"Arya Nagar, Bahadurgarh - HSPCB",24-10-2025 07:00:00,28.6701,76.9254,NH3,11,14,13
India,Haryana,Bahadurgarh,"Arya Nagar, Bahadurgarh - HSPCB",24-10-2025 07:00:00,28.6701,76.9254,OZONE,16,20,17
India,Haryana,Ballabgarh,"Nathu Colony, Ballabgarh - HSPCB",24-10-2025 07:00:00,28.3419248,77.319699,CO,34,52,50
India,Haryana,Ballabgarh,"Nathu Colony, Ballabgarh - HSPCB",24-10-2025 07:00:00,28.3419248,77.319699,OZONE,15,15,15
India,Haryana,Bhiwani,"H.B. Colony, Bhiwani - HSPCB",24-10-2025 07:00:00,28.806223,76.141105,SO2,12,13,12
India,Haryana,Charkhi Dadri,"Mini Secretariat, Charkhi Dadri - HSPCB",24-10-2025 07:00:00,28.593883,76.270653,PM2.5,182,352,284
India,Haryana,Charkhi Dadri,"Mini Secretariat, Charkhi Dadri - HSPCB",24-10-2025 07:00:00,28.593883,76.270653,SO2,9,11,10
India,Haryana,Narnaul,"Shastri Nagar, Narnaul - HSPCB",24-10-2025 07:00:00,28.060249,76.113115,NO2,15,49,28
India,Haryana,Narnaul,"Shastri Nagar, Narnaul - HSPCB",24-10-2025 07:00:00,28.060249,76.113115,SO2,23,24,24
India,Haryana,Narnaul,"Shastri Nagar, Narnaul - HSPCB",24-10-2025 07:00:00,28.060249,76.113115,CO,36,47,43
India,Haryana,Panchgaon,"Amity University, Panchgaon - IITM",24-10-2025 07:00:00,28.3153,76.9143,PM2.5,13,41,24
India,Haryana,Panchkula,"Sector-6, Panchkula - HSPCB ",24-10-2025 07:00:00,30.7057778,76.8531805555555,OZONE,6,72,32
India,Haryana,Panipat,"Sector-18, Panipat - HSPCB",24-10-2025 07:00:00,29.432304,76.972765,PM2.5,NA,NA,NA
India,Gujarat,Ahmedabad,"SVPI Airport Hansol, Ahmedabad - IITM",24-10-2025 07:00:00,23.076793,72.627874,SO2,6,16,10
India,Gujarat,Ahmedabad,"SVPI Airport Hansol, Ahmedabad - IITM",24-10-2025 07:00:00,23.076793,72.627874,OZONE,30,66,43
India,Gujarat,Ankleshwar,"GIDC, Ankleshwar - GPCB",24-10-2025 07:00:00,21.613267,73.010555,PM2.5,68,151,100
India,Gujarat,Gandhinagar,"GIFT City, Gandhinagar - IITM",24-10-2025 07:00:00,23.163798,72.677768,NH3,1,3,2
India,Gujarat,Gandhinagar,"IIPHG Lekawada, Gandhinagar - IITM",24-10-2025 07:00:00,23.243639,72.68994,OZONE,5,49,12
India,Haryana,Gurugram,"Sector-51, Gurugram - HSPCB",24-10-2025 07:00:00,28.4227,77.0667,CO,35,118,103
India,Haryana,Gurugram,"Vikas Sadan, Gurugram - HSPCB",24-10-2025 07:00:00,28.4501238,77.0263051,SO2,2,8,5
India,Haryana,Hisar,"Urban Estate-II, Hisar - HSPCB",24-10-2025 07:00:00,29.140560,75.744941,NO2,11,12,12
India,Haryana,Hisar,"Urban Estate-II, Hisar - HSPCB",24-10-2025 07:00:00,29.140560,75.744941,CO,25,109,48
India,Haryana,Jind,"Police Lines, Jind - HSPCB",24-10-2025 07:00:00,29.307814,76.337619,PM10,97,170,128
India,Gujarat,Ahmedabad,"Raikhad, Ahmedabad - IITM",24-10-2025 07:00:00,23.020509,72.579261,SO2,15,24,18
India,Gujarat,Ahmedabad,"SAC ISRO Bopal, Ahmedabad - IITM",24-10-2025 07:00:00,23.041137,72.456691,NO2,19,23,21
India,Gujarat,Ahmedabad,"SAC ISRO Bopal, Ahmedabad - IITM",24-10-2025 07:00:00,23.041137,72.456691,CO,39,54,42
India,Gujarat,Ahmedabad,"SAC ISRO Bopal, Ahmedabad - IITM",24-10-2025 07:00:00,23.041137,72.456691,OZONE,18,90,43
India,Gujarat,Ahmedabad,"SAC ISRO Satellite, Ahmedabad - IITM",24-10-2025 07:00:00,23.023389,72.515201,NH3,4,5,4
India,Gujarat,Ahmedabad,"SAC ISRO Satellite, Ahmedabad - IITM",24-10-2025 07:00:00,23.023389,72.515201,SO2,4,135,44
India,Haryana,Rohtak,"MD University, Rohtak - HSPCB",24-10-2025 07:00:00,28.52123,76.37138,SO2,NA,NA,NA
India,Haryana,Rohtak,"MD University, Rohtak - HSPCB",24-10-2025 07:00:00,28.52123,76.37138,OZONE,12,13,12
India,Haryana,Sonipat,"Murthal, Sonipat - HSPCB",24-10-2025 07:00:00,29.027200,77.062100,NH3,13,19,16
India,Haryana,Sonipat,"Murthal, Sonipat - HSPCB",24-10-2025 07:00:00,29.027200,77.062100,SO2,7,9,8
India,Haryana,Yamuna Nagar,"Gobind Pura, Yamuna Nagar - HSPCB",24-10-2025 07:00:00,30.1480566,77.2893471,NO2,11,11,11
India,Haryana,Karnal,"Sector-12, Karnal - HSPCB",24-10-2025 07:00:00,29.695300,77.002700,NO2,9,11,10
India,Haryana,Kurukshetra,"Sector-7, Kurukshetra - HSPCB",24-10-2025 07:00:00,29.966942,76.875879,NO2,18,22,19
India,Haryana,Kurukshetra,"Sector-7, Kurukshetra - HSPCB",24-10-2025 07:00:00,29.966942,76.875879,NH3,5,5,5
India,Haryana,Kurukshetra,"Sector-7, Kurukshetra - HSPCB",24-10-2025 07:00:00,29.966942,76.875879,CO,5,105,65
India,Haryana,Manesar,"Sector-2 IMT, Manesar - HSPCB",24-10-2025 07:00:00,28.360699,76.936090,SO2,9,16,13
India,Gujarat,Surat,"Science Center, Surat - SMC",24-10-2025 07:00:00,21.170046,72.795405,PM10,NA,NA,NA
India,Haryana,Ambala,"Patti Mehar, Ambala - HSPCB",24-10-2025 07:00:00,30.379589,76.778328,CO,101,105,103
India,Haryana,Bahadurgarh,"Arya Nagar, Bahadurgarh - HSPCB",24-10-2025 07:00:00,28.6701,76.9254,PM2.5,225,354,320
India,Himachal Pradesh,Baddi,"HIMUDA Complex Phase-1, Baddi - HPPCB",24-10-2025 07:00:00,30.943887,76.801991,NO2,4,50,19
India,Himachal Pradesh,Baddi,"HIMUDA Complex Phase-1, Baddi - HPPCB",24-10-2025 07:00:00,30.943887,76.801991,NH3,3,5,4
India,Jammu_and_Kashmir,Srinagar,"Rajbagh, Srinagar - JKSPCB",24-10-2025 07:00:00,34.066206,74.819820,PM2.5,39,67,56
India,Jharkhand,Dhanbad,"Sardar Patel Nagar, Dhanbad - JSPCB",24-10-2025 07:00:00,23.80569,86.44268,NO2,95,101,96
India,Jharkhand,Dhanbad,"Sardar Patel Nagar, Dhanbad - JSPCB",24-10-2025 07:00:00,23.80569,86.44268,SO2,22,28,27
India,Jharkhand,Jorapokhar,"Tata Stadium, Jorapokhar - JSPCB",24-10-2025 07:00:00,23.707909,86.414670,OZONE,2,4,3
India,Karnataka,Bagalkot,"Vidayagiri, Bagalkot - KSPCB",24-10-2025 07:00:00,16.172806,75.659694,SO2,NA,NA,NA
India,Karnataka,Belgaum,"Ramteerth Nagar, Belgaum - KSPCB",24-10-2025 07:00:00,15.888653,74.541751,PM10,9,23,12
