country,state,city,station,last_update,latitude,longitude,pollutant_id,min_value,max_value,avg_value
India,Bihar,Muzaffarpur,"Buddha Colony, Muzaffarpur - BSPCB",27-01-2026 08:00:00,26.11442,85.39813,NO2,29,65,38
India,Bihar,Muzaffarpur,"Buddha Colony, Muzaffarpur - BSPCB",27-01-2026 08:00:00,26.11442,85.39813,OZONE,25,75,34
India,Bihar,Muzaffarpur,"Muzaffarpur Collectorate, Muzaffarpur - BSPCB",27-01-2026 08:00:00,26.1209,85.3647,PM2.5,80,97,90
India,Bihar,Muzaffarpur,"Muzaffarpur Collectorate, Muzaffarpur - BSPCB",27-01-2026 08:00:00,26.1209,85.3647,SO2,4,7,5
India,Bihar,Patna,"DRM Office Danapur, Patna - BSPCB",27-01-2026 08:00:00,25.586562,85.043586,PM10,80,223,120
India,Bihar,Patna,"DRM Office Danapur, Patna - BSPCB",27-01-2026 08:00:00,25.586562,85.043586,SO2,5,9,6
India,Bihar,Patna,"Govt. High School Shikarpur, Patna - BSPCB",27-01-2026 08:00:00,25.592539,85.227158,NH3,4,5,5
India,Bihar,Patna,"Govt. High School Shikarpur, Patna - BSPCB",27-01-2026 08:00:00,25.592539,85.227158,CO,60,105,66
India,Bihar,Patna,"IGSC Planetarium Complex, Patna - BSPCB",27-01-2026 08:00:00,25.610369,85.132568,OZONE,28,29,28
India,Bihar,Patna,"Muradpur, Patna - BSPCB",27-01-2026 08:00:00,25.619651,85.147382,PM10,73,124,104
India,Bihar,Patna,"Muradpur, Patna - BSPCB",27-01-2026 08:00:00,25.619651,85.147382,CO,57,72,65
India,Bihar,Patna,"Rajbansi Nagar, Patna - BSPCB",27-01-2026 08:00:00,25.599486,85.113666,PM2.5,62,90,76
India,Andhra_Pradesh,Vijayawada,"Rajiv Gandhi Park, Vijayawada - APPCB",27-01-2026 08:00:00,16.509717,80.612222,PM10,59,97,81
India,Andhra_Pradesh,Vijayawada,"Rajiv Gandhi Park, Vijayawada - APPCB",27-01-2026 08:00:00,16.509717,80.612222,NH3,3,4,4
India,Andhra_Pradesh,Vijayawada,"Rajiv Nagar, Vijayawada - APPCB",27-01-2026 08:00:00,16.554731,80.649110,NH3,NA,NA,NA
India,Andhra_Pradesh,Vijayawada,"Rajiv Nagar, Vijayawada - APPCB",27-01-2026 08:00:00,16.554731,80.649110,OZONE,NA,NA,NA
India,Andhra_Pradesh,Visakhapatnam,"GVM Corporation, Visakhapatnam - APPCB",27-01-2026 08:00:00,17.72,83.3,PM10,112,384,190
India,Andhra_Pradesh,Visakhapatnam,"GVM Corporation, Visakhapatnam - APPCB",27-01-2026 08:00:00,17.72,83.3,OZONE,4,85,5
India,Arunachal_Pradesh,Naharlagun,"Naharlagun, Naharlagun - APSPCB",27-01-2026 08:00:00,27.103358,93.679645,PM10,60,415,142
India,Arunachal_Pradesh,Naharlagun,"Naharlagun, Naharlagun - APSPCB",27-01-2026 08:00:00,27.103358,93.679645,OZONE,5,6,6
India,Assam,Byrnihat,"Central Academy for SFS, Byrnihat - PCBA",27-01-2026 08:00:00,26.071318,91.87488,PM2.5,91,204,137
India,Assam,Byrnihat,"Central Academy for SFS, Byrnihat - PCBA",27-01-2026 08:00:00,26.071318,91.87488,CO,28,70,47
India,Assam,Guwahati,"LGBI Airport, Guwahati - PCBA",27-01-2026 08:00:00,26.10887,91.589544,NO2,13,18,15
India,Assam,Guwahati,"LGBI Airport, Guwahati - PCBA",27-01-2026 08:00:00,26.10887,91.589544,SO2,7,14,12
India,Assam,Guwahati,"Pan Bazaar, Guwahati - PCBA",27-01-2026 08:00:00,26.187500,91.744194,PM10,45,126,92
India,Assam,Guwahati,"Railway Colony, Guwahati - PCBA",27-01-2026 08:00:00,26.181742,91.78063,NO2,3,4,3
India,Assam,Guwahati,"Railway Colony, Guwahati - PCBA",27-01-2026 08:00:00,26.181742,91.78063,SO2,35,38,37
India,Assam,Nagaon,"Christianpatty, Nagaon - PCBA",27-01-2026 08:00:00,26.349082,92.68449,CO,NA,NA,NA
India,Assam,Nalbari,"Bata Chowk, Nalbari - PCBA",27-01-2026 08:00:00,26.446912,91.439057,NO2,8,15,14
India,Assam,Silchar,"Tarapur, Silchar - PCBA",27-01-2026 08:00:00,24.82827,92.79525,OZONE,2,3,2
India,Assam,Sivasagar,"Girls College, Sivasagar - PCBA",27-01-2026 08:00:00,26.987634,94.636574,PM2.5,NA,NA,NA
India,Bihar,Patna,"Rajbansi Nagar, Patna - BSPCB",27-01-2026 08:00:00,25.599486,85.113666,NH3,5,7,6
India,Bihar,Patna,"Rajbansi Nagar, Patna - BSPCB",27-01-2026 08:00:00,25.599486,85.113666,CO,19,56,27
India,Bihar,Patna,"Samanpura, Patna - BSPCB",27-01-2026 08:00:00,25.596727,85.085624,PM2.5,60,110,87
India,Bihar,Patna,"Samanpura, Patna - BSPCB",27-01-2026 08:00:00,25.596727,85.085624,PM10,67,209,135
India,Bihar,Patna,"Samanpura, Patna - BSPCB",27-01-2026 08:00:00,25.596727,85.085624,SO2,2,4,4
India,Bihar,Purnia,"Mariam Nagar, Purnia - BSPCB",27-01-2026 08:00:00,25.366336,87.117468,NO2,5,7,6
India,Bihar,Rajgir,"Dangi Tola, Rajgir - BSPCB",27-01-2026 08:00:00,25.03280,85.41948,PM2.5,40,183,89
India,Bihar,Rajgir,"Dangi Tola, Rajgir - BSPCB",27-01-2026 08:00:00,25.03280,85.41948,NO2,8,10,9
India,Bihar,Rajgir,"Dangi Tola, Rajgir - BSPCB",27-01-2026 08:00:00,25.03280,85.41948,SO2,15,25,21
India,Bihar,Rajgir,"Dangi Tola, Rajgir - BSPCB",27-01-2026 08:00:00,25.03280,85.41948,CO,62,102,89
India,Bihar,Saharsa,"Police Line, Saharsa - BSPCB",27-01-2026 08:00:00,25.892357,86.590325,NH3,4,4,4
India,Bihar,Bhagalpur,"Mayaganj, Bhagalpur - BSPCB",27-01-2026 08:00:00,25.265194,87.012947,NH3,10,13,12
India,Bihar,Bhagalpur,"Mayaganj, Bhagalpur - BSPCB",27-01-2026 08:00:00,25.265194,87.012947,CO,78,96,87
India,Bihar,Bihar Sharif,"D M Colony, Bihar Sharif - BSPCB",27-01-2026 08:00:00,25.204762,85.514960,PM10,36,105,73
India,Bihar,Buxar,"Charitra Van, Buxar - BSPCB",27-01-2026 08:00:00,25.567520,83.966379,PM10,62,101,86
India,Bihar,Buxar,"Charitra Van, Buxar - BSPCB",27-01-2026 08:00:00,25.567520,83.966379,NH3,3,3,3
India,Bihar,Chhapra,"Darshan Nagar, Chhapra - BSPCB",27-01-2026 08:00:00,25.7808257,84.7446768,NO2,1,2,1
India,Bihar,Chhapra,"Darshan Nagar, Chhapra - BSPCB",27-01-2026 08:00:00,25.7808257,84.7446768,CO,26,60,54
India,Bihar,Gaya,"Kareemganj, Gaya - BSPCB",27-01-2026 08:00:00,24.792403,84.992416,PM2.5,50,335,127
India,Bihar,Gaya,"Kareemganj, Gaya - BSPCB",27-01-2026 08:00:00,24.792403,84.992416,PM10,129,324,191
India,Bihar,Gaya,"Kareemganj, Gaya - BSPCB",27-01-2026 08:00:00,24.792403,84.992416,OZONE,1,32,4
India,Bihar,Hajipur,"Industrial Area, Hajipur - BSPCB",27-01-2026 08:00:00,25.697189,85.245900,NH3,8,16,14
India,Bihar,Kishanganj,"SDM Office_Khagra, Kishanganj - BSPCB",27-01-2026 08:00:00,26.0881305,87.93840336,OZONE,16,17,16
India,Bihar,Motihari,"Gandak Colony, Motihari - BSPCB",27-01-2026 08:00:00,26.63086,84.90051,NO2,3,6,4
India,Bihar,Motihari,"Gandak Colony, Motihari - BSPCB",27-01-2026 08:00:00,26.63086,84.90051,SO2,2,3,3
India,Bihar,Motihari,"Gandak Colony, Motihari - BSPCB",27-01-2026 08:00:00,26.63086,84.90051,CO,15,28,18
India,Bihar,Munger,"Town Hall, Munger - BSPCB",27-01-2026 08:00:00,25.376776,86.471523,PM10,51,109,80
India,Bihar,Araria,"Kharahiya Basti, Araria - BSPCB",27-01-2026 08:00:00,26.146529,87.454184,OZONE,9,12,10
India,Bihar,Arrah,"New DM Office, Arrah - BSPCB",27-01-2026 08:00:00,25.5626095,84.663264,PM2.5,18,47,35
India,Bihar,Aurangabad,"Gurdeo Nagar, Aurangabad - BSPCB",27-01-2026 08:00:00,24.75746,84.366208,NH3,1,2,2
India,Bihar,Aurangabad,"Gurdeo Nagar, Aurangabad - BSPCB",27-01-2026 08:00:00,24.75746,84.366208,SO2,8,16,12
India,Bihar,Begusarai,"Lohiyanagar, Begusarai - BSPCB",27-01-2026 08:00:00,25.42742023,86.13886079,OZONE,15,20,19
India,Andhra_Pradesh,Chittoor,"Gangineni Cheruvu, Chittoor - APPCB",27-01-2026 08:00:00,13.204880,79.097889,CO,34,73,62
India,Andhra_Pradesh,Vijayawada,"HB Colony, Vijayawada - APPCB",27-01-2026 08:00:00,16.536107,80.594233,PM10,42,70,54
India,Andhra_Pradesh,Vijayawada,"HB Colony, Vijayawada - APPCB",27-01-2026 08:00:00,16.536107,80.594233,OZONE,13,45,29
India,Andhra_Pradesh,Vijayawada,"Kanuru, Vijayawada - APPCB",27-01-2026 08:00:00,16.486692,80.699436,PM2.5,50,54,52
India,Andhra_Pradesh,Amaravati,"Secretariat, Amaravati - APPCB",27-01-2026 08:00:00,16.5150833,80.5181667,PM10,29,393,164
India,Andhra_Pradesh,Chittoor,"Gangineni Cheruvu, Chittoor - APPCB",27-01-2026 08:00:00,13.204880,79.097889,PM10,60,75,69
India,Andhra_Pradesh,Chittoor,"Gangineni Cheruvu, Chittoor - APPCB",27-01-2026 08:00:00,13.204880,79.097889,NO2,46,49,47
India,Chandigarh,Chandigarh,"Sector 22, Chandigarh - CPCC",27-01-2026 08:00:00,30.735567,76.775714,CO,41,83,57
India,Delhi,Delhi,"DTU, Delhi - CPCB",27-01-2026 08:00:00,28.7500499,77.1112615,NH3,8,16,12
India,Delhi,Delhi,"Dr. Karni Singh Shooting Range, Delhi - DPCC",27-01-2026 08:00:00,28.498571,77.264840,NO2,11,80,42
India,Delhi,Delhi,"Dr. Karni Singh Shooting Range, Delhi - DPCC",27-01-2026 08:00:00,28.498571,77.264840,SO2,7,28,13
India,Delhi,Delhi,"Dwarka-Sector 8, Delhi - DPCC ",27-01-2026 08:00:00,28.5710274,77.0719006,SO2,22,32,28
India,Delhi,Delhi,"IGI Airport (T3), Delhi - IMD",27-01-2026 08:00:00,28.5627763,77.1180053,CO,9,124,85
India,Delhi,Delhi,"IHBAS, Dilshad Garden, Delhi - CPCB",27-01-2026 08:00:00,28.6811736,77.3025234,NH3,5,16,12
India,Delhi,Delhi,"IHBAS, Dilshad Garden, Delhi - CPCB",27-01-2026 08:00:00,28.6811736,77.3025234,SO2,1,25,15
India,Delhi,Delhi,"IIT Delhi, Delhi - IITM",27-01-2026 08:00:00,28.542460,77.191651,PM2.5,80,362,242
India,Delhi,Delhi,"IIT Delhi, Delhi - IITM",27-01-2026 08:00:00,28.542460,77.191651,PM10,116,241,173
India,Delhi,Delhi,"IIT Delhi, Delhi - IITM",27-01-2026 08:00:00,28.542460,77.191651,CO,31,110,98
India,Delhi,Delhi,"ITO, Delhi - CPCB",27-01-2026 08:00:00,28.628624,77.241060,PM2.5,192,413,321
India,Chhattisgarh,Kunjemura,"OP Jindal School, Kunjemura - CECB",27-01-2026 08:00:00,22.126650,83.483212,CO,30,62,46
India,Chhattisgarh,Milupara,"Govt. Higher Secondary School, Milupara - CECB",27-01-2026 08:00:00,22.1910172,83.5197009,CO,20,48,34
India,Chhattisgarh,Raipur,"AIIMS, Raipur - CECB",27-01-2026 08:00:00,21.258815,81.578979,OZONE,1,3,1
India,Chhattisgarh,Raipur,"Krishak Nagar, Raipur - CECB",27-01-2026 08:00:00,21.237755,81.705301,PM10,44,109,82
India,Chhattisgarh,Raipur,"Krishak Nagar, Raipur - CECB",27-01-2026 08:00:00,21.237755,81.705301,CO,19,43,40
India,Chhattisgarh,Raipur,"Siltara Phase-II, Raipur - CECB",27-01-2026 08:00:00,21.371751,81.664929,PM2.5,46,312,108
India,Chhattisgarh,Raipur,"Siltara Phase-II, Raipur - CECB",27-01-2026 08:00:00,21.371751,81.664929,NO2,51,59,54
India,Chhattisgarh,Raipur,"Siltara Phase-II, Raipur - CECB",27-01-2026 08:00:00,21.371751,81.664929,OZONE,3,4,3
India,Delhi,Delhi,"Alipur, Delhi - DPCC",27-01-2026 08:00:00,28.815329,77.153010,NO2,27,62,41
India,Chhattisgarh,Bhilai,"Hathkhoj, Bhilai - CECB",27-01-2026 08:00:00,21.224231,81.408350,PM10,27,123,58
India,Chhattisgarh,Bhilai,"Hathkhoj, Bhilai - CECB",27-01-2026 08:00:00,21.224231,81.408350,NH3,4,6,5
India,Chhattisgarh,Bhilai,"Hathkhoj, Bhilai - CECB",27-01-2026 08:00:00,21.224231,81.408350,SO2,9,81,39
India,Chhattisgarh,Bhilai,"Hathkhoj, Bhilai - CECB",27-01-2026 08:00:00,21.224231,81.408350,OZONE,5,18,8
India,Chhattisgarh,Bilaspur,"Mangala, Bilaspur - NTPC",27-01-2026 08:00:00,22.08815,82.13737,CO,48,117,78
India,Chhattisgarh,Chhal,"Nawapara SECL Colony, Chhal - CECB",27-01-2026 08:00:00,22.118125,83.140608,NH3,5,5,5
India,Chhattisgarh,Korba,"Rampur, Korba - CECB",27-01-2026 08:00:00,22.368195,82.746431,NO2,26,42,33
India,Chhattisgarh,Korba,"Urja Nagar, Korba - CECB",27-01-2026 08:00:00,22.348441,82.549611,SO2,1,18,10
India,Chhattisgarh,Kunjemura,"OP Jindal School, Kunjemura - CECB",27-01-2026 08:00:00,22.126650,83.483212,PM2.5,88,114,99
India,Delhi,Delhi,"Major Dhyan Chand National Stadium, Delhi - DPCC",27-01-2026 08:00:00,28.611281,77.237738,SO2,5,18,10
India,Delhi,Delhi,"Major Dhyan Chand National Stadium, Delhi - DPCC",27-01-2026 08:00:00,28.611281,77.237738,CO,35,117,94
India,Delhi,Delhi,"Major Dhyan Chand National Stadium, Delhi - DPCC",27-01-2026 08:00:00,28.611281,77.237738,OZONE,2,199,3
India,Delhi,Delhi,"Mandir Marg, Delhi - DPCC",27-01-2026 08:00:00,28.636429,77.201067,PM2.5,5,358,180
India,Delhi,Delhi,"Mandir Marg, Delhi - DPCC",27-01-2026 08:00:00,28.636429,77.201067,PM10,107,259,169
India,Delhi,Delhi,"Mundka, Delhi - DPCC",27-01-2026 08:00:00,28.684678,77.076574,PM2.5,98,500,322
India,Delhi,Delhi,"Mundka, Delhi - DPCC",27-01-2026 08:00:00,28.684678,77.076574,OZONE,11,92,15
India,Delhi,Delhi,"Narela, Delhi - DPCC",27-01-2026 08:00:00,28.822836,77.101981,PM2.5,160,420,288
India,Delhi,Delhi,"Nehru Nagar, Delhi - DPCC",27-01-2026 08:00:00,28.567890,77.250515,PM10,135,494,292
India,Delhi,Delhi,"Aya Nagar, Delhi - IMD",27-01-2026 08:00:00,28.4706914,77.1099364,PM2.5,92,413,236
India,Delhi,Delhi,"Aya Nagar, Delhi - IMD",27-01-2026 08:00:00,28.4706914,77.1099364,OZONE,6,79,9
India,Delhi,Delhi,"Bawana, Delhi - DPCC",27-01-2026 08:00:00,28.776200,77.051074,PM2.5,187,500,344
India,Delhi,Delhi,"Bawana, Delhi - DPCC",27-01-2026 08:00:00,28.776200,77.051074,PM10,107,478,257
India,Delhi,Delhi,"Bawana, Delhi - DPCC",27-01-2026 08:00:00,28.776200,77.051074,SO2,7,46,15
India,Delhi,Delhi,"Burari Crossing, Delhi - IMD",27-01-2026 08:00:00,28.7256504,77.2011573,PM10,130,419,258
India,Delhi,Delhi,"Burari Crossing, Delhi - IMD",27-01-2026 08:00:00,28.7256504,77.2011573,OZONE,5,186,7
India,Delhi,Delhi,"Chandni Chowk, Delhi - IITM",27-01-2026 08:00:00,28.656756,77.227234,PM10,93,485,277
India,Delhi,Delhi,"Chandni Chowk, Delhi - IITM",27-01-2026 08:00:00,28.656756,77.227234,SO2,12,38,24
India,Delhi,Delhi,"Nehru Nagar, Delhi - DPCC",27-01-2026 08:00:00,28.567890,77.250515,NH3,4,8,6
India,Delhi,Delhi,"Nehru Nagar, Delhi - DPCC",27-01-2026 08:00:00,28.567890,77.250515,SO2,7,116,28
India,Delhi,Delhi,"Okhla Phase-2, Delhi - DPCC",27-01-2026 08:00:00,28.530785,77.271255,PM2.5,203,485,334
India,Delhi,Delhi,"Okhla Phase-2, Delhi - DPCC",27-01-2026 08:00:00,28.530785,77.271255,SO2,11,61,20
India,Delhi,Delhi,"Okhla Phase-2, Delhi - DPCC",27-01-2026 08:00:00,28.530785,77.271255,OZONE,5,307,9
India,Delhi,Delhi,"Patparganj, Delhi - DPCC",27-01-2026 08:00:00,28.623763,77.287209,NH3,8,14,10
India,Delhi,Delhi,"Punjabi Bagh, Delhi - DPCC",27-01-2026 08:00:00,28.674045,77.131023,NH3,4,5,4
India,Delhi,Delhi,"Punjabi Bagh, Delhi - DPCC",27-01-2026 08:00:00,28.674045,77.131023,SO2,12,25,18
India,Delhi,Delhi,"Jahangirpuri, Delhi - DPCC",27-01-2026 08:00:00,28.732820,77.170633,SO2,39,56,48
India,Delhi,Delhi,"Lodhi Road, Delhi - IMD",27-01-2026 08:00:00,28.5918245,77.2273074,PM2.5,79,313,194
India,Delhi,Delhi,"Lodhi Road, Delhi - IMD",27-01-2026 08:00:00,28.5918245,77.2273074,PM10,114,247,177
India,Delhi,Delhi,"Lodhi Road, Delhi - IMD",27-01-2026 08:00:00,28.5918245,77.2273074,CO,46,104,100
India,Delhi,Delhi,"Alipur, Delhi - DPCC",27-01-2026 08:00:00,28.815329,77.153010,OZONE,8,56,8
India,Delhi,Delhi,"Anand Vihar, Delhi - DPCC",27-01-2026 08:00:00,28.647622,77.3158090,PM2.5,170,500,368
India,Delhi,Delhi,"Anand Vihar, Delhi - DPCC",27-01-2026 08:00:00,28.647622,77.3158090,NO2,50,123,82
India,Delhi,Delhi,"Chandni Chowk, Delhi - IITM",27-01-2026 08:00:00,28.656756,77.227234,OZONE,4,88,7
India,Gujarat,Gandhinagar,"IIPHG Lekawada, Gandhinagar - IITM",27-01-2026 08:00:00,23.243639,72.68994,SO2,12,18,15
India,Gujarat,Gandhinagar,"IIPHG Lekawada, Gandhinagar - IITM",27-01-2026 08:00:00,23.243639,72.68994,CO,22,51,42
India,Gujarat,Gandhinagar,"Sector-10, Gandhinagar - GPCB",27-01-2026 08:00:00,23.221714,72.654328,NO2,28,58,36
India,Gujarat,Surat,"Science Center, Surat - SMC",27-01-2026 08:00:00,21.170046,72.795405,PM2.5,29,235,97
India,Gujarat,Vatva,"Phase-4 GIDC, Vatva - GPCB",27-01-2026 08:00:00,22.969611,72.643500,NH3,6,11,8
India,Gujarat,Vatva,"Phase-4 GIDC, Vatva - GPCB",27-01-2026 08:00:00,22.969611,72.643500,SO2,29,39,34
India,Haryana,Ballabgarh,"Nathu Colony, Ballabgarh - HSPCB",27-01-2026 08:00:00,28.3419248,77.319699,SO2,2,6,4
India,Delhi,Delhi,"Sri Aurobindo Marg, Delhi - DPCC",27-01-2026 08:00:00,28.531346,77.190156,OZONE,2,135,2
India,Delhi,Delhi,"Vivek Vihar, Delhi - DPCC",27-01-2026 08:00:00,28.672342,77.315260,NO2,36,117,67
India,Gujarat,Ahmedabad,"Chandkheda, Ahmedabad - IITM",27-01-2026 08:00:00,23.107969,72.574648,PM2.5,72,142,95
India,Gujarat,Ahmedabad,"Maninagar, Ahmedabad - GPCB",27-01-2026 08:00:00,23.002657,72.591912,SO2,16,49,31
India,Gujarat,Ahmedabad,"Raikhad, Ahmedabad - IITM",27-01-2026 08:00:00,23.020509,72.579261,PM2.5,NA,NA,NA
India,Gujarat,Ahmedabad,"Raikhad, Ahmedabad - IITM",27-01-2026 08:00:00,23.020509,72.579261,SO2,11,41,19
India,Gujarat,Ahmedabad,"Rakhial, Ahmedabad - IITM",27-01-2026 08:00:00,23.016834,72.625775,PM10,112,199,160
India,Haryana,Jind,"Police Lines, Jind - HSPCB",27-01-2026 08:00:00,29.307814,76.337619,CO,2,132,110
India,Haryana,Kaithal,"Rishi Nagar, Kaithal - HSPCB",27-01-2026 08:00:00,29.8006,76.4155,CO,22,99,40
India,Haryana,Karnal,"Sector-12, Karnal - HSPCB",27-01-2026 08:00:00,29.695300,77.002700,SO2,6,7,6
India,Haryana,Mandikhera,"General Hospital, Mandikhera(Nuh) - HSPCB",27-01-2026 08:00:00,27.9002,76.9938,PM2.5,80,208,144
India,Haryana,Manesar,"Sector-2 IMT, Manesar - HSPCB",27-01-2026 08:00:00,28.360699,76.936090,PM2.5,71,375,240
India,Haryana,Manesar,"Sector-2 IMT, Manesar - HSPCB",27-01-2026 08:00:00,28.360699,76.936090,NO2,35,41,38
India,Haryana,Manesar,"Sector-2 IMT, Manesar - HSPCB",27-01-2026 08:00:00,28.360699,76.936090,SO2,8,15,11
India,Haryana,Narnaul,"Shastri Nagar, Narnaul - HSPCB",27-01-2026 08:00:00,28.060249,76.113115,PM2.5,117,375,261
India,Haryana,Palwal,"Shyam Nagar, Palwal - HSPCB",27-01-2026 08:00:00,28.1485564,77.3320667,NO2,23,24,24
India,Haryana,Panchgaon,"Amity University, Panchgaon - IITM",27-01-2026 08:00:00,28.3153,76.9143,PM10,26,194,61
India,Haryana,Panchgaon,"Amity University, Panchgaon - IITM",27-01-2026 08:00:00,28.3153,76.9143,NO2,2,19,9
India,Haryana,Panchgaon,"Amity University, Panchgaon - IITM",27-01-2026 08:00:00,28.3153,76.9143,SO2,11,21,17
India,Haryana,Rohtak,"MD University, Rohtak - HSPCB",27-01-2026 08:00:00,28.52123,76.37138,PM10,61,114,92
India,Haryana,Rohtak,"MD University, Rohtak - HSPCB",27-01-2026 08:00:00,28.52123,76.37138,NO2,10,14,11
India,Haryana,Fatehabad,"Huda Sector, Fatehabad - HSPCB",27-01-2026 08:00:00,29.503664,75.467934,PM2.5,1,8,4
India,Haryana,Fatehabad,"Huda Sector, Fatehabad - HSPCB",27-01-2026 08:00:00,29.503664,75.467934,PM10,1,12,7
India,Haryana,Fatehabad,"Huda Sector, Fatehabad - HSPCB",27-01-2026 08:00:00,29.503664,75.467934,CO,25,37,26
India,Haryana,Gurugram,"NISE Gwal Pahari, Gurugram - IMD",27-01-2026 08:00:00,28.422681,77.148944,PM10,96,218,143
India,Haryana,Gurugram,"NISE Gwal Pahari, Gurugram - IMD",27-01-2026 08:00:00,28.422681,77.148944,OZONE,6,57,8
India,Haryana,Hisar,"Urban Estate-II, Hisar - HSPCB",27-01-2026 08:00:00,29.140560,75.744941,CO,28,66,38
India,Haryana,Hisar,"Urban Estate-II, Hisar - HSPCB",27-01-2026 08:00:00,29.140560,75.744941,OZONE,19,120,36
India,Haryana,Bhiwani,"H.B. Colony, Bhiwani - HSPCB",27-01-2026 08:00:00,28.806223,76.141105,PM2.5,26,500,232
India,Haryana,Bhiwani,"H.B. Colony, Bhiwani - HSPCB",27-01-2026 08:00:00,28.806223,76.141105,PM10,22,500,166
India,Haryana,Bhiwani,"H.B. Colony, Bhiwani - HSPCB",27-01-2026 08:00:00,28.806223,76.141105,NO2,1,34,31
India,Haryana,Dharuhera,"Municipal Corporation Office, Dharuhera -  HSPCB",27-01-2026 08:00:00,28.206800,76.799700,NO2,13,52,38
India,Haryana,Faridabad,"New Industrial Town, Faridabad - HSPCB",27-01-2026 08:00:00,28.39072,77.30059,PM2.5,205,220,214
India,Haryana,Faridabad,"New Industrial Town, Faridabad - HSPCB",27-01-2026 08:00:00,28.39072,77.30059,NO2,24,26,25
India,Gujarat,Ahmedabad,"Rakhial, Ahmedabad - IITM",27-01-2026 08:00:00,23.016834,72.625775,SO2,18,108,36
India,Gujarat,Ahmedabad,"SAC ISRO Satellite, Ahmedabad - IITM",27-01-2026 08:00:00,23.023389,72.515201,PM2.5,76,200,134
India,Gujarat,Ahmedabad,"SAC ISRO Satellite, Ahmedabad - IITM",27-01-2026 08:00:00,23.023389,72.515201,NH3,4,11,8
India,Gujarat,Ahmedabad,"SVPI Airport Hansol, Ahmedabad - IITM",27-01-2026 08:00:00,23.076793,72.627874,SO2,8,11,9
India,Gujarat,Ankleshwar,"GIDC, Ankleshwar - GPCB",27-01-2026 08:00:00,21.613267,73.010555,PM2.5,56,151,111
India,Gujarat,Ankleshwar,"GIDC, Ankleshwar - GPCB",27-01-2026 08:00:00,21.613267,73.010555,OZONE,4,77,16
India,Delhi,Delhi,"R K Puram, Delhi - DPCC",27-01-2026 08:00:00,28.563262,77.186937,CO,34,144,109
India,Delhi,Delhi,"Shadipur, Delhi - CPCB",27-01-2026 08:00:00,28.6514781,77.1473105,PM2.5,56,384,222
India,Delhi,Delhi,"Shadipur, Delhi - CPCB",27-01-2026 08:00:00,28.6514781,77.1473105,OZONE,17,25,22
India,Delhi,Delhi,"Sonia Vihar, Delhi - DPCC",27-01-2026 08:00:00,28.710508,77.249485,PM10,134,422,270
India,Delhi,Delhi,"Sri Aurobindo Marg, Delhi - DPCC",27-01-2026 08:00:00,28.531346,77.190156,PM2.5,97,340,231
India,Delhi,Delhi,"Sri Aurobindo Marg, Delhi - DPCC",27-01-2026 08:00:00,28.531346,77.190156,SO2,7,17,11
India,Haryana,Sonipat,"Murthal, Sonipat - HSPCB",27-01-2026 08:00:00,29.027200,77.062100,PM10,53,113,85
India,Jammu_and_Kashmir,Pampore,"Khrew, Pampore - JKPCC",27-01-2026 08:00:00,34.031606,75.009712,PM10,53,135,80
India,Jharkhand,Dhanbad,"Sardar Patel Nagar, Dhanbad - JSPCB",27-01-2026 08:00:00,23.80569,86.44268,CO,1,25,3
India,Karnataka,Belgaum,"Ramteerth Nagar, Belgaum - KSPCB",27-01-2026 08:00:00,15.888653,74.541751,PM2.5,11,57,38
India,Karnataka,Belgaum,"Ramteerth Nagar, Belgaum - KSPCB",27-01-2026 08:00:00,15.888653,74.541751,NO2,1,98,30
India,Karnataka,Belgaum,"Ramteerth Nagar, Belgaum - KSPCB",27-01-2026 08:00:00,15.888653,74.541751,OZONE,19,19,19
India,Karnataka,Bengaluru,"BWSSB Kadabesanahalli, Bengaluru - CPCB",27-01-2026 08:00:00,12.9352049,77.6814488,PM2.5,25,80,54
India,Karnataka,Bengaluru,"BWSSB Kadabesanahalli, Bengaluru - CPCB",27-01-2026 08:00:00,12.9352049,77.6814488,PM10,49,122,85
India,Karnataka,Bengaluru,"BWSSB Kadabesanahalli, Bengaluru - CPCB",27-01-2026 08:00:00,12.9352049,77.6814488,SO2,4,6,5
India,Karnataka,Bengaluru,"Bapuji Nagar, Bengaluru - KSPCB",27-01-2026 08:00:00,12.951913,77.539784,PM10,33,135,69
India,Karnataka,Bengaluru,"Bapuji Nagar, Bengaluru - KSPCB",27-01-2026 08:00:00,12.951913,77.539784,NO2,4,18,10
India,Karnataka,Bengaluru,"Hebbal, Bengaluru - KSPCB",27-01-2026 08:00:00,13.029152,77.585901,CO,3,62,18
India,Karnataka,Ramanagara,"Vijay Nagar, Ramanagara - KSPCB",27-01-2026 08:00:00,12.733409,77.298051,NO2,39,51,42
India,Karnataka,Ramanagara,"Vijay Nagar, Ramanagara - KSPCB",27-01-2026 08:00:00,12.733409,77.298051,NH3,2,2,2
India,Karnataka,Ramanagara,"Vijay Nagar, Ramanagara - KSPCB",27-01-2026 08:00:00,12.733409,77.298051,SO2,12,16,13
India,Karnataka,Ramanagara,"Vijay Nagar, Ramanagara - KSPCB",27-01-2026 08:00:00,12.733409,77.298051,OZONE,16,41,27
India,Karnataka,Shivamogga,"Vinoba Nagara, Shivamogga - KSPCB",27-01-2026 08:00:00,13.940000,75.555917,NH3,3,5,4
India,Karnataka,Vijayapura,"Ibrahimpur, Vijayapura - KSPCB",27-01-2026 08:00:00,16.802639,75.722694,NH3,1,2,1
India,Karnataka,Yadgir,"Collector Office, Yadgir - KSPCB",27-01-2026 08:00:00,16.7602,77.1428,CO,14,22,18
India,Kerala,Eloor,"Udyogamandal, Eloor - Kerala PCB",27-01-2026 08:00:00,10.073232,76.302765,CO,10,85,19
India,Karnataka,Bengaluru,"Jayanagar 5th Block, Bengaluru - KSPCB",27-01-2026 08:00:00,12.920984,77.584908,NO2,6,29,18
India,Karnataka,Bengaluru,"Jayanagar 5th Block, Bengaluru - KSPCB",27-01-2026 08:00:00,12.920984,77.584908,OZONE,5,68,47
India,Karnataka,Bengaluru,"Jigani, Bengaluru - KSPCB",27-01-2026 08:00:00,12.7816279,77.6299145,SO2,18,19,18
India,Karnataka,Bengaluru,"Kasturi Nagar, Bengaluru - KSPCB",27-01-2026 08:00:00,13.003872,77.664217,PM2.5,64,65,65
India,Karnataka,Bengaluru,"Peenya, Bengaluru - CPCB",27-01-2026 08:00:00,13.0270199,77.494094,PM2.5,18,49,28
India,Karnataka,Bengaluru,"Peenya, Bengaluru - CPCB",27-01-2026 08:00:00,13.0270199,77.494094,PM10,57,69,62
India,Karnataka,Bengaluru,"Peenya, Bengaluru - CPCB",27-01-2026 08:00:00,13.0270199,77.494094,SO2,7,14,10
India,Karnataka,Bengaluru,"RVCE-Mailasandra, Bengaluru - KSPCB",27-01-2026 08:00:00,12.921418,77.502466,NO2,16,21,21
India,Kerala,Kannur,"Thavakkara, Kannur - Kerala PCB",27-01-2026 08:00:00,11.875000,75.373200,NH3,NA,NA,NA
India,Kerala,Kollam,"Polayathode, Kollam - Kerala PCB",27-01-2026 08:00:00,8.8787,76.6073,PM10,38,49,44
India,Kerala,Kollam,"Polayathode, Kollam - Kerala PCB",27-01-2026 08:00:00,8.8787,76.6073,CO,14,18,16
India,Kerala,Thiruvananthapuram,"Kariavattom, Thiruvananthapuram - Kerala PCB",27-01-2026 08:00:00,8.563700,76.886500,CO,NA,NA,NA
India,Kerala,Thiruvananthapuram,"Plammoodu, Thiruvananthapuram - Kerala PCB",27-01-2026 08:00:00,8.5149093,76.9435879,NO2,NA,NA,NA
India,Kerala,Thiruvananthapuram,"Plammoodu, Thiruvananthapuram - Kerala PCB",27-01-2026 08:00:00,8.5149093,76.9435879,SO2,6,24,14
India,Madhya Pradesh,Bhopal,"Idgah Hills, Bhopal - MPPCB",27-01-2026 08:00:00,23.264759,77.381568,CO,27,100,33
India,Karnataka,Bengaluru,"Shivapura_Peenya, Bengaluru - KSPCB",27-01-2026 08:00:00,13.0246342,77.5080115,NO2,79,79,79
India,Karnataka,Bengaluru,"Silk Board, Bengaluru - KSPCB",27-01-2026 08:00:00,12.917348,77.622813,PM2.5,24,188,49
India,Karnataka,Bengaluru,"Silk Board, Bengaluru - KSPCB",27-01-2026 08:00:00,12.917348,77.622813,OZONE,10,54,30
India,Karnataka,Chamarajanagar,"Urban, Chamarajanagar - KSPCB",27-01-2026 08:00:00,11.55358,76.55521,PM2.5,21,45,36
India,Karnataka,Chamarajanagar,"Urban, Chamarajanagar - KSPCB",27-01-2026 08:00:00,11.55358,76.55521,CO,12,25,18
India,Karnataka,Chamarajanagar,"Urban, Chamarajanagar - KSPCB",27-01-2026 08:00:00,11.55358,76.55521,OZONE,13,29,16
India,Karnataka,Chikkaballapur,"Chikkaballapur Rural, Chikkaballapur - KSPCB",27-01-2026 08:00:00,13.428828,77.731418,OZONE,23,27,23
India,Madhya Pradesh,Indore,"Maguda Nagar, Indore - IMC",27-01-2026 08:00:00,22.7524,75.8872,PM10,57,142,86
India,Madhya Pradesh,Indore,"Maguda Nagar, Indore - IMC",27-01-2026 08:00:00,22.7524,75.8872,NO2,31,60,46
India,Madhya Pradesh,Indore,"Regional Park, Indore - IMC",27-01-2026 08:00:00,22.6780,75.8559,NO2,16,22,20
India,Madhya Pradesh,Indore,"Residency Area, Indore - IMC",27-01-2026 08:00:00,22.7084,75.8815,PM10,57,133,83
India,Madhya Pradesh,Indore,"Residency Area, Indore - IMC",27-01-2026 08:00:00,22.7084,75.8815,CO,27,65,35
India,Madhya Pradesh,Jabalpur,"Govindh Bhavan Colony, Jabalpur - JMC",27-01-2026 08:00:00,23.163174,79.973061,NH3,NA,NA,NA
India,Madhya Pradesh,Jabalpur,"Govindh Bhavan Colony, Jabalpur - JMC",27-01-2026 08:00:00,23.163174,79.973061,SO2,NA,NA,NA
India,Madhya Pradesh,Bhopal,"T T Nagar, Bhopal - MPPCB",27-01-2026 08:00:00,23.233584,77.400574,PM10,116,194,149
India,Madhya Pradesh,Dewas,"Bhopal Chauraha, Dewas - MPPCB",27-01-2026 08:00:00,22.9682591,76.064118,PM2.5,110,198,157
India,Madhya Pradesh,Gwalior,"Deen Dayal Nagar, Gwalior - MPPCB",27-01-2026 08:00:00,26.259242,78.216432,PM2.5,90,291,173
India,Madhya Pradesh,Gwalior,"Maharaj Bada, Gwalior - MPPCB",27-01-2026 08:00:00,26.200388,78.147714,NO2,36,98,60
India,Madhya Pradesh,Gwalior,"Maharaj Bada, Gwalior - MPPCB",27-01-2026 08:00:00,26.200388,78.147714,CO,4,121,16
India,Madhya Pradesh,Jabalpur,"Suhagi, Jabalpur - JMC",27-01-2026 08:00:00,23.218135,79.957770,NO2,27,103,46
India,Madhya Pradesh,Jabalpur,"Suhagi, Jabalpur - JMC",27-01-2026 08:00:00,23.218135,79.957770,CO,47,110,56
India,Madhya Pradesh,Katni,"Gole Bazar, Katni - MPPCB",27-01-2026 08:00:00,23.50016,80.23284,PM2.5,58,321,114
India,Madhya Pradesh,Katni,"Gole Bazar, Katni - MPPCB",27-01-2026 08:00:00,23.50016,80.23284,NH3,3,4,4
India,Madhya Pradesh,Mandideep,"Sector-D Industrial Area, Mandideep - MPPCB",27-01-2026 08:00:00,23.108440,77.511428,PM2.5,148,396,298
India,Karnataka,Davanagere,"Devaraj Urs Badavane, Davanagere - KSPCB",27-01-2026 08:00:00,14.475800,75.905200,CO,6,12,9
India,Karnataka,Madikeri,"Stuart Hill, Madikeri - KSPCB",27-01-2026 08:00:00,12.415911,75.735050,PM10,6,60,26
India,Karnataka,Madikeri,"Stuart Hill, Madikeri - KSPCB",27-01-2026 08:00:00,12.415911,75.735050,SO2,7,7,7
India,Madhya Pradesh,Sagar,"Deen Dayal Nagar, Sagar - MPPCB",27-01-2026 08:00:00,23.8640158,78.80289321,PM10,54,153,116
India,Madhya Pradesh,Satna,"Bandhavgar Colony, Satna - Birla Cement",27-01-2026 08:00:00,24.58434363,80.8549414,SO2,19,22,20
India,Madhya Pradesh,Singrauli,"Suryakiran Bhawan NCL, Singrauli - MPPCB",27-01-2026 08:00:00,24.108970,82.645580,PM10,158,427,259
India,Madhya Pradesh,Singrauli,"Suryakiran Bhawan NCL, Singrauli - MPPCB",27-01-2026 08:00:00,24.108970,82.645580,NH3,1,1,1
India,Madhya Pradesh,Singrauli,"Suryakiran Bhawan NCL, Singrauli - MPPCB",27-01-2026 08:00:00,24.108970,82.645580,CO,26,87,64
India,Madhya Pradesh,Singrauli,"Suryakiran Bhawan NCL, Singrauli - MPPCB",27-01-2026 08:00:00,24.108970,82.645580,OZONE,6,31,8
India,Madhya Pradesh,Ujjain,"Mahashweta Nagar, Ujjain - MPPCB",27-01-2026 08:00:00,23.1633321,75.800225,NH3,9,18,13
India,Maharashtra,Ahmednagar,"Tarakpur, Ahmednagar - MPCB",27-01-2026 08:00:00,19.10122,74.73339,PM2.5,34,149,73
India,Maharashtra,Mumbai,"Kurla, Mumbai - MPCB",27-01-2026 08:00:00,19.0863,72.8888,PM10,90,142,112
India,Maharashtra,Mumbai,"Kurla, Mumbai - MPCB",27-01-2026 08:00:00,19.0863,72.8888,SO2,36,37,37
India,Maharashtra,Mumbai,"Kurla, Mumbai - MPCB",27-01-2026 08:00:00,19.0863,72.8888,CO,12,20,14
India,Maharashtra,Mumbai,"Malad West, Mumbai - IITM",27-01-2026 08:00:00,19.19709,72.82204,PM2.5,82,180,120
India,Maharashtra,Mumbai,"Malad West, Mumbai - IITM",27-01-2026 08:00:00,19.19709,72.82204,PM10,107,190,144
India,Maharashtra,Mumbai,"Mazgaon, Mumbai - IITM",27-01-2026 08:00:00,18.96702,72.84214,PM10,79,124,103
India,Maharashtra,Mumbai,"Mazgaon, Mumbai - IITM",27-01-2026 08:00:00,18.96702,72.84214,NO2,24,97,58
India,Maharashtra,Mumbai,"Mindspace-Malad West, Mumbai - MPCB",27-01-2026 08:00:00,19.1878657,72.8304069,PM2.5,43,335,106
India,Maharashtra,Mumbai,"Mulund West, Mumbai - MPCB",27-01-2026 08:00:00,19.1750,72.9419,PM2.5,43,112,74
India,Maharashtra,Mumbai,"Mulund West, Mumbai - MPCB",27-01-2026 08:00:00,19.1750,72.9419,NH3,4,4,4
India,Maharashtra,Mumbai,"Deonar, Mumbai - IITM",27-01-2026 08:00:00,19.04946,72.9230,PM2.5,79,193,131
India,Maharashtra,Mumbai,"Deonar, Mumbai - IITM",27-01-2026 08:00:00,19.04946,72.9230,NO2,11,52,26
India,Maharashtra,Mumbai,"Deonar, Mumbai - IITM",27-01-2026 08:00:00,19.04946,72.9230,NH3,13,15,14
India,Maharashtra,Mumbai,"Ghatkopar, Mumbai - BMC",27-01-2026 08:00:00,19.083694,72.920967,PM10,100,147,124
India,Maharashtra,Mumbai,"Kandivali East, Mumbai - MPCB",27-01-2026 08:00:00,19.205800,72.868200,SO2,23,26,25
India,Maharashtra,Mumbai,"Kandivali West, Mumbai - BMC",27-01-2026 08:00:00,19.215859,72.831718,NH3,NA,NA,NA
India,Maharashtra,Mumbai,"Kandivali West, Mumbai - BMC",27-01-2026 08:00:00,19.215859,72.831718,OZONE,25,79,28
India,Maharashtra,Mumbai,"Kherwadi_Bandra East, Mumbai - MPCB",27-01-2026 08:00:00,19.0632143,72.8456324,PM10,72,137,106
India,Maharashtra,Mumbai,"Kherwadi_Bandra East, Mumbai - MPCB",27-01-2026 08:00:00,19.0632143,72.8456324,NO2,NA,NA,NA
India,Maharashtra,Mumbai,"Bandra Kurla Complex, Mumbai - IITM",27-01-2026 08:00:00,19.053536,72.84643,OZONE,NA,NA,NA
India,Maharashtra,Mumbai,"Borivali East, Mumbai - IITM",27-01-2026 08:00:00,19.23241,72.86895,NO2,5,33,14
India,Maharashtra,Mumbai,"Borivali East, Mumbai - MPCB",27-01-2026 08:00:00,19.2243333,72.8658113,PM10,75,111,97
India,Maharashtra,Mumbai,"Borivali East, Mumbai - MPCB",27-01-2026 08:00:00,19.2243333,72.8658113,NO2,NA,NA,NA
India,Maharashtra,Mumbai,"Byculla, Mumbai - BMC",27-01-2026 08:00:00,18.9767,72.8380,NO2,29,100,50
India,Maharashtra,Mumbai,"Chakala-Andheri East, Mumbai - IITM",27-01-2026 08:00:00,19.11074,72.86084,NH3,12,19,15
India,Maharashtra,Mumbai,"Chembur, Mumbai - MPCB",27-01-2026 08:00:00,19.0364585,72.8954371,PM2.5,70,115,87
India,Maharashtra,Mumbai,"Chembur, Mumbai - MPCB",27-01-2026 08:00:00,19.0364585,72.8954371,SO2,1,75,11
India,Maharashtra,Aurangabad,"Rachnakar Colony, Aurangabad - MPCB",27-01-2026 08:00:00,19.863756,75.321188,SO2,9,28,18
India,Maharashtra,Badlapur,"Katrap, Badlapur - MPCB",27-01-2026 08:00:00,19.16485,73.23409,NH3,NA,NA,NA
India,Maharashtra,Belapur,"CBD Belapur, Belapur - MPCB",27-01-2026 08:00:00,19.0243902,73.0406721,CO,12,40,27
India,Maharashtra,Belapur,"CBD Belapur, Belapur - MPCB",27-01-2026 08:00:00,19.0243902,73.0406721,OZONE,1,60,6
India,Maharashtra,Bhiwandi,"Gokul Nagar, Bhiwandi - MPCB",27-01-2026 08:00:00,19.309073,73.057223,OZONE,12,82,13
India,Maharashtra,Chandrapur,"Chauhan Colony, Chandrapur - MPCB",27-01-2026 08:00:00,19.962900,79.298714,PM2.5,37,263,70
India,Maharashtra,Chandrapur,"Chauhan Colony, Chandrapur - MPCB",27-01-2026 08:00:00,19.962900,79.298714,CO,24,124,116
India,Maharashtra,Chandrapur,"MIDC Khutala, Chandrapur - MPCB",27-01-2026 08:00:00,19.9775302,79.2337086,SO2,8,9,9
India,Maharashtra,Chandrapur,"MIDC Khutala, Chandrapur - MPCB",27-01-2026 08:00:00,19.9775302,79.2337086,CO,37,42,39
India,Maharashtra,Jalgaon,"Prabhat Colony, Jalgaon - MPCB",27-01-2026 08:00:00,21.001264,75.565602,NO2,3,20,7
India,Maharashtra,Jalgaon,"Prabhat Colony, Jalgaon - MPCB",27-01-2026 08:00:00,21.001264,75.565602,CO,22,36,25
India,Maharashtra,Jalna,"Old MIDC, Jalna - MPCB",27-01-2026 08:00:00,19.854616,75.905894,NH3,2,4,4
India,Maharashtra,Kalyan,"Khadakpada, Kalyan - MPCB",27-01-2026 08:00:00,19.25292,73.142019,PM2.5,48,177,88
India,Maharashtra,Kalyan,"Pimpleshwar Mandir, Kalyan - MPCB",27-01-2026 08:00:00,19.192056,72.9585188,CO,26,26,26
India,Maharashtra,Kolhapur,"Sinchan Bhavan, Kolhapur - MPCB",27-01-2026 08:00:00,16.7143745,74.2426398,PM2.5,10,64,28
India,Maharashtra,Kolhapur,"Sinchan Bhavan, Kolhapur - MPCB",27-01-2026 08:00:00,16.7143745,74.2426398,NH3,2,7,5
India,Maharashtra,Latur,"Sawe Wadi, Latur - MPCB",27-01-2026 08:00:00,18.39963,76.57452,NH3,4,43,13
India,Maharashtra,Mahad,"Kamble Tarf Birwadi, Mahad - MPCB",27-01-2026 08:00:00,18.1023399,73.4783687,SO2,8,133,32
India,Maharashtra,Malegaon,"Mahesh Nagar, Malegaon - MPCB",27-01-2026 08:00:00,20.555712,74.529236,PM10,91,173,126
India,Maharashtra,Mira-Bhayandar,"Bhayandar West, Mira-Bhayandar - MPCB",27-01-2026 08:00:00,19.296481,72.840923,PM10,82,167,117
India,Maharashtra,Amravati,"Shri Shivaji Science College, Amravati - MPCB",27-01-2026 08:00:00,20.939198,77.765701,PM10,95,158,119
India,Maharashtra,Amravati,"Shri Shivaji Science College, Amravati - MPCB",27-01-2026 08:00:00,20.939198,77.765701,NH3,2,6,3
India,Maharashtra,Amravati,"Shri Shivaji Science College, Amravati - MPCB",27-01-2026 08:00:00,20.939198,77.765701,OZONE,24,89,52
India,Maharashtra,Aurangabad,"More Chowk Waluj, Aurangabad - MPCB",27-01-2026 08:00:00,19.8389439,75.244448,NH3,NA,NA,NA
India,Maharashtra,Aurangabad,"Rachnakar Colony, Aurangabad - MPCB",27-01-2026 08:00:00,19.863756,75.321188,PM2.5,62,206,108
India,Maharashtra,Aurangabad,"Rachnakar Colony, Aurangabad - MPCB",27-01-2026 08:00:00,19.863756,75.321188,NO2,13,60,24
India,Madhya Pradesh,Sagar,"Civil Lines, Sagar - MPPCB",27-01-2026 08:00:00,23.838586,78.759431,PM10,107,172,135
India,Madhya Pradesh,Sagar,"Civil Lines, Sagar - MPPCB",27-01-2026 08:00:00,23.838586,78.759431,NH3,1,4,2
India,Madhya Pradesh,Sagar,"Civil Lines, Sagar - MPPCB",27-01-2026 08:00:00,23.838586,78.759431,OZONE,28,82,52
India,Maharashtra,Navi Mumbai,"Sector-2E Kalamboli, Navi Mumbai - MPCB",27-01-2026 08:00:00,19.02579,73.10297,CO,1,74,22
India,Maharashtra,Navi Mumbai,"Sector-2E Kalamboli, Navi Mumbai - MPCB",27-01-2026 08:00:00,19.02579,73.10297,OZONE,1,66,3
India,Maharashtra,Parbhani,"Masoom Colony, Parbhani - MPCB",27-01-2026 08:00:00,19.265594,76.761463,PM2.5,66,123,90
India,Maharashtra,Parbhani,"Masoom Colony, Parbhani - MPCB",27-01-2026 08:00:00,19.265594,76.761463,PM10,81,112,97
India,Maharashtra,Parbhani,"Masoom Colony, Parbhani - MPCB",27-01-2026 08:00:00,19.265594,76.761463,NO2,51,64,55
India,Maharashtra,Parbhani,"Masoom Colony, Parbhani - MPCB",27-01-2026 08:00:00,19.265594,76.761463,SO2,7,14,11
India,Maharashtra,Parbhani,"Masoom Colony, Parbhani - MPCB",27-01-2026 08:00:00,19.265594,76.761463,CO,4,15,12
India,Maharashtra,Pimpri-Chinchwad,"Gavalinagar, Pimpri Chinchwad - MPCB",27-01-2026 08:00:00,18.63673,73.82487,NO2,14,58,34
India,Maharashtra,Pimpri-Chinchwad,"Park Street Wakad, Pimpri Chinchwad - MPCB",27-01-2026 08:00:00,18.59051,73.77946,PM2.5,34,132,67
India,Maharashtra,Pimpri-Chinchwad,"Park Street Wakad, Pimpri Chinchwad - MPCB",27-01-2026 08:00:00,18.59051,73.77946,NO2,30,69,50
India,Maharashtra,Pimpri-Chinchwad,"Park Street Wakad, Pimpri Chinchwad - MPCB",27-01-2026 08:00:00,18.59051,73.77946,NH3,3,6,4
India,Maharashtra,Pimpri-Chinchwad,"Savta Mali Nagar, Pimpri-Chinchwad - IITM",27-01-2026 08:00:00,18.614767,73.799516,NO2,19,105,46
India,Maharashtra,Pimpri-Chinchwad,"Savta Mali Nagar, Pimpri-Chinchwad - IITM",27-01-2026 08:00:00,18.614767,73.799516,CO,26,109,59
India,Maharashtra,Pimpri-Chinchwad,"Thergaon, Pimpri Chinchwad - MPCB",27-01-2026 08:00:00,18.616318,73.765797,PM10,75,136,98
India,Maharashtra,Pimpri-Chinchwad,"Thergaon, Pimpri Chinchwad - MPCB",27-01-2026 08:00:00,18.616318,73.765797,OZONE,1,50,3
India,Maharashtra,Mumbai,"Navy Nagar-Colaba, Mumbai - IITM",27-01-2026 08:00:00,18.897756,72.813320,OZONE,10,81,69
India,Maharashtra,Mumbai,"Powai, Mumbai - MPCB",27-01-2026 08:00:00,19.137500,72.915056,PM2.5,56,98,75
India,Maharashtra,Mumbai,"Shivaji Nagar, Mumbai - BMC",27-01-2026 08:00:00,19.060498,72.923356,SO2,3,37,16
India,Maharashtra,Mumbai,"Shivaji Nagar, Mumbai - BMC",27-01-2026 08:00:00,19.060498,72.923356,OZONE,16,59,34
India,Maharashtra,Mumbai,"Sion, Mumbai - MPCB",27-01-2026 08:00:00,19.047000,72.874600,PM10,43,295,121
India,Maharashtra,Mumbai,"Sion, Mumbai - MPCB",27-01-2026 08:00:00,19.047000,72.874600,NH3,6,7,6
India,Maharashtra,Mumbai,"Vile Parle West, Mumbai - MPCB",27-01-2026 08:00:00,19.10861,72.83622,NO2,11,11,11
India,Maharashtra,Mumbai,"Vile Parle West, Mumbai - MPCB",27-01-2026 08:00:00,19.10861,72.83622,SO2,48,51,49
India,Maharashtra,Nagpur,"Ambazari, Nagpur - MPCB",27-01-2026 08:00:00,21.121801,79.04952,CO,6,100,50
India,Maharashtra,Pune,"Katraj Dairy, Pune - MPCB",27-01-2026 08:00:00,18.454450,73.854155,PM2.5,42,122,66
India,Maharashtra,Pune,"Katraj Dairy, Pune - MPCB",27-01-2026 08:00:00,18.454450,73.854155,NH3,NA,NA,NA
India,Maharashtra,Pune,"Mhada Colony, Pune - IITM",27-01-2026 08:00:00,18.573040,73.927715,OZONE,16,110,18
India,Maharashtra,Pune,"Revenue Colony-Shivajinagar, Pune - IITM",27-01-2026 08:00:00,18.530085,73.849598,NO2,22,105,62
India,Maharashtra,Pune,"Revenue Colony-Shivajinagar, Pune - IITM",27-01-2026 08:00:00,18.530085,73.849598,SO2,1,22,9
India,Maharashtra,Pune,"Savitribai Phule Pune University, Pune - MPCB",27-01-2026 08:00:00,18.547056,73.826908,NO2,NA,NA,NA
India,Maharashtra,Pune,"Savitribai Phule Pune University, Pune - MPCB",27-01-2026 08:00:00,18.547056,73.826908,CO,NA,NA,NA
India,Maharashtra,Pune,"Transport Nagar-Nigdi, Pune - IITM",27-01-2026 08:00:00,18.664282,73.763966,PM2.5,42,166,76
India,Maharashtra,Pune,"Transport Nagar-Nigdi, Pune - IITM",27-01-2026 08:00:00,18.664282,73.763966,NO2,25,110,46
India,Meghalaya,Shillong,"Lumpyngngad, Shillong - Meghalaya PCB",27-01-2026 08:00:00,25.5586,91.8985,NO2,NA,NA,NA
India,Nagaland,Kohima,"PWD Junction, Kohima - NPCB",27-01-2026 08:00:00,25.6635413,94.0989878,PM10,12,82,33
India,Nagaland,Kohima,"PWD Junction, Kohima - NPCB",27-01-2026 08:00:00,25.6635413,94.0989878,NH3,1,1,1
India,Odisha,Angul,"Hakimapada, Angul - OSPCB",27-01-2026 08:00:00,20.832874,85.104082,NH3,10,16,13
India,Odisha,Angul,"Hakimapada, Angul - OSPCB",27-01-2026 08:00:00,20.832874,85.104082,OZONE,18,321,30
India,Odisha,Balasore,"Kalidaspur, Balasore - OSPCB",27-01-2026 08:00:00,21.51161,86.89088,PM2.5,85,320,168
India,Odisha,Balasore,"Kalidaspur, Balasore - OSPCB",27-01-2026 08:00:00,21.51161,86.89088,NH3,1,7,3
India,Odisha,Balasore,"Kalidaspur, Balasore - OSPCB",27-01-2026 08:00:00,21.51161,86.89088,SO2,11,50,25
India,Odisha,Baripada,"Meher Colony, Baripada - OSPCB",27-01-2026 08:00:00,21.941841,86.728318,PM2.5,NA,NA,NA
India,Odisha,Baripada,"Meher Colony, Baripada - OSPCB",27-01-2026 08:00:00,21.941841,86.728318,NH3,NA,NA,NA
India,Odisha,Bhubaneswar,"Lingraj Mandir, Bhubaneswar - OSPCB",27-01-2026 08:00:00,20.240790,85.836784,PM2.5,90,300,170
India,Odisha,Bhubaneswar,"Lingraj Mandir, Bhubaneswar - OSPCB",27-01-2026 08:00:00,20.240790,85.836784,NO2,NA,NA,NA
India,Odisha,Bhubaneswar,"Lingraj Mandir, Bhubaneswar - OSPCB",27-01-2026 08:00:00,20.240790,85.836784,NH3,10,24,15
India,Odisha,Bhubaneswar,"Lingraj Mandir, Bhubaneswar - OSPCB",27-01-2026 08:00:00,20.240790,85.836784,CO,67,117,84
India,Odisha,Bhubaneswar,"Patia, Bhubaneswar - OSPCB",27-01-2026 08:00:00,20.34652,85.81630,SO2,4,54,17
India,Odisha,Brajrajnagar,"GM Office, Brajrajnagar - OSPCB",27-01-2026 08:00:00,21.8004996,83.8396977,NO2,14,14,14
India,Odisha,Brajrajnagar,"GM Office, Brajrajnagar - OSPCB",27-01-2026 08:00:00,21.8004996,83.8396977,NH3,10,10,10
India,Maharashtra,Nashik,"Pandav Nagari, Nashik - MPCB",27-01-2026 08:00:00,19.9591346,73.7788008,CO,18,74,53
India,Maharashtra,Navi Mumbai,"Kopripada-Vashi, Navi Mumbai - MPCB",27-01-2026 08:00:00,19.090337,73.014232,NO2,18,52,33
India,Maharashtra,Navi Mumbai,"Kopripada-Vashi, Navi Mumbai - MPCB",27-01-2026 08:00:00,19.090337,73.014232,NH3,4,5,5
India,Maharashtra,Navi Mumbai,"Mahape, Navi Mumbai - MPCB",27-01-2026 08:00:00,19.1135051,73.008978,CO,20,20,20
India,Maharashtra,Navi Mumbai,"Nerul, Navi Mumbai - MPCB",27-01-2026 08:00:00,19.008751,73.016620,PM10,NA,NA,NA
India,Maharashtra,Navi Mumbai,"Nerul, Navi Mumbai - MPCB",27-01-2026 08:00:00,19.008751,73.016620,NH3,5,5,5
India,Maharashtra,Navi Mumbai,"Sector-2E Kalamboli, Navi Mumbai - MPCB",27-01-2026 08:00:00,19.02579,73.10297,PM2.5,43,82,61
India,Maharashtra,Sangli,"Vijay Nagar, Sangli - MPCB",27-01-2026 08:00:00, 16.5038,74.3623,NO2,13,87,29
India,Maharashtra,Sangli,"Vijay Nagar, Sangli - MPCB",27-01-2026 08:00:00, 16.5038,74.3623,OZONE,6,58,20
India,Maharashtra,Solapur,"Ratandeep Housing Society, Solapur - MPCB",27-01-2026 08:00:00,17.65439,75.90649,NO2,10,106,35
India,Maharashtra,Solapur,"Ratandeep Housing Society, Solapur - MPCB",27-01-2026 08:00:00,17.65439,75.90649,CO,14,86,25
India,Maharashtra,Thane,"Kasarvadavali, Thane - MPCB",27-01-2026 08:00:00,19.26777,72.97182,CO,12,62,29
India,Maharashtra,Ulhasnagar,"Sidhi Vinayak Nagar, Ulhasnagar - MPCB",27-01-2026 08:00:00,19.235581,73.159121,PM2.5,87,295,157
India,Maharashtra,Nagpur,"Mahal, Nagpur - MPCB",27-01-2026 08:00:00,21.14472,79.107595,NH3,6,7,7
India,Maharashtra,Nagpur,"Mahal, Nagpur - MPCB",27-01-2026 08:00:00,21.14472,79.107595,SO2,2,93,50
India,Maharashtra,Nagpur,"Mahal, Nagpur - MPCB",27-01-2026 08:00:00,21.14472,79.107595,CO,28,120,64
India,Maharashtra,Nagpur,"Opp GPO Civil Lines, Nagpur - MPCB",27-01-2026 08:00:00,21.152875,79.0517531,SO2,6,44,18
India,Maharashtra,Nagpur,"Ram Nagar, Nagpur - MPCB",27-01-2026 08:00:00,21.143383,79.048912,PM10,96,155,131
India,Maharashtra,Nashik,"Gangapur Road, Nashik - MPCB",27-01-2026 08:00:00,20.0073285,73.7762427,NO2,5,5,5
India,Maharashtra,Nashik,"MIDC Ambad, Nashik - MPCB",27-01-2026 08:00:00,19.950220,73.731480,NH3,2,3,3
India,Odisha,Suakati,"OMC Colony, Suakati - OSPCB",27-01-2026 08:00:00,21.606865,85.510538,NO2,8,8,8
India,Odisha,Suakati,"OMC Colony, Suakati - OSPCB",27-01-2026 08:00:00,21.606865,85.510538,SO2,6,94,24
India,Odisha,Tensa,"Barsua Iron Ore Mines, Tensa - OSPCB",27-01-2026 08:00:00,21.869985,85.167016,NO2,NA,NA,NA
India,Puducherry,Puducherry,"Jawahar Nagar, Puducherry - PPCC",27-01-2026 08:00:00,11.9309,79.8027,PM10,17,58,38
India,Puducherry,Puducherry,"Jawahar Nagar, Puducherry - PPCC",27-01-2026 08:00:00,11.9309,79.8027,NO2,12,32,20
India,Puducherry,Puducherry,"Jawahar Nagar, Puducherry - PPCC",27-01-2026 08:00:00,11.9309,79.8027,SO2,3,13,8
India,Punjab,Amritsar,"Golden Temple, Amritsar - PPCB",27-01-2026 08:00:00,31.620000,74.876512,PM2.5,41,270,121
India,Punjab,Amritsar,"Golden Temple, Amritsar - PPCB",27-01-2026 08:00:00,31.620000,74.876512,PM10,54,196,124
India,Punjab,Amritsar,"Golden Temple, Amritsar - PPCB",27-01-2026 08:00:00,31.620000,74.876512,CO,26,68,37
India,Punjab,Amritsar,"Golden Temple, Amritsar - PPCB",27-01-2026 08:00:00,31.620000,74.876512,OZONE,33,44,39
India,Punjab,Bathinda,"Hardev Nagar, Bathinda - PPCB",27-01-2026 08:00:00,30.233011,74.907758,PM10,33,82,51
India,Punjab,Jalandhar,"Civil Line, Jalandhar - PPCB",27-01-2026 08:00:00,31.321907,75.578914,PM2.5,67,177,93
India,Odisha,Byasanagar,"Ferro Chrome Colony, Byasanagar - OSPCB",27-01-2026 08:00:00,20.94185,86.11510,SO2,3,9,6
India,Odisha,Byasanagar,"Ferro Chrome Colony, Byasanagar - OSPCB",27-01-2026 08:00:00,20.94185,86.11510,CO,28,94,61
India,Odisha,Cuttack,"CDA Area, Cuttack - OSPCB",27-01-2026 08:00:00,20.48891     ,85.84768     ,NH3,3,6,5
India,Odisha,Keonjhar,"Jagamohanpur, Keonjhar - OSPCB",27-01-2026 08:00:00,21.643900,85.599355,PM10,89,157,124
India,Odisha,Keonjhar,"Jagamohanpur, Keonjhar - OSPCB",27-01-2026 08:00:00,21.643900,85.599355,NH3,5,5,5
India,Odisha,Rairangpur,"Divisional Forest Office, Rairangpur - OSPCB",27-01-2026 08:00:00,22.265816,86.174829,NO2,11,11,11
India,Odisha,Rourkela,"Fertilizer Township, Rourkela - OSPCB",27-01-2026 08:00:00,22.18972222,84.86277778,PM2.5,96,152,111
India,Odisha,Rourkela,"Raghunathpali, Rourkela - OSPCB",27-01-2026 08:00:00,22.220833,84.809444,NO2,15,15,15
India,Rajasthan,Jaipur,"Mansarovar Sector-12, Jaipur - RSPCB",27-01-2026 08:00:00,26.843698,75.766894,CO,53,86,59
India,Rajasthan,Jaipur,"Mansarovar Sector-12, Jaipur - RSPCB",27-01-2026 08:00:00,26.843698,75.766894,OZONE,95,244,167
India,Rajasthan,Jaipur,"RIICO Sitapura, Jaipur - RSPCB",27-01-2026 08:00:00,26.786682,75.827928,NO2,18,47,28
India,Rajasthan,Jaipur,"Sector-2 Murlipura, Jaipur - RSPCB",27-01-2026 08:00:00,26.960669,75.771817,NO2,6,95,26
India,Rajasthan,Jaipur,"Sector-2 Murlipura, Jaipur - RSPCB",27-01-2026 08:00:00,26.960669,75.771817,CO,36,98,50
India,Rajasthan,Jaipur,"Shastri Nagar, Jaipur - RSPCB",27-01-2026 08:00:00,26.9502929,75.730943,OZONE,20,57,54
India,Rajasthan,Jaisalmer,"Sadar Bazar, Jaisalmer - RSPCB",27-01-2026 08:00:00,26.912329,70.909168,PM10,61,109,85
India,Rajasthan,Jaisalmer,"Sadar Bazar, Jaisalmer - RSPCB",27-01-2026 08:00:00,26.912329,70.909168,NO2,13,43,22
India,Rajasthan,Jaisalmer,"Sadar Bazar, Jaisalmer - RSPCB",27-01-2026 08:00:00,26.912329,70.909168,CO,22,38,28
India,Punjab,Khanna,"Kalal Majra, Khanna - PPCB",27-01-2026 08:00:00,30.736056 ,76.209694,PM2.5,50,87,65
India,Punjab,Khanna,"Kalal Majra, Khanna - PPCB",27-01-2026 08:00:00,30.736056 ,76.209694,NH3,7,8,7
India,Punjab,Khanna,"Kalal Majra, Khanna - PPCB",27-01-2026 08:00:00,30.736056 ,76.209694,OZONE,19,41,20
India,Punjab,Mandi Gobindgarh,"RIMT University, Mandi Gobindgarh - PPCB",27-01-2026 08:00:00,30.649961,76.331442,NO2,NA,NA,NA
India,Punjab,Mandi Gobindgarh,"RIMT University, Mandi Gobindgarh - PPCB",27-01-2026 08:00:00,30.649961,76.331442,OZONE,NA,NA,NA
India,Punjab,Patiala,"Model Town, Patiala - PPCB",27-01-2026 08:00:00,30.349388,76.366642,PM2.5,45,60,54
India,Punjab,Rupnagar,"Ratanpura, Rupnagar - Ambuja Cements",27-01-2026 08:00:00,31.0325454,76.5623046,NO2,4,5,5
India,Punjab,Rupnagar,"Ratanpura, Rupnagar - Ambuja Cements",27-01-2026 08:00:00,31.0325454,76.5623046,CO,36,54,50
India,Rajasthan,Bikaner,"MM Ground, Bikaner - RSPCB",27-01-2026 08:00:00,28.018792,73.292658,CO,24,84,27
India,Rajasthan,Bundi,"New Colony, Bundi - RSPCB",27-01-2026 08:00:00,25.435774,75.644272,NH3,3,5,4
India,Rajasthan,Bundi,"New Colony, Bundi - RSPCB",27-01-2026 08:00:00,25.435774,75.644272,OZONE,17,96,28
India,Rajasthan,Chittorgarh,"Shastri Nagar, Chittorgarh - RSPCB",27-01-2026 08:00:00,24.892047,74.623527,PM2.5,NA,NA,NA
India,Rajasthan,Chittorgarh,"Shastri Nagar, Chittorgarh - RSPCB",27-01-2026 08:00:00,24.892047,74.623527,PM10,114,294,173
India,Rajasthan,Churu,"Subash Chowk, Churu - RSPCB",27-01-2026 08:00:00,28.296139,74.961696,NH3,1,4,2
India,Rajasthan,Dholpur,"Raja Ganj, Dholpur - RSPCB",27-01-2026 08:00:00,26.699557,77.898881,OZONE,21,67,25
India,Rajasthan,Hanumangarh,"Housing Board, Hanumangarh - RSPCB",27-01-2026 08:00:00,29.610750,74.283608,OZONE,6,79,21
India,Rajasthan,Jaipur,"Adarsh Nagar, Jaipur - RSPCB",27-01-2026 08:00:00,26.902909,75.836858,PM2.5,65,178,123
India,Rajasthan,Jaipur,"Adarsh Nagar, Jaipur - RSPCB",27-01-2026 08:00:00,26.902909,75.836858,NH3,10,13,11
India,Rajasthan,Jaipur,"Mansarovar Sector-12, Jaipur - RSPCB",27-01-2026 08:00:00,26.843698,75.766894,PM2.5,NA,NA,NA
India,Rajasthan,Banswara,"Rati Talai, Banswara - RSPCB",27-01-2026 08:00:00,23.555190,74.440010,OZONE,1,127,48
India,Rajasthan,Baran,"Bamboliya, Baran - RSPCB",27-01-2026 08:00:00,25.106006,76.469948,NO2,17,32,22
India,Rajasthan,Bhilwara,"Pratap Nagar, Bhilwara - RSPCB",27-01-2026 08:00:00,25.339605,74.618883,PM2.5,80,230,145
India,Rajasthan,Bhilwara,"Pratap Nagar, Bhilwara - RSPCB",27-01-2026 08:00:00,25.339605,74.618883,NO2,14,43,23
India,Rajasthan,Jhunjhunu,"Indra Nagar, Jhunjhunu - RSPCB",27-01-2026 08:00:00,28.108988,75.386577,PM2.5,41,207,124
India,Rajasthan,Jhunjhunu,"Indra Nagar, Jhunjhunu - RSPCB",27-01-2026 08:00:00,28.108988,75.386577,CO,25,64,44
India,Rajasthan,Jhunjhunu,"Indra Nagar, Jhunjhunu - RSPCB",27-01-2026 08:00:00,28.108988,75.386577,OZONE,18,119,29
India,Rajasthan,Jodhpur,"Collectorate, Jodhpur - RSPCB",27-01-2026 08:00:00,26.268249,73.0193853,PM2.5,39,68,52
India,Rajasthan,Bhiwadi,"Vasundhara Nagar_UIT, Bhiwadi - RSPCB",27-01-2026 08:00:00,28.207266,76.829265,PM2.5,139,500,309
India,Rajasthan,Bhiwadi,"Vasundhara Nagar_UIT, Bhiwadi - RSPCB",27-01-2026 08:00:00,28.207266,76.829265,NH3,5,6,6
India,Rajasthan,Bhiwadi,"Vasundhara Nagar_UIT, Bhiwadi - RSPCB",27-01-2026 08:00:00,28.207266,76.829265,SO2,8,114,33
India,Rajasthan,Bikaner,"MM Ground, Bikaner - RSPCB",27-01-2026 08:00:00,28.018792,73.292658,NH3,2,7,5
India,Rajasthan,Sri Ganganagar,"Old City, Sri Ganganagar - RSPCB",27-01-2026 08:00:00,29.931624,73.864511,PM2.5,53,333,106
India,Rajasthan,Sri Ganganagar,"Old City, Sri Ganganagar - RSPCB",27-01-2026 08:00:00,29.931624,73.864511,NO2,13,35,21
India,Rajasthan,Sri Ganganagar,"Old City, Sri Ganganagar - RSPCB",27-01-2026 08:00:00,29.931624,73.864511,OZONE,1,75,4
India,Rajasthan,Tonk,"Shastri Nagar, Tonk - RSPCB",27-01-2026 08:00:00,26.159933,75.780517,NH3,6,9,7
India,Rajasthan,Tonk,"Shastri Nagar, Tonk - RSPCB",27-01-2026 08:00:00,26.159933,75.780517,CO,28,52,33
India,Rajasthan,Udaipur,"Ashok Nagar, Udaipur - RSPCB",27-01-2026 08:00:00,24.5886166,73.6321397,PM2.5,128,310,212
India,Rajasthan,Udaipur,"Ashok Nagar, Udaipur - RSPCB",27-01-2026 08:00:00,24.5886166,73.6321397,SO2,1,17,8
India,Rajasthan,Udaipur,"Ashok Nagar, Udaipur - RSPCB",27-01-2026 08:00:00,24.5886166,73.6321397,OZONE,5,71,10
India,Sikkim,Gangtok,"Zero Point GICI, Gangtok - SSPCB",27-01-2026 08:00:00,27.338530,88.614099,CO,8,50,16
India,TamilNadu,Chennai,"Arumbakkam, Chennai - TNPCB",27-01-2026 08:00:00,13.0664,80.2112 ,PM2.5,22,164,59
India,TamilNadu,Chennai,"Arumbakkam, Chennai - TNPCB",27-01-2026 08:00:00,13.0664,80.2112 ,PM10,51,139,89
India,TamilNadu,Chennai,"Kodungaiyur, Chennai - TNPCB",27-01-2026 08:00:00,13.1278,80.2642,CO,44,60,55
India,TamilNadu,Gummidipoondi,"Anthoni Pillai Nagar, Gummidipoondi - TNPCB",27-01-2026 08:00:00,13.4127,80.1081,PM2.5,33,430,117
India,TamilNadu,Perundurai,"SIPCOT Industrial Park, Perundurai - TNPCB",27-01-2026 08:00:00,11.258242,77.552761,NO2,12,14,13
India,TamilNadu,Perundurai,"SIPCOT Industrial Park, Perundurai - TNPCB",27-01-2026 08:00:00,11.258242,77.552761,CO,26,29,29
India,TamilNadu,Pudukottai,"SIPCOT Nathampannai, Pudukottai - TNPCB",27-01-2026 08:00:00,10.423417,78.784889,PM2.5,35,64,50
India,TamilNadu,Pudukottai,"SIPCOT Nathampannai, Pudukottai - TNPCB",27-01-2026 08:00:00,10.423417,78.784889,PM10,40,78,60
India,TamilNadu,Thanjavur,"Parisutham Nagar, Thanjavur - TNPCB",27-01-2026 08:00:00,10.7654824,79.1389968,PM2.5,21,58,40
India,TamilNadu,Thoothukudi,"Meelavittan, Thoothukudi - TNPCB",27-01-2026 08:00:00,8.816428 ,78.099039,NO2,7,20,13
India,TamilNadu,Thoothukudi,"Meelavittan, Thoothukudi - TNPCB",27-01-2026 08:00:00,8.816428 ,78.099039,SO2,4,18,11
India,Telangana,Hyderabad,"Bollaram Industrial Area, Hyderabad - TSPCB",27-01-2026 08:00:00,17.540891,78.358528,PM2.5,73,168,102
India,Telangana,Hyderabad,"Bollaram Industrial Area, Hyderabad - TSPCB",27-01-2026 08:00:00,17.540891,78.358528,PM10,77,133,103
India,Telangana,Hyderabad,"Kokapet, Hyderabad - TSPCB",27-01-2026 08:00:00,17.393559,78.339194,NH3,2,3,3
India,Telangana,Hyderabad,"Kompally Municipal Office, Hyderabad - TSPCB",27-01-2026 08:00:00,17.544899,78.486949,PM10,64,76,69
India,Telangana,Hyderabad,"New Malakpet, Hyderabad - TSPCB",27-01-2026 08:00:00,17.37206,78.50864,PM2.5,46,76,60
India,Telangana,Hyderabad,"New Malakpet, Hyderabad - TSPCB",27-01-2026 08:00:00,17.37206,78.50864,PM10,80,99,87
India,Telangana,Hyderabad,"Ramachandrapuram, Hyderabad - TSPCB",27-01-2026 08:00:00,17.528544,78.286195,PM2.5,40,42,41
India,Telangana,Hyderabad,"Ramachandrapuram, Hyderabad - TSPCB",27-01-2026 08:00:00,17.528544,78.286195,NO2,12,13,13
India,Telangana,Hyderabad,"Sanathnagar, Hyderabad - TSPCB",27-01-2026 08:00:00,17.4559458,78.4332152,PM2.5,45,84,63
India,Telangana,Hyderabad,"Somajiguda, Hyderabad - TSPCB",27-01-2026 08:00:00,17.417094,78.457437,PM2.5,66,75,69
India,Telangana,Hyderabad,"Somajiguda, Hyderabad - TSPCB",27-01-2026 08:00:00,17.417094,78.457437,CO,12,28,16
India,Telangana,Hyderabad,"Central University, Hyderabad - TSPCB",27-01-2026 08:00:00,17.460103,78.334361,CO,20,38,24
India,Telangana,Hyderabad,"Central University, Hyderabad - TSPCB",27-01-2026 08:00:00,17.460103,78.334361,OZONE,6,15,14
India,Telangana,Hyderabad,"ECIL Kapra, Hyderabad - TSPCB",27-01-2026 08:00:00,17.470431,78.566959,PM2.5,15,43,40
India,Telangana,Hyderabad,"ECIL Kapra, Hyderabad - TSPCB",27-01-2026 08:00:00,17.470431,78.566959,CO,14,24,22
India,Telangana,Hyderabad,"ICRISAT Patancheru, Hyderabad - TSPCB",27-01-2026 08:00:00,17.518400,78.278777,NO2,8,14,11
India,Telangana,Hyderabad,"IDA Pashamylaram, Hyderabad - TSPCB",27-01-2026 08:00:00,17.5316895,78.218939,PM2.5,38,76,55
India,Telangana,Hyderabad,"IDA Pashamylaram, Hyderabad - TSPCB",27-01-2026 08:00:00,17.5316895,78.218939,NO2,6,7,7
India,Telangana,Hyderabad,"IITH Kandi, Hyderabad - TSPCB",27-01-2026 08:00:00,17.585705,78.126199,NH3,5,5,5
India,Telangana,Hyderabad,"Kokapet, Hyderabad - TSPCB",27-01-2026 08:00:00,17.393559,78.339194,PM2.5,48,77,67
India,Rajasthan,Jodhpur,"Samrat Ashok Udhyan, Jodhpur - RSPCB",27-01-2026 08:00:00,26.253384,72.976571,NO2,23,55,35
India,Rajasthan,Jodhpur,"Samrat Ashok Udhyan, Jodhpur - RSPCB",27-01-2026 08:00:00,26.253384,72.976571,SO2,2,15,8
India,Rajasthan,Jodhpur,"Samrat Ashok Udhyan, Jodhpur - RSPCB",27-01-2026 08:00:00,26.253384,72.976571,OZONE,21,168,42
India,Rajasthan,Karauli,"Satyawati Vihar, Karauli - RSPCB",27-01-2026 08:00:00,26.506177,77.025989,CO,38,58,48
India,Rajasthan,Karauli,"Satyawati Vihar, Karauli - RSPCB",27-01-2026 08:00:00,26.506177,77.025989,OZONE,21,78,50
India,Rajasthan,Kota,"Nayapura, Kota - RSPCB",27-01-2026 08:00:00,25.196024,75.855668,CO,31,64,35
India,Rajasthan,Kota,"Shrinath Puram, Kota - RSPCB",27-01-2026 08:00:00,25.14389,75.821256,SO2,1,31,11
India,Rajasthan,Kota,"Shrinath Puram, Kota - RSPCB",27-01-2026 08:00:00,25.14389,75.821256,CO,14,117,56
India,Telangana,Hyderabad,"Zoo Park, Hyderabad - TSPCB",27-01-2026 08:00:00,17.349694,78.451437,CO,3,77,35
India,Telangana,Hyderabad,"Zoo Park, Hyderabad - TSPCB",27-01-2026 08:00:00,17.349694,78.451437,OZONE,21,26,24
India,Uttar_Pradesh,Agra,"Manoharpur, Agra - UPPCB",27-01-2026 08:00:00,27.23711,78.01936,PM2.5,52,287,109
India,Uttar_Pradesh,Agra,"Manoharpur, Agra - UPPCB",27-01-2026 08:00:00,27.23711,78.01936,PM10,67,199,115
India,Uttar_Pradesh,Agra,"Rohta, Agra - UPPCB",27-01-2026 08:00:00,27.106972,78.000111,SO2,9,21,14
India,Uttar_Pradesh,Agra,"Shahjahan Garden, Agra - UPPCB",27-01-2026 08:00:00,27.169338,78.03582,PM2.5,18,165,62
India,Uttar_Pradesh,Agra,"Shahjahan Garden, Agra - UPPCB",27-01-2026 08:00:00,27.169338,78.03582,SO2,18,27,24
India,TamilNadu,Chennai,"Manali, Chennai - CPCB",27-01-2026 08:00:00,13.164544,80.26285,PM10,35,89,51
India,TamilNadu,Chennai,"Royapuram, Chennai - TNPCB",27-01-2026 08:00:00,13.1036,80.2909,PM10,NA,NA,NA
India,TamilNadu,Chennai,"Royapuram, Chennai - TNPCB",27-01-2026 08:00:00,13.1036,80.2909,SO2,NA,NA,NA
India,TamilNadu,Chennai,"Velachery Res. Area, Chennai - CPCB",27-01-2026 08:00:00,13.0052189,80.2398125,SO2,5,7,6
India,TamilNadu,Coimbatore,"SIDCO Kurichi, Coimbatore - TNPCB",27-01-2026 08:00:00,10.942451,76.978996,PM10,11,42,27
India,TamilNadu,Coimbatore,"SIDCO Kurichi, Coimbatore - TNPCB",27-01-2026 08:00:00,10.942451,76.978996,NO2,1,21,3
India,Rajasthan,Sawai Madhopur,"Sahu Nagar, Sawai Madhopur - RSPCB",27-01-2026 08:00:00,26.031443,76.359327,CO,24,52,33
India,Rajasthan,Sikar,"Radhakishan Pura, Sikar - RSPCB",27-01-2026 08:00:00,27.608912,75.153302,CO,24,74,27
India,Rajasthan,Nagaur,"Karni Colony, Nagaur - RSPCB",27-01-2026 08:00:00,27.213494,73.734444,NO2,15,90,25
India,Uttar_Pradesh,Firozabad,"Vibhab Nagar, Firozabad - UPPCB",27-01-2026 08:00:00,27.1594,78.3953,CO,15,20,16
India,Uttar_Pradesh,Ghaziabad,"Indirapuram, Ghaziabad - UPPCB",27-01-2026 08:00:00,28.646233,77.358075,SO2,7,21,13
India,Uttar_Pradesh,Ghaziabad,"Indirapuram, Ghaziabad - UPPCB",27-01-2026 08:00:00,28.646233,77.358075,OZONE,9,36,9
India,Uttar_Pradesh,Ghaziabad,"Loni, Ghaziabad - UPPCB",27-01-2026 08:00:00,28.757294,77.278792,PM10,162,500,302
India,Uttar_Pradesh,Ghaziabad,"Loni, Ghaziabad - UPPCB",27-01-2026 08:00:00,28.757294,77.278792,SO2,11,31,19
India,Uttar_Pradesh,Ghaziabad,"Sanjay Nagar, Ghaziabad - UPPCB",27-01-2026 08:00:00,28.685382,77.453839,CO,6,69,14
India,Uttar_Pradesh,Ghaziabad,"Vasundhara, Ghaziabad - UPPCB",27-01-2026 08:00:00,28.6603346,77.3572563,NH3,8,16,11
India,Uttar_Pradesh,Ghaziabad,"Vasundhara, Ghaziabad - UPPCB",27-01-2026 08:00:00,28.6603346,77.3572563,SO2,19,46,29
India,Uttar_Pradesh,Ghaziabad,"Vasundhara, Ghaziabad - UPPCB",27-01-2026 08:00:00,28.6603346,77.3572563,CO,4,171,98
India,Uttar_Pradesh,Gorakhpur,"Madan Mohan Malaviya University of Technology, Gorakhpur - UPPCB",27-01-2026 08:00:00,26.730136,83.433859,NO2,11,12,11
India,Uttar_Pradesh,Greater Noida,"Knowledge Park - III, Greater Noida - UPPCB",27-01-2026 08:00:00,28.47272,77.482000,NO2,17,92,52
India,Uttar_Pradesh,Baghpat,"Sardar Patel Inter College, Baghpat - UPPCB",27-01-2026 08:00:00,28.964949,77.278761,NO2,10,20,13
India,Uttar_Pradesh,Baghpat,"Sardar Patel Inter College, Baghpat - UPPCB",27-01-2026 08:00:00,28.964949,77.278761,SO2,7,28,15
India,Uttar_Pradesh,Bareilly,"Civil Lines, Bareilly - UPPCB",27-01-2026 08:00:00,28.359581,79.414455,PM2.5,3,72,33
India,Uttar_Pradesh,Bareilly,"Civil Lines, Bareilly - UPPCB",27-01-2026 08:00:00,28.359581,79.414455,SO2,32,44,38
India,Uttar_Pradesh,Bareilly,"Rajendra Nagar, Bareilly - UPPCB",27-01-2026 08:00:00,28.38910936,79.42963708,NH3,1,1,1
India,Uttar_Pradesh,Bulandshahr,"Yamunapuram, Bulandshahr - UPPCB",27-01-2026 08:00:00,28.406963,77.849831,CO,26,123,57
India,Uttar_Pradesh,Firozabad,"Nagla Bhau, Firozabad - UPPCB",27-01-2026 08:00:00,27.168897,78.376960,NO2,17,17,17
India,Uttar_Pradesh,Firozabad,"Nagla Bhau, Firozabad - UPPCB",27-01-2026 08:00:00,27.168897,78.376960,NH3,2,2,2
India,Uttar_Pradesh,Firozabad,"Nagla Bhau, Firozabad - UPPCB",27-01-2026 08:00:00,27.168897,78.376960,SO2,7,48,17
India,Uttar_Pradesh,Firozabad,"Vibhab Nagar, Firozabad - UPPCB",27-01-2026 08:00:00,27.1594,78.3953,PM10,34,103,58
India,Uttar_Pradesh,Noida,"Sector - 62, Noida - IMD",27-01-2026 08:00:00,28.6245479,77.3577104,CO,30,111,99
India,Uttar_Pradesh,Noida,"Sector-1, Noida - UPPCB",27-01-2026 08:00:00,28.5898,77.3101,NH3,10,16,12
India,Uttar_Pradesh,Noida,"Sector-116, Noida - UPPCB",27-01-2026 08:00:00,28.569230,77.393848,NO2,34,132,92
India,Uttar_Pradesh,Prayagraj,"Jhunsi, Prayagraj - UPPCB",27-01-2026 08:00:00,25.425602,81.917152,PM2.5,34,235,117
India,Uttar_Pradesh,Prayagraj,"Motilal Nehru NIT, Prayagraj - UPPCB",27-01-2026 08:00:00,25.494,81.863,NO2,12,12,12
India,Uttar_Pradesh,Prayagraj,"Motilal Nehru NIT, Prayagraj - UPPCB",27-01-2026 08:00:00,25.494,81.863,NH3,6,8,8
India,Uttar_Pradesh,Prayagraj,"Motilal Nehru NIT, Prayagraj - UPPCB",27-01-2026 08:00:00,25.494,81.863,SO2,57,82,67
India,Uttar_Pradesh,Prayagraj,"Motilal Nehru NIT, Prayagraj - UPPCB",27-01-2026 08:00:00,25.494,81.863,CO,17,76,49
India,Uttar_Pradesh,Prayagraj,"Nagar Nigam, Prayagraj - UPPCB",27-01-2026 08:00:00,25.44919916 ,81.82735986 ,NO2,5,5,5
India,Uttar_Pradesh,Prayagraj,"Nagar Nigam, Prayagraj - UPPCB",27-01-2026 08:00:00,25.44919916 ,81.82735986 ,NH3,9,20,13
India,Uttar_Pradesh,Prayagraj,"Nagar Nigam, Prayagraj - UPPCB",27-01-2026 08:00:00,25.44919916 ,81.82735986 ,CO,26,108,63
India,Uttar_Pradesh,Lucknow,"Talkatora District Industries Center, Lucknow - CPCB",27-01-2026 08:00:00,26.83399722,80.8917361,CO,17,56,36
India,Uttar_Pradesh,Meerut,"Ganga Nagar, Meerut - UPPCB",27-01-2026 08:00:00,28.999264,77.7590354,PM2.5,87,308,179
India,Uttar_Pradesh,Meerut,"Ganga Nagar, Meerut - UPPCB",27-01-2026 08:00:00,28.999264,77.7590354,PM10,115,254,167
India,Uttar_Pradesh,Meerut,"Ganga Nagar, Meerut - UPPCB",27-01-2026 08:00:00,28.999264,77.7590354,NO2,36,102,58
India,Uttar_Pradesh,Meerut,"Ganga Nagar, Meerut - UPPCB",27-01-2026 08:00:00,28.999264,77.7590354,NH3,13,17,15
India,Uttar_Pradesh,Meerut,"Jai Bhim Nagar, Meerut - UPPCB",27-01-2026 08:00:00,28.9535882,77.7622941,OZONE,1,132,4
India,Uttar_Pradesh,Moradabad,"Buddhi Vihar, Moradabad - UPPCB",27-01-2026 08:00:00,28.83526,78.74460,NO2,NA,NA,NA
India,Uttar_Pradesh,Moradabad,"Buddhi Vihar, Moradabad - UPPCB",27-01-2026 08:00:00,28.83526,78.74460,CO,NA,NA,NA
India,Uttar_Pradesh,Moradabad,"Eco Herbal Park, Moradabad - UPPCB",27-01-2026 08:00:00,28.840739,78.697531,PM10,86,161,128
India,Uttarakhand,Kashipur,"Govt. Girls Inter College, Kashipur - UKPCB",27-01-2026 08:00:00,29.2124114,78.9611753,PM10,NA,NA,NA
India,Uttarakhand,Rishikesh,"Shivaji Nagar, Rishikesh - UKPCB",27-01-2026 08:00:00,30.075911,78.2859547,PM10,56,78,67
India,Uttarakhand,Rishikesh,"Shivaji Nagar, Rishikesh - UKPCB",27-01-2026 08:00:00,30.075911,78.2859547,NH3,7,11,8
India,West_Bengal,Asansol,"Asansol Court Area, Asansol - WBPCB",27-01-2026 08:00:00,23.685297,86.945968,PM10,76,152,113
India,West_Bengal,Asansol,"Evelyn Lodge, Asansol - WBPCB",27-01-2026 08:00:00,23.6979360,86.9443950,NO2,9,44,25
India,West_Bengal,Asansol,"Evelyn Lodge, Asansol - WBPCB",27-01-2026 08:00:00,23.6979360,86.9443950,NH3,6,7,7
India,West_Bengal,Asansol,"Trivenidevi Bhalotia College, Asansol - WBPCB",27-01-2026 08:00:00,23.616515,87.119133,PM2.5,56,303,146
India,West_Bengal,Asansol,"Trivenidevi Bhalotia College, Asansol - WBPCB",27-01-2026 08:00:00,23.616515,87.119133,PM10,64,145,106
India,Uttar_Pradesh,Varanasi,"Ardhali Bazar, Varanasi - UPPCB",27-01-2026 08:00:00,25.3505986,82.9083074,CO,12,15,14
India,Uttar_Pradesh,Varanasi,"Ardhali Bazar, Varanasi - UPPCB",27-01-2026 08:00:00,25.3505986,82.9083074,OZONE,10,27,18
India,Uttar_Pradesh,Varanasi,"Bhelupur, Varanasi - UPPCB",27-01-2026 08:00:00,25.301778,82.996789,PM2.5,59,339,160
India,Uttar_Pradesh,Varanasi,"Bhelupur, Varanasi - UPPCB",27-01-2026 08:00:00,25.301778,82.996789,OZONE,1,2,1
India,Uttar_Pradesh,Varanasi,"Maldahiya, Varanasi - UPPCB",27-01-2026 08:00:00,25.32393,82.99687,PM2.5,49,206,106
India,Uttar_Pradesh,Vrindavan,"Omex Eternity, Vrindavan - UPPCB",27-01-2026 08:00:00,27.5714090,77.6557570,NH3,7,10,9
India,Uttarakhand,Kashipur,"Govt. Girls Inter College, Kashipur - UKPCB",27-01-2026 08:00:00,29.2124114,78.9611753,PM2.5,NA,NA,NA
India,Uttar_Pradesh,Greater Noida,"Knowledge Park - V, Greater Noida - UPPCB",27-01-2026 08:00:00,28.557054,77.453663,OZONE,3,153,4
India,Uttar_Pradesh,Hapur,"Anand Vihar, Hapur - UPPCB",27-01-2026 08:00:00,28.725645,77.749675,SO2,29,122,53
India,Uttar_Pradesh,Hapur,"Anand Vihar, Hapur - UPPCB",27-01-2026 08:00:00,28.725645,77.749675,CO,41,101,93
India,Uttar_Pradesh,Jhansi,"Shivaji Nagar, Jhansi - UPPCB",27-01-2026 08:00:00,25.4547,78.6039,CO,10,19,14
India,Uttar_Pradesh,Kanpur,"NSI Kalyanpur, Kanpur - UPPCB",27-01-2026 08:00:00,26.509954,80.249612,CO,31,56,50
India,Uttar_Pradesh,Kanpur,"Nehru Nagar, Kanpur - UPPCB",27-01-2026 08:00:00,26.4703136,80.3229863,CO,NA,NA,NA
India,Uttar_Pradesh,Khurja,"Kalindi Kunj, Khurja - UPPCB",27-01-2026 08:00:00,28.2348927,77.8683002,CO,33,60,56
India,Uttar_Pradesh,Lucknow,"Kukrail Picnic Spot-1, Lucknow - UPPCB",27-01-2026 08:00:00,26.90723,80.98579,NO2,31,32,32
India,Uttar_Pradesh,Lucknow,"Kukrail Picnic Spot-1, Lucknow - UPPCB",27-01-2026 08:00:00,26.90723,80.98579,SO2,43,46,44
India,Uttar_Pradesh,Moradabad,"Jigar Colony, Moradabad - UPPCB",27-01-2026 08:00:00,28.856664,78.772638,PM2.5,50,177,97
India,Uttar_Pradesh,Moradabad,"Jigar Colony, Moradabad - UPPCB",27-01-2026 08:00:00,28.856664,78.772638,OZONE,16,30,16
India,Uttar_Pradesh,Moradabad,"Transport Nagar, Moradabad - UPPCB",27-01-2026 08:00:00,28.802625,78.753728,PM10,42,137,88
India,West_Bengal,Barrackpore,"SVSPA Campus, Barrackpore - WBPCB",27-01-2026 08:00:00,22.7605581,88.3617589,NH3,5,8,7
India,West_Bengal,Barrackpore,"SVSPA Campus, Barrackpore - WBPCB",27-01-2026 08:00:00,22.7605581,88.3617589,CO,53,103,92
India,West_Bengal,Durgapur,"Mahishkapur Road_B-Zone, Durgapur - WBPCB",27-01-2026 08:00:00,23.567923,87.306843,NH3,3,3,3
India,West_Bengal,Durgapur,"PCBL Residential Complex, Durgapur - WBPCB",27-01-2026 08:00:00,23.5087640,87.3544400,PM2.5,46,182,76
India,West_Bengal,Durgapur,"PCBL Residential Complex, Durgapur - WBPCB",27-01-2026 08:00:00,23.5087640,87.3544400,NO2,33,52,40
India,West_Bengal,Howrah,"Belur Math, Howrah - WBPCB",27-01-2026 08:00:00,22.629801,88.352017,NH3,11,19,14
India,West_Bengal,Howrah,"Botanical Garden, Howrah - WBPCB",27-01-2026 08:00:00,22.554954,88.292568,PM10,54,152,102
India,West_Bengal,Howrah,"Botanical Garden, Howrah - WBPCB",27-01-2026 08:00:00,22.554954,88.292568,NH3,1,2,2
India,West_Bengal,Howrah,"Botanical Garden, Howrah - WBPCB",27-01-2026 08:00:00,22.554954,88.292568,SO2,6,16,9
India,West_Bengal,Howrah,"Ghusuri, Howrah - WBPCB",27-01-2026 08:00:00,22.611968,88.347422,CO,44,116,103
India,West_Bengal,Howrah,"Ghusuri, Howrah - WBPCB",27-01-2026 08:00:00,22.611968,88.347422,OZONE,9,41,11
India,West_Bengal,Kolkata,"Bidhannagar, Kolkata - WBPCB",27-01-2026 08:00:00,22.58157048,88.41002457,PM10,62,130,107
India,West_Bengal,Kolkata,"Fort William, Kolkata - WBPCB",27-01-2026 08:00:00,22.556640,88.342674,CO,17,92,79
India,West_Bengal,Kolkata,"Rabindra Bharati University, Kolkata - WBPCB",27-01-2026 08:00:00,22.627847,88.380669,PM10,87,226,145
India,West_Bengal,Kolkata,"Rabindra Bharati University, Kolkata - WBPCB",27-01-2026 08:00:00,22.627847,88.380669,SO2,4,8,6
India,West_Bengal,Kolkata,"Rabindra Sarobar, Kolkata - WBPCB",27-01-2026 08:00:00,22.51106,88.35142,NH3,7,31,16
India,West_Bengal,Kolkata,"Victoria, Kolkata - WBPCB",27-01-2026 08:00:00,22.5448082,88.3403691,PM2.5,86,259,175
India,West_Bengal,Kolkata,"Victoria, Kolkata - WBPCB",27-01-2026 08:00:00,22.5448082,88.3403691,NO2,36,47,41
India,West_Bengal,Siliguri,"Ward-32 Bapupara, Siliguri - WBPCB",27-01-2026 08:00:00,26.6879226,88.4152495,PM2.5,76,226,119
India,Bihar,Muzaffarpur,"Buddha Colony, Muzaffarpur - BSPCB",27-01-2026 08:00:00,26.11442,85.39813,NH3,6,10,8
India,Bihar,Muzaffarpur,"Buddha Colony, Muzaffarpur - BSPCB",27-01-2026 08:00:00,26.11442,85.39813,SO2,8,12,9
India,Bihar,Muzaffarpur,"Muzaffarpur Collectorate, Muzaffarpur - BSPCB",27-01-2026 08:00:00,26.1209,85.3647,OZONE,7,18,9
India,Bihar,Patna,"DRM Office Danapur, Patna - BSPCB",27-01-2026 08:00:00,25.586562,85.043586,NO2,10,63,26
India,Bihar,Patna,"DRM Office Danapur, Patna - BSPCB",27-01-2026 08:00:00,25.586562,85.043586,NH3,5,13,8
India,Bihar,Patna,"DRM Office Danapur, Patna - BSPCB",27-01-2026 08:00:00,25.586562,85.043586,CO,34,100,57
India,Bihar,Patna,"Govt. High School Shikarpur, Patna - BSPCB",27-01-2026 08:00:00,25.592539,85.227158,PM2.5,68,85,76
India,Bihar,Patna,"IGSC Planetarium Complex, Patna - BSPCB",27-01-2026 08:00:00,25.610369,85.132568,PM2.5,50,99,79
India,Bihar,Patna,"IGSC Planetarium Complex, Patna - BSPCB",27-01-2026 08:00:00,25.610369,85.132568,SO2,34,38,36
India,Bihar,Patna,"Muradpur, Patna - BSPCB",27-01-2026 08:00:00,25.619651,85.147382,NO2,5,8,6
India,Bihar,Patna,"Muradpur, Patna - BSPCB",27-01-2026 08:00:00,25.619651,85.147382,SO2,7,10,9
India,Bihar,Sasaram,"Dada Peer, Sasaram - BSPCB",27-01-2026 08:00:00,24.952822,84.002396,PM2.5,NA,NA,NA
India,Bihar,Sasaram,"Dada Peer, Sasaram - BSPCB",27-01-2026 08:00:00,24.952822,84.002396,CO,NA,NA,NA
India,Bihar,Siwan,"Chitragupta Nagar, Siwan - BSPCB",27-01-2026 08:00:00,26.2271665,84.3570427,PM10,59,144,90
India,Bihar,Siwan,"Chitragupta Nagar, Siwan - BSPCB",27-01-2026 08:00:00,26.2271665,84.3570427,OZONE,15,16,16
India,Chandigarh,Chandigarh,"Sector 22, Chandigarh - CPCC",27-01-2026 08:00:00,30.735567,76.775714,PM2.5,85,303,133
India,Chandigarh,Chandigarh,"Sector 22, Chandigarh - CPCC",27-01-2026 08:00:00,30.735567,76.775714,NO2,34,124,68
India,Chandigarh,Chandigarh,"Sector-25, Chandigarh - CPCC",27-01-2026 08:00:00,30.751462,76.762879,NO2,11,38,26
India,Chhattisgarh,Bhilai,"32Bungalows, Bhilai - CECB",27-01-2026 08:00:00,21.194815,81.314770,NH3,5,6,6
India,Chhattisgarh,Bhilai,"32Bungalows, Bhilai - CECB",27-01-2026 08:00:00,21.194815,81.314770,OZONE,3,47,3
India,Chhattisgarh,Bhilai,"Civic Center, Bhilai - Bhilai Steel Plant",27-01-2026 08:00:00,21.185571,81.343175,SO2,6,10,8
India,Bihar,Hajipur,"Industrial Area, Hajipur - BSPCB",27-01-2026 08:00:00,25.697189,85.245900,SO2,5,8,7
India,Bihar,Hajipur,"Industrial Area, Hajipur - BSPCB",27-01-2026 08:00:00,25.697189,85.245900,CO,20,50,45
India,Bihar,Katihar,"Mirchaibari, Katihar - BSPCB",27-01-2026 08:00:00,25.560083,87.553265,SO2,14,19,16
India,Bihar,Manguraha,"Forest Rest House, Manguraha - BSPCB",27-01-2026 08:00:00,27.308328,84.531742,NO2,4,11,6
India,Bihar,Manguraha,"Forest Rest House, Manguraha - BSPCB",27-01-2026 08:00:00,27.308328,84.531742,NH3,1,2,1
India,Bihar,Manguraha,"Forest Rest House, Manguraha - BSPCB",27-01-2026 08:00:00,27.308328,84.531742,CO,32,34,33
India,Bihar,Manguraha,"Forest Rest House, Manguraha - BSPCB",27-01-2026 08:00:00,27.308328,84.531742,OZONE,9,10,10
India,Bihar,Motihari,"Gandak Colony, Motihari - BSPCB",27-01-2026 08:00:00,26.63086,84.90051,PM2.5,30,200,98
India,Bihar,Motihari,"Gandak Colony, Motihari - BSPCB",27-01-2026 08:00:00,26.63086,84.90051,PM10,33,144,95
India,Bihar,Munger,"Town Hall, Munger - BSPCB",27-01-2026 08:00:00,25.376776,86.471523,SO2,19,64,28
India,Bihar,Munger,"Town Hall, Munger - BSPCB",27-01-2026 08:00:00,25.376776,86.471523,OZONE,6,26,12
India,Assam,Sivasagar,"Girls College, Sivasagar - PCBA",27-01-2026 08:00:00,26.987634,94.636574,NH3,5,25,10
India,Assam,Sivasagar,"Girls College, Sivasagar - PCBA",27-01-2026 08:00:00,26.987634,94.636574,CO,16,108,64
India,Bihar,Araria,"Kharahiya Basti, Araria - BSPCB",27-01-2026 08:00:00,26.146529,87.454184,CO,4,36,30
India,Bihar,Arrah,"New DM Office, Arrah - BSPCB",27-01-2026 08:00:00,25.5626095,84.663264,PM10,27,69,52
India,Bihar,Arrah,"New DM Office, Arrah - BSPCB",27-01-2026 08:00:00,25.5626095,84.663264,NO2,7,8,7
India,Bihar,Aurangabad,"Gurdeo Nagar, Aurangabad - BSPCB",27-01-2026 08:00:00,24.75746,84.366208,PM2.5,NA,NA,NA
India,Bihar,Aurangabad,"Gurdeo Nagar, Aurangabad - BSPCB",27-01-2026 08:00:00,24.75746,84.366208,OZONE,NA,NA,NA
India,Bihar,Bettiah,"Kamalnath Nagar, Bettiah - BSPCB",27-01-2026 08:00:00,26.80365,84.51954,OZONE,22,24,23
India,Bihar,Bhagalpur,"DM Office_Kachari Chowk, Bhagalpur - BSPCB",27-01-2026 08:00:00,25.251013,86.989001,PM2.5,33,90,67
India,Bihar,Bhagalpur,"DM Office_Kachari Chowk, Bhagalpur - BSPCB",27-01-2026 08:00:00,25.251013,86.989001,SO2,31,73,51
India,Bihar,Bhagalpur,"DM Office_Kachari Chowk, Bhagalpur - BSPCB",27-01-2026 08:00:00,25.251013,86.989001,OZONE,12,28,16
India,Bihar,Bhagalpur,"Mayaganj, Bhagalpur - BSPCB",27-01-2026 08:00:00,25.265194,87.012947,PM2.5,33,85,60
India,Bihar,Bhagalpur,"Mayaganj, Bhagalpur - BSPCB",27-01-2026 08:00:00,25.265194,87.012947,OZONE,16,34,18
India,Bihar,Bihar Sharif,"D M Colony, Bihar Sharif - BSPCB",27-01-2026 08:00:00,25.204762,85.514960,PM2.5,47,163,99
India,Bihar,Bihar Sharif,"D M Colony, Bihar Sharif - BSPCB",27-01-2026 08:00:00,25.204762,85.514960,NO2,9,10,9
India,Bihar,Buxar,"Charitra Van, Buxar - BSPCB",27-01-2026 08:00:00,25.567520,83.966379,CO,20,28,24
India,Bihar,Chhapra,"Darshan Nagar, Chhapra - BSPCB",27-01-2026 08:00:00,25.7808257,84.7446768,PM2.5,28,98,68
India,Bihar,Hajipur,"Industrial Area, Hajipur - BSPCB",27-01-2026 08:00:00,25.697189,85.245900,PM2.5,84,272,184
India,Assam,Guwahati,"LGBI Airport, Guwahati - PCBA",27-01-2026 08:00:00,26.10887,91.589544,OZONE,12,15,13
India,Assam,Guwahati,"Pan Bazaar, Guwahati - PCBA",27-01-2026 08:00:00,26.187500,91.744194,OZONE,17,18,17
India,Assam,Guwahati,"Railway Colony, Guwahati - PCBA",27-01-2026 08:00:00,26.181742,91.78063,CO,36,104,79
India,Assam,Nagaon,"Christianpatty, Nagaon - PCBA",27-01-2026 08:00:00,26.349082,92.68449,NO2,1,1,1
India,Assam,Nalbari,"Bata Chowk, Nalbari - PCBA",27-01-2026 08:00:00,26.446912,91.439057,OZONE,1,16,16
India,Assam,Silchar,"Tarapur, Silchar - PCBA",27-01-2026 08:00:00,24.82827,92.79525,NO2,21,31,26
India,Assam,Silchar,"Tarapur, Silchar - PCBA",27-01-2026 08:00:00,24.82827,92.79525,NH3,1,1,1
India,Assam,Sivasagar,"Girls College, Sivasagar - PCBA",27-01-2026 08:00:00,26.987634,94.636574,PM10,27,90,52
India,Bihar,Patna,"Samanpura, Patna - BSPCB",27-01-2026 08:00:00,25.596727,85.085624,OZONE,5,111,15
India,Bihar,Purnia,"Mariam Nagar, Purnia - BSPCB",27-01-2026 08:00:00,25.366336,87.117468,PM10,62,85,76
India,Bihar,Purnia,"Mariam Nagar, Purnia - BSPCB",27-01-2026 08:00:00,25.366336,87.117468,OZONE,19,34,21
India,Bihar,Rajgir,"Dangi Tola, Rajgir - BSPCB",27-01-2026 08:00:00,25.03280,85.41948,PM10,42,134,87
India,Bihar,Rajgir,"Dangi Tola, Rajgir - BSPCB",27-01-2026 08:00:00,25.03280,85.41948,OZONE,30,34,32
India,Bihar,Saharsa,"Police Line, Saharsa - BSPCB",27-01-2026 08:00:00,25.892357,86.590325,PM2.5,12,192,88
India,Bihar,Saharsa,"Police Line, Saharsa - BSPCB",27-01-2026 08:00:00,25.892357,86.590325,PM10,59,163,113
India,Bihar,Samastipur,"DM Office_Kasipur, Samastipur - BSPCB",27-01-2026 08:00:00,25.859655,85.77944,NO2,8,9,8
India,Andhra_Pradesh,Vijayawada,"Kanuru, Vijayawada - APPCB",27-01-2026 08:00:00,16.486692,80.699436,NH3,4,5,5
India,Andhra_Pradesh,Vijayawada,"Rajiv Gandhi Park, Vijayawada - APPCB",27-01-2026 08:00:00,16.509717,80.612222,NO2,46,74,56
India,Andhra_Pradesh,Vijayawada,"Rajiv Gandhi Park, Vijayawada - APPCB",27-01-2026 08:00:00,16.509717,80.612222,OZONE,7,46,16
India,Andhra_Pradesh,Vijayawada,"Rajiv Nagar, Vijayawada - APPCB",27-01-2026 08:00:00,16.554731,80.649110,NO2,NA,NA,NA
India,Andhra_Pradesh,Vijayawada,"Rajiv Nagar, Vijayawada - APPCB",27-01-2026 08:00:00,16.554731,80.649110,CO,28,36,35
India,Assam,Byrnihat,"Central Academy for SFS, Byrnihat - PCBA",27-01-2026 08:00:00,26.071318,91.87488,NO2,4,10,7
India,Assam,Byrnihat,"Central Academy for SFS, Byrnihat - PCBA",27-01-2026 08:00:00,26.071318,91.87488,OZONE,13,23,16
India,Andhra_Pradesh,Chittoor,"Gangineni Cheruvu, Chittoor - APPCB",27-01-2026 08:00:00,13.204880,79.097889,SO2,14,39,22
India,Andhra_Pradesh,Kadapa,"Yerramukkapalli, Kadapa - APPCB",27-01-2026 08:00:00,14.465052,78.824187,CO,8,12,8
India,Andhra_Pradesh,Tirumala,"Toll Gate, Tirumala - APPCB",27-01-2026 08:00:00,13.67,79.35,PM2.5,33,96,60
India,Andhra_Pradesh,Tirupati,"Vaikuntapuram, Tirupati - APPCB",27-01-2026 08:00:00,13.615387,79.409230,PM2.5,55,58,56
India,Andhra_Pradesh,Tirupati,"Vaikuntapuram, Tirupati - APPCB",27-01-2026 08:00:00,13.615387,79.409230,CO,15,24,17
India,Andhra_Pradesh,Vijayawada,"HB Colony, Vijayawada - APPCB",27-01-2026 08:00:00,16.536107,80.594233,CO,32,32,32
India,Andhra_Pradesh,Anantapur,"Gulzarpet, Anantapur - APPCB",27-01-2026 08:00:00,14.675886,77.593027,NO2,14,14,14
India,Andhra_Pradesh,Anantapur,"Gulzarpet, Anantapur - APPCB",27-01-2026 08:00:00,14.675886,77.593027,SO2,11,11,11
India,Andhra_Pradesh,Anantapur,"Gulzarpet, Anantapur - APPCB",27-01-2026 08:00:00,14.675886,77.593027,CO,18,27,18
India,Andhra_Pradesh,Chittoor,"Gangineni Cheruvu, Chittoor - APPCB",27-01-2026 08:00:00,13.204880,79.097889,PM2.5,66,83,76
India,Delhi,Delhi,"R K Puram, Delhi - DPCC",27-01-2026 08:00:00,28.563262,77.186937,NH3,7,12,9
India,Delhi,Delhi,"R K Puram, Delhi - DPCC",27-01-2026 08:00:00,28.563262,77.186937,SO2,9,47,26
India,Delhi,Delhi,"R K Puram, Delhi - DPCC",27-01-2026 08:00:00,28.563262,77.186937,OZONE,6,212,7
India,Delhi,Delhi,"Rohini, Delhi - DPCC",27-01-2026 08:00:00,28.732528,77.119920,NH3,23,28,25
India,Delhi,Delhi,"Rohini, Delhi - DPCC",27-01-2026 08:00:00,28.732528,77.119920,CO,19,126,104
India,Delhi,Delhi,"Shadipur, Delhi - CPCB",27-01-2026 08:00:00,28.6514781,77.1473105,PM10,120,416,236
India,Delhi,Delhi,"Shadipur, Delhi - CPCB",27-01-2026 08:00:00,28.6514781,77.1473105,SO2,8,24,15
India,Delhi,Delhi,"Sirifort, Delhi - CPCB",27-01-2026 08:00:00,28.5504249,77.2159377,PM2.5,204,450,319
India,Delhi,Delhi,"Sirifort, Delhi - CPCB",27-01-2026 08:00:00,28.5504249,77.2159377,NO2,26,34,30
India,Delhi,Delhi,"Sirifort, Delhi - CPCB",27-01-2026 08:00:00,28.5504249,77.2159377,SO2,28,34,30
India,Delhi,Delhi,"Sirifort, Delhi - CPCB",27-01-2026 08:00:00,28.5504249,77.2159377,CO,17,118,108
India,Delhi,Delhi,"Sonia Vihar, Delhi - DPCC",27-01-2026 08:00:00,28.710508,77.249485,NO2,27,95,52
India,Delhi,Delhi,"Sonia Vihar, Delhi - DPCC",27-01-2026 08:00:00,28.710508,77.249485,SO2,5,20,11
India,Delhi,Delhi,"Sri Aurobindo Marg, Delhi - DPCC",27-01-2026 08:00:00,28.531346,77.190156,CO,24,106,92
India,Delhi,Delhi,"Major Dhyan Chand National Stadium, Delhi - DPCC",27-01-2026 08:00:00,28.611281,77.237738,NH3,15,19,17
India,Delhi,Delhi,"Mandir Marg, Delhi - DPCC",27-01-2026 08:00:00,28.636429,77.201067,OZONE,14,311,18
India,Delhi,Delhi,"Mundka, Delhi - DPCC",27-01-2026 08:00:00,28.684678,77.076574,PM10,104,500,296
India,Delhi,Delhi,"Mundka, Delhi - DPCC",27-01-2026 08:00:00,28.684678,77.076574,SO2,6,26,14
India,Delhi,Delhi,"NSIT Dwarka, Delhi - CPCB",27-01-2026 08:00:00,28.60909,77.0325413,SO2,10,22,15
India,Delhi,Delhi,"NSIT Dwarka, Delhi - CPCB",27-01-2026 08:00:00,28.60909,77.0325413,OZONE,22,34,23
India,Delhi,Delhi,"Najafgarh, Delhi - DPCC",27-01-2026 08:00:00,28.570173,76.933762,SO2,18,38,22
India,Delhi,Delhi,"Najafgarh, Delhi - DPCC",27-01-2026 08:00:00,28.570173,76.933762,CO,16,128,84
India,Delhi,Delhi,"Narela, Delhi - DPCC",27-01-2026 08:00:00,28.822836,77.101981,PM10,131,423,231
India,Delhi,Delhi,"Narela, Delhi - DPCC",27-01-2026 08:00:00,28.822836,77.101981,SO2,2,23,12
India,Delhi,Delhi,"Nehru Nagar, Delhi - DPCC",27-01-2026 08:00:00,28.567890,77.250515,PM2.5,243,500,366
India,Chhattisgarh,Kunjemura,"OP Jindal School, Kunjemura - CECB",27-01-2026 08:00:00,22.126650,83.483212,NH3,2,2,2
India,Chhattisgarh,Milupara,"Govt. Higher Secondary School, Milupara - CECB",27-01-2026 08:00:00,22.1910172,83.5197009,PM2.5,70,100,87
India,Chhattisgarh,Milupara,"Govt. Higher Secondary School, Milupara - CECB",27-01-2026 08:00:00,22.1910172,83.5197009,NO2,17,48,26
India,Chhattisgarh,Milupara,"Govt. Higher Secondary School, Milupara - CECB",27-01-2026 08:00:00,22.1910172,83.5197009,SO2,13,23,15
India,Chhattisgarh,Raipur,"AIIMS, Raipur - CECB",27-01-2026 08:00:00,21.258815,81.578979,NO2,47,56,52
India,Chhattisgarh,Raipur,"AIIMS, Raipur - CECB",27-01-2026 08:00:00,21.258815,81.578979,NH3,4,4,4
India,Chhattisgarh,Raipur,"Siltara Phase-II, Raipur - CECB",27-01-2026 08:00:00,21.371751,81.664929,PM10,44,124,95
India,Delhi,Delhi,"Alipur, Delhi - DPCC",27-01-2026 08:00:00,28.815329,77.153010,PM10,127,290,192
India,Delhi,Delhi,"Alipur, Delhi - DPCC",27-01-2026 08:00:00,28.815329,77.153010,NH3,16,18,17
India,Delhi,Delhi,"Nehru Nagar, Delhi - DPCC",27-01-2026 08:00:00,28.567890,77.250515,CO,4,124,68
India,Delhi,Delhi,"North Campus, DU, Delhi - IMD",27-01-2026 08:00:00,28.6573814,77.1585447,CO,37,139,129
India,Delhi,Delhi,"Patparganj, Delhi - DPCC",27-01-2026 08:00:00,28.623763,77.287209,PM2.5,140,456,317
India,Delhi,Delhi,"Punjabi Bagh, Delhi - DPCC",27-01-2026 08:00:00,28.674045,77.131023,PM2.5,123,500,345
India,Delhi,Delhi,"Punjabi Bagh, Delhi - DPCC",27-01-2026 08:00:00,28.674045,77.131023,NO2,33,67,49
India,Delhi,Delhi,"Pusa, Delhi - DPCC",27-01-2026 08:00:00,28.639652,77.146275,SO2,3,12,7
India,Delhi,Delhi,"Pusa, Delhi - IMD",27-01-2026 08:00:00,28.636110,77.173332,PM10,121,308,188
India,Delhi,Delhi,"Pusa, Delhi - IMD",27-01-2026 08:00:00,28.636110,77.173332,NO2,61,195,107
India,Delhi,Delhi,"Dr. Karni Singh Shooting Range, Delhi - DPCC",27-01-2026 08:00:00,28.498571,77.264840,PM2.5,147,451,293
India,Delhi,Delhi,"Dr. Karni Singh Shooting Range, Delhi - DPCC",27-01-2026 08:00:00,28.498571,77.264840,PM10,137,436,203
India,Delhi,Delhi,"Dr. Karni Singh Shooting Range, Delhi - DPCC",27-01-2026 08:00:00,28.498571,77.264840,CO,7,113,31
India,Delhi,Delhi,"Dr. Karni Singh Shooting Range, Delhi - DPCC",27-01-2026 08:00:00,28.498571,77.264840,OZONE,3,197,7
India,Delhi,Delhi,"Dwarka-Sector 8, Delhi - DPCC ",27-01-2026 08:00:00,28.5710274,77.0719006,NO2,49,152,98
India,Delhi,Delhi,"IGI Airport (T3), Delhi - IMD",27-01-2026 08:00:00,28.5627763,77.1180053,PM10,132,348,189
India,Delhi,Delhi,"IGI Airport (T3), Delhi - IMD",27-01-2026 08:00:00,28.5627763,77.1180053,NO2,51,112,86
India,Delhi,Delhi,"IIT Delhi, Delhi - IITM",27-01-2026 08:00:00,28.542460,77.191651,OZONE,6,75,12
India,Chhattisgarh,Bhilai,"Civic Center, Bhilai - Bhilai Steel Plant",27-01-2026 08:00:00,21.185571,81.343175,OZONE,8,15,10
India,Chhattisgarh,Bhilai,"Hathkhoj, Bhilai - CECB",27-01-2026 08:00:00,21.224231,81.408350,NO2,22,72,43
India,Chhattisgarh,Bilaspur,"Mangala, Bilaspur - NTPC",27-01-2026 08:00:00,22.08815,82.13737,NO2,24,147,57
India,Chhattisgarh,Chhal,"Nawapara SECL Colony, Chhal - CECB",27-01-2026 08:00:00,22.118125,83.140608,OZONE,3,89,5
India,Chhattisgarh,Korba,"Rampur, Korba - CECB",27-01-2026 08:00:00,22.368195,82.746431,NH3,1,1,1
India,Chhattisgarh,Korba,"Urja Nagar, Korba - CECB",27-01-2026 08:00:00,22.348441,82.549611,PM10,NA,NA,NA
India,Delhi,Delhi,"Anand Vihar, Delhi - DPCC",27-01-2026 08:00:00,28.647622,77.3158090,CO,48,153,131
India,Delhi,Delhi,"Anand Vihar, Delhi - DPCC",27-01-2026 08:00:00,28.647622,77.3158090,OZONE,2,30,12
India,Delhi,Delhi,"Ashok Vihar, Delhi - DPCC",27-01-2026 08:00:00,28.695381,77.181665,NO2,29,121,69
India,Delhi,Delhi,"Ashok Vihar, Delhi - DPCC",27-01-2026 08:00:00,28.695381,77.181665,CO,28,148,93
India,Delhi,Delhi,"Bawana, Delhi - DPCC",27-01-2026 08:00:00,28.776200,77.051074,CO,4,111,74
India,Delhi,Delhi,"Bawana, Delhi - DPCC",27-01-2026 08:00:00,28.776200,77.051074,OZONE,2,210,2
India,Delhi,Delhi,"ITO, Delhi - CPCB",27-01-2026 08:00:00,28.628624,77.241060,CO,28,122,112
India,Delhi,Delhi,"Jawaharlal Nehru Stadium, Delhi - DPCC",27-01-2026 08:00:00,28.580280,77.233829,NH3,15,19,17
India,Delhi,Delhi,"Jawaharlal Nehru Stadium, Delhi - DPCC",27-01-2026 08:00:00,28.580280,77.233829,CO,72,144,132
India,Delhi,Delhi,"Major Dhyan Chand National Stadium, Delhi - DPCC",27-01-2026 08:00:00,28.611281,77.237738,PM10,100,276,196
India,Delhi,Delhi,"Alipur, Delhi - DPCC",27-01-2026 08:00:00,28.815329,77.153010,SO2,6,16,9
India,Delhi,Delhi,"Anand Vihar, Delhi - DPCC",27-01-2026 08:00:00,28.647622,77.3158090,PM10,144,500,349
India,Gujarat,Gandhinagar,"IIPHG Lekawada, Gandhinagar - IITM",27-01-2026 08:00:00,23.243639,72.68994,NH3,4,7,5
India,Gujarat,Gandhinagar,"Sector-10, Gandhinagar - GPCB",27-01-2026 08:00:00,23.221714,72.654328,PM2.5,111,303,215
India,Gujarat,Gandhinagar,"Sector-10, Gandhinagar - GPCB",27-01-2026 08:00:00,23.221714,72.654328,PM10,97,165,128
India,Gujarat,Gandhinagar,"Sector-10, Gandhinagar - GPCB",27-01-2026 08:00:00,23.221714,72.654328,NH3,3,5,4
India,Gujarat,Gandhinagar,"Sector-10, Gandhinagar - GPCB",27-01-2026 08:00:00,23.221714,72.654328,CO,28,44,37
India,Gujarat,Surat,"Science Center, Surat - SMC",27-01-2026 08:00:00,21.170046,72.795405,SO2,22,28,24
India,Gujarat,Surat,"Science Center, Surat - SMC",27-01-2026 08:00:00,21.170046,72.795405,CO,38,44,39
India,Gujarat,Vatva,"Phase-4 GIDC, Vatva - GPCB",27-01-2026 08:00:00,22.969611,72.643500,PM10,139,284,177
India,Gujarat,Vatva,"Phase-4 GIDC, Vatva - GPCB",27-01-2026 08:00:00,22.969611,72.643500,NO2,68,103,85
India,Haryana,Ambala,"Patti Mehar, Ambala - HSPCB",27-01-2026 08:00:00,30.379589,76.778328,NH3,9,11,10
India,Haryana,Bahadurgarh,"Arya Nagar, Bahadurgarh - HSPCB",27-01-2026 08:00:00,28.6701,76.9254,PM2.5,54,308,187
India,Haryana,Bahadurgarh,"Arya Nagar, Bahadurgarh - HSPCB",27-01-2026 08:00:00,28.6701,76.9254,SO2,7,7,7
India,Haryana,Bahadurgarh,"Arya Nagar, Bahadurgarh - HSPCB",27-01-2026 08:00:00,28.6701,76.9254,OZONE,15,19,18
India,Haryana,Faridabad,"Sector 30, Faridabad - HSPCB",27-01-2026 08:00:00,28.4417,77.3217,CO,40,64,63
India,Haryana,Fatehabad,"Huda Sector, Fatehabad - HSPCB",27-01-2026 08:00:00,29.503664,75.467934,OZONE,48,57,52
India,Haryana,Gurugram,"NISE Gwal Pahari, Gurugram - IMD",27-01-2026 08:00:00,28.422681,77.148944,CO,20,72,50
India,Haryana,Gurugram,"Sector-51, Gurugram - HSPCB",27-01-2026 08:00:00,28.4227,77.0667,PM10,130,500,239
India,Haryana,Gurugram,"Sector-51, Gurugram - HSPCB",27-01-2026 08:00:00,28.4227,77.0667,NH3,9,14,12
India,Haryana,Gurugram,"Vikas Sadan, Gurugram - HSPCB",27-01-2026 08:00:00,28.4501238,77.0263051,PM10,138,364,196
India,Haryana,Hisar,"Urban Estate-II, Hisar - HSPCB",27-01-2026 08:00:00,29.140560,75.744941,PM2.5,39,76,58
India,Haryana,Hisar,"Urban Estate-II, Hisar - HSPCB",27-01-2026 08:00:00,29.140560,75.744941,NO2,26,27,26
India,Haryana,Hisar,"Urban Estate-II, Hisar - HSPCB",27-01-2026 08:00:00,29.140560,75.744941,SO2,7,14,11
India,Haryana,Jind,"Police Lines, Jind - HSPCB",27-01-2026 08:00:00,29.307814,76.337619,PM2.5,86,292,159
India,Haryana,Jind,"Police Lines, Jind - HSPCB",27-01-2026 08:00:00,29.307814,76.337619,PM10,74,145,105
India,Delhi,Delhi,"Vivek Vihar, Delhi - DPCC",27-01-2026 08:00:00,28.672342,77.315260,PM10,122,491,295
India,Delhi,Delhi,"Wazirpur, Delhi - DPCC",27-01-2026 08:00:00,28.699793,77.165453,PM2.5,243,500,374
India,Delhi,Delhi,"Wazirpur, Delhi - DPCC",27-01-2026 08:00:00,28.699793,77.165453,PM10,156,500,325
India,Delhi,Delhi,"Wazirpur, Delhi - DPCC",27-01-2026 08:00:00,28.699793,77.165453,NO2,196,302,262
India,Delhi,Delhi,"Wazirpur, Delhi - DPCC",27-01-2026 08:00:00,28.699793,77.165453,SO2,8,21,13
India,Delhi,Delhi,"Wazirpur, Delhi - DPCC",27-01-2026 08:00:00,28.699793,77.165453,OZONE,6,46,36
India,Gujarat,Ahmedabad,"Chandkheda, Ahmedabad - IITM",27-01-2026 08:00:00,23.107969,72.574648,NO2,19,69,39
India,Gujarat,Ahmedabad,"Chandkheda, Ahmedabad - IITM",27-01-2026 08:00:00,23.107969,72.574648,CO,42,79,69
India,Gujarat,Ahmedabad,"Chandkheda, Ahmedabad - IITM",27-01-2026 08:00:00,23.107969,72.574648,OZONE,1,54,5
India,Gujarat,Ahmedabad,"Maninagar, Ahmedabad - GPCB",27-01-2026 08:00:00,23.002657,72.591912,PM2.5,91,237,159
India,Gujarat,Ahmedabad,"Maninagar, Ahmedabad - GPCB",27-01-2026 08:00:00,23.002657,72.591912,PM10,102,163,131
India,Gujarat,Ahmedabad,"Maninagar, Ahmedabad - GPCB",27-01-2026 08:00:00,23.002657,72.591912,NO2,113,133,126
India,Gujarat,Ahmedabad,"Raikhad, Ahmedabad - IITM",27-01-2026 08:00:00,23.020509,72.579261,NO2,28,108,53
India,Haryana,Narnaul,"Shastri Nagar, Narnaul - HSPCB",27-01-2026 08:00:00,28.060249,76.113115,PM10,100,284,159
India,Haryana,Narnaul,"Shastri Nagar, Narnaul - HSPCB",27-01-2026 08:00:00,28.060249,76.113115,NO2,88,129,105
India,Haryana,Palwal,"Shyam Nagar, Palwal - HSPCB",27-01-2026 08:00:00,28.1485564,77.3320667,SO2,14,15,14
India,Haryana,Palwal,"Shyam Nagar, Palwal - HSPCB",27-01-2026 08:00:00,28.1485564,77.3320667,OZONE,14,17,15
India,Haryana,Panchkula,"Sector-6, Panchkula - HSPCB ",27-01-2026 08:00:00,30.7057778,76.8531805555555,PM2.5,6,305,156
India,Haryana,Panchkula,"Sector-6, Panchkula - HSPCB ",27-01-2026 08:00:00,30.7057778,76.8531805555555,NO2,24,26,25
India,Haryana,Panipat,"Sector-18, Panipat - HSPCB",27-01-2026 08:00:00,29.432304,76.972765,PM2.5,49,50,49
India,Haryana,Panipat,"Sector-18, Panipat - HSPCB",27-01-2026 08:00:00,29.432304,76.972765,NH3,2,3,2
India,Haryana,Panipat,"Sector-18, Panipat - HSPCB",27-01-2026 08:00:00,29.432304,76.972765,OZONE,30,30,30
India,Haryana,Sirsa,"F-Block, Sirsa - HSPCB",27-01-2026 08:00:00,29.536400,75.015800,PM2.5,56,215,101
India,Haryana,Sirsa,"F-Block, Sirsa - HSPCB",27-01-2026 08:00:00,29.536400,75.015800,PM10,58,142,94
India,Karnataka,Bagalkot,"Vidayagiri, Bagalkot - KSPCB",27-01-2026 08:00:00,16.172806,75.659694,PM10,45,46,46
India,Karnataka,Belgaum,"Ramteerth Nagar, Belgaum - KSPCB",27-01-2026 08:00:00,15.888653,74.541751,NH3,9,12,10
India,Karnataka,Belgaum,"Ramteerth Nagar, Belgaum - KSPCB",27-01-2026 08:00:00,15.888653,74.541751,CO,2,4,2
India,Karnataka,Bengaluru,"BWSSB Kadabesanahalli, Bengaluru - CPCB",27-01-2026 08:00:00,12.9352049,77.6814488,CO,37,38,38
India,Karnataka,Bengaluru,"BWSSB Kadabesanahalli, Bengaluru - CPCB",27-01-2026 08:00:00,12.9352049,77.6814488,OZONE,11,45,30
India,Karnataka,Bengaluru,"Bapuji Nagar, Bengaluru - KSPCB",27-01-2026 08:00:00,12.951913,77.539784,PM2.5,9,58,24
India,Karnataka,Bengaluru,"Bapuji Nagar, Bengaluru - KSPCB",27-01-2026 08:00:00,12.951913,77.539784,NH3,2,2,2
India,Karnataka,Bengaluru,"Bapuji Nagar, Bengaluru - KSPCB",27-01-2026 08:00:00,12.951913,77.539784,SO2,8,32,19
India,Karnataka,Bengaluru,"City Railway Station, Bengaluru - KSPCB",27-01-2026 08:00:00,12.9756843,77.5660749,CO,NA,NA,NA
India,Karnataka,Bengaluru,"Hebbal, Bengaluru - KSPCB",27-01-2026 08:00:00,13.029152,77.585901,SO2,10,17,13
India,Gujarat,Ahmedabad,"Rakhial, Ahmedabad - IITM",27-01-2026 08:00:00,23.016834,72.625775,NH3,5,13,9
India,Gujarat,Ahmedabad,"Rakhial, Ahmedabad - IITM",27-01-2026 08:00:00,23.016834,72.625775,OZONE,1,71,2
India,Gujarat,Ahmedabad,"SAC ISRO Satellite, Ahmedabad - IITM",27-01-2026 08:00:00,23.023389,72.515201,OZONE,1,60,5
India,Gujarat,Ankleshwar,"GIDC, Ankleshwar - GPCB",27-01-2026 08:00:00,21.613267,73.010555,NH3,5,5,5
India,Gujarat,Ankleshwar,"GIDC, Ankleshwar - GPCB",27-01-2026 08:00:00,21.613267,73.010555,SO2,22,23,22
India,Gujarat,Ankleshwar,"GIDC, Ankleshwar - GPCB",27-01-2026 08:00:00,21.613267,73.010555,CO,32,78,56
India,Gujarat,Gandhinagar,"GIFT City, Gandhinagar - IITM",27-01-2026 08:00:00,23.163798,72.677768,PM2.5,39,173,96
India,Gujarat,Gandhinagar,"GIFT City, Gandhinagar - IITM",27-01-2026 08:00:00,23.163798,72.677768,NO2,18,61,34
India,Gujarat,Gandhinagar,"GIFT City, Gandhinagar - IITM",27-01-2026 08:00:00,23.163798,72.677768,NH3,5,12,8
India,Gujarat,Gandhinagar,"GIFT City, Gandhinagar - IITM",27-01-2026 08:00:00,23.163798,72.677768,OZONE,1,77,2
India,Gujarat,Gandhinagar,"IIPHG Lekawada, Gandhinagar - IITM",27-01-2026 08:00:00,23.243639,72.68994,PM10,107,154,129
India,Haryana,Sirsa,"F-Block, Sirsa - HSPCB",27-01-2026 08:00:00,29.536400,75.015800,OZONE,35,54,45
India,Haryana,Sonipat,"Murthal, Sonipat - HSPCB",27-01-2026 08:00:00,29.027200,77.062100,PM2.5,55,265,136
India,Haryana,Yamuna Nagar,"Gobind Pura, Yamuna Nagar - HSPCB",27-01-2026 08:00:00,30.1480566,77.2893471,CO,29,52,35
India,Himachal Pradesh,Baddi,"HIMUDA Complex Phase-1, Baddi - HPPCB",27-01-2026 08:00:00,30.943887,76.801991,OZONE,16,80,39
India,Jammu_and_Kashmir,Srinagar,"Khunmoh, Srinagar - JKPCC",27-01-2026 08:00:00,34.06313,74.96017,NO2,2,8,5
India,Haryana,Charkhi Dadri,"Mini Secretariat, Charkhi Dadri - HSPCB",27-01-2026 08:00:00,28.593883,76.270653,PM2.5,NA,NA,NA
India,Haryana,Charkhi Dadri,"Mini Secretariat, Charkhi Dadri - HSPCB",27-01-2026 08:00:00,28.593883,76.270653,NH3,NA,NA,NA
India,Haryana,Charkhi Dadri,"Mini Secretariat, Charkhi Dadri - HSPCB",27-01-2026 08:00:00,28.593883,76.270653,CO,NA,NA,NA
India,Haryana,Dharuhera,"Municipal Corporation Office, Dharuhera -  HSPCB",27-01-2026 08:00:00,28.206800,76.799700,PM2.5,131,427,285
India,Haryana,Faridabad,"Sector 11, Faridabad - HSPCB",27-01-2026 08:00:00,28.376058,77.315741,PM2.5,85,408,245
India,Haryana,Karnal,"Sector-12, Karnal - HSPCB",27-01-2026 08:00:00,29.695300,77.002700,NH3,6,7,6
India,Haryana,Mandikhera,"General Hospital, Mandikhera(Nuh) - HSPCB",27-01-2026 08:00:00,27.9002,76.9938,CO,57,90,77
India,Karnataka,Chikkamagaluru,"Kalyana Nagara, Chikkamagaluru - KSPCB",27-01-2026 08:00:00,13.328028,75.797056,OZONE,11,24,11
India,Karnataka,Davanagere,"Devaraj Urs Badavane, Davanagere - KSPCB",27-01-2026 08:00:00,14.475800,75.905200,PM10,13,66,27
India,Karnataka,Dharwad,"Kalabhavan, Dharwad - KSPCB",27-01-2026 08:00:00,15.459706,75.008381,PM10,70,92,82
India,Karnataka,Dharwad,"Kalabhavan, Dharwad - KSPCB",27-01-2026 08:00:00,15.459706,75.008381,OZONE,17,17,17
India,Karnataka,Hubballi,"Lingaraj Nagar, Hubballi - KSPCB",27-01-2026 08:00:00,15.3714823,75.1160168,PM10,62,66,64
India,Karnataka,Hubballi,"Lingaraj Nagar, Hubballi - KSPCB",27-01-2026 08:00:00,15.3714823,75.1160168,NH3,1,2,2
India,Karnataka,Kalaburagi,"Mahatma Basaveswar Colony, Kalaburgi - KSPCB",27-01-2026 08:00:00,17.336318,76.847397,SO2,3,7,5
India,Karnataka,Kalaburagi,"Mahatma Basaveswar Colony, Kalaburgi - KSPCB",27-01-2026 08:00:00,17.336318,76.847397,CO,35,50,40
India,Karnataka,Madikeri,"Stuart Hill, Madikeri - KSPCB",27-01-2026 08:00:00,12.415911,75.735050,OZONE,2,5,3
India,Karnataka,Mysuru,"Hebbal 1st Stage, Mysuru - KSPCB",27-01-2026 08:00:00,12.21041,76.37376,NO2,13,22,17
India,Karnataka,Ramanagara,"Vijay Nagar, Ramanagara - KSPCB",27-01-2026 08:00:00,12.733409,77.298051,PM2.5,6,42,20
India,Kerala,Kannur,"Thavakkara, Kannur - Kerala PCB",27-01-2026 08:00:00,11.875000,75.373200,SO2,NA,NA,NA
India,Kerala,Kollam,"Polayathode, Kollam - Kerala PCB",27-01-2026 08:00:00,8.8787,76.6073,SO2,2,3,2
India,Kerala,Thiruvananthapuram,"Kariavattom, Thiruvananthapuram - Kerala PCB",27-01-2026 08:00:00,8.563700,76.886500,PM2.5,NA,NA,NA
India,Kerala,Thiruvananthapuram,"Kariavattom, Thiruvananthapuram - Kerala PCB",27-01-2026 08:00:00,8.563700,76.886500,PM10,NA,NA,NA
India,Kerala,Thiruvananthapuram,"Plammoodu, Thiruvananthapuram - Kerala PCB",27-01-2026 08:00:00,8.5149093,76.9435879,PM10,24,55,41
India,Kerala,Thiruvananthapuram,"Plammoodu, Thiruvananthapuram - Kerala PCB",27-01-2026 08:00:00,8.5149093,76.9435879,OZONE,7,36,18
India,Madhya Pradesh,Bhopal,"Idgah Hills, Bhopal - MPPCB",27-01-2026 08:00:00,23.264759,77.381568,SO2,11,23,18
India,Madhya Pradesh,Bhopal,"Paryavaran Parisar, Bhopal - MPPCB",27-01-2026 08:00:00,23.210494,77.425409,NO2,29,99,59
India,Madhya Pradesh,Bhopal,"Paryavaran Parisar, Bhopal - MPPCB",27-01-2026 08:00:00,23.210494,77.425409,SO2,4,13,10
India,Karnataka,Bengaluru,"RVCE-Mailasandra, Bengaluru - KSPCB",27-01-2026 08:00:00,12.921418,77.502466,CO,1,27,11
India,Karnataka,Bengaluru,"Silk Board, Bengaluru - KSPCB",27-01-2026 08:00:00,12.917348,77.622813,CO,18,62,28
India,Karnataka,Chamarajanagar,"Urban, Chamarajanagar - KSPCB",27-01-2026 08:00:00,11.55358,76.55521,NO2,16,29,26
India,Karnataka,Chamarajanagar,"Urban, Chamarajanagar - KSPCB",27-01-2026 08:00:00,11.55358,76.55521,SO2,NA,NA,NA
India,Karnataka,Chikkaballapur,"Chikkaballapur Rural, Chikkaballapur - KSPCB",27-01-2026 08:00:00,13.428828,77.731418,PM2.5,2,42,24
India,Karnataka,Chikkaballapur,"Chikkaballapur Rural, Chikkaballapur - KSPCB",27-01-2026 08:00:00,13.428828,77.731418,PM10,3,60,34
India,Karnataka,Chikkamagaluru,"Kalyana Nagara, Chikkamagaluru - KSPCB",27-01-2026 08:00:00,13.328028,75.797056,SO2,1,4,2
India,Karnataka,Bengaluru,"Hombegowda Nagar, Bengaluru - KSPCB",27-01-2026 08:00:00,12.938539,77.590100,OZONE,8,28,21
India,Karnataka,Bengaluru,"Jayanagar 5th Block, Bengaluru - KSPCB",27-01-2026 08:00:00,12.920984,77.584908,PM10,24,76,44
India,Karnataka,Bengaluru,"Jayanagar 5th Block, Bengaluru - KSPCB",27-01-2026 08:00:00,12.920984,77.584908,CO,5,48,12
India,Karnataka,Bengaluru,"Jigani, Bengaluru - KSPCB",27-01-2026 08:00:00,12.7816279,77.6299145,PM2.5,33,50,42
India,Karnataka,Bengaluru,"Jigani, Bengaluru - KSPCB",27-01-2026 08:00:00,12.7816279,77.6299145,NH3,3,3,3
India,Karnataka,Bengaluru,"Jigani, Bengaluru - KSPCB",27-01-2026 08:00:00,12.7816279,77.6299145,CO,32,34,33
India,Karnataka,Bengaluru,"Jigani, Bengaluru - KSPCB",27-01-2026 08:00:00,12.7816279,77.6299145,OZONE,23,24,23
India,Karnataka,Bengaluru,"Kasturi Nagar, Bengaluru - KSPCB",27-01-2026 08:00:00,13.003872,77.664217,OZONE,26,27,26
India,Madhya Pradesh,Jabalpur,"Gupteshwar, Jabalpur - JMC",27-01-2026 08:00:00,23.142888,79.916147,NH3,2,3,2
India,Madhya Pradesh,Jabalpur,"Marhatal, Jabalpur - MPPCB",27-01-2026 08:00:00,23.168606,79.932247,PM10,102,174,130
India,Madhya Pradesh,Jabalpur,"Marhatal, Jabalpur - MPPCB",27-01-2026 08:00:00,23.168606,79.932247,OZONE,34,309,64
India,Madhya Pradesh,Katni,"Gole Bazar, Katni - MPPCB",27-01-2026 08:00:00,23.50016,80.23284,PM10,72,252,112
India,Madhya Pradesh,Katni,"Gole Bazar, Katni - MPPCB",27-01-2026 08:00:00,23.50016,80.23284,SO2,1,63,23
India,Madhya Pradesh,Katni,"Gole Bazar, Katni - MPPCB",27-01-2026 08:00:00,23.50016,80.23284,OZONE,7,166,48
India,Karnataka,Shivamogga,"Vinoba Nagara, Shivamogga - KSPCB",27-01-2026 08:00:00,13.940000,75.555917,OZONE,16,49,26
India,Karnataka,Tumakuru,"Thimmalapura, Tumakuru - KSPCB",27-01-2026 08:00:00,13.377516,77.099072,PM10,66,93,79
India,Karnataka,Yadgir,"Collector Office, Yadgir - KSPCB",27-01-2026 08:00:00,16.7602,77.1428,NO2,2,18,10
India,Karnataka,Yadgir,"Collector Office, Yadgir - KSPCB",27-01-2026 08:00:00,16.7602,77.1428,NH3,2,3,2
India,Madhya Pradesh,Bhopal,"T T Nagar, Bhopal - MPPCB",27-01-2026 08:00:00,23.233584,77.400574,NH3,7,8,8
India,Madhya Pradesh,Bhopal,"T T Nagar, Bhopal - MPPCB",27-01-2026 08:00:00,23.233584,77.400574,OZONE,30,181,85
India,Madhya Pradesh,Gwalior,"Deen Dayal Nagar, Gwalior - MPPCB",27-01-2026 08:00:00,26.259242,78.216432,SO2,2,14,8
India,Madhya Pradesh,Gwalior,"Maharaj Bada, Gwalior - MPPCB",27-01-2026 08:00:00,26.200388,78.147714,PM2.5,95,302,187
India,Madhya Pradesh,Indore,"Airport Area, Indore - IMC",27-01-2026 08:00:00,22.7289,75.8076,OZONE,7,16,12
India,Madhya Pradesh,Indore,"Chhoti Gwaltoli, Indore - MPPCB",27-01-2026 08:00:00,22.4310,75.5213,SO2,25,39,29
India,Madhya Pradesh,Indore,"Maguda Nagar, Indore - IMC",27-01-2026 08:00:00,22.7524,75.8872,SO2,6,20,12
India,Madhya Pradesh,Indore,"Maguda Nagar, Indore - IMC",27-01-2026 08:00:00,22.7524,75.8872,CO,26,58,37
India,Madhya Pradesh,Pithampur,"Sector-2 Industrial Area, Pithampur - MPPCB",27-01-2026 08:00:00,22.624758,75.675238,PM10,109,188,141
India,Madhya Pradesh,Pithampur,"Sector-2 Industrial Area, Pithampur - MPPCB",27-01-2026 08:00:00,22.624758,75.675238,NO2,28,40,34
India,Madhya Pradesh,Pithampur,"Sector-2 Industrial Area, Pithampur - MPPCB",27-01-2026 08:00:00,22.624758,75.675238,OZONE,74,167,114
India,Maharashtra,Kolhapur,"Sinchan Bhavan, Kolhapur - MPCB",27-01-2026 08:00:00,16.7143745,74.2426398,PM10,29,78,44
India,Maharashtra,Kolhapur,"Sinchan Bhavan, Kolhapur - MPCB",27-01-2026 08:00:00,16.7143745,74.2426398,CO,3,10,6
India,Maharashtra,Kolhapur,"Sinchan Bhavan, Kolhapur - MPCB",27-01-2026 08:00:00,16.7143745,74.2426398,OZONE,1,31,7
India,Maharashtra,Latur,"Sawe Wadi, Latur - MPCB",27-01-2026 08:00:00,18.39963,76.57452,SO2,2,13,5
India,Maharashtra,Mahad,"Kamble Tarf Birwadi, Mahad - MPCB",27-01-2026 08:00:00,18.1023399,73.4783687,PM10,52,167,106
India,Maharashtra,Mahad,"Kamble Tarf Birwadi, Mahad - MPCB",27-01-2026 08:00:00,18.1023399,73.4783687,CO,2,38,17
India,Maharashtra,Malegaon,"Mahesh Nagar, Malegaon - MPCB",27-01-2026 08:00:00,20.555712,74.529236,NH3,1,2,1
India,Maharashtra,Malegaon,"Mahesh Nagar, Malegaon - MPCB",27-01-2026 08:00:00,20.555712,74.529236,SO2,2,20,11
India,Maharashtra,Malegaon,"Mahesh Nagar, Malegaon - MPCB",27-01-2026 08:00:00,20.555712,74.529236,OZONE,6,39,22
India,Maharashtra,Mira-Bhayandar,"Bhayandar West, Mira-Bhayandar - MPCB",27-01-2026 08:00:00,19.296481,72.840923,OZONE,2,53,6
India,Maharashtra,Mumbai,"Bandra Kurla Complex, Mumbai - IITM",27-01-2026 08:00:00,19.053536,72.84643,NO2,NA,NA,NA
India,Maharashtra,Mumbai,"Bandra Kurla Complex, Mumbai - IITM",27-01-2026 08:00:00,19.053536,72.84643,NH3,NA,NA,NA
India,Maharashtra,Aurangabad,"Rachnakar Colony, Aurangabad - MPCB",27-01-2026 08:00:00,19.863756,75.321188,NH3,2,6,3
India,Maharashtra,Aurangabad,"Rachnakar Colony, Aurangabad - MPCB",27-01-2026 08:00:00,19.863756,75.321188,OZONE,14,74,15
India,Maharashtra,Badlapur,"Katrap, Badlapur - MPCB",27-01-2026 08:00:00,19.16485,73.23409,CO,NA,NA,NA
India,Maharashtra,Belapur,"CBD Belapur, Belapur - MPCB",27-01-2026 08:00:00,19.0243902,73.0406721,PM2.5,77,213,149
India,Maharashtra,Belapur,"CBD Belapur, Belapur - MPCB",27-01-2026 08:00:00,19.0243902,73.0406721,NO2,18,48,34
