country,state,city,station,last_update,latitude,longitude,pollutant_id,min_value,max_value,avg_value
India,Andhra_Pradesh,Vijayawada,"Rajiv Nagar, Vijayawada - APPCB",17-01-2026 08:00:00,16.554731,80.649110,CO,32,42,32
India,Andhra_Pradesh,Vijayawada,"Rajiv Nagar, Vijayawada - APPCB",17-01-2026 08:00:00,16.554731,80.649110,OZONE,20,20,20
India,Andhra_Pradesh,Visakhapatnam,"GVM Corporation, Visakhapatnam - APPCB",17-01-2026 08:00:00,17.72,83.3,NO2,25,207,97
India,Andhra_Pradesh,Visakhapatnam,"GVM Corporation, Visakhapatnam - APPCB",17-01-2026 08:00:00,17.72,83.3,CO,24,84,45
India,Assam,Byrnihat,"Central Academy for SFS, Byrnihat - PCBA",17-01-2026 08:00:00,26.071318,91.87488,NH3,4,4,4
India,Assam,Guwahati,"LGBI Airport, Guwahati - PCBA",17-01-2026 08:00:00,26.10887,91.589544,PM2.5,53,156,97
India,Assam,Guwahati,"LGBI Airport, Guwahati - PCBA",17-01-2026 08:00:00,26.10887,91.589544,PM10,71,154,120
India,Assam,Guwahati,"LGBI Airport, Guwahati - PCBA",17-01-2026 08:00:00,26.10887,91.589544,NH3,5,12,6
India,Assam,Guwahati,"LGBI Airport, Guwahati - PCBA",17-01-2026 08:00:00,26.10887,91.589544,OZONE,9,14,13
India,Assam,Guwahati,"Pan Bazaar, Guwahati - PCBA",17-01-2026 08:00:00,26.187500,91.744194,CO,12,84,39
India,Bihar,Araria,"Kharahiya Basti, Araria - BSPCB",17-01-2026 08:00:00,26.146529,87.454184,CO,10,34,23
India,Bihar,Arrah,"New DM Office, Arrah - BSPCB",17-01-2026 08:00:00,25.5626095,84.663264,PM2.5,43,93,71
India,Bihar,Arrah,"New DM Office, Arrah - BSPCB",17-01-2026 08:00:00,25.5626095,84.663264,NO2,5,9,7
India,Bihar,Arrah,"New DM Office, Arrah - BSPCB",17-01-2026 08:00:00,25.5626095,84.663264,NH3,1,1,1
India,Bihar,Aurangabad,"Gurdeo Nagar, Aurangabad - BSPCB",17-01-2026 08:00:00,24.75746,84.366208,PM2.5,NA,NA,NA
India,Bihar,Aurangabad,"Gurdeo Nagar, Aurangabad - BSPCB",17-01-2026 08:00:00,24.75746,84.366208,PM10,12,162,110
India,Bihar,Begusarai,"Lohiyanagar, Begusarai - BSPCB",17-01-2026 08:00:00,25.42742023,86.13886079,SO2,24,33,29
India,Bihar,Patna,"IGSC Planetarium Complex, Patna - BSPCB",17-01-2026 08:00:00,25.610369,85.132568,CO,69,94,71
India,Bihar,Patna,"Muradpur, Patna - BSPCB",17-01-2026 08:00:00,25.619651,85.147382,PM10,109,212,150
India,Bihar,Patna,"Muradpur, Patna - BSPCB",17-01-2026 08:00:00,25.619651,85.147382,SO2,7,9,8
India,Bihar,Patna,"Muradpur, Patna - BSPCB",17-01-2026 08:00:00,25.619651,85.147382,OZONE,4,15,5
India,Bihar,Patna,"Rajbansi Nagar, Patna - BSPCB",17-01-2026 08:00:00,25.599486,85.113666,PM2.5,92,242,154
India,Bihar,Purnia,"Mariam Nagar, Purnia - BSPCB",17-01-2026 08:00:00,25.366336,87.117468,PM2.5,88,187,133
India,Bihar,Purnia,"Mariam Nagar, Purnia - BSPCB",17-01-2026 08:00:00,25.366336,87.117468,OZONE,22,44,24
India,Bihar,Bettiah,"Kamalnath Nagar, Bettiah - BSPCB",17-01-2026 08:00:00,26.80365,84.51954,PM10,58,171,108
India,Bihar,Bettiah,"Kamalnath Nagar, Bettiah - BSPCB",17-01-2026 08:00:00,26.80365,84.51954,NO2,8,9,8
India,Bihar,Bhagalpur,"Mayaganj, Bhagalpur - BSPCB",17-01-2026 08:00:00,25.265194,87.012947,NO2,7,10,7
India,Bihar,Bhagalpur,"Mayaganj, Bhagalpur - BSPCB",17-01-2026 08:00:00,25.265194,87.012947,NH3,9,11,10
India,Bihar,Bihar Sharif,"D M Colony, Bihar Sharif - BSPCB",17-01-2026 08:00:00,25.204762,85.514960,OZONE,1,12,4
India,Bihar,Buxar,"Charitra Van, Buxar - BSPCB",17-01-2026 08:00:00,25.567520,83.966379,PM2.5,83,230,149
India,Bihar,Katihar,"Mirchaibari, Katihar - BSPCB",17-01-2026 08:00:00,25.560083,87.553265,NO2,8,10,9
India,Bihar,Katihar,"Mirchaibari, Katihar - BSPCB",17-01-2026 08:00:00,25.560083,87.553265,SO2,13,21,17
India,Bihar,Manguraha,"Forest Rest House, Manguraha - BSPCB",17-01-2026 08:00:00,27.308328,84.531742,PM2.5,72,335,116
India,Bihar,Manguraha,"Forest Rest House, Manguraha - BSPCB",17-01-2026 08:00:00,27.308328,84.531742,CO,31,34,33
India,Bihar,Munger,"Town Hall, Munger - BSPCB",17-01-2026 08:00:00,25.376776,86.471523,PM2.5,83,328,168
India,Bihar,Munger,"Town Hall, Munger - BSPCB",17-01-2026 08:00:00,25.376776,86.471523,NO2,4,5,5
India,Bihar,Munger,"Town Hall, Munger - BSPCB",17-01-2026 08:00:00,25.376776,86.471523,SO2,39,102,57
India,Andhra_Pradesh,Anantapur,"Gulzarpet, Anantapur - APPCB",17-01-2026 08:00:00,14.675886,77.593027,OZONE,7,24,11
India,Andhra_Pradesh,Chittoor,"Gangineni Cheruvu, Chittoor - APPCB",17-01-2026 08:00:00,13.204880,79.097889,CO,8,14,13
India,Andhra_Pradesh,Chittoor,"Gangineni Cheruvu, Chittoor - APPCB",17-01-2026 08:00:00,13.204880,79.097889,OZONE,55,61,56
India,Andhra_Pradesh,Tirumala,"Toll Gate, Tirumala - APPCB",17-01-2026 08:00:00,13.67,79.35,PM2.5,98,233,147
India,Andhra_Pradesh,Tirumala,"Toll Gate, Tirumala - APPCB",17-01-2026 08:00:00,13.67,79.35,CO,17,47,22
India,Andhra_Pradesh,Tirupati,"Vaikuntapuram, Tirupati - APPCB",17-01-2026 08:00:00,13.615387,79.409230,SO2,15,16,15
India,Andhra_Pradesh,Vijayawada,"HB Colony, Vijayawada - APPCB",17-01-2026 08:00:00,16.536107,80.594233,SO2,18,21,19
India,Andhra_Pradesh,Vijayawada,"Kanuru, Vijayawada - APPCB",17-01-2026 08:00:00,16.486692,80.699436,NH3,5,5,5
India,Andhra_Pradesh,Vijayawada,"Kanuru, Vijayawada - APPCB",17-01-2026 08:00:00,16.486692,80.699436,SO2,13,17,15
India,Andhra_Pradesh,Vijayawada,"Rajiv Gandhi Park, Vijayawada - APPCB",17-01-2026 08:00:00,16.509717,80.612222,NO2,NA,NA,NA
India,Assam,Guwahati,"Railway Colony, Guwahati - PCBA",17-01-2026 08:00:00,26.181742,91.78063,NO2,3,4,3
India,Assam,Nagaon,"Christianpatty, Nagaon - PCBA",17-01-2026 08:00:00,26.349082,92.68449,NH3,4,4,4
India,Assam,Nalbari,"Bata Chowk, Nalbari - PCBA",17-01-2026 08:00:00,26.446912,91.439057,PM2.5,124,170,147
India,Assam,Nalbari,"Bata Chowk, Nalbari - PCBA",17-01-2026 08:00:00,26.446912,91.439057,OZONE,15,16,16
India,Bihar,Gaya,"Collectorate, Gaya - BSPCB",17-01-2026 08:00:00,24.7955,84.9994,PM2.5,55,310,155
India,Bihar,Gaya,"Collectorate, Gaya - BSPCB",17-01-2026 08:00:00,24.7955,84.9994,OZONE,NA,NA,NA
India,Bihar,Gaya,"Kareemganj, Gaya - BSPCB",17-01-2026 08:00:00,24.792403,84.992416,NO2,1,8,5
India,Bihar,Hajipur,"Industrial Area, Hajipur - BSPCB",17-01-2026 08:00:00,25.697189,85.245900,PM2.5,149,325,252
India,Bihar,Muzaffarpur,"Muzaffarpur Collectorate, Muzaffarpur - BSPCB",17-01-2026 08:00:00,26.1209,85.3647,PM2.5,85,123,101
India,Bihar,Patna,"Govt. High School Shikarpur, Patna - BSPCB",17-01-2026 08:00:00,25.592539,85.227158,NH3,NA,NA,NA
India,Bihar,Patna,"IGSC Planetarium Complex, Patna - BSPCB",17-01-2026 08:00:00,25.610369,85.132568,PM2.5,152,384,258
India,Delhi,Delhi,"Aya Nagar, Delhi - IMD",17-01-2026 08:00:00,28.4706914,77.1099364,NO2,7,113,43
India,Delhi,Delhi,"Bawana, Delhi - DPCC",17-01-2026 08:00:00,28.776200,77.051074,SO2,8,11,10
India,Delhi,Delhi,"Bawana, Delhi - DPCC",17-01-2026 08:00:00,28.776200,77.051074,CO,46,132,97
India,Delhi,Delhi,"Burari Crossing, Delhi - IMD",17-01-2026 08:00:00,28.7256504,77.2011573,PM10,148,467,295
India,Delhi,Delhi,"Burari Crossing, Delhi - IMD",17-01-2026 08:00:00,28.7256504,77.2011573,CO,40,116,99
India,Delhi,Delhi,"CRRI Mathura Road, Delhi - IMD",17-01-2026 08:00:00,28.5512005,77.2735737,PM10,139,477,276
India,Delhi,Delhi,"CRRI Mathura Road, Delhi - IMD",17-01-2026 08:00:00,28.5512005,77.2735737,CO,40,146,110
India,Delhi,Delhi,"CRRI Mathura Road, Delhi - IMD",17-01-2026 08:00:00,28.5512005,77.2735737,OZONE,9,94,10
India,Delhi,Delhi,"Chandni Chowk, Delhi - IITM",17-01-2026 08:00:00,28.656756,77.227234,NO2,35,128,75
India,Delhi,Delhi,"Chandni Chowk, Delhi - IITM",17-01-2026 08:00:00,28.656756,77.227234,SO2,8,34,22
India,Delhi,Delhi,"DTU, Delhi - CPCB",17-01-2026 08:00:00,28.7500499,77.1112615,SO2,29,41,33
India,Delhi,Delhi,"DTU, Delhi - CPCB",17-01-2026 08:00:00,28.7500499,77.1112615,CO,32,106,104
India,Chhattisgarh,Raipur,"Siltara Phase-II, Raipur - CECB",17-01-2026 08:00:00,21.371751,81.664929,NO2,49,63,54
India,Chhattisgarh,Tumidih,"OP Jindal Industrial Park, Tumidih - CECB",17-01-2026 08:00:00,22.06631475,83.33820077,SO2,5,9,6
India,Delhi,Delhi,"Alipur, Delhi - DPCC",17-01-2026 08:00:00,28.815329,77.153010,NO2,42,64,55
India,Delhi,Delhi,"Alipur, Delhi - DPCC",17-01-2026 08:00:00,28.815329,77.153010,CO,64,100,91
India,Delhi,Delhi,"Alipur, Delhi - DPCC",17-01-2026 08:00:00,28.815329,77.153010,OZONE,4,60,4
India,Delhi,Delhi,"Anand Vihar, Delhi - DPCC",17-01-2026 08:00:00,28.647622,77.3158090,NO2,12,66,36
India,Delhi,Delhi,"Anand Vihar, Delhi - DPCC",17-01-2026 08:00:00,28.647622,77.3158090,NH3,3,9,7
India,Delhi,Delhi,"Anand Vihar, Delhi - DPCC",17-01-2026 08:00:00,28.647622,77.3158090,OZONE,1,306,15
India,Delhi,Delhi,"Ashok Vihar, Delhi - DPCC",17-01-2026 08:00:00,28.695381,77.181665,PM2.5,NA,NA,NA
India,Delhi,Delhi,"Ashok Vihar, Delhi - DPCC",17-01-2026 08:00:00,28.695381,77.181665,SO2,14,23,16
India,Delhi,Delhi,"Ashok Vihar, Delhi - DPCC",17-01-2026 08:00:00,28.695381,77.181665,OZONE,4,130,5
India,Chandigarh,Chandigarh,"Sector-25, Chandigarh - CPCC",17-01-2026 08:00:00,30.751462,76.762879,NO2,10,32,20
India,Chandigarh,Chandigarh,"Sector-25, Chandigarh - CPCC",17-01-2026 08:00:00,30.751462,76.762879,NH3,2,6,4
India,Chandigarh,Chandigarh,"Sector-53, Chandigarh - CPCC",17-01-2026 08:00:00,30.719859,76.738637,PM10,84,316,153
India,Chhattisgarh,Bhilai,"32Bungalows, Bhilai - CECB",17-01-2026 08:00:00,21.194815,81.314770,PM2.5,11,60,33
India,Chhattisgarh,Bhilai,"32Bungalows, Bhilai - CECB",17-01-2026 08:00:00,21.194815,81.314770,PM10,23,130,58
India,Chhattisgarh,Bhilai,"32Bungalows, Bhilai - CECB",17-01-2026 08:00:00,21.194815,81.314770,NO2,25,70,47
India,Bihar,Rajgir,"Dangi Tola, Rajgir - BSPCB",17-01-2026 08:00:00,25.03280,85.41948,SO2,11,25,21
India,Bihar,Rajgir,"Dangi Tola, Rajgir - BSPCB",17-01-2026 08:00:00,25.03280,85.41948,CO,45,101,85
India,Bihar,Saharsa,"Police Line, Saharsa - BSPCB",17-01-2026 08:00:00,25.892357,86.590325,NO2,5,7,7
India,Bihar,Siwan,"Chitragupta Nagar, Siwan - BSPCB",17-01-2026 08:00:00,26.2271665,84.3570427,PM10,131,255,178
India,Bihar,Siwan,"Chitragupta Nagar, Siwan - BSPCB",17-01-2026 08:00:00,26.2271665,84.3570427,NH3,1,2,1
India,Delhi,Delhi,"Dr. Karni Singh Shooting Range, Delhi - DPCC",17-01-2026 08:00:00,28.498571,77.264840,CO,24,126,101
India,Delhi,Delhi,"IGI Airport (T3), Delhi - IMD",17-01-2026 08:00:00,28.5627763,77.1180053,OZONE,9,62,11
India,Delhi,Delhi,"IIT Delhi, Delhi - IITM",17-01-2026 08:00:00,28.542460,77.191651,OZONE,5,64,12
India,Chhattisgarh,Korba,"Rampur, Korba - CECB",17-01-2026 08:00:00,22.368195,82.746431,NO2,23,38,30
India,Chhattisgarh,Korba,"Rampur, Korba - CECB",17-01-2026 08:00:00,22.368195,82.746431,OZONE,1,16,3
India,Chhattisgarh,Korba,"Urja Nagar, Korba - CECB",17-01-2026 08:00:00,22.348441,82.549611,PM10,2,135,49
India,Chhattisgarh,Korba,"Urja Nagar, Korba - CECB",17-01-2026 08:00:00,22.348441,82.549611,NH3,1,1,1
India,Chhattisgarh,Milupara,"Govt. Higher Secondary School, Milupara - CECB",17-01-2026 08:00:00,22.1910172,83.5197009,OZONE,5,110,13
India,Chhattisgarh,Raipur,"Krishak Nagar, Raipur - CECB",17-01-2026 08:00:00,21.237755,81.705301,SO2,4,7,6
India,Chhattisgarh,Kunjemura,"OP Jindal School, Kunjemura - CECB",17-01-2026 08:00:00,22.126650,83.483212,SO2,4,83,19
India,Chhattisgarh,Kunjemura,"OP Jindal School, Kunjemura - CECB",17-01-2026 08:00:00,22.126650,83.483212,OZONE,1,61,1
India,Chhattisgarh,Chhal,"Nawapara SECL Colony, Chhal - CECB",17-01-2026 08:00:00,22.118125,83.140608,NH3,NA,NA,NA
India,Delhi,Delhi,"Wazirpur, Delhi - DPCC",17-01-2026 08:00:00,28.699793,77.165453,SO2,2,8,5
India,Delhi,Delhi,"Wazirpur, Delhi - DPCC",17-01-2026 08:00:00,28.699793,77.165453,OZONE,48,72,62
India,Gujarat,Ahmedabad,"Chandkheda, Ahmedabad - IITM",17-01-2026 08:00:00,23.107969,72.574648,PM10,107,200,141
India,Gujarat,Ahmedabad,"Chandkheda, Ahmedabad - IITM",17-01-2026 08:00:00,23.107969,72.574648,NH3,3,10,6
India,Gujarat,Ahmedabad,"Chandkheda, Ahmedabad - IITM",17-01-2026 08:00:00,23.107969,72.574648,SO2,8,21,12
India,Gujarat,Ahmedabad,"Chandkheda, Ahmedabad - IITM",17-01-2026 08:00:00,23.107969,72.574648,OZONE,1,58,5
India,Gujarat,Ahmedabad,"Gyaspur, Ahmedabad - IITM",17-01-2026 08:00:00,22.977134,72.553024,SO2,59,136,107
India,Gujarat,Ahmedabad,"Gyaspur, Ahmedabad - IITM",17-01-2026 08:00:00,22.977134,72.553024,CO,40,114,75
India,Gujarat,Ahmedabad,"Maninagar, Ahmedabad - GPCB",17-01-2026 08:00:00,23.002657,72.591912,PM10,NA,NA,NA
India,Gujarat,Ahmedabad,"Raikhad, Ahmedabad - IITM",17-01-2026 08:00:00,23.020509,72.579261,OZONE,3,64,6
India,Gujarat,Ahmedabad,"Rakhial, Ahmedabad - IITM",17-01-2026 08:00:00,23.016834,72.625775,PM10,88,150,121
India,Gujarat,Gandhinagar,"IIPHG Lekawada, Gandhinagar - IITM",17-01-2026 08:00:00,23.243639,72.68994,PM2.5,6,171,94
India,Gujarat,Gandhinagar,"IIPHG Lekawada, Gandhinagar - IITM",17-01-2026 08:00:00,23.243639,72.68994,PM10,68,134,105
India,Gujarat,Gandhinagar,"IIPHG Lekawada, Gandhinagar - IITM",17-01-2026 08:00:00,23.243639,72.68994,NO2,8,9,8
India,Gujarat,Gandhinagar,"Sector-10, Gandhinagar - GPCB",17-01-2026 08:00:00,23.221714,72.654328,PM10,80,285,132
India,Gujarat,Gandhinagar,"Sector-10, Gandhinagar - GPCB",17-01-2026 08:00:00,23.221714,72.654328,NO2,28,79,44
India,Gujarat,Surat,"Science Center, Surat - SMC",17-01-2026 08:00:00,21.170046,72.795405,NO2,16,16,16
India,Gujarat,Vatva,"Phase-4 GIDC, Vatva - GPCB",17-01-2026 08:00:00,22.969611,72.643500,NH3,6,13,9
India,Haryana,Ambala,"Patti Mehar, Ambala - HSPCB",17-01-2026 08:00:00,30.379589,76.778328,PM2.5,45,186,109
India,Haryana,Ambala,"Patti Mehar, Ambala - HSPCB",17-01-2026 08:00:00,30.379589,76.778328,NH3,9,11,10
India,Haryana,Ambala,"Patti Mehar, Ambala - HSPCB",17-01-2026 08:00:00,30.379589,76.778328,SO2,15,31,22
India,Haryana,Bahadurgarh,"Arya Nagar, Bahadurgarh - HSPCB",17-01-2026 08:00:00,28.6701,76.9254,OZONE,16,19,18
India,Haryana,Ballabgarh,"Nathu Colony, Ballabgarh - HSPCB",17-01-2026 08:00:00,28.3419248,77.319699,PM2.5,124,340,245
India,Haryana,Ballabgarh,"Nathu Colony, Ballabgarh - HSPCB",17-01-2026 08:00:00,28.3419248,77.319699,SO2,3,6,5
India,Haryana,Ballabgarh,"Nathu Colony, Ballabgarh - HSPCB",17-01-2026 08:00:00,28.3419248,77.319699,OZONE,15,15,15
India,Haryana,Bhiwani,"H.B. Colony, Bhiwani - HSPCB",17-01-2026 08:00:00,28.806223,76.141105,NH3,1,9,8
India,Delhi,Delhi,"Jawaharlal Nehru Stadium, Delhi - DPCC",17-01-2026 08:00:00,28.580280,77.233829,NO2,39,136,81
India,Delhi,Delhi,"Jawaharlal Nehru Stadium, Delhi - DPCC",17-01-2026 08:00:00,28.580280,77.233829,CO,115,192,157
India,Delhi,Delhi,"Jawaharlal Nehru Stadium, Delhi - DPCC",17-01-2026 08:00:00,28.580280,77.233829,OZONE,3,191,7
India,Delhi,Delhi,"Lodhi Road, Delhi - IMD",17-01-2026 08:00:00,28.5918245,77.2273074,PM2.5,142,449,323
India,Delhi,Delhi,"Lodhi Road, Delhi - IMD",17-01-2026 08:00:00,28.5918245,77.2273074,CO,44,110,107
India,Delhi,Delhi,"Lodhi Road, Delhi - IMD",17-01-2026 08:00:00,28.5918245,77.2273074,OZONE,9,85,13
India,Delhi,Delhi,"Mandir Marg, Delhi - DPCC",17-01-2026 08:00:00,28.636429,77.201067,CO,52,149,96
India,Delhi,Delhi,"Mandir Marg, Delhi - DPCC",17-01-2026 08:00:00,28.636429,77.201067,OZONE,6,17,10
India,Delhi,Delhi,"Mundka, Delhi - DPCC",17-01-2026 08:00:00,28.684678,77.076574,SO2,3,62,24
India,Delhi,Delhi,"Mundka, Delhi - DPCC",17-01-2026 08:00:00,28.684678,77.076574,CO,39,170,105
India,Delhi,Delhi,"Najafgarh, Delhi - DPCC",17-01-2026 08:00:00,28.570173,76.933762,OZONE,3,66,5
India,Delhi,Delhi,"Narela, Delhi - DPCC",17-01-2026 08:00:00,28.822836,77.101981,PM2.5,202,468,351
India,Delhi,Delhi,"Narela, Delhi - DPCC",17-01-2026 08:00:00,28.822836,77.101981,NO2,21,72,39
India,Delhi,Delhi,"Shadipur, Delhi - CPCB",17-01-2026 08:00:00,28.6514781,77.1473105,PM10,181,500,338
India,Delhi,Delhi,"Sri Aurobindo Marg, Delhi - DPCC",17-01-2026 08:00:00,28.531346,77.190156,NO2,5,81,38
India,Delhi,Delhi,"Vivek Vihar, Delhi - DPCC",17-01-2026 08:00:00,28.672342,77.315260,SO2,7,30,15
India,Delhi,Delhi,"Vivek Vihar, Delhi - DPCC",17-01-2026 08:00:00,28.672342,77.315260,CO,55,155,64
India,Delhi,Delhi,"Vivek Vihar, Delhi - DPCC",17-01-2026 08:00:00,28.672342,77.315260,OZONE,2,151,3
India,Gujarat,Ahmedabad,"Rakhial, Ahmedabad - IITM",17-01-2026 08:00:00,23.016834,72.625775,SO2,22,61,37
India,Gujarat,Ahmedabad,"SAC ISRO Satellite, Ahmedabad - IITM",17-01-2026 08:00:00,23.023389,72.515201,PM10,95,130,109
India,Gujarat,Ahmedabad,"SAC ISRO Satellite, Ahmedabad - IITM",17-01-2026 08:00:00,23.023389,72.515201,NO2,3,41,14
India,Gujarat,Ankleshwar,"GIDC, Ankleshwar - GPCB",17-01-2026 08:00:00,21.613267,73.010555,NO2,19,25,24
India,Delhi,Delhi,"Punjabi Bagh, Delhi - DPCC",17-01-2026 08:00:00,28.674045,77.131023,SO2,2,19,12
India,Delhi,Delhi,"Pusa, Delhi - IMD",17-01-2026 08:00:00,28.636110,77.173332,OZONE,42,282,46
India,Delhi,Delhi,"R K Puram, Delhi - DPCC",17-01-2026 08:00:00,28.563262,77.186937,SO2,19,112,53
India,Delhi,Delhi,"Patparganj, Delhi - DPCC",17-01-2026 08:00:00,28.623763,77.287209,PM10,215,476,339
India,Delhi,Delhi,"Punjabi Bagh, Delhi - DPCC",17-01-2026 08:00:00,28.674045,77.131023,PM10,NA,NA,NA
India,Haryana,Rohtak,"MD University, Rohtak - HSPCB",17-01-2026 08:00:00,28.52123,76.37138,PM2.5,77,404,214
India,Haryana,Rohtak,"MD University, Rohtak - HSPCB",17-01-2026 08:00:00,28.52123,76.37138,PM10,66,321,138
India,Haryana,Rohtak,"MD University, Rohtak - HSPCB",17-01-2026 08:00:00,28.52123,76.37138,SO2,10,13,12
India,Haryana,Sirsa,"F-Block, Sirsa - HSPCB",17-01-2026 08:00:00,29.536400,75.015800,NO2,15,24,20
India,Haryana,Sirsa,"F-Block, Sirsa - HSPCB",17-01-2026 08:00:00,29.536400,75.015800,NH3,11,16,13
India,Haryana,Sirsa,"F-Block, Sirsa - HSPCB",17-01-2026 08:00:00,29.536400,75.015800,SO2,1,19,11
India,Haryana,Sirsa,"F-Block, Sirsa - HSPCB",17-01-2026 08:00:00,29.536400,75.015800,OZONE,34,50,43
India,Haryana,Sonipat,"Murthal, Sonipat - HSPCB",17-01-2026 08:00:00,29.027200,77.062100,SO2,7,12,8
India,Haryana,Sonipat,"Murthal, Sonipat - HSPCB",17-01-2026 08:00:00,29.027200,77.062100,CO,50,89,76
India,Haryana,Yamuna Nagar,"Gobind Pura, Yamuna Nagar - HSPCB",17-01-2026 08:00:00,30.1480566,77.2893471,NH3,1,6,4
India,Haryana,Yamuna Nagar,"Gobind Pura, Yamuna Nagar - HSPCB",17-01-2026 08:00:00,30.1480566,77.2893471,SO2,10,15,12
India,Himachal Pradesh,Baddi,"HIMUDA Complex Phase-1, Baddi - HPPCB",17-01-2026 08:00:00,30.943887,76.801991,NO2,1,29,15
India,Himachal Pradesh,Baddi,"HIMUDA Complex Phase-1, Baddi - HPPCB",17-01-2026 08:00:00,30.943887,76.801991,NH3,2,4,2
India,Karnataka,Bengaluru,"Jigani, Bengaluru - KSPCB",17-01-2026 08:00:00,12.7816279,77.6299145,NO2,24,25,24
India,Karnataka,Bengaluru,"Peenya, Bengaluru - CPCB",17-01-2026 08:00:00,13.0270199,77.494094,NH3,3,4,4
India,Karnataka,Bengaluru,"Peenya, Bengaluru - CPCB",17-01-2026 08:00:00,13.0270199,77.494094,SO2,5,20,11
India,Karnataka,Bengaluru,"RVCE-Mailasandra, Bengaluru - KSPCB",17-01-2026 08:00:00,12.921418,77.502466,PM2.5,30,441,150
India,Karnataka,Bengaluru,"RVCE-Mailasandra, Bengaluru - KSPCB",17-01-2026 08:00:00,12.921418,77.502466,NO2,16,21,21
India,Karnataka,Bengaluru,"Sanegurava Halli, Bengaluru - KSPCB",17-01-2026 08:00:00,12.990328,77.5431385,NO2,17,19,18
India,Karnataka,Bengaluru,"Shivapura_Peenya, Bengaluru - KSPCB",17-01-2026 08:00:00,13.0246342,77.5080115,PM10,91,175,120
India,Karnataka,Bengaluru,"Shivapura_Peenya, Bengaluru - KSPCB",17-01-2026 08:00:00,13.0246342,77.5080115,OZONE,21,22,21
India,Karnataka,Bengaluru,"Silk Board, Bengaluru - KSPCB",17-01-2026 08:00:00,12.917348,77.622813,PM2.5,69,194,93
India,Karnataka,Bengaluru,"Silk Board, Bengaluru - KSPCB",17-01-2026 08:00:00,12.917348,77.622813,NH3,5,8,6
India,Karnataka,Chamarajanagar,"Urban, Chamarajanagar - KSPCB",17-01-2026 08:00:00,11.55358,76.55521,NO2,14,36,27
India,Karnataka,Chamarajanagar,"Urban, Chamarajanagar - KSPCB",17-01-2026 08:00:00,11.55358,76.55521,NH3,1,3,2
India,Karnataka,Chamarajanagar,"Urban, Chamarajanagar - KSPCB",17-01-2026 08:00:00,11.55358,76.55521,SO2,2,8,4
India,Karnataka,Chikkaballapur,"Chikkaballapur Rural, Chikkaballapur - KSPCB",17-01-2026 08:00:00,13.428828,77.731418,PM2.5,56,222,115
India,Karnataka,Chikkamagaluru,"Kalyana Nagara, Chikkamagaluru - KSPCB",17-01-2026 08:00:00,13.328028,75.797056,SO2,2,10,5
India,Karnataka,Davanagere,"Devaraj Urs Badavane, Davanagere - KSPCB",17-01-2026 08:00:00,14.475800,75.905200,PM10,57,100,70
India,Karnataka,Davanagere,"Devaraj Urs Badavane, Davanagere - KSPCB",17-01-2026 08:00:00,14.475800,75.905200,NH3,2,3,3
India,Karnataka,Davanagere,"Devaraj Urs Badavane, Davanagere - KSPCB",17-01-2026 08:00:00,14.475800,75.905200,SO2,1,6,3
India,Karnataka,Davanagere,"Devaraj Urs Badavane, Davanagere - KSPCB",17-01-2026 08:00:00,14.475800,75.905200,OZONE,19,21,20
India,Jammu_and_Kashmir,Srinagar,"Khunmoh, Srinagar - JKPCC",17-01-2026 08:00:00,34.06313,74.96017,PM2.5,74,106,92
India,Jammu_and_Kashmir,Srinagar,"Rajbagh, Srinagar - JKPCC",17-01-2026 08:00:00,34.066206,74.819820,CO,10,18,13
India,Jammu_and_Kashmir,Srinagar,"Rajbagh, Srinagar - JKPCC",17-01-2026 08:00:00,34.066206,74.819820,OZONE,NA,NA,NA
India,Jharkhand,Dhanbad,"Sardar Patel Nagar, Dhanbad - JSPCB",17-01-2026 08:00:00,23.80569,86.44268,SO2,22,28,27
India,Jharkhand,Dhanbad,"Sardar Patel Nagar, Dhanbad - JSPCB",17-01-2026 08:00:00,23.80569,86.44268,OZONE,NA,NA,NA
India,Karnataka,Bagalkot,"Vidayagiri, Bagalkot - KSPCB",17-01-2026 08:00:00,16.172806,75.659694,NO2,11,12,12
India,Karnataka,Bagalkot,"Vidayagiri, Bagalkot - KSPCB",17-01-2026 08:00:00,16.172806,75.659694,SO2,7,7,7
India,Karnataka,Belgaum,"Ramteerth Nagar, Belgaum - KSPCB",17-01-2026 08:00:00,15.888653,74.541751,NO2,36,124,56
India,Haryana,Manesar,"Sector-2 IMT, Manesar - HSPCB",17-01-2026 08:00:00,28.360699,76.936090,SO2,9,14,11
India,Haryana,Narnaul,"Shastri Nagar, Narnaul - HSPCB",17-01-2026 08:00:00,28.060249,76.113115,NO2,58,86,71
India,Haryana,Narnaul,"Shastri Nagar, Narnaul - HSPCB",17-01-2026 08:00:00,28.060249,76.113115,SO2,6,7,7
India,Haryana,Palwal,"Shyam Nagar, Palwal - HSPCB",17-01-2026 08:00:00,28.1485564,77.3320667,CO,20,82,44
India,Haryana,Panchgaon,"Amity University, Panchgaon - IITM",17-01-2026 08:00:00,28.3153,76.9143,PM2.5,26,210,93
India,Haryana,Panchkula,"Sector-6, Panchkula - HSPCB ",17-01-2026 08:00:00,30.7057778,76.8531805555555,CO,4,22,4
India,Haryana,Fatehabad,"Huda Sector, Fatehabad - HSPCB",17-01-2026 08:00:00,29.503664,75.467934,OZONE,58,65,61
India,Haryana,Gurugram,"Sector-51, Gurugram - HSPCB",17-01-2026 08:00:00,28.4227,77.0667,SO2,1,6,3
India,Haryana,Gurugram,"Sector-51, Gurugram - HSPCB",17-01-2026 08:00:00,28.4227,77.0667,CO,24,116,84
India,Haryana,Gurugram,"Vikas Sadan, Gurugram - HSPCB",17-01-2026 08:00:00,28.4501238,77.0263051,PM10,186,500,391
India,Haryana,Gurugram,"Vikas Sadan, Gurugram - HSPCB",17-01-2026 08:00:00,28.4501238,77.0263051,CO,66,114,96
India,Haryana,Hisar,"Urban Estate-II, Hisar - HSPCB",17-01-2026 08:00:00,29.140560,75.744941,PM10,103,178,135
India,Haryana,Hisar,"Urban Estate-II, Hisar - HSPCB",17-01-2026 08:00:00,29.140560,75.744941,NH3,10,11,11
India,Haryana,Jind,"Police Lines, Jind - HSPCB",17-01-2026 08:00:00,29.307814,76.337619,PM2.5,90,314,192
India,Haryana,Jind,"Police Lines, Jind - HSPCB",17-01-2026 08:00:00,29.307814,76.337619,SO2,1,3,2
India,Haryana,Jind,"Police Lines, Jind - HSPCB",17-01-2026 08:00:00,29.307814,76.337619,OZONE,4,26,4
India,Haryana,Karnal,"Sector-12, Karnal - HSPCB",17-01-2026 08:00:00,29.695300,77.002700,NO2,6,7,6
India,Haryana,Karnal,"Sector-12, Karnal - HSPCB",17-01-2026 08:00:00,29.695300,77.002700,SO2,6,7,6
India,Haryana,Karnal,"Sector-12, Karnal - HSPCB",17-01-2026 08:00:00,29.695300,77.002700,OZONE,32,32,32
India,Haryana,Mandikhera,"General Hospital, Mandikhera(Nuh) - HSPCB",17-01-2026 08:00:00,27.9002,76.9938,NO2,20,24,21
India,Haryana,Mandikhera,"General Hospital, Mandikhera(Nuh) - HSPCB",17-01-2026 08:00:00,27.9002,76.9938,NH3,13,14,13
India,Karnataka,Bengaluru,"BWSSB Kadabesanahalli, Bengaluru - CPCB",17-01-2026 08:00:00,12.9352049,77.6814488,PM10,118,347,176
India,Karnataka,Bengaluru,"BWSSB Kadabesanahalli, Bengaluru - CPCB",17-01-2026 08:00:00,12.9352049,77.6814488,NH3,NA,NA,NA
India,Karnataka,Bengaluru,"Bapuji Nagar, Bengaluru - KSPCB",17-01-2026 08:00:00,12.951913,77.539784,NH3,2,2,2
India,Karnataka,Bengaluru,"Bapuji Nagar, Bengaluru - KSPCB",17-01-2026 08:00:00,12.951913,77.539784,CO,1,62,9
India,Karnataka,Bengaluru,"Hombegowda Nagar, Bengaluru - KSPCB",17-01-2026 08:00:00,12.938539,77.590100,PM10,52,101,77
India,Karnataka,Bengaluru,"Hombegowda Nagar, Bengaluru - KSPCB",17-01-2026 08:00:00,12.938539,77.590100,CO,13,40,18
India,Haryana,Dharuhera,"Municipal Corporation Office, Dharuhera -  HSPCB",17-01-2026 08:00:00,28.206800,76.799700,SO2,1,3,1
India,Haryana,Faridabad,"New Industrial Town, Faridabad - HSPCB",17-01-2026 08:00:00,28.39072,77.30059,NH3,11,12,11
India,Haryana,Faridabad,"New Industrial Town, Faridabad - HSPCB",17-01-2026 08:00:00,28.39072,77.30059,OZONE,24,37,31
India,Haryana,Faridabad,"Sector 11, Faridabad - HSPCB",17-01-2026 08:00:00,28.376058,77.315741,PM2.5,124,479,323
India,Kerala,Kollam,"Polayathode, Kollam - Kerala PCB",17-01-2026 08:00:00,8.8787,76.6073,NO2,8,10,9
India,Kerala,Kollam,"Polayathode, Kollam - Kerala PCB",17-01-2026 08:00:00,8.8787,76.6073,SO2,2,3,2
India,Kerala,Kollam,"Polayathode, Kollam - Kerala PCB",17-01-2026 08:00:00,8.8787,76.6073,CO,14,17,16
India,Kerala,Thiruvananthapuram,"Kariavattom, Thiruvananthapuram - Kerala PCB",17-01-2026 08:00:00,8.563700,76.886500,PM2.5,54,217,122
India,Kerala,Thiruvananthapuram,"Kariavattom, Thiruvananthapuram - Kerala PCB",17-01-2026 08:00:00,8.563700,76.886500,NH3,NA,NA,NA
India,Kerala,Thiruvananthapuram,"Kariavattom, Thiruvananthapuram - Kerala PCB",17-01-2026 08:00:00,8.563700,76.886500,SO2,1,19,9
India,Kerala,Thiruvananthapuram,"Kariavattom, Thiruvananthapuram - Kerala PCB",17-01-2026 08:00:00,8.563700,76.886500,CO,7,24,22
India,Kerala,Thiruvananthapuram,"Plammoodu, Thiruvananthapuram - Kerala PCB",17-01-2026 08:00:00,8.5149093,76.9435879,PM10,47,83,64
India,Kerala,Thiruvananthapuram,"Plammoodu, Thiruvananthapuram - Kerala PCB",17-01-2026 08:00:00,8.5149093,76.9435879,NO2,NA,NA,NA
India,Kerala,Thiruvananthapuram,"Plammoodu, Thiruvananthapuram - Kerala PCB",17-01-2026 08:00:00,8.5149093,76.9435879,SO2,5,23,16
India,Kerala,Thiruvananthapuram,"Plammoodu, Thiruvananthapuram - Kerala PCB",17-01-2026 08:00:00,8.5149093,76.9435879,CO,11,34,13
India,Kerala,Thiruvananthapuram,"Plammoodu, Thiruvananthapuram - Kerala PCB",17-01-2026 08:00:00,8.5149093,76.9435879,OZONE,9,36,30
India,Madhya Pradesh,Bhopal,"Idgah Hills, Bhopal - MPPCB",17-01-2026 08:00:00,23.264759,77.381568,PM2.5,48,210,105
India,Madhya Pradesh,Bhopal,"Idgah Hills, Bhopal - MPPCB",17-01-2026 08:00:00,23.264759,77.381568,SO2,12,18,13
India,Madhya Pradesh,Bhopal,"Paryavaran Parisar, Bhopal - MPPCB",17-01-2026 08:00:00,23.210494,77.425409,PM10,74,401,184
India,Madhya Pradesh,Mandideep,"Sector-D Industrial Area, Mandideep - MPPCB",17-01-2026 08:00:00,23.108440,77.511428,OZONE,3,21,4
India,Madhya Pradesh,Pithampur,"Sector-2 Industrial Area, Pithampur - MPPCB",17-01-2026 08:00:00,22.624758,75.675238,NO2,16,29,20
India,Madhya Pradesh,Pithampur,"Sector-2 Industrial Area, Pithampur - MPPCB",17-01-2026 08:00:00,22.624758,75.675238,OZONE,25,159,108
India,Madhya Pradesh,Sagar,"Civil Lines, Sagar - MPPCB",17-01-2026 08:00:00,23.838586,78.759431,NO2,10,74,26
India,Madhya Pradesh,Sagar,"Deen Dayal Nagar, Sagar - MPPCB",17-01-2026 08:00:00,23.8640158,78.80289321,CO,63,103,91
India,Madhya Pradesh,Satna,"Bandhavgar Colony, Satna - Birla Cement",17-01-2026 08:00:00,24.58434363,80.8549414,NO2,12,13,13
India,Madhya Pradesh,Satna,"Bandhavgar Colony, Satna - Birla Cement",17-01-2026 08:00:00,24.58434363,80.8549414,OZONE,NA,NA,NA
India,Madhya Pradesh,Singrauli,"Suryakiran Bhawan NCL, Singrauli - MPPCB",17-01-2026 08:00:00,24.108970,82.645580,PM2.5,64,388,240
India,Karnataka,Hubballi,"Lingaraj Nagar, Hubballi - KSPCB",17-01-2026 08:00:00,15.3714823,75.1160168,CO,13,34,26
India,Karnataka,Kalaburagi,"Mahatma Basaveswar Colony, Kalaburgi - KSPCB",17-01-2026 08:00:00,17.336318,76.847397,PM10,16,58,47
India,Karnataka,Kalaburagi,"Mahatma Basaveswar Colony, Kalaburgi - KSPCB",17-01-2026 08:00:00,17.336318,76.847397,NH3,3,3,3
India,Karnataka,Koppal,"Diwator Nagar, Koppal - KSPCB",17-01-2026 08:00:00,15.347630,76.181767,PM10,NA,NA,NA
India,Karnataka,Madikeri,"Stuart Hill, Madikeri - KSPCB",17-01-2026 08:00:00,12.415911,75.735050,PM10,29,58,43
India,Karnataka,Mysuru,"Hebbal 1st Stage, Mysuru - KSPCB",17-01-2026 08:00:00,12.21041,76.37376,PM10,55,91,73
India,Karnataka,Mysuru,"Hebbal 1st Stage, Mysuru - KSPCB",17-01-2026 08:00:00,12.21041,76.37376,NH3,4,5,5
India,Karnataka,Mysuru,"Hebbal 1st Stage, Mysuru - KSPCB",17-01-2026 08:00:00,12.21041,76.37376,CO,16,73,22
India,Karnataka,Ramanagara,"Vijay Nagar, Ramanagara - KSPCB",17-01-2026 08:00:00,12.733409,77.298051,NO2,NA,NA,NA
India,Madhya Pradesh,Jabalpur,"Govindh Bhavan Colony, Jabalpur - JMC",17-01-2026 08:00:00,23.163174,79.973061,NO2,16,22,18
India,Madhya Pradesh,Jabalpur,"Govindh Bhavan Colony, Jabalpur - JMC",17-01-2026 08:00:00,23.163174,79.973061,CO,34,52,41
India,Madhya Pradesh,Jabalpur,"Govindh Bhavan Colony, Jabalpur - JMC",17-01-2026 08:00:00,23.163174,79.973061,OZONE,10,84,10
India,Madhya Pradesh,Jabalpur,"Gupteshwar, Jabalpur - JMC",17-01-2026 08:00:00,23.142888,79.916147,PM2.5,17,173,82
India,Madhya Pradesh,Jabalpur,"Marhatal, Jabalpur - MPPCB",17-01-2026 08:00:00,23.168606,79.932247,PM2.5,20,345,130
India,Madhya Pradesh,Jabalpur,"Marhatal, Jabalpur - MPPCB",17-01-2026 08:00:00,23.168606,79.932247,NO2,14,64,29
India,Madhya Pradesh,Jabalpur,"Marhatal, Jabalpur - MPPCB",17-01-2026 08:00:00,23.168606,79.932247,OZONE,27,136,50
India,Madhya Pradesh,Jabalpur,"Suhagi, Jabalpur - JMC",17-01-2026 08:00:00,23.218135,79.957770,NH3,3,7,5
India,Madhya Pradesh,Katni,"Gole Bazar, Katni - MPPCB",17-01-2026 08:00:00,23.50016,80.23284,CO,15,140,96
India,Madhya Pradesh,Singrauli,"Suryakiran Bhawan NCL, Singrauli - MPPCB",17-01-2026 08:00:00,24.108970,82.645580,SO2,2,44,19
India,Madhya Pradesh,Singrauli,"Suryakiran Bhawan NCL, Singrauli - MPPCB",17-01-2026 08:00:00,24.108970,82.645580,OZONE,7,33,8
India,Madhya Pradesh,Ujjain,"Mahashweta Nagar, Ujjain - MPPCB",17-01-2026 08:00:00,23.1633321,75.800225,NH3,2,21,13
India,Maharashtra,Ahmednagar,"Tarakpur, Ahmednagar - MPCB",17-01-2026 08:00:00,19.10122,74.73339,OZONE,3,98,26
India,Maharashtra,Akola,"Ramdaspeth, Akola - MPCB",17-01-2026 08:00:00,20.719516,77.000253,PM10,52,155,94
India,Maharashtra,Amravati,"Shivneri Colony, Amravati - MPCB",17-01-2026 08:00:00,20.9402359,77.7895248,PM10,70,92,79
India,Maharashtra,Amravati,"Shivneri Colony, Amravati - MPCB",17-01-2026 08:00:00,20.9402359,77.7895248,NH3,4,5,4
India,Madhya Pradesh,Bhopal,"Paryavaran Parisar, Bhopal - MPPCB",17-01-2026 08:00:00,23.210494,77.425409,OZONE,2,45,10
India,Madhya Pradesh,Bhopal,"T T Nagar, Bhopal - MPPCB",17-01-2026 08:00:00,23.233584,77.400574,NH3,7,8,8
India,Madhya Pradesh,Dewas,"Bhopal Chauraha, Dewas - MPPCB",17-01-2026 08:00:00,22.9682591,76.064118,NO2,54,120,86
India,Madhya Pradesh,Dewas,"Bhopal Chauraha, Dewas - MPPCB",17-01-2026 08:00:00,22.9682591,76.064118,NH3,5,8,7
India,Madhya Pradesh,Dewas,"Bhopal Chauraha, Dewas - MPPCB",17-01-2026 08:00:00,22.9682591,76.064118,OZONE,24,100,28
India,Madhya Pradesh,Gwalior,"City Center, Gwalior - MPPCB",17-01-2026 08:00:00,26.203442,78.193251,PM10,55,211,119
India,Madhya Pradesh,Gwalior,"City Center, Gwalior - MPPCB",17-01-2026 08:00:00,26.203442,78.193251,CO,26,134,40
India,Madhya Pradesh,Gwalior,"Deen Dayal Nagar, Gwalior - MPPCB",17-01-2026 08:00:00,26.259242,78.216432,PM2.5,NA,NA,NA
India,Madhya Pradesh,Gwalior,"Maharaj Bada, Gwalior - MPPCB",17-01-2026 08:00:00,26.200388,78.147714,PM2.5,40,388,165
India,Madhya Pradesh,Indore,"Chhoti Gwaltoli, Indore - MPPCB",17-01-2026 08:00:00,22.4310,75.5213,PM10,48,201,119
India,Madhya Pradesh,Indore,"Residency Area, Indore - IMC",17-01-2026 08:00:00,22.7084,75.8815,PM2.5,35,191,98
India,Madhya Pradesh,Indore,"Residency Area, Indore - IMC",17-01-2026 08:00:00,22.7084,75.8815,SO2,4,10,6
India,Madhya Pradesh,Indore,"Residency Area, Indore - IMC",17-01-2026 08:00:00,22.7084,75.8815,CO,8,101,72
India,Madhya Pradesh,Indore,"Residency Area, Indore - IMC",17-01-2026 08:00:00,22.7084,75.8815,OZONE,6,20,8
India,Kerala,Kannur,"Thavakkara, Kannur - Kerala PCB",17-01-2026 08:00:00,11.875000,75.373200,PM2.5,50,94,63
India,Kerala,Kannur,"Thavakkara, Kannur - Kerala PCB",17-01-2026 08:00:00,11.875000,75.373200,NO2,14,17,15
India,Karnataka,Shivamogga,"Vinoba Nagara, Shivamogga - KSPCB",17-01-2026 08:00:00,13.940000,75.555917,NO2,15,19,16
India,Maharashtra,Kolhapur,"Sinchan Bhavan, Kolhapur - MPCB",17-01-2026 08:00:00,16.7143745,74.2426398,PM2.5,26,326,90
India,Maharashtra,Kolhapur,"Sinchan Bhavan, Kolhapur - MPCB",17-01-2026 08:00:00,16.7143745,74.2426398,NO2,1,48,17
India,Maharashtra,Kolhapur,"Sinchan Bhavan, Kolhapur - MPCB",17-01-2026 08:00:00,16.7143745,74.2426398,CO,24,78,38
India,Maharashtra,Kolhapur,"Sinchan Bhavan, Kolhapur - MPCB",17-01-2026 08:00:00,16.7143745,74.2426398,OZONE,1,49,6
India,Maharashtra,Latur,"Sawe Wadi, Latur - MPCB",17-01-2026 08:00:00,18.39963,76.57452,CO,18,73,27
India,Maharashtra,Mahad,"Kamble Tarf Birwadi, Mahad - MPCB",17-01-2026 08:00:00,18.1023399,73.4783687,OZONE,15,71,33
India,Maharashtra,Malegaon,"Mahesh Nagar, Malegaon - MPCB",17-01-2026 08:00:00,20.555712,74.529236,PM10,77,380,140
India,Maharashtra,Malegaon,"Mahesh Nagar, Malegaon - MPCB",17-01-2026 08:00:00,20.555712,74.529236,NO2,41,49,44
India,Maharashtra,Malegaon,"Mahesh Nagar, Malegaon - MPCB",17-01-2026 08:00:00,20.555712,74.529236,NH3,2,3,2
India,Maharashtra,Mumbai,"Byculla, Mumbai - BMC",17-01-2026 08:00:00,18.9767,72.8380,NO2,39,152,75
India,Maharashtra,Mumbai,"Chakala-Andheri East, Mumbai - IITM",17-01-2026 08:00:00,19.11074,72.86084,NO2,37,109,72
India,Maharashtra,Mumbai,"Chakala-Andheri East, Mumbai - IITM",17-01-2026 08:00:00,19.11074,72.86084,CO,4,74,45
India,Maharashtra,Mumbai,"Chembur, Mumbai - MPCB",17-01-2026 08:00:00,19.0364585,72.8954371,SO2,1,86,16
India,Maharashtra,Mumbai,"Chhatrapati Shivaji Intl. Airport (T2), Mumbai - MPCB",17-01-2026 08:00:00,19.10078,72.87462,PM10,107,163,129
India,Maharashtra,Mumbai,"Chhatrapati Shivaji Intl. Airport (T2), Mumbai - MPCB",17-01-2026 08:00:00,19.10078,72.87462,OZONE,7,8,7
India,Maharashtra,Mumbai,"Colaba, Mumbai - MPCB",17-01-2026 08:00:00,18.910000,72.820000,PM2.5,37,93,56
India,Maharashtra,Mumbai,"Colaba, Mumbai - MPCB",17-01-2026 08:00:00,18.910000,72.820000,SO2,NA,NA,NA
India,Maharashtra,Mumbai,"Colaba, Mumbai - MPCB",17-01-2026 08:00:00,18.910000,72.820000,OZONE,11,11,11
India,Maharashtra,Boisar,"Khaira, Boisar - MPCB",17-01-2026 08:00:00,19.786089,72.757971,SO2,7,16,10
India,Maharashtra,Chandrapur,"Chauhan Colony, Chandrapur - MPCB",17-01-2026 08:00:00,19.962900,79.298714,PM2.5,38,72,47
India,Maharashtra,Chandrapur,"Chauhan Colony, Chandrapur - MPCB",17-01-2026 08:00:00,19.962900,79.298714,CO,26,59,47
India,Maharashtra,Chandrapur,"Chauhan Colony, Chandrapur - MPCB",17-01-2026 08:00:00,19.962900,79.298714,OZONE,25,25,25
India,Maharashtra,Chandrapur,"MIDC Khutala, Chandrapur - MPCB",17-01-2026 08:00:00,19.9775302,79.2337086,PM2.5,NA,NA,NA
India,Maharashtra,Chandrapur,"MIDC Khutala, Chandrapur - MPCB",17-01-2026 08:00:00,19.9775302,79.2337086,NH3,2,9,5
India,Maharashtra,Chandrapur,"MIDC Khutala, Chandrapur - MPCB",17-01-2026 08:00:00,19.9775302,79.2337086,SO2,8,9,9
India,Maharashtra,Dhule,"Deopur, Dhule - MPCB",17-01-2026 08:00:00,20.918946,74.776388,NH3,1,2,1
India,Maharashtra,Mumbai,"Mulund West, Mumbai - MPCB",17-01-2026 08:00:00,19.1750,72.9419,CO,NA,NA,NA
India,Maharashtra,Mumbai,"Navy Nagar-Colaba, Mumbai - IITM",17-01-2026 08:00:00,18.897756,72.813320,PM2.5,55,123,81
India,Maharashtra,Mumbai,"Navy Nagar-Colaba, Mumbai - IITM",17-01-2026 08:00:00,18.897756,72.813320,PM10,79,190,124
India,Maharashtra,Mumbai,"Powai, Mumbai - MPCB",17-01-2026 08:00:00,19.137500,72.915056,PM2.5,16,59,33
India,Maharashtra,Mumbai,"Sewri, Mumbai - BMC",17-01-2026 08:00:00,19.000084,72.856730,OZONE,1,30,6
India,Maharashtra,Mumbai,"Siddharth Nagar-Worli, Mumbai - IITM",17-01-2026 08:00:00,19.000083,72.813993,CO,2,74,45
India,Maharashtra,Mumbai,"Siddharth Nagar-Worli, Mumbai - IITM",17-01-2026 08:00:00,19.000083,72.813993,OZONE,26,91,59
India,Maharashtra,Aurangabad,"MIDC Chilkalthana, Aurangabad - MPCB",17-01-2026 08:00:00,19.875620,75.387310,NH3,1,2,2
India,Maharashtra,Aurangabad,"MIDC Chilkalthana, Aurangabad - MPCB",17-01-2026 08:00:00,19.875620,75.387310,SO2,1,2,1
India,Maharashtra,Aurangabad,"More Chowk Waluj, Aurangabad - MPCB",17-01-2026 08:00:00,19.8389439,75.244448,PM2.5,57,148,85
India,Maharashtra,Aurangabad,"More Chowk Waluj, Aurangabad - MPCB",17-01-2026 08:00:00,19.8389439,75.244448,NH3,10,11,11
India,Maharashtra,Aurangabad,"Rachnakar Colony, Aurangabad - MPCB",17-01-2026 08:00:00,19.863756,75.321188,PM10,68,253,108
India,Maharashtra,Aurangabad,"Rachnakar Colony, Aurangabad - MPCB",17-01-2026 08:00:00,19.863756,75.321188,NH3,1,5,3
India,Maharashtra,Belapur,"CBD Belapur, Belapur - MPCB",17-01-2026 08:00:00,19.0243902,73.0406721,PM10,36,333,137
India,Maharashtra,Mumbai,"Kandivali East, Mumbai - MPCB",17-01-2026 08:00:00,19.205800,72.868200,NO2,30,30,30
India,Maharashtra,Mumbai,"Kandivali East, Mumbai - MPCB",17-01-2026 08:00:00,19.205800,72.868200,NH3,3,3,3
India,Maharashtra,Mumbai,"Kandivali West, Mumbai - BMC",17-01-2026 08:00:00,19.215859,72.831718,PM2.5,64,136,95
India,Maharashtra,Mumbai,"Kherwadi_Bandra East, Mumbai - MPCB",17-01-2026 08:00:00,19.0632143,72.8456324,PM2.5,86,225,141
India,Maharashtra,Mumbai,"Kherwadi_Bandra East, Mumbai - MPCB",17-01-2026 08:00:00,19.0632143,72.8456324,OZONE,1,96,16
India,Maharashtra,Mumbai,"Khindipada-Bhandup West, Mumbai - IITM",17-01-2026 08:00:00,19.1653323,72.922099,NO2,15,59,31
India,Maharashtra,Jalgaon,"Prabhat Colony, Jalgaon - MPCB",17-01-2026 08:00:00,21.001264,75.565602,PM10,67,151,104
India,Maharashtra,Jalna,"Old MIDC, Jalna - MPCB",17-01-2026 08:00:00,19.854616,75.905894,CO,24,39,31
India,Maharashtra,Kalyan,"Khadakpada, Kalyan - MPCB",17-01-2026 08:00:00,19.25292,73.142019,CO,80,102,97
India,Maharashtra,Kolhapur,"Shivaji University, Kolhapur - MPCB",17-01-2026 08:00:00,16.6870449,74.2505872,CO,13,52,30
India,Maharashtra,Mumbai,"Kurla, Mumbai - MPCB",17-01-2026 08:00:00,19.0863,72.8888,NH3,2,2,2
India,Maharashtra,Mumbai,"Malad West, Mumbai - IITM",17-01-2026 08:00:00,19.19709,72.82204,CO,8,84,47
India,Maharashtra,Mumbai,"Mazgaon, Mumbai - IITM",17-01-2026 08:00:00,18.96702,72.84214,CO,40,85,75
India,Maharashtra,Mumbai,"Mindspace-Malad West, Mumbai - MPCB",17-01-2026 08:00:00,19.1878657,72.8304069,PM10,103,112,108
India,Maharashtra,Mira-Bhayandar,"Bhayandar West, Mira-Bhayandar - MPCB",17-01-2026 08:00:00,19.296481,72.840923,OZONE,NA,NA,NA
India,Maharashtra,Mumbai,"Bandra Kurla Complex, Mumbai - IITM",17-01-2026 08:00:00,19.053536,72.84643,NO2,NA,NA,NA
India,Maharashtra,Mumbai,"Bandra Kurla Complex, Mumbai - IITM",17-01-2026 08:00:00,19.053536,72.84643,CO,4,78,39
India,Nagaland,Kohima,"PWD Junction, Kohima - NPCB",17-01-2026 08:00:00,25.6635413,94.0989878,NO2,3,4,3
India,Odisha,Angul,"Hakimapada, Angul - OSPCB",17-01-2026 08:00:00,20.832874,85.104082,PM2.5,59,339,159
India,Odisha,Angul,"Hakimapada, Angul - OSPCB",17-01-2026 08:00:00,20.832874,85.104082,PM10,96,241,139
India,Odisha,Balasore,"Kalidaspur, Balasore - OSPCB",17-01-2026 08:00:00,21.51161,86.89088,PM10,93,173,132
India,Odisha,Barbil,"Forest Office, Barbil - OSPCB",17-01-2026 08:00:00,22.1166054,85.3945546,NH3,1,2,2
India,Odisha,Baripada,"Meher Colony, Baripada - OSPCB",17-01-2026 08:00:00,21.941841,86.728318,PM2.5,105,299,176
India,Odisha,Baripada,"Meher Colony, Baripada - OSPCB",17-01-2026 08:00:00,21.941841,86.728318,NH3,1,5,3
India,Odisha,Bhubaneswar,"Lingraj Mandir, Bhubaneswar - OSPCB",17-01-2026 08:00:00,20.240790,85.836784,PM2.5,95,337,213
India,Maharashtra,Thane,"Kasarvadavali, Thane - MPCB",17-01-2026 08:00:00,19.26777,72.97182,OZONE,1,118,8
India,Maharashtra,Thane,"Upvan Fort, Thane - MPCB",17-01-2026 08:00:00,19.222279,72.957979,PM2.5,38,136,74
India,Maharashtra,Ulhasnagar,"Sidhi Vinayak Nagar, Ulhasnagar - MPCB",17-01-2026 08:00:00,19.235581,73.159121,PM2.5,70,233,157
India,Maharashtra,Ulhasnagar,"Sidhi Vinayak Nagar, Ulhasnagar - MPCB",17-01-2026 08:00:00,19.235581,73.159121,NH3,4,9,7
India,Maharashtra,Ulhasnagar,"Sidhi Vinayak Nagar, Ulhasnagar - MPCB",17-01-2026 08:00:00,19.235581,73.159121,SO2,5,27,11
India,Maharashtra,Virar,"Bolinj, Virar - MPCB",17-01-2026 08:00:00,19.4458210,72.7988231,NO2,20,111,41
India,Maharashtra,Virar,"Bolinj, Virar - MPCB",17-01-2026 08:00:00,19.4458210,72.7988231,NH3,2,4,4
India,Meghalaya,Shillong,"Lumpyngngad, Shillong - Meghalaya PCB",17-01-2026 08:00:00,25.5586,91.8985,OZONE,6,13,10
India,Maharashtra,Navi Mumbai,"Tondare-Taloja, Navi Mumbai - MPCB",17-01-2026 08:00:00,19.0630,73.1209,CO,94,125,108
India,Maharashtra,Navi Mumbai,"Tondare-Taloja, Navi Mumbai - MPCB",17-01-2026 08:00:00,19.0630,73.1209,OZONE,10,32,10
India,Maharashtra,Parbhani,"Masoom Colony, Parbhani - MPCB",17-01-2026 08:00:00,19.265594,76.761463,PM2.5,69,364,121
India,Maharashtra,Pimpri-Chinchwad,"Gavalinagar, Pimpri Chinchwad - MPCB",17-01-2026 08:00:00,18.63673,73.82487,OZONE,1,95,1
India,Maharashtra,Pimpri-Chinchwad,"Park Street Wakad, Pimpri Chinchwad - MPCB",17-01-2026 08:00:00,18.59051,73.77946,PM10,85,126,107
India,Maharashtra,Pimpri-Chinchwad,"Park Street Wakad, Pimpri Chinchwad - MPCB",17-01-2026 08:00:00,18.59051,73.77946,OZONE,2,143,6
India,Maharashtra,Pimpri-Chinchwad,"Thergaon, Pimpri Chinchwad - MPCB",17-01-2026 08:00:00,18.616318,73.765797,PM2.5,64,260,113
India,Maharashtra,Nagpur,"Ram Nagar, Nagpur - MPCB",17-01-2026 08:00:00,21.143383,79.048912,NH3,4,4,4
India,Maharashtra,Nanded,"Sneh Nagar, Nanded - MPCB",17-01-2026 08:00:00,19.173852,77.296291,CO,19,26,23
India,Maharashtra,Nashik,"Gangapur Road, Nashik - MPCB",17-01-2026 08:00:00,20.0073285,73.7762427,OZONE,8,47,47
India,Maharashtra,Nashik,"Hirawadi, Nashik - MPCB",17-01-2026 08:00:00,20.021503,73.813844,SO2,5,97,25
India,Maharashtra,Nashik,"MIDC Ambad, Nashik - MPCB",17-01-2026 08:00:00,19.950220,73.731480,PM2.5,61,147,85
India,Maharashtra,Nashik,"MIDC Ambad, Nashik - MPCB",17-01-2026 08:00:00,19.950220,73.731480,PM10,82,164,115
India,Maharashtra,Nashik,"MIDC Ambad, Nashik - MPCB",17-01-2026 08:00:00,19.950220,73.731480,NO2,12,67,33
India,Maharashtra,Nashik,"MIDC Ambad, Nashik - MPCB",17-01-2026 08:00:00,19.950220,73.731480,CO,28,36,32
India,Maharashtra,Pimpri-Chinchwad,"Thergaon, Pimpri Chinchwad - MPCB",17-01-2026 08:00:00,18.616318,73.765797,OZONE,1,79,1
India,Maharashtra,Pune,"Bhumkar Nagar, Pune - IITM",17-01-2026 08:00:00,18.605770,73.749976,PM10,86,246,149
India,Maharashtra,Pune,"Mhada Colony, Pune - IITM",17-01-2026 08:00:00,18.573040,73.927715,PM10,126,224,168
India,Maharashtra,Pune,"Mhada Colony, Pune - IITM",17-01-2026 08:00:00,18.573040,73.927715,NO2,24,124,79
India,Maharashtra,Pune,"Mhada Colony, Pune - IITM",17-01-2026 08:00:00,18.573040,73.927715,CO,2,33,2
India,Maharashtra,Pune,"Panchawati_Pashan, Pune - IITM",17-01-2026 08:00:00,18.536457,73.805454,PM2.5,46,139,80
India,Maharashtra,Pune,"Revenue Colony-Shivajinagar, Pune - IITM",17-01-2026 08:00:00,18.530085,73.849598,NO2,39,147,89
India,Maharashtra,Pune,"Savitribai Phule Pune University, Pune - MPCB",17-01-2026 08:00:00,18.547056,73.826908,SO2,1,5,3
India,Maharashtra,Pune,"Transport Nagar-Nigdi, Pune - IITM",17-01-2026 08:00:00,18.664282,73.763966,OZONE,1,74,3
India,Maharashtra,Solapur,"Dnyaneshwar Nagar, Solapur - MPCB",17-01-2026 08:00:00,17.6336264,75.9132495,NH3,7,38,15
India,Maharashtra,Solapur,"Dnyaneshwar Nagar, Solapur - MPCB",17-01-2026 08:00:00,17.6336264,75.9132495,CO,14,75,21
India,Maharashtra,Solapur,"Dnyaneshwar Nagar, Solapur - MPCB",17-01-2026 08:00:00,17.6336264,75.9132495,OZONE,9,72,51
India,Maharashtra,Solapur,"Ratandeep Housing Society, Solapur - MPCB",17-01-2026 08:00:00,17.65439,75.90649,SO2,5,33,11
India,Maharashtra,Nashik,"Pandav Nagari, Nashik - MPCB",17-01-2026 08:00:00,19.9591346,73.7788008,OZONE,1,48,4
India,Maharashtra,Navi Mumbai,"Mahape, Navi Mumbai - MPCB",17-01-2026 08:00:00,19.1135051,73.008978,NO2,34,36,35
India,Maharashtra,Navi Mumbai,"Nerul, Navi Mumbai - MPCB",17-01-2026 08:00:00,19.008751,73.016620,PM10,NA,NA,NA
India,Maharashtra,Navi Mumbai,"Sanpada, Navi Mumbai - MPCB",17-01-2026 08:00:00,19.0575752,73.0151367,SO2,12,36,18
India,Odisha,Bhubaneswar,"Patia, Bhubaneswar - OSPCB",17-01-2026 08:00:00,20.34652,85.81630,PM2.5,85,293,174
India,Odisha,Brajrajnagar,"GM Office, Brajrajnagar - OSPCB",17-01-2026 08:00:00,21.8004996,83.8396977,PM10,51,239,119
India,Odisha,Brajrajnagar,"GM Office, Brajrajnagar - OSPCB",17-01-2026 08:00:00,21.8004996,83.8396977,OZONE,29,31,30
India,Odisha,Cuttack,"CDA Area, Cuttack - OSPCB",17-01-2026 08:00:00,20.48891     ,85.84768     ,PM2.5,92,336,210
India,Maharashtra,Mumbai,"Sion, Mumbai - MPCB",17-01-2026 08:00:00,19.047000,72.874600,NO2,1,193,43
India,Maharashtra,Nagpur,"Ambazari, Nagpur - MPCB",17-01-2026 08:00:00,21.121801,79.04952,NH3,3,32,8
India,Maharashtra,Nagpur,"Mahal, Nagpur - MPCB",17-01-2026 08:00:00,21.14472,79.107595,NO2,25,100,52
India,Rajasthan,Bhiwadi,"Vasundhara Nagar_UIT, Bhiwadi - RSPCB",17-01-2026 08:00:00,28.207266,76.829265,NO2,22,148,84
India,Rajasthan,Bhiwadi,"Vasundhara Nagar_UIT, Bhiwadi - RSPCB",17-01-2026 08:00:00,28.207266,76.829265,CO,40,131,92
India,Rajasthan,Bhiwadi,"Vasundhara Nagar_UIT, Bhiwadi - RSPCB",17-01-2026 08:00:00,28.207266,76.829265,OZONE,2,146,4
India,Rajasthan,Bikaner,"MM Ground, Bikaner - RSPCB",17-01-2026 08:00:00,28.018792,73.292658,PM2.5,44,373,202
India,Rajasthan,Bundi,"New Colony, Bundi - RSPCB",17-01-2026 08:00:00,25.435774,75.644272,OZONE,3,114,21
India,Rajasthan,Chittorgarh,"Shastri Nagar, Chittorgarh - RSPCB",17-01-2026 08:00:00,24.892047,74.623527,NH3,3,6,5
India,Rajasthan,Chittorgarh,"Shastri Nagar, Chittorgarh - RSPCB",17-01-2026 08:00:00,24.892047,74.623527,CO,2,105,52
India,Rajasthan,Churu,"Subash Chowk, Churu - RSPCB",17-01-2026 08:00:00,28.296139,74.961696,PM2.5,47,374,127
India,Rajasthan,Churu,"Subash Chowk, Churu - RSPCB",17-01-2026 08:00:00,28.296139,74.961696,NO2,17,73,33
India,Rajasthan,Churu,"Subash Chowk, Churu - RSPCB",17-01-2026 08:00:00,28.296139,74.961696,NH3,15,21,17
India,Punjab,Patiala,"Model Town, Patiala - PPCB",17-01-2026 08:00:00,30.349388,76.366642,SO2,15,31,21
India,Punjab,Rupnagar,"Ratanpura, Rupnagar - Ambuja Cements",17-01-2026 08:00:00,31.0325454,76.5623046,NO2,5,5,5
India,Rajasthan,Ajmer,"Civil Lines,  Ajmer - RSPCB",17-01-2026 08:00:00,26.470859,74.646594,PM2.5,60,173,103
India,Rajasthan,Ajmer,"Civil Lines,  Ajmer - RSPCB",17-01-2026 08:00:00,26.470859,74.646594,PM10,78,177,123
India,Rajasthan,Ajmer,"Civil Lines,  Ajmer - RSPCB",17-01-2026 08:00:00,26.470859,74.646594,NO2,27,34,31
India,Rajasthan,Ajmer,"Civil Lines,  Ajmer - RSPCB",17-01-2026 08:00:00,26.470859,74.646594,SO2,8,16,13
India,Rajasthan,Alwar,"Moti Doongri, Alwar - RSPCB",17-01-2026 08:00:00,27.554793,76.611536,PM10,80,181,134
India,Rajasthan,Banswara,"Rati Talai, Banswara - RSPCB",17-01-2026 08:00:00,23.555190,74.440010,NH3,5,11,7
India,Rajasthan,Dausa,"Khatikan Mohalla, Dausa - RSPCB",17-01-2026 08:00:00,26.895552,76.334753,NO2,21,135,61
India,Rajasthan,Dausa,"Khatikan Mohalla, Dausa - RSPCB",17-01-2026 08:00:00,26.895552,76.334753,NH3,7,13,10
India,Rajasthan,Dausa,"Khatikan Mohalla, Dausa - RSPCB",17-01-2026 08:00:00,26.895552,76.334753,SO2,4,31,9
India,Rajasthan,Dausa,"Khatikan Mohalla, Dausa - RSPCB",17-01-2026 08:00:00,26.895552,76.334753,CO,NA,NA,NA
India,Rajasthan,Dholpur,"Raja Ganj, Dholpur - RSPCB",17-01-2026 08:00:00,26.699557,77.898881,PM2.5,40,183,92
India,Rajasthan,Dholpur,"Raja Ganj, Dholpur - RSPCB",17-01-2026 08:00:00,26.699557,77.898881,PM10,54,139,94
India,Rajasthan,Dholpur,"Raja Ganj, Dholpur - RSPCB",17-01-2026 08:00:00,26.699557,77.898881,SO2,2,13,6
India,Rajasthan,Dholpur,"Raja Ganj, Dholpur - RSPCB",17-01-2026 08:00:00,26.699557,77.898881,OZONE,2,57,7
India,Rajasthan,Hanumangarh,"Housing Board, Hanumangarh - RSPCB",17-01-2026 08:00:00,29.610750,74.283608,PM2.5,57,133,96
India,Rajasthan,Hanumangarh,"Housing Board, Hanumangarh - RSPCB",17-01-2026 08:00:00,29.610750,74.283608,OZONE,4,70,9
India,Odisha,Rourkela,"Raghunathpali, Rourkela - OSPCB",17-01-2026 08:00:00,22.220833,84.809444,NH3,1,2,1
India,Odisha,Rourkela,"Raghunathpali, Rourkela - OSPCB",17-01-2026 08:00:00,22.220833,84.809444,SO2,4,9,6
India,Odisha,Rourkela,"Sector-2, Rourkela - OSPCB",17-01-2026 08:00:00,22.24500000,84.88111111,PM2.5,81,123,95
India,Odisha,Talcher,"Talcher Coalfields,Talcher - OSPCB",17-01-2026 08:00:00,20.9360711,85.1707021,PM10,65,305,182
India,Odisha,Talcher,"Talcher Coalfields,Talcher - OSPCB",17-01-2026 08:00:00,20.9360711,85.1707021,OZONE,19,41,33
India,Puducherry,Puducherry,"Jawahar Nagar, Puducherry - PPCC",17-01-2026 08:00:00,11.9309,79.8027,PM10,64,87,74
India,Punjab,Amritsar,"Golden Temple, Amritsar - PPCB",17-01-2026 08:00:00,31.620000,74.876512,PM10,17,252,130
India,Punjab,Bathinda,"Hardev Nagar, Bathinda - PPCB",17-01-2026 08:00:00,30.233011,74.907758,PM10,31,128,83
India,Punjab,Khanna,"Kalal Majra, Khanna - PPCB",17-01-2026 08:00:00,30.736056 ,76.209694,NH3,7,7,7
India,Punjab,Khanna,"Kalal Majra, Khanna - PPCB",17-01-2026 08:00:00,30.736056 ,76.209694,SO2,NA,NA,NA
India,Punjab,Khanna,"Kalal Majra, Khanna - PPCB",17-01-2026 08:00:00,30.736056 ,76.209694,CO,42,82,65
India,Punjab,Ludhiana,"Punjab Agricultural University, Ludhiana - PPCB",17-01-2026 08:00:00,30.9028,75.8086,OZONE,9,22,12
India,Punjab,Mandi Gobindgarh,"RIMT University, Mandi Gobindgarh - PPCB",17-01-2026 08:00:00,30.649961,76.331442,PM10,25,274,113
India,Punjab,Mandi Gobindgarh,"RIMT University, Mandi Gobindgarh - PPCB",17-01-2026 08:00:00,30.649961,76.331442,SO2,2,39,13
India,Odisha,Nayagarh,"Dabuna, Nayagarh - OSPCB",17-01-2026 08:00:00,21.847279,85.416905,PM2.5,22,60,39
India,Odisha,Nayagarh,"Dabuna, Nayagarh - OSPCB",17-01-2026 08:00:00,21.847279,85.416905,CO,15,33,28
India,Odisha,Rairangpur,"Divisional Forest Office, Rairangpur - OSPCB",17-01-2026 08:00:00,22.265816,86.174829,NO2,11,12,11
India,Odisha,Rourkela,"Raghunathpali, Rourkela - OSPCB",17-01-2026 08:00:00,22.220833,84.809444,PM10,111,434,179
India,Rajasthan,Jaipur,"Adarsh Nagar, Jaipur - RSPCB",17-01-2026 08:00:00,26.902909,75.836858,PM10,65,102,80
India,Rajasthan,Jaipur,"Adarsh Nagar, Jaipur - RSPCB",17-01-2026 08:00:00,26.902909,75.836858,NH3,13,26,18
India,Rajasthan,Jaipur,"Adarsh Nagar, Jaipur - RSPCB",17-01-2026 08:00:00,26.902909,75.836858,CO,40,72,55
India,Rajasthan,Jaipur,"Adarsh Nagar, Jaipur - RSPCB",17-01-2026 08:00:00,26.902909,75.836858,OZONE,5,58,9
India,Rajasthan,Bharatpur,"Krishna Nagar, Bharatpur - RSPCB",17-01-2026 08:00:00,27.215415,77.50873,PM2.5,23,134,69
India,Rajasthan,Bhiwadi,"RIICO Ind. Area III, Bhiwadi - RSPCB",17-01-2026 08:00:00,28.194909,76.862296,PM10,70,455,288
India,Rajasthan,Baran,"Bamboliya, Baran - RSPCB",17-01-2026 08:00:00,25.106006,76.469948,NH3,8,11,9
India,Rajasthan,Barmer,"Railway Colony, Barmer - RSPCB",17-01-2026 08:00:00,25.747299,71.393989,PM2.5,35,120,66
India,Rajasthan,Nagaur,"Karni Colony, Nagaur - RSPCB",17-01-2026 08:00:00,27.213494,73.734444,SO2,5,20,10
India,Rajasthan,Nagaur,"Karni Colony, Nagaur - RSPCB",17-01-2026 08:00:00,27.213494,73.734444,OZONE,18,114,54
India,Rajasthan,Pali,"Indira Colony Vistar, Pali - RSPCB",17-01-2026 08:00:00,25.771061, 73.340227,NH3,2,24,8
India,Rajasthan,Pali,"Indira Colony Vistar, Pali - RSPCB",17-01-2026 08:00:00,25.771061, 73.340227,OZONE,4,88,8
India,Rajasthan,Pratapgarh,"Pragati Nagar, Pratapgarh - RSPCB",17-01-2026 08:00:00,24.041198,74.780702,SO2,2,10,5
India,Rajasthan,Rajsamand,"Dhoinda, Rajsamand - RSPCB",17-01-2026 08:00:00,25.036360,73.883502,NO2,14,76,32
India,Rajasthan,Rajsamand,"Dhoinda, Rajsamand - RSPCB",17-01-2026 08:00:00,25.036360,73.883502,CO,12,104,19
India,Rajasthan,Sawai Madhopur,"Sahu Nagar, Sawai Madhopur - RSPCB",17-01-2026 08:00:00,26.031443,76.359327,OZONE,8,137,10
India,Rajasthan,Jaipur,"Mansarovar Sector-12, Jaipur - RSPCB",17-01-2026 08:00:00,26.843698,75.766894,PM2.5,NA,NA,NA
India,Rajasthan,Jaipur,"Mansarovar Sector-12, Jaipur - RSPCB",17-01-2026 08:00:00,26.843698,75.766894,CO,NA,NA,NA
India,Rajasthan,Jaipur,"Mansarovar Sector-12, Jaipur - RSPCB",17-01-2026 08:00:00,26.843698,75.766894,OZONE,NA,NA,NA
India,Rajasthan,Jaipur,"Police Commissionerate, Jaipur - RSPCB",17-01-2026 08:00:00,26.9164092,75.7994901,NH3,7,75,19
India,Rajasthan,Jaipur,"Police Commissionerate, Jaipur - RSPCB",17-01-2026 08:00:00,26.9164092,75.7994901,CO,54,60,55
India,Rajasthan,Jaipur,"RIICO Sitapura, Jaipur - RSPCB",17-01-2026 08:00:00,26.786682,75.827928,PM2.5,38,342,229
India,Rajasthan,Jaipur,"RIICO Sitapura, Jaipur - RSPCB",17-01-2026 08:00:00,26.786682,75.827928,CO,18,130,62
India,Rajasthan,Jaipur,"RIICO Sitapura, Jaipur - RSPCB",17-01-2026 08:00:00,26.786682,75.827928,OZONE,26,138,41
India,Rajasthan,Jaipur,"Sector-2 Murlipura, Jaipur - RSPCB",17-01-2026 08:00:00,26.960669,75.771817,PM2.5,35,304,144
India,TamilNadu,Cuddalore,"Kudikadu, Cuddalore - TNPCB",17-01-2026 08:00:00,11.6829898,79.7532099,OZONE,12,13,12
India,TamilNadu,Cuddalore,"Semmandalam, Cuddalore - TNPCB",17-01-2026 08:00:00,11.7637683,79.7499835,NO2,1,10,6
India,TamilNadu,Gummidipoondi,"Anthoni Pillai Nagar, Gummidipoondi - TNPCB",17-01-2026 08:00:00,13.4127,80.1081,PM10,82,362,153
India,TamilNadu,Madurai,"Uchapatti, Madurai - TNPCB",17-01-2026 08:00:00,9.865935,78.022669,NO2,7,7,7
India,TamilNadu,Ooty,"Bombay Castel, Ooty - TNPCB",17-01-2026 08:00:00,11.4068288,76.7138973,NO2,2,4,3
India,TamilNadu,Ooty,"Bombay Castel, Ooty - TNPCB",17-01-2026 08:00:00,11.4068288,76.7138973,SO2,13,15,14
India,Rajasthan,Jhunjhunu,"Indra Nagar, Jhunjhunu - RSPCB",17-01-2026 08:00:00,28.108988,75.386577,PM2.5,33,266,96
India,Rajasthan,Jhunjhunu,"Indra Nagar, Jhunjhunu - RSPCB",17-01-2026 08:00:00,28.108988,75.386577,SO2,4,8,6
India,Rajasthan,Jodhpur,"Collectorate, Jodhpur - RSPCB",17-01-2026 08:00:00,26.268249,73.0193853,CO,12,153,71
India,Rajasthan,Jodhpur,"Digari Kalan, Jodhpur - RSPCB",17-01-2026 08:00:00,26.295810,73.082283,PM2.5,33,333,174
India,Rajasthan,Jodhpur,"Digari Kalan, Jodhpur - RSPCB",17-01-2026 08:00:00,26.295810,73.082283,NO2,17,125,61
India,Rajasthan,Jodhpur,"Digari Kalan, Jodhpur - RSPCB",17-01-2026 08:00:00,26.295810,73.082283,SO2,1,11,6
India,Rajasthan,Jodhpur,"Jhalamand, Jodhpur - RSPCB",17-01-2026 08:00:00,26.215415,73.070156,NO2,10,108,45
India,TamilNadu,Chennai,"Perungudi, Chennai - TNPCB",17-01-2026 08:00:00,12.9533,80.2357,SO2,2,7,4
India,TamilNadu,Chennai,"Perungudi, Chennai - TNPCB",17-01-2026 08:00:00,12.9533,80.2357,OZONE,3,22,6
India,TamilNadu,Chennai,"Royapuram, Chennai - TNPCB",17-01-2026 08:00:00,13.1036,80.2909,PM2.5,38,84,59
India,TamilNadu,Chennai,"Royapuram, Chennai - TNPCB",17-01-2026 08:00:00,13.1036,80.2909,PM10,32,58,43
India,TamilNadu,Chennai,"Royapuram, Chennai - TNPCB",17-01-2026 08:00:00,13.1036,80.2909,OZONE,16,18,17
India,TamilNadu,Coimbatore,"SIDCO Kurichi, Coimbatore - TNPCB",17-01-2026 08:00:00,10.942451,76.978996,CO,38,44,44
India,TamilNadu,Coimbatore,"SIDCO Kurichi, Coimbatore - TNPCB",17-01-2026 08:00:00,10.942451,76.978996,OZONE,10,10,10
India,Rajasthan,Sri Ganganagar,"Old City, Sri Ganganagar - RSPCB",17-01-2026 08:00:00,29.931624,73.864511,NH3,2,8,5
India,Rajasthan,Tonk,"Shastri Nagar, Tonk - RSPCB",17-01-2026 08:00:00,26.159933,75.780517,NO2,20,90,40
India,Rajasthan,Tonk,"Shastri Nagar, Tonk - RSPCB",17-01-2026 08:00:00,26.159933,75.780517,SO2,2,5,4
India,Rajasthan,Tonk,"Shastri Nagar, Tonk - RSPCB",17-01-2026 08:00:00,26.159933,75.780517,OZONE,2,100,11
India,Rajasthan,Udaipur,"Ashok Nagar, Udaipur - RSPCB",17-01-2026 08:00:00,24.5886166,73.6321397,PM2.5,42,308,136
India,Rajasthan,Udaipur,"Ashok Nagar, Udaipur - RSPCB",17-01-2026 08:00:00,24.5886166,73.6321397,NH3,3,21,6
India,TamilNadu,Chennai,"Arumbakkam, Chennai - TNPCB",17-01-2026 08:00:00,13.0664,80.2112 ,PM10,89,155,118
India,TamilNadu,Chennai,"Arumbakkam, Chennai - TNPCB",17-01-2026 08:00:00,13.0664,80.2112 ,NO2,7,18,11
India,TamilNadu,Chennai,"Gandhi Nagar_Ennore, Chennai - TNPCB",17-01-2026 08:00:00,13.218341,80.32027,PM2.5,48,157,72
India,TamilNadu,Chennai,"Kodungaiyur, Chennai - TNPCB",17-01-2026 08:00:00,13.1278,80.2642,PM10,92,268,146
India,TamilNadu,Chennai,"Manali Village, Chennai - TNPCB",17-01-2026 08:00:00,13.1662,80.2584,PM10,64,133,93
India,Rajasthan,Jodhpur,"Samrat Ashok Udhyan, Jodhpur - RSPCB",17-01-2026 08:00:00,26.253384,72.976571,OZONE,3,195,35
India,Rajasthan,Karauli,"Satyawati Vihar, Karauli - RSPCB",17-01-2026 08:00:00,26.506177,77.025989,NO2,18,107,45
India,Rajasthan,Karauli,"Satyawati Vihar, Karauli - RSPCB",17-01-2026 08:00:00,26.506177,77.025989,NH3,9,20,13
India,Rajasthan,Karauli,"Satyawati Vihar, Karauli - RSPCB",17-01-2026 08:00:00,26.506177,77.025989,CO,2,78,25
India,Rajasthan,Jalore,"Mudtra Sili, Jalore - RSPCB",17-01-2026 08:00:00,25.344694,72.626208,CO,24,134,61
India,Rajasthan,Jhalawar,"Rajlaxmi Nagar, Jhalawar - RSPCB",17-01-2026 08:00:00,24.588397,76.172782,NO2,51,138,100
India,Telangana,Hyderabad,"ECIL Kapra, Hyderabad - TSPCB",17-01-2026 08:00:00,17.470431,78.566959,OZONE,7,55,8
India,Telangana,Hyderabad,"ICRISAT Patancheru, Hyderabad - TSPCB",17-01-2026 08:00:00,17.518400,78.278777,PM2.5,47,122,84
India,Telangana,Hyderabad,"ICRISAT Patancheru, Hyderabad - TSPCB",17-01-2026 08:00:00,17.518400,78.278777,NO2,3,74,35
India,Telangana,Hyderabad,"ICRISAT Patancheru, Hyderabad - TSPCB",17-01-2026 08:00:00,17.518400,78.278777,CO,2,120,96
India,Telangana,Hyderabad,"IDA Pashamylaram, Hyderabad - TSPCB",17-01-2026 08:00:00,17.5316895,78.218939,NO2,5,23,8
India,Telangana,Hyderabad,"IDA Pashamylaram, Hyderabad - TSPCB",17-01-2026 08:00:00,17.5316895,78.218939,SO2,3,18,10
India,Telangana,Hyderabad,"IITH Kandi, Hyderabad - TSPCB",17-01-2026 08:00:00,17.585705,78.126199,NO2,13,13,13
India,Telangana,Hyderabad,"IITH Kandi, Hyderabad - TSPCB",17-01-2026 08:00:00,17.585705,78.126199,NH3,3,3,3
India,Telangana,Hyderabad,"Kokapet, Hyderabad - TSPCB",17-01-2026 08:00:00,17.393559,78.339194,PM2.5,58,72,66
India,Telangana,Hyderabad,"Kokapet, Hyderabad - TSPCB",17-01-2026 08:00:00,17.393559,78.339194,SO2,9,13,10
India,Telangana,Hyderabad,"Somajiguda, Hyderabad - TSPCB",17-01-2026 08:00:00,17.417094,78.457437,NH3,4,4,4
India,Telangana,Hyderabad,"Zoo Park, Hyderabad - TSPCB",17-01-2026 08:00:00,17.349694,78.451437,NH3,3,3,3
India,Telangana,Hyderabad,"Zoo Park, Hyderabad - TSPCB",17-01-2026 08:00:00,17.349694,78.451437,CO,2,93,9
India,Telangana,Hyderabad,"Zoo Park, Hyderabad - TSPCB",17-01-2026 08:00:00,17.349694,78.451437,OZONE,22,28,24
India,Tripura,Agartala,"Bardowali, Agartala - Tripura SPCB",17-01-2026 08:00:00,23.8175497,91.2726974,PM2.5,NA,NA,NA
India,Tripura,Agartala,"Bardowali, Agartala - Tripura SPCB",17-01-2026 08:00:00,23.8175497,91.2726974,PM10,NA,NA,NA
India,Tripura,Agartala,"Bardowali, Agartala - Tripura SPCB",17-01-2026 08:00:00,23.8175497,91.2726974,CO,27,30,28
India,Uttar_Pradesh,Agra,"Manoharpur, Agra - UPPCB",17-01-2026 08:00:00,27.23711,78.01936,PM2.5,51,325,176
India,Uttar_Pradesh,Agra,"Manoharpur, Agra - UPPCB",17-01-2026 08:00:00,27.23711,78.01936,NH3,4,4,4
India,Uttar_Pradesh,Agra,"Manoharpur, Agra - UPPCB",17-01-2026 08:00:00,27.23711,78.01936,OZONE,9,10,10
India,TamilNadu,Pudukottai,"SIPCOT Nathampannai, Pudukottai - TNPCB",17-01-2026 08:00:00,10.423417,78.784889,PM2.5,64,282,102
India,TamilNadu,Thoothukudi,"Meelavittan, Thoothukudi - TNPCB",17-01-2026 08:00:00,8.816428 ,78.099039,NO2,8,21,15
India,Telangana,Hyderabad,"Bollaram Industrial Area, Hyderabad - TSPCB",17-01-2026 08:00:00,17.540891,78.358528,PM10,56,113,89
India,Telangana,Hyderabad,"Bollaram Industrial Area, Hyderabad - TSPCB",17-01-2026 08:00:00,17.540891,78.358528,OZONE,36,50,36
India,Telangana,Hyderabad,"Central University, Hyderabad - TSPCB",17-01-2026 08:00:00,17.460103,78.334361,CO,10,38,32
India,Uttar_Pradesh,Greater Noida,"Knowledge Park - III, Greater Noida - UPPCB",17-01-2026 08:00:00,28.47272,77.482000,CO,30,62,42
India,Uttar_Pradesh,Greater Noida,"Knowledge Park - V, Greater Noida - UPPCB",17-01-2026 08:00:00,28.557054,77.453663,NO2,54,159,94
India,Uttar_Pradesh,Greater Noida,"Knowledge Park - V, Greater Noida - UPPCB",17-01-2026 08:00:00,28.557054,77.453663,SO2,8,25,14
India,Uttar_Pradesh,Jhansi,"Shivaji Nagar, Jhansi - UPPCB",17-01-2026 08:00:00,25.4547,78.6039,PM2.5,22,96,47
India,Uttar_Pradesh,Jhansi,"Shivaji Nagar, Jhansi - UPPCB",17-01-2026 08:00:00,25.4547,78.6039,PM10,27,98,58
India,Uttar_Pradesh,Bareilly,"Rajendra Nagar, Bareilly - UPPCB",17-01-2026 08:00:00,28.38910936,79.42963708,PM2.5,40,154,76
India,Uttar_Pradesh,Firozabad,"Vibhab Nagar, Firozabad - UPPCB",17-01-2026 08:00:00,27.1594,78.3953,NO2,15,15,15
India,Uttar_Pradesh,Firozabad,"Vibhab Nagar, Firozabad - UPPCB",17-01-2026 08:00:00,27.1594,78.3953,OZONE,NA,NA,NA
India,Uttar_Pradesh,Ghaziabad,"Indirapuram, Ghaziabad - UPPCB",17-01-2026 08:00:00,28.646233,77.358075,PM10,210,500,360
India,Uttar_Pradesh,Ghaziabad,"Loni, Ghaziabad - UPPCB",17-01-2026 08:00:00,28.757294,77.278792,CO,4,121,17
India,Uttar_Pradesh,Ghaziabad,"Sanjay Nagar, Ghaziabad - UPPCB",17-01-2026 08:00:00,28.685382,77.453839,NH3,6,18,12
India,Uttar_Pradesh,Ghaziabad,"Sanjay Nagar, Ghaziabad - UPPCB",17-01-2026 08:00:00,28.685382,77.453839,CO,24,118,57
India,Uttar_Pradesh,Ghaziabad,"Vasundhara, Ghaziabad - UPPCB",17-01-2026 08:00:00,28.6603346,77.3572563,SO2,22,68,34
India,Uttar_Pradesh,Agra,"Rohta, Agra - UPPCB",17-01-2026 08:00:00,27.106972,78.000111,SO2,8,23,16
India,Uttar_Pradesh,Agra,"Sanjay Palace, Agra - UPPCB",17-01-2026 08:00:00,27.19865833,78.00598056,CO,32,74,44
India,Uttar_Pradesh,Agra,"Shastripuram, Agra - UPPCB",17-01-2026 08:00:00,27.19862,77.92066,NH3,3,3,3
India,Telangana,Hyderabad,"Kokapet, Hyderabad - TSPCB",17-01-2026 08:00:00,17.393559,78.339194,OZONE,18,31,18
India,Telangana,Hyderabad,"Kompally Municipal Office, Hyderabad - TSPCB",17-01-2026 08:00:00,17.544899,78.486949,PM2.5,45,54,52
India,Telangana,Hyderabad,"Kompally Municipal Office, Hyderabad - TSPCB",17-01-2026 08:00:00,17.544899,78.486949,PM10,72,94,82
India,Telangana,Hyderabad,"New Malakpet, Hyderabad - TSPCB",17-01-2026 08:00:00,17.37206,78.50864,CO,24,32,27
India,Telangana,Hyderabad,"New Malakpet, Hyderabad - TSPCB",17-01-2026 08:00:00,17.37206,78.50864,OZONE,10,39,17
India,Telangana,Hyderabad,"Ramachandrapuram, Hyderabad - TSPCB",17-01-2026 08:00:00,17.528544,78.286195,CO,16,48,40
India,West_Bengal,Barrackpore,"SVSPA Campus, Barrackpore - WBPCB",17-01-2026 08:00:00,22.7605581,88.3617589,NO2,16,60,32
India,West_Bengal,Barrackpore,"SVSPA Campus, Barrackpore - WBPCB",17-01-2026 08:00:00,22.7605581,88.3617589,NH3,6,9,8
India,West_Bengal,Barrackpore,"SVSPA Campus, Barrackpore - WBPCB",17-01-2026 08:00:00,22.7605581,88.3617589,SO2,8,13,10
India,West_Bengal,Durgapur,"Mahishkapur Road_B-Zone, Durgapur - WBPCB",17-01-2026 08:00:00,23.567923,87.306843,NH3,2,3,2
India,West_Bengal,Durgapur,"PCBL Residential Complex, Durgapur - WBPCB",17-01-2026 08:00:00,23.5087640,87.3544400,PM10,62,154,107
India,West_Bengal,Durgapur,"PCBL Residential Complex, Durgapur - WBPCB",17-01-2026 08:00:00,23.5087640,87.3544400,NO2,23,77,47
India,West_Bengal,Durgapur,"PCBL Residential Complex, Durgapur - WBPCB",17-01-2026 08:00:00,23.5087640,87.3544400,SO2,3,24,7
India,West_Bengal,Durgapur,"Womens College_City Center, Durgapur - WBPCB",17-01-2026 08:00:00,23.549395,87.300496,PM2.5,69,235,128
India,West_Bengal,Durgapur,"Womens College_City Center, Durgapur - WBPCB",17-01-2026 08:00:00,23.549395,87.300496,OZONE,2,79,3
India,West_Bengal,Haldia,"Priyambada Housing Estate, Haldia - WBPCB",17-01-2026 08:00:00,22.06047,88.109737,PM2.5,71,236,147
India,Uttar_Pradesh,Varanasi,"IESD Banaras Hindu University, Varanasi - UPPCB",17-01-2026 08:00:00,25.262326,82.995408,NO2,2,2,2
India,Uttar_Pradesh,Varanasi,"IESD Banaras Hindu University, Varanasi - UPPCB",17-01-2026 08:00:00,25.262326,82.995408,OZONE,4,40,24
India,Uttar_Pradesh,Varanasi,"Maldahiya, Varanasi - UPPCB",17-01-2026 08:00:00,25.32393,82.99687,PM10,63,500,184
India,Uttar_Pradesh,Vrindavan,"Omex Eternity, Vrindavan - UPPCB",17-01-2026 08:00:00,27.5714090,77.6557570,SO2,15,24,17
India,Uttarakhand,Dehradun,"Doon University, Dehradun - UKPCB",17-01-2026 08:00:00,30.269444,78.044167,PM10,1,149,105
India,Uttarakhand,Dehradun,"Doon University, Dehradun - UKPCB",17-01-2026 08:00:00,30.269444,78.044167,SO2,2,2,2
India,Uttarakhand,Kashipur,"Govt. Girls Inter College, Kashipur - UKPCB",17-01-2026 08:00:00,29.2124114,78.9611753,NO2,9,20,13
India,Uttarakhand,Kashipur,"Govt. Girls Inter College, Kashipur - UKPCB",17-01-2026 08:00:00,29.2124114,78.9611753,CO,41,48,45
India,Uttarakhand,Kashipur,"Govt. Girls Inter College, Kashipur - UKPCB",17-01-2026 08:00:00,29.2124114,78.9611753,OZONE,3,4,3
India,Uttar_Pradesh,Meerut,"Jai Bhim Nagar, Meerut - UPPCB",17-01-2026 08:00:00,28.9535882,77.7622941,PM10,81,260,154
India,Uttar_Pradesh,Meerut,"Jai Bhim Nagar, Meerut - UPPCB",17-01-2026 08:00:00,28.9535882,77.7622941,CO,72,100,79
India,Uttar_Pradesh,Meerut,"Pallavpuram Phase 2, Meerut - UPPCB",17-01-2026 08:00:00,29.063510,77.709723,PM2.5,131,355,240
India,Uttar_Pradesh,Meerut,"Pallavpuram Phase 2, Meerut - UPPCB",17-01-2026 08:00:00,29.063510,77.709723,SO2,3,16,11
India,Uttar_Pradesh,Moradabad,"Buddhi Vihar, Moradabad - UPPCB",17-01-2026 08:00:00,28.83526,78.74460,SO2,79,83,81
India,Uttar_Pradesh,Moradabad,"Employment Office, Moradabad - UPPCB",17-01-2026 08:00:00,28.88528,78.73880,PM2.5,62,283,134
India,Uttar_Pradesh,Moradabad,"Employment Office, Moradabad - UPPCB",17-01-2026 08:00:00,28.88528,78.73880,PM10,64,178,113
India,Uttar_Pradesh,Moradabad,"Jigar Colony, Moradabad - UPPCB",17-01-2026 08:00:00,28.856664,78.772638,PM10,65,177,122
India,Uttar_Pradesh,Moradabad,"Jigar Colony, Moradabad - UPPCB",17-01-2026 08:00:00,28.856664,78.772638,NH3,6,6,6
India,Uttar_Pradesh,Moradabad,"Jigar Colony, Moradabad - UPPCB",17-01-2026 08:00:00,28.856664,78.772638,SO2,28,55,40
India,Uttar_Pradesh,Moradabad,"Kashiram Nagar, Moradabad - UPPCB",17-01-2026 08:00:00,28.849399,78.742362,NO2,25,25,25
India,Uttar_Pradesh,Moradabad,"Transport Nagar, Moradabad - UPPCB",17-01-2026 08:00:00,28.802625,78.753728,PM10,38,129,88
India,Uttar_Pradesh,Moradabad,"Transport Nagar, Moradabad - UPPCB",17-01-2026 08:00:00,28.802625,78.753728,NH3,5,6,5
India,Uttar_Pradesh,Muzaffarnagar,"New Mandi, Muzaffarnagar - UPPCB",17-01-2026 08:00:00,29.4723508,77.7194031,PM10,86,379,168
India,Uttarakhand,Rishikesh,"Shivaji Nagar, Rishikesh - UKPCB",17-01-2026 08:00:00,30.075911,78.2859547,SO2,3,3,3
India,Uttarakhand,Rishikesh,"Shivaji Nagar, Rishikesh - UKPCB",17-01-2026 08:00:00,30.075911,78.2859547,CO,38,74,51
India,West_Bengal,Asansol,"Asansol Court Area, Asansol - WBPCB",17-01-2026 08:00:00,23.685297,86.945968,SO2,15,29,22
India,West_Bengal,Asansol,"Evelyn Lodge, Asansol - WBPCB",17-01-2026 08:00:00,23.6979360,86.9443950,SO2,5,12,7
India,West_Bengal,Asansol,"Mahabir Colliery, Asansol - WBPCB",17-01-2026 08:00:00,23.6181830,87.1057180,PM2.5,9,367,253
India,West_Bengal,Asansol,"Mahabir Colliery, Asansol - WBPCB",17-01-2026 08:00:00,23.6181830,87.1057180,CO,27,120,82
India,Uttar_Pradesh,Lucknow,"Kukrail Picnic Spot-1, Lucknow - UPPCB",17-01-2026 08:00:00,26.90723,80.98579,SO2,42,43,42
India,Uttar_Pradesh,Lucknow,"Kukrail Picnic Spot-1, Lucknow - UPPCB",17-01-2026 08:00:00,26.90723,80.98579,CO,11,18,18
India,Uttar_Pradesh,Lucknow,"Lalbagh, Lucknow - CPCB",17-01-2026 08:00:00,26.8458805,80.9365541,PM2.5,85,337,194
India,Uttar_Pradesh,Lucknow,"Lalbagh, Lucknow - CPCB",17-01-2026 08:00:00,26.8458805,80.9365541,NO2,42,50,47
India,Uttar_Pradesh,Lucknow,"Talkatora District Industries Center, Lucknow - CPCB",17-01-2026 08:00:00,26.83399722,80.8917361,NH3,7,10,8
India,Uttar_Pradesh,Prayagraj,"Motilal Nehru NIT, Prayagraj - UPPCB",17-01-2026 08:00:00,25.494,81.863,CO,30,98,74
India,Uttar_Pradesh,Varanasi,"Ardhali Bazar, Varanasi - UPPCB",17-01-2026 08:00:00,25.3505986,82.9083074,OZONE,7,24,16
India,Uttar_Pradesh,Varanasi,"Bhelupur, Varanasi - UPPCB",17-01-2026 08:00:00,25.301778,82.996789,PM10,61,182,107
India,Uttar_Pradesh,Varanasi,"Bhelupur, Varanasi - UPPCB",17-01-2026 08:00:00,25.301778,82.996789,NH3,1,1,1
India,Uttar_Pradesh,Varanasi,"Bhelupur, Varanasi - UPPCB",17-01-2026 08:00:00,25.301778,82.996789,CO,4,57,34
India,Uttar_Pradesh,Noida,"Sector - 62, Noida - IMD",17-01-2026 08:00:00,28.6245479,77.3577104,PM2.5,272,457,361
India,Uttar_Pradesh,Noida,"Sector-1, Noida - UPPCB",17-01-2026 08:00:00,28.5898,77.3101,NO2,17,19,18
India,Uttar_Pradesh,Noida,"Sector-1, Noida - UPPCB",17-01-2026 08:00:00,28.5898,77.3101,NH3,7,8,7
India,Uttar_Pradesh,Prayagraj,"Jhunsi, Prayagraj - UPPCB",17-01-2026 08:00:00,25.425602,81.917152,NH3,5,5,5
India,Uttar_Pradesh,Prayagraj,"Jhunsi, Prayagraj - UPPCB",17-01-2026 08:00:00,25.425602,81.917152,OZONE,16,24,17
India,Uttar_Pradesh,Kanpur,"Nehru Nagar, Kanpur - UPPCB",17-01-2026 08:00:00,26.4703136,80.3229863,PM10,68,270,140
India,Uttar_Pradesh,Kanpur,"Nehru Nagar, Kanpur - UPPCB",17-01-2026 08:00:00,26.4703136,80.3229863,NO2,52,60,56
India,Uttar_Pradesh,Lucknow,"B R Ambedkar University, Lucknow - UPPCB",17-01-2026 08:00:00,26.766433,80.927299,OZONE,17,80,17
India,West_Bengal,Haldia,"Priyambada Housing Estate, Haldia - WBPCB",17-01-2026 08:00:00,22.06047,88.109737,SO2,13,22,16
India,West_Bengal,Howrah,"Belur Math, Howrah - WBPCB",17-01-2026 08:00:00,22.629801,88.352017,PM2.5,117,323,226
India,West_Bengal,Howrah,"Botanical Garden, Howrah - WBPCB",17-01-2026 08:00:00,22.554954,88.292568,PM10,65,176,122
India,West_Bengal,Howrah,"Botanical Garden, Howrah - WBPCB",17-01-2026 08:00:00,22.554954,88.292568,NO2,9,13,11
India,West_Bengal,Howrah,"Dasnagar, Howrah - WBPCB",17-01-2026 08:00:00,22.6025571,88.3105664,PM10,85,139,116
India,West_Bengal,Howrah,"Ghusuri, Howrah - WBPCB",17-01-2026 08:00:00,22.611968,88.347422,PM10,102,297,188
India,West_Bengal,Howrah,"Ghusuri, Howrah - WBPCB",17-01-2026 08:00:00,22.611968,88.347422,NO2,21,37,26
India,West_Bengal,Howrah,"Ghusuri, Howrah - WBPCB",17-01-2026 08:00:00,22.611968,88.347422,NH3,7,15,11
India,West_Bengal,Howrah,"Ghusuri, Howrah - WBPCB",17-01-2026 08:00:00,22.611968,88.347422,OZONE,8,30,10
India,West_Bengal,Howrah,"Padmapukur, Howrah - WBPCB",17-01-2026 08:00:00,22.5687319,88.2797276,NH3,4,14,8
India,West_Bengal,Howrah,"Padmapukur, Howrah - WBPCB",17-01-2026 08:00:00,22.5687319,88.2797276,OZONE,3,93,4
India,West_Bengal,Kolkata,"Ballygunge, Kolkata - WBPCB",17-01-2026 08:00:00,22.5367507,88.3638022,OZONE,4,28,5
India,West_Bengal,Kolkata,"Fort William, Kolkata - WBPCB",17-01-2026 08:00:00,22.556640,88.342674,PM10,74,186,130
India,West_Bengal,Kolkata,"Fort William, Kolkata - WBPCB",17-01-2026 08:00:00,22.556640,88.342674,NH3,9,11,9
India,West_Bengal,Kolkata,"Jadavpur, Kolkata - WBPCB",17-01-2026 08:00:00,22.49929,88.36917,PM2.5,88,363,227
India,West_Bengal,Kolkata,"Jadavpur, Kolkata - WBPCB",17-01-2026 08:00:00,22.49929,88.36917,NH3,6,12,8
India,West_Bengal,Kolkata,"Jadavpur, Kolkata - WBPCB",17-01-2026 08:00:00,22.49929,88.36917,OZONE,7,13,8
India,West_Bengal,Kolkata,"Rabindra Bharati University, Kolkata - WBPCB",17-01-2026 08:00:00,22.627847,88.380669,PM10,110,408,166
India,West_Bengal,Kolkata,"Rabindra Sarobar, Kolkata - WBPCB",17-01-2026 08:00:00,22.51106,88.35142,SO2,7,23,16
India,West_Bengal,Kolkata,"Victoria, Kolkata - WBPCB",17-01-2026 08:00:00,22.5448082,88.3403691,NH3,5,5,5
India,West_Bengal,Kolkata,"Victoria, Kolkata - WBPCB",17-01-2026 08:00:00,22.5448082,88.3403691,CO,74,111,103
India,West_Bengal,Siliguri,"Ward-32 Bapupara, Siliguri - WBPCB",17-01-2026 08:00:00,26.6879226,88.4152495,PM10,55,213,111
India,West_Bengal,Siliguri,"Ward-32 Bapupara, Siliguri - WBPCB",17-01-2026 08:00:00,26.6879226,88.4152495,CO,24,103,65
India,Andhra_Pradesh,Visakhapatnam,"GVM Corporation, Visakhapatnam - APPCB",17-01-2026 08:00:00,17.72,83.3,PM2.5,124,303,201
India,Andhra_Pradesh,Visakhapatnam,"GVM Corporation, Visakhapatnam - APPCB",17-01-2026 08:00:00,17.72,83.3,PM10,118,404,176
India,Arunachal_Pradesh,Naharlagun,"Naharlagun, Naharlagun - APSPCB",17-01-2026 08:00:00,27.103358,93.679645,NO2,6,7,7
India,Arunachal_Pradesh,Naharlagun,"Naharlagun, Naharlagun - APSPCB",17-01-2026 08:00:00,27.103358,93.679645,SO2,9,10,9
India,Assam,Byrnihat,"Central Academy for SFS, Byrnihat - PCBA",17-01-2026 08:00:00,26.071318,91.87488,PM2.5,96,316,171
India,Assam,Byrnihat,"Central Academy for SFS, Byrnihat - PCBA",17-01-2026 08:00:00,26.071318,91.87488,PM10,72,151,98
India,Assam,Byrnihat,"Central Academy for SFS, Byrnihat - PCBA",17-01-2026 08:00:00,26.071318,91.87488,SO2,23,32,32
India,Assam,Byrnihat,"Central Academy for SFS, Byrnihat - PCBA",17-01-2026 08:00:00,26.071318,91.87488,CO,35,65,51
India,Assam,Guwahati,"LGBI Airport, Guwahati - PCBA",17-01-2026 08:00:00,26.10887,91.589544,NO2,9,100,21
India,Assam,Guwahati,"Pan Bazaar, Guwahati - PCBA",17-01-2026 08:00:00,26.187500,91.744194,PM2.5,44,300,139
India,Assam,Nagaon,"Christianpatty, Nagaon - PCBA",17-01-2026 08:00:00,26.349082,92.68449,PM2.5,42,184,121
India,Assam,Nagaon,"Christianpatty, Nagaon - PCBA",17-01-2026 08:00:00,26.349082,92.68449,PM10,49,129,105
India,Assam,Nagaon,"Christianpatty, Nagaon - PCBA",17-01-2026 08:00:00,26.349082,92.68449,OZONE,NA,NA,NA
India,Assam,Nalbari,"Bata Chowk, Nalbari - PCBA",17-01-2026 08:00:00,26.446912,91.439057,PM10,106,121,113
India,Assam,Nalbari,"Bata Chowk, Nalbari - PCBA",17-01-2026 08:00:00,26.446912,91.439057,NO2,13,15,14
India,Assam,Silchar,"Tarapur, Silchar - PCBA",17-01-2026 08:00:00,24.82827,92.79525,NO2,19,31,23
India,Assam,Silchar,"Tarapur, Silchar - PCBA",17-01-2026 08:00:00,24.82827,92.79525,CO,23,38,30
India,Assam,Silchar,"Tarapur, Silchar - PCBA",17-01-2026 08:00:00,24.82827,92.79525,OZONE,2,5,2
India,Assam,Sivasagar,"Girls College, Sivasagar - PCBA",17-01-2026 08:00:00,26.987634,94.636574,PM10,37,83,62
India,Assam,Sivasagar,"Girls College, Sivasagar - PCBA",17-01-2026 08:00:00,26.987634,94.636574,NO2,28,71,41
India,Assam,Sivasagar,"Girls College, Sivasagar - PCBA",17-01-2026 08:00:00,26.987634,94.636574,SO2,9,13,10
India,Bihar,Munger,"Town Hall, Munger - BSPCB",17-01-2026 08:00:00,25.376776,86.471523,OZONE,15,46,19
India,Bihar,Muzaffarpur,"MIT-Daudpur Kothi, Muzaffarpur - BSPCB",17-01-2026 08:00:00,26.1403345,85.3650192,NO2,1,3,2
India,Bihar,Muzaffarpur,"MIT-Daudpur Kothi, Muzaffarpur - BSPCB",17-01-2026 08:00:00,26.1403345,85.3650192,NH3,2,2,2
India,Bihar,Muzaffarpur,"MIT-Daudpur Kothi, Muzaffarpur - BSPCB",17-01-2026 08:00:00,26.1403345,85.3650192,SO2,10,18,14
India,Bihar,Muzaffarpur,"MIT-Daudpur Kothi, Muzaffarpur - BSPCB",17-01-2026 08:00:00,26.1403345,85.3650192,CO,44,63,56
India,Bihar,Muzaffarpur,"MIT-Daudpur Kothi, Muzaffarpur - BSPCB",17-01-2026 08:00:00,26.1403345,85.3650192,OZONE,12,58,12
India,Bihar,Muzaffarpur,"Muzaffarpur Collectorate, Muzaffarpur - BSPCB",17-01-2026 08:00:00,26.1209,85.3647,NO2,9,15,11
India,Bihar,Muzaffarpur,"Muzaffarpur Collectorate, Muzaffarpur - BSPCB",17-01-2026 08:00:00,26.1209,85.3647,OZONE,7,23,7
India,Bihar,Patna,"Govt. High School Shikarpur, Patna - BSPCB",17-01-2026 08:00:00,25.592539,85.227158,PM2.5,NA,NA,NA
India,Andhra_Pradesh,Tirumala,"Toll Gate, Tirumala - APPCB",17-01-2026 08:00:00,13.67,79.35,OZONE,17,74,43
India,Andhra_Pradesh,Tirupati,"Vaikuntapuram, Tirupati - APPCB",17-01-2026 08:00:00,13.615387,79.409230,NO2,38,41,40
India,Andhra_Pradesh,Tirupati,"Vaikuntapuram, Tirupati - APPCB",17-01-2026 08:00:00,13.615387,79.409230,OZONE,17,18,18
India,Andhra_Pradesh,Vijayawada,"HB Colony, Vijayawada - APPCB",17-01-2026 08:00:00,16.536107,80.594233,OZONE,5,38,8
India,Andhra_Pradesh,Vijayawada,"Kanuru, Vijayawada - APPCB",17-01-2026 08:00:00,16.486692,80.699436,PM2.5,65,69,67
India,Andhra_Pradesh,Vijayawada,"Kanuru, Vijayawada - APPCB",17-01-2026 08:00:00,16.486692,80.699436,NO2,35,41,36
India,Andhra_Pradesh,Vijayawada,"Rajiv Gandhi Park, Vijayawada - APPCB",17-01-2026 08:00:00,16.509717,80.612222,PM10,NA,NA,NA
India,Andhra_Pradesh,Vijayawada,"Rajiv Gandhi Park, Vijayawada - APPCB",17-01-2026 08:00:00,16.509717,80.612222,CO,NA,NA,NA
India,Andhra_Pradesh,Vijayawada,"Rajiv Gandhi Park, Vijayawada - APPCB",17-01-2026 08:00:00,16.509717,80.612222,OZONE,NA,NA,NA
India,Bihar,Buxar,"Charitra Van, Buxar - BSPCB",17-01-2026 08:00:00,25.567520,83.966379,OZONE,10,67,15
India,Bihar,Gaya,"Collectorate, Gaya - BSPCB",17-01-2026 08:00:00,24.7955,84.9994,CO,NA,NA,NA
India,Bihar,Gaya,"Kareemganj, Gaya - BSPCB",17-01-2026 08:00:00,24.792403,84.992416,PM2.5,67,346,189
India,Bihar,Gaya,"Kareemganj, Gaya - BSPCB",17-01-2026 08:00:00,24.792403,84.992416,PM10,NA,NA,NA
India,Bihar,Gaya,"SFTI Kusdihra, Gaya - BSPCB",17-01-2026 08:00:00,24.762518,84.982348,NO2,18,23,21
India,Bihar,Hajipur,"Industrial Area, Hajipur - BSPCB",17-01-2026 08:00:00,25.697189,85.245900,NO2,25,79,44
India,Bihar,Katihar,"Mirchaibari, Katihar - BSPCB",17-01-2026 08:00:00,25.560083,87.553265,PM2.5,70,200,129
India,Bihar,Katihar,"Mirchaibari, Katihar - BSPCB",17-01-2026 08:00:00,25.560083,87.553265,NH3,1,1,1
India,Bihar,Kishanganj,"SDM Office_Khagra, Kishanganj - BSPCB",17-01-2026 08:00:00,26.0881305,87.93840336,PM10,38,75,60
India,Bihar,Manguraha,"Forest Rest House, Manguraha - BSPCB",17-01-2026 08:00:00,27.308328,84.531742,PM10,92,173,120
India,Bihar,Motihari,"Gandak Colony, Motihari - BSPCB",17-01-2026 08:00:00,26.63086,84.90051,NH3,3,3,3
India,Andhra_Pradesh,Anantapur,"Gulzarpet, Anantapur - APPCB",17-01-2026 08:00:00,14.675886,77.593027,PM10,NA,NA,NA
India,Andhra_Pradesh,Anantapur,"Gulzarpet, Anantapur - APPCB",17-01-2026 08:00:00,14.675886,77.593027,SO2,10,10,10
India,Andhra_Pradesh,Chittoor,"Gangineni Cheruvu, Chittoor - APPCB",17-01-2026 08:00:00,13.204880,79.097889,NH3,5,6,5
India,Andhra_Pradesh,Kadapa,"Yerramukkapalli, Kadapa - APPCB",17-01-2026 08:00:00,14.465052,78.824187,SO2,19,19,19
India,Andhra_Pradesh,Tirumala,"Toll Gate, Tirumala - APPCB",17-01-2026 08:00:00,13.67,79.35,SO2,8,76,24
India,Bihar,Bettiah,"Kamalnath Nagar, Bettiah - BSPCB",17-01-2026 08:00:00,26.80365,84.51954,NH3,1,1,1
India,Bihar,Bhagalpur,"DM Office_Kachari Chowk, Bhagalpur - BSPCB",17-01-2026 08:00:00,25.251013,86.989001,PM2.5,70,163,101
India,Bihar,Bhagalpur,"DM Office_Kachari Chowk, Bhagalpur - BSPCB",17-01-2026 08:00:00,25.251013,86.989001,OZONE,11,22,16
India,Bihar,Begusarai,"Lohiyanagar, Begusarai - BSPCB",17-01-2026 08:00:00,25.42742023,86.13886079,NH3,10,11,11
India,Bihar,Bettiah,"Kamalnath Nagar, Bettiah - BSPCB",17-01-2026 08:00:00,26.80365,84.51954,PM2.5,62,309,150
India,Andhra_Pradesh,Amaravati,"Secretariat, Amaravati - APPCB",17-01-2026 08:00:00,16.5150833,80.5181667,CO,4,22,18
India,Andhra_Pradesh,Anantapur,"Gulzarpet, Anantapur - APPCB",17-01-2026 08:00:00,14.675886,77.593027,PM2.5,NA,NA,NA
India,Chandigarh,Chandigarh,"Sector 22, Chandigarh - CPCC",17-01-2026 08:00:00,30.735567,76.775714,PM2.5,83,342,189
India,Chandigarh,Chandigarh,"Sector 22, Chandigarh - CPCC",17-01-2026 08:00:00,30.735567,76.775714,CO,59,139,71
India,Chandigarh,Chandigarh,"Sector-25, Chandigarh - CPCC",17-01-2026 08:00:00,30.751462,76.762879,PM10,78,229,146
India,Chandigarh,Chandigarh,"Sector-25, Chandigarh - CPCC",17-01-2026 08:00:00,30.751462,76.762879,OZONE,1,40,1
India,Chandigarh,Chandigarh,"Sector-53, Chandigarh - CPCC",17-01-2026 08:00:00,30.719859,76.738637,CO,22,136,54
India,Chhattisgarh,Bhilai,"32Bungalows, Bhilai - CECB",17-01-2026 08:00:00,21.194815,81.314770,CO,22,68,52
India,Chhattisgarh,Bhilai,"Civic Center, Bhilai - Bhilai Steel Plant",17-01-2026 08:00:00,21.185571,81.343175,PM10,23,120,62
India,Chhattisgarh,Bhilai,"Civic Center, Bhilai - Bhilai Steel Plant",17-01-2026 08:00:00,21.185571,81.343175,OZONE,9,14,10
India,Bihar,Saharsa,"Police Line, Saharsa - BSPCB",17-01-2026 08:00:00,25.892357,86.590325,OZONE,1,13,8
India,Bihar,Samastipur,"DM Office_Kasipur, Samastipur - BSPCB",17-01-2026 08:00:00,25.859655,85.77944,PM10,84,264,143
India,Bihar,Sasaram,"Dada Peer, Sasaram - BSPCB",17-01-2026 08:00:00,24.952822,84.002396,PM2.5,20,77,37
India,Bihar,Sasaram,"Dada Peer, Sasaram - BSPCB",17-01-2026 08:00:00,24.952822,84.002396,PM10,54,136,77
India,Bihar,Sasaram,"Dada Peer, Sasaram - BSPCB",17-01-2026 08:00:00,24.952822,84.002396,OZONE,16,18,16
India,Bihar,Siwan,"Chitragupta Nagar, Siwan - BSPCB",17-01-2026 08:00:00,26.2271665,84.3570427,SO2,8,8,8
India,Chhattisgarh,Milupara,"Govt. Higher Secondary School, Milupara - CECB",17-01-2026 08:00:00,22.1910172,83.5197009,SO2,13,17,14
India,Chhattisgarh,Raipur,"AIIMS, Raipur - CECB",17-01-2026 08:00:00,21.258815,81.578979,SO2,4,7,5
India,Chhattisgarh,Raipur,"Bhatagaon New ISBT, Raipur - CECB",17-01-2026 08:00:00,21.219665,81.630094,PM2.5,37,110,67
India,Chhattisgarh,Raipur,"Krishak Nagar, Raipur - CECB",17-01-2026 08:00:00,21.237755,81.705301,PM2.5,41,69,58
India,Chhattisgarh,Raipur,"Krishak Nagar, Raipur - CECB",17-01-2026 08:00:00,21.237755,81.705301,NO2,22,30,27
India,Chhattisgarh,Raipur,"Krishak Nagar, Raipur - CECB",17-01-2026 08:00:00,21.237755,81.705301,CO,27,52,52
India,Bihar,Patna,"IGSC Planetarium Complex, Patna - BSPCB",17-01-2026 08:00:00,25.610369,85.132568,OZONE,28,30,29
India,Bihar,Patna,"Rajbansi Nagar, Patna - BSPCB",17-01-2026 08:00:00,25.599486,85.113666,NH3,2,5,4
India,Bihar,Patna,"Samanpura, Patna - BSPCB",17-01-2026 08:00:00,25.596727,85.085624,NO2,20,24,22
India,Bihar,Purnia,"Mariam Nagar, Purnia - BSPCB",17-01-2026 08:00:00,25.366336,87.117468,NH3,3,3,3
India,Bihar,Purnia,"Mariam Nagar, Purnia - BSPCB",17-01-2026 08:00:00,25.366336,87.117468,CO,4,64,55
India,Delhi,Delhi,"Bawana, Delhi - DPCC",17-01-2026 08:00:00,28.776200,77.051074,PM2.5,250,500,368
India,Delhi,Delhi,"Bawana, Delhi - DPCC",17-01-2026 08:00:00,28.776200,77.051074,PM10,131,500,267
India,Delhi,Delhi,"Bawana, Delhi - DPCC",17-01-2026 08:00:00,28.776200,77.051074,NH3,8,14,10
India,Delhi,Delhi,"CRRI Mathura Road, Delhi - IMD",17-01-2026 08:00:00,28.5512005,77.2735737,NO2,14,86,45
India,Delhi,Delhi,"Chandni Chowk, Delhi - IITM",17-01-2026 08:00:00,28.656756,77.227234,PM10,224,500,406
India,Chhattisgarh,Bhilai,"Hathkhoj, Bhilai - CECB",17-01-2026 08:00:00,21.224231,81.408350,OZONE,1,13,3
India,Chhattisgarh,Bilaspur,"Mangala, Bilaspur - NTPC",17-01-2026 08:00:00,22.08815,82.13737,CO,21,86,55
India,Chhattisgarh,Chhal,"Nawapara SECL Colony, Chhal - CECB",17-01-2026 08:00:00,22.118125,83.140608,PM10,NA,NA,NA
India,Delhi,Delhi,"Anand Vihar, Delhi - DPCC",17-01-2026 08:00:00,28.647622,77.3158090,PM2.5,348,500,450
India,Delhi,Delhi,"Anand Vihar, Delhi - DPCC",17-01-2026 08:00:00,28.647622,77.3158090,CO,46,138,114
India,Delhi,Delhi,"Ashok Vihar, Delhi - DPCC",17-01-2026 08:00:00,28.695381,77.181665,NO2,32,135,77
India,Chhattisgarh,Korba,"Rampur, Korba - CECB",17-01-2026 08:00:00,22.368195,82.746431,PM10,20,90,58
India,Chhattisgarh,Korba,"Urja Nagar, Korba - CECB",17-01-2026 08:00:00,22.348441,82.549611,CO,20,76,38
India,Chhattisgarh,Milupara,"Govt. Higher Secondary School, Milupara - CECB",17-01-2026 08:00:00,22.1910172,83.5197009,PM2.5,18,67,43
India,Gujarat,Ahmedabad,"SAC ISRO Bopal, Ahmedabad - IITM",17-01-2026 08:00:00,23.041137,72.456691,PM10,117,181,151
India,Gujarat,Ahmedabad,"SAC ISRO Bopal, Ahmedabad - IITM",17-01-2026 08:00:00,23.041137,72.456691,CO,15,42,36
India,Gujarat,Ahmedabad,"SAC ISRO Satellite, Ahmedabad - IITM",17-01-2026 08:00:00,23.023389,72.515201,PM2.5,76,156,100
India,Gujarat,Ahmedabad,"SAC ISRO Satellite, Ahmedabad - IITM",17-01-2026 08:00:00,23.023389,72.515201,NH3,1,17,6
India,Gujarat,Ahmedabad,"SAC ISRO Satellite, Ahmedabad - IITM",17-01-2026 08:00:00,23.023389,72.515201,SO2,4,37,12
India,Gujarat,Ahmedabad,"SAC ISRO Satellite, Ahmedabad - IITM",17-01-2026 08:00:00,23.023389,72.515201,OZONE,1,72,2
India,Gujarat,Ahmedabad,"SVPI Airport Hansol, Ahmedabad - IITM",17-01-2026 08:00:00,23.076793,72.627874,NH3,3,15,7
India,Gujarat,Ahmedabad,"SVPI Airport Hansol, Ahmedabad - IITM",17-01-2026 08:00:00,23.076793,72.627874,SO2,4,10,6
India,Gujarat,Ankleshwar,"GIDC, Ankleshwar - GPCB",17-01-2026 08:00:00,21.613267,73.010555,PM10,58,412,172
India,Gujarat,Gandhinagar,"GIFT City, Gandhinagar - IITM",17-01-2026 08:00:00,23.163798,72.677768,PM2.5,31,81,60
India,Delhi,Delhi,"Sirifort, Delhi - CPCB",17-01-2026 08:00:00,28.5504249,77.2159377,NO2,1,47,30
India,Delhi,Delhi,"Sonia Vihar, Delhi - DPCC",17-01-2026 08:00:00,28.710508,77.249485,NO2,24,73,46
India,Delhi,Delhi,"Sonia Vihar, Delhi - DPCC",17-01-2026 08:00:00,28.710508,77.249485,NH3,9,13,11
India,Delhi,Delhi,"Sonia Vihar, Delhi - DPCC",17-01-2026 08:00:00,28.710508,77.249485,CO,52,134,107
India,Delhi,Delhi,"Sri Aurobindo Marg, Delhi - DPCC",17-01-2026 08:00:00,28.531346,77.190156,PM2.5,120,449,317
India,Delhi,Delhi,"Sri Aurobindo Marg, Delhi - DPCC",17-01-2026 08:00:00,28.531346,77.190156,CO,26,136,120
India,Delhi,Delhi,"Sri Aurobindo Marg, Delhi - DPCC",17-01-2026 08:00:00,28.531346,77.190156,OZONE,2,113,2
India,Delhi,Delhi,"Vivek Vihar, Delhi - DPCC",17-01-2026 08:00:00,28.672342,77.315260,PM2.5,326,500,424
India,Delhi,Delhi,"Vivek Vihar, Delhi - DPCC",17-01-2026 08:00:00,28.672342,77.315260,PM10,203,500,369
India,Delhi,Delhi,"Wazirpur, Delhi - DPCC",17-01-2026 08:00:00,28.699793,77.165453,PM2.5,217,500,409
India,Delhi,Delhi,"Wazirpur, Delhi - DPCC",17-01-2026 08:00:00,28.699793,77.165453,CO,47,127,104
India,Gujarat,Ahmedabad,"Gyaspur, Ahmedabad - IITM",17-01-2026 08:00:00,22.977134,72.553024,PM10,134,196,163
India,Gujarat,Ahmedabad,"Gyaspur, Ahmedabad - IITM",17-01-2026 08:00:00,22.977134,72.553024,OZONE,NA,NA,NA
India,Gujarat,Ahmedabad,"Raikhad, Ahmedabad - IITM",17-01-2026 08:00:00,23.020509,72.579261,SO2,8,22,14
India,Gujarat,Ahmedabad,"Rakhial, Ahmedabad - IITM",17-01-2026 08:00:00,23.016834,72.625775,PM2.5,75,311,165
India,Gujarat,Ahmedabad,"Rakhial, Ahmedabad - IITM",17-01-2026 08:00:00,23.016834,72.625775,NH3,5,15,8
India,Gujarat,Gandhinagar,"Sector-10, Gandhinagar - GPCB",17-01-2026 08:00:00,23.221714,72.654328,SO2,8,15,12
India,Gujarat,Gandhinagar,"Sector-10, Gandhinagar - GPCB",17-01-2026 08:00:00,23.221714,72.654328,OZONE,3,90,4
India,Gujarat,Surat,"Science Center, Surat - SMC",17-01-2026 08:00:00,21.170046,72.795405,PM10,39,130,90
India,Gujarat,Vapi,"Phase-1 GIDC, Vapi - GPCB",17-01-2026 08:00:00,20.362421,72.918013,NO2,1,9,4
India,Gujarat,Vatva,"Phase-4 GIDC, Vatva - GPCB",17-01-2026 08:00:00,22.969611,72.643500,SO2,13,25,19
India,Gujarat,Vatva,"Phase-4 GIDC, Vatva - GPCB",17-01-2026 08:00:00,22.969611,72.643500,CO,12,12,12
India,Delhi,Delhi,"Dr. Karni Singh Shooting Range, Delhi - DPCC",17-01-2026 08:00:00,28.498571,77.264840,PM2.5,223,499,381
India,Delhi,Delhi,"Dr. Karni Singh Shooting Range, Delhi - DPCC",17-01-2026 08:00:00,28.498571,77.264840,NO2,17,114,54
India,Delhi,Delhi,"Dr. Karni Singh Shooting Range, Delhi - DPCC",17-01-2026 08:00:00,28.498571,77.264840,SO2,7,15,11
India,Delhi,Delhi,"Dwarka-Sector 8, Delhi - DPCC ",17-01-2026 08:00:00,28.5710274,77.0719006,PM2.5,267,500,416
India,Delhi,Delhi,"Dwarka-Sector 8, Delhi - DPCC ",17-01-2026 08:00:00,28.5710274,77.0719006,OZONE,2,153,4
India,Delhi,Delhi,"IIT Delhi, Delhi - IITM",17-01-2026 08:00:00,28.542460,77.191651,CO,42,138,130
India,Delhi,Delhi,"Jahangirpuri, Delhi - DPCC",17-01-2026 08:00:00,28.732820,77.170633,CO,66,139,106
India,Delhi,Delhi,"Jahangirpuri, Delhi - DPCC",17-01-2026 08:00:00,28.732820,77.170633,OZONE,5,92,5
India,Delhi,Delhi,"Major Dhyan Chand National Stadium, Delhi - DPCC",17-01-2026 08:00:00,28.611281,77.237738,NH3,18,30,24
India,Delhi,Delhi,"Major Dhyan Chand National Stadium, Delhi - DPCC",17-01-2026 08:00:00,28.611281,77.237738,SO2,3,20,10
India,Delhi,Delhi,"Mandir Marg, Delhi - DPCC",17-01-2026 08:00:00,28.636429,77.201067,PM2.5,70,500,334
India,Delhi,Delhi,"North Campus, DU, Delhi - IMD",17-01-2026 08:00:00,28.6573814,77.1585447,CO,50,176,127
India,Delhi,Delhi,"Okhla Phase-2, Delhi - DPCC",17-01-2026 08:00:00,28.530785,77.271255,PM2.5,197,480,367
India,Delhi,Delhi,"Patparganj, Delhi - DPCC",17-01-2026 08:00:00,28.623763,77.287209,NH3,12,17,14
India,Delhi,Delhi,"Patparganj, Delhi - DPCC",17-01-2026 08:00:00,28.623763,77.287209,SO2,10,16,12
India,Delhi,Delhi,"Mundka, Delhi - DPCC",17-01-2026 08:00:00,28.684678,77.076574,PM10,159,500,307
India,Delhi,Delhi,"NSIT Dwarka, Delhi - CPCB",17-01-2026 08:00:00,28.60909,77.0325413,NH3,6,11,8
India,Delhi,Delhi,"NSIT Dwarka, Delhi - CPCB",17-01-2026 08:00:00,28.60909,77.0325413,SO2,10,23,15
India,Delhi,Delhi,"NSIT Dwarka, Delhi - CPCB",17-01-2026 08:00:00,28.60909,77.0325413,CO,44,88,57
India,Delhi,Delhi,"Punjabi Bagh, Delhi - DPCC",17-01-2026 08:00:00,28.674045,77.131023,CO,42,147,69
India,Delhi,Delhi,"Pusa, Delhi - DPCC",17-01-2026 08:00:00,28.639652,77.146275,PM10,205,435,351
India,Delhi,Delhi,"R K Puram, Delhi - DPCC",17-01-2026 08:00:00,28.563262,77.186937,PM10,137,500,315
India,Haryana,Charkhi Dadri,"Mini Secretariat, Charkhi Dadri - HSPCB",17-01-2026 08:00:00,28.593883,76.270653,CO,6,25,15
India,Haryana,Dharuhera,"Municipal Corporation Office, Dharuhera -  HSPCB",17-01-2026 08:00:00,28.206800,76.799700,PM10,128,496,298
India,Haryana,Faridabad,"Sector 11, Faridabad - HSPCB",17-01-2026 08:00:00,28.376058,77.315741,NO2,30,33,31
India,Haryana,Faridabad,"Sector 11, Faridabad - HSPCB",17-01-2026 08:00:00,28.376058,77.315741,SO2,4,124,10
India,Haryana,Faridabad,"Sector 30, Faridabad - HSPCB",17-01-2026 08:00:00,28.4417,77.3217,PM10,161,165,162
India,Haryana,Faridabad,"Sector 30, Faridabad - HSPCB",17-01-2026 08:00:00,28.4417,77.3217,OZONE,17,19,18
India,Haryana,Fatehabad,"Huda Sector, Fatehabad - HSPCB",17-01-2026 08:00:00,29.503664,75.467934,NH3,13,15,14
India,Haryana,Fatehabad,"Huda Sector, Fatehabad - HSPCB",17-01-2026 08:00:00,29.503664,75.467934,CO,25,34,26
India,Haryana,Kaithal,"Rishi Nagar, Kaithal - HSPCB",17-01-2026 08:00:00,29.8006,76.4155,PM10,102,426,182
India,Haryana,Kaithal,"Rishi Nagar, Kaithal - HSPCB",17-01-2026 08:00:00,29.8006,76.4155,NH3,2,6,6
India,Haryana,Kaithal,"Rishi Nagar, Kaithal - HSPCB",17-01-2026 08:00:00,29.8006,76.4155,CO,5,120,52
India,Haryana,Kaithal,"Rishi Nagar, Kaithal - HSPCB",17-01-2026 08:00:00,29.8006,76.4155,OZONE,14,38,16
India,Haryana,Kurukshetra,"Sector-7, Kurukshetra - HSPCB",17-01-2026 08:00:00,29.966942,76.875879,NO2,16,21,19
India,Haryana,Kurukshetra,"Sector-7, Kurukshetra - HSPCB",17-01-2026 08:00:00,29.966942,76.875879,NH3,5,5,5
India,Haryana,Kurukshetra,"Sector-7, Kurukshetra - HSPCB",17-01-2026 08:00:00,29.966942,76.875879,CO,48,92,76
India,Haryana,Mandikhera,"General Hospital, Mandikhera(Nuh) - HSPCB",17-01-2026 08:00:00,27.9002,76.9938,PM2.5,52,247,134
India,Haryana,Mandikhera,"General Hospital, Mandikhera(Nuh) - HSPCB",17-01-2026 08:00:00,27.9002,76.9938,CO,60,88,73
India,Karnataka,Bengaluru,"Bapuji Nagar, Bengaluru - KSPCB",17-01-2026 08:00:00,12.951913,77.539784,PM2.5,54,111,75
India,Karnataka,Bengaluru,"Bapuji Nagar, Bengaluru - KSPCB",17-01-2026 08:00:00,12.951913,77.539784,NO2,8,29,16
India,Karnataka,Bengaluru,"Hebbal, Bengaluru - KSPCB",17-01-2026 08:00:00,13.029152,77.585901,SO2,10,20,15
India,Karnataka,Bengaluru,"Hebbal, Bengaluru - KSPCB",17-01-2026 08:00:00,13.029152,77.585901,OZONE,6,15,7
India,Karnataka,Bengaluru,"Hombegowda Nagar, Bengaluru - KSPCB",17-01-2026 08:00:00,12.938539,77.590100,PM2.5,59,119,80
India,Karnataka,Bengaluru,"Hombegowda Nagar, Bengaluru - KSPCB",17-01-2026 08:00:00,12.938539,77.590100,NO2,16,86,39
India,Karnataka,Bengaluru,"Hombegowda Nagar, Bengaluru - KSPCB",17-01-2026 08:00:00,12.938539,77.590100,NH3,3,6,4
India,Karnataka,Bengaluru,"Hombegowda Nagar, Bengaluru - KSPCB",17-01-2026 08:00:00,12.938539,77.590100,OZONE,14,57,26
India,Karnataka,Bengaluru,"Jayanagar 5th Block, Bengaluru - KSPCB",17-01-2026 08:00:00,12.920984,77.584908,NO2,NA,NA,NA
India,Jammu_and_Kashmir,Srinagar,"Rajbagh, Srinagar - JKPCC",17-01-2026 08:00:00,34.066206,74.819820,SO2,3,4,3
India,Jharkhand,Dhanbad,"Sardar Patel Nagar, Dhanbad - JSPCB",17-01-2026 08:00:00,23.80569,86.44268,PM2.5,14,247,130
India,Karnataka,Bagalkot,"Vidayagiri, Bagalkot - KSPCB",17-01-2026 08:00:00,16.172806,75.659694,PM2.5,34,36,35
India,Karnataka,Bagalkot,"Vidayagiri, Bagalkot - KSPCB",17-01-2026 08:00:00,16.172806,75.659694,PM10,45,46,46
India,Karnataka,Belgaum,"Ramteerth Nagar, Belgaum - KSPCB",17-01-2026 08:00:00,15.888653,74.541751,PM2.5,40,99,63
India,Karnataka,Bengaluru,"BTM Layout, Bengaluru - CPCB",17-01-2026 08:00:00,12.9135218,77.5950804,PM2.5,83,238,102
India,Haryana,Panipat,"Sector-18, Panipat - HSPCB",17-01-2026 08:00:00,29.432304,76.972765,OZONE,30,30,30
India,Haryana,Rohtak,"MD University, Rohtak - HSPCB",17-01-2026 08:00:00,28.52123,76.37138,OZONE,38,40,39
India,Haryana,Sonipat,"Murthal, Sonipat - HSPCB",17-01-2026 08:00:00,29.027200,77.062100,PM10,53,113,82
India,Haryana,Sonipat,"Murthal, Sonipat - HSPCB",17-01-2026 08:00:00,29.027200,77.062100,OZONE,25,26,26
India,Haryana,Yamuna Nagar,"Gobind Pura, Yamuna Nagar - HSPCB",17-01-2026 08:00:00,30.1480566,77.2893471,NO2,11,21,16
India,Himachal Pradesh,Baddi,"HIMUDA Complex Phase-1, Baddi - HPPCB",17-01-2026 08:00:00,30.943887,76.801991,SO2,27,107,64
India,Haryana,Gurugram,"Sector-51, Gurugram - HSPCB",17-01-2026 08:00:00,28.4227,77.0667,PM10,134,500,328
India,Haryana,Gurugram,"Teri Gram, Gurugram - HSPCB",17-01-2026 08:00:00,28.4275,77.1465,PM10,97,308,182
India,Haryana,Gurugram,"Vikas Sadan, Gurugram - HSPCB",17-01-2026 08:00:00,28.4501238,77.0263051,SO2,2,8,5
India,Haryana,Hisar,"Urban Estate-II, Hisar - HSPCB",17-01-2026 08:00:00,29.140560,75.744941,PM2.5,105,322,223
India,Haryana,Hisar,"Urban Estate-II, Hisar - HSPCB",17-01-2026 08:00:00,29.140560,75.744941,SO2,9,13,10
India,Haryana,Ambala,"Patti Mehar, Ambala - HSPCB",17-01-2026 08:00:00,30.379589,76.778328,PM10,45,129,93
India,Haryana,Ambala,"Patti Mehar, Ambala - HSPCB",17-01-2026 08:00:00,30.379589,76.778328,NO2,20,26,22
India,Haryana,Ambala,"Patti Mehar, Ambala - HSPCB",17-01-2026 08:00:00,30.379589,76.778328,OZONE,12,39,12
India,Haryana,Bahadurgarh,"Arya Nagar, Bahadurgarh - HSPCB",17-01-2026 08:00:00,28.6701,76.9254,PM2.5,54,308,187
India,Haryana,Charkhi Dadri,"Mini Secretariat, Charkhi Dadri - HSPCB",17-01-2026 08:00:00,28.593883,76.270653,PM10,69,273,176
India,Haryana,Narnaul,"Shastri Nagar, Narnaul - HSPCB",17-01-2026 08:00:00,28.060249,76.113115,PM2.5,107,349,277
India,Haryana,Narnaul,"Shastri Nagar, Narnaul - HSPCB",17-01-2026 08:00:00,28.060249,76.113115,OZONE,6,30,6
India,Haryana,Palwal,"Shyam Nagar, Palwal - HSPCB",17-01-2026 08:00:00,28.1485564,77.3320667,PM2.5,80,164,111
India,Haryana,Palwal,"Shyam Nagar, Palwal - HSPCB",17-01-2026 08:00:00,28.1485564,77.3320667,PM10,99,145,120
India,Haryana,Palwal,"Shyam Nagar, Palwal - HSPCB",17-01-2026 08:00:00,28.1485564,77.3320667,NH3,8,9,9
India,Karnataka,Bengaluru,"Jayanagar 5th Block, Bengaluru - KSPCB",17-01-2026 08:00:00,12.920984,77.584908,OZONE,NA,NA,NA
India,Karnataka,Bengaluru,"Peenya, Bengaluru - CPCB",17-01-2026 08:00:00,13.0270199,77.494094,NO2,21,29,25
India,Karnataka,Bengaluru,"Peenya, Bengaluru - CPCB",17-01-2026 08:00:00,13.0270199,77.494094,CO,6,25,9
India,Karnataka,Bengaluru,"Sanegurava Halli, Bengaluru - KSPCB",17-01-2026 08:00:00,12.990328,77.5431385,SO2,6,6,6
India,Karnataka,Bengaluru,"Silk Board, Bengaluru - KSPCB",17-01-2026 08:00:00,12.917348,77.622813,SO2,7,13,9
India,Karnataka,Chamarajanagar,"Urban, Chamarajanagar - KSPCB",17-01-2026 08:00:00,11.55358,76.55521,PM10,34,65,46
India,Karnataka,Chikkaballapur,"Chikkaballapur Rural, Chikkaballapur - KSPCB",17-01-2026 08:00:00,13.428828,77.731418,NO2,8,79,32
India,Karnataka,Chikkaballapur,"Chikkaballapur Rural, Chikkaballapur - KSPCB",17-01-2026 08:00:00,13.428828,77.731418,NH3,5,8,6
India,Karnataka,Chikkaballapur,"Chikkaballapur Rural, Chikkaballapur - KSPCB",17-01-2026 08:00:00,13.428828,77.731418,SO2,27,44,38
India,Karnataka,Chikkaballapur,"Chikkaballapur Rural, Chikkaballapur - KSPCB",17-01-2026 08:00:00,13.428828,77.731418,CO,4,28,19
India,Karnataka,Chikkamagaluru,"Kalyana Nagara, Chikkamagaluru - KSPCB",17-01-2026 08:00:00,13.328028,75.797056,NO2,21,30,24
India,Karnataka,Chikkamagaluru,"Kalyana Nagara, Chikkamagaluru - KSPCB",17-01-2026 08:00:00,13.328028,75.797056,CO,11,11,11
India,Karnataka,Dharwad,"Kalabhavan, Dharwad - KSPCB",17-01-2026 08:00:00,15.459706,75.008381,PM10,90,117,102
India,Madhya Pradesh,Ratlam,"Shasthri Nagar, Ratlam - IPCA Lab",17-01-2026 08:00:00,23.331731,75.045981,PM10,65,159,108
India,Madhya Pradesh,Sagar,"Civil Lines, Sagar - MPPCB",17-01-2026 08:00:00,23.838586,78.759431,PM10,19,132,65
India,Madhya Pradesh,Sagar,"Civil Lines, Sagar - MPPCB",17-01-2026 08:00:00,23.838586,78.759431,NH3,1,4,2
India,Madhya Pradesh,Sagar,"Civil Lines, Sagar - MPPCB",17-01-2026 08:00:00,23.838586,78.759431,CO,20,60,24
India,Madhya Pradesh,Sagar,"Deen Dayal Nagar, Sagar - MPPCB",17-01-2026 08:00:00,23.8640158,78.80289321,PM2.5,33,111,64
India,Madhya Pradesh,Sagar,"Deen Dayal Nagar, Sagar - MPPCB",17-01-2026 08:00:00,23.8640158,78.80289321,SO2,5,14,8
India,Madhya Pradesh,Singrauli,"Suryakiran Bhawan NCL, Singrauli - MPPCB",17-01-2026 08:00:00,24.108970,82.645580,PM10,98,424,198
India,Karnataka,Hubballi,"Lingaraj Nagar, Hubballi - KSPCB",17-01-2026 08:00:00,15.3714823,75.1160168,NO2,7,7,7
India,Karnataka,Hubballi,"Lingaraj Nagar, Hubballi - KSPCB",17-01-2026 08:00:00,15.3714823,75.1160168,NH3,1,1,1
India,Karnataka,Hubballi,"Lingaraj Nagar, Hubballi - KSPCB",17-01-2026 08:00:00,15.3714823,75.1160168,OZONE,25,26,25
India,Karnataka,Koppal,"Diwator Nagar, Koppal - KSPCB",17-01-2026 08:00:00,15.347630,76.181767,NH3,NA,NA,NA
India,Karnataka,Koppal,"Diwator Nagar, Koppal - KSPCB",17-01-2026 08:00:00,15.347630,76.181767,OZONE,18,51,38
India,Karnataka,Mysuru,"Hebbal 1st Stage, Mysuru - KSPCB",17-01-2026 08:00:00,12.21041,76.37376,PM2.5,42,68,56
India,Karnataka,Ramanagara,"Vijay Nagar, Ramanagara - KSPCB",17-01-2026 08:00:00,12.733409,77.298051,SO2,NA,NA,NA
India,Kerala,Thiruvananthapuram,"Kariavattom, Thiruvananthapuram - Kerala PCB",17-01-2026 08:00:00,8.563700,76.886500,PM10,44,105,76
India,Kerala,Thiruvananthapuram,"Kariavattom, Thiruvananthapuram - Kerala PCB",17-01-2026 08:00:00,8.563700,76.886500,OZONE,36,37,36
India,Kerala,Thrissur,"Corporation Ground, Thrissur - Kerala PCB",17-01-2026 08:00:00,10.532400,76.215900,OZONE,30,31,30
India,Madhya Pradesh,Bhopal,"Idgah Hills, Bhopal - MPPCB",17-01-2026 08:00:00,23.264759,77.381568,PM10,77,178,117
India,Madhya Pradesh,Bhopal,"Idgah Hills, Bhopal - MPPCB",17-01-2026 08:00:00,23.264759,77.381568,OZONE,5,88,29
India,Madhya Pradesh,Bhopal,"Paryavaran Parisar, Bhopal - MPPCB",17-01-2026 08:00:00,23.210494,77.425409,NH3,5,11,7
India,Karnataka,Vijayapura,"Ibrahimpur, Vijayapura - KSPCB",17-01-2026 08:00:00,16.802639,75.722694,NH3,1,2,1
India,Karnataka,Vijayapura,"Ibrahimpur, Vijayapura - KSPCB",17-01-2026 08:00:00,16.802639,75.722694,SO2,NA,NA,NA
India,Karnataka,Yadgir,"Collector Office, Yadgir - KSPCB",17-01-2026 08:00:00,16.7602,77.1428,NO2,11,48,21
India,Karnataka,Yadgir,"Collector Office, Yadgir - KSPCB",17-01-2026 08:00:00,16.7602,77.1428,NH3,2,3,3
India,Karnataka,Yadgir,"Collector Office, Yadgir - KSPCB",17-01-2026 08:00:00,16.7602,77.1428,CO,16,40,20
India,Kerala,Kannur,"Thavakkara, Kannur - Kerala PCB",17-01-2026 08:00:00,11.875000,75.373200,PM10,60,78,66
India,Madhya Pradesh,Jabalpur,"Gupteshwar, Jabalpur - JMC",17-01-2026 08:00:00,23.142888,79.916147,NO2,19,118,43
India,Madhya Pradesh,Jabalpur,"Marhatal, Jabalpur - MPPCB",17-01-2026 08:00:00,23.168606,79.932247,NH3,1,3,2
India,Madhya Pradesh,Jabalpur,"Marhatal, Jabalpur - MPPCB",17-01-2026 08:00:00,23.168606,79.932247,SO2,6,25,15
India,Madhya Pradesh,Katni,"Gole Bazar, Katni - MPPCB",17-01-2026 08:00:00,23.50016,80.23284,PM2.5,25,337,162
India,Madhya Pradesh,Katni,"Gole Bazar, Katni - MPPCB",17-01-2026 08:00:00,23.50016,80.23284,NO2,22,85,51
India,Madhya Pradesh,Bhopal,"T T Nagar, Bhopal - MPPCB",17-01-2026 08:00:00,23.233584,77.400574,PM2.5,49,252,102
India,Madhya Pradesh,Dewas,"Bhopal Chauraha, Dewas - MPPCB",17-01-2026 08:00:00,22.9682591,76.064118,CO,4,88,12
India,Madhya Pradesh,Gwalior,"City Center, Gwalior - MPPCB",17-01-2026 08:00:00,26.203442,78.193251,PM2.5,50,343,192
India,Madhya Pradesh,Gwalior,"Deen Dayal Nagar, Gwalior - MPPCB",17-01-2026 08:00:00,26.259242,78.216432,OZONE,NA,NA,NA
