country,state,city,station,last_update,latitude,longitude,pollutant_id,min_value,max_value,avg_value
India,Andhra_Pradesh,Vijayawada,"HB Colony, Vijayawada - APPCB",06-04-2026 08:00:00,16.536107,80.594233,PM2.5,43,147,82
India,Andhra_Pradesh,Vijayawada,"HB Colony, Vijayawada - APPCB",06-04-2026 08:00:00,16.536107,80.594233,PM10,38,116,77
India,Andhra_Pradesh,Vijayawada,"Kanuru, Vijayawada - APPCB",06-04-2026 08:00:00,16.486692,80.699436,PM2.5,NA,NA,NA
India,Andhra_Pradesh,Vijayawada,"Kanuru, Vijayawada - APPCB",06-04-2026 08:00:00,16.486692,80.699436,NO2,NA,NA,NA
India,Andhra_Pradesh,Vijayawada,"Rajiv Gandhi Park, Vijayawada - APPCB",06-04-2026 08:00:00,16.509717,80.612222,PM2.5,36,154,83
India,Andhra_Pradesh,Vijayawada,"Rajiv Gandhi Park, Vijayawada - APPCB",06-04-2026 08:00:00,16.509717,80.612222,NH3,6,6,6
India,Andhra_Pradesh,Vijayawada,"Rajiv Gandhi Park, Vijayawada - APPCB",06-04-2026 08:00:00,16.509717,80.612222,CO,32,32,32
India,Andhra_Pradesh,Vijayawada,"Rajiv Gandhi Park, Vijayawada - APPCB",06-04-2026 08:00:00,16.509717,80.612222,OZONE,46,90,47
India,Andhra_Pradesh,Vijayawada,"Rajiv Nagar, Vijayawada - APPCB",06-04-2026 08:00:00,16.554731,80.649110,NH3,4,6,5
India,Andhra_Pradesh,Vijayawada,"Rajiv Nagar, Vijayawada - APPCB",06-04-2026 08:00:00,16.554731,80.649110,CO,12,21,17
India,Andhra_Pradesh,Visakhapatnam,"GVM Corporation, Visakhapatnam - APPCB",06-04-2026 08:00:00,17.72,83.3,NH3,3,3,3
India,Andhra_Pradesh,Visakhapatnam,"GVM Corporation, Visakhapatnam - APPCB",06-04-2026 08:00:00,17.72,83.3,SO2,3,86,21
India,Andhra_Pradesh,Visakhapatnam,"GVM Corporation, Visakhapatnam - APPCB",06-04-2026 08:00:00,17.72,83.3,CO,5,46,20
India,Andhra_Pradesh,Machilipatnam,"Srinivas Nagar Colony, Machilipatnam - APPCB",06-04-2026 08:00:00,16.186555,81.13219,PM10,47,103,62
India,Andhra_Pradesh,Machilipatnam,"Srinivas Nagar Colony, Machilipatnam - APPCB",06-04-2026 08:00:00,16.186555,81.13219,NO2,24,76,46
India,Andhra_Pradesh,Machilipatnam,"Srinivas Nagar Colony, Machilipatnam - APPCB",06-04-2026 08:00:00,16.186555,81.13219,CO,10,102,12
India,Andhra_Pradesh,Nellore,"Ambedkar Nagar, Nellore - APPCB ",06-04-2026 08:00:00,14.438164 ,79.966814 ,PM10,28,71,47
India,Andhra_Pradesh,Tirumala,"Toll Gate, Tirumala - APPCB",06-04-2026 08:00:00,13.67,79.35,CO,20,53,22
India,Andhra_Pradesh,Anantapur,"Gulzarpet, Anantapur - APPCB",06-04-2026 08:00:00,14.675886,77.593027,PM10,56,84,66
India,Andhra_Pradesh,Anantapur,"Gulzarpet, Anantapur - APPCB",06-04-2026 08:00:00,14.675886,77.593027,SO2,6,18,9
India,Andhra_Pradesh,Chittoor,"Gangineni Cheruvu, Chittoor - APPCB",06-04-2026 08:00:00,13.204880,79.097889,NH3,5,7,5
India,Andhra_Pradesh,Chittoor,"Gangineni Cheruvu, Chittoor - APPCB",06-04-2026 08:00:00,13.204880,79.097889,CO,6,24,7
India,Andhra_Pradesh,Eluru,"District Court, Eluru - APPCB",06-04-2026 08:00:00,16.711754,81.092095,PM2.5,40,66,51
India,Assam,Sivasagar,"Girls College, Sivasagar - PCBA",06-04-2026 08:00:00,26.987634,94.636574,SO2,8,10,9
India,Bihar,Araria,"Kharahiya Basti, Araria - BSPCB",06-04-2026 08:00:00,26.146529,87.454184,PM2.5,80,290,189
India,Bihar,Araria,"Kharahiya Basti, Araria - BSPCB",06-04-2026 08:00:00,26.146529,87.454184,PM10,68,137,108
India,Bihar,Arrah,"New DM Office, Arrah - BSPCB",06-04-2026 08:00:00,25.5626095,84.663264,NH3,NA,NA,NA
India,Assam,Byrnihat,"Central Academy for SFS, Byrnihat - PCBA",06-04-2026 08:00:00,26.071318,91.87488,SO2,32,32,32
India,Assam,Guwahati,"LGBI Airport, Guwahati - PCBA",06-04-2026 08:00:00,26.10887,91.589544,PM10,14,50,28
India,Assam,Guwahati,"LGBI Airport, Guwahati - PCBA",06-04-2026 08:00:00,26.10887,91.589544,OZONE,8,13,12
India,Assam,Guwahati,"Pan Bazaar, Guwahati - PCBA",06-04-2026 08:00:00,26.187500,91.744194,PM10,31,96,59
India,Andhra_Pradesh,Eluru,"District Court, Eluru - APPCB",06-04-2026 08:00:00,16.711754,81.092095,NO2,8,20,12
India,Andhra_Pradesh,Eluru,"District Court, Eluru - APPCB",06-04-2026 08:00:00,16.711754,81.092095,SO2,11,25,14
India,Andhra_Pradesh,Kadapa,"Yerramukkapalli, Kadapa - APPCB",06-04-2026 08:00:00,14.465052,78.824187,PM2.5,60,87,70
India,Assam,Guwahati,"Railway Colony, Guwahati - PCBA",06-04-2026 08:00:00,26.181742,91.78063,PM2.5,2,170,82
India,Assam,Guwahati,"Railway Colony, Guwahati - PCBA",06-04-2026 08:00:00,26.181742,91.78063,PM10,37,97,65
India,Bihar,Begusarai,"Lohiyanagar, Begusarai - BSPCB",06-04-2026 08:00:00,25.42742023,86.13886079,PM10,17,83,47
India,Bihar,Begusarai,"Lohiyanagar, Begusarai - BSPCB",06-04-2026 08:00:00,25.42742023,86.13886079,NO2,9,17,13
India,Andhra_Pradesh,Tirupati,"Vaikuntapuram, Tirupati - APPCB",06-04-2026 08:00:00,13.615387,79.409230,NO2,19,33,23
India,Andhra_Pradesh,Tirupati,"Vaikuntapuram, Tirupati - APPCB",06-04-2026 08:00:00,13.615387,79.409230,SO2,9,20,13
India,Bihar,Arrah,"New DM Office, Arrah - BSPCB",06-04-2026 08:00:00,25.5626095,84.663264,OZONE,8,10,9
India,Bihar,Gaya,"Collectorate, Gaya - BSPCB",06-04-2026 08:00:00,24.7955,84.9994,OZONE,NA,NA,NA
India,Bihar,Gaya,"Kareemganj, Gaya - BSPCB",06-04-2026 08:00:00,24.792403,84.992416,PM10,34,151,76
India,Bihar,Gaya,"Kareemganj, Gaya - BSPCB",06-04-2026 08:00:00,24.792403,84.992416,SO2,39,46,43
India,Bihar,Gaya,"Kareemganj, Gaya - BSPCB",06-04-2026 08:00:00,24.792403,84.992416,CO,1,4,1
India,Bihar,Hajipur,"Industrial Area, Hajipur - BSPCB",06-04-2026 08:00:00,25.697189,85.245900,NO2,35,64,46
India,Bihar,Motihari,"Gandak Colony, Motihari - BSPCB",06-04-2026 08:00:00,26.63086,84.90051,OZONE,4,7,4
India,Bihar,Munger,"Town Hall, Munger - BSPCB",06-04-2026 08:00:00,25.376776,86.471523,PM2.5,NA,NA,NA
India,Bihar,Muzaffarpur,"Buddha Colony, Muzaffarpur - BSPCB",06-04-2026 08:00:00,26.11442,85.39813,PM10,96,208,142
India,Bihar,Bihar Sharif,"D M Colony, Bihar Sharif - BSPCB",06-04-2026 08:00:00,25.204762,85.514960,CO,42,84,54
India,Bihar,Buxar,"Charitra Van, Buxar - BSPCB",06-04-2026 08:00:00,25.567520,83.966379,PM2.5,33,60,46
India,Bihar,Buxar,"Charitra Van, Buxar - BSPCB",06-04-2026 08:00:00,25.567520,83.966379,NO2,9,10,9
India,Bihar,Buxar,"Charitra Van, Buxar - BSPCB",06-04-2026 08:00:00,25.567520,83.966379,SO2,28,34,30
India,Bihar,Kishanganj,"SDM Office_Khagra, Kishanganj - BSPCB",06-04-2026 08:00:00,26.0881305,87.93840336,SO2,7,9,8
India,Bihar,Kishanganj,"SDM Office_Khagra, Kishanganj - BSPCB",06-04-2026 08:00:00,26.0881305,87.93840336,OZONE,32,34,33
India,Bihar,Manguraha,"Forest Rest House, Manguraha - BSPCB",06-04-2026 08:00:00,27.308328,84.531742,CO,32,34,33
India,Bihar,Muzaffarpur,"MIT-Daudpur Kothi, Muzaffarpur - BSPCB",06-04-2026 08:00:00,26.1403345,85.3650192,NH3,1,1,1
India,Bihar,Muzaffarpur,"MIT-Daudpur Kothi, Muzaffarpur - BSPCB",06-04-2026 08:00:00,26.1403345,85.3650192,SO2,9,24,16
India,Bihar,Bhagalpur,"Mayaganj, Bhagalpur - BSPCB",06-04-2026 08:00:00,25.265194,87.012947,PM10,NA,NA,NA
India,Bihar,Bhagalpur,"Mayaganj, Bhagalpur - BSPCB",06-04-2026 08:00:00,25.265194,87.012947,OZONE,NA,NA,NA
India,Bihar,Bettiah,"Kamalnath Nagar, Bettiah - BSPCB",06-04-2026 08:00:00,26.80365,84.51954,OZONE,2,25,13
India,Bihar,Bettiah,"Kamalnath Nagar, Bettiah - BSPCB",06-04-2026 08:00:00,26.80365,84.51954,SO2,17,28,24
India,Bihar,Motihari,"Gandak Colony, Motihari - BSPCB",06-04-2026 08:00:00,26.63086,84.90051,CO,13,24,18
India,Bihar,Saharsa,"Police Line, Saharsa - BSPCB",06-04-2026 08:00:00,25.892357,86.590325,SO2,16,19,18
India,Bihar,Samastipur,"DM Office_Kasipur, Samastipur - BSPCB",06-04-2026 08:00:00,25.859655,85.77944,PM2.5,20,150,57
India,Bihar,Samastipur,"DM Office_Kasipur, Samastipur - BSPCB",06-04-2026 08:00:00,25.859655,85.77944,PM10,21,117,56
India,Bihar,Samastipur,"DM Office_Kasipur, Samastipur - BSPCB",06-04-2026 08:00:00,25.859655,85.77944,SO2,NA,NA,NA
India,Bihar,Siwan,"Chitragupta Nagar, Siwan - BSPCB",06-04-2026 08:00:00,26.2271665,84.3570427,SO2,6,8,8
India,Chandigarh,Chandigarh,"Sector 22, Chandigarh - CPCC",06-04-2026 08:00:00,30.735567,76.775714,PM2.5,5,37,19
India,Chandigarh,Chandigarh,"Sector 22, Chandigarh - CPCC",06-04-2026 08:00:00,30.735567,76.775714,NH3,14,24,18
India,Chandigarh,Chandigarh,"Sector 22, Chandigarh - CPCC",06-04-2026 08:00:00,30.735567,76.775714,OZONE,15,118,46
India,Chandigarh,Chandigarh,"Sector-53, Chandigarh - CPCC",06-04-2026 08:00:00,30.719859,76.738637,PM10,7,42,26
India,Chhattisgarh,Raipur,"Bhatagaon New ISBT, Raipur - CECB",06-04-2026 08:00:00,21.219665,81.630094,NO2,25,36,30
India,Chhattisgarh,Raipur,"Bhatagaon New ISBT, Raipur - CECB",06-04-2026 08:00:00,21.219665,81.630094,SO2,1,20,5
India,Chhattisgarh,Raipur,"Bhatagaon New ISBT, Raipur - CECB",06-04-2026 08:00:00,21.219665,81.630094,CO,24,34,26
India,Chhattisgarh,Raipur,"Siltara Phase-II, Raipur - CECB",06-04-2026 08:00:00,21.371751,81.664929,SO2,2,36,11
India,Chhattisgarh,Raipur,"Siltara Phase-II, Raipur - CECB",06-04-2026 08:00:00,21.371751,81.664929,CO,17,18,17
India,Chhattisgarh,Tumidih,"OP Jindal Industrial Park, Tumidih - CECB",06-04-2026 08:00:00,22.06631475,83.33820077,PM2.5,20,57,35
India,Chhattisgarh,Tumidih,"OP Jindal Industrial Park, Tumidih - CECB",06-04-2026 08:00:00,22.06631475,83.33820077,NH3,1,3,2
India,Delhi,Delhi,"Alipur, Delhi - DPCC",06-04-2026 08:00:00,28.815329,77.153010,OZONE,2,50,6
India,Delhi,Delhi,"Anand Vihar, Delhi - DPCC",06-04-2026 08:00:00,28.647622,77.3158090,CO,28,94,56
India,Delhi,Delhi,"Ashok Vihar, Delhi - DPCC",06-04-2026 08:00:00,28.695381,77.181665,PM2.5,20,257,101
India,Delhi,Delhi,"Ashok Vihar, Delhi - DPCC",06-04-2026 08:00:00,28.695381,77.181665,PM10,63,173,118
India,Delhi,Delhi,"Ashok Vihar, Delhi - DPCC",06-04-2026 08:00:00,28.695381,77.181665,SO2,12,22,18
India,Delhi,Delhi,"Bawana, Delhi - DPCC",06-04-2026 08:00:00,28.776200,77.051074,SO2,8,50,20
India,Delhi,Delhi,"Bawana, Delhi - DPCC",06-04-2026 08:00:00,28.776200,77.051074,OZONE,6,91,28
India,Delhi,Delhi,"CRRI Mathura Road, Delhi - IMD",06-04-2026 08:00:00,28.5512005,77.2735737,PM10,71,246,134
India,Bihar,Patna,"Rajbansi Nagar, Patna - BSPCB",06-04-2026 08:00:00,25.599486,85.113666,OZONE,25,34,31
India,Bihar,Patna,"Samanpura, Patna - BSPCB",06-04-2026 08:00:00,25.596727,85.085624,OZONE,25,37,30
India,Bihar,Purnia,"Mariam Nagar, Purnia - BSPCB",06-04-2026 08:00:00,25.366336,87.117468,NO2,NA,NA,NA
India,Bihar,Purnia,"Mariam Nagar, Purnia - BSPCB",06-04-2026 08:00:00,25.366336,87.117468,CO,NA,NA,NA
India,Bihar,Rajgir,"Dangi Tola, Rajgir - BSPCB",06-04-2026 08:00:00,25.03280,85.41948,NH3,3,3,3
India,Bihar,Patna,"DRM Office Danapur, Patna - BSPCB",06-04-2026 08:00:00,25.586562,85.043586,NO2,35,41,38
India,Bihar,Patna,"Govt. High School Shikarpur, Patna - BSPCB",06-04-2026 08:00:00,25.592539,85.227158,CO,2,48,6
India,Bihar,Patna,"Govt. High School Shikarpur, Patna - BSPCB",06-04-2026 08:00:00,25.592539,85.227158,OZONE,4,6,5
India,Bihar,Patna,"Muradpur, Patna - BSPCB",06-04-2026 08:00:00,25.619651,85.147382,NO2,9,26,16
India,Bihar,Patna,"Muradpur, Patna - BSPCB",06-04-2026 08:00:00,25.619651,85.147382,SO2,9,11,10
India,Chhattisgarh,Bhilai,"32Bungalows, Bhilai - CECB",06-04-2026 08:00:00,21.194815,81.314770,OZONE,10,32,18
India,Chhattisgarh,Bhilai,"Civic Center, Bhilai - Bhilai Steel Plant",06-04-2026 08:00:00,21.185571,81.343175,NO2,13,14,14
India,Chhattisgarh,Bilaspur,"Mangala, Bilaspur - NTPC",06-04-2026 08:00:00,22.08815,82.13737,PM2.5,NA,NA,NA
India,Bihar,Muzaffarpur,"Muzaffarpur Collectorate, Muzaffarpur - BSPCB",06-04-2026 08:00:00,26.1209,85.3647,NO2,6,13,10
India,Chhattisgarh,Korba,"Rampur, Korba - CECB",06-04-2026 08:00:00,22.368195,82.746431,OZONE,11,19,16
India,Chhattisgarh,Korba,"Rampur, Korba - CECB",06-04-2026 08:00:00,22.368195,82.746431,NO2,8,23,13
India,Delhi,Delhi,"Mundka, Delhi - DPCC",06-04-2026 08:00:00,28.684678,77.076574,OZONE,3,65,7
India,Delhi,Delhi,"NSIT Dwarka, Delhi - CPCB",06-04-2026 08:00:00,28.60909,77.0325413,PM2.5,50,102,70
India,Delhi,Delhi,"NSIT Dwarka, Delhi - CPCB",06-04-2026 08:00:00,28.60909,77.0325413,PM10,108,190,150
India,Delhi,Delhi,"Najafgarh, Delhi - DPCC",06-04-2026 08:00:00,28.570173,76.933762,PM2.5,13,306,95
India,Delhi,Delhi,"Najafgarh, Delhi - DPCC",06-04-2026 08:00:00,28.570173,76.933762,PM10,44,157,91
India,Delhi,Delhi,"Najafgarh, Delhi - DPCC",06-04-2026 08:00:00,28.570173,76.933762,NO2,18,57,34
India,Delhi,Delhi,"IGI Airport (T3), Delhi - IMD",06-04-2026 08:00:00,28.5627763,77.1180053,NO2,15,46,32
India,Delhi,Delhi,"IHBAS, Dilshad Garden, Delhi - CPCB",06-04-2026 08:00:00,28.6811736,77.3025234,NH3,4,6,5
India,Delhi,Delhi,"IIT Delhi, Delhi - IITM",06-04-2026 08:00:00,28.542460,77.191651,OZONE,6,51,7
India,Delhi,Delhi,"ITO, Delhi - CPCB",06-04-2026 08:00:00,28.628624,77.241060,NO2,37,96,50
India,Delhi,Delhi,"ITO, Delhi - CPCB",06-04-2026 08:00:00,28.628624,77.241060,SO2,11,28,21
India,Delhi,Delhi,"Lodhi Road, Delhi - IMD",06-04-2026 08:00:00,28.5918245,77.2273074,PM10,64,152,101
India,Delhi,Delhi,"Major Dhyan Chand National Stadium, Delhi - DPCC",06-04-2026 08:00:00,28.611281,77.237738,PM2.5,13,130,57
India,Delhi,Delhi,"Major Dhyan Chand National Stadium, Delhi - DPCC",06-04-2026 08:00:00,28.611281,77.237738,PM10,50,170,112
India,Delhi,Delhi,"Major Dhyan Chand National Stadium, Delhi - DPCC",06-04-2026 08:00:00,28.611281,77.237738,CO,43,104,68
India,Delhi,Delhi,"Mandir Marg, Delhi - DPCC",06-04-2026 08:00:00,28.636429,77.201067,PM10,62,147,110
India,Delhi,Delhi,"Dr. Karni Singh Shooting Range, Delhi - DPCC",06-04-2026 08:00:00,28.498571,77.264840,OZONE,5,146,16
India,Delhi,Delhi,"IGI Airport (T3), Delhi - IMD",06-04-2026 08:00:00,28.5627763,77.1180053,PM2.5,8,165,61
India,Delhi,Delhi,"Dwarka-Sector 8, Delhi - DPCC ",06-04-2026 08:00:00,28.5710274,77.0719006,NH3,12,17,14
India,Delhi,Delhi,"Dwarka-Sector 8, Delhi - DPCC ",06-04-2026 08:00:00,28.5710274,77.0719006,CO,41,92,58
India,Delhi,Delhi,"Jahangirpuri, Delhi - DPCC",06-04-2026 08:00:00,28.732820,77.170633,NH3,7,14,10
India,Delhi,Delhi,"Narela, Delhi - DPCC",06-04-2026 08:00:00,28.822836,77.101981,NH3,5,7,6
India,Delhi,Delhi,"Punjabi Bagh, Delhi - DPCC",06-04-2026 08:00:00,28.674045,77.131023,SO2,37,50,43
India,Delhi,Delhi,"Pusa, Delhi - IMD",06-04-2026 08:00:00,28.636110,77.173332,PM10,50,154,99
India,Delhi,Delhi,"R K Puram, Delhi - DPCC",06-04-2026 08:00:00,28.563262,77.186937,PM2.5,28,311,91
India,Delhi,Delhi,"R K Puram, Delhi - DPCC",06-04-2026 08:00:00,28.563262,77.186937,CO,34,116,71
India,Delhi,Delhi,"Rohini, Delhi - DPCC",06-04-2026 08:00:00,28.732528,77.119920,NH3,6,8,7
India,Delhi,Delhi,"Rohini, Delhi - DPCC",06-04-2026 08:00:00,28.732528,77.119920,SO2,11,38,20
India,Delhi,Delhi,"Shadipur, Delhi - CPCB",06-04-2026 08:00:00,28.6514781,77.1473105,SO2,14,17,15
India,Delhi,Delhi,"North Campus, DU, Delhi - IMD",06-04-2026 08:00:00,28.6573814,77.1585447,PM2.5,4,172,78
India,Delhi,Delhi,"Okhla Phase-2, Delhi - DPCC",06-04-2026 08:00:00,28.530785,77.271255,PM10,70,202,128
India,Delhi,Delhi,"Okhla Phase-2, Delhi - DPCC",06-04-2026 08:00:00,28.530785,77.271255,NO2,27,119,77
India,Delhi,Delhi,"Patparganj, Delhi - DPCC",06-04-2026 08:00:00,28.623763,77.287209,NO2,18,120,56
India,Delhi,Delhi,"Patparganj, Delhi - DPCC",06-04-2026 08:00:00,28.623763,77.287209,OZONE,2,169,24
India,Delhi,Delhi,"Vivek Vihar, Delhi - DPCC",06-04-2026 08:00:00,28.672342,77.315260,NO2,20,114,56
India,Delhi,Delhi,"Vivek Vihar, Delhi - DPCC",06-04-2026 08:00:00,28.672342,77.315260,NH3,6,8,7
India,Delhi,Delhi,"Wazirpur, Delhi - DPCC",06-04-2026 08:00:00,28.699793,77.165453,PM2.5,55,238,133
India,Gujarat,Ahmedabad,"Chandkheda, Ahmedabad - IITM",06-04-2026 08:00:00,23.107969,72.574648,NO2,5,61,21
India,Delhi,Delhi,"Sirifort, Delhi - CPCB",06-04-2026 08:00:00,28.5504249,77.2159377,PM10,67,179,117
India,Delhi,Delhi,"Sirifort, Delhi - CPCB",06-04-2026 08:00:00,28.5504249,77.2159377,OZONE,10,30,10
India,Delhi,Delhi,"Sonia Vihar, Delhi - DPCC",06-04-2026 08:00:00,28.710508,77.249485,PM2.5,18,237,88
India,Delhi,Delhi,"Sri Aurobindo Marg, Delhi - DPCC",06-04-2026 08:00:00,28.531346,77.190156,CO,9,58,25
India,Delhi,Delhi,"Talkatora Garden, Delhi - DPCC",06-04-2026 08:00:00,28.621810,77.1944633,PM10,46,143,101
India,Gujarat,Ahmedabad,"Chandkheda, Ahmedabad - IITM",06-04-2026 08:00:00,23.107969,72.574648,SO2,6,22,11
India,Gujarat,Ahmedabad,"Chandkheda, Ahmedabad - IITM",06-04-2026 08:00:00,23.107969,72.574648,CO,34,64,46
India,Gujarat,Ahmedabad,"Chandkheda, Ahmedabad - IITM",06-04-2026 08:00:00,23.107969,72.574648,OZONE,24,113,44
India,Delhi,Delhi,"Sri Aurobindo Marg, Delhi - DPCC",06-04-2026 08:00:00,28.531346,77.190156,NO2,33,78,56
India,Delhi,Delhi,"Sri Aurobindo Marg, Delhi - DPCC",06-04-2026 08:00:00,28.531346,77.190156,NH3,4,7,5
India,Delhi,Delhi,"Sonia Vihar, Delhi - DPCC",06-04-2026 08:00:00,28.710508,77.249485,CO,12,104,58
India,Delhi,Delhi,"Sonia Vihar, Delhi - DPCC",06-04-2026 08:00:00,28.710508,77.249485,OZONE,13,154,34
India,Delhi,Delhi,"Nehru Nagar, Delhi - DPCC",06-04-2026 08:00:00,28.567890,77.250515,PM10,70,232,125
India,Gujarat,Gandhinagar,"Sector-10, Gandhinagar - GPCB",06-04-2026 08:00:00,23.221714,72.654328,PM10,42,105,72
India,Gujarat,Gandhinagar,"Sector-10, Gandhinagar - GPCB",06-04-2026 08:00:00,23.221714,72.654328,NO2,12,28,17
India,Gujarat,Mehsana,"Sadanand Nagar, Mehsana - Nexteng Enviro",06-04-2026 08:00:00,23.593150,72.372792,PM2.5,3,141,45
India,Gujarat,Nandesari,"GIDC, Nandesari - Nandesari Ind. Association",06-04-2026 08:00:00,22.410802,73.097923,NO2,2,239,43
India,Gujarat,Ahmedabad,"Gyaspur, Ahmedabad - IITM",06-04-2026 08:00:00,22.977134,72.553024,OZONE,1,59,3
India,Gujarat,Ahmedabad,"Maninagar, Ahmedabad - GPCB",06-04-2026 08:00:00,23.002657,72.591912,NO2,80,89,85
India,Gujarat,Ahmedabad,"Raikhad, Ahmedabad - IITM",06-04-2026 08:00:00,23.020509,72.579261,PM2.5,49,146,69
India,Gujarat,Bhavnagar,"Vidhyanagar, Bhavnagar - Nexteng Enviro",06-04-2026 08:00:00,21.755417,72.139056,OZONE,8,24,12
India,Gujarat,Gandhinagar,"GIFT City, Gandhinagar - IITM",06-04-2026 08:00:00,23.163798,72.677768,PM10,92,187,129
India,Gujarat,Ahmedabad,"SAC ISRO Bopal, Ahmedabad - IITM",06-04-2026 08:00:00,23.041137,72.456691,PM2.5,24,60,41
India,Gujarat,Ahmedabad,"SAC ISRO Bopal, Ahmedabad - IITM",06-04-2026 08:00:00,23.041137,72.456691,PM10,30,73,48
India,Gujarat,Ahmedabad,"SAC ISRO Bopal, Ahmedabad - IITM",06-04-2026 08:00:00,23.041137,72.456691,SO2,5,8,7
India,Gujarat,Gandhinagar,"IIPHG Lekawada, Gandhinagar - IITM",06-04-2026 08:00:00,23.243639,72.68994,PM2.5,15,103,48
India,Gujarat,Gandhinagar,"IIPHG Lekawada, Gandhinagar - IITM",06-04-2026 08:00:00,23.243639,72.68994,NH3,5,8,6
India,Gujarat,Gandhinagar,"IIPHG Lekawada, Gandhinagar - IITM",06-04-2026 08:00:00,23.243639,72.68994,SO2,3,12,5
India,Gujarat,Ahmedabad,"SAC ISRO Satellite, Ahmedabad - IITM",06-04-2026 08:00:00,23.023389,72.515201,CO,19,91,52
India,Gujarat,Surat,"Katargam, Surat - Nexteng Enviro",06-04-2026 08:00:00,21.217779 ,72.834787 ,PM10,24,106,73
India,Gujarat,Surat,"Katargam, Surat - Nexteng Enviro",06-04-2026 08:00:00,21.217779 ,72.834787 ,NO2,1,14,5
India,Gujarat,Ahmedabad,"Rakhial, Ahmedabad - IITM",06-04-2026 08:00:00,23.016834,72.625775,PM10,59,219,106
India,Haryana,Bahadurgarh,"Arya Nagar, Bahadurgarh - HSPCB",06-04-2026 08:00:00,28.6701,76.9254,CO,44,50,47
India,Haryana,Bhiwani,"H.B. Colony, Bhiwani - HSPCB",06-04-2026 08:00:00,28.806223,76.141105,PM10,66,465,140
India,Haryana,Charkhi Dadri,"Mini Secretariat, Charkhi Dadri - HSPCB",06-04-2026 08:00:00,28.593883,76.270653,CO,10,44,12
India,Haryana,Dharuhera,"Municipal Corporation Office, Dharuhera -  HSPCB",06-04-2026 08:00:00,28.206800,76.799700,NO2,14,50,37
India,Haryana,Dharuhera,"Municipal Corporation Office, Dharuhera -  HSPCB",06-04-2026 08:00:00,28.206800,76.799700,CO,53,102,90
India,Haryana,Faridabad,"New Industrial Town, Faridabad - HSPCB",06-04-2026 08:00:00,28.39072,77.30059,PM2.5,122,142,132
India,Haryana,Faridabad,"New Industrial Town, Faridabad - HSPCB",06-04-2026 08:00:00,28.39072,77.30059,NH3,11,12,11
India,Haryana,Faridabad,"New Industrial Town, Faridabad - HSPCB",06-04-2026 08:00:00,28.39072,77.30059,CO,10,12,11
India,Haryana,Fatehabad,"Huda Sector, Fatehabad - HSPCB",06-04-2026 08:00:00,29.503664,75.467934,OZONE,46,74,66
India,Haryana,Gurugram,"NISE Gwal Pahari, Gurugram - IMD",06-04-2026 08:00:00,28.422681,77.148944,PM10,51,164,100
India,Haryana,Gurugram,"Sector-51, Gurugram - HSPCB",06-04-2026 08:00:00,28.4227,77.0667,PM10,67,203,120
India,Haryana,Gurugram,"Teri Gram, Gurugram - HSPCB",06-04-2026 08:00:00,28.4275,77.1465,PM2.5,30,208,83
India,Haryana,Gurugram,"Vikas Sadan, Gurugram - HSPCB",06-04-2026 08:00:00,28.4501238,77.0263051,NO2,9,46,26
India,Haryana,Gurugram,"Vikas Sadan, Gurugram - HSPCB",06-04-2026 08:00:00,28.4501238,77.0263051,OZONE,4,31,11
India,Haryana,Jind,"Police Lines, Jind - HSPCB",06-04-2026 08:00:00,29.307814,76.337619,OZONE,7,13,10
India,Gujarat,Vadodara,"Bapunagar, Vadodara - Nexteng Enviro",06-04-2026 08:00:00,22.320153,73.216285,NO2,1,17,5
India,Gujarat,Vapi,"Phase-1 GIDC, Vapi - GPCB",06-04-2026 08:00:00,20.362421,72.918013,NO2,18,22,21
India,Haryana,Faridabad,"Sector 11, Faridabad - HSPCB",06-04-2026 08:00:00,28.376058,77.315741,CO,40,40,40
India,Haryana,Faridabad,"Sector 30, Faridabad - HSPCB",06-04-2026 08:00:00,28.4417,77.3217,CO,58,65,62
India,Haryana,Ambala,"Patti Mehar, Ambala - HSPCB",06-04-2026 08:00:00,30.379589,76.778328,NH3,7,8,8
India,Haryana,Ambala,"Patti Mehar, Ambala - HSPCB",06-04-2026 08:00:00,30.379589,76.778328,SO2,15,32,22
India,Haryana,Gurugram,"Teri Gram, Gurugram - HSPCB",06-04-2026 08:00:00,28.4275,77.1465,NH3,11,21,16
India,Haryana,Gurugram,"Teri Gram, Gurugram - HSPCB",06-04-2026 08:00:00,28.4275,77.1465,OZONE,10,38,11
India,Haryana,Kaithal,"Rishi Nagar, Kaithal - HSPCB",06-04-2026 08:00:00,29.8006,76.4155,PM2.5,18,45,31
India,Gujarat,Surat,"Science Center, Surat - SMC",06-04-2026 08:00:00,21.170046,72.795405,SO2,18,24,20
India,Himachal Pradesh,Baddi,"HIMUDA Complex Phase-1, Baddi - HPPCB",06-04-2026 08:00:00,30.943887,76.801991,SO2,23,30,28
India,Jammu_and_Kashmir,Srinagar,"Khunmoh, Srinagar - JKPCC",06-04-2026 08:00:00,34.06313,74.96017,NO2,3,28,12
India,Jammu_and_Kashmir,Srinagar,"Rajbagh, Srinagar - JKPCC",06-04-2026 08:00:00,34.066206,74.819820,PM2.5,12,19,14
India,Jharkhand,Dhanbad,"Sardar Patel Nagar, Dhanbad - JSPCB",06-04-2026 08:00:00,23.80569,86.44268,PM10,32,281,83
India,Jharkhand,Dhanbad,"Sardar Patel Nagar, Dhanbad - JSPCB",06-04-2026 08:00:00,23.80569,86.44268,SO2,9,136,72
India,Jharkhand,Dhanbad,"Sardar Patel Nagar, Dhanbad - JSPCB",06-04-2026 08:00:00,23.80569,86.44268,CO,4,49,32
India,Jharkhand,Jorapokhar,"Tata Stadium, Jorapokhar - JSPCB",06-04-2026 08:00:00,23.707909,86.414670,PM2.5,40,63,46
India,Karnataka,Bengaluru,"Jayanagar 5th Block, Bengaluru - KSPCB",06-04-2026 08:00:00,12.920984,77.584908,OZONE,3,35,13
India,Karnataka,Bengaluru,"Jigani, Bengaluru - KSPCB",06-04-2026 08:00:00,12.7816279,77.6299145,SO2,19,20,20
India,Karnataka,Bengaluru,"Kasturi Nagar, Bengaluru - KSPCB",06-04-2026 08:00:00,13.003872,77.664217,SO2,8,9,9
India,Karnataka,Bengaluru,"Kasturi Nagar, Bengaluru - KSPCB",06-04-2026 08:00:00,13.003872,77.664217,OZONE,21,21,21
India,Karnataka,Bengaluru,"Peenya, Bengaluru - CPCB",06-04-2026 08:00:00,13.0270199,77.494094,PM2.5,18,33,31
India,Karnataka,Bengaluru,"Peenya, Bengaluru - CPCB",06-04-2026 08:00:00,13.0270199,77.494094,SO2,6,15,11
India,Karnataka,Bengaluru,"Peenya, Bengaluru - CPCB",06-04-2026 08:00:00,13.0270199,77.494094,CO,50,121,72
India,Haryana,Narnaul,"Shastri Nagar, Narnaul - HSPCB",06-04-2026 08:00:00,28.060249,76.113115,CO,20,41,37
India,Haryana,Palwal,"Shyam Nagar, Palwal - HSPCB",06-04-2026 08:00:00,28.1485564,77.3320667,OZONE,24,25,24
India,Haryana,Panchgaon,"Amity University, Panchgaon - IITM",06-04-2026 08:00:00,28.3153,76.9143,PM2.5,27,185,65
India,Haryana,Panchgaon,"Amity University, Panchgaon - IITM",06-04-2026 08:00:00,28.3153,76.9143,SO2,1,20,12
India,Haryana,Panchkula,"Sector-6, Panchkula - HSPCB ",06-04-2026 08:00:00,30.7057778,76.8531805555555,PM2.5,11,62,32
India,Karnataka,Bengaluru,"City Railway Station, Bengaluru - KSPCB",06-04-2026 08:00:00,12.9756843,77.5660749,NO2,45,53,49
India,Karnataka,Bengaluru,"Hebbal, Bengaluru - KSPCB",06-04-2026 08:00:00,13.029152,77.585901,NH3,2,4,3
India,Karnataka,Bengaluru,"Hebbal, Bengaluru - KSPCB",06-04-2026 08:00:00,13.029152,77.585901,OZONE,9,11,10
India,Karnataka,Bengaluru,"Jayanagar 5th Block, Bengaluru - KSPCB",06-04-2026 08:00:00,12.920984,77.584908,SO2,1,29,14
India,Haryana,Sonipat,"Murthal, Sonipat - HSPCB",06-04-2026 08:00:00,29.027200,77.062100,PM2.5,61,301,157
India,Haryana,Sonipat,"Murthal, Sonipat - HSPCB",06-04-2026 08:00:00,29.027200,77.062100,NH3,21,21,21
India,Haryana,Yamuna Nagar,"Gobind Pura, Yamuna Nagar - HSPCB",06-04-2026 08:00:00,30.1480566,77.2893471,PM10,72,113,90
India,Haryana,Kaithal,"Rishi Nagar, Kaithal - HSPCB",06-04-2026 08:00:00,29.8006,76.4155,NH3,5,6,6
India,Haryana,Kaithal,"Rishi Nagar, Kaithal - HSPCB",06-04-2026 08:00:00,29.8006,76.4155,CO,28,70,49
India,Haryana,Karnal,"Sector-12, Karnal - HSPCB",06-04-2026 08:00:00,29.695300,77.002700,NO2,6,7,6
India,Haryana,Manesar,"Sector-2 IMT, Manesar - HSPCB",06-04-2026 08:00:00,28.360699,76.936090,PM10,31,104,77
India,Haryana,Manesar,"Sector-2 IMT, Manesar - HSPCB",06-04-2026 08:00:00,28.360699,76.936090,NH3,6,8,7
India,Karnataka,Bengaluru,"BTM Layout, Bengaluru - CPCB",06-04-2026 08:00:00,12.9135218,77.5950804,PM2.5,32,57,43
India,Karnataka,Bengaluru,"BTM Layout, Bengaluru - CPCB",06-04-2026 08:00:00,12.9135218,77.5950804,SO2,13,14,13
India,Karnataka,Bagalkot,"Vidayagiri, Bagalkot - KSPCB",06-04-2026 08:00:00,16.172806,75.659694,PM10,49,50,50
India,Karnataka,Bagalkot,"Vidayagiri, Bagalkot - KSPCB",06-04-2026 08:00:00,16.172806,75.659694,NO2,11,12,12
India,Karnataka,Bengaluru,"Silk Board, Bengaluru - KSPCB",06-04-2026 08:00:00,12.917348,77.622813,PM2.5,50,214,89
India,Karnataka,Bengaluru,"Silk Board, Bengaluru - KSPCB",06-04-2026 08:00:00,12.917348,77.622813,NH3,3,4,4
India,Karnataka,Chikkaballapur,"Chikkaballapur Rural, Chikkaballapur - KSPCB",06-04-2026 08:00:00,13.428828,77.731418,PM2.5,23,73,48
India,Karnataka,Chikkaballapur,"Chikkaballapur Rural, Chikkaballapur - KSPCB",06-04-2026 08:00:00,13.428828,77.731418,CO,26,32,28
India,Karnataka,Chikkaballapur,"Chikkaballapur Rural, Chikkaballapur - KSPCB",06-04-2026 08:00:00,13.428828,77.731418,OZONE,12,17,16
India,Karnataka,Chikkamagaluru,"Kalyana Nagara, Chikkamagaluru - KSPCB",06-04-2026 08:00:00,13.328028,75.797056,NO2,18,19,18
India,Karnataka,Dharwad,"Kalabhavan, Dharwad - KSPCB",06-04-2026 08:00:00,15.459706,75.008381,PM2.5,NA,NA,NA
India,Karnataka,Dharwad,"Kalabhavan, Dharwad - KSPCB",06-04-2026 08:00:00,15.459706,75.008381,PM10,NA,NA,NA
India,Karnataka,Dharwad,"Kalabhavan, Dharwad - KSPCB",06-04-2026 08:00:00,15.459706,75.008381,NH3,NA,NA,NA
India,Karnataka,Kalaburagi,"Mahatma Basaveswar Colony, Kalaburgi - KSPCB",06-04-2026 08:00:00,17.336318,76.847397,SO2,3,5,4
India,Karnataka,Madikeri,"Stuart Hill, Madikeri - KSPCB",06-04-2026 08:00:00,12.415911,75.735050,SO2,7,7,7
India,Karnataka,Madikeri,"Stuart Hill, Madikeri - KSPCB",06-04-2026 08:00:00,12.415911,75.735050,OZONE,1,7,3
India,Karnataka,Mangalore,"Kadri, Mangalore - KSPCB",06-04-2026 08:00:00,12.889250,74.853000,PM10,52,90,66
India,Karnataka,Mysuru,"Hebbal 1st Stage, Mysuru - KSPCB",06-04-2026 08:00:00,12.21041,76.37376,PM10,37,64,49
India,Karnataka,Ramanagara,"Vijay Nagar, Ramanagara - KSPCB",06-04-2026 08:00:00,12.733409,77.298051,NH3,3,5,4
India,Karnataka,Ramanagara,"Vijay Nagar, Ramanagara - KSPCB",06-04-2026 08:00:00,12.733409,77.298051,SO2,18,22,20
India,Karnataka,Shivamogga,"Vinoba Nagara, Shivamogga - KSPCB",06-04-2026 08:00:00,13.940000,75.555917,SO2,2,2,2
India,Karnataka,Vijayapura,"Ibrahimpur, Vijayapura - KSPCB",06-04-2026 08:00:00,16.802639,75.722694,SO2,3,6,3
India,Kerala,Kannur,"Thavakkara, Kannur - Kerala PCB",06-04-2026 08:00:00,11.875000,75.373200,PM2.5,NA,NA,NA
India,Karnataka,Dharwad,"Kalabhavan, Dharwad - KSPCB",06-04-2026 08:00:00,15.459706,75.008381,SO2,NA,NA,NA
India,Karnataka,Dharwad,"Kalabhavan, Dharwad - KSPCB",06-04-2026 08:00:00,15.459706,75.008381,CO,NA,NA,NA
India,Karnataka,Hubballi,"Lingaraj Nagar, Hubballi - KSPCB",06-04-2026 08:00:00,15.3714823,75.1160168,CO,16,24,22
India,Kerala,Thrissur,"Corporation Ground, Thrissur - Kerala PCB",06-04-2026 08:00:00,10.532400,76.215900,OZONE,31,32,31
India,Madhya Pradesh,Bhopal,"Idgah Hills, Bhopal - MPPCB",06-04-2026 08:00:00,23.264759,77.381568,PM10,56,112,81
India,Karnataka,Bengaluru,"RVCE-Mailasandra, Bengaluru - KSPCB",06-04-2026 08:00:00,12.921418,77.502466,CO,4,62,28
India,Karnataka,Bengaluru,"Sanegurava Halli, Bengaluru - KSPCB",06-04-2026 08:00:00,12.990328,77.5431385,NO2,17,19,18
India,Kerala,Thiruvananthapuram,"Plammoodu, Thiruvananthapuram - Kerala PCB",06-04-2026 08:00:00,8.5149093,76.9435879,PM2.5,14,37,22
India,Kerala,Thiruvananthapuram,"Plammoodu, Thiruvananthapuram - Kerala PCB",06-04-2026 08:00:00,8.5149093,76.9435879,CO,5,12,8
India,Kerala,Kollam,"Polayathode, Kollam - Kerala PCB",06-04-2026 08:00:00,8.8787,76.6073,NH3,1,1,1
India,Madhya Pradesh,Gwalior,"Maharaj Bada, Gwalior - MPPCB",06-04-2026 08:00:00,26.200388,78.147714,PM10,NA,NA,NA
India,Madhya Pradesh,Gwalior,"Maharaj Bada, Gwalior - MPPCB",06-04-2026 08:00:00,26.200388,78.147714,NO2,21,75,41
India,Madhya Pradesh,Gwalior,"Maharaj Bada, Gwalior - MPPCB",06-04-2026 08:00:00,26.200388,78.147714,SO2,NA,NA,NA
India,Madhya Pradesh,Gwalior,"Maharaj Bada, Gwalior - MPPCB",06-04-2026 08:00:00,26.200388,78.147714,CO,NA,NA,NA
India,Madhya Pradesh,Indore,"Airport Area, Indore - IMC",06-04-2026 08:00:00,22.7289,75.8076,PM2.5,34,340,136
India,Madhya Pradesh,Indore,"Airport Area, Indore - IMC",06-04-2026 08:00:00,22.7289,75.8076,SO2,1,15,7
India,Madhya Pradesh,Bhopal,"T T Nagar, Bhopal - MPPCB",06-04-2026 08:00:00,23.233584,77.400574,CO,28,88,34
India,Madhya Pradesh,Dewas,"Bhopal Chauraha, Dewas - MPPCB",06-04-2026 08:00:00,22.9682591,76.064118,NH3,3,6,5
India,Madhya Pradesh,Gwalior,"Deen Dayal Nagar, Gwalior - MPPCB",06-04-2026 08:00:00,26.259242,78.216432,NH3,6,10,8
India,Madhya Pradesh,Gwalior,"Deen Dayal Nagar, Gwalior - MPPCB",06-04-2026 08:00:00,26.259242,78.216432,OZONE,43,130,58
India,Madhya Pradesh,Bhopal,"Paryavaran Parisar, Bhopal - MPPCB",06-04-2026 08:00:00,23.210494,77.425409,SO2,19,28,24
India,Madhya Pradesh,Bhopal,"Paryavaran Parisar, Bhopal - MPPCB",06-04-2026 08:00:00,23.210494,77.425409,CO,18,36,24
India,Madhya Pradesh,Bhopal,"Idgah Hills, Bhopal - MPPCB",06-04-2026 08:00:00,23.264759,77.381568,OZONE,39,75,53
India,Madhya Pradesh,Bhopal,"Idgah Hills, Bhopal - MPPCB",06-04-2026 08:00:00,23.264759,77.381568,NO2,12,33,19
India,Madhya Pradesh,Gwalior,"City Center, Gwalior - MPPCB",06-04-2026 08:00:00,26.203442,78.193251,NH3,3,5,3
India,Madhya Pradesh,Indore,"Regional Park, Indore - IMC",06-04-2026 08:00:00,22.6780,75.8559,OZONE,6,9,7
India,Madhya Pradesh,Indore,"Regional Park, Indore - IMC",06-04-2026 08:00:00,22.6780,75.8559,NH3,1,3,2
India,Maharashtra,Ahmednagar,"Tarakpur, Ahmednagar - MPCB",06-04-2026 08:00:00,19.10122,74.73339,NH3,5,6,6
India,Maharashtra,Ahmednagar,"Tarakpur, Ahmednagar - MPCB",06-04-2026 08:00:00,19.10122,74.73339,CO,6,74,11
India,Maharashtra,Ahmednagar,"Tarakpur, Ahmednagar - MPCB",06-04-2026 08:00:00,19.10122,74.73339,OZONE,23,73,42
India,Maharashtra,Akola,"Ramdaspeth, Akola - MPCB",06-04-2026 08:00:00,20.719516,77.000253,NO2,8,33,13
India,Maharashtra,Akola,"Ramdaspeth, Akola - MPCB",06-04-2026 08:00:00,20.719516,77.000253,CO,18,22,20
India,Maharashtra,Akola,"Ramdaspeth, Akola - MPCB",06-04-2026 08:00:00,20.719516,77.000253,OZONE,17,51,29
India,Maharashtra,Ambernath,"Chinchpada, Ambernath - MPCB",06-04-2026 08:00:00,19.2157840,73.1997810,NH3,2,5,4
India,Maharashtra,Amravati,"Shivneri Colony, Amravati - MPCB",06-04-2026 08:00:00,20.9402359,77.7895248,SO2,5,8,7
India,Maharashtra,Amravati,"Shri Shivaji Science College, Amravati - MPCB",06-04-2026 08:00:00,20.939198,77.765701,PM2.5,29,59,44
India,Madhya Pradesh,Katni,"Gole Bazar, Katni - MPPCB",06-04-2026 08:00:00,23.50016,80.23284,OZONE,26,82,46
India,Madhya Pradesh,Mandideep,"Sector-D Industrial Area, Mandideep - MPPCB",06-04-2026 08:00:00,23.108440,77.511428,SO2,10,103,25
India,Madhya Pradesh,Pithampur,"Sector-2 Industrial Area, Pithampur - MPPCB",06-04-2026 08:00:00,22.624758,75.675238,PM2.5,31,304,113
India,Madhya Pradesh,Ratlam,"Shasthri Nagar, Ratlam - IPCA Lab",06-04-2026 08:00:00,23.331731,75.045981,PM10,24,102,52
India,Madhya Pradesh,Ratlam,"Shasthri Nagar, Ratlam - IPCA Lab",06-04-2026 08:00:00,23.331731,75.045981,NO2,10,31,15
India,Madhya Pradesh,Ratlam,"Shasthri Nagar, Ratlam - IPCA Lab",06-04-2026 08:00:00,23.331731,75.045981,SO2,34,37,36
India,Madhya Pradesh,Sagar,"Deen Dayal Nagar, Sagar - MPPCB",06-04-2026 08:00:00,23.8640158,78.80289321,PM2.5,2,56,26
India,Maharashtra,Amravati,"Shri Shivaji Science College, Amravati - MPCB",06-04-2026 08:00:00,20.939198,77.765701,PM10,60,87,75
India,Maharashtra,Amravati,"Shri Shivaji Science College, Amravati - MPCB",06-04-2026 08:00:00,20.939198,77.765701,CO,36,62,47
India,Maharashtra,Aurangabad,"MIDC Chilkalthana, Aurangabad - MPCB",06-04-2026 08:00:00,19.875620,75.387310,SO2,1,2,1
India,Maharashtra,Aurangabad,"More Chowk Waluj, Aurangabad - MPCB",06-04-2026 08:00:00,19.8389439,75.244448,PM10,24,166,81
India,Madhya Pradesh,Ujjain,"Mahashweta Nagar, Ujjain - MPPCB",06-04-2026 08:00:00,23.1633321,75.800225,NO2,NA,NA,NA
India,Madhya Pradesh,Ujjain,"Mahashweta Nagar, Ujjain - MPPCB",06-04-2026 08:00:00,23.1633321,75.800225,SO2,NA,NA,NA
India,Madhya Pradesh,Ujjain,"Mahashweta Nagar, Ujjain - MPPCB",06-04-2026 08:00:00,23.1633321,75.800225,CO,NA,NA,NA
India,Madhya Pradesh,Singrauli,"Suryakiran Bhawan NCL, Singrauli - MPPCB",06-04-2026 08:00:00,24.108970,82.645580,PM2.5,4,234,86
India,Madhya Pradesh,Satna,"Bandhavgar Colony, Satna - Birla Cement",06-04-2026 08:00:00,24.58434363,80.8549414,NO2,12,13,12
India,Madhya Pradesh,Jabalpur,"Govindh Bhavan Colony, Jabalpur - JMC",06-04-2026 08:00:00,23.163174,79.973061,NH3,2,2,2
India,Madhya Pradesh,Jabalpur,"Marhatal, Jabalpur - MPPCB",06-04-2026 08:00:00,23.168606,79.932247,NH3,1,2,2
India,Maharashtra,Beed,"Bir, Beed - MPCB",06-04-2026 08:00:00,18.988474,75.753873,NH3,5,6,5
India,Maharashtra,Bhiwandi,"Gokul Nagar, Bhiwandi - MPCB",06-04-2026 08:00:00,19.309073,73.057223,NO2,18,36,25
India,Maharashtra,Boisar,"Khaira, Boisar - MPCB",06-04-2026 08:00:00,19.786089,72.757971,OZONE,4,32,6
India,Maharashtra,Chandrapur,"Chauhan Colony, Chandrapur - MPCB",06-04-2026 08:00:00,19.962900,79.298714,NO2,34,46,38
India,Maharashtra,Chandrapur,"Chauhan Colony, Chandrapur - MPCB",06-04-2026 08:00:00,19.962900,79.298714,OZONE,15,19,18
India,Maharashtra,Chandrapur,"MIDC Khutala, Chandrapur - MPCB",06-04-2026 08:00:00,19.9775302,79.2337086,NO2,NA,NA,NA
India,Maharashtra,Mira-Bhayandar,"Bhayandar West, Mira-Bhayandar - MPCB",06-04-2026 08:00:00,19.296481,72.840923,PM2.5,NA,NA,NA
India,Maharashtra,Mira-Bhayandar,"Bhayandar West, Mira-Bhayandar - MPCB",06-04-2026 08:00:00,19.296481,72.840923,SO2,NA,NA,NA
India,Maharashtra,Mumbai,"Bandra Kurla Complex, Mumbai - IITM",06-04-2026 08:00:00,19.053536,72.84643,PM2.5,NA,NA,NA
India,Maharashtra,Mumbai,"Bandra Kurla Complex, Mumbai - IITM",06-04-2026 08:00:00,19.053536,72.84643,NO2,NA,NA,NA
India,Maharashtra,Mumbai,"Bandra Kurla Complex, Mumbai - IITM",06-04-2026 08:00:00,19.053536,72.84643,OZONE,NA,NA,NA
India,Maharashtra,Mumbai,"Bandra Kurla Complex, Mumbai - MPCB",06-04-2026 08:00:00,19.065931,72.862131,NH3,2,4,2
India,Maharashtra,Jalgaon,"Prabhat Colony, Jalgaon - MPCB",06-04-2026 08:00:00,21.001264,75.565602,CO,18,30,20
India,Maharashtra,Jalna,"Old MIDC, Jalna - MPCB",06-04-2026 08:00:00,19.854616,75.905894,PM10,52,100,70
India,Maharashtra,Jalna,"Old MIDC, Jalna - MPCB",06-04-2026 08:00:00,19.854616,75.905894,OZONE,11,39,15
India,Maharashtra,Kalyan,"Khadakpada, Kalyan - MPCB",06-04-2026 08:00:00,19.25292,73.142019,PM2.5,10,64,36
India,Maharashtra,Kalyan,"Khadakpada, Kalyan - MPCB",06-04-2026 08:00:00,19.25292,73.142019,OZONE,8,8,8
India,Maharashtra,Mahad,"Kamble Tarf Birwadi, Mahad - MPCB",06-04-2026 08:00:00,18.1023399,73.4783687,NH3,3,11,8
India,Maharashtra,Malegaon,"Mahesh Nagar, Malegaon - MPCB",06-04-2026 08:00:00,20.555712,74.529236,OZONE,27,106,64
India,Maharashtra,Kalyan,"Pimpleshwar Mandir, Kalyan - MPCB",06-04-2026 08:00:00,19.192056,72.9585188,NH3,3,4,3
India,Maharashtra,Kolhapur,"Shivaji University, Kolhapur - MPCB",06-04-2026 08:00:00,16.6870449,74.2505872,PM2.5,16,35,25
India,Maharashtra,Dhule,"Deopur, Dhule - MPCB",06-04-2026 08:00:00,20.918946,74.776388,NH3,1,2,1
India,Maharashtra,Dombivli,"Kalu Nagar, Dombivli - MPCB",06-04-2026 08:00:00,19.2268427 ,73.0788456 ,PM2.5,10,71,30
India,Maharashtra,Latur,"Sawe Wadi, Latur - MPCB",06-04-2026 08:00:00,18.39963,76.57452,SO2,NA,NA,NA
India,Maharashtra,Latur,"Sawe Wadi, Latur - MPCB",06-04-2026 08:00:00,18.39963,76.57452,CO,1,105,5
India,Maharashtra,Hingoli,"Ashta Vinayak Nagar, Hingoli - MPCB",06-04-2026 08:00:00,19.710842,77.151824,SO2,1,14,3
India,Maharashtra,Kolhapur,"Sinchan Bhavan, Kolhapur - MPCB",06-04-2026 08:00:00,16.7143745,74.2426398,CO,6,16,9
India,Maharashtra,Mumbai,"Kurla, Mumbai - MPCB",06-04-2026 08:00:00,19.0863,72.8888,CO,8,16,12
India,Maharashtra,Mumbai,"Malad West, Mumbai - IITM",06-04-2026 08:00:00,19.19709,72.82204,PM2.5,6,40,18
India,Maharashtra,Mumbai,"Malad West, Mumbai - IITM",06-04-2026 08:00:00,19.19709,72.82204,NH3,2,3,3
India,Maharashtra,Mumbai,"Malad West, Mumbai - IITM",06-04-2026 08:00:00,19.19709,72.82204,SO2,5,13,8
India,Maharashtra,Mumbai,"Chembur, Mumbai - MPCB",06-04-2026 08:00:00,19.0364585,72.8954371,CO,40,53,44
India,Maharashtra,Mumbai,"Chhatrapati Shivaji Intl. Airport (T2), Mumbai - MPCB",06-04-2026 08:00:00,19.10078,72.87462,PM2.5,27,59,41
India,Maharashtra,Mumbai,"Colaba, Mumbai - MPCB",06-04-2026 08:00:00,18.910000,72.820000,CO,58,74,59
India,Maharashtra,Mumbai,"Kandivali West, Mumbai - BMC",06-04-2026 08:00:00,19.215859,72.831718,CO,5,29,7
India,Maharashtra,Mumbai,"Kherwadi_Bandra East, Mumbai - MPCB",06-04-2026 08:00:00,19.0632143,72.8456324,NH3,6,11,9
India,Maharashtra,Mumbai,"Kherwadi_Bandra East, Mumbai - MPCB",06-04-2026 08:00:00,19.0632143,72.8456324,SO2,4,4,4
India,Maharashtra,Mumbai,"Ghatkopar, Mumbai - BMC",06-04-2026 08:00:00,19.083694,72.920967,PM2.5,37,62,48
India,Maharashtra,Mumbai,"Ghatkopar, Mumbai - BMC",06-04-2026 08:00:00,19.083694,72.920967,SO2,NA,NA,NA
India,Maharashtra,Mumbai,"Kandivali West, Mumbai - BMC",06-04-2026 08:00:00,19.215859,72.831718,PM10,25,45,35
India,Maharashtra,Mumbai,"Borivali East, Mumbai - IITM",06-04-2026 08:00:00,19.23241,72.86895,PM10,37,89,62
India,Maharashtra,Mumbai,"Borivali East, Mumbai - IITM",06-04-2026 08:00:00,19.23241,72.86895,NO2,21,69,36
India,Maharashtra,Mumbai,"Byculla, Mumbai - BMC",06-04-2026 08:00:00,18.9767,72.8380,NH3,2,8,3
India,Maharashtra,Mumbai,"Byculla, Mumbai - BMC",06-04-2026 08:00:00,18.9767,72.8380,SO2,3,7,5
India,Maharashtra,Mumbai,"Kurla, Mumbai - MPCB",06-04-2026 08:00:00,19.0863,72.8888,PM10,27,112,62
India,Maharashtra,Mumbai,"Mazgaon, Mumbai - IITM",06-04-2026 08:00:00,18.96702,72.84214,NH3,9,12,10
India,Maharashtra,Mumbai,"Kurla, Mumbai - MPCB",06-04-2026 08:00:00,19.0863,72.8888,SO2,29,29,29
India,Maharashtra,Nagpur,"Ambazari, Nagpur - MPCB",06-04-2026 08:00:00,21.121801,79.04952,PM10,NA,NA,NA
India,Maharashtra,Nagpur,"Ambazari, Nagpur - MPCB",06-04-2026 08:00:00,21.121801,79.04952,SO2,NA,NA,NA
India,Maharashtra,Nagpur,"Mahal, Nagpur - MPCB",06-04-2026 08:00:00,21.14472,79.107595,PM10,44,177,92
India,Maharashtra,Nagpur,"Mahal, Nagpur - MPCB",06-04-2026 08:00:00,21.14472,79.107595,NO2,16,104,45
India,Maharashtra,Nagpur,"Opp GPO Civil Lines, Nagpur - MPCB",06-04-2026 08:00:00,21.152875,79.0517531,PM10,52,144,84
India,Maharashtra,Nagpur,"Opp GPO Civil Lines, Nagpur - MPCB",06-04-2026 08:00:00,21.152875,79.0517531,SO2,6,69,25
India,Maharashtra,Nagpur,"Ram Nagar, Nagpur - MPCB",06-04-2026 08:00:00,21.143383,79.048912,PM2.5,19,163,50
India,Maharashtra,Nagpur,"Ram Nagar, Nagpur - MPCB",06-04-2026 08:00:00,21.143383,79.048912,OZONE,16,52,25
India,Maharashtra,Mumbai,"Powai, Mumbai - MPCB",06-04-2026 08:00:00,19.137500,72.915056,PM2.5,9,36,21
India,Maharashtra,Mumbai,"Powai, Mumbai - MPCB",06-04-2026 08:00:00,19.137500,72.915056,OZONE,9,9,9
India,Maharashtra,Mumbai,"Sewri, Mumbai - BMC",06-04-2026 08:00:00,19.000084,72.856730,PM2.5,11,24,17
India,Maharashtra,Nashik,"Gangapur Road, Nashik - MPCB",06-04-2026 08:00:00,20.0073285,73.7762427,PM10,28,77,55
India,Maharashtra,Nashik,"Gangapur Road, Nashik - MPCB",06-04-2026 08:00:00,20.0073285,73.7762427,SO2,1,8,5
India,Maharashtra,Navi Mumbai,"Kopripada-Vashi, Navi Mumbai - MPCB",06-04-2026 08:00:00,19.090337,73.014232,SO2,1,3,2
India,Maharashtra,Nashik,"Pandav Nagari, Nashik - MPCB",06-04-2026 08:00:00,19.9591346,73.7788008,CO,11,22,14
India,Maharashtra,Nanded,"Sneh Nagar, Nanded - MPCB",06-04-2026 08:00:00,19.173852,77.296291,PM2.5,28,64,50
India,Maharashtra,Nashik,"MIDC Ambad, Nashik - MPCB",06-04-2026 08:00:00,19.950220,73.731480,NH3,2,3,2
India,Maharashtra,Mumbai,"Sion, Mumbai - MPCB",06-04-2026 08:00:00,19.047000,72.874600,SO2,1,6,2
India,Maharashtra,Pimpri-Chinchwad,"Transport Nagar-Nigdi, Pune - IITM",06-04-2026 08:00:00,18.664282,73.763966,OZONE,2,15,4
India,Maharashtra,Pune,"Dhankawadi, Pune - IITM",06-04-2026 08:00:00,18.459883,73.852193,CO,75,88,79
India,Maharashtra,Pune,"Hadapsar, Pune - IITM",06-04-2026 08:00:00,18.501793,73.927532,NO2,28,102,65
India,Maharashtra,Pune,"Hadapsar, Pune - IITM",06-04-2026 08:00:00,18.501793,73.927532,CO,25,104,32
India,Maharashtra,Pune,"Hadapsar, Pune - IITM",06-04-2026 08:00:00,18.501793,73.927532,OZONE,4,29,16
India,Maharashtra,Pune,"Katraj Dairy, Pune - MPCB",06-04-2026 08:00:00,18.454450,73.854155,PM2.5,21,31,23
India,Maharashtra,Pune,"Mhada Colony, Pune - IITM",06-04-2026 08:00:00,18.573040,73.927715,PM2.5,14,65,42
India,Maharashtra,Pune,"Mhada Colony, Pune - IITM",06-04-2026 08:00:00,18.573040,73.927715,NO2,32,84,53
India,Maharashtra,Pimpri-Chinchwad,"Gavalinagar, Pimpri Chinchwad - MPCB",06-04-2026 08:00:00,18.63673,73.82487,NH3,1,3,1
India,Maharashtra,Pimpri-Chinchwad,"Gavalinagar, Pimpri Chinchwad - MPCB",06-04-2026 08:00:00,18.63673,73.82487,CO,8,25,12
India,Maharashtra,Pimpri-Chinchwad,"Savta Mali Nagar, Pimpri-Chinchwad - IITM",06-04-2026 08:00:00,18.614767,73.799516,OZONE,5,18,10
India,Maharashtra,Parbhani,"Masoom Colony, Parbhani - MPCB",06-04-2026 08:00:00,19.265594,76.761463,OZONE,6,8,7
India,Maharashtra,Pimpri-Chinchwad,"Bhosari, Pune - IITM",06-04-2026 08:00:00,18.640051,73.848956,PM10,29,71,51
India,Maharashtra,Solapur,"Dnyaneshwar Nagar, Solapur - MPCB",06-04-2026 08:00:00,17.6336264,75.9132495,PM10,40,92,61
India,Maharashtra,Solapur,"Ratandeep Housing Society, Solapur - MPCB",06-04-2026 08:00:00,17.65439,75.90649,NO2,21,131,42
India,Maharashtra,Pune,"Savitribai Phule Pune University, Pune - MPCB",06-04-2026 08:00:00,18.547056,73.826908,PM2.5,14,47,23
India,Maharashtra,Sangli,"Vijay Nagar, Sangli - MPCB",06-04-2026 08:00:00, 16.5038,74.3623,PM2.5,11,46,28
India,Maharashtra,Pimpri-Chinchwad,"Gavalinagar, Pimpri Chinchwad - MPCB",06-04-2026 08:00:00,18.63673,73.82487,PM10,37,58,49
India,Maharashtra,Navi Mumbai,"Sector-2E Kalamboli, Navi Mumbai - MPCB",06-04-2026 08:00:00,19.02579,73.10297,CO,14,22,20
India,Maharashtra,Navi Mumbai,"Tondare-Taloja, Navi Mumbai - MPCB",06-04-2026 08:00:00,19.0630,73.1209,PM2.5,NA,NA,NA
India,Maharashtra,Navi Mumbai,"Nerul, Navi Mumbai - MPCB",06-04-2026 08:00:00,19.008751,73.016620,SO2,NA,NA,NA
India,Odisha,Balasore,"Kalidaspur, Balasore - OSPCB",06-04-2026 08:00:00,21.51161,86.89088,CO,36,59,48
India,Odisha,Baripada,"Meher Colony, Baripada - OSPCB",06-04-2026 08:00:00,21.941841,86.728318,NO2,1,11,3
India,Odisha,Baripada,"Meher Colony, Baripada - OSPCB",06-04-2026 08:00:00,21.941841,86.728318,OZONE,7,60,16
India,Odisha,Bhubaneswar,"Lingraj Mandir, Bhubaneswar - OSPCB",06-04-2026 08:00:00,20.240790,85.836784,PM10,30,115,63
India,Odisha,Bhubaneswar,"Lingraj Mandir, Bhubaneswar - OSPCB",06-04-2026 08:00:00,20.240790,85.836784,SO2,2,15,6
India,Mizoram,Aizawl,"Sikulpuikawn, Aizawl - Mizoram PCB",06-04-2026 08:00:00,23.7176342,92.7192841,PM2.5,14,320,58
India,Nagaland,Kohima,"PWD Junction, Kohima - NPCB",06-04-2026 08:00:00,25.6635413,94.0989878,PM2.5,10,52,31
India,Nagaland,Kohima,"PWD Junction, Kohima - NPCB",06-04-2026 08:00:00,25.6635413,94.0989878,PM10,8,44,26
India,Maharashtra,Ulhasnagar,"Vithalwadi, Ulhasnagar - MPCB",06-04-2026 08:00:00,19.2307571 ,73.1551920,NH3,2,3,2
India,Maharashtra,Ulhasnagar,"Vithalwadi, Ulhasnagar - MPCB",06-04-2026 08:00:00,19.2307571 ,73.1551920,SO2,2,16,7
India,Maharashtra,Ulhasnagar,"Vithalwadi, Ulhasnagar - MPCB",06-04-2026 08:00:00,19.2307571 ,73.1551920,CO,2,24,15
India,Maharashtra,Thane,"Kasarvadavali, Thane - MPCB",06-04-2026 08:00:00,19.26777,72.97182,PM2.5,37,132,61
India,Maharashtra,Thane,"Kasarvadavali, Thane - MPCB",06-04-2026 08:00:00,19.26777,72.97182,NH3,4,7,5
India,Meghalaya,Byrnihat,"15th Mile-Nongthymmai, Byrnihat - Meghalaya PCB",06-04-2026 08:00:00,26.05374,91.86796,CO,16,68,32
India,Meghalaya,Shillong,"JN Stadium, Shillong - Meghalaya PCB",06-04-2026 08:00:00,25.5803419,91.8942571,SO2,26,33,30
India,Maharashtra,Thane,"Upvan Fort, Thane - MPCB",06-04-2026 08:00:00,19.222279,72.957979,PM2.5,26,51,38
India,Nagaland,Kohima,"PWD Junction, Kohima - NPCB",06-04-2026 08:00:00,25.6635413,94.0989878,CO,2,10,3
India,Maharashtra,Virar,"Bolinj, Virar - MPCB",06-04-2026 08:00:00,19.4458210,72.7988231,OZONE,8,68,23
India,Odisha,Keonjhar,"Jagamohanpur, Keonjhar - OSPCB",06-04-2026 08:00:00,21.643900,85.599355,NH3,5,5,5
India,Odisha,Keonjhar,"Jagamohanpur, Keonjhar - OSPCB",06-04-2026 08:00:00,21.643900,85.599355,SO2,9,21,13
India,Odisha,Rairangpur,"Divisional Forest Office, Rairangpur - OSPCB",06-04-2026 08:00:00,22.265816,86.174829,PM10,27,49,36
India,Odisha,Rourkela,"Raghunathpali, Rourkela - OSPCB",06-04-2026 08:00:00,22.220833,84.809444,CO,30,101,62
India,Odisha,Rourkela,"Sector-2, Rourkela - OSPCB",06-04-2026 08:00:00,22.24500000,84.88111111,PM10,88,88,88
India,Odisha,Suakati,"OMC Colony, Suakati - OSPCB",06-04-2026 08:00:00,21.606865,85.510538,PM2.5,55,91,70
India,Odisha,Suakati,"OMC Colony, Suakati - OSPCB",06-04-2026 08:00:00,21.606865,85.510538,PM10,60,81,69
India,Punjab,Jalandhar,"Civil Line, Jalandhar - PPCB",06-04-2026 08:00:00,31.321907,75.578914,SO2,18,19,19
India,Punjab,Khanna,"Kalal Majra, Khanna - PPCB",06-04-2026 08:00:00,30.736056 ,76.209694,NO2,26,31,28
India,Punjab,Khanna,"Kalal Majra, Khanna - PPCB",06-04-2026 08:00:00,30.736056 ,76.209694,NH3,7,8,7
India,Punjab,Ludhiana,"Punjab Agricultural University, Ludhiana - PPCB",06-04-2026 08:00:00,30.9028,75.8086,SO2,11,40,27
India,Odisha,Bileipada,"Tata Township, Bileipada - OSPCB",06-04-2026 08:00:00,22.06156703,85.47409613,SO2,11,11,11
India,Odisha,Cuttack,"CDA Area, Cuttack - OSPCB",06-04-2026 08:00:00,20.48891     ,85.84768     ,NH3,2,2,2
India,Odisha,Keonjhar,"Jagamohanpur, Keonjhar - OSPCB",06-04-2026 08:00:00,21.643900,85.599355,PM10,42,83,58
India,Punjab,Bathinda,"Hardev Nagar, Bathinda - PPCB",06-04-2026 08:00:00,30.233011,74.907758,PM10,16,94,47
India,Punjab,Bathinda,"Hardev Nagar, Bathinda - PPCB",06-04-2026 08:00:00,30.233011,74.907758,CO,46,80,76
India,Punjab,Jalandhar,"Civil Line, Jalandhar - PPCB",06-04-2026 08:00:00,31.321907,75.578914,PM2.5,7,39,18
India,Punjab,Patiala,"Model Town, Patiala - PPCB",06-04-2026 08:00:00,30.349388,76.366642,OZONE,15,53,16
India,Rajasthan,Ajmer,"Civil Lines,  Ajmer - RSPCB",06-04-2026 08:00:00,26.470859,74.646594,PM2.5,43,65,51
India,Odisha,Bhubaneswar,"Lingraj Mandir, Bhubaneswar - OSPCB",06-04-2026 08:00:00,20.240790,85.836784,OZONE,2,116,22
India,Odisha,Bhubaneswar,"Patia, Bhubaneswar - OSPCB",06-04-2026 08:00:00,20.34652,85.81630,NO2,7,25,16
India,Punjab,Mandi Gobindgarh,"RIMT University, Mandi Gobindgarh - PPCB",06-04-2026 08:00:00,30.649961,76.331442,PM2.5,14,90,40
India,Punjab,Mandi Gobindgarh,"RIMT University, Mandi Gobindgarh - PPCB",06-04-2026 08:00:00,30.649961,76.331442,SO2,3,93,20
India,Punjab,Amritsar,"Golden Temple, Amritsar - PPCB",06-04-2026 08:00:00,31.620000,74.876512,NO2,NA,NA,NA
India,Odisha,Suakati,"OMC Colony, Suakati - OSPCB",06-04-2026 08:00:00,21.606865,85.510538,NO2,15,15,15
India,Rajasthan,Dausa,"Khatikan Mohalla, Dausa - RSPCB",06-04-2026 08:00:00,26.895552,76.334753,SO2,2,5,4
India,Rajasthan,Dholpur,"Raja Ganj, Dholpur - RSPCB",06-04-2026 08:00:00,26.699557,77.898881,PM2.5,33,87,56
India,Rajasthan,Dholpur,"Raja Ganj, Dholpur - RSPCB",06-04-2026 08:00:00,26.699557,77.898881,NH3,13,19,16
India,Rajasthan,Dholpur,"Raja Ganj, Dholpur - RSPCB",06-04-2026 08:00:00,26.699557,77.898881,CO,4,22,19
India,Rajasthan,Bundi,"New Colony, Bundi - RSPCB",06-04-2026 08:00:00,25.435774,75.644272,PM10,22,89,37
India,Rajasthan,Bundi,"New Colony, Bundi - RSPCB",06-04-2026 08:00:00,25.435774,75.644272,OZONE,82,132,98
India,Rajasthan,Chittorgarh,"Shastri Nagar, Chittorgarh - RSPCB",06-04-2026 08:00:00,24.892047,74.623527,PM10,22,127,77
India,Rajasthan,Chittorgarh,"Shastri Nagar, Chittorgarh - RSPCB",06-04-2026 08:00:00,24.892047,74.623527,NO2,6,84,37
India,Rajasthan,Churu,"Subash Chowk, Churu - RSPCB",06-04-2026 08:00:00,28.296139,74.961696,PM10,33,117,71
India,Rajasthan,Bhiwadi,"Vasundhara Nagar_UIT, Bhiwadi - RSPCB",06-04-2026 08:00:00,28.207266,76.829265,SO2,5,101,21
India,Rajasthan,Bikaner,"MM Ground, Bikaner - RSPCB",06-04-2026 08:00:00,28.018792,73.292658,PM10,31,230,103
India,Rajasthan,Alwar,"Moti Doongri, Alwar - RSPCB",06-04-2026 08:00:00,27.554793,76.611536,PM10,70,117,91
India,Rajasthan,Alwar,"Moti Doongri, Alwar - RSPCB",06-04-2026 08:00:00,27.554793,76.611536,NO2,36,62,45
India,Rajasthan,Alwar,"Moti Doongri, Alwar - RSPCB",06-04-2026 08:00:00,27.554793,76.611536,CO,12,56,34
India,Rajasthan,Banswara,"Rati Talai, Banswara - RSPCB",06-04-2026 08:00:00,23.555190,74.440010,SO2,1,7,3
India,Rajasthan,Banswara,"Rati Talai, Banswara - RSPCB",06-04-2026 08:00:00,23.555190,74.440010,CO,17,34,25
India,Rajasthan,Ajmer,"Civil Lines,  Ajmer - RSPCB",06-04-2026 08:00:00,26.470859,74.646594,NH3,3,4,4
India,Rajasthan,Ajmer,"Civil Lines,  Ajmer - RSPCB",06-04-2026 08:00:00,26.470859,74.646594,CO,14,108,37
India,Rajasthan,Bhilwara,"Pratap Nagar, Bhilwara - RSPCB",06-04-2026 08:00:00,25.339605,74.618883,PM10,40,185,82
India,Rajasthan,Bhilwara,"Pratap Nagar, Bhilwara - RSPCB",06-04-2026 08:00:00,25.339605,74.618883,CO,20,47,32
India,Rajasthan,Bharatpur,"Krishna Nagar, Bharatpur - RSPCB",06-04-2026 08:00:00,27.215415,77.50873,NO2,7,51,20
India,Rajasthan,Jalore,"Mudtra Sili, Jalore - RSPCB",06-04-2026 08:00:00,25.344694,72.626208,SO2,2,5,3
India,Rajasthan,Jalore,"Mudtra Sili, Jalore - RSPCB",06-04-2026 08:00:00,25.344694,72.626208,CO,8,36,15
India,Rajasthan,Jhalawar,"Rajlaxmi Nagar, Jhalawar - RSPCB",06-04-2026 08:00:00,24.588397,76.172782,PM2.5,3,72,29
India,Rajasthan,Jhunjhunu,"Indra Nagar, Jhunjhunu - RSPCB",06-04-2026 08:00:00,28.108988,75.386577,CO,6,32,21
India,Rajasthan,Jaipur,"Mansarovar Sector-12, Jaipur - RSPCB",06-04-2026 08:00:00,26.843698,75.766894,CO,41,100,54
India,Rajasthan,Jaipur,"Police Commissionerate, Jaipur - RSPCB",06-04-2026 08:00:00,26.9164092,75.7994901,NO2,124,373,218
India,Rajasthan,Jaipur,"Police Commissionerate, Jaipur - RSPCB",06-04-2026 08:00:00,26.9164092,75.7994901,NH3,41,100,60
India,Rajasthan,Jaipur,"Sector-2 Murlipura, Jaipur - RSPCB",06-04-2026 08:00:00,26.960669,75.771817,NO2,5,77,34
India,Rajasthan,Jaipur,"Sector-2 Murlipura, Jaipur - RSPCB",06-04-2026 08:00:00,26.960669,75.771817,SO2,2,50,14
India,Rajasthan,Jaipur,"Shastri Nagar, Jaipur - RSPCB",06-04-2026 08:00:00,26.9502929,75.730943,PM2.5,31,216,73
India,Rajasthan,Jodhpur,"Mandor, Jodhpur - RSPCB",06-04-2026 08:00:00,26.358805,73.047444,CO,2,62,29
India,Rajasthan,Jodhpur,"Samrat Ashok Udhyan, Jodhpur - RSPCB",06-04-2026 08:00:00,26.253384,72.976571,OZONE,2,152,30
India,Rajasthan,Hanumangarh,"Housing Board, Hanumangarh - RSPCB",06-04-2026 08:00:00,29.610750,74.283608,SO2,5,24,9
India,Rajasthan,Hanumangarh,"Housing Board, Hanumangarh - RSPCB",06-04-2026 08:00:00,29.610750,74.283608,CO,10,53,13
India,Rajasthan,Dungarpur,"Bhoiwada, Dungarpur - RSPCB",06-04-2026 08:00:00,23.837789,73.714926,CO,28,32,30
India,Rajasthan,Dungarpur,"Bhoiwada, Dungarpur - RSPCB",06-04-2026 08:00:00,23.837789,73.714926,OZONE,27,75,36
India,Rajasthan,Jaisalmer,"Sadar Bazar, Jaisalmer - RSPCB",06-04-2026 08:00:00,26.912329,70.909168,NH3,10,21,14
India,Rajasthan,Jodhpur,"Collectorate, Jodhpur - RSPCB",06-04-2026 08:00:00,26.268249,73.0193853,SO2,4,9,8
India,Rajasthan,Jodhpur,"Mandor, Jodhpur - RSPCB",06-04-2026 08:00:00,26.358805,73.047444,NH3,3,6,5
India,TamilNadu,Chennai,"Manali Village, Chennai - TNPCB",06-04-2026 08:00:00,13.1662,80.2584,NH3,1,4,2
India,TamilNadu,Chennai,"Manali, Chennai - CPCB",06-04-2026 08:00:00,13.164544,80.26285,PM10,12,111,58
India,TamilNadu,Chennai,"Manali, Chennai - CPCB",06-04-2026 08:00:00,13.164544,80.26285,SO2,13,19,16
India,Rajasthan,Sri Ganganagar,"Old City, Sri Ganganagar - RSPCB",06-04-2026 08:00:00,29.931624,73.864511,NO2,4,30,16
India,Rajasthan,Sri Ganganagar,"Old City, Sri Ganganagar - RSPCB",06-04-2026 08:00:00,29.931624,73.864511,CO,7,38,17
India,Rajasthan,Tonk,"Shastri Nagar, Tonk - RSPCB",06-04-2026 08:00:00,26.159933,75.780517,CO,11,42,20
India,Rajasthan,Karauli,"Satyawati Vihar, Karauli - RSPCB",06-04-2026 08:00:00,26.506177,77.025989,PM10,24,89,51
India,Rajasthan,Kota,"Dhanmandi, Kota - RSPCB",06-04-2026 08:00:00,25.164090,75.858137,NO2,30,107,45
India,Rajasthan,Kota,"Dhanmandi, Kota - RSPCB",06-04-2026 08:00:00,25.164090,75.858137,CO,17,62,19
India,TamilNadu,Chennai,"Arumbakkam, Chennai - TNPCB",06-04-2026 08:00:00,13.0664,80.2112 ,PM2.5,17,61,33
India,TamilNadu,Chennai,"Arumbakkam, Chennai - TNPCB",06-04-2026 08:00:00,13.0664,80.2112 ,PM10,29,94,50
India,TamilNadu,Chennai,"Kodungaiyur, Chennai - TNPCB",06-04-2026 08:00:00,13.1278,80.2642,NH3,3,6,4
India,Rajasthan,Sawai Madhopur,"Sahu Nagar, Sawai Madhopur - RSPCB",06-04-2026 08:00:00,26.031443,76.359327,SO2,6,14,9
India,Rajasthan,Sirohi,"Vedhaynath Colony, Sirohi - RSPCB",06-04-2026 08:00:00,24.885261,72.857549,PM2.5,2,43,14
India,Rajasthan,Kota,"Shrinath Puram, Kota - RSPCB",06-04-2026 08:00:00,25.14389,75.821256,PM2.5,32,64,47
India,Rajasthan,Kota,"Shrinath Puram, Kota - RSPCB",06-04-2026 08:00:00,25.14389,75.821256,SO2,5,12,9
India,Rajasthan,Kota,"Shrinath Puram, Kota - RSPCB",06-04-2026 08:00:00,25.14389,75.821256,CO,13,43,29
India,Rajasthan,Pratapgarh,"Pragati Nagar, Pratapgarh - RSPCB",06-04-2026 08:00:00,24.041198,74.780702,CO,10,38,25
India,Rajasthan,Rajsamand,"Dhoinda, Rajsamand - RSPCB",06-04-2026 08:00:00,25.036360,73.883502,SO2,11,18,13
India,Rajasthan,Kota,"Nayapura, Kota - RSPCB",06-04-2026 08:00:00,25.196024,75.855668,PM2.5,2,120,26
India,Rajasthan,Kota,"Nayapura, Kota - RSPCB",06-04-2026 08:00:00,25.196024,75.855668,NH3,3,6,4
India,Rajasthan,Kota,"Nayapura, Kota - RSPCB",06-04-2026 08:00:00,25.196024,75.855668,OZONE,8,128,46
India,Sikkim,Gangtok,"Zero Point GICI, Gangtok - SSPCB",06-04-2026 08:00:00,27.338530,88.614099,PM2.5,7,69,45
India,Telangana,Hyderabad,"ECIL Kapra, Hyderabad - TSPCB",06-04-2026 08:00:00,17.470431,78.566959,CO,16,28,22
India,Telangana,Hyderabad,"ECIL Kapra, Hyderabad - TSPCB",06-04-2026 08:00:00,17.470431,78.566959,OZONE,7,38,13
India,Telangana,Hyderabad,"IITH Kandi, Hyderabad - TSPCB",06-04-2026 08:00:00,17.585705,78.126199,NH3,4,5,4
India,Telangana,Hyderabad,"Kompally Municipal Office, Hyderabad - TSPCB",06-04-2026 08:00:00,17.544899,78.486949,NH3,2,4,3
India,TamilNadu,Coimbatore,"SIDCO Kurichi, Coimbatore - TNPCB",06-04-2026 08:00:00,10.942451,76.978996,SO2,25,27,26
India,TamilNadu,Perundurai,"SIPCOT Industrial Park, Perundurai - TNPCB",06-04-2026 08:00:00,11.258242,77.552761,NO2,11,12,12
India,TamilNadu,Perundurai,"SIPCOT Industrial Park, Perundurai - TNPCB",06-04-2026 08:00:00,11.258242,77.552761,NH3,3,4,3
India,TamilNadu,Perundurai,"SIPCOT Industrial Park, Perundurai - TNPCB",06-04-2026 08:00:00,11.258242,77.552761,OZONE,21,30,29
India,Tripura,Agartala,"Bardowali, Agartala - Tripura SPCB",06-04-2026 08:00:00,23.8175497,91.2726974,NH3,6,10,9
India,Uttar_Pradesh,Agra,"Manoharpur, Agra - UPPCB",06-04-2026 08:00:00,27.23711,78.01936,PM2.5,18,53,37
India,Telangana,Hyderabad,"Sanathnagar, Hyderabad - TSPCB",06-04-2026 08:00:00,17.4559458,78.4332152,PM2.5,34,60,46
India,Telangana,Hyderabad,"Sanathnagar, Hyderabad - TSPCB",06-04-2026 08:00:00,17.4559458,78.4332152,OZONE,14,18,16
India,Telangana,Hyderabad,"Somajiguda, Hyderabad - TSPCB",06-04-2026 08:00:00,17.417094,78.457437,NO2,12,20,13
India,Telangana,Hyderabad,"Nacharam_TSIIC IALA, Hyderabad - TSPCB",06-04-2026 08:00:00,17.429398,78.569354,PM10,74,79,77
India,Telangana,Hyderabad,"New Malakpet, Hyderabad - TSPCB",06-04-2026 08:00:00,17.37206,78.50864,PM2.5,NA,NA,NA
India,TamilNadu,Chennai,"Perungudi, Chennai - TNPCB",06-04-2026 08:00:00,12.9533,80.2357,PM2.5,2,72,34
India,TamilNadu,Chennai,"Perungudi, Chennai - TNPCB",06-04-2026 08:00:00,12.9533,80.2357,NO2,2,7,4
India,TamilNadu,Chennai,"Perungudi, Chennai - TNPCB",06-04-2026 08:00:00,12.9533,80.2357,NH3,NA,NA,NA
India,Uttar_Pradesh,Agra,"Sector-3B Avas Vikas Colony, Agra - UPPCB",06-04-2026 08:00:00,27.19412,77.96237,NO2,36,36,36
India,Uttar_Pradesh,Agra,"Shahjahan Garden, Agra - UPPCB",06-04-2026 08:00:00,27.169338,78.03582,NO2,24,32,27
India,TamilNadu,Coimbatore,"PSG College of Arts and Science, Coimbatore - TNPCB",06-04-2026 08:00:00,11.0328,77.0349,PM10,30,47,38
India,Uttar_Pradesh,Agra,"Rohta, Agra - UPPCB",06-04-2026 08:00:00,27.106972,78.000111,NO2,13,13,13
India,Uttar_Pradesh,Hapur,"Anand Vihar, Hapur - UPPCB",06-04-2026 08:00:00,28.725645,77.749675,SO2,28,53,35
India,Uttar_Pradesh,Jhansi,"Shivaji Nagar, Jhansi - UPPCB",06-04-2026 08:00:00,25.4547,78.6039,NO2,6,6,6
India,Uttar_Pradesh,Jhansi,"Shivaji Nagar, Jhansi - UPPCB",06-04-2026 08:00:00,25.4547,78.6039,NH3,4,4,4
India,Uttar_Pradesh,Kanpur,"FTI Kidwai Nagar, Kanpur - UPPCB",06-04-2026 08:00:00,26.428282,80.327067,PM2.5,3,48,24
India,Uttar_Pradesh,Agra,"Shahjahan Garden, Agra - UPPCB",06-04-2026 08:00:00,27.169338,78.03582,SO2,69,93,79
India,Uttar_Pradesh,Agra,"Shahjahan Garden, Agra - UPPCB",06-04-2026 08:00:00,27.169338,78.03582,OZONE,1,1,1
India,Uttar_Pradesh,Agra,"Shastripuram, Agra - UPPCB",06-04-2026 08:00:00,27.19862,77.92066,PM2.5,16,71,31
India,Uttar_Pradesh,Agra,"Shastripuram, Agra - UPPCB",06-04-2026 08:00:00,27.19862,77.92066,OZONE,12,13,12
India,Uttar_Pradesh,Firozabad,"Nagla Bhau, Firozabad - UPPCB",06-04-2026 08:00:00,27.168897,78.376960,PM10,30,96,56
India,Uttar_Pradesh,Firozabad,"Nagla Bhau, Firozabad - UPPCB",06-04-2026 08:00:00,27.168897,78.376960,NO2,17,17,17
India,Uttar_Pradesh,Firozabad,"Nagla Bhau, Firozabad - UPPCB",06-04-2026 08:00:00,27.168897,78.376960,NH3,2,2,2
India,Uttar_Pradesh,Firozabad,"Nagla Bhau, Firozabad - UPPCB",06-04-2026 08:00:00,27.168897,78.376960,SO2,24,42,33
India,Uttar_Pradesh,Bareilly,"Civil Lines, Bareilly - UPPCB",06-04-2026 08:00:00,28.359581,79.414455,NO2,2,3,2
India,Uttar_Pradesh,Bareilly,"Civil Lines, Bareilly - UPPCB",06-04-2026 08:00:00,28.359581,79.414455,NH3,1,2,2
India,Uttar_Pradesh,Bareilly,"Civil Lines, Bareilly - UPPCB",06-04-2026 08:00:00,28.359581,79.414455,SO2,63,101,83
India,Uttar_Pradesh,Bareilly,"Civil Lines, Bareilly - UPPCB",06-04-2026 08:00:00,28.359581,79.414455,OZONE,14,28,20
India,Uttar_Pradesh,Greater Noida,"Knowledge Park - V, Greater Noida - UPPCB",06-04-2026 08:00:00,28.557054,77.453663,PM2.5,48,358,182
India,Uttar_Pradesh,Greater Noida,"Knowledge Park - V, Greater Noida - UPPCB",06-04-2026 08:00:00,28.557054,77.453663,NO2,33,104,68
India,Uttar_Pradesh,Greater Noida,"Knowledge Park - V, Greater Noida - UPPCB",06-04-2026 08:00:00,28.557054,77.453663,NH3,9,17,12
India,Uttar_Pradesh,Ghaziabad,"Indirapuram, Ghaziabad - UPPCB",06-04-2026 08:00:00,28.646233,77.358075,PM2.5,30,321,143
India,Uttar_Pradesh,Ghaziabad,"Indirapuram, Ghaziabad - UPPCB",06-04-2026 08:00:00,28.646233,77.358075,NO2,17,103,53
India,Uttar_Pradesh,Ghaziabad,"Vasundhara, Ghaziabad - UPPCB",06-04-2026 08:00:00,28.6603346,77.3572563,NO2,15,88,41
India,Uttar_Pradesh,Ghaziabad,"Vasundhara, Ghaziabad - UPPCB",06-04-2026 08:00:00,28.6603346,77.3572563,NH3,3,8,4
India,Uttar_Pradesh,Bulandshahr,"Yamunapuram, Bulandshahr - UPPCB",06-04-2026 08:00:00,28.406963,77.849831,OZONE,3,53,6
India,Uttar_Pradesh,Firozabad,"Nagla Bhau, Firozabad - UPPCB",06-04-2026 08:00:00,27.168897,78.376960,CO,22,38,30
India,Uttar_Pradesh,Prayagraj,"Jhunsi, Prayagraj - UPPCB",06-04-2026 08:00:00,25.425602,81.917152,SO2,NA,NA,NA
India,Uttar_Pradesh,Prayagraj,"Motilal Nehru NIT, Prayagraj - UPPCB",06-04-2026 08:00:00,25.494,81.863,SO2,2,15,11
India,Uttar_Pradesh,Prayagraj,"Motilal Nehru NIT, Prayagraj - UPPCB",06-04-2026 08:00:00,25.494,81.863,OZONE,12,37,16
India,Uttar_Pradesh,Prayagraj,"Nagar Nigam, Prayagraj - UPPCB",06-04-2026 08:00:00,25.44919916 ,81.82735986 ,PM2.5,10,43,19
India,Uttar_Pradesh,Prayagraj,"Nagar Nigam, Prayagraj - UPPCB",06-04-2026 08:00:00,25.44919916 ,81.82735986 ,NH3,6,9,7
India,Uttar_Pradesh,Varanasi,"Ardhali Bazar, Varanasi - UPPCB",06-04-2026 08:00:00,25.3505986,82.9083074,PM2.5,10,418,144
India,Uttar_Pradesh,Varanasi,"Ardhali Bazar, Varanasi - UPPCB",06-04-2026 08:00:00,25.3505986,82.9083074,PM10,13,455,140
India,Uttar_Pradesh,Lucknow,"B R Ambedkar University, Lucknow - UPPCB",06-04-2026 08:00:00,26.766433,80.927299,NO2,12,12,12
India,Uttar_Pradesh,Lucknow,"B R Ambedkar University, Lucknow - UPPCB",06-04-2026 08:00:00,26.766433,80.927299,CO,20,30,26
India,Uttar_Pradesh,Lucknow,"Gomti Nagar, Lucknow - UPPCB",06-04-2026 08:00:00,26.868120,81.005119,NO2,8,10,9
India,Uttar_Pradesh,Lucknow,"Gomti Nagar, Lucknow - UPPCB",06-04-2026 08:00:00,26.868120,81.005119,SO2,11,13,11
India,Uttar_Pradesh,Lucknow,"Kendriya Vidyalaya, Lucknow - CPCB",06-04-2026 08:00:00,26.906111,80.948222,NO2,25,30,27
India,Uttar_Pradesh,Lucknow,"Kendriya Vidyalaya, Lucknow - CPCB",06-04-2026 08:00:00,26.906111,80.948222,NH3,5,20,10
India,Uttar_Pradesh,Lucknow,"Lalbagh, Lucknow - CPCB",06-04-2026 08:00:00,26.8458805,80.9365541,PM10,68,104,81
India,Uttar_Pradesh,Moradabad,"Eco Herbal Park, Moradabad - UPPCB",06-04-2026 08:00:00,28.840739,78.697531,OZONE,16,101,22
India,Uttar_Pradesh,Moradabad,"Employment Office, Moradabad - UPPCB",06-04-2026 08:00:00,28.88528,78.73880,CO,2,40,13
India,Uttar_Pradesh,Moradabad,"Jigar Colony, Moradabad - UPPCB",06-04-2026 08:00:00,28.856664,78.772638,PM2.5,23,62,44
India,Uttar_Pradesh,Moradabad,"Jigar Colony, Moradabad - UPPCB",06-04-2026 08:00:00,28.856664,78.772638,NH3,6,6,6
India,Uttar_Pradesh,Noida,"Sector - 62, Noida - IMD",06-04-2026 08:00:00,28.6245479,77.3577104,OZONE,19,103,27
India,Uttar_Pradesh,Noida,"Sector-1, Noida - UPPCB",06-04-2026 08:00:00,28.5898,77.3101,SO2,10,34,20
India,Uttar_Pradesh,Noida,"Sector-116, Noida - UPPCB",06-04-2026 08:00:00,28.569230,77.393848,PM2.5,32,330,142
India,Uttar_Pradesh,Moradabad,"Transport Nagar, Moradabad - UPPCB",06-04-2026 08:00:00,28.802625,78.753728,NH3,5,5,5
India,Uttar_Pradesh,Muzaffarnagar,"New Mandi, Muzaffarnagar - UPPCB",06-04-2026 08:00:00,29.4723508,77.7194031,PM2.5,24,303,113
India,Uttar_Pradesh,Muzaffarnagar,"New Mandi, Muzaffarnagar - UPPCB",06-04-2026 08:00:00,29.4723508,77.7194031,CO,3,54,31
India,Uttar_Pradesh,Noida,"Sector - 125, Noida - UPPCB",06-04-2026 08:00:00,28.5447608,77.3231257,PM10,67,423,217
India,Uttar_Pradesh,Khurja,"Kalindi Kunj, Khurja - UPPCB",06-04-2026 08:00:00,28.2348927,77.8683002,PM10,2,110,54
India,Uttar_Pradesh,Khurja,"Kalindi Kunj, Khurja - UPPCB",06-04-2026 08:00:00,28.2348927,77.8683002,NO2,12,13,13
India,Uttar_Pradesh,Khurja,"Kalindi Kunj, Khurja - UPPCB",06-04-2026 08:00:00,28.2348927,77.8683002,SO2,9,10,10
India,Uttar_Pradesh,Meerut,"Jai Bhim Nagar, Meerut - UPPCB",06-04-2026 08:00:00,28.9535882,77.7622941,SO2,7,10,8
India,Uttar_Pradesh,Meerut,"Pallavpuram Phase 2, Meerut - UPPCB",06-04-2026 08:00:00,29.063510,77.709723,NH3,6,10,7
India,Uttar_Pradesh,Lucknow,"Talkatora District Industries Center, Lucknow - CPCB",06-04-2026 08:00:00,26.83399722,80.8917361,OZONE,9,57,14
India,West_Bengal,Asansol,"Trivenidevi Bhalotia College, Asansol - WBPCB",06-04-2026 08:00:00,23.616515,87.119133,CO,24,41,28
India,West_Bengal,Asansol,"Trivenidevi Bhalotia College, Asansol - WBPCB",06-04-2026 08:00:00,23.616515,87.119133,OZONE,12,43,16
India,West_Bengal,Barrackpore,"SVSPA Campus, Barrackpore - WBPCB",06-04-2026 08:00:00,22.7605581,88.3617589,SO2,14,20,15
India,West_Bengal,Barrackpore,"SVSPA Campus, Barrackpore - WBPCB",06-04-2026 08:00:00,22.7605581,88.3617589,OZONE,10,39,12
India,West_Bengal,Durgapur,"Mahishkapur Road_B-Zone, Durgapur - WBPCB",06-04-2026 08:00:00,23.567923,87.306843,SO2,5,72,18
India,West_Bengal,Durgapur,"Mahishkapur Road_B-Zone, Durgapur - WBPCB",06-04-2026 08:00:00,23.567923,87.306843,OZONE,9,61,23
India,West_Bengal,Durgapur,"PCBL Residential Complex, Durgapur - WBPCB",06-04-2026 08:00:00,23.5087640,87.3544400,CO,50,91,59
India,West_Bengal,Durgapur,"Womens College_City Center, Durgapur - WBPCB",06-04-2026 08:00:00,23.549395,87.300496,NH3,2,3,3
India,West_Bengal,Durgapur,"Womens College_City Center, Durgapur - WBPCB",06-04-2026 08:00:00,23.549395,87.300496,SO2,27,28,28
India,West_Bengal,Kolkata,"Bidhannagar, Kolkata - WBPCB",06-04-2026 08:00:00,22.58157048,88.41002457,NO2,6,19,17
India,West_Bengal,Kolkata,"Bidhannagar, Kolkata - WBPCB",06-04-2026 08:00:00,22.58157048,88.41002457,OZONE,24,54,30
India,West_Bengal,Kolkata,"Fort William, Kolkata - WBPCB",06-04-2026 08:00:00,22.556640,88.342674,NO2,20,42,29
India,West_Bengal,Kolkata,"Jadavpur, Kolkata - WBPCB",06-04-2026 08:00:00,22.49929,88.36917,PM2.5,39,80,54
India,West_Bengal,Kolkata,"Jadavpur, Kolkata - WBPCB",06-04-2026 08:00:00,22.49929,88.36917,PM10,35,84,53
India,West_Bengal,Kolkata,"Jadavpur, Kolkata - WBPCB",06-04-2026 08:00:00,22.49929,88.36917,SO2,4,5,4
India,West_Bengal,Kolkata,"Jadavpur, Kolkata - WBPCB",06-04-2026 08:00:00,22.49929,88.36917,OZONE,9,29,10
India,West_Bengal,Kolkata,"Rabindra Bharati University, Kolkata - WBPCB",06-04-2026 08:00:00,22.627847,88.380669,SO2,3,9,7
India,Uttarakhand,Rishikesh,"Shivaji Nagar, Rishikesh - UKPCB",06-04-2026 08:00:00,30.075911,78.2859547,SO2,1,1,1
India,West_Bengal,Asansol,"Asansol Court Area, Asansol - WBPCB",06-04-2026 08:00:00,23.685297,86.945968,PM2.5,30,59,45
India,West_Bengal,Asansol,"Asansol Court Area, Asansol - WBPCB",06-04-2026 08:00:00,23.685297,86.945968,PM10,26,76,44
India,West_Bengal,Asansol,"Evelyn Lodge, Asansol - WBPCB",06-04-2026 08:00:00,23.6979360,86.9443950,PM10,26,57,43
India,West_Bengal,Asansol,"Evelyn Lodge, Asansol - WBPCB",06-04-2026 08:00:00,23.6979360,86.9443950,NH3,6,7,7
India,West_Bengal,Asansol,"Mahabir Colliery, Asansol - WBPCB",06-04-2026 08:00:00,23.6181830,87.1057180,PM2.5,2,33,17
India,Uttar_Pradesh,Varanasi,"Maldahiya, Varanasi - UPPCB",06-04-2026 08:00:00,25.32393,82.99687,SO2,29,30,30
India,Uttar_Pradesh,Varanasi,"Maldahiya, Varanasi - UPPCB",06-04-2026 08:00:00,25.32393,82.99687,CO,10,53,26
India,Uttar_Pradesh,Varanasi,"Maldahiya, Varanasi - UPPCB",06-04-2026 08:00:00,25.32393,82.99687,OZONE,3,10,3
India,Uttar_Pradesh,Vrindavan,"Omex Eternity, Vrindavan - UPPCB",06-04-2026 08:00:00,27.5714090,77.6557570,PM2.5,13,74,31
India,Uttar_Pradesh,Vrindavan,"Omex Eternity, Vrindavan - UPPCB",06-04-2026 08:00:00,27.5714090,77.6557570,CO,18,36,27
India,Uttarakhand,Kashipur,"Govt. Girls Inter College, Kashipur - UKPCB",06-04-2026 08:00:00,29.2124114,78.9611753,PM10,NA,NA,NA
India,West_Bengal,Howrah,"Botanical Garden, Howrah - WBPCB",06-04-2026 08:00:00,22.554954,88.292568,SO2,8,10,9
India,West_Bengal,Howrah,"Dasnagar, Howrah - WBPCB",06-04-2026 08:00:00,22.6025571,88.3105664,PM2.5,17,301,78
India,West_Bengal,Howrah,"Dasnagar, Howrah - WBPCB",06-04-2026 08:00:00,22.6025571,88.3105664,CO,14,34,24
India,West_Bengal,Howrah,"Ghusuri, Howrah - WBPCB",06-04-2026 08:00:00,22.611968,88.347422,PM10,66,99,78
India,West_Bengal,Howrah,"Ghusuri, Howrah - WBPCB",06-04-2026 08:00:00,22.611968,88.347422,CO,10,40,28
India,West_Bengal,Howrah,"Padmapukur, Howrah - WBPCB",06-04-2026 08:00:00,22.5687319,88.2797276,PM10,48,82,59
India,Uttar_Pradesh,Varanasi,"IESD Banaras Hindu University, Varanasi - UPPCB",06-04-2026 08:00:00,25.262326,82.995408,PM2.5,NA,NA,NA
India,Uttar_Pradesh,Varanasi,"IESD Banaras Hindu University, Varanasi - UPPCB",06-04-2026 08:00:00,25.262326,82.995408,PM10,NA,NA,NA
India,Uttar_Pradesh,Varanasi,"IESD Banaras Hindu University, Varanasi - UPPCB",06-04-2026 08:00:00,25.262326,82.995408,OZONE,NA,NA,NA
India,West_Bengal,Kolkata,"Ballygunge, Kolkata - WBPCB",06-04-2026 08:00:00,22.5367507,88.3638022,PM2.5,43,83,56
India,West_Bengal,Howrah,"Padmapukur, Howrah - WBPCB",06-04-2026 08:00:00,22.5687319,88.2797276,SO2,10,47,19
India,Andhra_Pradesh,Tirupati,"Vaikuntapuram, Tirupati - APPCB",06-04-2026 08:00:00,13.615387,79.409230,OZONE,20,37,22
India,Andhra_Pradesh,Vijayawada,"HB Colony, Vijayawada - APPCB",06-04-2026 08:00:00,16.536107,80.594233,OZONE,22,41,23
India,Andhra_Pradesh,Vijayawada,"Kanuru, Vijayawada - APPCB",06-04-2026 08:00:00,16.486692,80.699436,SO2,NA,NA,NA
India,Andhra_Pradesh,Vijayawada,"Kanuru, Vijayawada - APPCB",06-04-2026 08:00:00,16.486692,80.699436,OZONE,NA,NA,NA
India,Andhra_Pradesh,Vijayawada,"Rajiv Gandhi Park, Vijayawada - APPCB",06-04-2026 08:00:00,16.509717,80.612222,PM10,32,98,66
India,Andhra_Pradesh,Vijayawada,"Rajiv Nagar, Vijayawada - APPCB",06-04-2026 08:00:00,16.554731,80.649110,PM10,41,72,49
India,Andhra_Pradesh,Visakhapatnam,"GVM Corporation, Visakhapatnam - APPCB",06-04-2026 08:00:00,17.72,83.3,PM2.5,24,82,52
India,Andhra_Pradesh,Visakhapatnam,"GVM Corporation, Visakhapatnam - APPCB",06-04-2026 08:00:00,17.72,83.3,NO2,12,81,34
India,Assam,Guwahati,"Railway Colony, Guwahati - PCBA",06-04-2026 08:00:00,26.181742,91.78063,CO,NA,NA,NA
India,Assam,Nagaon,"Christianpatty, Nagaon - PCBA",06-04-2026 08:00:00,26.349082,92.68449,NO2,8,169,36
India,Assam,Nalbari,"Bata Chowk, Nalbari - PCBA",06-04-2026 08:00:00,26.446912,91.439057,SO2,8,8,8
India,Assam,Nalbari,"Bata Chowk, Nalbari - PCBA",06-04-2026 08:00:00,26.446912,91.439057,OZONE,15,17,16
India,Assam,Silchar,"Tarapur, Silchar - PCBA",06-04-2026 08:00:00,24.82827,92.79525,PM10,46,54,49
India,Assam,Silchar,"Tarapur, Silchar - PCBA",06-04-2026 08:00:00,24.82827,92.79525,NO2,22,30,26
India,Assam,Silchar,"Tarapur, Silchar - PCBA",06-04-2026 08:00:00,24.82827,92.79525,NH3,1,1,1
India,Andhra_Pradesh,Amaravati,"Secretariat, Amaravati - APPCB",06-04-2026 08:00:00,16.5150833,80.5181667,PM10,48,120,80
India,Andhra_Pradesh,Amaravati,"Secretariat, Amaravati - APPCB",06-04-2026 08:00:00,16.5150833,80.5181667,CO,12,26,20
India,Andhra_Pradesh,Anantapur,"Gulzarpet, Anantapur - APPCB",06-04-2026 08:00:00,14.675886,77.593027,PM2.5,55,86,66
India,Andhra_Pradesh,Anantapur,"Gulzarpet, Anantapur - APPCB",06-04-2026 08:00:00,14.675886,77.593027,CO,22,59,29
India,Andhra_Pradesh,Chittoor,"Gangineni Cheruvu, Chittoor - APPCB",06-04-2026 08:00:00,13.204880,79.097889,PM10,57,84,66
India,Andhra_Pradesh,Eluru,"District Court, Eluru - APPCB",06-04-2026 08:00:00,16.711754,81.092095,PM10,34,71,50
India,Assam,Byrnihat,"Central Academy for SFS, Byrnihat - PCBA",06-04-2026 08:00:00,26.071318,91.87488,PM10,99,179,127
India,Assam,Byrnihat,"Central Academy for SFS, Byrnihat - PCBA",06-04-2026 08:00:00,26.071318,91.87488,NH3,4,5,4
India,Assam,Guwahati,"IITG, Guwahati - PCBA",06-04-2026 08:00:00,26.2028636,91.70046436,PM2.5,32,94,67
India,Assam,Guwahati,"IITG, Guwahati - PCBA",06-04-2026 08:00:00,26.2028636,91.70046436,NH3,5,5,5
India,Assam,Guwahati,"LGBI Airport, Guwahati - PCBA",06-04-2026 08:00:00,26.10887,91.589544,PM2.5,16,59,33
India,Assam,Guwahati,"Pan Bazaar, Guwahati - PCBA",06-04-2026 08:00:00,26.187500,91.744194,PM2.5,34,93,60
India,Assam,Silchar,"Tarapur, Silchar - PCBA",06-04-2026 08:00:00,24.82827,92.79525,OZONE,2,4,2
India,Assam,Sivasagar,"Girls College, Sivasagar - PCBA",06-04-2026 08:00:00,26.987634,94.636574,CO,18,42,39
India,Assam,Sivasagar,"Girls College, Sivasagar - PCBA",06-04-2026 08:00:00,26.987634,94.636574,OZONE,8,53,12
India,Bihar,Araria,"Kharahiya Basti, Araria - BSPCB",06-04-2026 08:00:00,26.146529,87.454184,NH3,7,8,7
India,Bihar,Arrah,"New DM Office, Arrah - BSPCB",06-04-2026 08:00:00,25.5626095,84.663264,NO2,NA,NA,NA
India,Andhra_Pradesh,Eluru,"District Court, Eluru - APPCB",06-04-2026 08:00:00,16.711754,81.092095,NH3,3,7,4
India,Andhra_Pradesh,Guntur,"Rajendra Nagar North, Guntur - APPCB",06-04-2026 08:00:00,16.316553,80.413302,PM10,42,74,50
India,Andhra_Pradesh,Guntur,"Rajendra Nagar North, Guntur - APPCB",06-04-2026 08:00:00,16.316553,80.413302,OZONE,23,49,24
India,Bihar,Aurangabad,"Gurdeo Nagar, Aurangabad - BSPCB",06-04-2026 08:00:00,24.75746,84.366208,PM2.5,8,32,15
India,Bihar,Aurangabad,"Gurdeo Nagar, Aurangabad - BSPCB",06-04-2026 08:00:00,24.75746,84.366208,PM10,20,114,51
India,Bihar,Aurangabad,"Gurdeo Nagar, Aurangabad - BSPCB",06-04-2026 08:00:00,24.75746,84.366208,NO2,7,8,8
India,Bihar,Aurangabad,"Gurdeo Nagar, Aurangabad - BSPCB",06-04-2026 08:00:00,24.75746,84.366208,NH3,1,2,2
India,Andhra_Pradesh,Tirupati,"Vaikuntapuram, Tirupati - APPCB",06-04-2026 08:00:00,13.615387,79.409230,PM10,39,482,103
India,Andhra_Pradesh,Tirupati,"Vaikuntapuram, Tirupati - APPCB",06-04-2026 08:00:00,13.615387,79.409230,CO,23,36,26
India,Bihar,Begusarai,"Lohiyanagar, Begusarai - BSPCB",06-04-2026 08:00:00,25.42742023,86.13886079,PM2.5,10,68,27
India,Bihar,Bihar Sharif,"D M Colony, Bihar Sharif - BSPCB",06-04-2026 08:00:00,25.204762,85.514960,NO2,9,10,9
India,Bihar,Chhapra,"Darshan Nagar, Chhapra - BSPCB",06-04-2026 08:00:00,25.7808257,84.7446768,PM10,2,23,9
India,Bihar,Chhapra,"Darshan Nagar, Chhapra - BSPCB",06-04-2026 08:00:00,25.7808257,84.7446768,NO2,3,4,3
India,Bihar,Chhapra,"Darshan Nagar, Chhapra - BSPCB",06-04-2026 08:00:00,25.7808257,84.7446768,SO2,20,21,20
India,Bihar,Chhapra,"Darshan Nagar, Chhapra - BSPCB",06-04-2026 08:00:00,25.7808257,84.7446768,CO,8,12,10
India,Bihar,Gaya,"Collectorate, Gaya - BSPCB",06-04-2026 08:00:00,24.7955,84.9994,PM2.5,NA,NA,NA
India,Bihar,Gaya,"Kareemganj, Gaya - BSPCB",06-04-2026 08:00:00,24.792403,84.992416,NO2,8,13,12
India,Bihar,Gaya,"SFTI Kusdihra, Gaya - BSPCB",06-04-2026 08:00:00,24.762518,84.982348,PM2.5,20,61,35
India,Bihar,Gaya,"SFTI Kusdihra, Gaya - BSPCB",06-04-2026 08:00:00,24.762518,84.982348,SO2,7,8,8
India,Bihar,Bettiah,"Kamalnath Nagar, Bettiah - BSPCB",06-04-2026 08:00:00,26.80365,84.51954,CO,20,48,27
India,Bihar,Bhagalpur,"DM Office_Kachari Chowk, Bhagalpur - BSPCB",06-04-2026 08:00:00,25.251013,86.989001,PM2.5,8,47,23
India,Bihar,Kishanganj,"SDM Office_Khagra, Kishanganj - BSPCB",06-04-2026 08:00:00,26.0881305,87.93840336,PM2.5,25,78,50
India,Bihar,Kishanganj,"SDM Office_Khagra, Kishanganj - BSPCB",06-04-2026 08:00:00,26.0881305,87.93840336,NH3,3,3,3
India,Bihar,Begusarai,"Lohiyanagar, Begusarai - BSPCB",06-04-2026 08:00:00,25.42742023,86.13886079,SO2,32,35,34
India,Bihar,Begusarai,"Lohiyanagar, Begusarai - BSPCB",06-04-2026 08:00:00,25.42742023,86.13886079,OZONE,26,44,40
India,Bihar,Motihari,"Gandak Colony, Motihari - BSPCB",06-04-2026 08:00:00,26.63086,84.90051,NH3,3,3,3
India,Bihar,Motihari,"Gandak Colony, Motihari - BSPCB",06-04-2026 08:00:00,26.63086,84.90051,SO2,3,3,3
India,Bihar,Bhagalpur,"DM Office_Kachari Chowk, Bhagalpur - BSPCB",06-04-2026 08:00:00,25.251013,86.989001,SO2,4,106,56
India,Bihar,Bettiah,"Kamalnath Nagar, Bettiah - BSPCB",06-04-2026 08:00:00,26.80365,84.51954,NH3,1,1,1
India,Bihar,Bhagalpur,"Mayaganj, Bhagalpur - BSPCB",06-04-2026 08:00:00,25.265194,87.012947,SO2,NA,NA,NA
India,Bihar,Saharsa,"Police Line, Saharsa - BSPCB",06-04-2026 08:00:00,25.892357,86.590325,CO,38,44,41
India,Bihar,Samastipur,"DM Office_Kasipur, Samastipur - BSPCB",06-04-2026 08:00:00,25.859655,85.77944,NH3,1,2,1
India,Bihar,Samastipur,"DM Office_Kasipur, Samastipur - BSPCB",06-04-2026 08:00:00,25.859655,85.77944,OZONE,7,8,7
India,Bihar,Siwan,"Chitragupta Nagar, Siwan - BSPCB",06-04-2026 08:00:00,26.2271665,84.3570427,PM2.5,NA,NA,NA
India,Bihar,Siwan,"Chitragupta Nagar, Siwan - BSPCB",06-04-2026 08:00:00,26.2271665,84.3570427,NH3,1,1,1
India,Bihar,Siwan,"Chitragupta Nagar, Siwan - BSPCB",06-04-2026 08:00:00,26.2271665,84.3570427,CO,46,101,61
India,Bihar,Siwan,"Chitragupta Nagar, Siwan - BSPCB",06-04-2026 08:00:00,26.2271665,84.3570427,OZONE,11,15,13
India,Chandigarh,Chandigarh,"Sector 22, Chandigarh - CPCC",06-04-2026 08:00:00,30.735567,76.775714,PM10,6,35,23
India,Chandigarh,Chandigarh,"Sector 22, Chandigarh - CPCC",06-04-2026 08:00:00,30.735567,76.775714,SO2,4,12,8
India,Chandigarh,Chandigarh,"Sector-53, Chandigarh - CPCC",06-04-2026 08:00:00,30.719859,76.738637,NO2,16,102,51
India,Chandigarh,Chandigarh,"Sector-53, Chandigarh - CPCC",06-04-2026 08:00:00,30.719859,76.738637,SO2,6,6,6
India,Chandigarh,Chandigarh,"Sector-53, Chandigarh - CPCC",06-04-2026 08:00:00,30.719859,76.738637,CO,31,62,43
India,Chhattisgarh,Bhilai,"Civic Center, Bhilai - Bhilai Steel Plant",06-04-2026 08:00:00,21.185571,81.343175,NH3,3,3,3
India,Chhattisgarh,Bhilai,"Civic Center, Bhilai - Bhilai Steel Plant",06-04-2026 08:00:00,21.185571,81.343175,OZONE,9,12,10
India,Chhattisgarh,Bhilai,"Hathkhoj, Bhilai - CECB",06-04-2026 08:00:00,21.224231,81.408350,PM2.5,22,34,28
India,Chhattisgarh,Bhilai,"Hathkhoj, Bhilai - CECB",06-04-2026 08:00:00,21.224231,81.408350,NH3,4,6,5
India,Chhattisgarh,Bhilai,"Hathkhoj, Bhilai - CECB",06-04-2026 08:00:00,21.224231,81.408350,SO2,7,28,15
India,Chhattisgarh,Bhilai,"Hathkhoj, Bhilai - CECB",06-04-2026 08:00:00,21.224231,81.408350,CO,2,96,29
India,Chhattisgarh,Bilaspur,"Mangala, Bilaspur - NTPC",06-04-2026 08:00:00,22.08815,82.13737,PM10,42,500,151
India,Bihar,Patna,"Samanpura, Patna - BSPCB",06-04-2026 08:00:00,25.596727,85.085624,NH3,2,4,3
India,Bihar,Rajgir,"Dangi Tola, Rajgir - BSPCB",06-04-2026 08:00:00,25.03280,85.41948,NO2,13,15,14
India,Bihar,Rajgir,"Dangi Tola, Rajgir - BSPCB",06-04-2026 08:00:00,25.03280,85.41948,OZONE,24,28,26
India,Bihar,Saharsa,"Police Line, Saharsa - BSPCB",06-04-2026 08:00:00,25.892357,86.590325,PM10,34,93,65
India,Bihar,Munger,"Town Hall, Munger - BSPCB",06-04-2026 08:00:00,25.376776,86.471523,NH3,3,3,3
India,Bihar,Muzaffarpur,"Buddha Colony, Muzaffarpur - BSPCB",06-04-2026 08:00:00,26.11442,85.39813,NH3,18,26,21
India,Bihar,Muzaffarpur,"Buddha Colony, Muzaffarpur - BSPCB",06-04-2026 08:00:00,26.11442,85.39813,OZONE,36,126,48
India,Bihar,Patna,"Govt. High School Shikarpur, Patna - BSPCB",06-04-2026 08:00:00,25.592539,85.227158,NH3,4,5,5
India,Bihar,Patna,"Govt. High School Shikarpur, Patna - BSPCB",06-04-2026 08:00:00,25.592539,85.227158,SO2,4,8,6
India,Chhattisgarh,Bilaspur,"Mangala, Bilaspur - NTPC",06-04-2026 08:00:00,22.08815,82.13737,NO2,21,23,21
India,Chhattisgarh,Bilaspur,"Mangala, Bilaspur - NTPC",06-04-2026 08:00:00,22.08815,82.13737,SO2,NA,NA,NA
India,Bihar,Muzaffarpur,"MIT-Daudpur Kothi, Muzaffarpur - BSPCB",06-04-2026 08:00:00,26.1403345,85.3650192,CO,30,44,32
India,Bihar,Patna,"Rajbansi Nagar, Patna - BSPCB",06-04-2026 08:00:00,25.599486,85.113666,PM10,32,87,63
India,Chhattisgarh,Korba,"Rampur, Korba - CECB",06-04-2026 08:00:00,22.368195,82.746431,NH3,1,1,1
India,Delhi,Delhi,"Anand Vihar, Delhi - DPCC",06-04-2026 08:00:00,28.647622,77.3158090,OZONE,4,74,12
India,Delhi,Delhi,"Ashok Vihar, Delhi - DPCC",06-04-2026 08:00:00,28.695381,77.181665,NO2,9,77,39
India,Delhi,Delhi,"Ashok Vihar, Delhi - DPCC",06-04-2026 08:00:00,28.695381,77.181665,CO,7,49,22
India,Delhi,Delhi,"Bawana, Delhi - DPCC",06-04-2026 08:00:00,28.776200,77.051074,NO2,5,48,19
India,Delhi,Delhi,"Burari Crossing, Delhi - IMD",06-04-2026 08:00:00,28.7256504,77.2011573,PM10,49,162,101
India,Delhi,Delhi,"CRRI Mathura Road, Delhi - IMD",06-04-2026 08:00:00,28.5512005,77.2735737,PM2.5,14,151,79
India,Delhi,Delhi,"CRRI Mathura Road, Delhi - IMD",06-04-2026 08:00:00,28.5512005,77.2735737,OZONE,20,74,22
India,Delhi,Delhi,"Chandni Chowk, Delhi - IITM",06-04-2026 08:00:00,28.656756,77.227234,PM2.5,51,128,86
India,Chhattisgarh,Raipur,"Bhatagaon New ISBT, Raipur - CECB",06-04-2026 08:00:00,21.219665,81.630094,OZONE,2,12,3
India,Chhattisgarh,Raipur,"Krishak Nagar, Raipur - CECB",06-04-2026 08:00:00,21.237755,81.705301,CO,14,21,15
India,Chhattisgarh,Raipur,"Siltara Phase-II, Raipur - CECB",06-04-2026 08:00:00,21.371751,81.664929,PM10,24,89,52
India,Chhattisgarh,Raipur,"Siltara Phase-II, Raipur - CECB",06-04-2026 08:00:00,21.371751,81.664929,NO2,13,20,17
India,Delhi,Delhi,"Anand Vihar, Delhi - DPCC",06-04-2026 08:00:00,28.647622,77.3158090,NO2,10,37,21
India,Delhi,Delhi,"Anand Vihar, Delhi - DPCC",06-04-2026 08:00:00,28.647622,77.3158090,NH3,2,4,3
India,Delhi,Delhi,"Anand Vihar, Delhi - DPCC",06-04-2026 08:00:00,28.647622,77.3158090,SO2,23,32,28
India,Delhi,Delhi,"IGI Airport (T3), Delhi - IMD",06-04-2026 08:00:00,28.5627763,77.1180053,CO,16,53,39
India,Delhi,Delhi,"IHBAS, Dilshad Garden, Delhi - CPCB",06-04-2026 08:00:00,28.6811736,77.3025234,NO2,35,94,54
India,Delhi,Delhi,"ITO, Delhi - CPCB",06-04-2026 08:00:00,28.628624,77.241060,PM2.5,30,211,87
India,Delhi,Delhi,"ITO, Delhi - CPCB",06-04-2026 08:00:00,28.628624,77.241060,CO,26,104,64
India,Delhi,Delhi,"JNU, Delhi - DPCC",06-04-2026 08:00:00,28.540721 ,77.168544 ,PM2.5,22,136,67
India,Delhi,Delhi,"JNU, Delhi - DPCC",06-04-2026 08:00:00,28.540721 ,77.168544 ,PM10,50,122,90
India,Delhi,Delhi,"Chandni Chowk, Delhi - IITM",06-04-2026 08:00:00,28.656756,77.227234,NH3,7,24,10
India,Delhi,Delhi,"Commonwealth Sports Complex, Delhi - DPCC",06-04-2026 08:00:00,28.615828 ,77.271992 ,PM2.5,23,192,90
India,Chhattisgarh,Kunjemura,"OP Jindal School, Kunjemura - CECB",06-04-2026 08:00:00,22.126650,83.483212,NO2,13,107,31
India,Chhattisgarh,Kunjemura,"OP Jindal School, Kunjemura - CECB",06-04-2026 08:00:00,22.126650,83.483212,SO2,5,22,16
India,Delhi,Delhi,"Jawaharlal Nehru Stadium, Delhi - DPCC",06-04-2026 08:00:00,28.580280,77.233829,NO2,24,120,65
India,Chhattisgarh,Korba,"Urja Nagar, Korba - CECB",06-04-2026 08:00:00,22.348441,82.549611,PM2.5,1,6,3
India,Chhattisgarh,Korba,"Rampur, Korba - CECB",06-04-2026 08:00:00,22.368195,82.746431,SO2,12,96,48
India,Delhi,Delhi,"DTU, Delhi - CPCB",06-04-2026 08:00:00,28.7500499,77.1112615,NO2,24,59,46
India,Delhi,Delhi,"Punjabi Bagh, Delhi - DPCC",06-04-2026 08:00:00,28.674045,77.131023,PM10,57,167,109
India,Delhi,Delhi,"Punjabi Bagh, Delhi - DPCC",06-04-2026 08:00:00,28.674045,77.131023,NO2,13,52,32
India,Delhi,Delhi,"Punjabi Bagh, Delhi - DPCC",06-04-2026 08:00:00,28.674045,77.131023,OZONE,7,85,17
India,Delhi,Delhi,"Pusa, Delhi - DPCC",06-04-2026 08:00:00,28.639652,77.146275,OZONE,3,114,18
India,Delhi,Delhi,"Pusa, Delhi - IMD",06-04-2026 08:00:00,28.636110,77.173332,CO,18,76,37
India,Delhi,Delhi,"R K Puram, Delhi - DPCC",06-04-2026 08:00:00,28.563262,77.186937,NO2,10,104,54
India,Delhi,Delhi,"Rohini, Delhi - DPCC",06-04-2026 08:00:00,28.732528,77.119920,NO2,9,55,25
India,Delhi,Delhi,"Shadipur, Delhi - CPCB",06-04-2026 08:00:00,28.6514781,77.1473105,PM2.5,89,175,124
India,Delhi,Delhi,"Shadipur, Delhi - CPCB",06-04-2026 08:00:00,28.6514781,77.1473105,NO2,33,91,48
India,Delhi,Delhi,"Mandir Marg, Delhi - DPCC",06-04-2026 08:00:00,28.636429,77.201067,SO2,18,46,31
India,Delhi,Delhi,"Mandir Marg, Delhi - DPCC",06-04-2026 08:00:00,28.636429,77.201067,OZONE,6,135,23
India,Delhi,Delhi,"Mundka, Delhi - DPCC",06-04-2026 08:00:00,28.684678,77.076574,NO2,20,53,42
India,Delhi,Delhi,"NSUT Jaffarpur, Delhi - DPCC",06-04-2026 08:00:00,28.594004 ,76.909423 ,SO2,72,80,75
India,Delhi,Delhi,"North Campus, DU, Delhi - IMD",06-04-2026 08:00:00,28.6573814,77.1585447,NO2,3,110,31
India,Delhi,Delhi,"North Campus, DU, Delhi - IMD",06-04-2026 08:00:00,28.6573814,77.1585447,OZONE,NA,NA,NA
India,Delhi,Delhi,"Okhla Phase-2, Delhi - DPCC",06-04-2026 08:00:00,28.530785,77.271255,PM2.5,32,170,84
India,Delhi,Delhi,"Lodhi Road, Delhi - IMD",06-04-2026 08:00:00,28.5918245,77.2273074,NO2,11,44,25
India,Delhi,Delhi,"New Moti Bagh, Delhi - MHUA",06-04-2026 08:00:00,28.57834,77.18400,CO,15,70,32
India,Delhi,Delhi,"Najafgarh, Delhi - DPCC",06-04-2026 08:00:00,28.570173,76.933762,CO,14,108,47
India,Delhi,Delhi,"Nehru Nagar, Delhi - DPCC",06-04-2026 08:00:00,28.567890,77.250515,NH3,3,14,8
India,Delhi,Delhi,"Narela, Delhi - DPCC",06-04-2026 08:00:00,28.822836,77.101981,PM10,56,161,120
India,Delhi,Delhi,"Narela, Delhi - DPCC",06-04-2026 08:00:00,28.822836,77.101981,OZONE,3,72,17
India,Delhi,Delhi,"Sri Aurobindo Marg, Delhi - DPCC",06-04-2026 08:00:00,28.531346,77.190156,OZONE,2,124,6
India,Delhi,Delhi,"Talkatora Garden, Delhi - DPCC",06-04-2026 08:00:00,28.621810,77.1944633,PM2.5,29,195,102
India,Delhi,Delhi,"Talkatora Garden, Delhi - DPCC",06-04-2026 08:00:00,28.621810,77.1944633,NH3,3,7,5
India,Gujarat,Ahmedabad,"Gyaspur, Ahmedabad - IITM",06-04-2026 08:00:00,22.977134,72.553024,PM10,61,274,127
India,Gujarat,Ahmedabad,"Gyaspur, Ahmedabad - IITM",06-04-2026 08:00:00,22.977134,72.553024,CO,34,84,47
India,Gujarat,Ahmedabad,"Maninagar, Ahmedabad - GPCB",06-04-2026 08:00:00,23.002657,72.591912,PM2.5,21,177,67
India,Delhi,Delhi,"Sonia Vihar, Delhi - DPCC",06-04-2026 08:00:00,28.710508,77.249485,NH3,6,9,7
India,Delhi,Delhi,"Sonia Vihar, Delhi - DPCC",06-04-2026 08:00:00,28.710508,77.249485,SO2,20,50,30
India,Gujarat,Ahmedabad,"SAC ISRO Satellite, Ahmedabad - IITM",06-04-2026 08:00:00,23.023389,72.515201,PM10,11,54,31
India,Delhi,Delhi,"Sri Aurobindo Marg, Delhi - DPCC",06-04-2026 08:00:00,28.531346,77.190156,PM2.5,30,113,65
India,Gujarat,Ahmedabad,"Rakhial, Ahmedabad - IITM",06-04-2026 08:00:00,23.016834,72.625775,PM2.5,16,73,44
India,Delhi,Delhi,"Talkatora Garden, Delhi - DPCC",06-04-2026 08:00:00,28.621810,77.1944633,SO2,24,39,31
India,Gujarat,Ahmedabad,"Rakhial, Ahmedabad - IITM",06-04-2026 08:00:00,23.016834,72.625775,CO,14,98,36
India,Delhi,Delhi,"Shadipur, Delhi - CPCB",06-04-2026 08:00:00,28.6514781,77.1473105,OZONE,6,44,13
India,Gujarat,Nandesari,"GIDC, Nandesari - Nandesari Ind. Association",06-04-2026 08:00:00,22.410802,73.097923,PM2.5,43,325,98
India,Gujarat,Nandesari,"GIDC, Nandesari - Nandesari Ind. Association",06-04-2026 08:00:00,22.410802,73.097923,SO2,3,110,18
India,Gujarat,Rajkot,"Mavdi, Rajkot - Nexteng Enviro ",06-04-2026 08:00:00,22.248853,70.776774,NO2,5,25,11
India,Gujarat,Rajkot,"Mavdi, Rajkot - Nexteng Enviro ",06-04-2026 08:00:00,22.248853,70.776774,CO,84,100,90
India,Gujarat,Ankleshwar,"GIDC, Ankleshwar - GPCB",06-04-2026 08:00:00,21.613267,73.010555,SO2,26,27,26
India,Gujarat,Bhavnagar,"Vidhyanagar, Bhavnagar - Nexteng Enviro",06-04-2026 08:00:00,21.755417,72.139056,PM10,42,114,63
India,Gujarat,Gandhinagar,"GIFT City, Gandhinagar - IITM",06-04-2026 08:00:00,23.163798,72.677768,SO2,10,35,17
India,Gujarat,Rajkot,"Mavdi, Rajkot - Nexteng Enviro ",06-04-2026 08:00:00,22.248853,70.776774,OZONE,6,17,9
India,Gujarat,Surat,"Katargam, Surat - Nexteng Enviro",06-04-2026 08:00:00,21.217779 ,72.834787 ,PM2.5,9,100,53
India,Gujarat,Ahmedabad,"SAC ISRO Satellite, Ahmedabad - IITM",06-04-2026 08:00:00,23.023389,72.515201,NH3,1,8,3
India,Gujarat,Ahmedabad,"SVPI Airport Hansol, Ahmedabad - IITM",06-04-2026 08:00:00,23.076793,72.627874,PM2.5,35,73,50
India,Gujarat,Surat,"Katargam, Surat - Nexteng Enviro",06-04-2026 08:00:00,21.217779 ,72.834787 ,SO2,5,12,8
India,Gujarat,Surat,"Science Center, Surat - SMC",06-04-2026 08:00:00,21.170046,72.795405,PM2.5,22,74,46
India,Gujarat,Surat,"Science Center, Surat - SMC",06-04-2026 08:00:00,21.170046,72.795405,CO,30,44,32
India,Gujarat,Vadodara,"Bapunagar, Vadodara - Nexteng Enviro",06-04-2026 08:00:00,22.320153,73.216285,PM2.5,50,161,78
India,Gujarat,Gandhinagar,"IIPHG Lekawada, Gandhinagar - IITM",06-04-2026 08:00:00,23.243639,72.68994,CO,17,58,49
India,Gujarat,Gandhinagar,"IIPHG Lekawada, Gandhinagar - IITM",06-04-2026 08:00:00,23.243639,72.68994,OZONE,3,25,7
India,Haryana,Bahadurgarh,"Arya Nagar, Bahadurgarh - HSPCB",06-04-2026 08:00:00,28.6701,76.9254,PM2.5,51,72,59
India,Haryana,Bahadurgarh,"Arya Nagar, Bahadurgarh - HSPCB",06-04-2026 08:00:00,28.6701,76.9254,PM10,59,74,65
India,Gujarat,Vatva,"Phase-4 GIDC, Vatva - GPCB",06-04-2026 08:00:00,22.969611,72.643500,SO2,48,68,57
India,Haryana,Yamuna Nagar,"Gobind Pura, Yamuna Nagar - HSPCB",06-04-2026 08:00:00,30.1480566,77.2893471,NO2,11,20,17
India,Haryana,Yamuna Nagar,"Gobind Pura, Yamuna Nagar - HSPCB",06-04-2026 08:00:00,30.1480566,77.2893471,SO2,9,15,11
India,Haryana,Yamuna Nagar,"Gobind Pura, Yamuna Nagar - HSPCB",06-04-2026 08:00:00,30.1480566,77.2893471,CO,24,52,37
India,Himachal Pradesh,Baddi,"HIMUDA Complex Phase-1, Baddi - HPPCB",06-04-2026 08:00:00,30.943887,76.801991,PM10,16,177,68
India,Jammu_and_Kashmir,Pampore,"Khrew, Pampore - JKPCC",06-04-2026 08:00:00,34.031606,75.009712,PM10,7,96,40
India,Jammu_and_Kashmir,Pampore,"Khrew, Pampore - JKPCC",06-04-2026 08:00:00,34.031606,75.009712,SO2,2,4,3
India,Jammu_and_Kashmir,Srinagar,"Khunmoh, Srinagar - JKPCC",06-04-2026 08:00:00,34.06313,74.96017,PM10,12,29,20
India,Jharkhand,Dhanbad,"Sardar Patel Nagar, Dhanbad - JSPCB",06-04-2026 08:00:00,23.80569,86.44268,PM2.5,6,331,72
India,Jharkhand,Dhanbad,"Sardar Patel Nagar, Dhanbad - JSPCB",06-04-2026 08:00:00,23.80569,86.44268,NO2,92,111,98
India,Jharkhand,Jorapokhar,"Tata Stadium, Jorapokhar - JSPCB",06-04-2026 08:00:00,23.707909,86.414670,NO2,8,8,8
India,Haryana,Narnaul,"Shastri Nagar, Narnaul - HSPCB",06-04-2026 08:00:00,28.060249,76.113115,NO2,23,28,25
India,Haryana,Palwal,"Shyam Nagar, Palwal - HSPCB",06-04-2026 08:00:00,28.1485564,77.3320667,PM2.5,41,68,56
India,Haryana,Panchgaon,"Amity University, Panchgaon - IITM",06-04-2026 08:00:00,28.3153,76.9143,PM10,31,119,62
India,Haryana,Panchgaon,"Amity University, Panchgaon - IITM",06-04-2026 08:00:00,28.3153,76.9143,NO2,7,37,14
India,Haryana,Panchgaon,"Amity University, Panchgaon - IITM",06-04-2026 08:00:00,28.3153,76.9143,NH3,2,5,3
India,Haryana,Panchgaon,"Amity University, Panchgaon - IITM",06-04-2026 08:00:00,28.3153,76.9143,OZONE,1,75,9
India,Haryana,Rohtak,"MD University, Rohtak - HSPCB",06-04-2026 08:00:00,28.52123,76.37138,NO2,10,13,11
India,Haryana,Rohtak,"MD University, Rohtak - HSPCB",06-04-2026 08:00:00,28.52123,76.37138,SO2,10,13,12
India,Haryana,Sirsa,"F-Block, Sirsa - HSPCB",06-04-2026 08:00:00,29.536400,75.015800,NO2,18,20,19
India,Haryana,Ballabgarh,"Nathu Colony, Ballabgarh - HSPCB",06-04-2026 08:00:00,28.3419248,77.319699,PM2.5,181,208,198
India,Haryana,Charkhi Dadri,"Mini Secretariat, Charkhi Dadri - HSPCB",06-04-2026 08:00:00,28.593883,76.270653,NO2,9,23,15
India,Haryana,Charkhi Dadri,"Mini Secretariat, Charkhi Dadri - HSPCB",06-04-2026 08:00:00,28.593883,76.270653,NH3,5,8,6
India,Haryana,Dharuhera,"Municipal Corporation Office, Dharuhera -  HSPCB",06-04-2026 08:00:00,28.206800,76.799700,PM10,44,117,79
India,Haryana,Dharuhera,"Municipal Corporation Office, Dharuhera -  HSPCB",06-04-2026 08:00:00,28.206800,76.799700,NH3,9,27,19
India,Haryana,Kaithal,"Rishi Nagar, Kaithal - HSPCB",06-04-2026 08:00:00,29.8006,76.4155,PM10,22,55,38
India,Haryana,Kaithal,"Rishi Nagar, Kaithal - HSPCB",06-04-2026 08:00:00,29.8006,76.4155,NO2,30,34,32
India,Haryana,Karnal,"Sector-12, Karnal - HSPCB",06-04-2026 08:00:00,29.695300,77.002700,PM10,32,117,65
India,Haryana,Karnal,"Sector-12, Karnal - HSPCB",06-04-2026 08:00:00,29.695300,77.002700,OZONE,12,62,19
India,Haryana,Kurukshetra,"Sector-7, Kurukshetra - HSPCB",06-04-2026 08:00:00,29.966942,76.875879,PM2.5,35,78,53
India,Haryana,Fatehabad,"Huda Sector, Fatehabad - HSPCB",06-04-2026 08:00:00,29.503664,75.467934,NO2,18,20,19
India,Haryana,Gurugram,"NISE Gwal Pahari, Gurugram - IMD",06-04-2026 08:00:00,28.422681,77.148944,OZONE,11,76,14
India,Haryana,Gurugram,"Sector-51, Gurugram - HSPCB",06-04-2026 08:00:00,28.4227,77.0667,NH3,6,10,8
India,Haryana,Gurugram,"Teri Gram, Gurugram - HSPCB",06-04-2026 08:00:00,28.4275,77.1465,NO2,37,76,56
India,Haryana,Hisar,"Urban Estate-II, Hisar - HSPCB",06-04-2026 08:00:00,29.140560,75.744941,PM2.5,12,54,32
India,Haryana,Hisar,"Urban Estate-II, Hisar - HSPCB",06-04-2026 08:00:00,29.140560,75.744941,PM10,58,103,77
India,Haryana,Hisar,"Urban Estate-II, Hisar - HSPCB",06-04-2026 08:00:00,29.140560,75.744941,CO,14,41,32
India,Haryana,Jind,"Police Lines, Jind - HSPCB",06-04-2026 08:00:00,29.307814,76.337619,CO,2,32,18
India,Haryana,Faridabad,"Sector 11, Faridabad - HSPCB",06-04-2026 08:00:00,28.376058,77.315741,NO2,30,32,31
India,Haryana,Faridabad,"Sector 30, Faridabad - HSPCB",06-04-2026 08:00:00,28.4417,77.3217,NO2,37,39,38
India,Haryana,Faridabad,"Sector 30, Faridabad - HSPCB",06-04-2026 08:00:00,28.4417,77.3217,SO2,6,6,6
India,Haryana,Faridabad,"Sector 30, Faridabad - HSPCB",06-04-2026 08:00:00,28.4417,77.3217,OZONE,10,10,10
India,Haryana,Sonipat,"Murthal, Sonipat - HSPCB",06-04-2026 08:00:00,29.027200,77.062100,OZONE,25,26,26
India,Haryana,Yamuna Nagar,"Gobind Pura, Yamuna Nagar - HSPCB",06-04-2026 08:00:00,30.1480566,77.2893471,PM2.5,72,138,93
India,Haryana,Manesar,"Sector-2 IMT, Manesar - HSPCB",06-04-2026 08:00:00,28.360699,76.936090,SO2,5,16,8
India,Haryana,Manesar,"Sector-2 IMT, Manesar - HSPCB",06-04-2026 08:00:00,28.360699,76.936090,CO,2,21,15
India,Karnataka,Kalaburagi,"Mahatma Basaveswar Colony, Kalaburgi - KSPCB",06-04-2026 08:00:00,17.336318,76.847397,NO2,12,17,14
India,Karnataka,Kalaburagi,"Mahatma Basaveswar Colony, Kalaburgi - KSPCB",06-04-2026 08:00:00,17.336318,76.847397,OZONE,10,20,13
India,Karnataka,Madikeri,"Stuart Hill, Madikeri - KSPCB",06-04-2026 08:00:00,12.415911,75.735050,CO,10,26,14
India,Karnataka,Mangalore,"Kadri, Mangalore - KSPCB",06-04-2026 08:00:00,12.889250,74.853000,NH3,2,5,2
India,Karnataka,Mysuru,"Hebbal 1st Stage, Mysuru - KSPCB",06-04-2026 08:00:00,12.21041,76.37376,NO2,16,19,18
India,Karnataka,Mysuru,"Hebbal 1st Stage, Mysuru - KSPCB",06-04-2026 08:00:00,12.21041,76.37376,SO2,3,4,3
India,Karnataka,Ramanagara,"Vijay Nagar, Ramanagara - KSPCB",06-04-2026 08:00:00,12.733409,77.298051,PM10,41,88,56
India,Karnataka,Bengaluru,"Silk Board, Bengaluru - KSPCB",06-04-2026 08:00:00,12.917348,77.622813,PM10,74,188,113
India,Karnataka,Chamarajanagar,"Urban, Chamarajanagar - KSPCB",06-04-2026 08:00:00,11.55358,76.55521,NO2,14,30,22
India,Karnataka,Chamarajanagar,"Urban, Chamarajanagar - KSPCB",06-04-2026 08:00:00,11.55358,76.55521,CO,12,23,16
India,Karnataka,Chikkaballapur,"Chikkaballapur Rural, Chikkaballapur - KSPCB",06-04-2026 08:00:00,13.428828,77.731418,NO2,4,33,12
India,Karnataka,Chikkamagaluru,"Kalyana Nagara, Chikkamagaluru - KSPCB",06-04-2026 08:00:00,13.328028,75.797056,PM10,50,50,50
India,Karnataka,Chikkamagaluru,"Kalyana Nagara, Chikkamagaluru - KSPCB",06-04-2026 08:00:00,13.328028,75.797056,NH3,2,2,2
India,Karnataka,Bengaluru,"City Railway Station, Bengaluru - KSPCB",06-04-2026 08:00:00,12.9756843,77.5660749,CO,55,66,60
India,Karnataka,Bengaluru,"Hebbal, Bengaluru - KSPCB",06-04-2026 08:00:00,13.029152,77.585901,PM2.5,30,320,75
India,Karnataka,Bengaluru,"Hebbal, Bengaluru - KSPCB",06-04-2026 08:00:00,13.029152,77.585901,NO2,17,109,37
India,Karnataka,Bengaluru,"Hombegowda Nagar, Bengaluru - KSPCB",06-04-2026 08:00:00,12.938539,77.590100,SO2,5,12,8
India,Karnataka,Bengaluru,"Jayanagar 5th Block, Bengaluru - KSPCB",06-04-2026 08:00:00,12.920984,77.584908,PM10,58,156,89
India,Karnataka,Bengaluru,"Jayanagar 5th Block, Bengaluru - KSPCB",06-04-2026 08:00:00,12.920984,77.584908,NH3,NA,NA,NA
India,Karnataka,Bengaluru,"BWSSB Kadabesanahalli, Bengaluru - CPCB",06-04-2026 08:00:00,12.9352049,77.6814488,NH3,1,1,1
India,Karnataka,Bengaluru,"BWSSB Kadabesanahalli, Bengaluru - CPCB",06-04-2026 08:00:00,12.9352049,77.6814488,SO2,3,7,5
India,Karnataka,Bengaluru,"BWSSB Kadabesanahalli, Bengaluru - CPCB",06-04-2026 08:00:00,12.9352049,77.6814488,CO,34,38,34
India,Karnataka,Bengaluru,"BWSSB Kadabesanahalli, Bengaluru - CPCB",06-04-2026 08:00:00,12.9352049,77.6814488,OZONE,10,42,19
India,Karnataka,Bengaluru,"Bapuji Nagar, Bengaluru - KSPCB",06-04-2026 08:00:00,12.951913,77.539784,PM10,64,158,102
India,Jharkhand,Jorapokhar,"Tata Stadium, Jorapokhar - JSPCB",06-04-2026 08:00:00,23.707909,86.414670,CO,38,40,39
India,Jharkhand,Jorapokhar,"Tata Stadium, Jorapokhar - JSPCB",06-04-2026 08:00:00,23.707909,86.414670,OZONE,2,2,2
India,Karnataka,Bagalkot,"Vidayagiri, Bagalkot - KSPCB",06-04-2026 08:00:00,16.172806,75.659694,CO,4,44,23
India,Karnataka,Bengaluru,"Jigani, Bengaluru - KSPCB",06-04-2026 08:00:00,12.7816279,77.6299145,OZONE,29,30,29
India,Karnataka,Bengaluru,"Kasturi Nagar, Bengaluru - KSPCB",06-04-2026 08:00:00,13.003872,77.664217,PM10,79,80,80
India,Karnataka,Bengaluru,"Kasturi Nagar, Bengaluru - KSPCB",06-04-2026 08:00:00,13.003872,77.664217,CO,41,51,48
India,Karnataka,Bengaluru,"BWSSB Kadabesanahalli, Bengaluru - CPCB",06-04-2026 08:00:00,12.9352049,77.6814488,PM10,14,98,49
India,Karnataka,Bengaluru,"RVCE-Mailasandra, Bengaluru - KSPCB",06-04-2026 08:00:00,12.921418,77.502466,SO2,5,6,6
India,Karnataka,Hubballi,"Lingaraj Nagar, Hubballi - KSPCB",06-04-2026 08:00:00,15.3714823,75.1160168,SO2,1,2,2
India,Karnataka,Shivamogga,"Vinoba Nagara, Shivamogga - KSPCB",06-04-2026 08:00:00,13.940000,75.555917,NO2,23,24,24
India,Karnataka,Yadgir,"Collector Office, Yadgir - KSPCB",06-04-2026 08:00:00,16.7602,77.1428,CO,10,26,15
India,Kerala,Kannur,"Thavakkara, Kannur - Kerala PCB",06-04-2026 08:00:00,11.875000,75.373200,NO2,NA,NA,NA
India,Kerala,Kannur,"Thavakkara, Kannur - Kerala PCB",06-04-2026 08:00:00,11.875000,75.373200,OZONE,NA,NA,NA
India,Kerala,Kollam,"Polayathode, Kollam - Kerala PCB",06-04-2026 08:00:00,8.8787,76.6073,PM10,69,83,75
India,Kerala,Thiruvananthapuram,"Plammoodu, Thiruvananthapuram - Kerala PCB",06-04-2026 08:00:00,8.5149093,76.9435879,OZONE,8,21,19
India,Kerala,Thiruvananthapuram,"Plammoodu, Thiruvananthapuram - Kerala PCB",06-04-2026 08:00:00,8.5149093,76.9435879,NO2,NA,NA,NA
India,Madhya Pradesh,Gwalior,"Deen Dayal Nagar, Gwalior - MPPCB",06-04-2026 08:00:00,26.259242,78.216432,PM10,34,99,54
India,Madhya Pradesh,Bhopal,"Paryavaran Parisar, Bhopal - MPPCB",06-04-2026 08:00:00,23.210494,77.425409,NO2,18,52,29
India,Kerala,Thrissur,"Corporation Ground, Thrissur - Kerala PCB",06-04-2026 08:00:00,10.532400,76.215900,CO,10,13,11
India,Madhya Pradesh,Gwalior,"City Center, Gwalior - MPPCB",06-04-2026 08:00:00,26.203442,78.193251,SO2,16,46,24
India,Madhya Pradesh,Bhopal,"Idgah Hills, Bhopal - MPPCB",06-04-2026 08:00:00,23.264759,77.381568,NH3,4,6,5
India,Kerala,Kollam,"Polayathode, Kollam - Kerala PCB",06-04-2026 08:00:00,8.8787,76.6073,SO2,2,3,2
India,Madhya Pradesh,Katni,"Gole Bazar, Katni - MPPCB",06-04-2026 08:00:00,23.50016,80.23284,PM2.5,18,92,43
India,Madhya Pradesh,Katni,"Gole Bazar, Katni - MPPCB",06-04-2026 08:00:00,23.50016,80.23284,SO2,18,101,48
India,Madhya Pradesh,Mandideep,"Sector-D Industrial Area, Mandideep - MPPCB",06-04-2026 08:00:00,23.108440,77.511428,PM2.5,39,235,89
India,Madhya Pradesh,Mandideep,"Sector-D Industrial Area, Mandideep - MPPCB",06-04-2026 08:00:00,23.108440,77.511428,NH3,8,10,9
India,Madhya Pradesh,Mandideep,"Sector-D Industrial Area, Mandideep - MPPCB",06-04-2026 08:00:00,23.108440,77.511428,CO,19,76,41
India,Madhya Pradesh,Ratlam,"Shasthri Nagar, Ratlam - IPCA Lab",06-04-2026 08:00:00,23.331731,75.045981,PM2.5,7,61,31
India,Madhya Pradesh,Satna,"Bandhavgar Colony, Satna - Birla Cement",06-04-2026 08:00:00,24.58434363,80.8549414,PM2.5,48,52,50
India,Madhya Pradesh,Jabalpur,"Gupteshwar, Jabalpur - JMC",06-04-2026 08:00:00,23.142888,79.916147,PM10,50,129,85
India,Madhya Pradesh,Jabalpur,"Gupteshwar, Jabalpur - JMC",06-04-2026 08:00:00,23.142888,79.916147,SO2,10,17,13
India,Madhya Pradesh,Jabalpur,"Gupteshwar, Jabalpur - JMC",06-04-2026 08:00:00,23.142888,79.916147,OZONE,8,40,12
India,Madhya Pradesh,Jabalpur,"Marhatal, Jabalpur - MPPCB",06-04-2026 08:00:00,23.168606,79.932247,PM10,48,196,112
India,Madhya Pradesh,Jabalpur,"Suhagi, Jabalpur - JMC",06-04-2026 08:00:00,23.218135,79.957770,NO2,30,69,42
India,Madhya Pradesh,Indore,"Chhoti Gwaltoli, Indore - MPPCB",06-04-2026 08:00:00,22.4310,75.5213,SO2,6,34,14
India,Madhya Pradesh,Indore,"Chhoti Gwaltoli, Indore - MPPCB",06-04-2026 08:00:00,22.4310,75.5213,CO,20,90,43
India,Madhya Pradesh,Indore,"Chhoti Gwaltoli, Indore - MPPCB",06-04-2026 08:00:00,22.4310,75.5213,OZONE,6,51,31
