country,state,city,station,last_update,latitude,longitude,pollutant_id,min_value,max_value,avg_value
India,Andhra_Pradesh,Chittoor,"Gangineni Cheruvu, Chittoor - APPCB",11-10-2025 07:00:00,13.204880,79.097889,OZONE,51,114,114
India,Andhra_Pradesh,Kadapa,"Yerramukkapalli, Kadapa - APPCB",11-10-2025 07:00:00,14.465052,78.824187,NO2,NA,NA,NA
India,Andhra_Pradesh,Kadapa,"Yerramukkapalli, Kadapa - APPCB",11-10-2025 07:00:00,14.465052,78.824187,CO,21,36,22
India,Andhra_Pradesh,Rajamahendravaram,"Anand Kala Kshetram, Rajamahendravaram - APPCB",11-10-2025 07:00:00,16.9872867,81.7363176,SO2,4,13,7
India,Andhra_Pradesh,Tirumala,"Toll Gate, Tirumala - APPCB",11-10-2025 07:00:00,13.67,79.35,PM2.5,47,113,75
India,Andhra_Pradesh,Tirumala,"Toll Gate, Tirumala - APPCB",11-10-2025 07:00:00,13.67,79.35,PM10,41,85,62
India,Andhra_Pradesh,Tirumala,"Toll Gate, Tirumala - APPCB",11-10-2025 07:00:00,13.67,79.35,NO2,11,20,16
India,Andhra_Pradesh,Tirumala,"Toll Gate, Tirumala - APPCB",11-10-2025 07:00:00,13.67,79.35,CO,23,42,29
India,Andhra_Pradesh,Tirupati,"Vaikuntapuram, Tirupati - APPCB",11-10-2025 07:00:00,13.615387,79.409230,PM2.5,52,202,109
India,Andhra_Pradesh,Tirupati,"Vaikuntapuram, Tirupati - APPCB",11-10-2025 07:00:00,13.615387,79.409230,NO2,6,7,7
India,Andhra_Pradesh,Tirupati,"Vaikuntapuram, Tirupati - APPCB",11-10-2025 07:00:00,13.615387,79.409230,OZONE,32,35,34
India,Assam,Byrnihat,"Central Academy for SFS, Byrnihat - PCBA",11-10-2025 07:00:00,26.071318,91.87488,PM2.5,NA,NA,NA
India,Assam,Byrnihat,"Central Academy for SFS, Byrnihat - PCBA",11-10-2025 07:00:00,26.071318,91.87488,SO2,NA,NA,NA
India,Assam,Byrnihat,"Central Academy for SFS, Byrnihat - PCBA",11-10-2025 07:00:00,26.071318,91.87488,CO,NA,NA,NA
India,Assam,Guwahati,"IITG, Guwahati - PCBA",11-10-2025 07:00:00,26.2028636,91.70046436,PM2.5,NA,NA,NA
India,Assam,Guwahati,"IITG, Guwahati - PCBA",11-10-2025 07:00:00,26.2028636,91.70046436,NO2,1,5,2
India,Assam,Guwahati,"IITG, Guwahati - PCBA",11-10-2025 07:00:00,26.2028636,91.70046436,OZONE,1,20,3
India,Assam,Guwahati,"LGBI Airport, Guwahati - PCBA",11-10-2025 07:00:00,26.10887,91.589544,SO2,8,18,14
India,Assam,Guwahati,"Pan Bazaar, Guwahati - PCBA",11-10-2025 07:00:00,26.187500,91.744194,PM10,13,55,32
India,Assam,Guwahati,"Railway Colony, Guwahati - PCBA",11-10-2025 07:00:00,26.181742,91.78063,PM2.5,28,133,68
India,Assam,Guwahati,"Railway Colony, Guwahati - PCBA",11-10-2025 07:00:00,26.181742,91.78063,NO2,3,3,3
India,Assam,Nagaon,"Christianpatty, Nagaon - PCBA",11-10-2025 07:00:00,26.349082,92.68449,PM10,46,50,48
India,Assam,Nagaon,"Christianpatty, Nagaon - PCBA",11-10-2025 07:00:00,26.349082,92.68449,NO2,1,1,1
India,Bihar,Bhagalpur,"Mayaganj, Bhagalpur - BSPCB",11-10-2025 07:00:00,25.265194,87.012947,PM10,67,106,86
India,Bihar,Bhagalpur,"Mayaganj, Bhagalpur - BSPCB",11-10-2025 07:00:00,25.265194,87.012947,NH3,6,10,8
India,Bihar,Buxar,"Charitra Van, Buxar - BSPCB",11-10-2025 07:00:00,25.567520,83.966379,PM2.5,60,64,63
India,Bihar,Buxar,"Charitra Van, Buxar - BSPCB",11-10-2025 07:00:00,25.567520,83.966379,NH3,3,3,3
India,Bihar,Buxar,"Charitra Van, Buxar - BSPCB",11-10-2025 07:00:00,25.567520,83.966379,SO2,2,6,4
India,Bihar,Buxar,"Charitra Van, Buxar - BSPCB",11-10-2025 07:00:00,25.567520,83.966379,CO,20,28,25
India,Bihar,Gaya,"Collectorate, Gaya - BSPCB",11-10-2025 07:00:00,24.7955,84.9994,NO2,7,9,9
India,Bihar,Gaya,"Collectorate, Gaya - BSPCB",11-10-2025 07:00:00,24.7955,84.9994,SO2,8,12,11
India,Bihar,Gaya,"Kareemganj, Gaya - BSPCB",11-10-2025 07:00:00,24.792403,84.992416,NO2,3,6,5
India,Bihar,Gaya,"Kareemganj, Gaya - BSPCB",11-10-2025 07:00:00,24.792403,84.992416,CO,38,40,39
India,Bihar,Gaya,"SFTI Kusdihra, Gaya - BSPCB",11-10-2025 07:00:00,24.762518,84.982348,NO2,16,20,18
India,Bihar,Gaya,"SFTI Kusdihra, Gaya - BSPCB",11-10-2025 07:00:00,24.762518,84.982348,CO,13,26,23
India,Bihar,Hajipur,"Industrial Area, Hajipur - BSPCB",11-10-2025 07:00:00,25.697189,85.245900,CO,41,50,46
India,Bihar,Manguraha,"Forest Rest House, Manguraha - BSPCB",11-10-2025 07:00:00,27.308328,84.531742,PM2.5,35,55,44
India,Bihar,Manguraha,"Forest Rest House, Manguraha - BSPCB",11-10-2025 07:00:00,27.308328,84.531742,PM10,42,69,54
India,Bihar,Manguraha,"Forest Rest House, Manguraha - BSPCB",11-10-2025 07:00:00,27.308328,84.531742,CO,9,34,33
India,Andaman and Nicobar,Sri Vijaya Puram,"Police Line, Sri Vijaya Puram - ANPCC",11-10-2025 07:00:00,11.654054,92.734055,NO2,NA,NA,NA
India,Andhra_Pradesh,Amaravati,"Secretariat, Amaravati - APPCB",11-10-2025 07:00:00,16.5150833,80.5181667,NH3,2,5,4
India,Andhra_Pradesh,Anantapur,"Gulzarpet, Anantapur - APPCB",11-10-2025 07:00:00,14.675886,77.593027,NH3,4,4,4
India,Andhra_Pradesh,Anantapur,"Gulzarpet, Anantapur - APPCB",11-10-2025 07:00:00,14.675886,77.593027,OZONE,9,16,11
India,Assam,Nalbari,"Bata Chowk, Nalbari - PCBA",11-10-2025 07:00:00,26.446912,91.439057,PM10,46,47,47
India,Assam,Nalbari,"Bata Chowk, Nalbari - PCBA",11-10-2025 07:00:00,26.446912,91.439057,NO2,1,9,6
India,Assam,Nalbari,"Bata Chowk, Nalbari - PCBA",11-10-2025 07:00:00,26.446912,91.439057,SO2,15,21,20
India,Assam,Silchar,"Tarapur, Silchar - PCBA",11-10-2025 07:00:00,24.82827,92.79525,NO2,17,19,18
India,Assam,Silchar,"Tarapur, Silchar - PCBA",11-10-2025 07:00:00,24.82827,92.79525,NH3,1,1,1
India,Assam,Silchar,"Tarapur, Silchar - PCBA",11-10-2025 07:00:00,24.82827,92.79525,SO2,4,4,4
India,Andhra_Pradesh,Vijayawada,"Rajiv Gandhi Park, Vijayawada - APPCB",11-10-2025 07:00:00,16.509717,80.612222,PM10,57,91,76
India,Andhra_Pradesh,Vijayawada,"Rajiv Nagar, Vijayawada - APPCB",11-10-2025 07:00:00,16.554731,80.649110,SO2,11,25,16
India,Andhra_Pradesh,Visakhapatnam,"GVM Corporation, Visakhapatnam - APPCB",11-10-2025 07:00:00,17.72,83.3,NO2,13,119,53
India,Andhra_Pradesh,Visakhapatnam,"GVM Corporation, Visakhapatnam - APPCB",11-10-2025 07:00:00,17.72,83.3,OZONE,6,62,19
India,Bihar,Arrah,"New DM Office, Arrah - BSPCB",11-10-2025 07:00:00,25.5626095,84.663264,CO,40,68,51
India,Bihar,Aurangabad,"Gurdeo Nagar, Aurangabad - BSPCB",11-10-2025 07:00:00,24.75746,84.366208,NO2,7,8,8
India,Bihar,Aurangabad,"Gurdeo Nagar, Aurangabad - BSPCB",11-10-2025 07:00:00,24.75746,84.366208,SO2,12,25,18
India,Bihar,Bettiah,"Kamalnath Nagar, Bettiah - BSPCB",11-10-2025 07:00:00,26.80365,84.51954,PM10,61,128,84
India,Bihar,Araria,"Kharahiya Basti, Araria - BSPCB",11-10-2025 07:00:00,26.146529,87.454184,NH3,5,5,5
India,Bihar,Araria,"Kharahiya Basti, Araria - BSPCB",11-10-2025 07:00:00,26.146529,87.454184,SO2,11,21,17
India,Bihar,Araria,"Kharahiya Basti, Araria - BSPCB",11-10-2025 07:00:00,26.146529,87.454184,OZONE,10,11,10
India,Bihar,Arrah,"New DM Office, Arrah - BSPCB",11-10-2025 07:00:00,25.5626095,84.663264,PM2.5,28,29,29
India,Arunachal_Pradesh,Naharlagun,"Naharlagun, Naharlagun - APSPCB",11-10-2025 07:00:00,27.103358,93.679645,NO2,5,6,5
India,Chhattisgarh,Bhilai,"Hathkhoj, Bhilai - CECB",11-10-2025 07:00:00,21.224231,81.408350,PM2.5,27,74,53
India,Chhattisgarh,Bhilai,"Hathkhoj, Bhilai - CECB",11-10-2025 07:00:00,21.224231,81.408350,PM10,28,96,64
India,Chhattisgarh,Bhilai,"Hathkhoj, Bhilai - CECB",11-10-2025 07:00:00,21.224231,81.408350,NO2,13,46,26
India,Chhattisgarh,Bilaspur,"Mangala, Bilaspur - NTPC",11-10-2025 07:00:00,22.08815,82.13737,PM2.5,41,82,64
India,Chhattisgarh,Bilaspur,"Mangala, Bilaspur - NTPC",11-10-2025 07:00:00,22.08815,82.13737,CO,20,42,40
India,Chhattisgarh,Chhal,"Nawapara SECL Colony, Chhal - CECB",11-10-2025 07:00:00,22.118125,83.140608,NO2,4,18,8
India,Chhattisgarh,Chhal,"Nawapara SECL Colony, Chhal - CECB",11-10-2025 07:00:00,22.118125,83.140608,NH3,6,6,6
India,Chhattisgarh,Chhal,"Nawapara SECL Colony, Chhal - CECB",11-10-2025 07:00:00,22.118125,83.140608,OZONE,41,100,46
India,Chhattisgarh,Korba,"Rampur, Korba - CECB",11-10-2025 07:00:00,22.368195,82.746431,OZONE,2,4,2
India,Chhattisgarh,Korba,"Urja Nagar, Korba - CECB",11-10-2025 07:00:00,22.348441,82.549611,PM2.5,16,22,17
India,Chhattisgarh,Korba,"Urja Nagar, Korba - CECB",11-10-2025 07:00:00,22.348441,82.549611,NO2,19,24,21
India,Chhattisgarh,Korba,"Urja Nagar, Korba - CECB",11-10-2025 07:00:00,22.348441,82.549611,SO2,3,11,7
India,Chhattisgarh,Korba,"Urja Nagar, Korba - CECB",11-10-2025 07:00:00,22.348441,82.549611,OZONE,35,36,35
India,Chhattisgarh,Kunjemura,"OP Jindal School, Kunjemura - CECB",11-10-2025 07:00:00,22.126650,83.483212,PM2.5,11,34,21
India,Chhattisgarh,Kunjemura,"OP Jindal School, Kunjemura - CECB",11-10-2025 07:00:00,22.126650,83.483212,PM10,20,126,49
India,Chhattisgarh,Kunjemura,"OP Jindal School, Kunjemura - CECB",11-10-2025 07:00:00,22.126650,83.483212,NH3,2,2,2
India,Chhattisgarh,Milupara,"Govt. Higher Secondary School, Milupara - CECB",11-10-2025 07:00:00,22.1910172,83.5197009,SO2,14,16,15
India,Chhattisgarh,Raipur,"AIIMS, Raipur - CECB",11-10-2025 07:00:00,21.258815,81.578979,PM10,56,130,97
India,Chhattisgarh,Raipur,"AIIMS, Raipur - CECB",11-10-2025 07:00:00,21.258815,81.578979,NH3,4,5,4
India,Chhattisgarh,Raipur,"AIIMS, Raipur - CECB",11-10-2025 07:00:00,21.258815,81.578979,CO,32,58,48
India,Chhattisgarh,Raipur,"Bhatagaon New ISBT, Raipur - CECB",11-10-2025 07:00:00,21.219665,81.630094,PM2.5,9,23,14
India,Chhattisgarh,Raipur,"Krishak Nagar, Raipur - CECB",11-10-2025 07:00:00,21.237755,81.705301,PM10,54,99,77
India,Bihar,Patna,"DRM Office Danapur, Patna - BSPCB",11-10-2025 07:00:00,25.586562,85.043586,SO2,9,14,11
India,Bihar,Patna,"Govt. High School Shikarpur, Patna - BSPCB",11-10-2025 07:00:00,25.592539,85.227158,SO2,7,9,8
India,Bihar,Patna,"IGSC Planetarium Complex, Patna - BSPCB",11-10-2025 07:00:00,25.610369,85.132568,OZONE,45,49,48
India,Bihar,Patna,"Muradpur, Patna - BSPCB",11-10-2025 07:00:00,25.619651,85.147382,NO2,8,10,9
India,Bihar,Patna,"Muradpur, Patna - BSPCB",11-10-2025 07:00:00,25.619651,85.147382,CO,40,68,55
India,Bihar,Patna,"Rajbansi Nagar, Patna - BSPCB",11-10-2025 07:00:00,25.599486,85.113666,PM10,68,94,82
India,Bihar,Patna,"Rajbansi Nagar, Patna - BSPCB",11-10-2025 07:00:00,25.599486,85.113666,NO2,28,33,30
India,Bihar,Patna,"Rajbansi Nagar, Patna - BSPCB",11-10-2025 07:00:00,25.599486,85.113666,CO,17,54,25
India,Bihar,Patna,"Rajbansi Nagar, Patna - BSPCB",11-10-2025 07:00:00,25.599486,85.113666,OZONE,7,18,8
India,Bihar,Purnia,"Mariam Nagar, Purnia - BSPCB",11-10-2025 07:00:00,25.366336,87.117468,PM10,39,88,65
India,Bihar,Purnia,"Mariam Nagar, Purnia - BSPCB",11-10-2025 07:00:00,25.366336,87.117468,NO2,4,8,6
India,Chhattisgarh,Raipur,"Krishak Nagar, Raipur - CECB",11-10-2025 07:00:00,21.237755,81.705301,CO,14,22,19
India,Chhattisgarh,Raipur,"Siltara Phase-II, Raipur - CECB",11-10-2025 07:00:00,21.371751,81.664929,NO2,11,48,22
India,Chhattisgarh,Raipur,"Siltara Phase-II, Raipur - CECB",11-10-2025 07:00:00,21.371751,81.664929,NH3,NA,NA,NA
India,Chhattisgarh,Raipur,"Siltara Phase-II, Raipur - CECB",11-10-2025 07:00:00,21.371751,81.664929,SO2,1,9,6
India,Chhattisgarh,Tumidih,"OP Jindal Industrial Park, Tumidih - CECB",11-10-2025 07:00:00,22.06631475,83.33820077,PM2.5,19,48,33
India,Chhattisgarh,Tumidih,"OP Jindal Industrial Park, Tumidih - CECB",11-10-2025 07:00:00,22.06631475,83.33820077,NH3,1,2,2
India,Chhattisgarh,Tumidih,"OP Jindal Industrial Park, Tumidih - CECB",11-10-2025 07:00:00,22.06631475,83.33820077,SO2,5,15,6
India,Chhattisgarh,Tumidih,"OP Jindal Industrial Park, Tumidih - CECB",11-10-2025 07:00:00,22.06631475,83.33820077,CO,13,24,18
India,Delhi,Delhi,"Alipur, Delhi - DPCC",11-10-2025 07:00:00,28.815329,77.153010,PM2.5,65,328,170
India,Delhi,Delhi,"Alipur, Delhi - DPCC",11-10-2025 07:00:00,28.815329,77.153010,NH3,2,3,3
India,Delhi,Delhi,"Burari Crossing, Delhi - IMD",11-10-2025 07:00:00,28.7256504,77.2011573,CO,27,102,88
India,Delhi,Delhi,"CRRI Mathura Road, Delhi - IMD",11-10-2025 07:00:00,28.5512005,77.2735737,OZONE,23,197,28
India,Delhi,Delhi,"Chandni Chowk, Delhi - IITM",11-10-2025 07:00:00,28.656756,77.227234,PM2.5,75,213,123
India,Delhi,Delhi,"Chandni Chowk, Delhi - IITM",11-10-2025 07:00:00,28.656756,77.227234,NH3,6,11,9
India,Delhi,Delhi,"DTU, Delhi - CPCB",11-10-2025 07:00:00,28.7500499,77.1112615,SO2,30,34,32
India,Delhi,Delhi,"Dr. Karni Singh Shooting Range, Delhi - DPCC",11-10-2025 07:00:00,28.498571,77.264840,PM2.5,77,290,161
India,Delhi,Delhi,"Dr. Karni Singh Shooting Range, Delhi - DPCC",11-10-2025 07:00:00,28.498571,77.264840,PM10,145,241,176
India,Bihar,Motihari,"Gandak Colony, Motihari - BSPCB",11-10-2025 07:00:00,26.63086,84.90051,CO,34,46,42
India,Bihar,Munger,"Town Hall, Munger - BSPCB",11-10-2025 07:00:00,25.376776,86.471523,NH3,6,7,6
India,Bihar,Muzaffarpur,"Buddha Colony, Muzaffarpur - BSPCB",11-10-2025 07:00:00,26.11442,85.39813,SO2,NA,NA,NA
India,Bihar,Muzaffarpur,"MIT-Daudpur Kothi, Muzaffarpur - BSPCB",11-10-2025 07:00:00,26.1403345,85.3650192,PM10,41,48,43
India,Bihar,Muzaffarpur,"MIT-Daudpur Kothi, Muzaffarpur - BSPCB",11-10-2025 07:00:00,26.1403345,85.3650192,SO2,NA,NA,NA
India,Bihar,Muzaffarpur,"Muzaffarpur Collectorate, Muzaffarpur - BSPCB",11-10-2025 07:00:00,26.1209,85.3647,OZONE,12,88,12
India,Bihar,Purnia,"Mariam Nagar, Purnia - BSPCB",11-10-2025 07:00:00,25.366336,87.117468,SO2,NA,NA,NA
India,Bihar,Rajgir,"Dangi Tola, Rajgir - BSPCB",11-10-2025 07:00:00,25.03280,85.41948,OZONE,29,33,32
India,Bihar,Sasaram,"Dada Peer, Sasaram - BSPCB",11-10-2025 07:00:00,24.952822,84.002396,PM2.5,15,44,26
India,Bihar,Sasaram,"Dada Peer, Sasaram - BSPCB",11-10-2025 07:00:00,24.952822,84.002396,NH3,2,3,3
India,Bihar,Siwan,"Chitragupta Nagar, Siwan - BSPCB",11-10-2025 07:00:00,26.2271665,84.3570427,PM10,90,153,111
India,Delhi,Delhi,"Anand Vihar, Delhi - DPCC",11-10-2025 07:00:00,28.647622,77.3158090,NO2,17,54,37
India,Delhi,Delhi,"Anand Vihar, Delhi - DPCC",11-10-2025 07:00:00,28.647622,77.3158090,OZONE,9,77,10
India,Delhi,Delhi,"Ashok Vihar, Delhi - DPCC",11-10-2025 07:00:00,28.695381,77.181665,NO2,13,101,47
India,Delhi,Delhi,"Ashok Vihar, Delhi - DPCC",11-10-2025 07:00:00,28.695381,77.181665,CO,22,107,76
India,Delhi,Delhi,"Aya Nagar, Delhi - IMD",11-10-2025 07:00:00,28.4706914,77.1099364,OZONE,11,153,12
India,Chandigarh,Chandigarh,"Sector-25, Chandigarh - CPCC",11-10-2025 07:00:00,30.751462,76.762879,PM2.5,44,74,59
India,Chandigarh,Chandigarh,"Sector-53, Chandigarh - CPCC",11-10-2025 07:00:00,30.719859,76.738637,PM10,NA,NA,NA
India,Chhattisgarh,Bhilai,"Civic Center, Bhilai - Bhilai Steel Plant",11-10-2025 07:00:00,21.185571,81.343175,PM10,NA,NA,NA
India,Chhattisgarh,Bhilai,"Civic Center, Bhilai - Bhilai Steel Plant",11-10-2025 07:00:00,21.185571,81.343175,NH3,NA,NA,NA
India,Delhi,Delhi,"NSIT Dwarka, Delhi - CPCB",11-10-2025 07:00:00,28.60909,77.0325413,NH3,7,12,8
India,Delhi,Delhi,"NSIT Dwarka, Delhi - CPCB",11-10-2025 07:00:00,28.60909,77.0325413,CO,13,60,44
India,Delhi,Delhi,"Najafgarh, Delhi - DPCC",11-10-2025 07:00:00,28.570173,76.933762,PM2.5,70,163,101
India,Delhi,Delhi,"Narela, Delhi - DPCC",11-10-2025 07:00:00,28.822836,77.101981,PM2.5,79,332,190
India,Delhi,Delhi,"Narela, Delhi - DPCC",11-10-2025 07:00:00,28.822836,77.101981,NH3,14,15,14
India,Delhi,Delhi,"Narela, Delhi - DPCC",11-10-2025 07:00:00,28.822836,77.101981,OZONE,2,117,9
India,Delhi,Delhi,"Nehru Nagar, Delhi - DPCC",11-10-2025 07:00:00,28.567890,77.250515,NH3,2,5,4
India,Delhi,Delhi,"Nehru Nagar, Delhi - DPCC",11-10-2025 07:00:00,28.567890,77.250515,CO,24,103,60
India,Delhi,Delhi,"North Campus, DU, Delhi - IMD",11-10-2025 07:00:00,28.6573814,77.1585447,PM2.5,74,306,166
India,Delhi,Delhi,"North Campus, DU, Delhi - IMD",11-10-2025 07:00:00,28.6573814,77.1585447,CO,3,121,102
India,Delhi,Delhi,"Sirifort, Delhi - CPCB",11-10-2025 07:00:00,28.5504249,77.2159377,PM10,141,366,199
India,Delhi,Delhi,"Sirifort, Delhi - CPCB",11-10-2025 07:00:00,28.5504249,77.2159377,SO2,24,32,27
India,Delhi,Delhi,"Sirifort, Delhi - CPCB",11-10-2025 07:00:00,28.5504249,77.2159377,CO,10,105,98
India,Delhi,Delhi,"Sirifort, Delhi - CPCB",11-10-2025 07:00:00,28.5504249,77.2159377,OZONE,18,27,18
India,Delhi,Delhi,"Sri Aurobindo Marg, Delhi - DPCC",11-10-2025 07:00:00,28.531346,77.190156,PM2.5,73,147,107
India,Delhi,Delhi,"Sri Aurobindo Marg, Delhi - DPCC",11-10-2025 07:00:00,28.531346,77.190156,NH3,3,4,4
India,Delhi,Delhi,"Sri Aurobindo Marg, Delhi - DPCC",11-10-2025 07:00:00,28.531346,77.190156,SO2,9,14,12
India,Delhi,Delhi,"Sri Aurobindo Marg, Delhi - DPCC",11-10-2025 07:00:00,28.531346,77.190156,CO,23,84,66
India,Delhi,Delhi,"Vivek Vihar, Delhi - DPCC",11-10-2025 07:00:00,28.672342,77.315260,PM2.5,92,319,197
India,Delhi,Delhi,"Vivek Vihar, Delhi - DPCC",11-10-2025 07:00:00,28.672342,77.315260,NO2,18,91,59
India,Delhi,Delhi,"Vivek Vihar, Delhi - DPCC",11-10-2025 07:00:00,28.672342,77.315260,CO,39,108,95
India,Delhi,Delhi,"Wazirpur, Delhi - DPCC",11-10-2025 07:00:00,28.699793,77.165453,CO,10,76,36
India,Gujarat,Ahmedabad,"Chandkheda, Ahmedabad - IITM",11-10-2025 07:00:00,23.107969,72.574648,OZONE,2,47,6
India,Gujarat,Ahmedabad,"Gyaspur, Ahmedabad - IITM",11-10-2025 07:00:00,22.977134,72.553024,PM2.5,142,325,256
India,Gujarat,Ahmedabad,"Gyaspur, Ahmedabad - IITM",11-10-2025 07:00:00,22.977134,72.553024,NH3,2,17,8
India,Gujarat,Ahmedabad,"Gyaspur, Ahmedabad - IITM",11-10-2025 07:00:00,22.977134,72.553024,OZONE,5,54,6
India,Gujarat,Ahmedabad,"Maninagar, Ahmedabad - GPCB",11-10-2025 07:00:00,23.002657,72.591912,PM10,31,113,73
India,Gujarat,Ahmedabad,"Raikhad, Ahmedabad - IITM",11-10-2025 07:00:00,23.020509,72.579261,PM2.5,99,324,222
India,Delhi,Delhi,"Jawaharlal Nehru Stadium, Delhi - DPCC",11-10-2025 07:00:00,28.580280,77.233829,PM10,144,249,179
India,Delhi,Delhi,"Jawaharlal Nehru Stadium, Delhi - DPCC",11-10-2025 07:00:00,28.580280,77.233829,CO,26,115,106
India,Delhi,Delhi,"Lodhi Road, Delhi - IITM",11-10-2025 07:00:00,28.588333,77.221667,PM2.5,NA,NA,NA
India,Delhi,Delhi,"Lodhi Road, Delhi - IITM",11-10-2025 07:00:00,28.588333,77.221667,SO2,NA,NA,NA
India,Delhi,Delhi,"Lodhi Road, Delhi - IMD",11-10-2025 07:00:00,28.5918245,77.2273074,PM10,114,172,153
India,Delhi,Delhi,"Major Dhyan Chand National Stadium, Delhi - DPCC",11-10-2025 07:00:00,28.611281,77.237738,PM2.5,88,305,166
India,Delhi,Delhi,"Major Dhyan Chand National Stadium, Delhi - DPCC",11-10-2025 07:00:00,28.611281,77.237738,SO2,6,17,13
India,Delhi,Delhi,"Dr. Karni Singh Shooting Range, Delhi - DPCC",11-10-2025 07:00:00,28.498571,77.264840,CO,11,92,52
India,Delhi,Delhi,"Dwarka-Sector 8, Delhi - DPCC ",11-10-2025 07:00:00,28.5710274,77.0719006,OZONE,3,153,5
India,Delhi,Delhi,"IGI Airport (T3), Delhi - IMD",11-10-2025 07:00:00,28.5627763,77.1180053,PM10,145,407,245
India,Delhi,Delhi,"IHBAS, Dilshad Garden, Delhi - CPCB",11-10-2025 07:00:00,28.6811736,77.3025234,NO2,66,77,71
India,Delhi,Delhi,"IHBAS, Dilshad Garden, Delhi - CPCB",11-10-2025 07:00:00,28.6811736,77.3025234,NH3,4,5,4
India,Gujarat,Ahmedabad,"Rakhial, Ahmedabad - IITM",11-10-2025 07:00:00,23.016834,72.625775,NH3,NA,NA,NA
India,Gujarat,Ahmedabad,"Rakhial, Ahmedabad - IITM",11-10-2025 07:00:00,23.016834,72.625775,OZONE,1,25,2
India,Gujarat,Ahmedabad,"SAC ISRO Satellite, Ahmedabad - IITM",11-10-2025 07:00:00,23.023389,72.515201,PM2.5,160,310,237
India,Gujarat,Ahmedabad,"SAC ISRO Satellite, Ahmedabad - IITM",11-10-2025 07:00:00,23.023389,72.515201,NO2,10,128,75
India,Gujarat,Ahmedabad,"SVPI Airport Hansol, Ahmedabad - IITM",11-10-2025 07:00:00,23.076793,72.627874,CO,39,104,81
India,Delhi,Delhi,"R K Puram, Delhi - DPCC",11-10-2025 07:00:00,28.563262,77.186937,PM2.5,112,362,212
India,Delhi,Delhi,"R K Puram, Delhi - DPCC",11-10-2025 07:00:00,28.563262,77.186937,NO2,9,111,45
India,Delhi,Delhi,"Rohini, Delhi - DPCC",11-10-2025 07:00:00,28.732528,77.119920,OZONE,4,164,7
India,Delhi,Delhi,"Shadipur, Delhi - CPCB",11-10-2025 07:00:00,28.6514781,77.1473105,NO2,26,132,66
India,Delhi,Delhi,"Okhla Phase-2, Delhi - DPCC",11-10-2025 07:00:00,28.530785,77.271255,CO,22,112,87
India,Delhi,Delhi,"Punjabi Bagh, Delhi - DPCC",11-10-2025 07:00:00,28.674045,77.131023,PM2.5,87,324,189
India,Delhi,Delhi,"Pusa, Delhi - DPCC",11-10-2025 07:00:00,28.639652,77.146275,PM10,135,348,190
India,Delhi,Delhi,"Pusa, Delhi - DPCC",11-10-2025 07:00:00,28.639652,77.146275,SO2,3,15,8
India,Delhi,Delhi,"Mandir Marg, Delhi - DPCC",11-10-2025 07:00:00,28.636429,77.201067,OZONE,7,144,8
India,Delhi,Delhi,"Mundka, Delhi - DPCC",11-10-2025 07:00:00,28.684678,77.076574,PM10,140,500,230
India,Delhi,Delhi,"NSIT Dwarka, Delhi - CPCB",11-10-2025 07:00:00,28.60909,77.0325413,PM2.5,27,66,43
India,Haryana,Faridabad,"Sector 30, Faridabad - HSPCB",11-10-2025 07:00:00,28.4417,77.3217,NO2,36,39,37
India,Haryana,Faridabad,"Sector 30, Faridabad - HSPCB",11-10-2025 07:00:00,28.4417,77.3217,SO2,6,6,6
India,Haryana,Faridabad,"Sector 30, Faridabad - HSPCB",11-10-2025 07:00:00,28.4417,77.3217,CO,58,64,61
India,Haryana,Faridabad,"Sector 30, Faridabad - HSPCB",11-10-2025 07:00:00,28.4417,77.3217,OZONE,17,19,18
India,Haryana,Gurugram,"NISE Gwal Pahari, Gurugram - IMD",11-10-2025 07:00:00,28.422681,77.148944,PM2.5,68,203,126
India,Haryana,Gurugram,"NISE Gwal Pahari, Gurugram - IMD",11-10-2025 07:00:00,28.422681,77.148944,CO,70,101,99
India,Haryana,Kaithal,"Rishi Nagar, Kaithal - HSPCB",11-10-2025 07:00:00,29.8006,76.4155,PM2.5,102,152,125
India,Haryana,Kaithal,"Rishi Nagar, Kaithal - HSPCB",11-10-2025 07:00:00,29.8006,76.4155,NH3,5,6,6
India,Haryana,Kaithal,"Rishi Nagar, Kaithal - HSPCB",11-10-2025 07:00:00,29.8006,76.4155,SO2,24,26,25
India,Haryana,Karnal,"Sector-12, Karnal - HSPCB",11-10-2025 07:00:00,29.695300,77.002700,PM2.5,78,124,97
India,Haryana,Kurukshetra,"Sector-7, Kurukshetra - HSPCB",11-10-2025 07:00:00,29.966942,76.875879,PM2.5,54,97,75
India,Haryana,Kurukshetra,"Sector-7, Kurukshetra - HSPCB",11-10-2025 07:00:00,29.966942,76.875879,PM10,42,60,58
India,Haryana,Kurukshetra,"Sector-7, Kurukshetra - HSPCB",11-10-2025 07:00:00,29.966942,76.875879,SO2,6,13,9
India,Haryana,Kurukshetra,"Sector-7, Kurukshetra - HSPCB",11-10-2025 07:00:00,29.966942,76.875879,CO,8,20,11
India,Haryana,Sirsa,"F-Block, Sirsa - HSPCB",11-10-2025 07:00:00,29.536400,75.015800,NH3,2,10,6
India,Haryana,Sirsa,"F-Block, Sirsa - HSPCB",11-10-2025 07:00:00,29.536400,75.015800,SO2,5,9,7
India,Himachal Pradesh,Baddi,"HIMUDA Complex Phase-1, Baddi - HPPCB",11-10-2025 07:00:00,30.943887,76.801991,PM2.5,30,243,89
India,Himachal Pradesh,Baddi,"HIMUDA Complex Phase-1, Baddi - HPPCB",11-10-2025 07:00:00,30.943887,76.801991,PM10,57,250,126
India,Himachal Pradesh,Baddi,"HIMUDA Complex Phase-1, Baddi - HPPCB",11-10-2025 07:00:00,30.943887,76.801991,SO2,20,101,36
India,Jammu_and_Kashmir,Srinagar,"Rajbagh, Srinagar - JKSPCB",11-10-2025 07:00:00,34.066206,74.819820,SO2,3,4,3
India,Jharkhand,Dhanbad,"Sardar Patel Nagar, Dhanbad - JSPCB",11-10-2025 07:00:00,23.80569,86.44268,SO2,NA,NA,NA
India,Jharkhand,Jorapokhar,"Tata Stadium, Jorapokhar - JSPCB",11-10-2025 07:00:00,23.707909,86.414670,PM10,NA,NA,NA
India,Jharkhand,Jorapokhar,"Tata Stadium, Jorapokhar - JSPCB",11-10-2025 07:00:00,23.707909,86.414670,SO2,NA,NA,NA
India,Karnataka,Bagalkot,"Vidayagiri, Bagalkot - KSPCB",11-10-2025 07:00:00,16.172806,75.659694,NH3,1,2,1
India,Karnataka,Bagalkot,"Vidayagiri, Bagalkot - KSPCB",11-10-2025 07:00:00,16.172806,75.659694,SO2,7,7,7
India,Karnataka,Bengaluru,"Bapuji Nagar, Bengaluru - KSPCB",11-10-2025 07:00:00,12.951913,77.539784,CO,22,107,32
India,Karnataka,Bengaluru,"City Railway Station, Bengaluru - KSPCB",11-10-2025 07:00:00,12.9756843,77.5660749,PM10,82,98,86
India,Karnataka,Bengaluru,"Hebbal, Bengaluru - KSPCB",11-10-2025 07:00:00,13.029152,77.585901,NH3,NA,NA,NA
India,Karnataka,Bengaluru,"Hombegowda Nagar, Bengaluru - KSPCB",11-10-2025 07:00:00,12.938539,77.590100,PM2.5,4,35,14
India,Karnataka,Bengaluru,"Hombegowda Nagar, Bengaluru - KSPCB",11-10-2025 07:00:00,12.938539,77.590100,PM10,16,63,31
India,Karnataka,Bengaluru,"Jayanagar 5th Block, Bengaluru - KSPCB",11-10-2025 07:00:00,12.920984,77.584908,PM2.5,9,57,33
India,Karnataka,Bengaluru,"Jayanagar 5th Block, Bengaluru - KSPCB",11-10-2025 07:00:00,12.920984,77.584908,PM10,12,100,44
India,Karnataka,Bengaluru,"Jigani, Bengaluru - KSPCB",11-10-2025 07:00:00,12.7816279,77.6299145,PM2.5,NA,NA,NA
India,Karnataka,Bengaluru,"Jigani, Bengaluru - KSPCB",11-10-2025 07:00:00,12.7816279,77.6299145,NO2,NA,NA,NA
India,Haryana,Manesar,"Sector-2 IMT, Manesar - HSPCB",11-10-2025 07:00:00,28.360699,76.936090,NH3,3,7,5
India,Haryana,Manesar,"Sector-2 IMT, Manesar - HSPCB",11-10-2025 07:00:00,28.360699,76.936090,SO2,6,15,10
India,Haryana,Palwal,"Shyam Nagar, Palwal - HSPCB",11-10-2025 07:00:00,28.1485564,77.3320667,OZONE,23,25,24
India,Haryana,Panchgaon,"Amity University, Panchgaon - IITM",11-10-2025 07:00:00,28.3153,76.9143,NO2,2,22,9
India,Haryana,Panchgaon,"Amity University, Panchgaon - IITM",11-10-2025 07:00:00,28.3153,76.9143,OZONE,1,69,1
India,Haryana,Panchkula,"Sector-6, Panchkula - HSPCB ",11-10-2025 07:00:00,30.7057778,76.8531805555555,OZONE,69,179,89
India,Haryana,Panipat,"Sector-18, Panipat - HSPCB",11-10-2025 07:00:00,29.432304,76.972765,PM2.5,NA,NA,NA
India,Haryana,Panipat,"Sector-18, Panipat - HSPCB",11-10-2025 07:00:00,29.432304,76.972765,NO2,NA,NA,NA
India,Gujarat,Ankleshwar,"GIDC, Ankleshwar - GPCB",11-10-2025 07:00:00,21.613267,73.010555,SO2,53,54,54
India,Gujarat,Ankleshwar,"GIDC, Ankleshwar - GPCB",11-10-2025 07:00:00,21.613267,73.010555,OZONE,46,65,50
India,Gujarat,Gandhinagar,"GIFT City, Gandhinagar - IITM",11-10-2025 07:00:00,23.163798,72.677768,NO2,6,82,32
India,Gujarat,Gandhinagar,"GIFT City, Gandhinagar - IITM",11-10-2025 07:00:00,23.163798,72.677768,NH3,1,20,7
India,Gujarat,Gandhinagar,"IIPHG Lekawada, Gandhinagar - IITM",11-10-2025 07:00:00,23.243639,72.68994,PM2.5,102,162,136
India,Gujarat,Gandhinagar,"IIPHG Lekawada, Gandhinagar - IITM",11-10-2025 07:00:00,23.243639,72.68994,NO2,4,17,9
India,Gujarat,Gandhinagar,"IIPHG Lekawada, Gandhinagar - IITM",11-10-2025 07:00:00,23.243639,72.68994,OZONE,2,28,3
India,Gujarat,Gandhinagar,"Sector-10, Gandhinagar - GPCB",11-10-2025 07:00:00,23.221714,72.654328,CO,18,42,31
India,Karnataka,Chikkaballapur,"Chikkaballapur Rural, Chikkaballapur - KSPCB",11-10-2025 07:00:00,13.428828,77.731418,SO2,NA,NA,NA
India,Karnataka,Chikkamagaluru,"Kalyana Nagara, Chikkamagaluru - KSPCB",11-10-2025 07:00:00,13.328028,75.797056,PM2.5,NA,NA,NA
India,Karnataka,Chikkamagaluru,"Kalyana Nagara, Chikkamagaluru - KSPCB",11-10-2025 07:00:00,13.328028,75.797056,NO2,NA,NA,NA
India,Karnataka,Chikkamagaluru,"Kalyana Nagara, Chikkamagaluru - KSPCB",11-10-2025 07:00:00,13.328028,75.797056,SO2,NA,NA,NA
India,Karnataka,Chikkamagaluru,"Kalyana Nagara, Chikkamagaluru - KSPCB",11-10-2025 07:00:00,13.328028,75.797056,OZONE,10,20,10
India,Karnataka,Davanagere,"Devaraj Urs Badavane, Davanagere - KSPCB",11-10-2025 07:00:00,14.475800,75.905200,NO2,12,27,20
India,Karnataka,Dharwad,"Kalabhavan, Dharwad - KSPCB",11-10-2025 07:00:00,15.459706,75.008381,OZONE,12,33,16
India,Gujarat,Surat,"Science Center, Surat - SMC",11-10-2025 07:00:00,21.170046,72.795405,PM10,105,200,141
India,Gujarat,Surat,"Science Center, Surat - SMC",11-10-2025 07:00:00,21.170046,72.795405,SO2,19,24,21
India,Gujarat,Vapi,"Phase-1 GIDC, Vapi - GPCB",11-10-2025 07:00:00,20.362421,72.918013,PM2.5,110,371,279
India,Gujarat,Vapi,"Phase-1 GIDC, Vapi - GPCB",11-10-2025 07:00:00,20.362421,72.918013,NH3,10,10,10
India,Gujarat,Vatva,"Phase-4 GIDC, Vatva - GPCB",11-10-2025 07:00:00,22.969611,72.643500,SO2,9,60,21
India,Gujarat,Vatva,"Phase-4 GIDC, Vatva - GPCB",11-10-2025 07:00:00,22.969611,72.643500,CO,12,48,17
India,Karnataka,Bengaluru,"Jigani, Bengaluru - KSPCB",11-10-2025 07:00:00,12.7816279,77.6299145,SO2,NA,NA,NA
India,Karnataka,Bengaluru,"Kasturi Nagar, Bengaluru - KSPCB",11-10-2025 07:00:00,13.003872,77.664217,NH3,6,6,6
India,Karnataka,Bengaluru,"Kasturi Nagar, Bengaluru - KSPCB",11-10-2025 07:00:00,13.003872,77.664217,SO2,6,10,8
India,Karnataka,Bengaluru,"Sanegurava Halli, Bengaluru - KSPCB",11-10-2025 07:00:00,12.990328,77.5431385,PM10,NA,NA,NA
India,Karnataka,Bengaluru,"Silk Board, Bengaluru - KSPCB",11-10-2025 07:00:00,12.917348,77.622813,NH3,NA,NA,NA
India,Haryana,Faridabad,"New Industrial Town, Faridabad - HSPCB",11-10-2025 07:00:00,28.39072,77.30059,CO,7,13,11
India,Haryana,Faridabad,"Sector 11, Faridabad - HSPCB",11-10-2025 07:00:00,28.376058,77.315741,SO2,8,9,8
India,Haryana,Faridabad,"Sector 30, Faridabad - HSPCB",11-10-2025 07:00:00,28.4417,77.3217,PM2.5,41,43,42
India,Madhya Pradesh,Ratlam,"Shasthri Nagar, Ratlam - IPCA Lab",11-10-2025 07:00:00,23.331731,75.045981,NO2,32,36,34
India,Madhya Pradesh,Sagar,"Civil Lines, Sagar - MPPCB",11-10-2025 07:00:00,23.838586,78.759431,CO,26,42,34
India,Madhya Pradesh,Satna,"Bandhavgar Colony, Satna - Birla Cement",11-10-2025 07:00:00,24.58434363,80.8549414,SO2,18,20,19
India,Madhya Pradesh,Satna,"Bandhavgar Colony, Satna - Birla Cement",11-10-2025 07:00:00,24.58434363,80.8549414,CO,18,38,22
India,Madhya Pradesh,Singrauli,"Suryakiran Bhawan NCL, Singrauli - MPPCB",11-10-2025 07:00:00,24.108970,82.645580,OZONE,9,80,14
India,Maharashtra,Ahmednagar,"Tarakpur, Ahmednagar - MPCB",11-10-2025 07:00:00,19.10122,74.73339,PM2.5,44,69,60
India,Maharashtra,Ahmednagar,"Tarakpur, Ahmednagar - MPCB",11-10-2025 07:00:00,19.10122,74.73339,NO2,16,30,22
India,Kerala,Thiruvananthapuram,"Plammoodu, Thiruvananthapuram - Kerala PCB",11-10-2025 07:00:00,8.5149093,76.9435879,CO,4,29,7
India,Kerala,Thrissur,"Corporation Ground, Thrissur - Kerala PCB",11-10-2025 07:00:00,10.532400,76.215900,SO2,NA,NA,NA
India,Madhya Pradesh,Bhopal,"Idgah Hills, Bhopal - MPPCB",11-10-2025 07:00:00,23.264759,77.381568,NO2,11,59,22
India,Madhya Pradesh,Bhopal,"Idgah Hills, Bhopal - MPPCB",11-10-2025 07:00:00,23.264759,77.381568,SO2,10,12,11
India,Madhya Pradesh,Bhopal,"Paryavaran Parisar, Bhopal - MPPCB",11-10-2025 07:00:00,23.210494,77.425409,NH3,2,3,2
India,Madhya Pradesh,Bhopal,"T T Nagar, Bhopal - MPPCB",11-10-2025 07:00:00,23.233584,77.400574,NH3,5,5,5
India,Madhya Pradesh,Bhopal,"T T Nagar, Bhopal - MPPCB",11-10-2025 07:00:00,23.233584,77.400574,OZONE,10,118,43
India,Madhya Pradesh,Gwalior,"Maharaj Bada, Gwalior - MPPCB",11-10-2025 07:00:00,26.200388,78.147714,NO2,17,82,32
India,Madhya Pradesh,Gwalior,"Maharaj Bada, Gwalior - MPPCB",11-10-2025 07:00:00,26.200388,78.147714,OZONE,4,88,25
India,Madhya Pradesh,Indore,"Airport Area, Indore - IMC",11-10-2025 07:00:00,22.7289,75.8076,PM10,NA,NA,NA
India,Madhya Pradesh,Indore,"Airport Area, Indore - IMC",11-10-2025 07:00:00,22.7289,75.8076,CO,6,8,7
India,Madhya Pradesh,Indore,"Airport Area, Indore - IMC",11-10-2025 07:00:00,22.7289,75.8076,OZONE,2,3,2
India,Madhya Pradesh,Indore,"Maguda Nagar, Indore - IMC",11-10-2025 07:00:00,22.7524,75.8872,OZONE,7,11,9
India,Madhya Pradesh,Indore,"Regional Park, Indore - IMC",11-10-2025 07:00:00,22.6780,75.8559,SO2,20,25,23
India,Kerala,Eloor,"Udyogamandal, Eloor - Kerala PCB",11-10-2025 07:00:00,10.073232,76.302765,PM2.5,45,86,60
India,Kerala,Kannur,"Thavakkara, Kannur - Kerala PCB",11-10-2025 07:00:00,11.875000,75.373200,PM2.5,53,57,55
India,Kerala,Kollam,"Polayathode, Kollam - Kerala PCB",11-10-2025 07:00:00,8.8787,76.6073,PM10,NA,NA,NA
India,Kerala,Kollam,"Polayathode, Kollam - Kerala PCB",11-10-2025 07:00:00,8.8787,76.6073,NH3,NA,NA,NA
India,Kerala,Thiruvananthapuram,"Kariavattom, Thiruvananthapuram - Kerala PCB",11-10-2025 07:00:00,8.563700,76.886500,PM10,57,68,63
India,Kerala,Thiruvananthapuram,"Kariavattom, Thiruvananthapuram - Kerala PCB",11-10-2025 07:00:00,8.563700,76.886500,NH3,1,1,1
India,Madhya Pradesh,Jabalpur,"Marhatal, Jabalpur - MPPCB",11-10-2025 07:00:00,23.168606,79.932247,PM10,119,172,158
India,Madhya Pradesh,Jabalpur,"Suhagi, Jabalpur - JMC",11-10-2025 07:00:00,23.218135,79.957770,SO2,13,26,20
India,Madhya Pradesh,Mandideep,"Sector-D Industrial Area, Mandideep - MPPCB",11-10-2025 07:00:00,23.108440,77.511428,OZONE,10,96,27
India,Madhya Pradesh,Pithampur,"Sector-2 Industrial Area, Pithampur - MPPCB",11-10-2025 07:00:00,22.624758,75.675238,PM2.5,77,292,197
India,Karnataka,Hubballi,"Lingaraj Nagar, Hubballi - KSPCB",11-10-2025 07:00:00,15.3714823,75.1160168,PM10,40,55,45
India,Karnataka,Hubballi,"Lingaraj Nagar, Hubballi - KSPCB",11-10-2025 07:00:00,15.3714823,75.1160168,SO2,1,1,1
India,Karnataka,Kalaburagi,"Mahatma Basaveswar Colony, Kalaburgi - KSPCB",11-10-2025 07:00:00,17.336318,76.847397,CO,35,58,37
India,Karnataka,Madikeri,"Stuart Hill, Madikeri - KSPCB",11-10-2025 07:00:00,12.415911,75.735050,PM2.5,8,36,18
India,Madhya Pradesh,Dewas,"Bhopal Chauraha, Dewas - MPPCB",11-10-2025 07:00:00,22.9682591,76.064118,PM2.5,76,304,130
India,Madhya Pradesh,Dewas,"Bhopal Chauraha, Dewas - MPPCB",11-10-2025 07:00:00,22.9682591,76.064118,NO2,63,111,79
India,Madhya Pradesh,Dewas,"Bhopal Chauraha, Dewas - MPPCB",11-10-2025 07:00:00,22.9682591,76.064118,NH3,3,12,6
India,Madhya Pradesh,Gwalior,"City Center, Gwalior - MPPCB",11-10-2025 07:00:00,26.203442,78.193251,PM10,78,153,123
India,Madhya Pradesh,Gwalior,"City Center, Gwalior - MPPCB",11-10-2025 07:00:00,26.203442,78.193251,SO2,1,24,18
India,Karnataka,Mangalore,"Kadri, Mangalore - KSPCB",11-10-2025 07:00:00,12.889250,74.853000,PM2.5,NA,NA,NA
India,Karnataka,Mangalore,"Kadri, Mangalore - KSPCB",11-10-2025 07:00:00,12.889250,74.853000,OZONE,NA,NA,NA
India,Karnataka,Ramanagara,"Vijay Nagar, Ramanagara - KSPCB",11-10-2025 07:00:00,12.733409,77.298051,NH3,NA,NA,NA
India,Karnataka,Ramanagara,"Vijay Nagar, Ramanagara - KSPCB",11-10-2025 07:00:00,12.733409,77.298051,OZONE,NA,NA,NA
India,Karnataka,Shivamogga,"Vinoba Nagara, Shivamogga - KSPCB",11-10-2025 07:00:00,13.940000,75.555917,NH3,1,6,3
India,Madhya Pradesh,Jabalpur,"Govindh Bhavan Colony, Jabalpur - JMC",11-10-2025 07:00:00,23.163174,79.973061,PM10,91,147,117
India,Madhya Pradesh,Jabalpur,"Govindh Bhavan Colony, Jabalpur - JMC",11-10-2025 07:00:00,23.163174,79.973061,CO,35,59,45
India,Madhya Pradesh,Jabalpur,"Gupteshwar, Jabalpur - JMC",11-10-2025 07:00:00,23.142888,79.916147,SO2,9,13,11
India,Maharashtra,Boisar,"Khaira, Boisar - MPCB",11-10-2025 07:00:00,19.786089,72.757971,OZONE,20,21,20
India,Maharashtra,Chandrapur,"Chauhan Colony, Chandrapur - MPCB",11-10-2025 07:00:00,19.962900,79.298714,PM10,100,192,146
India,Maharashtra,Chandrapur,"Chauhan Colony, Chandrapur - MPCB",11-10-2025 07:00:00,19.962900,79.298714,CO,16,21,18
India,Maharashtra,Chandrapur,"Chauhan Colony, Chandrapur - MPCB",11-10-2025 07:00:00,19.962900,79.298714,OZONE,22,23,22
India,Maharashtra,Chandrapur,"MIDC Khutala, Chandrapur - MPCB",11-10-2025 07:00:00,19.9775302,79.2337086,NH3,1,4,3
India,Maharashtra,Chandrapur,"MIDC Khutala, Chandrapur - MPCB",11-10-2025 07:00:00,19.9775302,79.2337086,SO2,8,9,9
India,Maharashtra,Chandrapur,"MIDC Khutala, Chandrapur - MPCB",11-10-2025 07:00:00,19.9775302,79.2337086,OZONE,17,20,18
India,Maharashtra,Dhule,"Deopur, Dhule - MPCB",11-10-2025 07:00:00,20.918946,74.776388,PM2.5,NA,NA,NA
India,Maharashtra,Dhule,"Deopur, Dhule - MPCB",11-10-2025 07:00:00,20.918946,74.776388,PM10,NA,NA,NA
India,Maharashtra,Jalgaon,"Prabhat Colony, Jalgaon - MPCB",11-10-2025 07:00:00,21.001264,75.565602,NO2,6,36,18
India,Maharashtra,Jalgaon,"Prabhat Colony, Jalgaon - MPCB",11-10-2025 07:00:00,21.001264,75.565602,SO2,5,13,8
India,Maharashtra,Jalgaon,"Prabhat Colony, Jalgaon - MPCB",11-10-2025 07:00:00,21.001264,75.565602,OZONE,13,60,19
India,Maharashtra,Jalna,"Old MIDC, Jalna - MPCB",11-10-2025 07:00:00,19.854616,75.905894,PM2.5,25,87,46
India,Maharashtra,Ahmednagar,"Tarakpur, Ahmednagar - MPCB",11-10-2025 07:00:00,19.10122,74.73339,OZONE,14,76,25
India,Maharashtra,Akola,"Ramdaspeth, Akola - MPCB",11-10-2025 07:00:00,20.719516,77.000253,SO2,8,13,11
India,Maharashtra,Akola,"Ramdaspeth, Akola - MPCB",11-10-2025 07:00:00,20.719516,77.000253,OZONE,8,58,14
India,Maharashtra,Amravati,"Shivneri Colony, Amravati - MPCB",11-10-2025 07:00:00,20.9402359,77.7895248,OZONE,5,69,12
India,Maharashtra,Amravati,"Shri Shivaji Science College, Amravati - MPCB",11-10-2025 07:00:00,20.939198,77.765701,PM10,102,143,119
India,Maharashtra,Amravati,"Shri Shivaji Science College, Amravati - MPCB",11-10-2025 07:00:00,20.939198,77.765701,CO,27,68,43
India,Maharashtra,Aurangabad,"MIDC Chilkalthana, Aurangabad - MPCB",11-10-2025 07:00:00,19.875620,75.387310,PM10,45,235,143
India,Maharashtra,Malegaon,"Mahesh Nagar, Malegaon - MPCB",11-10-2025 07:00:00,20.555712,74.529236,NO2,10,44,19
India,Maharashtra,Malegaon,"Mahesh Nagar, Malegaon - MPCB",11-10-2025 07:00:00,20.555712,74.529236,SO2,6,14,8
India,Maharashtra,Malegaon,"Mahesh Nagar, Malegaon - MPCB",11-10-2025 07:00:00,20.555712,74.529236,OZONE,14,54,18
India,Maharashtra,Mumbai,"Bandra Kurla Complex, Mumbai - IITM",11-10-2025 07:00:00,19.053536,72.84643,CO,10,71,34
India,Maharashtra,Mumbai,"Bandra Kurla Complex, Mumbai - MPCB",11-10-2025 07:00:00,19.065931,72.862131,PM2.5,80,192,132
India,Maharashtra,Mumbai,"Bandra Kurla Complex, Mumbai - MPCB",11-10-2025 07:00:00,19.065931,72.862131,SO2,3,5,4
India,Maharashtra,Mumbai,"Bandra Kurla Complex, Mumbai - MPCB",11-10-2025 07:00:00,19.065931,72.862131,CO,13,46,27
India,Maharashtra,Jalna,"Old MIDC, Jalna - MPCB",11-10-2025 07:00:00,19.854616,75.905894,PM10,87,139,105
India,Maharashtra,Kolhapur,"Shivaji University, Kolhapur - MPCB",11-10-2025 07:00:00,16.6870449,74.2505872,SO2,NA,NA,NA
India,Maharashtra,Kolhapur,"Sinchan Bhavan, Kolhapur - MPCB",11-10-2025 07:00:00,16.7143745,74.2426398,NO2,5,37,17
India,Maharashtra,Kolhapur,"Sinchan Bhavan, Kolhapur - MPCB",11-10-2025 07:00:00,16.7143745,74.2426398,OZONE,18,56,26
India,Maharashtra,Latur,"Sawe Wadi, Latur - MPCB",11-10-2025 07:00:00,18.39963,76.57452,NO2,6,47,13
India,Maharashtra,Mumbai,"Kandivali East, Mumbai - MPCB",11-10-2025 07:00:00,19.205800,72.868200,NH3,1,1,1
India,Maharashtra,Mumbai,"Kandivali West, Mumbai - BMC",11-10-2025 07:00:00,19.215859,72.831718,SO2,1,4,2
India,Maharashtra,Mumbai,"Kandivali West, Mumbai - BMC",11-10-2025 07:00:00,19.215859,72.831718,CO,12,33,23
India,Maharashtra,Mumbai,"Kherwadi_Bandra East, Mumbai - MPCB",11-10-2025 07:00:00,19.0632143,72.8456324,CO,18,43,35
India,Maharashtra,Mumbai,"Khindipada-Bhandup West, Mumbai - IITM",11-10-2025 07:00:00,19.1653323,72.922099,PM10,96,169,133
India,Maharashtra,Mumbai,"Deonar, Mumbai - IITM",11-10-2025 07:00:00,19.04946,72.9230,PM2.5,85,216,129
India,Maharashtra,Mumbai,"Deonar, Mumbai - IITM",11-10-2025 07:00:00,19.04946,72.9230,CO,3,103,57
India,Maharashtra,Mumbai,"Ghatkopar, Mumbai - BMC",11-10-2025 07:00:00,19.083694,72.920967,PM10,124,176,145
India,Maharashtra,Mumbai,"Ghatkopar, Mumbai - BMC",11-10-2025 07:00:00,19.083694,72.920967,OZONE,2,4,3
India,Maharashtra,Mumbai,"Kandivali East, Mumbai - MPCB",11-10-2025 07:00:00,19.205800,72.868200,PM2.5,76,253,163
India,Maharashtra,Mumbai,"Byculla, Mumbai - BMC",11-10-2025 07:00:00,18.9767,72.8380,NO2,26,97,57
India,Maharashtra,Mumbai,"Byculla, Mumbai - BMC",11-10-2025 07:00:00,18.9767,72.8380,OZONE,6,100,10
India,Maharashtra,Mumbai,"Chakala-Andheri East, Mumbai - IITM",11-10-2025 07:00:00,19.11074,72.86084,NH3,8,21,12
India,Maharashtra,Mumbai,"Chakala-Andheri East, Mumbai - IITM",11-10-2025 07:00:00,19.11074,72.86084,OZONE,1,80,6
India,Maharashtra,Mumbai,"Chembur, Mumbai - MPCB",11-10-2025 07:00:00,19.0364585,72.8954371,NO2,3,64,32
India,Maharashtra,Aurangabad,"Rachnakar Colony, Aurangabad - MPCB",11-10-2025 07:00:00,19.863756,75.321188,NH3,2,5,3
India,Maharashtra,Badlapur,"Katrap, Badlapur - MPCB",11-10-2025 07:00:00,19.16485,73.23409,NH3,3,8,5
India,Maharashtra,Belapur,"CBD Belapur, Belapur - MPCB",11-10-2025 07:00:00,19.0243902,73.0406721,CO,1,38,5
India,Maharashtra,Mumbai,"Borivali East, Mumbai - IITM",11-10-2025 07:00:00,19.23241,72.86895,PM2.5,56,202,102
India,Maharashtra,Mumbai,"Borivali East, Mumbai - MPCB",11-10-2025 07:00:00,19.2243333,72.8658113,CO,2,4,2
India,Maharashtra,Mumbai,"Shivaji Nagar, Mumbai - BMC",11-10-2025 07:00:00,19.060498,72.923356,PM2.5,NA,NA,NA
India,Maharashtra,Mumbai,"Shivaji Nagar, Mumbai - BMC",11-10-2025 07:00:00,19.060498,72.923356,CO,1,24,9
India,Maharashtra,Mumbai,"Siddharth Nagar-Worli, Mumbai - IITM",11-10-2025 07:00:00,19.000083,72.813993,NO2,44,91,63
India,Maharashtra,Mumbai,"Siddharth Nagar-Worli, Mumbai - IITM",11-10-2025 07:00:00,19.000083,72.813993,CO,11,80,62
India,Maharashtra,Mumbai,"Sion, Mumbai - MPCB",11-10-2025 07:00:00,19.047000,72.874600,SO2,9,10,10
India,Maharashtra,Mumbai,"Vasai West, Mumbai - MPCB",11-10-2025 07:00:00,19.383200,72.820400,NO2,22,33,28
India,Maharashtra,Mumbai,"Vasai West, Mumbai - MPCB",11-10-2025 07:00:00,19.383200,72.820400,OZONE,10,26,13
India,Maharashtra,Mumbai,"Vile Parle West, Mumbai - MPCB",11-10-2025 07:00:00,19.10861,72.83622,PM2.5,73,179,108
India,Maharashtra,Navi Mumbai,"Sector-2E Kalamboli, Navi Mumbai - MPCB",11-10-2025 07:00:00,19.02579,73.10297,OZONE,1,87,2
India,Maharashtra,Navi Mumbai,"Tondare-Taloja, Navi Mumbai - MPCB",11-10-2025 07:00:00,19.0630,73.1209,PM2.5,59,135,100
India,Maharashtra,Parbhani,"Masoom Colony, Parbhani - MPCB",11-10-2025 07:00:00,19.265594,76.761463,NO2,2,3,2
India,Maharashtra,Parbhani,"Masoom Colony, Parbhani - MPCB",11-10-2025 07:00:00,19.265594,76.761463,OZONE,NA,NA,NA
India,Maharashtra,Pimpri-Chinchwad,"Gavalinagar, Pimpri Chinchwad - MPCB",11-10-2025 07:00:00,18.63673,73.82487,NH3,7,9,7
India,Maharashtra,Nashik,"Pandav Nagari, Nashik - MPCB",11-10-2025 07:00:00,19.9591346,73.7788008,CO,14,35,23
India,Maharashtra,Navi Mumbai,"Kopripada-Vashi, Navi Mumbai - MPCB",11-10-2025 07:00:00,19.090337,73.014232,PM10,NA,NA,NA
India,Maharashtra,Navi Mumbai,"Mahape, Navi Mumbai - MPCB",11-10-2025 07:00:00,19.1135051,73.008978,NH3,3,3,3
India,Maharashtra,Navi Mumbai,"Nerul, Navi Mumbai - MPCB",11-10-2025 07:00:00,19.008751,73.016620,PM10,NA,NA,NA
India,Maharashtra,Navi Mumbai,"Sector-2E Kalamboli, Navi Mumbai - MPCB",11-10-2025 07:00:00,19.02579,73.10297,PM10,124,202,158
India,Maharashtra,Nanded,"Sneh Nagar, Nanded - MPCB",11-10-2025 07:00:00,19.173852,77.296291,PM2.5,66,99,79
India,Maharashtra,Nashik,"Gangapur Road, Nashik - MPCB",11-10-2025 07:00:00,20.0073285,73.7762427,PM2.5,79,173,110
India,Maharashtra,Nashik,"Gangapur Road, Nashik - MPCB",11-10-2025 07:00:00,20.0073285,73.7762427,OZONE,11,16,15
India,Maharashtra,Nashik,"Hirawadi, Nashik - MPCB",11-10-2025 07:00:00,20.021503,73.813844,PM2.5,35,186,106
India,Maharashtra,Nashik,"Hirawadi, Nashik - MPCB",11-10-2025 07:00:00,20.021503,73.813844,NH3,1,2,1
India,Maharashtra,Nashik,"MIDC Ambad, Nashik - MPCB",11-10-2025 07:00:00,19.950220,73.731480,CO,13,17,15
India,Maharashtra,Pimpri-Chinchwad,"Park Street Wakad, Pimpri Chinchwad - MPCB",11-10-2025 07:00:00,18.59051,73.77946,PM2.5,137,261,181
India,Maharashtra,Pimpri-Chinchwad,"Savta Mali Nagar, Pimpri-Chinchwad - IITM",11-10-2025 07:00:00,18.614767,73.799516,CO,12,76,65
India,Maharashtra,Pimpri-Chinchwad,"Thergaon, Pimpri Chinchwad - MPCB",11-10-2025 07:00:00,18.616318,73.765797,PM2.5,127,228,160
India,Maharashtra,Pimpri-Chinchwad,"Thergaon, Pimpri Chinchwad - MPCB",11-10-2025 07:00:00,18.616318,73.765797,NH3,2,9,3
India,Maharashtra,Mumbai,"Mindspace-Malad West, Mumbai - MPCB",11-10-2025 07:00:00,19.1878657,72.8304069,CO,40,41,40
India,Maharashtra,Mumbai,"Navy Nagar-Colaba, Mumbai - IITM",11-10-2025 07:00:00,18.897756,72.813320,PM2.5,130,229,189
India,Maharashtra,Mumbai,"Powai, Mumbai - MPCB",11-10-2025 07:00:00,19.137500,72.915056,NH3,2,2,2
India,Maharashtra,Mumbai,"Sewri, Mumbai - BMC",11-10-2025 07:00:00,19.000084,72.856730,PM10,NA,NA,NA
India,Maharashtra,Mumbai,"Worli, Mumbai - MPCB",11-10-2025 07:00:00,18.9936162,72.8128113,PM10,NA,NA,NA
India,Maharashtra,Nagpur,"Ambazari, Nagpur - MPCB",11-10-2025 07:00:00,21.121801,79.04952,CO,12,29,15
India,Maharashtra,Nagpur,"Mahal, Nagpur - MPCB",11-10-2025 07:00:00,21.14472,79.107595,OZONE,18,47,40
India,Maharashtra,Nagpur,"Opp GPO Civil Lines, Nagpur - MPCB",11-10-2025 07:00:00,21.152875,79.0517531,NO2,9,30,16
India,Maharashtra,Pune,"Bhumkar Nagar, Pune - IITM",11-10-2025 07:00:00,18.605770,73.749976,PM10,15,242,144
India,Maharashtra,Pune,"Bhumkar Nagar, Pune - IITM",11-10-2025 07:00:00,18.605770,73.749976,NO2,7,43,18
India,Maharashtra,Pune,"Bhumkar Nagar, Pune - IITM",11-10-2025 07:00:00,18.605770,73.749976,OZONE,3,54,18
India,Maharashtra,Pune,"Hadapsar, Pune - IITM",11-10-2025 07:00:00,18.501793,73.927532,NO2,15,42,21
India,Maharashtra,Mumbai,"Mazgaon, Mumbai - IITM",11-10-2025 07:00:00,18.96702,72.84214,CO,1,57,21
India,Maharashtra,Mumbai,"Mazgaon, Mumbai - IITM",11-10-2025 07:00:00,18.96702,72.84214,OZONE,7,83,18
India,Maharashtra,Mumbai,"Mindspace-Malad West, Mumbai - MPCB",11-10-2025 07:00:00,19.1878657,72.8304069,PM10,47,102,85
India,Maharashtra,Pune,"Katraj Dairy, Pune - MPCB",11-10-2025 07:00:00,18.454450,73.854155,OZONE,NA,NA,NA
India,Maharashtra,Pune,"Mhada Colony, Pune - IITM",11-10-2025 07:00:00,18.573040,73.927715,PM10,NA,NA,NA
India,Maharashtra,Pune,"Mhada Colony, Pune - IITM",11-10-2025 07:00:00,18.573040,73.927715,NO2,36,81,55
India,Maharashtra,Pune,"Panchawati_Pashan, Pune - IITM",11-10-2025 07:00:00,18.536457,73.805454,OZONE,3,192,12
India,Maharashtra,Pune,"Transport Nagar-Nigdi, Pune - IITM",11-10-2025 07:00:00,18.664282,73.763966,NO2,25,49,33
India,Maharashtra,Pune,"Transport Nagar-Nigdi, Pune - IITM",11-10-2025 07:00:00,18.664282,73.763966,OZONE,8,56,19
India,Maharashtra,Sangli,"Vijay Nagar, Sangli - MPCB",11-10-2025 07:00:00, 16.5038,74.3623,NH3,1,4,3
India,Maharashtra,Sangli,"Vijay Nagar, Sangli - MPCB",11-10-2025 07:00:00, 16.5038,74.3623,OZONE,11,24,14
India,Odisha,Angul,"Hakimapada, Angul - OSPCB",11-10-2025 07:00:00,20.832874,85.104082,NH3,1,4,3
India,Odisha,Balasore,"Kalidaspur, Balasore - OSPCB",11-10-2025 07:00:00,21.51161,86.89088,SO2,4,8,6
India,Odisha,Barbil,"Forest Office, Barbil - OSPCB",11-10-2025 07:00:00,22.1166054,85.3945546,NO2,14,34,24
India,Odisha,Baripada,"Meher Colony, Baripada - OSPCB",11-10-2025 07:00:00,21.941841,86.728318,PM2.5,56,91,73
India,Odisha,Baripada,"Meher Colony, Baripada - OSPCB",11-10-2025 07:00:00,21.941841,86.728318,NO2,5,34,16
India,Odisha,Baripada,"Meher Colony, Baripada - OSPCB",11-10-2025 07:00:00,21.941841,86.728318,CO,36,60,43
India,Odisha,Bhubaneswar,"Lingraj Mandir, Bhubaneswar - OSPCB",11-10-2025 07:00:00,20.240790,85.836784,NO2,7,47,20
India,Meghalaya,Shillong,"JN Stadium, Shillong - Meghalaya PCB",11-10-2025 07:00:00,25.5803419,91.8942571,PM2.5,NA,NA,NA
India,Meghalaya,Shillong,"JN Stadium, Shillong - Meghalaya PCB",11-10-2025 07:00:00,25.5803419,91.8942571,CO,10,60,24
India,Meghalaya,Shillong,"Lumpyngngad, Shillong - Meghalaya PCB",11-10-2025 07:00:00,25.5586,91.8985,PM2.5,1,16,6
India,Nagaland,Kohima,"PWD Junction, Kohima - NPCB",11-10-2025 07:00:00,25.6635413,94.0989878,PM2.5,1,65,21
India,Nagaland,Kohima,"PWD Junction, Kohima - NPCB",11-10-2025 07:00:00,25.6635413,94.0989878,NO2,3,4,3
India,Nagaland,Kohima,"PWD Junction, Kohima - NPCB",11-10-2025 07:00:00,25.6635413,94.0989878,SO2,69,72,70
India,Odisha,Bhubaneswar,"Lingraj Mandir, Bhubaneswar - OSPCB",11-10-2025 07:00:00,20.240790,85.836784,SO2,5,23,10
India,Odisha,Bhubaneswar,"Lingraj Mandir, Bhubaneswar - OSPCB",11-10-2025 07:00:00,20.240790,85.836784,CO,32,74,48
India,Odisha,Bhubaneswar,"Lingraj Mandir, Bhubaneswar - OSPCB",11-10-2025 07:00:00,20.240790,85.836784,OZONE,20,79,31
India,Odisha,Bhubaneswar,"Patia, Bhubaneswar - OSPCB",11-10-2025 07:00:00,20.34652,85.81630,PM2.5,17,33,26
India,Odisha,Bhubaneswar,"Patia, Bhubaneswar - OSPCB",11-10-2025 07:00:00,20.34652,85.81630,NH3,8,18,13
India,Odisha,Bileipada,"Tata Township, Bileipada - OSPCB",11-10-2025 07:00:00,22.06156703,85.47409613,SO2,38,114,65
India,Maharashtra,Solapur,"Dnyaneshwar Nagar, Solapur - MPCB",11-10-2025 07:00:00,17.6336264,75.9132495,NO2,6,63,17
India,Maharashtra,Solapur,"Dnyaneshwar Nagar, Solapur - MPCB",11-10-2025 07:00:00,17.6336264,75.9132495,NH3,6,22,10
India,Maharashtra,Solapur,"Dnyaneshwar Nagar, Solapur - MPCB",11-10-2025 07:00:00,17.6336264,75.9132495,SO2,1,4,2
India,Maharashtra,Solapur,"Ratandeep Housing Society, Solapur - MPCB",11-10-2025 07:00:00,17.65439,75.90649,NH3,2,19,5
India,Maharashtra,Thane,"Upvan Fort, Thane - MPCB",11-10-2025 07:00:00,19.222279,72.957979,NO2,8,40,22
India,Odisha,Brajrajnagar,"GM Office, Brajrajnagar - OSPCB",11-10-2025 07:00:00,21.8004996,83.8396977,NO2,13,22,18
India,Odisha,Brajrajnagar,"GM Office, Brajrajnagar - OSPCB",11-10-2025 07:00:00,21.8004996,83.8396977,CO,15,30,26
India,Odisha,Cuttack,"CDA Area, Cuttack - OSPCB",11-10-2025 07:00:00,20.48891     ,85.84768     ,OZONE,22,54,26
India,Odisha,Keonjhar,"Jagamohanpur, Keonjhar - OSPCB",11-10-2025 07:00:00,21.643900,85.599355,NO2,18,30,24
India,Punjab,Bathinda,"Hardev Nagar, Bathinda - PPCB",11-10-2025 07:00:00,30.233011,74.907758,SO2,1,22,9
India,Punjab,Khanna,"Kalal Majra, Khanna - PPCB",11-10-2025 07:00:00,30.736056 ,76.209694,PM10,66,105,85
India,Punjab,Khanna,"Kalal Majra, Khanna - PPCB",11-10-2025 07:00:00,30.736056 ,76.209694,CO,58,82,73
India,Odisha,Rourkela,"Raghunathpali, Rourkela - OSPCB",11-10-2025 07:00:00,22.220833,84.809444,PM10,38,119,66
India,Odisha,Talcher,"Talcher Coalfields,Talcher - OSPCB",11-10-2025 07:00:00,20.9360711,85.1707021,NO2,35,68,55
India,Puducherry,Puducherry,"Jawahar Nagar, Puducherry - PPCC",11-10-2025 07:00:00,11.9309,79.8027,PM2.5,14,48,28
India,Rajasthan,Jaipur,"Adarsh Nagar, Jaipur - RSPCB",11-10-2025 07:00:00,26.902909,75.836858,NO2,34,106,66
India,Rajasthan,Jaipur,"Adarsh Nagar, Jaipur - RSPCB",11-10-2025 07:00:00,26.902909,75.836858,NH3,10,25,16
India,Rajasthan,Jaipur,"Adarsh Nagar, Jaipur - RSPCB",11-10-2025 07:00:00,26.902909,75.836858,SO2,9,23,19
India,Rajasthan,Jaipur,"Mansarovar Sector-12, Jaipur - RSPCB",11-10-2025 07:00:00,26.843698,75.766894,NO2,7,105,46
India,Rajasthan,Jaipur,"Police Commissionerate, Jaipur - RSPCB",11-10-2025 07:00:00,26.9164092,75.7994901,PM2.5,87,239,166
India,Rajasthan,Jaipur,"RIICO Sitapura, Jaipur - RSPCB",11-10-2025 07:00:00,26.786682,75.827928,PM2.5,92,450,208
India,Rajasthan,Jaipur,"RIICO Sitapura, Jaipur - RSPCB",11-10-2025 07:00:00,26.786682,75.827928,PM10,117,440,209
India,Rajasthan,Jaipur,"RIICO Sitapura, Jaipur - RSPCB",11-10-2025 07:00:00,26.786682,75.827928,NO2,13,122,45
India,Rajasthan,Jaipur,"RIICO Sitapura, Jaipur - RSPCB",11-10-2025 07:00:00,26.786682,75.827928,NH3,3,5,4
India,Rajasthan,Jaipur,"RIICO Sitapura, Jaipur - RSPCB",11-10-2025 07:00:00,26.786682,75.827928,SO2,4,6,5
India,Rajasthan,Jaipur,"RIICO Sitapura, Jaipur - RSPCB",11-10-2025 07:00:00,26.786682,75.827928,CO,12,105,34
India,Rajasthan,Jaipur,"Sector-2 Murlipura, Jaipur - RSPCB",11-10-2025 07:00:00,26.960669,75.771817,PM10,103,180,149
India,Rajasthan,Jaipur,"Sector-2 Murlipura, Jaipur - RSPCB",11-10-2025 07:00:00,26.960669,75.771817,NH3,3,18,8
India,Rajasthan,Jaipur,"Shastri Nagar, Jaipur - RSPCB",11-10-2025 07:00:00,26.9502929,75.730943,NO2,52,102,67
India,Rajasthan,Jaisalmer,"Sadar Bazar, Jaisalmer - RSPCB",11-10-2025 07:00:00,26.912329,70.909168,PM2.5,48,113,75
India,Rajasthan,Jaisalmer,"Sadar Bazar, Jaisalmer - RSPCB",11-10-2025 07:00:00,26.912329,70.909168,OZONE,25,86,52
India,Rajasthan,Jalore,"Mudtra Sili, Jalore - RSPCB",11-10-2025 07:00:00,25.344694,72.626208,NH3,NA,NA,NA
India,Rajasthan,Jalore,"Mudtra Sili, Jalore - RSPCB",11-10-2025 07:00:00,25.344694,72.626208,CO,16,119,31
India,Rajasthan,Jalore,"Mudtra Sili, Jalore - RSPCB",11-10-2025 07:00:00,25.344694,72.626208,OZONE,3,85,21
India,Rajasthan,Jhalawar,"Rajlaxmi Nagar, Jhalawar - RSPCB",11-10-2025 07:00:00,24.588397,76.172782,OZONE,8,101,19
India,Rajasthan,Jhunjhunu,"Indra Nagar, Jhunjhunu - RSPCB",11-10-2025 07:00:00,28.108988,75.386577,PM2.5,70,190,118
India,Rajasthan,Jhunjhunu,"Indra Nagar, Jhunjhunu - RSPCB",11-10-2025 07:00:00,28.108988,75.386577,NH3,3,11,8
India,Rajasthan,Jhunjhunu,"Indra Nagar, Jhunjhunu - RSPCB",11-10-2025 07:00:00,28.108988,75.386577,OZONE,8,95,27
India,Rajasthan,Jodhpur,"Collectorate, Jodhpur - RSPCB",11-10-2025 07:00:00,26.268249,73.0193853,OZONE,9,20,15
India,Rajasthan,Jodhpur,"Digari Kalan, Jodhpur - RSPCB",11-10-2025 07:00:00,26.295810,73.082283,NH3,3,6,4
India,Rajasthan,Jodhpur,"Jhalamand, Jodhpur - RSPCB",11-10-2025 07:00:00,26.215415,73.070156,OZONE,4,108,11
India,Rajasthan,Jodhpur,"Mandor, Jodhpur - RSPCB",11-10-2025 07:00:00,26.358805,73.047444,OZONE,9,131,25
India,Rajasthan,Jodhpur,"Samrat Ashok Udhyan, Jodhpur - RSPCB",11-10-2025 07:00:00,26.253384,72.976571,NO2,2,141,52
India,Rajasthan,Jodhpur,"Samrat Ashok Udhyan, Jodhpur - RSPCB",11-10-2025 07:00:00,26.253384,72.976571,CO,21,50,39
India,Rajasthan,Dausa,"Khatikan Mohalla, Dausa - RSPCB",11-10-2025 07:00:00,26.895552,76.334753,SO2,NA,NA,NA
India,Rajasthan,Dausa,"Khatikan Mohalla, Dausa - RSPCB",11-10-2025 07:00:00,26.895552,76.334753,OZONE,14,70,28
India,Rajasthan,Dholpur,"Raja Ganj, Dholpur - RSPCB",11-10-2025 07:00:00,26.699557,77.898881,OZONE,1,60,10
India,Rajasthan,Dungarpur,"Bhoiwada, Dungarpur - RSPCB",11-10-2025 07:00:00,23.837789,73.714926,NO2,NA,NA,NA
India,Rajasthan,Dungarpur,"Bhoiwada, Dungarpur - RSPCB",11-10-2025 07:00:00,23.837789,73.714926,SO2,NA,NA,NA
India,Rajasthan,Hanumangarh,"Housing Board, Hanumangarh - RSPCB",11-10-2025 07:00:00,29.610750,74.283608,NO2,5,72,27
India,Rajasthan,Alwar,"Moti Doongri, Alwar - RSPCB",11-10-2025 07:00:00,27.554793,76.611536,NH3,7,10,9
India,Rajasthan,Banswara,"Rati Talai, Banswara - RSPCB",11-10-2025 07:00:00,23.555190,74.440010,PM10,99,184,140
India,Rajasthan,Banswara,"Rati Talai, Banswara - RSPCB",11-10-2025 07:00:00,23.555190,74.440010,CO,8,78,40
India,Rajasthan,Banswara,"Rati Talai, Banswara - RSPCB",11-10-2025 07:00:00,23.555190,74.440010,OZONE,4,69,25
India,Rajasthan,Barmer,"Railway Colony, Barmer - RSPCB",11-10-2025 07:00:00,25.747299,71.393989,PM2.5,50,90,63
India,Punjab,Mandi Gobindgarh,"RIMT University, Mandi Gobindgarh - PPCB",11-10-2025 07:00:00,30.649961,76.331442,NO2,23,25,24
India,Punjab,Mandi Gobindgarh,"RIMT University, Mandi Gobindgarh - PPCB",11-10-2025 07:00:00,30.649961,76.331442,NH3,6,6,6
India,Punjab,Mandi Gobindgarh,"RIMT University, Mandi Gobindgarh - PPCB",11-10-2025 07:00:00,30.649961,76.331442,SO2,13,29,16
India,Punjab,Mandi Gobindgarh,"RIMT University, Mandi Gobindgarh - PPCB",11-10-2025 07:00:00,30.649961,76.331442,CO,9,118,54
India,Punjab,Patiala,"Model Town, Patiala - PPCB",11-10-2025 07:00:00,30.349388,76.366642,PM2.5,35,56,46
India,Rajasthan,Bikaner,"MM Ground, Bikaner - RSPCB",11-10-2025 07:00:00,28.018792,73.292658,NO2,8,114,37
India,Rajasthan,Bikaner,"MM Ground, Bikaner - RSPCB",11-10-2025 07:00:00,28.018792,73.292658,SO2,3,9,5
India,Rajasthan,Chittorgarh,"Shastri Nagar, Chittorgarh - RSPCB",11-10-2025 07:00:00,24.892047,74.623527,PM2.5,17,67,45
India,Rajasthan,Chittorgarh,"Shastri Nagar, Chittorgarh - RSPCB",11-10-2025 07:00:00,24.892047,74.623527,SO2,5,65,14
India,Rajasthan,Kota,"Nayapura, Kota - RSPCB",11-10-2025 07:00:00,25.196024,75.855668,OZONE,5,130,15
India,Rajasthan,Kota,"Shrinath Puram, Kota - RSPCB",11-10-2025 07:00:00,25.14389,75.821256,NO2,13,16,15
India,Rajasthan,Kota,"Shrinath Puram, Kota - RSPCB",11-10-2025 07:00:00,25.14389,75.821256,NH3,1,6,2
India,Rajasthan,Kota,"Shrinath Puram, Kota - RSPCB",11-10-2025 07:00:00,25.14389,75.821256,SO2,3,8,6
India,Rajasthan,Bharatpur,"Krishna Nagar, Bharatpur - RSPCB",11-10-2025 07:00:00,27.215415,77.50873,NH3,4,5,5
India,Rajasthan,Bhiwadi,"RIICO Ind. Area III, Bhiwadi - RSPCB",11-10-2025 07:00:00,28.194909,76.862296,NH3,7,14,11
India,Rajasthan,Bhiwadi,"RIICO Ind. Area III, Bhiwadi - RSPCB",11-10-2025 07:00:00,28.194909,76.862296,OZONE,8,53,10
India,Rajasthan,Nagaur,"Karni Colony, Nagaur - RSPCB",11-10-2025 07:00:00,27.213494,73.734444,PM2.5,55,123,74
India,Rajasthan,Nagaur,"Karni Colony, Nagaur - RSPCB",11-10-2025 07:00:00,27.213494,73.734444,SO2,2,5,4
India,Rajasthan,Nagaur,"Karni Colony, Nagaur - RSPCB",11-10-2025 07:00:00,27.213494,73.734444,OZONE,11,83,23
India,Rajasthan,Pali,"Indira Colony Vistar, Pali - RSPCB",11-10-2025 07:00:00,25.771061, 73.340227,PM10,129,198,168
India,Rajasthan,Pratapgarh,"Pragati Nagar, Pratapgarh - RSPCB",11-10-2025 07:00:00,24.041198,74.780702,PM10,68,114,88
India,Rajasthan,Rajsamand,"Dhoinda, Rajsamand - RSPCB",11-10-2025 07:00:00,25.036360,73.883502,NH3,5,16,10
India,Rajasthan,Sawai Madhopur,"Sahu Nagar, Sawai Madhopur - RSPCB",11-10-2025 07:00:00,26.031443,76.359327,PM2.5,18,158,49
India,TamilNadu,Coimbatore,"SIDCO Kurichi, Coimbatore - TNPCB",11-10-2025 07:00:00,10.942451,76.978996,SO2,20,22,21
India,TamilNadu,Coimbatore,"SIDCO Kurichi, Coimbatore - TNPCB",11-10-2025 07:00:00,10.942451,76.978996,OZONE,1,15,8
India,TamilNadu,Cuddalore,"Kudikadu, Cuddalore - TNPCB",11-10-2025 07:00:00,11.6829898,79.7532099,OZONE,6,12,12
India,TamilNadu,Cuddalore,"Semmandalam, Cuddalore - TNPCB",11-10-2025 07:00:00,11.7637683,79.7499835,OZONE,1,2,2
India,TamilNadu,Dindigul,"Mendonsa Colony, Dindigul - TNPCB",11-10-2025 07:00:00,10.358535,77.984321,NO2,7,13,9
India,TamilNadu,Dindigul,"Mendonsa Colony, Dindigul - TNPCB",11-10-2025 07:00:00,10.358535,77.984321,CO,9,16,12
India,TamilNadu,Gummidipoondi,"Anthoni Pillai Nagar, Gummidipoondi - TNPCB",11-10-2025 07:00:00,13.4127,80.1081,NH3,2,5,3
India,TamilNadu,Nagapattinam,"Velippalayam, Nagapattinam - TNPCB",11-10-2025 07:00:00,10.798548,79.838212,PM2.5,12,53,30
India,TamilNadu,Nagapattinam,"Velippalayam, Nagapattinam - TNPCB",11-10-2025 07:00:00,10.798548,79.838212,OZONE,12,42,31
India,TamilNadu,Namakkal,"Ponnusamy Nagar, Namakkal - TNPCB",11-10-2025 07:00:00,11.273992,78.163545,OZONE,8,24,19
India,TamilNadu,Ooty,"Bombay Castel, Ooty - TNPCB",11-10-2025 07:00:00,11.4068288,76.7138973,PM10,15,139,41
India,TamilNadu,Ooty,"Bombay Castel, Ooty - TNPCB",11-10-2025 07:00:00,11.4068288,76.7138973,NO2,2,5,3
India,TamilNadu,Palkalaiperur,"Bharathidasan University, Palkalaiperur - TNPCB",11-10-2025 07:00:00,10.681158,78.741746,NO2,7,7,7
India,TamilNadu,Palkalaiperur,"Bharathidasan University, Palkalaiperur - TNPCB",11-10-2025 07:00:00,10.681158,78.741746,NH3,1,1,1
India,Rajasthan,Sawai Madhopur,"Sahu Nagar, Sawai Madhopur - RSPCB",11-10-2025 07:00:00,26.031443,76.359327,CO,40,106,50
India,Rajasthan,Sikar,"Radhakishan Pura, Sikar - RSPCB",11-10-2025 07:00:00,27.608912,75.153302,PM10,104,296,158
India,Rajasthan,Sikar,"Radhakishan Pura, Sikar - RSPCB",11-10-2025 07:00:00,27.608912,75.153302,NO2,9,70,31
India,Rajasthan,Sirohi,"Vedhaynath Colony, Sirohi - RSPCB",11-10-2025 07:00:00,24.885261,72.857549,OZONE,17,82,43
India,Rajasthan,Sri Ganganagar,"Old City, Sri Ganganagar - RSPCB",11-10-2025 07:00:00,29.931624,73.864511,NH3,3,4,3
India,Rajasthan,Sri Ganganagar,"Old City, Sri Ganganagar - RSPCB",11-10-2025 07:00:00,29.931624,73.864511,SO2,2,17,12
India,TamilNadu,Chennai,"Perungudi, Chennai - TNPCB",11-10-2025 07:00:00,12.9533,80.2357,NH3,5,9,6
India,TamilNadu,Chennai,"Perungudi, Chennai - TNPCB",11-10-2025 07:00:00,12.9533,80.2357,OZONE,2,38,3
India,TamilNadu,Chennai,"Velachery Res. Area, Chennai - CPCB",11-10-2025 07:00:00,13.0052189,80.2398125,NH3,3,4,3
India,TamilNadu,Coimbatore,"PSG College of Arts and Science, Coimbatore - TNPCB",11-10-2025 07:00:00,11.0328,77.0349,PM10,11,69,35
India,TamilNadu,Coimbatore,"PSG College of Arts and Science, Coimbatore - TNPCB",11-10-2025 07:00:00,11.0328,77.0349,SO2,9,43,11
India,TamilNadu,Coimbatore,"SIDCO Kurichi, Coimbatore - TNPCB",11-10-2025 07:00:00,10.942451,76.978996,NH3,NA,NA,NA
India,TamilNadu,Hosur,"SIPCOT Phase-1, Hosur - TNPCB",11-10-2025 07:00:00,12.746998,77.813811,NO2,1,2,2
India,TamilNadu,Kanchipuram,"Kilambi, Kanchipuram - TNPCB",11-10-2025 07:00:00,12.864618,79.659968,CO,19,21,20
India,TamilNadu,Karur,"Kamadenu Nagar, Karur - TNPCB",11-10-2025 07:00:00,10.967820,78.080882,SO2,14,16,15
India,TamilNadu,Karur,"Kamadenu Nagar, Karur - TNPCB",11-10-2025 07:00:00,10.967820,78.080882,CO,6,30,6
India,Rajasthan,Udaipur,"Ashok Nagar, Udaipur - RSPCB",11-10-2025 07:00:00,24.5886166,73.6321397,PM2.5,50,214,112
India,Rajasthan,Udaipur,"Ashok Nagar, Udaipur - RSPCB",11-10-2025 07:00:00,24.5886166,73.6321397,NH3,2,6,5
India,Rajasthan,Udaipur,"Ashok Nagar, Udaipur - RSPCB",11-10-2025 07:00:00,24.5886166,73.6321397,OZONE,2,68,5
India,TamilNadu,Chengalpattu,"Crescent University, Chengalpattu - TNPCB",11-10-2025 07:00:00,12.8777316,80.0834807,PM10,38,94,59
India,TamilNadu,Chennai,"Arumbakkam, Chennai - TNPCB",11-10-2025 07:00:00,13.0664,80.2112 ,SO2,1,4,2
India,TamilNadu,Chennai,"Manali Village, Chennai - TNPCB",11-10-2025 07:00:00,13.1662,80.2584,PM10,NA,NA,NA
India,TamilNadu,Chennai,"Manali Village, Chennai - TNPCB",11-10-2025 07:00:00,13.1662,80.2584,OZONE,32,63,56
India,TamilNadu,Chennai,"Manali, Chennai - CPCB",11-10-2025 07:00:00,13.164544,80.26285,NO2,NA,NA,NA
India,Rajasthan,Tonk,"Shastri Nagar, Tonk - RSPCB",11-10-2025 07:00:00,26.159933,75.780517,OZONE,2,50,6
India,TamilNadu,Salem,"Sona College of Technology, Salem - TNPCB",11-10-2025 07:00:00,11.679111,78.125052,NH3,NA,NA,NA
India,TamilNadu,Thanjavur,"Parisutham Nagar, Thanjavur - TNPCB",11-10-2025 07:00:00,10.7654824,79.1389968,PM2.5,NA,NA,NA
India,TamilNadu,Thoothukudi,"Meelavittan, Thoothukudi - TNPCB",11-10-2025 07:00:00,8.816428 ,78.099039,PM10,22,96,47
India,TamilNadu,Thoothukudi,"Meelavittan, Thoothukudi - TNPCB",11-10-2025 07:00:00,8.816428 ,78.099039,NO2,6,21,15
India,TamilNadu,Tiruchirappalli,"St Joseph College, Tiruchirappalli - TNPCB",11-10-2025 07:00:00,10.830158,78.691849,PM2.5,13,53,29
India,TamilNadu,Tiruchirappalli,"St Joseph College, Tiruchirappalli - TNPCB",11-10-2025 07:00:00,10.830158,78.691849,PM10,15,69,36
India,TamilNadu,Tiruchirappalli,"St Joseph College, Tiruchirappalli - TNPCB",11-10-2025 07:00:00,10.830158,78.691849,NO2,3,10,6
India,TamilNadu,Tiruchirappalli,"St Joseph College, Tiruchirappalli - TNPCB",11-10-2025 07:00:00,10.830158,78.691849,OZONE,9,36,16
India,TamilNadu,Tirunelveli,"Municipal Corporation Office, Tirunelveli - TNPCB",11-10-2025 07:00:00,8.728442,77.6962,NO2,5,15,8
India,Telangana,Hyderabad,"IDA Pashamylaram, Hyderabad - TSPCB",11-10-2025 07:00:00,17.5316895,78.218939,SO2,3,14,7
India,Telangana,Hyderabad,"IDA Pashamylaram, Hyderabad - TSPCB",11-10-2025 07:00:00,17.5316895,78.218939,CO,10,56,51
India,Telangana,Hyderabad,"Kokapet, Hyderabad - TSPCB",11-10-2025 07:00:00,17.393559,78.339194,NO2,12,15,14
India,Telangana,Hyderabad,"Kokapet, Hyderabad - TSPCB",11-10-2025 07:00:00,17.393559,78.339194,CO,18,31,21
India,Telangana,Hyderabad,"Kokapet, Hyderabad - TSPCB",11-10-2025 07:00:00,17.393559,78.339194,OZONE,21,32,24
India,Telangana,Hyderabad,"Kompally Municipal Office, Hyderabad - TSPCB",11-10-2025 07:00:00,17.544899,78.486949,OZONE,26,39,38
India,Telangana,Hyderabad,"Nacharam_TSIIC IALA, Hyderabad - TSPCB",11-10-2025 07:00:00,17.429398,78.569354,PM10,64,150,87
India,Telangana,Hyderabad,"Nacharam_TSIIC IALA, Hyderabad - TSPCB",11-10-2025 07:00:00,17.429398,78.569354,OZONE,16,33,19
India,Telangana,Hyderabad,"New Malakpet, Hyderabad - TSPCB",11-10-2025 07:00:00,17.37206,78.50864,PM2.5,NA,NA,NA
India,Telangana,Hyderabad,"Ramachandrapuram, Hyderabad - TSPCB",11-10-2025 07:00:00,17.528544,78.286195,NO2,9,13,9
India,Telangana,Hyderabad,"Ramachandrapuram, Hyderabad - TSPCB",11-10-2025 07:00:00,17.528544,78.286195,NH3,3,5,3
India,Telangana,Hyderabad,"Sanathnagar, Hyderabad - TSPCB",11-10-2025 07:00:00,17.4559458,78.4332152,CO,2,16,9
India,Telangana,Hyderabad,"Somajiguda, Hyderabad - TSPCB",11-10-2025 07:00:00,17.417094,78.457437,PM10,113,145,126
India,Telangana,Hyderabad,"Zoo Park, Hyderabad - TSPCB",11-10-2025 07:00:00,17.349694,78.451437,PM2.5,145,185,164
India,Telangana,Hyderabad,"Zoo Park, Hyderabad - TSPCB",11-10-2025 07:00:00,17.349694,78.451437,SO2,3,5,4
India,Tripura,Agartala,"Bardowali, Agartala - Tripura SPCB",11-10-2025 07:00:00,23.8175497,91.2726974,PM10,20,38,30
India,Telangana,Hyderabad,"Bollaram Industrial Area, Hyderabad - TSPCB",11-10-2025 07:00:00,17.540891,78.358528,PM2.5,50,128,73
India,Telangana,Hyderabad,"Bollaram Industrial Area, Hyderabad - TSPCB",11-10-2025 07:00:00,17.540891,78.358528,SO2,5,9,8
India,Telangana,Hyderabad,"Central University, Hyderabad - TSPCB",11-10-2025 07:00:00,17.460103,78.334361,NO2,24,61,42
India,Telangana,Hyderabad,"ECIL Kapra, Hyderabad - TSPCB",11-10-2025 07:00:00,17.470431,78.566959,NO2,17,35,25
India,Telangana,Hyderabad,"ICRISAT Patancheru, Hyderabad - TSPCB",11-10-2025 07:00:00,17.518400,78.278777,NO2,4,14,9
India,TamilNadu,Perundurai,"SIPCOT Industrial Park, Perundurai - TNPCB",11-10-2025 07:00:00,11.258242,77.552761,NH3,2,3,3
India,TamilNadu,Pudukottai,"SIPCOT Nathampannai, Pudukottai - TNPCB",11-10-2025 07:00:00,10.423417,78.784889,PM2.5,21,58,37
India,TamilNadu,Ramanathapuram,"Chalai Bazaar, Ramanathapuram - TNPCB",11-10-2025 07:00:00,9.36399,78.831977,NH3,2,2,2
India,TamilNadu,Ranipet,"VOC Nagar_SIPCOT, Ranipet - TNPCB",11-10-2025 07:00:00,12.952707,79.30394,CO,18,20,20
India,Tripura,Agartala,"Bardowali, Agartala - Tripura SPCB",11-10-2025 07:00:00,23.8175497,91.2726974,CO,NA,NA,NA
India,Tripura,Agartala,"Bardowali, Agartala - Tripura SPCB",11-10-2025 07:00:00,23.8175497,91.2726974,OZONE,1,4,1
India,Uttar_Pradesh,Agra,"Manoharpur, Agra - UPPCB",11-10-2025 07:00:00,27.23711,78.01936,PM10,67,114,89
India,Uttar_Pradesh,Agra,"Manoharpur, Agra - UPPCB",11-10-2025 07:00:00,27.23711,78.01936,NO2,17,19,17
India,Uttar_Pradesh,Agra,"Rohta, Agra - UPPCB",11-10-2025 07:00:00,27.106972,78.000111,SO2,12,26,21
India,Uttar_Pradesh,Bulandshahr,"Yamunapuram, Bulandshahr - UPPCB",11-10-2025 07:00:00,28.406963,77.849831,PM2.5,80,318,196
India,Uttar_Pradesh,Bulandshahr,"Yamunapuram, Bulandshahr - UPPCB",11-10-2025 07:00:00,28.406963,77.849831,PM10,174,369,268
India,Uttar_Pradesh,Firozabad,"Nagla Bhau, Firozabad - UPPCB",11-10-2025 07:00:00,27.168897,78.376960,PM10,50,112,71
India,Uttar_Pradesh,Firozabad,"Nagla Bhau, Firozabad - UPPCB",11-10-2025 07:00:00,27.168897,78.376960,NO2,17,17,17
India,Uttar_Pradesh,Agra,"Shahjahan Garden, Agra - UPPCB",11-10-2025 07:00:00,27.169338,78.03582,PM10,102,235,165
India,Uttar_Pradesh,Agra,"Shahjahan Garden, Agra - UPPCB",11-10-2025 07:00:00,27.169338,78.03582,NH3,1,1,1
India,Uttar_Pradesh,Agra,"Shahjahan Garden, Agra - UPPCB",11-10-2025 07:00:00,27.169338,78.03582,SO2,16,26,20
India,Uttar_Pradesh,Agra,"Shahjahan Garden, Agra - UPPCB",11-10-2025 07:00:00,27.169338,78.03582,CO,8,38,30
India,Uttar_Pradesh,Bareilly,"Civil Lines, Bareilly - UPPCB",11-10-2025 07:00:00,28.359581,79.414455,PM2.5,5,43,19
India,Uttar_Pradesh,Noida,"Sector - 62, Noida - IMD",11-10-2025 07:00:00,28.6245479,77.3577104,CO,6,28,26
India,Uttar_Pradesh,Noida,"Sector - 62, Noida - IMD",11-10-2025 07:00:00,28.6245479,77.3577104,OZONE,23,180,25
India,Uttar_Pradesh,Noida,"Sector-1, Noida - UPPCB",11-10-2025 07:00:00,28.5898,77.3101,PM10,169,295,219
India,Uttar_Pradesh,Noida,"Sector-116, Noida - UPPCB",11-10-2025 07:00:00,28.569230,77.393848,PM2.5,85,308,186
India,Uttar_Pradesh,Noida,"Sector-116, Noida - UPPCB",11-10-2025 07:00:00,28.569230,77.393848,CO,14,119,70
India,Uttar_Pradesh,Noida,"Sector-116, Noida - UPPCB",11-10-2025 07:00:00,28.569230,77.393848,OZONE,11,215,13
India,Uttar_Pradesh,Prayagraj,"Jhunsi, Prayagraj - UPPCB",11-10-2025 07:00:00,25.425602,81.917152,NH3,5,5,5
India,Uttar_Pradesh,Prayagraj,"Jhunsi, Prayagraj - UPPCB",11-10-2025 07:00:00,25.425602,81.917152,CO,19,32,27
India,Uttar_Pradesh,Prayagraj,"Motilal Nehru NIT, Prayagraj - UPPCB",11-10-2025 07:00:00,25.494,81.863,PM2.5,43,89,62
India,Uttar_Pradesh,Prayagraj,"Motilal Nehru NIT, Prayagraj - UPPCB",11-10-2025 07:00:00,25.494,81.863,NH3,8,8,8
India,Uttar_Pradesh,Lucknow,"Talkatora District Industries Center, Lucknow - CPCB",11-10-2025 07:00:00,26.83399722,80.8917361,CO,47,66,53
India,Uttar_Pradesh,Meerut,"Ganga Nagar, Meerut - UPPCB",11-10-2025 07:00:00,28.999264,77.7590354,CO,30,58,44
India,Uttar_Pradesh,Meerut,"Ganga Nagar, Meerut - UPPCB",11-10-2025 07:00:00,28.999264,77.7590354,OZONE,29,118,45
India,Uttar_Pradesh,Meerut,"Jai Bhim Nagar, Meerut - UPPCB",11-10-2025 07:00:00,28.9535882,77.7622941,NH3,2,4,3
India,Uttar_Pradesh,Meerut,"Jai Bhim Nagar, Meerut - UPPCB",11-10-2025 07:00:00,28.9535882,77.7622941,SO2,12,26,16
India,Uttar_Pradesh,Meerut,"Pallavpuram Phase 2, Meerut - UPPCB",11-10-2025 07:00:00,29.063510,77.709723,PM2.5,50,232,125
India,Uttar_Pradesh,Meerut,"Pallavpuram Phase 2, Meerut - UPPCB",11-10-2025 07:00:00,29.063510,77.709723,PM10,104,195,143
India,Uttar_Pradesh,Meerut,"Pallavpuram Phase 2, Meerut - UPPCB",11-10-2025 07:00:00,29.063510,77.709723,NH3,2,5,4
India,Uttar_Pradesh,Moradabad,"Jigar Colony, Moradabad - UPPCB",11-10-2025 07:00:00,28.856664,78.772638,OZONE,18,21,18
India,Uttar_Pradesh,Moradabad,"Kashiram Nagar, Moradabad - UPPCB",11-10-2025 07:00:00,28.849399,78.742362,OZONE,22,32,23
India,Uttar_Pradesh,Moradabad,"Transport Nagar, Moradabad - UPPCB",11-10-2025 07:00:00,28.802625,78.753728,PM10,96,147,126
India,Uttar_Pradesh,Moradabad,"Transport Nagar, Moradabad - UPPCB",11-10-2025 07:00:00,28.802625,78.753728,SO2,28,30,30
India,Uttar_Pradesh,Muzaffarnagar,"New Mandi, Muzaffarnagar - UPPCB",11-10-2025 07:00:00,29.4723508,77.7194031,PM10,81,156,124
India,Uttar_Pradesh,Muzaffarnagar,"New Mandi, Muzaffarnagar - UPPCB",11-10-2025 07:00:00,29.4723508,77.7194031,SO2,14,27,20
India,Uttar_Pradesh,Noida,"Sector - 125, Noida - UPPCB",11-10-2025 07:00:00,28.5447608,77.3231257,PM10,160,500,311
India,Uttar_Pradesh,Firozabad,"Vibhab Nagar, Firozabad - UPPCB",11-10-2025 07:00:00,27.1594,78.3953,PM2.5,69,201,95
India,Uttar_Pradesh,Firozabad,"Vibhab Nagar, Firozabad - UPPCB",11-10-2025 07:00:00,27.1594,78.3953,NO2,15,15,15
India,Uttar_Pradesh,Firozabad,"Vibhab Nagar, Firozabad - UPPCB",11-10-2025 07:00:00,27.1594,78.3953,CO,11,20,19
India,Uttar_Pradesh,Ghaziabad,"Indirapuram, Ghaziabad - UPPCB",11-10-2025 07:00:00,28.646233,77.358075,PM10,142,320,208
India,Uttar_Pradesh,Ghaziabad,"Loni, Ghaziabad - UPPCB",11-10-2025 07:00:00,28.757294,77.278792,SO2,7,16,11
India,Uttar_Pradesh,Ghaziabad,"Sanjay Nagar, Ghaziabad - UPPCB",11-10-2025 07:00:00,28.685382,77.453839,OZONE,9,126,10
India,Uttar_Pradesh,Ghaziabad,"Vasundhara, Ghaziabad - UPPCB",11-10-2025 07:00:00,28.6603346,77.3572563,NO2,6,21,12
India,Uttar_Pradesh,Meerut,"Pallavpuram Phase 2, Meerut - UPPCB",11-10-2025 07:00:00,29.063510,77.709723,SO2,6,20,10
India,Uttar_Pradesh,Moradabad,"Eco Herbal Park, Moradabad - UPPCB",11-10-2025 07:00:00,28.840739,78.697531,PM10,73,144,112
India,Uttar_Pradesh,Moradabad,"Eco Herbal Park, Moradabad - UPPCB",11-10-2025 07:00:00,28.840739,78.697531,SO2,6,24,13
India,Uttar_Pradesh,Moradabad,"Eco Herbal Park, Moradabad - UPPCB",11-10-2025 07:00:00,28.840739,78.697531,OZONE,17,124,27
India,Uttar_Pradesh,Moradabad,"Employment Office, Moradabad - UPPCB",11-10-2025 07:00:00,28.88528,78.73880,PM10,77,156,126
India,Uttar_Pradesh,Moradabad,"Employment Office, Moradabad - UPPCB",11-10-2025 07:00:00,28.88528,78.73880,NH3,4,4,4
India,Uttar_Pradesh,Moradabad,"Jigar Colony, Moradabad - UPPCB",11-10-2025 07:00:00,28.856664,78.772638,PM2.5,40,150,80
India,Uttar_Pradesh,Gorakhpur,"Madan Mohan Malaviya University of Technology, Gorakhpur - UPPCB",11-10-2025 07:00:00,26.730136,83.433859,PM2.5,21,234,79
India,Uttar_Pradesh,Gorakhpur,"Madan Mohan Malaviya University of Technology, Gorakhpur - UPPCB",11-10-2025 07:00:00,26.730136,83.433859,SO2,26,28,27
India,Uttar_Pradesh,Gorakhpur,"Madan Mohan Malaviya University of Technology, Gorakhpur - UPPCB",11-10-2025 07:00:00,26.730136,83.433859,CO,3,6,5
India,Uttar_Pradesh,Greater Noida,"Knowledge Park - III, Greater Noida - UPPCB",11-10-2025 07:00:00,28.47272,77.482000,CO,54,108,75
India,Uttar_Pradesh,Greater Noida,"Knowledge Park - V, Greater Noida - UPPCB",11-10-2025 07:00:00,28.557054,77.453663,SO2,14,17,16
India,Uttar_Pradesh,Greater Noida,"Knowledge Park - V, Greater Noida - UPPCB",11-10-2025 07:00:00,28.557054,77.453663,OZONE,6,233,8
India,Uttar_Pradesh,Lucknow,"Kendriya Vidyalaya, Lucknow - CPCB",11-10-2025 07:00:00,26.906111,80.948222,NH3,8,14,12
India,Uttar_Pradesh,Lucknow,"Kukrail Picnic Spot-1, Lucknow - UPPCB",11-10-2025 07:00:00,26.90723,80.98579,OZONE,NA,NA,NA
India,Uttar_Pradesh,Kanpur,"FTI Kidwai Nagar, Kanpur - UPPCB",11-10-2025 07:00:00,26.428282,80.327067,PM2.5,8,500,123
India,Uttar_Pradesh,Kanpur,"NSI Kalyanpur, Kanpur - UPPCB",11-10-2025 07:00:00,26.509954,80.249612,PM2.5,42,194,85
India,Uttar_Pradesh,Noida,"Sector - 125, Noida - UPPCB",11-10-2025 07:00:00,28.5447608,77.3231257,CO,28,112,96
India,Uttar_Pradesh,Prayagraj,"Motilal Nehru NIT, Prayagraj - UPPCB",11-10-2025 07:00:00,25.494,81.863,SO2,37,52,39
India,Uttar_Pradesh,Prayagraj,"Motilal Nehru NIT, Prayagraj - UPPCB",11-10-2025 07:00:00,25.494,81.863,CO,8,22,18
India,Uttar_Pradesh,Prayagraj,"Nagar Nigam, Prayagraj - UPPCB",11-10-2025 07:00:00,25.44919916 ,81.82735986 ,PM10,52,137,81
India,Uttar_Pradesh,Prayagraj,"Nagar Nigam, Prayagraj - UPPCB",11-10-2025 07:00:00,25.44919916 ,81.82735986 ,NH3,2,5,3
India,Uttar_Pradesh,Varanasi,"Ardhali Bazar, Varanasi - UPPCB",11-10-2025 07:00:00,25.3505986,82.9083074,SO2,18,18,18
India,Uttar_Pradesh,Varanasi,"Bhelupur, Varanasi - UPPCB",11-10-2025 07:00:00,25.301778,82.996789,CO,8,24,18
India,Uttar_Pradesh,Varanasi,"Bhelupur, Varanasi - UPPCB",11-10-2025 07:00:00,25.301778,82.996789,OZONE,5,8,8
India,Uttar_Pradesh,Varanasi,"IESD Banaras Hindu University, Varanasi - UPPCB",11-10-2025 07:00:00,25.262326,82.995408,PM10,90,135,113
India,Uttar_Pradesh,Varanasi,"IESD Banaras Hindu University, Varanasi - UPPCB",11-10-2025 07:00:00,25.262326,82.995408,CO,6,20,13
India,Uttar_Pradesh,Varanasi,"IESD Banaras Hindu University, Varanasi - UPPCB",11-10-2025 07:00:00,25.262326,82.995408,OZONE,8,14,12
India,Uttar_Pradesh,Varanasi,"Maldahiya, Varanasi - UPPCB",11-10-2025 07:00:00,25.32393,82.99687,PM2.5,23,51,38
India,Uttar_Pradesh,Varanasi,"Maldahiya, Varanasi - UPPCB",11-10-2025 07:00:00,25.32393,82.99687,PM10,59,113,84
India,Uttar_Pradesh,Varanasi,"Maldahiya, Varanasi - UPPCB",11-10-2025 07:00:00,25.32393,82.99687,CO,6,22,20
India,Uttar_Pradesh,Vrindavan,"Omex Eternity, Vrindavan - UPPCB",11-10-2025 07:00:00,27.5714090,77.6557570,PM2.5,21,75,45
India,Uttarakhand,Dehradun,"Doon University, Dehradun - UKPCB",11-10-2025 07:00:00,30.269444,78.044167,PM10,11,48,31
India,Uttarakhand,Dehradun,"Doon University, Dehradun - UKPCB",11-10-2025 07:00:00,30.269444,78.044167,CO,10,24,18
India,Uttarakhand,Kashipur,"Govt. Girls Inter College, Kashipur - UKPCB",11-10-2025 07:00:00,29.2124114,78.9611753,PM2.5,12,93,57
India,Uttarakhand,Rishikesh,"Shivaji Nagar, Rishikesh - UKPCB",11-10-2025 07:00:00,30.075911,78.2859547,PM10,NA,NA,NA
India,Uttarakhand,Rishikesh,"Shivaji Nagar, Rishikesh - UKPCB",11-10-2025 07:00:00,30.075911,78.2859547,NH3,NA,NA,NA
India,Uttarakhand,Rishikesh,"Shivaji Nagar, Rishikesh - UKPCB",11-10-2025 07:00:00,30.075911,78.2859547,CO,NA,NA,NA
India,Uttarakhand,Rishikesh,"Shivaji Nagar, Rishikesh - UKPCB",11-10-2025 07:00:00,30.075911,78.2859547,OZONE,NA,NA,NA
India,West_Bengal,Asansol,"Asansol Court Area, Asansol - WBPCB",11-10-2025 07:00:00,23.685297,86.945968,NH3,2,9,5
India,West_Bengal,Asansol,"Asansol Court Area, Asansol - WBPCB",11-10-2025 07:00:00,23.685297,86.945968,CO,14,50,30
India,West_Bengal,Asansol,"Evelyn Lodge, Asansol - WBPCB",11-10-2025 07:00:00,23.6979360,86.9443950,SO2,3,5,4
India,West_Bengal,Asansol,"Evelyn Lodge, Asansol - WBPCB",11-10-2025 07:00:00,23.6979360,86.9443950,OZONE,6,52,11
India,West_Bengal,Asansol,"Mahabir Colliery, Asansol - WBPCB",11-10-2025 07:00:00,23.6181830,87.1057180,NH3,1,2,1
India,West_Bengal,Asansol,"Mahabir Colliery, Asansol - WBPCB",11-10-2025 07:00:00,23.6181830,87.1057180,CO,9,48,32
India,West_Bengal,Asansol,"Trivenidevi Bhalotia College, Asansol - WBPCB",11-10-2025 07:00:00,23.616515,87.119133,SO2,16,27,18
India,West_Bengal,Durgapur,"Mahishkapur Road_B-Zone, Durgapur - WBPCB",11-10-2025 07:00:00,23.567923,87.306843,NO2,6,25,14
India,West_Bengal,Durgapur,"Mahishkapur Road_B-Zone, Durgapur - WBPCB",11-10-2025 07:00:00,23.567923,87.306843,SO2,9,11,10
India,West_Bengal,Durgapur,"PCBL Residential Complex, Durgapur - WBPCB",11-10-2025 07:00:00,23.5087640,87.3544400,NH3,3,5,3
India,West_Bengal,Durgapur,"Womens College_City Center, Durgapur - WBPCB (Formerly known as Sidhu Kanhu Indoor Stadium)",11-10-2025 07:00:00,23.549395,87.300496,NH3,2,4,3
India,West_Bengal,Durgapur,"Womens College_City Center, Durgapur - WBPCB (Formerly known as Sidhu Kanhu Indoor Stadium)",11-10-2025 07:00:00,23.549395,87.300496,OZONE,6,42,7
India,West_Bengal,Haldia,"Priyambada Housing Estate, Haldia - WBPCB",11-10-2025 07:00:00,22.06047,88.109737,PM2.5,31,154,68
India,West_Bengal,Howrah,"Belur Math, Howrah - WBPCB",11-10-2025 07:00:00,22.629801,88.352017,NO2,21,26,23
India,West_Bengal,Howrah,"Botanical Garden, Howrah - WBPCB",11-10-2025 07:00:00,22.554954,88.292568,SO2,15,16,15
India,West_Bengal,Howrah,"Dasnagar, Howrah - WBPCB",11-10-2025 07:00:00,22.6025571,88.3105664,PM2.5,40,132,81
India,West_Bengal,Howrah,"Dasnagar, Howrah - WBPCB",11-10-2025 07:00:00,22.6025571,88.3105664,PM10,44,95,66
India,West_Bengal,Howrah,"Dasnagar, Howrah - WBPCB",11-10-2025 07:00:00,22.6025571,88.3105664,NO2,8,33,19
India,West_Bengal,Howrah,"Ghusuri, Howrah - WBPCB",11-10-2025 07:00:00,22.611968,88.347422,PM2.5,41,84,61
India,West_Bengal,Howrah,"Ghusuri, Howrah - WBPCB",11-10-2025 07:00:00,22.611968,88.347422,OZONE,2,72,5
India,West_Bengal,Kolkata,"Ballygunge, Kolkata - WBPCB",11-10-2025 07:00:00,22.5367507,88.3638022,PM10,34,99,61
India,West_Bengal,Kolkata,"Ballygunge, Kolkata - WBPCB",11-10-2025 07:00:00,22.5367507,88.3638022,NO2,27,65,46
India,West_Bengal,Kolkata,"Bidhannagar, Kolkata - WBPCB",11-10-2025 07:00:00,22.58157048,88.41002457,CO,20,38,29
India,West_Bengal,Kolkata,"Jadavpur, Kolkata - WBPCB",11-10-2025 07:00:00,22.49929,88.36917,NO2,21,125,32
India,West_Bengal,Kolkata,"Rabindra Bharati University, Kolkata - WBPCB",11-10-2025 07:00:00,22.627847,88.380669,PM10,76,166,118
India,West_Bengal,Kolkata,"Rabindra Bharati University, Kolkata - WBPCB",11-10-2025 07:00:00,22.627847,88.380669,NO2,26,61,40
India,West_Bengal,Kolkata,"Rabindra Sarobar, Kolkata - WBPCB",11-10-2025 07:00:00,22.51106,88.35142,PM10,30,61,45
India,West_Bengal,Siliguri,"Ward-32 Bapupara, Siliguri - WBPCB",11-10-2025 07:00:00,26.6879226,88.4152495,NO2,17,25,21
India,West_Bengal,Siliguri,"Ward-32 Bapupara, Siliguri - WBPCB",11-10-2025 07:00:00,26.6879226,88.4152495,OZONE,48,59,53
India,Bihar,Gaya,"SFTI Kusdihra, Gaya - BSPCB",11-10-2025 07:00:00,24.762518,84.982348,NH3,3,4,3
India,Bihar,Gaya,"SFTI Kusdihra, Gaya - BSPCB",11-10-2025 07:00:00,24.762518,84.982348,OZONE,8,40,11
India,Bihar,Hajipur,"Industrial Area, Hajipur - BSPCB",11-10-2025 07:00:00,25.697189,85.245900,PM2.5,90,177,131
India,Bihar,Katihar,"Mirchaibari, Katihar - BSPCB",11-10-2025 07:00:00,25.560083,87.553265,SO2,11,20,15
India,Bihar,Katihar,"Mirchaibari, Katihar - BSPCB",11-10-2025 07:00:00,25.560083,87.553265,CO,44,80,61
India,Bihar,Kishanganj,"SDM Office_Khagra, Kishanganj - BSPCB",11-10-2025 07:00:00,26.0881305,87.93840336,OZONE,15,21,17
India,Bihar,Manguraha,"Forest Rest House, Manguraha - BSPCB",11-10-2025 07:00:00,27.308328,84.531742,SO2,13,17,17
India,Bihar,Motihari,"Gandak Colony, Motihari - BSPCB",11-10-2025 07:00:00,26.63086,84.90051,NO2,8,10,9
India,Andhra_Pradesh,Chittoor,"Gangineni Cheruvu, Chittoor - APPCB",11-10-2025 07:00:00,13.204880,79.097889,PM10,58,162,99
India,Andhra_Pradesh,Kadapa,"Yerramukkapalli, Kadapa - APPCB",11-10-2025 07:00:00,14.465052,78.824187,NH3,NA,NA,NA
India,Andhra_Pradesh,Kadapa,"Yerramukkapalli, Kadapa - APPCB",11-10-2025 07:00:00,14.465052,78.824187,OZONE,38,46,40
India,Andhra_Pradesh,Rajamahendravaram,"Anand Kala Kshetram, Rajamahendravaram - APPCB",11-10-2025 07:00:00,16.9872867,81.7363176,PM2.5,31,59,44
India,Andhra_Pradesh,Rajamahendravaram,"Anand Kala Kshetram, Rajamahendravaram - APPCB",11-10-2025 07:00:00,16.9872867,81.7363176,PM10,39,72,58
India,Andhra_Pradesh,Rajamahendravaram,"Anand Kala Kshetram, Rajamahendravaram - APPCB",11-10-2025 07:00:00,16.9872867,81.7363176,NO2,11,35,19
India,Andhra_Pradesh,Rajamahendravaram,"Anand Kala Kshetram, Rajamahendravaram - APPCB",11-10-2025 07:00:00,16.9872867,81.7363176,CO,14,34,19
India,Andhra_Pradesh,Tirupati,"Vaikuntapuram, Tirupati - APPCB",11-10-2025 07:00:00,13.615387,79.409230,PM10,45,123,83
India,Andhra_Pradesh,Tirupati,"Vaikuntapuram, Tirupati - APPCB",11-10-2025 07:00:00,13.615387,79.409230,NH3,5,5,5
India,Bihar,Arrah,"New DM Office, Arrah - BSPCB",11-10-2025 07:00:00,25.5626095,84.663264,PM10,26,28,27
India,Bihar,Arrah,"New DM Office, Arrah - BSPCB",11-10-2025 07:00:00,25.5626095,84.663264,NO2,5,9,7
India,Bihar,Arrah,"New DM Office, Arrah - BSPCB",11-10-2025 07:00:00,25.5626095,84.663264,OZONE,5,12,7
India,Bihar,Aurangabad,"Gurdeo Nagar, Aurangabad - BSPCB",11-10-2025 07:00:00,24.75746,84.366208,CO,11,115,92
India,Bihar,Begusarai,"Lohiyanagar, Begusarai - BSPCB",11-10-2025 07:00:00,25.42742023,86.13886079,OZONE,7,51,20
India,Bihar,Bettiah,"Kamalnath Nagar, Bettiah - BSPCB",11-10-2025 07:00:00,26.80365,84.51954,PM2.5,NA,NA,NA
India,Bihar,Bhagalpur,"DM Office_Kachari Chowk, Bhagalpur - BSPCB",11-10-2025 07:00:00,25.251013,86.989001,PM2.5,22,65,44
India,Andhra_Pradesh,Vijayawada,"HB Colony, Vijayawada - APPCB",11-10-2025 07:00:00,16.536107,80.594233,PM2.5,64,86,72
India,Andhra_Pradesh,Vijayawada,"HB Colony, Vijayawada - APPCB",11-10-2025 07:00:00,16.536107,80.594233,PM10,61,83,69
India,Andhra_Pradesh,Vijayawada,"HB Colony, Vijayawada - APPCB",11-10-2025 07:00:00,16.536107,80.594233,NO2,16,19,18
India,Andhra_Pradesh,Vijayawada,"Rajiv Gandhi Park, Vijayawada - APPCB",11-10-2025 07:00:00,16.509717,80.612222,CO,26,38,38
India,Andhra_Pradesh,Vijayawada,"Rajiv Nagar, Vijayawada - APPCB",11-10-2025 07:00:00,16.554731,80.649110,PM10,35,63,42
India,Andhra_Pradesh,Visakhapatnam,"GVM Corporation, Visakhapatnam - APPCB",11-10-2025 07:00:00,17.72,83.3,NH3,2,4,3
India,Bihar,Bhagalpur,"DM Office_Kachari Chowk, Bhagalpur - BSPCB",11-10-2025 07:00:00,25.251013,86.989001,SO2,33,60,44
India,Bihar,Bhagalpur,"Mayaganj, Bhagalpur - BSPCB",11-10-2025 07:00:00,25.265194,87.012947,PM2.5,55,100,75
India,Bihar,Bihar Sharif,"D M Colony, Bihar Sharif - BSPCB",11-10-2025 07:00:00,25.204762,85.514960,NO2,9,10,9
India,Bihar,Buxar,"Charitra Van, Buxar - BSPCB",11-10-2025 07:00:00,25.567520,83.966379,OZONE,1,129,1
India,Bihar,Gaya,"Kareemganj, Gaya - BSPCB",11-10-2025 07:00:00,24.792403,84.992416,PM10,139,203,164
India,Andaman and Nicobar,Sri Vijaya Puram,"Police Line, Sri Vijaya Puram - ANPCC",11-10-2025 07:00:00,11.654054,92.734055,PM2.5,NA,NA,NA
India,Andaman and Nicobar,Sri Vijaya Puram,"Police Line, Sri Vijaya Puram - ANPCC",11-10-2025 07:00:00,11.654054,92.734055,CO,NA,NA,NA
India,Andhra_Pradesh,Amaravati,"Secretariat, Amaravati - APPCB",11-10-2025 07:00:00,16.5150833,80.5181667,CO,6,42,25
India,Andhra_Pradesh,Anantapur,"Gulzarpet, Anantapur - APPCB",11-10-2025 07:00:00,14.675886,77.593027,PM10,51,80,64
India,Andhra_Pradesh,Anantapur,"Gulzarpet, Anantapur - APPCB",11-10-2025 07:00:00,14.675886,77.593027,CO,12,74,23
India,Bihar,Motihari,"Gandak Colony, Motihari - BSPCB",11-10-2025 07:00:00,26.63086,84.90051,NH3,3,3,3
India,Bihar,Munger,"Town Hall, Munger - BSPCB",11-10-2025 07:00:00,25.376776,86.471523,OZONE,13,26,15
India,Bihar,Muzaffarpur,"MIT-Daudpur Kothi, Muzaffarpur - BSPCB",11-10-2025 07:00:00,26.1403345,85.3650192,PM2.5,32,47,38
India,Bihar,Muzaffarpur,"MIT-Daudpur Kothi, Muzaffarpur - BSPCB",11-10-2025 07:00:00,26.1403345,85.3650192,NH3,NA,NA,NA
India,Bihar,Muzaffarpur,"MIT-Daudpur Kothi, Muzaffarpur - BSPCB",11-10-2025 07:00:00,26.1403345,85.3650192,OZONE,23,71,27
India,Assam,Guwahati,"IITG, Guwahati - PCBA",11-10-2025 07:00:00,26.2028636,91.70046436,NH3,5,5,5
India,Assam,Guwahati,"IITG, Guwahati - PCBA",11-10-2025 07:00:00,26.2028636,91.70046436,SO2,22,26,24
India,Assam,Guwahati,"LGBI Airport, Guwahati - PCBA",11-10-2025 07:00:00,26.10887,91.589544,OZONE,15,17,16
India,Assam,Guwahati,"Pan Bazaar, Guwahati - PCBA",11-10-2025 07:00:00,26.187500,91.744194,PM2.5,17,67,40
India,Assam,Guwahati,"Pan Bazaar, Guwahati - PCBA",11-10-2025 07:00:00,26.187500,91.744194,SO2,38,66,51
India,Assam,Nagaon,"Christianpatty, Nagaon - PCBA",11-10-2025 07:00:00,26.349082,92.68449,CO,25,45,38
India,Assam,Nalbari,"Bata Chowk, Nalbari - PCBA",11-10-2025 07:00:00,26.446912,91.439057,NH3,1,4,2
India,Assam,Silchar,"Tarapur, Silchar - PCBA",11-10-2025 07:00:00,24.82827,92.79525,OZONE,NA,NA,NA
India,Bihar,Araria,"Kharahiya Basti, Araria - BSPCB",11-10-2025 07:00:00,26.146529,87.454184,PM10,39,54,45
India,Bihar,Rajgir,"Dangi Tola, Rajgir - BSPCB",11-10-2025 07:00:00,25.03280,85.41948,CO,80,101,91
India,Bihar,Sasaram,"Dada Peer, Sasaram - BSPCB",11-10-2025 07:00:00,24.952822,84.002396,PM10,75,179,123
India,Bihar,Sasaram,"Dada Peer, Sasaram - BSPCB",11-10-2025 07:00:00,24.952822,84.002396,OZONE,9,17,16
India,Bihar,Siwan,"Chitragupta Nagar, Siwan - BSPCB",11-10-2025 07:00:00,26.2271665,84.3570427,SO2,4,5,5
India,Bihar,Siwan,"Chitragupta Nagar, Siwan - BSPCB",11-10-2025 07:00:00,26.2271665,84.3570427,CO,83,104,88
India,Bihar,Siwan,"Chitragupta Nagar, Siwan - BSPCB",11-10-2025 07:00:00,26.2271665,84.3570427,OZONE,7,9,7
India,Chandigarh,Chandigarh,"Sector 22, Chandigarh - CPCC",11-10-2025 07:00:00,30.735567,76.775714,NO2,17,101,39
India,Delhi,Delhi,"CRRI Mathura Road, Delhi - IMD",11-10-2025 07:00:00,28.5512005,77.2735737,PM2.5,77,225,142
India,Delhi,Delhi,"CRRI Mathura Road, Delhi - IMD",11-10-2025 07:00:00,28.5512005,77.2735737,CO,20,113,103
India,Delhi,Delhi,"Chandni Chowk, Delhi - IITM",11-10-2025 07:00:00,28.656756,77.227234,NO2,12,55,34
India,Delhi,Delhi,"Chandni Chowk, Delhi - IITM",11-10-2025 07:00:00,28.656756,77.227234,CO,39,78,69
India,Delhi,Delhi,"DTU, Delhi - CPCB",11-10-2025 07:00:00,28.7500499,77.1112615,PM10,117,212,152
India,Delhi,Delhi,"DTU, Delhi - CPCB",11-10-2025 07:00:00,28.7500499,77.1112615,CO,22,60,55
India,Delhi,Delhi,"DTU, Delhi - CPCB",11-10-2025 07:00:00,28.7500499,77.1112615,OZONE,18,29,25
India,Bihar,Patna,"DRM Office Danapur, Patna - BSPCB",11-10-2025 07:00:00,25.586562,85.043586,OZONE,15,64,21
India,Bihar,Patna,"Govt. High School Shikarpur, Patna - BSPCB",11-10-2025 07:00:00,25.592539,85.227158,PM10,31,54,45
India,Bihar,Patna,"Govt. High School Shikarpur, Patna - BSPCB",11-10-2025 07:00:00,25.592539,85.227158,CO,19,34,24
India,Bihar,Patna,"Govt. High School Shikarpur, Patna - BSPCB",11-10-2025 07:00:00,25.592539,85.227158,OZONE,9,12,10
India,Bihar,Patna,"Muradpur, Patna - BSPCB",11-10-2025 07:00:00,25.619651,85.147382,PM10,139,428,183
India,Bihar,Purnia,"Mariam Nagar, Purnia - BSPCB",11-10-2025 07:00:00,25.366336,87.117468,PM2.5,23,85,56
India,Delhi,Delhi,"Jawaharlal Nehru Stadium, Delhi - DPCC",11-10-2025 07:00:00,28.580280,77.233829,PM2.5,85,280,164
India,Delhi,Delhi,"Jawaharlal Nehru Stadium, Delhi - DPCC",11-10-2025 07:00:00,28.580280,77.233829,NH3,4,6,5
India,Delhi,Delhi,"Jawaharlal Nehru Stadium, Delhi - DPCC",11-10-2025 07:00:00,28.580280,77.233829,SO2,5,22,13
India,Delhi,Delhi,"Jawaharlal Nehru Stadium, Delhi - DPCC",11-10-2025 07:00:00,28.580280,77.233829,OZONE,2,7,3
India,Delhi,Delhi,"Lodhi Road, Delhi - IITM",11-10-2025 07:00:00,28.588333,77.221667,PM10,NA,NA,NA
India,Delhi,Delhi,"Lodhi Road, Delhi - IITM",11-10-2025 07:00:00,28.588333,77.221667,NO2,NA,NA,NA
India,Delhi,Delhi,"Major Dhyan Chand National Stadium, Delhi - DPCC",11-10-2025 07:00:00,28.611281,77.237738,NO2,19,117,63
India,Delhi,Delhi,"Dwarka-Sector 8, Delhi - DPCC ",11-10-2025 07:00:00,28.5710274,77.0719006,NH3,3,5,4
India,Delhi,Delhi,"Dwarka-Sector 8, Delhi - DPCC ",11-10-2025 07:00:00,28.5710274,77.0719006,SO2,3,3,3
India,Delhi,Delhi,"IGI Airport (T3), Delhi - IMD",11-10-2025 07:00:00,28.5627763,77.1180053,NO2,50,169,108
India,Delhi,Delhi,"IGI Airport (T3), Delhi - IMD",11-10-2025 07:00:00,28.5627763,77.1180053,OZONE,1,5,4
India,Delhi,Delhi,"ITO, Delhi - CPCB",11-10-2025 07:00:00,28.628624,77.241060,PM10,25,149,120
India,Chhattisgarh,Bhilai,"Hathkhoj, Bhilai - CECB",11-10-2025 07:00:00,21.224231,81.408350,OZONE,10,25,15
India,Chhattisgarh,Bilaspur,"Mangala, Bilaspur - NTPC",11-10-2025 07:00:00,22.08815,82.13737,NO2,15,28,18
India,Chhattisgarh,Korba,"Rampur, Korba - CECB",11-10-2025 07:00:00,22.368195,82.746431,PM2.5,11,11,11
India,Chhattisgarh,Korba,"Urja Nagar, Korba - CECB",11-10-2025 07:00:00,22.348441,82.549611,CO,16,22,18
India,Delhi,Delhi,"Ashok Vihar, Delhi - DPCC",11-10-2025 07:00:00,28.695381,77.181665,PM10,141,261,186
India,Delhi,Delhi,"Ashok Vihar, Delhi - DPCC",11-10-2025 07:00:00,28.695381,77.181665,SO2,14,22,18
India,Delhi,Delhi,"Aya Nagar, Delhi - IMD",11-10-2025 07:00:00,28.4706914,77.1099364,CO,38,92,83
India,Delhi,Delhi,"Burari Crossing, Delhi - IMD",11-10-2025 07:00:00,28.7256504,77.2011573,NO2,17,33,23
India,Chandigarh,Chandigarh,"Sector-25, Chandigarh - CPCC",11-10-2025 07:00:00,30.751462,76.762879,NO2,10,35,18
India,Chhattisgarh,Bhilai,"32Bungalows, Bhilai - CECB",11-10-2025 07:00:00,21.194815,81.314770,PM10,28,92,64
India,Chhattisgarh,Bhilai,"32Bungalows, Bhilai - CECB",11-10-2025 07:00:00,21.194815,81.314770,NO2,11,57,27
India,Chhattisgarh,Bhilai,"32Bungalows, Bhilai - CECB",11-10-2025 07:00:00,21.194815,81.314770,SO2,7,16,9
India,Chhattisgarh,Tumidih,"OP Jindal Industrial Park, Tumidih - CECB",11-10-2025 07:00:00,22.06631475,83.33820077,OZONE,5,41,8
India,Delhi,Delhi,"Alipur, Delhi - DPCC",11-10-2025 07:00:00,28.815329,77.153010,PM10,127,354,202
India,Gujarat,Surat,"Science Center, Surat - SMC",11-10-2025 07:00:00,21.170046,72.795405,NO2,5,21,12
India,Gujarat,Vapi,"Phase-1 GIDC, Vapi - GPCB",11-10-2025 07:00:00,20.362421,72.918013,SO2,42,45,44
India,Haryana,Bahadurgarh,"Arya Nagar, Bahadurgarh - HSPCB",11-10-2025 07:00:00,28.6701,76.9254,OZONE,12,22,17
India,Haryana,Ballabgarh,"Nathu Colony, Ballabgarh - HSPCB",11-10-2025 07:00:00,28.3419248,77.319699,PM2.5,61,384,239
India,Haryana,Ballabgarh,"Nathu Colony, Ballabgarh - HSPCB",11-10-2025 07:00:00,28.3419248,77.319699,NO2,19,21,20
India,Haryana,Charkhi Dadri,"Mini Secretariat, Charkhi Dadri - HSPCB",11-10-2025 07:00:00,28.593883,76.270653,PM10,6,154,51
India,Delhi,Delhi,"Najafgarh, Delhi - DPCC",11-10-2025 07:00:00,28.570173,76.933762,PM10,113,187,133
India,Delhi,Delhi,"Narela, Delhi - DPCC",11-10-2025 07:00:00,28.822836,77.101981,SO2,6,26,12
India,Delhi,Delhi,"Narela, Delhi - DPCC",11-10-2025 07:00:00,28.822836,77.101981,CO,26,54,40
India,Delhi,Delhi,"Nehru Nagar, Delhi - DPCC",11-10-2025 07:00:00,28.567890,77.250515,PM2.5,85,322,182
India,Delhi,Delhi,"Nehru Nagar, Delhi - DPCC",11-10-2025 07:00:00,28.567890,77.250515,NO2,10,109,47
India,Delhi,Delhi,"North Campus, DU, Delhi - IMD",11-10-2025 07:00:00,28.6573814,77.1585447,OZONE,16,287,36
India,Delhi,Delhi,"Mandir Marg, Delhi - DPCC",11-10-2025 07:00:00,28.636429,77.201067,NO2,25,34,28
India,Delhi,Delhi,"Mandir Marg, Delhi - DPCC",11-10-2025 07:00:00,28.636429,77.201067,NH3,5,6,5
India,Delhi,Delhi,"Mundka, Delhi - DPCC",11-10-2025 07:00:00,28.684678,77.076574,PM2.5,77,320,175
India,Delhi,Delhi,"Mundka, Delhi - DPCC",11-10-2025 07:00:00,28.684678,77.076574,SO2,9,73,21
India,Delhi,Delhi,"Mundka, Delhi - DPCC",11-10-2025 07:00:00,28.684678,77.076574,OZONE,3,106,4
India,Delhi,Delhi,"NSIT Dwarka, Delhi - CPCB",11-10-2025 07:00:00,28.60909,77.0325413,NO2,41,111,62
India,Gujarat,Ahmedabad,"Chandkheda, Ahmedabad - IITM",11-10-2025 07:00:00,23.107969,72.574648,CO,3,118,73
India,Gujarat,Ahmedabad,"Maninagar, Ahmedabad - GPCB",11-10-2025 07:00:00,23.002657,72.591912,NO2,32,101,49
India,Gujarat,Ahmedabad,"Maninagar, Ahmedabad - GPCB",11-10-2025 07:00:00,23.002657,72.591912,OZONE,25,73,30
India,Gujarat,Ahmedabad,"Raikhad, Ahmedabad - IITM",11-10-2025 07:00:00,23.020509,72.579261,SO2,6,48,17
India,Gujarat,Ahmedabad,"Rakhial, Ahmedabad - IITM",11-10-2025 07:00:00,23.016834,72.625775,NO2,NA,NA,NA
India,Gujarat,Gandhinagar,"GIFT City, Gandhinagar - IITM",11-10-2025 07:00:00,23.163798,72.677768,CO,6,78,45
India,Gujarat,Gandhinagar,"GIFT City, Gandhinagar - IITM",11-10-2025 07:00:00,23.163798,72.677768,OZONE,1,50,4
India,Gujarat,Gandhinagar,"Sector-10, Gandhinagar - GPCB",11-10-2025 07:00:00,23.221714,72.654328,OZONE,8,59,15
India,Gujarat,Surat,"Science Center, Surat - SMC",11-10-2025 07:00:00,21.170046,72.795405,PM2.5,59,130,84
India,Gujarat,Ahmedabad,"SAC ISRO Bopal, Ahmedabad - IITM",11-10-2025 07:00:00,23.041137,72.456691,NH3,2,3,3
India,Gujarat,Ahmedabad,"SAC ISRO Satellite, Ahmedabad - IITM",11-10-2025 07:00:00,23.023389,72.515201,CO,6,111,75
India,Gujarat,Ahmedabad,"SVPI Airport Hansol, Ahmedabad - IITM",11-10-2025 07:00:00,23.076793,72.627874,NO2,29,96,59
India,Gujarat,Ahmedabad,"SVPI Airport Hansol, Ahmedabad - IITM",11-10-2025 07:00:00,23.076793,72.627874,SO2,1,8,5
India,Delhi,Delhi,"Okhla Phase-2, Delhi - DPCC",11-10-2025 07:00:00,28.530785,77.271255,OZONE,12,305,18
India,Delhi,Delhi,"Patparganj, Delhi - DPCC",11-10-2025 07:00:00,28.623763,77.287209,NH3,6,10,7
India,Delhi,Delhi,"Patparganj, Delhi - DPCC",11-10-2025 07:00:00,28.623763,77.287209,SO2,5,10,6
India,Delhi,Delhi,"Pusa, Delhi - DPCC",11-10-2025 07:00:00,28.639652,77.146275,NH3,6,31,19
India,Delhi,Delhi,"Pusa, Delhi - DPCC",11-10-2025 07:00:00,28.639652,77.146275,OZONE,4,80,4
India,Delhi,Delhi,"Vivek Vihar, Delhi - DPCC",11-10-2025 07:00:00,28.672342,77.315260,PM10,152,242,183
India,Delhi,Delhi,"Wazirpur, Delhi - DPCC",11-10-2025 07:00:00,28.699793,77.165453,NH3,6,10,8
India,Delhi,Delhi,"Wazirpur, Delhi - DPCC",11-10-2025 07:00:00,28.699793,77.165453,OZONE,5,110,10
India,Delhi,Delhi,"Rohini, Delhi - DPCC",11-10-2025 07:00:00,28.732528,77.119920,PM10,138,428,229
India,Delhi,Delhi,"Shadipur, Delhi - CPCB",11-10-2025 07:00:00,28.6514781,77.1473105,OZONE,12,31,13
India,Haryana,Gurugram,"NISE Gwal Pahari, Gurugram - IMD",11-10-2025 07:00:00,28.422681,77.148944,OZONE,11,77,11
India,Haryana,Jind,"Police Lines, Jind - HSPCB",11-10-2025 07:00:00,29.307814,76.337619,SO2,21,49,31
India,Haryana,Jind,"Police Lines, Jind - HSPCB",11-10-2025 07:00:00,29.307814,76.337619,CO,2,112,24
India,Haryana,Kaithal,"Rishi Nagar, Kaithal - HSPCB",11-10-2025 07:00:00,29.8006,76.4155,PM10,111,130,120
India,Haryana,Kaithal,"Rishi Nagar, Kaithal - HSPCB",11-10-2025 07:00:00,29.8006,76.4155,CO,14,24,19
India,Haryana,Kaithal,"Rishi Nagar, Kaithal - HSPCB",11-10-2025 07:00:00,29.8006,76.4155,OZONE,1,98,38
India,Haryana,Kurukshetra,"Sector-7, Kurukshetra - HSPCB",11-10-2025 07:00:00,29.966942,76.875879,OZONE,18,59,25
India,Haryana,Mandikhera,"General Hospital, Mandikhera - HSPCB",11-10-2025 07:00:00,27.9002,76.9938,NO2,30,56,32
India,Haryana,Manesar,"Sector-2 IMT, Manesar - HSPCB",11-10-2025 07:00:00,28.360699,76.936090,PM10,85,173,131
India,Haryana,Manesar,"Sector-2 IMT, Manesar - HSPCB",11-10-2025 07:00:00,28.360699,76.936090,NO2,21,25,23
India,Karnataka,Mysuru,"Hebbal 1st Stage, Mysuru - KSPCB",11-10-2025 07:00:00,12.21041,76.37376,CO,4,33,17
India,Karnataka,Shivamogga,"Vinoba Nagara, Shivamogga - KSPCB",11-10-2025 07:00:00,13.940000,75.555917,SO2,5,6,6
India,Karnataka,Vijayapura,"Ibrahimpur, Vijayapura - KSPCB",11-10-2025 07:00:00,16.802639,75.722694,PM2.5,30,37,37
India,Karnataka,Vijayapura,"Ibrahimpur, Vijayapura - KSPCB",11-10-2025 07:00:00,16.802639,75.722694,NO2,9,10,9
India,Karnataka,Vijayapura,"Ibrahimpur, Vijayapura - KSPCB",11-10-2025 07:00:00,16.802639,75.722694,OZONE,14,17,16
India,Karnataka,Yadgir,"Collector Office, Yadgir - KSPCB",11-10-2025 07:00:00,16.7602,77.1428,OZONE,14,19,18
India,Kerala,Eloor,"Udyogamandal, Eloor - Kerala PCB",11-10-2025 07:00:00,10.073232,76.302765,PM10,42,67,51
India,Kerala,Eloor,"Udyogamandal, Eloor - Kerala PCB",11-10-2025 07:00:00,10.073232,76.302765,NO2,7,8,7
India,Haryana,Manesar,"Sector-2 IMT, Manesar - HSPCB",11-10-2025 07:00:00,28.360699,76.936090,CO,36,94,63
India,Haryana,Palwal,"Shyam Nagar, Palwal - HSPCB",11-10-2025 07:00:00,28.1485564,77.3320667,PM10,54,58,56
India,Haryana,Palwal,"Shyam Nagar, Palwal - HSPCB",11-10-2025 07:00:00,28.1485564,77.3320667,NH3,8,9,9
India,Haryana,Panchgaon,"Amity University, Panchgaon - IITM",11-10-2025 07:00:00,28.3153,76.9143,PM2.5,51,161,84
India,Haryana,Panchgaon,"Amity University, Panchgaon - IITM",11-10-2025 07:00:00,28.3153,76.9143,CO,32,76,64
India,Haryana,Rohtak,"MD University, Rohtak - HSPCB",11-10-2025 07:00:00,28.52123,76.37138,PM2.5,131,271,194
India,Haryana,Rohtak,"MD University, Rohtak - HSPCB",11-10-2025 07:00:00,28.52123,76.37138,PM10,99,139,117
India,Haryana,Sirsa,"F-Block, Sirsa - HSPCB",11-10-2025 07:00:00,29.536400,75.015800,PM2.5,13,49,32
India,Karnataka,Kalaburagi,"Mahatma Basaveswar Colony, Kalaburgi - KSPCB",11-10-2025 07:00:00,17.336318,76.847397,NO2,13,17,15
India,Karnataka,Kalaburagi,"Mahatma Basaveswar Colony, Kalaburgi - KSPCB",11-10-2025 07:00:00,17.336318,76.847397,SO2,3,32,5
India,Karnataka,Karwar,"KHB Colony, Karwar - KSPCB",11-10-2025 07:00:00,14.816666,74.141003,PM2.5,7,36,18
India,Karnataka,Karwar,"KHB Colony, Karwar - KSPCB",11-10-2025 07:00:00,14.816666,74.141003,PM10,11,43,22
India,Karnataka,Karwar,"KHB Colony, Karwar - KSPCB",11-10-2025 07:00:00,14.816666,74.141003,CO,10,10,10
India,Karnataka,Mangalore,"Kadri, Mangalore - KSPCB",11-10-2025 07:00:00,12.889250,74.853000,PM10,NA,NA,NA
India,Karnataka,Mangalore,"Kadri, Mangalore - KSPCB",11-10-2025 07:00:00,12.889250,74.853000,NH3,NA,NA,NA
India,Karnataka,Mysuru,"Hebbal 1st Stage, Mysuru - KSPCB",11-10-2025 07:00:00,12.21041,76.37376,PM2.5,11,36,22
India,Karnataka,Mysuru,"Hebbal 1st Stage, Mysuru - KSPCB",11-10-2025 07:00:00,12.21041,76.37376,NO2,15,28,21
India,Karnataka,Bengaluru,"Peenya, Bengaluru - CPCB",11-10-2025 07:00:00,13.0270199,77.494094,PM2.5,18,42,28
India,Karnataka,Bengaluru,"RVCE-Mailasandra, Bengaluru - KSPCB",11-10-2025 07:00:00,12.921418,77.502466,PM10,56,101,76
India,Karnataka,Bengaluru,"Silk Board, Bengaluru - KSPCB",11-10-2025 07:00:00,12.917348,77.622813,PM2.5,NA,NA,NA
India,Karnataka,Bengaluru,"Silk Board, Bengaluru - KSPCB",11-10-2025 07:00:00,12.917348,77.622813,PM10,NA,NA,NA
India,Karnataka,Bengaluru,"Silk Board, Bengaluru - KSPCB",11-10-2025 07:00:00,12.917348,77.622813,NO2,NA,NA,NA
India,Karnataka,Chamarajanagar,"Urban, Chamarajanagar - KSPCB",11-10-2025 07:00:00,11.55358,76.55521,SO2,4,8,5
India,Karnataka,Chamarajanagar,"Urban, Chamarajanagar - KSPCB",11-10-2025 07:00:00,11.55358,76.55521,OZONE,19,38,25
India,Karnataka,Chikkaballapur,"Chikkaballapur Rural, Chikkaballapur - KSPCB",11-10-2025 07:00:00,13.428828,77.731418,NO2,NA,NA,NA
India,Jammu_and_Kashmir,Srinagar,"Rajbagh, Srinagar - JKSPCB",11-10-2025 07:00:00,34.066206,74.819820,PM2.5,33,82,50
India,Jammu_and_Kashmir,Srinagar,"Rajbagh, Srinagar - JKSPCB",11-10-2025 07:00:00,34.066206,74.819820,OZONE,NA,NA,NA
India,Jharkhand,Dhanbad,"Sardar Patel Nagar, Dhanbad - JSPCB",11-10-2025 07:00:00,23.80569,86.44268,NO2,97,209,115
India,Jharkhand,Dhanbad,"Sardar Patel Nagar, Dhanbad - JSPCB",11-10-2025 07:00:00,23.80569,86.44268,CO,2,24,8
India,Jharkhand,Dhanbad,"Sardar Patel Nagar, Dhanbad - JSPCB",11-10-2025 07:00:00,23.80569,86.44268,OZONE,1,51,2
India,Karnataka,Bengaluru,"Bapuji Nagar, Bengaluru - KSPCB",11-10-2025 07:00:00,12.951913,77.539784,NO2,5,18,9
India,Karnataka,Bengaluru,"Bapuji Nagar, Bengaluru - KSPCB",11-10-2025 07:00:00,12.951913,77.539784,NH3,1,2,1
India,Karnataka,Bengaluru,"Bapuji Nagar, Bengaluru - KSPCB",11-10-2025 07:00:00,12.951913,77.539784,OZONE,1,49,4
India,Karnataka,Chikkaballapur,"Chikkaballapur Rural, Chikkaballapur - KSPCB",11-10-2025 07:00:00,13.428828,77.731418,OZONE,NA,NA,NA
India,Karnataka,Chikkamagaluru,"Kalyana Nagara, Chikkamagaluru - KSPCB",11-10-2025 07:00:00,13.328028,75.797056,NH3,NA,NA,NA
India,Karnataka,Davanagere,"Devaraj Urs Badavane, Davanagere - KSPCB",11-10-2025 07:00:00,14.475800,75.905200,CO,9,32,23
India,Karnataka,Dharwad,"Kalabhavan, Dharwad - KSPCB",11-10-2025 07:00:00,15.459706,75.008381,NO2,16,16,16
India,Karnataka,Dharwad,"Kalabhavan, Dharwad - KSPCB",11-10-2025 07:00:00,15.459706,75.008381,SO2,1,8,3
India,Karnataka,Dharwad,"Kalabhavan, Dharwad - KSPCB",11-10-2025 07:00:00,15.459706,75.008381,CO,42,111,81
India,Karnataka,Haveri,"Ashwini Nagar, Haveri - KSPCB",11-10-2025 07:00:00,14.791800,75.389600,NO2,NA,NA,NA
India,Haryana,Charkhi Dadri,"Mini Secretariat, Charkhi Dadri - HSPCB",11-10-2025 07:00:00,28.593883,76.270653,NH3,5,8,6
India,Haryana,Dharuhera,"Municipal Corporation Office, Dharuhera -  HSPCB",11-10-2025 07:00:00,28.206800,76.799700,CO,10,44,34
India,Haryana,Faridabad,"New Industrial Town, Faridabad - HSPCB",11-10-2025 07:00:00,28.39072,77.30059,PM2.5,122,143,132
