country,state,city,station,last_update,latitude,longitude,pollutant_id,min_value,max_value,avg_value
India,Bihar,Arrah,"New DM Office, Arrah - BSPCB",26-02-2026 19:00:00,25.5626095,84.663264,PM2.5,48,371,88
India,Bihar,Arrah,"New DM Office, Arrah - BSPCB",26-02-2026 19:00:00,25.5626095,84.663264,OZONE,5,13,8
India,Bihar,Aurangabad,"Gurdeo Nagar, Aurangabad - BSPCB",26-02-2026 19:00:00,24.75746,84.366208,SO2,3,21,10
India,Bihar,Begusarai,"Lohiyanagar, Begusarai - BSPCB",26-02-2026 19:00:00,25.42742023,86.13886079,PM10,42,117,77
India,Bihar,Begusarai,"Lohiyanagar, Begusarai - BSPCB",26-02-2026 19:00:00,25.42742023,86.13886079,NO2,10,18,14
India,Bihar,Bettiah,"Kamalnath Nagar, Bettiah - BSPCB",26-02-2026 19:00:00,26.80365,84.51954,NH3,1,1,1
India,Bihar,Bhagalpur,"DM Office_Kachari Chowk, Bhagalpur - BSPCB",26-02-2026 19:00:00,25.251013,86.989001,PM10,47,105,76
India,Bihar,Bhagalpur,"DM Office_Kachari Chowk, Bhagalpur - BSPCB",26-02-2026 19:00:00,25.251013,86.989001,NO2,6,11,9
India,Bihar,Bhagalpur,"DM Office_Kachari Chowk, Bhagalpur - BSPCB",26-02-2026 19:00:00,25.251013,86.989001,NH3,1,1,1
India,Bihar,Bhagalpur,"DM Office_Kachari Chowk, Bhagalpur - BSPCB",26-02-2026 19:00:00,25.251013,86.989001,SO2,32,76,53
India,Bihar,Bhagalpur,"DM Office_Kachari Chowk, Bhagalpur - BSPCB",26-02-2026 19:00:00,25.251013,86.989001,OZONE,12,26,16
India,Andhra_Pradesh,Visakhapatnam,"GVM Corporation, Visakhapatnam - APPCB",26-02-2026 19:00:00,17.72,83.3,CO,6,74,23
India,Assam,Byrnihat,"Central Academy for SFS, Byrnihat - PCBA",26-02-2026 19:00:00,26.071318,91.87488,NH3,4,4,4
India,Assam,Byrnihat,"Central Academy for SFS, Byrnihat - PCBA",26-02-2026 19:00:00,26.071318,91.87488,CO,40,72,60
India,Assam,Guwahati,"LGBI Airport, Guwahati - PCBA",26-02-2026 19:00:00,26.10887,91.589544,NO2,8,28,15
India,Assam,Guwahati,"LGBI Airport, Guwahati - PCBA",26-02-2026 19:00:00,26.10887,91.589544,NH3,1,6,5
India,Assam,Guwahati,"LGBI Airport, Guwahati - PCBA",26-02-2026 19:00:00,26.10887,91.589544,SO2,7,18,11
India,Assam,Guwahati,"LGBI Airport, Guwahati - PCBA",26-02-2026 19:00:00,26.10887,91.589544,OZONE,9,16,13
India,Assam,Nagaon,"Christianpatty, Nagaon - PCBA",26-02-2026 19:00:00,26.349082,92.68449,PM2.5,72,187,122
India,Andaman and Nicobar,Sri Vijaya Puram,"Police Line, Sri Vijaya Puram - ANPCC",26-02-2026 19:00:00,11.654054,92.734055,PM10,24,83,36
India,Andhra_Pradesh,Amaravati,"Secretariat, Amaravati - APPCB",26-02-2026 19:00:00,16.5150833,80.5181667,PM2.5,7,117,34
India,Andhra_Pradesh,Amaravati,"Secretariat, Amaravati - APPCB",26-02-2026 19:00:00,16.5150833,80.5181667,PM10,37,264,91
India,Andhra_Pradesh,Anantapur,"Gulzarpet, Anantapur - APPCB",26-02-2026 19:00:00,14.675886,77.593027,PM10,57,122,71
India,Andhra_Pradesh,Anantapur,"Gulzarpet, Anantapur - APPCB",26-02-2026 19:00:00,14.675886,77.593027,SO2,13,19,17
India,Andhra_Pradesh,Anantapur,"Gulzarpet, Anantapur - APPCB",26-02-2026 19:00:00,14.675886,77.593027,CO,16,70,52
India,Andhra_Pradesh,Chittoor,"Gangineni Cheruvu, Chittoor - APPCB",26-02-2026 19:00:00,13.204880,79.097889,PM2.5,49,77,60
India,Bihar,Bhagalpur,"Mayaganj, Bhagalpur - BSPCB",26-02-2026 19:00:00,25.265194,87.012947,NO2,7,8,7
India,Bihar,Buxar,"Charitra Van, Buxar - BSPCB",26-02-2026 19:00:00,25.567520,83.966379,PM2.5,50,85,71
India,Bihar,Chhapra,"Darshan Nagar, Chhapra - BSPCB",26-02-2026 19:00:00,25.7808257,84.7446768,PM2.5,15,63,43
India,Bihar,Chhapra,"Darshan Nagar, Chhapra - BSPCB",26-02-2026 19:00:00,25.7808257,84.7446768,PM10,22,89,61
India,Bihar,Chhapra,"Darshan Nagar, Chhapra - BSPCB",26-02-2026 19:00:00,25.7808257,84.7446768,OZONE,1,8,3
India,Bihar,Gaya,"Collectorate, Gaya - BSPCB",26-02-2026 19:00:00,24.7955,84.9994,NO2,7,10,9
India,Bihar,Gaya,"Collectorate, Gaya - BSPCB",26-02-2026 19:00:00,24.7955,84.9994,OZONE,17,28,20
India,Assam,Silchar,"Tarapur, Silchar - PCBA",26-02-2026 19:00:00,24.82827,92.79525,NO2,24,33,29
India,Assam,Silchar,"Tarapur, Silchar - PCBA",26-02-2026 19:00:00,24.82827,92.79525,OZONE,2,12,7
India,Assam,Sivasagar,"Girls College, Sivasagar - PCBA",26-02-2026 19:00:00,26.987634,94.636574,PM2.5,26,93,45
India,Assam,Sivasagar,"Girls College, Sivasagar - PCBA",26-02-2026 19:00:00,26.987634,94.636574,PM10,31,98,52
India,Assam,Sivasagar,"Girls College, Sivasagar - PCBA",26-02-2026 19:00:00,26.987634,94.636574,NO2,34,60,44
India,Bihar,Araria,"Kharahiya Basti, Araria - BSPCB",26-02-2026 19:00:00,26.146529,87.454184,PM2.5,32,127,82
India,Andhra_Pradesh,Rajamahendravaram,"Anand Kala Kshetram, Rajamahendravaram - APPCB",26-02-2026 19:00:00,16.9872867,81.7363176,CO,17,43,28
India,Andhra_Pradesh,Tirumala,"Toll Gate, Tirumala - APPCB",26-02-2026 19:00:00,13.67,79.35,SO2,2,16,8
India,Andhra_Pradesh,Tirupati,"Vaikuntapuram, Tirupati - APPCB",26-02-2026 19:00:00,13.615387,79.409230,PM10,53,80,66
India,Bihar,Gaya,"SFTI Kusdihra, Gaya - BSPCB",26-02-2026 19:00:00,24.762518,84.982348,NH3,3,4,3
India,Bihar,Katihar,"Mirchaibari, Katihar - BSPCB",26-02-2026 19:00:00,25.560083,87.553265,PM2.5,27,77,54
India,Bihar,Kishanganj,"SDM Office_Khagra, Kishanganj - BSPCB",26-02-2026 19:00:00,26.0881305,87.93840336,SO2,4,10,8
India,Andhra_Pradesh,Tirupati,"Vaikuntapuram, Tirupati - APPCB",26-02-2026 19:00:00,13.615387,79.409230,OZONE,33,38,36
India,Andhra_Pradesh,Vijayawada,"Rajiv Gandhi Park, Vijayawada - APPCB",26-02-2026 19:00:00,16.509717,80.612222,NO2,18,41,28
India,Andhra_Pradesh,Vijayawada,"Rajiv Gandhi Park, Vijayawada - APPCB",26-02-2026 19:00:00,16.509717,80.612222,NH3,4,5,5
India,Andhra_Pradesh,Chittoor,"Gangineni Cheruvu, Chittoor - APPCB",26-02-2026 19:00:00,13.204880,79.097889,CO,18,24,21
India,Andhra_Pradesh,Kadapa,"Yerramukkapalli, Kadapa - APPCB",26-02-2026 19:00:00,14.465052,78.824187,SO2,11,18,12
India,Andhra_Pradesh,Kadapa,"Yerramukkapalli, Kadapa - APPCB",26-02-2026 19:00:00,14.465052,78.824187,CO,26,43,36
India,Assam,Nagaon,"Christianpatty, Nagaon - PCBA",26-02-2026 19:00:00,26.349082,92.68449,CO,15,24,18
India,Chhattisgarh,Bhilai,"Civic Center, Bhilai - Bhilai Steel Plant",26-02-2026 19:00:00,21.185571,81.343175,NO2,10,11,11
India,Chhattisgarh,Bhilai,"Civic Center, Bhilai - Bhilai Steel Plant",26-02-2026 19:00:00,21.185571,81.343175,CO,28,35,29
India,Chhattisgarh,Bhilai,"Hathkhoj, Bhilai - CECB",26-02-2026 19:00:00,21.224231,81.408350,PM10,18,123,56
India,Chhattisgarh,Bhilai,"Hathkhoj, Bhilai - CECB",26-02-2026 19:00:00,21.224231,81.408350,NH3,4,8,5
India,Chhattisgarh,Bhilai,"Hathkhoj, Bhilai - CECB",26-02-2026 19:00:00,21.224231,81.408350,OZONE,15,26,25
India,Chhattisgarh,Bilaspur,"Mangala, Bilaspur - NTPC",26-02-2026 19:00:00,22.08815,82.13737,NO2,15,37,23
India,Chhattisgarh,Chhal,"Nawapara SECL Colony, Chhal - CECB",26-02-2026 19:00:00,22.118125,83.140608,PM2.5,22,52,39
India,Chhattisgarh,Chhal,"Nawapara SECL Colony, Chhal - CECB",26-02-2026 19:00:00,22.118125,83.140608,NO2,10,30,15
India,Chhattisgarh,Chhal,"Nawapara SECL Colony, Chhal - CECB",26-02-2026 19:00:00,22.118125,83.140608,OZONE,10,88,81
India,Chhattisgarh,Korba,"Rampur, Korba - CECB",26-02-2026 19:00:00,22.368195,82.746431,PM2.5,22,61,45
India,Chhattisgarh,Korba,"Rampur, Korba - CECB",26-02-2026 19:00:00,22.368195,82.746431,SO2,10,98,39
India,Chhattisgarh,Korba,"Urja Nagar, Korba - CECB",26-02-2026 19:00:00,22.348441,82.549611,PM10,NA,NA,NA
India,Bihar,Muzaffarpur,"Muzaffarpur Collectorate, Muzaffarpur - BSPCB",26-02-2026 19:00:00,26.1209,85.3647,PM2.5,87,123,111
India,Bihar,Muzaffarpur,"Muzaffarpur Collectorate, Muzaffarpur - BSPCB",26-02-2026 19:00:00,26.1209,85.3647,SO2,7,11,9
India,Bihar,Muzaffarpur,"Muzaffarpur Collectorate, Muzaffarpur - BSPCB",26-02-2026 19:00:00,26.1209,85.3647,CO,30,100,60
India,Bihar,Patna,"DRM Office Danapur, Patna - BSPCB",26-02-2026 19:00:00,25.586562,85.043586,NH3,10,12,11
India,Bihar,Patna,"Govt. High School Shikarpur, Patna - BSPCB",26-02-2026 19:00:00,25.592539,85.227158,NO2,10,31,18
India,Bihar,Patna,"IGSC Planetarium Complex, Patna - BSPCB",26-02-2026 19:00:00,25.610369,85.132568,NO2,1,2,2
India,Bihar,Patna,"IGSC Planetarium Complex, Patna - BSPCB",26-02-2026 19:00:00,25.610369,85.132568,SO2,1,12,8
India,Bihar,Patna,"IGSC Planetarium Complex, Patna - BSPCB",26-02-2026 19:00:00,25.610369,85.132568,CO,6,24,15
India,Bihar,Patna,"Muradpur, Patna - BSPCB",26-02-2026 19:00:00,25.619651,85.147382,NH3,4,5,5
India,Bihar,Patna,"Muradpur, Patna - BSPCB",26-02-2026 19:00:00,25.619651,85.147382,CO,14,78,21
India,Bihar,Siwan,"Chitragupta Nagar, Siwan - BSPCB",26-02-2026 19:00:00,26.2271665,84.3570427,SO2,6,6,6
India,Chandigarh,Chandigarh,"Sector 22, Chandigarh - CPCC",26-02-2026 19:00:00,30.735567,76.775714,CO,68,90,72
India,Chandigarh,Chandigarh,"Sector-25, Chandigarh - CPCC",26-02-2026 19:00:00,30.751462,76.762879,PM2.5,124,197,160
India,Chandigarh,Chandigarh,"Sector-25, Chandigarh - CPCC",26-02-2026 19:00:00,30.751462,76.762879,OZONE,5,58,54
India,Chhattisgarh,Bhilai,"32Bungalows, Bhilai - CECB",26-02-2026 19:00:00,21.194815,81.314770,PM10,13,46,30
India,Chhattisgarh,Bhilai,"32Bungalows, Bhilai - CECB",26-02-2026 19:00:00,21.194815,81.314770,NO2,29,49,35
India,Chhattisgarh,Bhilai,"32Bungalows, Bhilai - CECB",26-02-2026 19:00:00,21.194815,81.314770,NH3,1,2,2
India,Chhattisgarh,Bhilai,"32Bungalows, Bhilai - CECB",26-02-2026 19:00:00,21.194815,81.314770,SO2,6,12,8
India,Chhattisgarh,Bhilai,"32Bungalows, Bhilai - CECB",26-02-2026 19:00:00,21.194815,81.314770,OZONE,2,26,20
India,Delhi,Delhi,"Aya Nagar, Delhi - IMD",26-02-2026 19:00:00,28.4706914,77.1099364,NO2,7,114,51
India,Delhi,Delhi,"Aya Nagar, Delhi - IMD",26-02-2026 19:00:00,28.4706914,77.1099364,CO,15,82,24
India,Delhi,Delhi,"Bawana, Delhi - DPCC",26-02-2026 19:00:00,28.776200,77.051074,NH3,6,12,8
India,Delhi,Delhi,"Bawana, Delhi - DPCC",26-02-2026 19:00:00,28.776200,77.051074,SO2,6,16,11
India,Delhi,Delhi,"Burari Crossing, Delhi - IMD",26-02-2026 19:00:00,28.7256504,77.2011573,CO,6,66,12
India,Delhi,Delhi,"CRRI Mathura Road, Delhi - IMD",26-02-2026 19:00:00,28.5512005,77.2735737,PM2.5,43,316,153
India,Delhi,Delhi,"Chandni Chowk, Delhi - IITM",26-02-2026 19:00:00,28.656756,77.227234,PM2.5,34,322,217
India,Delhi,Delhi,"DTU, Delhi - CPCB",26-02-2026 19:00:00,28.7500499,77.1112615,SO2,22,34,27
India,Bihar,Patna,"Rajbansi Nagar, Patna - BSPCB",26-02-2026 19:00:00,25.599486,85.113666,PM10,66,123,95
India,Bihar,Patna,"Rajbansi Nagar, Patna - BSPCB",26-02-2026 19:00:00,25.599486,85.113666,CO,17,66,32
India,Bihar,Patna,"Samanpura, Patna - BSPCB",26-02-2026 19:00:00,25.596727,85.085624,PM10,102,185,133
India,Bihar,Patna,"Samanpura, Patna - BSPCB",26-02-2026 19:00:00,25.596727,85.085624,NO2,34,52,43
India,Bihar,Patna,"Samanpura, Patna - BSPCB",26-02-2026 19:00:00,25.596727,85.085624,CO,70,109,93
India,Bihar,Patna,"Samanpura, Patna - BSPCB",26-02-2026 19:00:00,25.596727,85.085624,OZONE,13,144,94
India,Bihar,Purnia,"Mariam Nagar, Purnia - BSPCB",26-02-2026 19:00:00,25.366336,87.117468,PM2.5,63,107,83
India,Bihar,Purnia,"Mariam Nagar, Purnia - BSPCB",26-02-2026 19:00:00,25.366336,87.117468,PM10,50,82,66
India,Bihar,Purnia,"Mariam Nagar, Purnia - BSPCB",26-02-2026 19:00:00,25.366336,87.117468,SO2,17,20,18
India,Chhattisgarh,Raipur,"Bhatagaon New ISBT, Raipur - CECB",26-02-2026 19:00:00,21.219665,81.630094,PM10,20,152,74
India,Chhattisgarh,Raipur,"Bhatagaon New ISBT, Raipur - CECB",26-02-2026 19:00:00,21.219665,81.630094,NO2,2,63,26
India,Chhattisgarh,Raipur,"Bhatagaon New ISBT, Raipur - CECB",26-02-2026 19:00:00,21.219665,81.630094,NH3,2,2,2
India,Chhattisgarh,Raipur,"Bhatagaon New ISBT, Raipur - CECB",26-02-2026 19:00:00,21.219665,81.630094,SO2,3,49,12
India,Chhattisgarh,Raipur,"Bhatagaon New ISBT, Raipur - CECB",26-02-2026 19:00:00,21.219665,81.630094,OZONE,2,9,6
India,Chhattisgarh,Raipur,"Krishak Nagar, Raipur - CECB",26-02-2026 19:00:00,21.237755,81.705301,PM10,25,105,66
India,Chhattisgarh,Raipur,"Krishak Nagar, Raipur - CECB",26-02-2026 19:00:00,21.237755,81.705301,SO2,4,15,6
India,Chhattisgarh,Kunjemura,"OP Jindal School, Kunjemura - CECB",26-02-2026 19:00:00,22.126650,83.483212,PM2.5,33,83,61
India,Chhattisgarh,Milupara,"Govt. Higher Secondary School, Milupara - CECB",26-02-2026 19:00:00,22.1910172,83.5197009,SO2,NA,NA,NA
India,Chhattisgarh,Raipur,"AIIMS, Raipur - CECB",26-02-2026 19:00:00,21.258815,81.578979,NO2,33,45,40
India,Bihar,Motihari,"Gandak Colony, Motihari - BSPCB",26-02-2026 19:00:00,26.63086,84.90051,OZONE,3,10,9
India,Bihar,Munger,"Town Hall, Munger - BSPCB",26-02-2026 19:00:00,25.376776,86.471523,OZONE,9,11,10
India,Bihar,Muzaffarpur,"Buddha Colony, Muzaffarpur - BSPCB",26-02-2026 19:00:00,26.11442,85.39813,OZONE,61,147,110
India,Chhattisgarh,Raipur,"Siltara Phase-II, Raipur - CECB",26-02-2026 19:00:00,21.371751,81.664929,PM2.5,25,78,44
India,Chhattisgarh,Raipur,"Siltara Phase-II, Raipur - CECB",26-02-2026 19:00:00,21.371751,81.664929,NH3,2,2,2
India,Delhi,Delhi,"Alipur, Delhi - DPCC",26-02-2026 19:00:00,28.815329,77.153010,NH3,13,15,14
India,Gujarat,Ahmedabad,"Maninagar, Ahmedabad - GPCB",26-02-2026 19:00:00,23.002657,72.591912,NO2,93,98,95
India,Gujarat,Ahmedabad,"Rakhial, Ahmedabad - IITM",26-02-2026 19:00:00,23.016834,72.625775,PM10,76,181,121
India,Gujarat,Ahmedabad,"SAC ISRO Bopal, Ahmedabad - IITM",26-02-2026 19:00:00,23.041137,72.456691,NO2,12,94,33
India,Gujarat,Ahmedabad,"SAC ISRO Bopal, Ahmedabad - IITM",26-02-2026 19:00:00,23.041137,72.456691,NH3,7,21,11
India,Gujarat,Ahmedabad,"SAC ISRO Bopal, Ahmedabad - IITM",26-02-2026 19:00:00,23.041137,72.456691,CO,20,50,24
India,Gujarat,Ahmedabad,"SAC ISRO Satellite, Ahmedabad - IITM",26-02-2026 19:00:00,23.023389,72.515201,SO2,5,35,19
India,Gujarat,Ahmedabad,"SVPI Airport Hansol, Ahmedabad - IITM",26-02-2026 19:00:00,23.076793,72.627874,PM2.5,29,126,61
India,Gujarat,Ahmedabad,"SVPI Airport Hansol, Ahmedabad - IITM",26-02-2026 19:00:00,23.076793,72.627874,PM10,82,233,111
India,Delhi,Delhi,"Mundka, Delhi - DPCC",26-02-2026 19:00:00,28.684678,77.076574,NO2,90,161,120
India,Delhi,Delhi,"NSIT Dwarka, Delhi - CPCB",26-02-2026 19:00:00,28.60909,77.0325413,PM10,100,244,146
India,Delhi,Delhi,"NSIT Dwarka, Delhi - CPCB",26-02-2026 19:00:00,28.60909,77.0325413,NO2,92,109,96
India,Delhi,Delhi,"Najafgarh, Delhi - DPCC",26-02-2026 19:00:00,28.570173,76.933762,PM2.5,48,230,130
India,Delhi,Delhi,"Najafgarh, Delhi - DPCC",26-02-2026 19:00:00,28.570173,76.933762,SO2,16,82,21
India,Delhi,Delhi,"Najafgarh, Delhi - DPCC",26-02-2026 19:00:00,28.570173,76.933762,CO,8,107,12
India,Delhi,Delhi,"Narela, Delhi - DPCC",26-02-2026 19:00:00,28.822836,77.101981,OZONE,14,88,76
India,Delhi,Delhi,"Nehru Nagar, Delhi - DPCC",26-02-2026 19:00:00,28.567890,77.250515,SO2,12,105,23
India,Gujarat,Mehsana,"Sadanand Nagar, Mehsana - Nexteng Enviro",26-02-2026 19:00:00,23.593150,72.372792,PM10,52,187,114
India,Gujarat,Mehsana,"Sadanand Nagar, Mehsana - Nexteng Enviro",26-02-2026 19:00:00,23.593150,72.372792,NO2,23,44,34
India,Gujarat,Nandesari,"GIDC, Nandesari - Nandesari Ind. Association",26-02-2026 19:00:00,22.410802,73.097923,PM10,91,332,165
India,Gujarat,Surat,"Katargam, Surat - Nexteng Enviro",26-02-2026 19:00:00,21.217779 ,72.834787 ,CO,93,104,100
India,Gujarat,Vadodara,"Bapunagar, Vadodara - Nexteng Enviro",26-02-2026 19:00:00,22.320153,73.216285,PM2.5,24,164,70
India,Gujarat,Ankleshwar,"GIDC, Ankleshwar - GPCB",26-02-2026 19:00:00,21.613267,73.010555,SO2,16,26,17
India,Gujarat,Gandhinagar,"GIFT City, Gandhinagar - IITM",26-02-2026 19:00:00,23.163798,72.677768,PM10,136,419,210
India,Gujarat,Gandhinagar,"GIFT City, Gandhinagar - IITM",26-02-2026 19:00:00,23.163798,72.677768,OZONE,2,75,40
India,Gujarat,Gandhinagar,"IIPHG Lekawada, Gandhinagar - IITM",26-02-2026 19:00:00,23.243639,72.68994,PM2.5,35,161,92
India,Gujarat,Gandhinagar,"IIPHG Lekawada, Gandhinagar - IITM",26-02-2026 19:00:00,23.243639,72.68994,PM10,68,193,129
India,Gujarat,Gandhinagar,"Sector-10, Gandhinagar - GPCB",26-02-2026 19:00:00,23.221714,72.654328,PM2.5,60,300,137
India,Delhi,Delhi,"Okhla Phase-2, Delhi - DPCC",26-02-2026 19:00:00,28.530785,77.271255,PM10,115,308,185
India,Delhi,Delhi,"Okhla Phase-2, Delhi - DPCC",26-02-2026 19:00:00,28.530785,77.271255,NH3,9,15,12
India,Delhi,Delhi,"Patparganj, Delhi - DPCC",26-02-2026 19:00:00,28.623763,77.287209,PM2.5,33,287,180
India,Delhi,Delhi,"Patparganj, Delhi - DPCC",26-02-2026 19:00:00,28.623763,77.287209,PM10,114,341,184
India,Delhi,Delhi,"Patparganj, Delhi - DPCC",26-02-2026 19:00:00,28.623763,77.287209,SO2,11,30,17
India,Delhi,Delhi,"Punjabi Bagh, Delhi - DPCC",26-02-2026 19:00:00,28.674045,77.131023,NH3,4,7,6
India,Delhi,Delhi,"Pusa, Delhi - DPCC",26-02-2026 19:00:00,28.639652,77.146275,CO,47,123,74
India,Delhi,Delhi,"Wazirpur, Delhi - DPCC",26-02-2026 19:00:00,28.699793,77.165453,PM10,157,454,248
India,Delhi,Delhi,"Wazirpur, Delhi - DPCC",26-02-2026 19:00:00,28.699793,77.165453,NO2,31,82,54
India,Delhi,Delhi,"Wazirpur, Delhi - DPCC",26-02-2026 19:00:00,28.699793,77.165453,CO,16,118,37
India,Gujarat,Ahmedabad,"Chandkheda, Ahmedabad - IITM",26-02-2026 19:00:00,23.107969,72.574648,NO2,12,134,44
India,Gujarat,Ahmedabad,"Chandkheda, Ahmedabad - IITM",26-02-2026 19:00:00,23.107969,72.574648,NH3,5,18,8
India,Gujarat,Ahmedabad,"Gyaspur, Ahmedabad - IITM",26-02-2026 19:00:00,22.977134,72.553024,NH3,4,39,13
India,Gujarat,Ahmedabad,"Gyaspur, Ahmedabad - IITM",26-02-2026 19:00:00,22.977134,72.553024,CO,27,92,39
India,Delhi,Delhi,"Jahangirpuri, Delhi - DPCC",26-02-2026 19:00:00,28.732820,77.170633,NO2,62,124,91
India,Delhi,Delhi,"Jahangirpuri, Delhi - DPCC",26-02-2026 19:00:00,28.732820,77.170633,SO2,48,58,51
India,Delhi,Delhi,"Major Dhyan Chand National Stadium, Delhi - DPCC",26-02-2026 19:00:00,28.611281,77.237738,PM10,99,259,163
India,Delhi,Delhi,"Mandir Marg, Delhi - DPCC",26-02-2026 19:00:00,28.636429,77.201067,NO2,34,127,73
India,Delhi,Delhi,"Mandir Marg, Delhi - DPCC",26-02-2026 19:00:00,28.636429,77.201067,OZONE,7,88,77
India,Delhi,Delhi,"IHBAS, Dilshad Garden, Delhi - CPCB",26-02-2026 19:00:00,28.6811736,77.3025234,NH3,6,10,9
India,Delhi,Delhi,"IIT Delhi, Delhi - IITM",26-02-2026 19:00:00,28.542460,77.191651,OZONE,3,51,43
India,Delhi,Delhi,"ITO, Delhi - CPCB",26-02-2026 19:00:00,28.628624,77.241060,NO2,7,115,53
India,Delhi,Delhi,"ITO, Delhi - CPCB",26-02-2026 19:00:00,28.628624,77.241060,NH3,2,7,4
India,Delhi,Delhi,"Rohini, Delhi - DPCC",26-02-2026 19:00:00,28.732528,77.119920,SO2,10,22,14
India,Delhi,Delhi,"Sirifort, Delhi - CPCB",26-02-2026 19:00:00,28.5504249,77.2159377,SO2,33,37,35
India,Delhi,Delhi,"Sonia Vihar, Delhi - DPCC",26-02-2026 19:00:00,28.710508,77.249485,PM2.5,38,321,204
India,Delhi,Delhi,"Sonia Vihar, Delhi - DPCC",26-02-2026 19:00:00,28.710508,77.249485,SO2,23,46,32
India,Haryana,Sirsa,"F-Block, Sirsa - HSPCB",26-02-2026 19:00:00,29.536400,75.015800,SO2,1,38,13
India,Haryana,Yamuna Nagar,"Gobind Pura, Yamuna Nagar - HSPCB",26-02-2026 19:00:00,30.1480566,77.2893471,PM10,133,156,142
India,Haryana,Yamuna Nagar,"Gobind Pura, Yamuna Nagar - HSPCB",26-02-2026 19:00:00,30.1480566,77.2893471,NH3,2,4,4
India,Himachal Pradesh,Baddi,"HIMUDA Complex Phase-1, Baddi - HPPCB",26-02-2026 19:00:00,30.943887,76.801991,OZONE,32,135,117
India,Jammu_and_Kashmir,Pampore,"Khrew, Pampore - JKPCC",26-02-2026 19:00:00,34.031606,75.009712,PM2.5,19,69,45
India,Jammu_and_Kashmir,Pampore,"Khrew, Pampore - JKPCC",26-02-2026 19:00:00,34.031606,75.009712,PM10,20,73,48
India,Jammu_and_Kashmir,Srinagar,"Khunmoh, Srinagar - JKPCC",26-02-2026 19:00:00,34.06313,74.96017,SO2,2,4,3
India,Jammu_and_Kashmir,Srinagar,"Rajbagh, Srinagar - JKPCC",26-02-2026 19:00:00,34.066206,74.819820,PM2.5,16,36,24
India,Jammu_and_Kashmir,Srinagar,"Rajbagh, Srinagar - JKPCC",26-02-2026 19:00:00,34.066206,74.819820,SO2,3,4,3
India,Haryana,Gurugram,"Teri Gram, Gurugram - HSPCB",26-02-2026 19:00:00,28.4275,77.1465,NO2,NA,NA,NA
India,Haryana,Gurugram,"Teri Gram, Gurugram - HSPCB",26-02-2026 19:00:00,28.4275,77.1465,SO2,NA,NA,NA
India,Haryana,Gurugram,"Teri Gram, Gurugram - HSPCB",26-02-2026 19:00:00,28.4275,77.1465,OZONE,37,37,37
India,Haryana,Gurugram,"Vikas Sadan, Gurugram - HSPCB",26-02-2026 19:00:00,28.4501238,77.0263051,PM2.5,NA,NA,NA
India,Haryana,Gurugram,"Vikas Sadan, Gurugram - HSPCB",26-02-2026 19:00:00,28.4501238,77.0263051,SO2,NA,NA,NA
India,Haryana,Gurugram,"Vikas Sadan, Gurugram - HSPCB",26-02-2026 19:00:00,28.4501238,77.0263051,CO,NA,NA,NA
India,Haryana,Hisar,"Urban Estate-II, Hisar - HSPCB",26-02-2026 19:00:00,29.140560,75.744941,PM2.5,NA,NA,NA
India,Haryana,Hisar,"Urban Estate-II, Hisar - HSPCB",26-02-2026 19:00:00,29.140560,75.744941,PM10,NA,NA,NA
India,Haryana,Kaithal,"Rishi Nagar, Kaithal - HSPCB",26-02-2026 19:00:00,29.8006,76.4155,PM2.5,99,264,158
India,Haryana,Kaithal,"Rishi Nagar, Kaithal - HSPCB",26-02-2026 19:00:00,29.8006,76.4155,PM10,115,182,139
India,Haryana,Karnal,"Sector-12, Karnal - HSPCB",26-02-2026 19:00:00,29.695300,77.002700,NH3,6,7,6
India,Haryana,Karnal,"Sector-12, Karnal - HSPCB",26-02-2026 19:00:00,29.695300,77.002700,OZONE,26,26,26
India,Haryana,Faridabad,"Sector 11, Faridabad - HSPCB",26-02-2026 19:00:00,28.376058,77.315741,OZONE,14,16,15
India,Haryana,Faridabad,"Sector 30, Faridabad - HSPCB",26-02-2026 19:00:00,28.4417,77.3217,SO2,3,6,5
India,Haryana,Faridabad,"Sector 30, Faridabad - HSPCB",26-02-2026 19:00:00,28.4417,77.3217,OZONE,10,41,28
India,Haryana,Fatehabad,"Huda Sector, Fatehabad - HSPCB",26-02-2026 19:00:00,29.503664,75.467934,NH3,13,14,14
India,Haryana,Fatehabad,"Huda Sector, Fatehabad - HSPCB",26-02-2026 19:00:00,29.503664,75.467934,SO2,10,11,10
India,Haryana,Gurugram,"NISE Gwal Pahari, Gurugram - IMD",26-02-2026 19:00:00,28.422681,77.148944,PM2.5,14,330,162
India,Haryana,Gurugram,"NISE Gwal Pahari, Gurugram - IMD",26-02-2026 19:00:00,28.422681,77.148944,OZONE,6,64,54
India,Haryana,Gurugram,"Sector-51, Gurugram - HSPCB",26-02-2026 19:00:00,28.4227,77.0667,PM10,103,447,254
India,Haryana,Gurugram,"Sector-51, Gurugram - HSPCB",26-02-2026 19:00:00,28.4227,77.0667,NH3,9,14,11
India,Karnataka,Bengaluru,"Jayanagar 5th Block, Bengaluru - KSPCB",26-02-2026 19:00:00,12.920984,77.584908,NO2,8,63,25
India,Karnataka,Bengaluru,"Jigani, Bengaluru - KSPCB",26-02-2026 19:00:00,12.7816279,77.6299145,PM10,49,133,103
India,Karnataka,Bengaluru,"Jigani, Bengaluru - KSPCB",26-02-2026 19:00:00,12.7816279,77.6299145,OZONE,21,23,22
India,Karnataka,Bengaluru,"Peenya, Bengaluru - CPCB",26-02-2026 19:00:00,13.0270199,77.494094,NO2,22,32,26
India,Karnataka,Bengaluru,"Peenya, Bengaluru - CPCB",26-02-2026 19:00:00,13.0270199,77.494094,CO,6,28,12
India,Karnataka,Bengaluru,"RVCE-Mailasandra, Bengaluru - KSPCB",26-02-2026 19:00:00,12.921418,77.502466,OZONE,23,25,23
India,Karnataka,Bengaluru,"Sanegurava Halli, Bengaluru - KSPCB",26-02-2026 19:00:00,12.990328,77.5431385,CO,17,60,31
India,Karnataka,Bengaluru,"Shivapura_Peenya, Bengaluru - KSPCB",26-02-2026 19:00:00,13.0246342,77.5080115,SO2,4,6,5
India,Gujarat,Vadodara,"Bapunagar, Vadodara - Nexteng Enviro",26-02-2026 19:00:00,22.320153,73.216285,NO2,1,57,19
India,Gujarat,Vadodara,"Bapunagar, Vadodara - Nexteng Enviro",26-02-2026 19:00:00,22.320153,73.216285,SO2,8,26,17
India,Gujarat,Vadodara,"Bapunagar, Vadodara - Nexteng Enviro",26-02-2026 19:00:00,22.320153,73.216285,OZONE,2,10,9
India,Haryana,Ambala,"Patti Mehar, Ambala - HSPCB",26-02-2026 19:00:00,30.379589,76.778328,NO2,8,11,10
India,Haryana,Bahadurgarh,"Arya Nagar, Bahadurgarh - HSPCB",26-02-2026 19:00:00,28.6701,76.9254,PM2.5,NA,NA,NA
India,Haryana,Bahadurgarh,"Arya Nagar, Bahadurgarh - HSPCB",26-02-2026 19:00:00,28.6701,76.9254,CO,NA,NA,NA
India,Haryana,Ballabgarh,"Nathu Colony, Ballabgarh - HSPCB",26-02-2026 19:00:00,28.3419248,77.319699,PM2.5,33,269,161
India,Haryana,Ballabgarh,"Nathu Colony, Ballabgarh - HSPCB",26-02-2026 19:00:00,28.3419248,77.319699,NH3,3,3,3
India,Karnataka,Bengaluru,"BTM Layout, Bengaluru - CPCB",26-02-2026 19:00:00,12.9135218,77.5950804,PM10,76,77,77
India,Karnataka,Bengaluru,"Bapuji Nagar, Bengaluru - KSPCB",26-02-2026 19:00:00,12.951913,77.539784,PM2.5,17,85,48
India,Karnataka,Bengaluru,"Bapuji Nagar, Bengaluru - KSPCB",26-02-2026 19:00:00,12.951913,77.539784,NH3,1,15,9
India,Karnataka,Bengaluru,"City Railway Station, Bengaluru - KSPCB",26-02-2026 19:00:00,12.9756843,77.5660749,PM10,105,106,106
India,Karnataka,Bengaluru,"Hebbal, Bengaluru - KSPCB",26-02-2026 19:00:00,13.029152,77.585901,OZONE,6,24,20
India,Karnataka,Bengaluru,"Hombegowda Nagar, Bengaluru - KSPCB",26-02-2026 19:00:00,12.938539,77.590100,NO2,18,83,35
India,Karnataka,Bengaluru,"Hombegowda Nagar, Bengaluru - KSPCB",26-02-2026 19:00:00,12.938539,77.590100,CO,8,43,17
India,Haryana,Ballabgarh,"Nathu Colony, Ballabgarh - HSPCB",26-02-2026 19:00:00,28.3419248,77.319699,CO,17,102,37
India,Haryana,Bhiwani,"H.B. Colony, Bhiwani - HSPCB",26-02-2026 19:00:00,28.806223,76.141105,OZONE,1,31,14
India,Haryana,Charkhi Dadri,"Mini Secretariat, Charkhi Dadri - HSPCB",26-02-2026 19:00:00,28.593883,76.270653,SO2,10,12,11
India,Haryana,Dharuhera,"Municipal Corporation Office, Dharuhera -  HSPCB",26-02-2026 19:00:00,28.206800,76.799700,PM2.5,84,341,246
India,Haryana,Dharuhera,"Municipal Corporation Office, Dharuhera -  HSPCB",26-02-2026 19:00:00,28.206800,76.799700,NH3,10,30,21
India,Haryana,Dharuhera,"Municipal Corporation Office, Dharuhera -  HSPCB",26-02-2026 19:00:00,28.206800,76.799700,CO,54,103,82
India,Haryana,Kurukshetra,"Sector-7, Kurukshetra - HSPCB",26-02-2026 19:00:00,29.966942,76.875879,PM10,152,230,176
India,Haryana,Mandikhera,"General Hospital, Mandikhera(Nuh) - HSPCB",26-02-2026 19:00:00,27.9002,76.9938,NO2,19,23,21
India,Haryana,Manesar,"Sector-2 IMT, Manesar - HSPCB",26-02-2026 19:00:00,28.360699,76.936090,PM2.5,41,433,247
India,Haryana,Manesar,"Sector-2 IMT, Manesar - HSPCB",26-02-2026 19:00:00,28.360699,76.936090,OZONE,5,52,30
India,Haryana,Narnaul,"Shastri Nagar, Narnaul - HSPCB",26-02-2026 19:00:00,28.060249,76.113115,SO2,4,6,5
India,Haryana,Panchkula,"Sector-6, Panchkula - HSPCB ",26-02-2026 19:00:00,30.7057778,76.8531805555555,CO,2,10,6
India,Haryana,Panchkula,"Sector-6, Panchkula - HSPCB ",26-02-2026 19:00:00,30.7057778,76.8531805555555,OZONE,1,49,24
India,Haryana,Panipat,"Sector-18, Panipat - HSPCB",26-02-2026 19:00:00,29.432304,76.972765,PM2.5,142,308,212
India,Haryana,Panipat,"Sector-18, Panipat - HSPCB",26-02-2026 19:00:00,29.432304,76.972765,OZONE,29,30,30
India,Haryana,Rohtak,"MD University, Rohtak - HSPCB",26-02-2026 19:00:00,28.52123,76.37138,PM10,71,138,105
India,Madhya Pradesh,Indore,"Chhoti Gwaltoli, Indore - MPPCB",26-02-2026 19:00:00,22.4310,75.5213,SO2,16,26,19
India,Madhya Pradesh,Indore,"Maguda Nagar, Indore - IMC",26-02-2026 19:00:00,22.7524,75.8872,PM2.5,39,196,86
India,Madhya Pradesh,Indore,"Maguda Nagar, Indore - IMC",26-02-2026 19:00:00,22.7524,75.8872,SO2,11,14,13
India,Madhya Pradesh,Indore,"Maguda Nagar, Indore - IMC",26-02-2026 19:00:00,22.7524,75.8872,OZONE,19,48,25
India,Madhya Pradesh,Indore,"Regional Park, Indore - IMC",26-02-2026 19:00:00,22.6780,75.8559,PM2.5,25,218,71
India,Madhya Pradesh,Indore,"Regional Park, Indore - IMC",26-02-2026 19:00:00,22.6780,75.8559,PM10,17,100,45
India,Madhya Pradesh,Indore,"Regional Park, Indore - IMC",26-02-2026 19:00:00,22.6780,75.8559,CO,2,40,6
India,Madhya Pradesh,Indore,"Residency Area, Indore - IMC",26-02-2026 19:00:00,22.7084,75.8815,PM2.5,33,108,63
India,Madhya Pradesh,Indore,"Residency Area, Indore - IMC",26-02-2026 19:00:00,22.7084,75.8815,NO2,15,26,26
India,Madhya Pradesh,Indore,"Residency Area, Indore - IMC",26-02-2026 19:00:00,22.7084,75.8815,SO2,2,3,3
India,Madhya Pradesh,Jabalpur,"Govindh Bhavan Colony, Jabalpur - JMC",26-02-2026 19:00:00,23.163174,79.973061,PM10,35,58,46
India,Madhya Pradesh,Jabalpur,"Govindh Bhavan Colony, Jabalpur - JMC",26-02-2026 19:00:00,23.163174,79.973061,SO2,5,7,6
India,Madhya Pradesh,Jabalpur,"Govindh Bhavan Colony, Jabalpur - JMC",26-02-2026 19:00:00,23.163174,79.973061,CO,21,36,23
India,Madhya Pradesh,Jabalpur,"Gupteshwar, Jabalpur - JMC",26-02-2026 19:00:00,23.142888,79.916147,PM2.5,20,90,46
India,Madhya Pradesh,Ujjain,"Mahashweta Nagar, Ujjain - MPPCB",26-02-2026 19:00:00,23.1633321,75.800225,NH3,6,16,12
India,Madhya Pradesh,Ujjain,"Mahashweta Nagar, Ujjain - MPPCB",26-02-2026 19:00:00,23.1633321,75.800225,CO,15,103,23
India,Maharashtra,Ahmednagar,"Tarakpur, Ahmednagar - MPCB",26-02-2026 19:00:00,19.10122,74.73339,OZONE,6,97,82
India,Maharashtra,Akola,"Ramdaspeth, Akola - MPCB",26-02-2026 19:00:00,20.719516,77.000253,PM10,52,180,89
India,Maharashtra,Amravati,"Shivneri Colony, Amravati - MPCB",26-02-2026 19:00:00,20.9402359,77.7895248,CO,14,29,17
India,Maharashtra,Amravati,"Shri Shivaji Science College, Amravati - MPCB",26-02-2026 19:00:00,20.939198,77.765701,CO,30,96,40
India,Maharashtra,Amravati,"Shri Shivaji Science College, Amravati - MPCB",26-02-2026 19:00:00,20.939198,77.765701,OZONE,10,83,71
India,Maharashtra,Aurangabad,"MIDC Chilkalthana, Aurangabad - MPCB",26-02-2026 19:00:00,19.875620,75.387310,PM2.5,28,82,50
India,Maharashtra,Aurangabad,"MIDC Chilkalthana, Aurangabad - MPCB",26-02-2026 19:00:00,19.875620,75.387310,NH3,1,3,2
India,Maharashtra,Aurangabad,"MIDC Chilkalthana, Aurangabad - MPCB",26-02-2026 19:00:00,19.875620,75.387310,SO2,11,56,20
India,Karnataka,Yadgir,"Collector Office, Yadgir - KSPCB",26-02-2026 19:00:00,16.7602,77.1428,NO2,7,34,17
India,Karnataka,Yadgir,"Collector Office, Yadgir - KSPCB",26-02-2026 19:00:00,16.7602,77.1428,NH3,1,2,2
India,Kerala,Eloor,"Udyogamandal, Eloor - Kerala PCB",26-02-2026 19:00:00,10.073232,76.302765,NO2,6,7,6
India,Kerala,Kannur,"Thavakkara, Kannur - Kerala PCB",26-02-2026 19:00:00,11.875000,75.373200,NO2,15,16,15
India,Kerala,Kannur,"Thavakkara, Kannur - Kerala PCB",26-02-2026 19:00:00,11.875000,75.373200,CO,18,21,20
India,Kerala,Kannur,"Thavakkara, Kannur - Kerala PCB",26-02-2026 19:00:00,11.875000,75.373200,OZONE,27,31,29
India,Kerala,Kollam,"Polayathode, Kollam - Kerala PCB",26-02-2026 19:00:00,8.8787,76.6073,NH3,NA,NA,NA
India,Kerala,Thiruvananthapuram,"Kariavattom, Thiruvananthapuram - Kerala PCB",26-02-2026 19:00:00,8.563700,76.886500,CO,20,24,22
India,Kerala,Thiruvananthapuram,"Kariavattom, Thiruvananthapuram - Kerala PCB",26-02-2026 19:00:00,8.563700,76.886500,OZONE,36,37,37
India,Kerala,Thiruvananthapuram,"Plammoodu, Thiruvananthapuram - Kerala PCB",26-02-2026 19:00:00,8.5149093,76.9435879,SO2,12,26,18
India,Kerala,Thrissur,"Corporation Ground, Thrissur - Kerala PCB",26-02-2026 19:00:00,10.532400,76.215900,PM10,52,78,67
India,Kerala,Thrissur,"Corporation Ground, Thrissur - Kerala PCB",26-02-2026 19:00:00,10.532400,76.215900,CO,8,13,11
India,Madhya Pradesh,Bhopal,"Idgah Hills, Bhopal - MPPCB",26-02-2026 19:00:00,23.264759,77.381568,NO2,13,54,28
India,Madhya Pradesh,Bhopal,"Idgah Hills, Bhopal - MPPCB",26-02-2026 19:00:00,23.264759,77.381568,CO,20,60,27
India,Madhya Pradesh,Bhopal,"Paryavaran Parisar, Bhopal - MPPCB",26-02-2026 19:00:00,23.210494,77.425409,NO2,17,74,40
India,Madhya Pradesh,Damoh,"Shrivastav Colony, Damoh - MPPCB",26-02-2026 19:00:00,23.81748678,79.446246,PM2.5,17,92,49
India,Madhya Pradesh,Damoh,"Shrivastav Colony, Damoh - MPPCB",26-02-2026 19:00:00,23.81748678,79.446246,CO,12,19,15
India,Madhya Pradesh,Pithampur,"Sector-2 Industrial Area, Pithampur - MPPCB",26-02-2026 19:00:00,22.624758,75.675238,SO2,29,49,36
India,Madhya Pradesh,Pithampur,"Sector-2 Industrial Area, Pithampur - MPPCB",26-02-2026 19:00:00,22.624758,75.675238,CO,6,36,22
India,Madhya Pradesh,Pithampur,"Sector-2 Industrial Area, Pithampur - MPPCB",26-02-2026 19:00:00,22.624758,75.675238,OZONE,30,153,135
India,Madhya Pradesh,Ratlam,"Shasthri Nagar, Ratlam - IPCA Lab",26-02-2026 19:00:00,23.331731,75.045981,PM2.5,7,104,59
India,Madhya Pradesh,Ratlam,"Shasthri Nagar, Ratlam - IPCA Lab",26-02-2026 19:00:00,23.331731,75.045981,NO2,12,56,30
India,Madhya Pradesh,Sagar,"Deen Dayal Nagar, Sagar - MPPCB",26-02-2026 19:00:00,23.8640158,78.80289321,NO2,1,50,18
India,Madhya Pradesh,Singrauli,"Suryakiran Bhawan NCL, Singrauli - MPPCB",26-02-2026 19:00:00,24.108970,82.645580,SO2,NA,NA,NA
India,Madhya Pradesh,Jabalpur,"Gupteshwar, Jabalpur - JMC",26-02-2026 19:00:00,23.142888,79.916147,OZONE,6,109,93
India,Madhya Pradesh,Jabalpur,"Marhatal, Jabalpur - MPPCB",26-02-2026 19:00:00,23.168606,79.932247,PM10,63,262,111
India,Madhya Pradesh,Jabalpur,"Marhatal, Jabalpur - MPPCB",26-02-2026 19:00:00,23.168606,79.932247,OZONE,17,51,40
India,Madhya Pradesh,Mandideep,"Sector-D Industrial Area, Mandideep - MPPCB",26-02-2026 19:00:00,23.108440,77.511428,PM2.5,37,363,155
India,Madhya Pradesh,Mandideep,"Sector-D Industrial Area, Mandideep - MPPCB",26-02-2026 19:00:00,23.108440,77.511428,NO2,45,127,95
India,Madhya Pradesh,Mandideep,"Sector-D Industrial Area, Mandideep - MPPCB",26-02-2026 19:00:00,23.108440,77.511428,CO,13,68,24
India,Karnataka,Hubballi,"Lingaraj Nagar, Hubballi - KSPCB",26-02-2026 19:00:00,15.3714823,75.1160168,NO2,7,7,7
India,Karnataka,Madikeri,"Stuart Hill, Madikeri - KSPCB",26-02-2026 19:00:00,12.415911,75.735050,CO,10,20,16
India,Karnataka,Mysuru,"Hebbal 1st Stage, Mysuru - KSPCB",26-02-2026 19:00:00,12.21041,76.37376,PM10,38,91,57
India,Karnataka,Mysuru,"Hebbal 1st Stage, Mysuru - KSPCB",26-02-2026 19:00:00,12.21041,76.37376,NO2,12,28,20
India,Karnataka,Vijayapura,"Ibrahimpur, Vijayapura - KSPCB",26-02-2026 19:00:00,16.802639,75.722694,CO,NA,NA,NA
India,Karnataka,Chamarajanagar,"Urban, Chamarajanagar - KSPCB",26-02-2026 19:00:00,11.55358,76.55521,PM2.5,19,45,29
India,Karnataka,Chikkaballapur,"Chikkaballapur Rural, Chikkaballapur - KSPCB",26-02-2026 19:00:00,13.428828,77.731418,NH3,3,5,4
India,Karnataka,Dharwad,"Kalabhavan, Dharwad - KSPCB",26-02-2026 19:00:00,15.459706,75.008381,NO2,27,27,27
India,Karnataka,Dharwad,"Kalabhavan, Dharwad - KSPCB",26-02-2026 19:00:00,15.459706,75.008381,CO,48,71,50
India,Karnataka,Dharwad,"Kalabhavan, Dharwad - KSPCB",26-02-2026 19:00:00,15.459706,75.008381,OZONE,33,34,34
India,Madhya Pradesh,Gwalior,"Deen Dayal Nagar, Gwalior - MPPCB",26-02-2026 19:00:00,26.259242,78.216432,NH3,2,8,5
India,Madhya Pradesh,Gwalior,"Deen Dayal Nagar, Gwalior - MPPCB",26-02-2026 19:00:00,26.259242,78.216432,OZONE,29,132,105
India,Madhya Pradesh,Indore,"Airport Area, Indore - IMC",26-02-2026 19:00:00,22.7289,75.8076,NO2,46,84,67
India,Madhya Pradesh,Indore,"Airport Area, Indore - IMC",26-02-2026 19:00:00,22.7289,75.8076,CO,NA,NA,NA
India,Madhya Pradesh,Indore,"Airport Area, Indore - IMC",26-02-2026 19:00:00,22.7289,75.8076,OZONE,5,16,12
India,Maharashtra,Kolhapur,"Shivaji University, Kolhapur - MPCB",26-02-2026 19:00:00,16.6870449,74.2505872,PM2.5,12,48,26
India,Maharashtra,Kolhapur,"Shivaji University, Kolhapur - MPCB",26-02-2026 19:00:00,16.6870449,74.2505872,PM10,17,39,25
India,Maharashtra,Kolhapur,"Sinchan Bhavan, Kolhapur - MPCB",26-02-2026 19:00:00,16.7143745,74.2426398,OZONE,1,41,34
India,Maharashtra,Latur,"Sawe Wadi, Latur - MPCB",26-02-2026 19:00:00,18.39963,76.57452,NH3,5,36,14
India,Maharashtra,Latur,"Sawe Wadi, Latur - MPCB",26-02-2026 19:00:00,18.39963,76.57452,CO,14,133,24
India,Maharashtra,Mahad,"Kamble Tarf Birwadi, Mahad - MPCB",26-02-2026 19:00:00,18.1023399,73.4783687,NO2,12,53,26
India,Maharashtra,Mahad,"Kamble Tarf Birwadi, Mahad - MPCB",26-02-2026 19:00:00,18.1023399,73.4783687,NH3,3,16,9
India,Maharashtra,Malegaon,"Mahesh Nagar, Malegaon - MPCB",26-02-2026 19:00:00,20.555712,74.529236,SO2,NA,NA,NA
India,Maharashtra,Malegaon,"Mahesh Nagar, Malegaon - MPCB",26-02-2026 19:00:00,20.555712,74.529236,OZONE,5,86,72
India,Maharashtra,Mira-Bhayandar,"Bhayandar West, Mira-Bhayandar - MPCB",26-02-2026 19:00:00,19.296481,72.840923,PM2.5,4,60,29
India,Maharashtra,Mumbai,"Navy Nagar-Colaba, Mumbai - IITM",26-02-2026 19:00:00,18.897756,72.813320,CO,7,36,14
India,Maharashtra,Mumbai,"Sewri, Mumbai - BMC",26-02-2026 19:00:00,19.000084,72.856730,PM2.5,NA,NA,NA
India,Maharashtra,Mumbai,"Sewri, Mumbai - BMC",26-02-2026 19:00:00,19.000084,72.856730,PM10,NA,NA,NA
India,Maharashtra,Mumbai,"Sewri, Mumbai - BMC",26-02-2026 19:00:00,19.000084,72.856730,NH3,NA,NA,NA
India,Maharashtra,Mumbai,"Sewri, Mumbai - BMC",26-02-2026 19:00:00,19.000084,72.856730,OZONE,2,13,10
India,Maharashtra,Mumbai,"Shivaji Nagar, Mumbai - BMC",26-02-2026 19:00:00,19.060498,72.923356,PM2.5,12,50,29
India,Maharashtra,Mumbai,"Shivaji Nagar, Mumbai - BMC",26-02-2026 19:00:00,19.060498,72.923356,NO2,7,21,12
India,Maharashtra,Mumbai,"Shivaji Nagar, Mumbai - BMC",26-02-2026 19:00:00,19.060498,72.923356,CO,10,39,18
India,Maharashtra,Mumbai,"Shivaji Nagar, Mumbai - BMC",26-02-2026 19:00:00,19.060498,72.923356,OZONE,1,12,9
India,Maharashtra,Mumbai,"Siddharth Nagar-Worli, Mumbai - IITM",26-02-2026 19:00:00,19.000083,72.813993,NH3,3,4,3
India,Maharashtra,Mumbai,"Sion, Mumbai - MPCB",26-02-2026 19:00:00,19.047000,72.874600,CO,NA,NA,NA
India,Maharashtra,Mumbai,"Deonar, Mumbai - IITM",26-02-2026 19:00:00,19.04946,72.9230,CO,16,86,20
India,Maharashtra,Mumbai,"Kandivali East, Mumbai - MPCB",26-02-2026 19:00:00,19.205800,72.868200,PM2.5,1,9,4
India,Maharashtra,Mumbai,"Kandivali East, Mumbai - MPCB",26-02-2026 19:00:00,19.205800,72.868200,PM10,34,85,54
India,Maharashtra,Mumbai,"Kandivali East, Mumbai - MPCB",26-02-2026 19:00:00,19.205800,72.868200,CO,21,22,22
India,Maharashtra,Mumbai,"Kandivali West, Mumbai - BMC",26-02-2026 19:00:00,19.215859,72.831718,NH3,1,3,2
India,Maharashtra,Mumbai,"Kherwadi_Bandra East, Mumbai - MPCB",26-02-2026 19:00:00,19.0632143,72.8456324,NO2,10,56,26
India,Maharashtra,Mumbai,"Kherwadi_Bandra East, Mumbai - MPCB",26-02-2026 19:00:00,19.0632143,72.8456324,CO,NA,NA,NA
India,Maharashtra,Mumbai,"Khindipada-Bhandup West, Mumbai - IITM",26-02-2026 19:00:00,19.1653323,72.922099,NO2,10,21,17
India,Maharashtra,Aurangabad,"MIDC Chilkalthana, Aurangabad - MPCB",26-02-2026 19:00:00,19.875620,75.387310,CO,9,84,20
India,Maharashtra,Aurangabad,"More Chowk Waluj, Aurangabad - MPCB",26-02-2026 19:00:00,19.8389439,75.244448,CO,13,101,39
India,Maharashtra,Aurangabad,"More Chowk Waluj, Aurangabad - MPCB",26-02-2026 19:00:00,19.8389439,75.244448,OZONE,59,93,84
India,Maharashtra,Aurangabad,"Rachnakar Colony, Aurangabad - MPCB",26-02-2026 19:00:00,19.863756,75.321188,PM2.5,41,276,104
India,Maharashtra,Aurangabad,"Rachnakar Colony, Aurangabad - MPCB",26-02-2026 19:00:00,19.863756,75.321188,NO2,13,101,43
India,Maharashtra,Badlapur,"Katrap, Badlapur - MPCB",26-02-2026 19:00:00,19.16485,73.23409,NO2,10,41,22
India,Maharashtra,Badlapur,"Katrap, Badlapur - MPCB",26-02-2026 19:00:00,19.16485,73.23409,NH3,3,8,5
India,Maharashtra,Badlapur,"Katrap, Badlapur - MPCB",26-02-2026 19:00:00,19.16485,73.23409,SO2,3,14,8
India,Maharashtra,Mira-Bhayandar,"Bhayandar West, Mira-Bhayandar - MPCB",26-02-2026 19:00:00,19.296481,72.840923,NO2,9,60,28
India,Maharashtra,Mira-Bhayandar,"Bhayandar West, Mira-Bhayandar - MPCB",26-02-2026 19:00:00,19.296481,72.840923,NH3,1,12,6
India,Maharashtra,Mumbai,"Bandra Kurla Complex, Mumbai - MPCB",26-02-2026 19:00:00,19.065931,72.862131,PM2.5,NA,NA,NA
India,Maharashtra,Mumbai,"Bandra Kurla Complex, Mumbai - MPCB",26-02-2026 19:00:00,19.065931,72.862131,SO2,NA,NA,NA
India,Maharashtra,Mumbai,"Borivali East, Mumbai - IITM",26-02-2026 19:00:00,19.23241,72.86895,PM2.5,15,151,46
India,Maharashtra,Mumbai,"Borivali East, Mumbai - IITM",26-02-2026 19:00:00,19.23241,72.86895,PM10,30,117,56
India,Maharashtra,Mumbai,"Borivali East, Mumbai - IITM",26-02-2026 19:00:00,19.23241,72.86895,NO2,12,32,18
India,Maharashtra,Mumbai,"Borivali East, Mumbai - MPCB",26-02-2026 19:00:00,19.2243333,72.8658113,PM2.5,7,27,17
India,Maharashtra,Mumbai,"Borivali East, Mumbai - MPCB",26-02-2026 19:00:00,19.2243333,72.8658113,SO2,15,20,17
India,Maharashtra,Mumbai,"Borivali East, Mumbai - MPCB",26-02-2026 19:00:00,19.2243333,72.8658113,CO,14,20,18
India,Maharashtra,Mumbai,"Byculla, Mumbai - BMC",26-02-2026 19:00:00,18.9767,72.8380,PM10,31,68,46
India,Maharashtra,Mumbai,"Byculla, Mumbai - BMC",26-02-2026 19:00:00,18.9767,72.8380,OZONE,2,14,12
India,Maharashtra,Mumbai,"Colaba, Mumbai - MPCB",26-02-2026 19:00:00,18.910000,72.820000,CO,57,62,58
India,Maharashtra,Mumbai,"Deonar, Mumbai - IITM",26-02-2026 19:00:00,19.04946,72.9230,PM2.5,4,82,41
India,Maharashtra,Mumbai,"Deonar, Mumbai - IITM",26-02-2026 19:00:00,19.04946,72.9230,PM10,61,150,92
India,Maharashtra,Bhiwandi,"Gokul Nagar, Bhiwandi - MPCB",26-02-2026 19:00:00,19.309073,73.057223,OZONE,12,87,58
India,Maharashtra,Boisar,"Khaira, Boisar - MPCB",26-02-2026 19:00:00,19.786089,72.757971,CO,8,59,13
India,Maharashtra,Chandrapur,"MIDC Khutala, Chandrapur - MPCB",26-02-2026 19:00:00,19.9775302,79.2337086,CO,36,42,39
India,Maharashtra,Dhule,"Deopur, Dhule - MPCB",26-02-2026 19:00:00,20.918946,74.776388,PM2.5,2,88,36
India,Maharashtra,Dhule,"Deopur, Dhule - MPCB",26-02-2026 19:00:00,20.918946,74.776388,SO2,1,18,7
India,Maharashtra,Dhule,"Deopur, Dhule - MPCB",26-02-2026 19:00:00,20.918946,74.776388,OZONE,35,67,55
India,Maharashtra,Mumbai,"Malad West, Mumbai - IITM",26-02-2026 19:00:00,19.19709,72.82204,NO2,20,87,43
India,Maharashtra,Mumbai,"Mazgaon, Mumbai - IITM",26-02-2026 19:00:00,18.96702,72.84214,OZONE,6,57,23
India,Maharashtra,Mumbai,"Mindspace-Malad West, Mumbai - MPCB",26-02-2026 19:00:00,19.1878657,72.8304069,PM10,27,230,51
India,Maharashtra,Mumbai,"Mindspace-Malad West, Mumbai - MPCB",26-02-2026 19:00:00,19.1878657,72.8304069,SO2,11,17,14
India,Maharashtra,Mumbai,"Mindspace-Malad West, Mumbai - MPCB",26-02-2026 19:00:00,19.1878657,72.8304069,CO,6,42,7
India,Maharashtra,Mumbai,"Mulund West, Mumbai - MPCB",26-02-2026 19:00:00,19.1750,72.9419,PM2.5,13,52,33
India,Maharashtra,Jalgaon,"Prabhat Colony, Jalgaon - MPCB",26-02-2026 19:00:00,21.001264,75.565602,NO2,2,21,9
India,Maharashtra,Jalna,"Old MIDC, Jalna - MPCB",26-02-2026 19:00:00,19.854616,75.905894,NH3,NA,NA,NA
India,Maharashtra,Jalna,"Old MIDC, Jalna - MPCB",26-02-2026 19:00:00,19.854616,75.905894,SO2,NA,NA,NA
India,Maharashtra,Kalyan,"Pimpleshwar Mandir, Kalyan - MPCB",26-02-2026 19:00:00,19.192056,72.9585188,PM2.5,11,76,43
India,Maharashtra,Kalyan,"Pimpleshwar Mandir, Kalyan - MPCB",26-02-2026 19:00:00,19.192056,72.9585188,PM10,53,117,80
India,Maharashtra,Kalyan,"Pimpleshwar Mandir, Kalyan - MPCB",26-02-2026 19:00:00,19.192056,72.9585188,NH3,NA,NA,NA
India,Nagaland,Kohima,"PWD Junction, Kohima - NPCB",26-02-2026 19:00:00,25.6635413,94.0989878,PM2.5,1,99,52
India,Odisha,Angul,"Hakimapada, Angul - OSPCB",26-02-2026 19:00:00,20.832874,85.104082,NO2,18,69,36
India,Odisha,Angul,"Hakimapada, Angul - OSPCB",26-02-2026 19:00:00,20.832874,85.104082,NH3,1,9,5
India,Odisha,Angul,"Hakimapada, Angul - OSPCB",26-02-2026 19:00:00,20.832874,85.104082,SO2,12,65,20
India,Odisha,Angul,"Hakimapada, Angul - OSPCB",26-02-2026 19:00:00,20.832874,85.104082,OZONE,21,257,215
India,Odisha,Balasore,"Kalidaspur, Balasore - OSPCB",26-02-2026 19:00:00,21.51161,86.89088,NH3,1,3,1
India,Odisha,Balasore,"Kalidaspur, Balasore - OSPCB",26-02-2026 19:00:00,21.51161,86.89088,OZONE,31,138,124
India,Odisha,Barbil,"Forest Office, Barbil - OSPCB",26-02-2026 19:00:00,22.1166054,85.3945546,SO2,9,48,19
India,Odisha,Baripada,"Meher Colony, Baripada - OSPCB",26-02-2026 19:00:00,21.941841,86.728318,PM2.5,48,127,85
India,Odisha,Baripada,"Meher Colony, Baripada - OSPCB",26-02-2026 19:00:00,21.941841,86.728318,PM10,60,120,85
India,Maharashtra,Pimpri-Chinchwad,"Park Street Wakad, Pimpri Chinchwad - MPCB",26-02-2026 19:00:00,18.59051,73.77946,CO,15,57,18
India,Maharashtra,Pimpri-Chinchwad,"Park Street Wakad, Pimpri Chinchwad - MPCB",26-02-2026 19:00:00,18.59051,73.77946,OZONE,1,95,68
India,Maharashtra,Pimpri-Chinchwad,"Savta Mali Nagar, Pimpri-Chinchwad - IITM",26-02-2026 19:00:00,18.614767,73.799516,NO2,13,68,39
India,Maharashtra,Pimpri-Chinchwad,"Savta Mali Nagar, Pimpri-Chinchwad - IITM",26-02-2026 19:00:00,18.614767,73.799516,CO,40,103,59
India,Maharashtra,Pimpri-Chinchwad,"Thergaon, Pimpri Chinchwad - MPCB",26-02-2026 19:00:00,18.616318,73.765797,NO2,15,53,35
India,Maharashtra,Pimpri-Chinchwad,"Thergaon, Pimpri Chinchwad - MPCB",26-02-2026 19:00:00,18.616318,73.765797,NH3,5,11,7
India,Maharashtra,Pune,"Bhumkar Nagar, Pune - IITM",26-02-2026 19:00:00,18.605770,73.749976,PM10,42,135,82
India,Maharashtra,Pune,"Hadapsar, Pune - IITM",26-02-2026 19:00:00,18.501793,73.927532,PM2.5,21,318,85
India,Maharashtra,Nashik,"MIDC Ambad, Nashik - MPCB",26-02-2026 19:00:00,19.950220,73.731480,NH3,2,4,3
India,Maharashtra,Nashik,"MIDC Ambad, Nashik - MPCB",26-02-2026 19:00:00,19.950220,73.731480,SO2,12,20,16
India,Maharashtra,Nashik,"Pandav Nagari, Nashik - MPCB",26-02-2026 19:00:00,19.9591346,73.7788008,CO,2,48,4
India,Maharashtra,Navi Mumbai,"Kopripada-Vashi, Navi Mumbai - MPCB",26-02-2026 19:00:00,19.090337,73.014232,PM10,90,125,104
India,Maharashtra,Navi Mumbai,"Mahape, Navi Mumbai - MPCB",26-02-2026 19:00:00,19.1135051,73.008978,PM2.5,NA,NA,NA
India,Maharashtra,Navi Mumbai,"Nerul, Navi Mumbai - MPCB",26-02-2026 19:00:00,19.008751,73.016620,PM10,NA,NA,NA
India,Maharashtra,Navi Mumbai,"Sanpada, Navi Mumbai - MPCB",26-02-2026 19:00:00,19.0575752,73.0151367,PM10,46,165,96
India,Maharashtra,Pune,"Transport Nagar-Nigdi, Pune - IITM",26-02-2026 19:00:00,18.664282,73.763966,NO2,7,63,31
India,Maharashtra,Sangli,"Vijay Nagar, Sangli - MPCB",26-02-2026 19:00:00, 16.5038,74.3623,SO2,6,31,15
India,Maharashtra,Solapur,"Dnyaneshwar Nagar, Solapur - MPCB",26-02-2026 19:00:00,17.6336264,75.9132495,OZONE,10,76,58
India,Maharashtra,Thane,"Kasarvadavali, Thane - MPCB",26-02-2026 19:00:00,19.26777,72.97182,NH3,5,16,9
India,Maharashtra,Thane,"Kasarvadavali, Thane - MPCB",26-02-2026 19:00:00,19.26777,72.97182,OZONE,1,47,39
India,Maharashtra,Thane,"Upvan Fort, Thane - MPCB",26-02-2026 19:00:00,19.222279,72.957979,PM2.5,16,60,41
India,Maharashtra,Navi Mumbai,"Sector-2E Kalamboli, Navi Mumbai - MPCB",26-02-2026 19:00:00,19.02579,73.10297,NH3,4,14,8
India,Maharashtra,Navi Mumbai,"Tondare-Taloja, Navi Mumbai - MPCB",26-02-2026 19:00:00,19.0630,73.1209,PM10,47,500,89
India,Maharashtra,Navi Mumbai,"Tondare-Taloja, Navi Mumbai - MPCB",26-02-2026 19:00:00,19.0630,73.1209,NO2,6,32,20
India,Maharashtra,Parbhani,"Masoom Colony, Parbhani - MPCB",26-02-2026 19:00:00,19.265594,76.761463,PM10,41,83,57
India,Maharashtra,Parbhani,"Masoom Colony, Parbhani - MPCB",26-02-2026 19:00:00,19.265594,76.761463,OZONE,10,10,10
India,Maharashtra,Pimpri-Chinchwad,"Gavalinagar, Pimpri Chinchwad - MPCB",26-02-2026 19:00:00,18.63673,73.82487,CO,5,56,12
India,Maharashtra,Nagpur,"Ram Nagar, Nagpur - MPCB",26-02-2026 19:00:00,21.143383,79.048912,OZONE,4,68,57
India,Maharashtra,Nanded,"Sneh Nagar, Nanded - MPCB",26-02-2026 19:00:00,19.173852,77.296291,NO2,NA,NA,NA
India,Maharashtra,Nanded,"Sneh Nagar, Nanded - MPCB",26-02-2026 19:00:00,19.173852,77.296291,NH3,NA,NA,NA
India,Maharashtra,Nashik,"Gangapur Road, Nashik - MPCB",26-02-2026 19:00:00,20.0073285,73.7762427,PM10,27,102,73
India,Maharashtra,Nashik,"Hirawadi, Nashik - MPCB",26-02-2026 19:00:00,20.021503,73.813844,PM2.5,19,59,33
India,Maharashtra,Nashik,"Hirawadi, Nashik - MPCB",26-02-2026 19:00:00,20.021503,73.813844,OZONE,3,61,56
India,Maharashtra,Mumbai,"Vile Parle West, Mumbai - MPCB",26-02-2026 19:00:00,19.10861,72.83622,NH3,6,6,6
India,Maharashtra,Mumbai,"Vile Parle West, Mumbai - MPCB",26-02-2026 19:00:00,19.10861,72.83622,SO2,47,52,49
India,Maharashtra,Nagpur,"Ambazari, Nagpur - MPCB",26-02-2026 19:00:00,21.121801,79.04952,PM2.5,72,162,105
India,Maharashtra,Nagpur,"Ambazari, Nagpur - MPCB",26-02-2026 19:00:00,21.121801,79.04952,NH3,2,17,6
India,Maharashtra,Nagpur,"Mahal, Nagpur - MPCB",26-02-2026 19:00:00,21.14472,79.107595,PM10,104,207,152
India,Maharashtra,Pune,"Mhada Colony, Pune - IITM",26-02-2026 19:00:00,18.573040,73.927715,CO,12,86,27
India,Maharashtra,Pune,"Panchawati_Pashan, Pune - IITM",26-02-2026 19:00:00,18.536457,73.805454,OZONE,2,34,24
India,Maharashtra,Pune,"Revenue Colony-Shivajinagar, Pune - IITM",26-02-2026 19:00:00,18.530085,73.849598,OZONE,4,63,45
India,Maharashtra,Ulhasnagar,"Sidhi Vinayak Nagar, Ulhasnagar - MPCB",26-02-2026 19:00:00,19.235581,73.159121,NH3,3,9,6
India,Maharashtra,Virar,"Bolinj, Virar - MPCB",26-02-2026 19:00:00,19.4458210,72.7988231,PM2.5,1,110,42
India,Rajasthan,Baran,"Bamboliya, Baran - RSPCB",26-02-2026 19:00:00,25.106006,76.469948,SO2,2,17,7
India,Rajasthan,Baran,"Bamboliya, Baran - RSPCB",26-02-2026 19:00:00,25.106006,76.469948,CO,12,64,22
India,Rajasthan,Barmer,"Railway Colony, Barmer - RSPCB",26-02-2026 19:00:00,25.747299,71.393989,PM2.5,23,127,48
India,Rajasthan,Barmer,"Railway Colony, Barmer - RSPCB",26-02-2026 19:00:00,25.747299,71.393989,OZONE,9,127,114
India,Rajasthan,Bharatpur,"Krishna Nagar, Bharatpur - RSPCB",26-02-2026 19:00:00,27.215415,77.50873,NO2,9,113,46
India,Rajasthan,Bharatpur,"Krishna Nagar, Bharatpur - RSPCB",26-02-2026 19:00:00,27.215415,77.50873,CO,20,108,32
India,Rajasthan,Bharatpur,"Krishna Nagar, Bharatpur - RSPCB",26-02-2026 19:00:00,27.215415,77.50873,OZONE,6,169,109
India,Rajasthan,Bhilwara,"Pratap Nagar, Bhilwara - RSPCB",26-02-2026 19:00:00,25.339605,74.618883,PM2.5,12,465,93
India,Rajasthan,Bhilwara,"Pratap Nagar, Bhilwara - RSPCB",26-02-2026 19:00:00,25.339605,74.618883,NH3,4,6,5
India,Rajasthan,Bhilwara,"Pratap Nagar, Bhilwara - RSPCB",26-02-2026 19:00:00,25.339605,74.618883,SO2,2,42,17
India,Rajasthan,Bhiwadi,"RIICO Ind. Area III, Bhiwadi - RSPCB",26-02-2026 19:00:00,28.194909,76.862296,SO2,12,22,15
India,Rajasthan,Bhiwadi,"RIICO Ind. Area III, Bhiwadi - RSPCB",26-02-2026 19:00:00,28.194909,76.862296,CO,12,56,28
India,Punjab,Amritsar,"Golden Temple, Amritsar - PPCB",26-02-2026 19:00:00,31.620000,74.876512,NH3,5,8,6
India,Punjab,Amritsar,"Golden Temple, Amritsar - PPCB",26-02-2026 19:00:00,31.620000,74.876512,CO,24,107,69
India,Punjab,Bathinda,"Hardev Nagar, Bathinda - PPCB",26-02-2026 19:00:00,30.233011,74.907758,PM2.5,20,187,51
India,Punjab,Bathinda,"Hardev Nagar, Bathinda - PPCB",26-02-2026 19:00:00,30.233011,74.907758,SO2,5,20,12
India,Punjab,Jalandhar,"Civil Line, Jalandhar - PPCB",26-02-2026 19:00:00,31.321907,75.578914,PM2.5,44,82,59
India,Punjab,Khanna,"Kalal Majra, Khanna - PPCB",26-02-2026 19:00:00,30.736056 ,76.209694,PM2.5,60,141,98
India,Punjab,Khanna,"Kalal Majra, Khanna - PPCB",26-02-2026 19:00:00,30.736056 ,76.209694,NH3,7,8,7
India,Punjab,Ludhiana,"Punjab Agricultural University, Ludhiana - PPCB",26-02-2026 19:00:00,30.9028,75.8086,PM10,83,123,105
India,Punjab,Mandi Gobindgarh,"RIMT University, Mandi Gobindgarh - PPCB",26-02-2026 19:00:00,30.649961,76.331442,NH3,NA,NA,NA
India,Odisha,Baripada,"Meher Colony, Baripada - OSPCB",26-02-2026 19:00:00,21.941841,86.728318,CO,45,103,65
India,Odisha,Baripada,"Meher Colony, Baripada - OSPCB",26-02-2026 19:00:00,21.941841,86.728318,OZONE,6,95,82
India,Odisha,Bhubaneswar,"Lingraj Mandir, Bhubaneswar - OSPCB",26-02-2026 19:00:00,20.240790,85.836784,SO2,7,52,17
India,Odisha,Bhubaneswar,"Patia, Bhubaneswar - OSPCB",26-02-2026 19:00:00,20.34652,85.81630,NH3,4,8,5
India,Odisha,Brajrajnagar,"GM Office, Brajrajnagar - OSPCB",26-02-2026 19:00:00,21.8004996,83.8396977,PM2.5,NA,NA,NA
India,Odisha,Byasanagar,"Ferro Chrome Colony, Byasanagar - OSPCB",26-02-2026 19:00:00,20.94185,86.11510,PM2.5,55,163,101
India,Odisha,Byasanagar,"Ferro Chrome Colony, Byasanagar - OSPCB",26-02-2026 19:00:00,20.94185,86.11510,CO,6,88,12
India,Odisha,Cuttack,"CDA Area, Cuttack - OSPCB",26-02-2026 19:00:00,20.48891     ,85.84768     ,PM10,88,145,117
India,Odisha,Cuttack,"CDA Area, Cuttack - OSPCB",26-02-2026 19:00:00,20.48891     ,85.84768     ,NO2,17,93,34
India,Rajasthan,Bhiwadi,"Vasundhara Nagar_UIT, Bhiwadi - RSPCB",26-02-2026 19:00:00,28.207266,76.829265,CO,28,128,40
India,Rajasthan,Bikaner,"MM Ground, Bikaner - RSPCB",26-02-2026 19:00:00,28.018792,73.292658,PM2.5,23,97,50
India,Rajasthan,Bikaner,"MM Ground, Bikaner - RSPCB",26-02-2026 19:00:00,28.018792,73.292658,NO2,11,137,40
India,Rajasthan,Bundi,"New Colony, Bundi - RSPCB",26-02-2026 19:00:00,25.435774,75.644272,SO2,4,13,8
India,Rajasthan,Chittorgarh,"Shastri Nagar, Chittorgarh - RSPCB",26-02-2026 19:00:00,24.892047,74.623527,NH3,7,20,14
India,Rajasthan,Chittorgarh,"Shastri Nagar, Chittorgarh - RSPCB",26-02-2026 19:00:00,24.892047,74.623527,CO,1,72,7
India,Rajasthan,Chittorgarh,"Shastri Nagar, Chittorgarh - RSPCB",26-02-2026 19:00:00,24.892047,74.623527,OZONE,1,114,90
India,Rajasthan,Churu,"Subash Chowk, Churu - RSPCB",26-02-2026 19:00:00,28.296139,74.961696,PM10,56,202,111
India,Rajasthan,Churu,"Subash Chowk, Churu - RSPCB",26-02-2026 19:00:00,28.296139,74.961696,NO2,13,35,23
India,Odisha,Keonjhar,"Jagamohanpur, Keonjhar - OSPCB",26-02-2026 19:00:00,21.643900,85.599355,PM10,30,115,80
India,Odisha,Keonjhar,"Jagamohanpur, Keonjhar - OSPCB",26-02-2026 19:00:00,21.643900,85.599355,OZONE,5,56,48
India,Odisha,Rairangpur,"Divisional Forest Office, Rairangpur - OSPCB",26-02-2026 19:00:00,22.265816,86.174829,PM2.5,13,61,35
India,Odisha,Rairangpur,"Divisional Forest Office, Rairangpur - OSPCB",26-02-2026 19:00:00,22.265816,86.174829,OZONE,2,50,39
India,Odisha,Rourkela,"Fertilizer Township, Rourkela - OSPCB",26-02-2026 19:00:00,22.18972222,84.86277778,SO2,7,13,10
India,Odisha,Rourkela,"Raghunathpali, Rourkela - OSPCB",26-02-2026 19:00:00,22.220833,84.809444,CO,33,103,47
India,Punjab,Rupnagar,"Ratanpura, Rupnagar - Ambuja Cements",26-02-2026 19:00:00,31.0325454,76.5623046,PM2.5,19,245,113
India,Punjab,Rupnagar,"Ratanpura, Rupnagar - Ambuja Cements",26-02-2026 19:00:00,31.0325454,76.5623046,SO2,9,15,12
India,Rajasthan,Ajmer,"Civil Lines,  Ajmer - RSPCB",26-02-2026 19:00:00,26.470859,74.646594,PM2.5,51,93,71
India,Rajasthan,Alwar,"Moti Doongri, Alwar - RSPCB",26-02-2026 19:00:00,27.554793,76.611536,PM2.5,61,96,74
India,Rajasthan,Banswara,"Rati Talai, Banswara - RSPCB",26-02-2026 19:00:00,23.555190,74.440010,PM10,42,130,79
India,Rajasthan,Jaipur,"Police Commissionerate, Jaipur - RSPCB",26-02-2026 19:00:00,26.9164092,75.7994901,PM2.5,15,141,74
India,Rajasthan,Jaipur,"RIICO Sitapura, Jaipur - RSPCB",26-02-2026 19:00:00,26.786682,75.827928,PM2.5,32,376,137
India,Rajasthan,Jaipur,"Shastri Nagar, Jaipur - RSPCB",26-02-2026 19:00:00,26.9502929,75.730943,SO2,21,40,29
India,Rajasthan,Jaisalmer,"Sadar Bazar, Jaisalmer - RSPCB",26-02-2026 19:00:00,26.912329,70.909168,NO2,3,67,25
India,Odisha,Suakati,"OMC Colony, Suakati - OSPCB",26-02-2026 19:00:00,21.606865,85.510538,PM10,70,138,107
India,Odisha,Suakati,"OMC Colony, Suakati - OSPCB",26-02-2026 19:00:00,21.606865,85.510538,NH3,7,7,7
India,Odisha,Suakati,"OMC Colony, Suakati - OSPCB",26-02-2026 19:00:00,21.606865,85.510538,OZONE,23,136,108
India,Odisha,Talcher,"Talcher Coalfields,Talcher - OSPCB",26-02-2026 19:00:00,20.9360711,85.1707021,PM10,69,264,155
India,Rajasthan,Hanumangarh,"Housing Board, Hanumangarh - RSPCB",26-02-2026 19:00:00,29.610750,74.283608,PM2.5,20,77,44
India,Rajasthan,Jaipur,"Adarsh Nagar, Jaipur - RSPCB",26-02-2026 19:00:00,26.902909,75.836858,OZONE,8,121,72
India,TamilNadu,Ramanathapuram,"Chalai Bazaar, Ramanathapuram - TNPCB",26-02-2026 19:00:00,9.36399,78.831977,CO,8,16,12
India,TamilNadu,Ramanathapuram,"Chalai Bazaar, Ramanathapuram - TNPCB",26-02-2026 19:00:00,9.36399,78.831977,OZONE,6,8,7
India,TamilNadu,Thoothukudi,"Meelavittan, Thoothukudi - TNPCB",26-02-2026 19:00:00,8.816428 ,78.099039,SO2,3,20,13
India,Telangana,Hyderabad,"Bollaram Industrial Area, Hyderabad - TSPCB",26-02-2026 19:00:00,17.540891,78.358528,PM2.5,NA,NA,NA
India,Telangana,Hyderabad,"Bollaram Industrial Area, Hyderabad - TSPCB",26-02-2026 19:00:00,17.540891,78.358528,OZONE,41,64,52
India,Telangana,Hyderabad,"Central University, Hyderabad - TSPCB",26-02-2026 19:00:00,17.460103,78.334361,PM2.5,NA,NA,NA
India,Telangana,Hyderabad,"Central University, Hyderabad - TSPCB",26-02-2026 19:00:00,17.460103,78.334361,OZONE,15,15,15
India,Telangana,Hyderabad,"ECIL Kapra, Hyderabad - TSPCB",26-02-2026 19:00:00,17.470431,78.566959,CO,16,42,18
India,Telangana,Hyderabad,"ICRISAT Patancheru, Hyderabad - TSPCB",26-02-2026 19:00:00,17.518400,78.278777,NH3,1,5,2
India,Telangana,Hyderabad,"ICRISAT Patancheru, Hyderabad - TSPCB",26-02-2026 19:00:00,17.518400,78.278777,SO2,1,18,6
India,Telangana,Hyderabad,"IDA Pashamylaram, Hyderabad - TSPCB",26-02-2026 19:00:00,17.5316895,78.218939,NO2,6,9,7
India,Rajasthan,Pratapgarh,"Pragati Nagar, Pratapgarh - RSPCB",26-02-2026 19:00:00,24.041198,74.780702,NH3,5,8,6
India,Rajasthan,Rajsamand,"Dhoinda, Rajsamand - RSPCB",26-02-2026 19:00:00,25.036360,73.883502,NH3,7,18,11
India,Rajasthan,Rajsamand,"Dhoinda, Rajsamand - RSPCB",26-02-2026 19:00:00,25.036360,73.883502,OZONE,7,143,111
India,Rajasthan,Sawai Madhopur,"Sahu Nagar, Sawai Madhopur - RSPCB",26-02-2026 19:00:00,26.031443,76.359327,PM2.5,14,331,85
India,Rajasthan,Sawai Madhopur,"Sahu Nagar, Sawai Madhopur - RSPCB",26-02-2026 19:00:00,26.031443,76.359327,PM10,72,500,175
India,Rajasthan,Sawai Madhopur,"Sahu Nagar, Sawai Madhopur - RSPCB",26-02-2026 19:00:00,26.031443,76.359327,NO2,10,102,37
India,Rajasthan,Sikar,"Radhakishan Pura, Sikar - RSPCB",26-02-2026 19:00:00,27.608912,75.153302,PM10,51,238,107
India,Rajasthan,Sirohi,"Vedhaynath Colony, Sirohi - RSPCB",26-02-2026 19:00:00,24.885261,72.857549,PM10,47,177,80
India,Rajasthan,Sirohi,"Vedhaynath Colony, Sirohi - RSPCB",26-02-2026 19:00:00,24.885261,72.857549,NH3,2,6,4
India,Rajasthan,Sirohi,"Vedhaynath Colony, Sirohi - RSPCB",26-02-2026 19:00:00,24.885261,72.857549,CO,11,57,17
India,TamilNadu,Chennai,"Velachery Res. Area, Chennai - CPCB",26-02-2026 19:00:00,13.0052189,80.2398125,PM2.5,NA,NA,NA
India,TamilNadu,Coimbatore,"PSG College of Arts and Science, Coimbatore - TNPCB",26-02-2026 19:00:00,11.0328,77.0349,PM2.5,81,254,139
India,TamilNadu,Coimbatore,"PSG College of Arts and Science, Coimbatore - TNPCB",26-02-2026 19:00:00,11.0328,77.0349,OZONE,3,6,5
India,TamilNadu,Coimbatore,"SIDCO Kurichi, Coimbatore - TNPCB",26-02-2026 19:00:00,10.942451,76.978996,PM2.5,40,79,53
India,TamilNadu,Gummidipoondi,"Anthoni Pillai Nagar, Gummidipoondi - TNPCB",26-02-2026 19:00:00,13.4127,80.1081,NH3,1,1,1
India,TamilNadu,Madurai,"Uchapatti, Madurai - TNPCB",26-02-2026 19:00:00,9.865935,78.022669,PM10,NA,NA,NA
India,TamilNadu,Madurai,"Uchapatti, Madurai - TNPCB",26-02-2026 19:00:00,9.865935,78.022669,NH3,NA,NA,NA
India,TamilNadu,Perundurai,"SIPCOT Industrial Park, Perundurai - TNPCB",26-02-2026 19:00:00,11.258242,77.552761,PM2.5,68,118,89
India,Rajasthan,Kota,"Dhanmandi, Kota - RSPCB",26-02-2026 19:00:00,25.164090,75.858137,CO,11,78,22
India,Rajasthan,Kota,"Nayapura, Kota - RSPCB",26-02-2026 19:00:00,25.196024,75.855668,PM10,68,209,122
India,Rajasthan,Kota,"Nayapura, Kota - RSPCB",26-02-2026 19:00:00,25.196024,75.855668,NO2,16,107,55
India,Rajasthan,Kota,"Nayapura, Kota - RSPCB",26-02-2026 19:00:00,25.196024,75.855668,NH3,5,10,8
India,Rajasthan,Kota,"Nayapura, Kota - RSPCB",26-02-2026 19:00:00,25.196024,75.855668,CO,18,95,28
India,Rajasthan,Kota,"Shrinath Puram, Kota - RSPCB",26-02-2026 19:00:00,25.14389,75.821256,PM10,77,128,100
India,Rajasthan,Kota,"Shrinath Puram, Kota - RSPCB",26-02-2026 19:00:00,25.14389,75.821256,SO2,NA,NA,NA
India,Rajasthan,Nagaur,"Karni Colony, Nagaur - RSPCB",26-02-2026 19:00:00,27.213494,73.734444,NO2,12,39,21
India,Rajasthan,Pali,"Indira Colony Vistar, Pali - RSPCB",26-02-2026 19:00:00,25.771061, 73.340227,NO2,18,39,28
India,Rajasthan,Pali,"Indira Colony Vistar, Pali - RSPCB",26-02-2026 19:00:00,25.771061, 73.340227,SO2,5,16,12
India,Rajasthan,Sri Ganganagar,"Old City, Sri Ganganagar - RSPCB",26-02-2026 19:00:00,29.931624,73.864511,OZONE,20,311,123
India,Rajasthan,Tonk,"Shastri Nagar, Tonk - RSPCB",26-02-2026 19:00:00,26.159933,75.780517,PM2.5,42,120,77
India,Rajasthan,Tonk,"Shastri Nagar, Tonk - RSPCB",26-02-2026 19:00:00,26.159933,75.780517,NO2,17,80,38
India,Rajasthan,Tonk,"Shastri Nagar, Tonk - RSPCB",26-02-2026 19:00:00,26.159933,75.780517,OZONE,2,121,81
India,Sikkim,Gangtok,"Zero Point GICI, Gangtok - SSPCB",26-02-2026 19:00:00,27.338530,88.614099,NH3,1,1,1
India,Sikkim,Gangtok,"Zero Point GICI, Gangtok - SSPCB",26-02-2026 19:00:00,27.338530,88.614099,OZONE,20,24,22
India,TamilNadu,Chennai,"Arumbakkam, Chennai - TNPCB",26-02-2026 19:00:00,13.0664,80.2112 ,PM2.5,15,101,63
India,TamilNadu,Chennai,"Arumbakkam, Chennai - TNPCB",26-02-2026 19:00:00,13.0664,80.2112 ,PM10,37,153,99
India,TamilNadu,Chennai,"Arumbakkam, Chennai - TNPCB",26-02-2026 19:00:00,13.0664,80.2112 ,NO2,8,23,15
India,Rajasthan,Jodhpur,"Mandor, Jodhpur - RSPCB",26-02-2026 19:00:00,26.358805,73.047444,PM2.5,23,103,54
India,Rajasthan,Jodhpur,"Samrat Ashok Udhyan, Jodhpur - RSPCB",26-02-2026 19:00:00,26.253384,72.976571,CO,10,96,21
India,Rajasthan,Karauli,"Satyawati Vihar, Karauli - RSPCB",26-02-2026 19:00:00,26.506177,77.025989,PM2.5,16,194,83
India,Rajasthan,Karauli,"Satyawati Vihar, Karauli - RSPCB",26-02-2026 19:00:00,26.506177,77.025989,NO2,17,99,36
India,Rajasthan,Karauli,"Satyawati Vihar, Karauli - RSPCB",26-02-2026 19:00:00,26.506177,77.025989,SO2,5,13,9
India,Rajasthan,Karauli,"Satyawati Vihar, Karauli - RSPCB",26-02-2026 19:00:00,26.506177,77.025989,OZONE,6,84,70
India,Rajasthan,Kota,"Dhanmandi, Kota - RSPCB",26-02-2026 19:00:00,25.164090,75.858137,PM2.5,23,253,86
India,Rajasthan,Kota,"Dhanmandi, Kota - RSPCB",26-02-2026 19:00:00,25.164090,75.858137,PM10,85,213,133
India,Rajasthan,Jalore,"Mudtra Sili, Jalore - RSPCB",26-02-2026 19:00:00,25.344694,72.626208,OZONE,1,115,93
India,Rajasthan,Jodhpur,"Collectorate, Jodhpur - RSPCB",26-02-2026 19:00:00,26.268249,73.0193853,PM2.5,39,130,71
India,Rajasthan,Jodhpur,"Collectorate, Jodhpur - RSPCB",26-02-2026 19:00:00,26.268249,73.0193853,PM10,51,120,82
India,Rajasthan,Jodhpur,"Collectorate, Jodhpur - RSPCB",26-02-2026 19:00:00,26.268249,73.0193853,SO2,1,34,12
India,Rajasthan,Jodhpur,"Collectorate, Jodhpur - RSPCB",26-02-2026 19:00:00,26.268249,73.0193853,CO,8,121,56
India,Rajasthan,Jodhpur,"Collectorate, Jodhpur - RSPCB",26-02-2026 19:00:00,26.268249,73.0193853,OZONE,8,83,72
India,Rajasthan,Jodhpur,"Digari Kalan, Jodhpur - RSPCB",26-02-2026 19:00:00,26.295810,73.082283,PM10,54,411,161
India,TamilNadu,Chennai,"Kodungaiyur, Chennai - TNPCB",26-02-2026 19:00:00,13.1278,80.2642,NO2,12,16,14
India,TamilNadu,Chennai,"Manali Village, Chennai - TNPCB",26-02-2026 19:00:00,13.1662,80.2584,CO,18,42,23
India,TamilNadu,Chennai,"Manali, Chennai - CPCB",26-02-2026 19:00:00,13.164544,80.26285,NH3,NA,NA,NA
India,TamilNadu,Chennai,"Manali, Chennai - CPCB",26-02-2026 19:00:00,13.164544,80.26285,CO,11,101,11
India,TamilNadu,Chennai,"Perungudi, Chennai - TNPCB",26-02-2026 19:00:00,12.9533,80.2357,NH3,1,4,2
India,TamilNadu,Chennai,"Royapuram, Chennai - TNPCB",26-02-2026 19:00:00,13.1036,80.2909,PM10,18,115,66
India,Telangana,Hyderabad,"IDA Pashamylaram, Hyderabad - TSPCB",26-02-2026 19:00:00,17.5316895,78.218939,OZONE,17,23,22
India,Telangana,Hyderabad,"IITH Kandi, Hyderabad - TSPCB",26-02-2026 19:00:00,17.585705,78.126199,NO2,13,19,15
India,Telangana,Hyderabad,"IITH Kandi, Hyderabad - TSPCB",26-02-2026 19:00:00,17.585705,78.126199,SO2,14,24,20
India,Uttar_Pradesh,Bareilly,"Rajendra Nagar, Bareilly - UPPCB",26-02-2026 19:00:00,28.38910936,79.42963708,CO,1,13,8
India,Uttar_Pradesh,Bulandshahr,"Yamunapuram, Bulandshahr - UPPCB",26-02-2026 19:00:00,28.406963,77.849831,PM2.5,31,160,100
India,Uttar_Pradesh,Bulandshahr,"Yamunapuram, Bulandshahr - UPPCB",26-02-2026 19:00:00,28.406963,77.849831,NH3,7,12,9
India,Uttar_Pradesh,Bulandshahr,"Yamunapuram, Bulandshahr - UPPCB",26-02-2026 19:00:00,28.406963,77.849831,SO2,14,31,22
India,Uttar_Pradesh,Bulandshahr,"Yamunapuram, Bulandshahr - UPPCB",26-02-2026 19:00:00,28.406963,77.849831,OZONE,1,95,66
India,Uttar_Pradesh,Firozabad,"Nagla Bhau, Firozabad - UPPCB",26-02-2026 19:00:00,27.168897,78.376960,PM10,41,169,82
India,Uttar_Pradesh,Firozabad,"Vibhab Nagar, Firozabad - UPPCB",26-02-2026 19:00:00,27.1594,78.3953,NH3,2,2,2
India,Uttar_Pradesh,Ghaziabad,"Indirapuram, Ghaziabad - UPPCB",26-02-2026 19:00:00,28.646233,77.358075,PM10,113,338,190
India,Uttar_Pradesh,Ghaziabad,"Loni, Ghaziabad - UPPCB",26-02-2026 19:00:00,28.757294,77.278792,NH3,1,26,6
India,Uttar_Pradesh,Agra,"Sector-3B Avas Vikas Colony, Agra - UPPCB",26-02-2026 19:00:00,27.19412,77.96237,NH3,5,7,6
India,Uttar_Pradesh,Agra,"Shahjahan Garden, Agra - UPPCB",26-02-2026 19:00:00,27.169338,78.03582,NH3,3,3,3
India,Uttar_Pradesh,Agra,"Shahjahan Garden, Agra - UPPCB",26-02-2026 19:00:00,27.169338,78.03582,CO,8,52,12
India,Uttar_Pradesh,Agra,"Shastripuram, Agra - UPPCB",26-02-2026 19:00:00,27.19862,77.92066,NH3,3,3,3
India,Uttar_Pradesh,Bareilly,"Civil Lines, Bareilly - UPPCB",26-02-2026 19:00:00,28.359581,79.414455,CO,45,56,50
India,Uttar_Pradesh,Bareilly,"Civil Lines, Bareilly - UPPCB",26-02-2026 19:00:00,28.359581,79.414455,OZONE,15,94,26
India,Uttar_Pradesh,Bareilly,"Rajendra Nagar, Bareilly - UPPCB",26-02-2026 19:00:00,28.38910936,79.42963708,PM10,64,109,86
India,Uttar_Pradesh,Bareilly,"Rajendra Nagar, Bareilly - UPPCB",26-02-2026 19:00:00,28.38910936,79.42963708,NO2,9,10,9
India,Uttar_Pradesh,Ghaziabad,"Sanjay Nagar, Ghaziabad - UPPCB",26-02-2026 19:00:00,28.685382,77.453839,PM10,136,320,186
India,Uttar_Pradesh,Ghaziabad,"Vasundhara, Ghaziabad - UPPCB",26-02-2026 19:00:00,28.6603346,77.3572563,PM10,127,337,189
India,Uttar_Pradesh,Ghaziabad,"Vasundhara, Ghaziabad - UPPCB",26-02-2026 19:00:00,28.6603346,77.3572563,NO2,22,138,74
India,Uttar_Pradesh,Ghaziabad,"Vasundhara, Ghaziabad - UPPCB",26-02-2026 19:00:00,28.6603346,77.3572563,SO2,6,111,32
India,Uttar_Pradesh,Ghaziabad,"Vasundhara, Ghaziabad - UPPCB",26-02-2026 19:00:00,28.6603346,77.3572563,OZONE,2,71,54
India,Uttar_Pradesh,Gorakhpur,"Madan Mohan Malaviya University of Technology, Gorakhpur - UPPCB",26-02-2026 19:00:00,26.730136,83.433859,PM2.5,60,121,81
India,Uttar_Pradesh,Greater Noida,"Knowledge Park - III, Greater Noida - UPPCB",26-02-2026 19:00:00,28.47272,77.482000,OZONE,4,119,89
India,Tripura,Agartala,"Bardowali, Agartala - Tripura SPCB",26-02-2026 19:00:00,23.8175497,91.2726974,OZONE,1,7,4
India,Uttar_Pradesh,Agra,"Manoharpur, Agra - UPPCB",26-02-2026 19:00:00,27.23711,78.01936,PM2.5,22,166,64
India,Uttar_Pradesh,Agra,"Manoharpur, Agra - UPPCB",26-02-2026 19:00:00,27.23711,78.01936,NH3,5,5,5
India,Uttar_Pradesh,Agra,"Rohta, Agra - UPPCB",26-02-2026 19:00:00,27.106972,78.000111,PM2.5,28,184,78
India,Uttar_Pradesh,Agra,"Rohta, Agra - UPPCB",26-02-2026 19:00:00,27.106972,78.000111,PM10,49,290,137
India,Uttar_Pradesh,Agra,"Sanjay Palace, Agra - UPPCB",26-02-2026 19:00:00,27.19865833,78.00598056,PM2.5,25,318,167
India,Uttar_Pradesh,Agra,"Sanjay Palace, Agra - UPPCB",26-02-2026 19:00:00,27.19865833,78.00598056,PM10,67,142,106
India,Uttar_Pradesh,Agra,"Sanjay Palace, Agra - UPPCB",26-02-2026 19:00:00,27.19865833,78.00598056,CO,32,71,32
India,Uttar_Pradesh,Lucknow,"Kendriya Vidyalaya, Lucknow - CPCB",26-02-2026 19:00:00,26.906111,80.948222,PM2.5,64,280,136
India,Uttar_Pradesh,Lucknow,"Kendriya Vidyalaya, Lucknow - CPCB",26-02-2026 19:00:00,26.906111,80.948222,PM10,136,195,167
India,Uttar_Pradesh,Lucknow,"Kendriya Vidyalaya, Lucknow - CPCB",26-02-2026 19:00:00,26.906111,80.948222,SO2,10,37,17
India,Uttar_Pradesh,Lucknow,"Kendriya Vidyalaya, Lucknow - CPCB",26-02-2026 19:00:00,26.906111,80.948222,OZONE,10,41,36
India,Uttar_Pradesh,Lucknow,"Kukrail Picnic Spot-1, Lucknow - UPPCB",26-02-2026 19:00:00,26.90723,80.98579,CO,10,12,11
India,Uttar_Pradesh,Lucknow,"Lalbagh, Lucknow - CPCB",26-02-2026 19:00:00,26.8458805,80.9365541,NH3,13,21,17
India,Uttar_Pradesh,Lucknow,"Lalbagh, Lucknow - CPCB",26-02-2026 19:00:00,26.8458805,80.9365541,CO,26,76,64
India,Uttar_Pradesh,Lucknow,"Lalbagh, Lucknow - CPCB",26-02-2026 19:00:00,26.8458805,80.9365541,OZONE,8,39,32
India,Uttar_Pradesh,Greater Noida,"Knowledge Park - V, Greater Noida - UPPCB",26-02-2026 19:00:00,28.557054,77.453663,NH3,6,12,9
India,Uttar_Pradesh,Hapur,"Anand Vihar, Hapur - UPPCB",26-02-2026 19:00:00,28.725645,77.749675,PM10,80,194,135
India,Uttar_Pradesh,Hapur,"Anand Vihar, Hapur - UPPCB",26-02-2026 19:00:00,28.725645,77.749675,OZONE,7,75,59
India,Uttar_Pradesh,Jhansi,"Shivaji Nagar, Jhansi - UPPCB",26-02-2026 19:00:00,25.4547,78.6039,PM2.5,12,61,39
India,Uttar_Pradesh,Kanpur,"FTI Kidwai Nagar, Kanpur - UPPCB",26-02-2026 19:00:00,26.428282,80.327067,CO,34,43,35
India,Uttar_Pradesh,Kanpur,"FTI Kidwai Nagar, Kanpur - UPPCB",26-02-2026 19:00:00,26.428282,80.327067,OZONE,11,13,12
India,Telangana,Hyderabad,"Kokapet, Hyderabad - TSPCB",26-02-2026 19:00:00,17.393559,78.339194,PM2.5,53,76,60
India,Telangana,Hyderabad,"Kokapet, Hyderabad - TSPCB",26-02-2026 19:00:00,17.393559,78.339194,OZONE,17,33,28
India,Telangana,Hyderabad,"Kompally Municipal Office, Hyderabad - TSPCB",26-02-2026 19:00:00,17.544899,78.486949,PM10,72,111,85
India,Telangana,Hyderabad,"Nacharam_TSIIC IALA, Hyderabad - TSPCB",26-02-2026 19:00:00,17.429398,78.569354,NO2,13,17,14
India,Telangana,Hyderabad,"New Malakpet, Hyderabad - TSPCB",26-02-2026 19:00:00,17.37206,78.50864,PM10,80,120,91
India,Uttar_Pradesh,Kanpur,"Nehru Nagar, Kanpur - UPPCB",26-02-2026 19:00:00,26.4703136,80.3229863,SO2,2,38,15
India,Uttar_Pradesh,Khurja,"Kalindi Kunj, Khurja - UPPCB",26-02-2026 19:00:00,28.2348927,77.8683002,OZONE,3,17,6
India,Uttar_Pradesh,Lucknow,"Gomti Nagar, Lucknow - UPPCB",26-02-2026 19:00:00,26.868120,81.005119,PM2.5,66,219,144
India,Uttar_Pradesh,Lucknow,"Gomti Nagar, Lucknow - UPPCB",26-02-2026 19:00:00,26.868120,81.005119,CO,32,40,39
India,Telangana,Hyderabad,"New Malakpet, Hyderabad - TSPCB",26-02-2026 19:00:00,17.37206,78.50864,SO2,15,22,17
India,Telangana,Hyderabad,"Ramachandrapuram, Hyderabad - TSPCB",26-02-2026 19:00:00,17.528544,78.286195,PM10,67,82,74
India,Telangana,Hyderabad,"Zoo Park, Hyderabad - TSPCB",26-02-2026 19:00:00,17.349694,78.451437,CO,1,41,33
India,West_Bengal,Howrah,"Belur Math, Howrah - WBPCB",26-02-2026 19:00:00,22.629801,88.352017,PM10,81,415,188
India,West_Bengal,Howrah,"Belur Math, Howrah - WBPCB",26-02-2026 19:00:00,22.629801,88.352017,NO2,36,185,91
India,West_Bengal,Howrah,"Botanical Garden, Howrah - WBPCB",26-02-2026 19:00:00,22.554954,88.292568,PM2.5,26,157,81
India,West_Bengal,Howrah,"Botanical Garden, Howrah - WBPCB",26-02-2026 19:00:00,22.554954,88.292568,PM10,33,150,93
India,West_Bengal,Howrah,"Botanical Garden, Howrah - WBPCB",26-02-2026 19:00:00,22.554954,88.292568,NH3,2,2,2
India,West_Bengal,Howrah,"Botanical Garden, Howrah - WBPCB",26-02-2026 19:00:00,22.554954,88.292568,CO,2,121,8
India,West_Bengal,Howrah,"Dasnagar, Howrah - WBPCB",26-02-2026 19:00:00,22.6025571,88.3105664,NO2,8,148,64
India,West_Bengal,Howrah,"Dasnagar, Howrah - WBPCB",26-02-2026 19:00:00,22.6025571,88.3105664,OZONE,15,142,120
India,West_Bengal,Howrah,"Ghusuri, Howrah - WBPCB",26-02-2026 19:00:00,22.611968,88.347422,PM10,94,426,189
India,West_Bengal,Howrah,"Ghusuri, Howrah - WBPCB",26-02-2026 19:00:00,22.611968,88.347422,NO2,8,62,22
India,West_Bengal,Howrah,"Ghusuri, Howrah - WBPCB",26-02-2026 19:00:00,22.611968,88.347422,SO2,12,19,15
India,West_Bengal,Howrah,"Ghusuri, Howrah - WBPCB",26-02-2026 19:00:00,22.611968,88.347422,OZONE,10,28,22
India,West_Bengal,Howrah,"Padmapukur, Howrah - WBPCB",26-02-2026 19:00:00,22.5687319,88.2797276,SO2,1,13,6
India,Uttar_Pradesh,Prayagraj,"Jhunsi, Prayagraj - UPPCB",26-02-2026 19:00:00,25.425602,81.917152,NH3,5,5,5
India,Uttar_Pradesh,Prayagraj,"Jhunsi, Prayagraj - UPPCB",26-02-2026 19:00:00,25.425602,81.917152,SO2,22,93,38
India,Uttar_Pradesh,Prayagraj,"Motilal Nehru NIT, Prayagraj - UPPCB",26-02-2026 19:00:00,25.494,81.863,PM10,39,80,55
India,Uttar_Pradesh,Prayagraj,"Nagar Nigam, Prayagraj - UPPCB",26-02-2026 19:00:00,25.44919916 ,81.82735986 ,PM2.5,21,72,41
India,Uttar_Pradesh,Prayagraj,"Nagar Nigam, Prayagraj - UPPCB",26-02-2026 19:00:00,25.44919916 ,81.82735986 ,OZONE,11,12,12
India,Uttar_Pradesh,Raebareli," Indira Nagar, Raebareli - NTPC Unchahar",26-02-2026 19:00:00,26.207781,81.245571,NH3,7,11,9
India,Uttar_Pradesh,Varanasi,"Ardhali Bazar, Varanasi - UPPCB",26-02-2026 19:00:00,25.3505986,82.9083074,PM2.5,12,77,54
India,Uttar_Pradesh,Varanasi,"Ardhali Bazar, Varanasi - UPPCB",26-02-2026 19:00:00,25.3505986,82.9083074,CO,8,28,18
India,Uttar_Pradesh,Varanasi,"Ardhali Bazar, Varanasi - UPPCB",26-02-2026 19:00:00,25.3505986,82.9083074,OZONE,19,45,31
India,Uttar_Pradesh,Moradabad,"Eco Herbal Park, Moradabad - UPPCB",26-02-2026 19:00:00,28.840739,78.697531,PM2.5,42,192,126
India,Uttar_Pradesh,Moradabad,"Eco Herbal Park, Moradabad - UPPCB",26-02-2026 19:00:00,28.840739,78.697531,NH3,3,7,5
India,Uttar_Pradesh,Moradabad,"Employment Office, Moradabad - UPPCB",26-02-2026 19:00:00,28.88528,78.73880,PM10,81,135,114
India,Uttar_Pradesh,Moradabad,"Employment Office, Moradabad - UPPCB",26-02-2026 19:00:00,28.88528,78.73880,NO2,16,16,16
India,Uttar_Pradesh,Moradabad,"Employment Office, Moradabad - UPPCB",26-02-2026 19:00:00,28.88528,78.73880,OZONE,17,24,22
India,Uttar_Pradesh,Moradabad,"Jigar Colony, Moradabad - UPPCB",26-02-2026 19:00:00,28.856664,78.772638,NO2,25,25,25
India,Uttar_Pradesh,Moradabad,"Jigar Colony, Moradabad - UPPCB",26-02-2026 19:00:00,28.856664,78.772638,OZONE,16,24,22
India,Uttar_Pradesh,Moradabad,"Kashiram Nagar, Moradabad - UPPCB",26-02-2026 19:00:00,28.849399,78.742362,OZONE,47,62,54
India,Uttar_Pradesh,Moradabad,"Transport Nagar, Moradabad - UPPCB",26-02-2026 19:00:00,28.802625,78.753728,OZONE,28,65,48
India,Uttar_Pradesh,Varanasi,"IESD Banaras Hindu University, Varanasi - UPPCB",26-02-2026 19:00:00,25.262326,82.995408,PM10,29,105,63
India,Uttar_Pradesh,Varanasi,"Maldahiya, Varanasi - UPPCB",26-02-2026 19:00:00,25.32393,82.99687,NO2,1,1,1
India,Uttar_Pradesh,Varanasi,"Maldahiya, Varanasi - UPPCB",26-02-2026 19:00:00,25.32393,82.99687,OZONE,2,8,6
India,Uttar_Pradesh,Vrindavan,"Omex Eternity, Vrindavan - UPPCB",26-02-2026 19:00:00,27.5714090,77.6557570,PM2.5,17,148,60
India,Uttar_Pradesh,Vrindavan,"Omex Eternity, Vrindavan - UPPCB",26-02-2026 19:00:00,27.5714090,77.6557570,NO2,27,27,27
India,Uttar_Pradesh,Vrindavan,"Omex Eternity, Vrindavan - UPPCB",26-02-2026 19:00:00,27.5714090,77.6557570,NH3,1,11,8
India,Uttar_Pradesh,Vrindavan,"Omex Eternity, Vrindavan - UPPCB",26-02-2026 19:00:00,27.5714090,77.6557570,CO,14,83,18
India,Uttar_Pradesh,Vrindavan,"Omex Eternity, Vrindavan - UPPCB",26-02-2026 19:00:00,27.5714090,77.6557570,OZONE,15,16,15
India,West_Bengal,Barrackpore,"SVSPA Campus, Barrackpore - WBPCB",26-02-2026 19:00:00,22.7605581,88.3617589,SO2,11,15,13
India,West_Bengal,Barrackpore,"SVSPA Campus, Barrackpore - WBPCB",26-02-2026 19:00:00,22.7605581,88.3617589,OZONE,1,80,54
India,West_Bengal,Durgapur,"Mahishkapur Road_B-Zone, Durgapur - WBPCB",26-02-2026 19:00:00,23.567923,87.306843,SO2,7,77,20
India,West_Bengal,Durgapur,"Mahishkapur Road_B-Zone, Durgapur - WBPCB",26-02-2026 19:00:00,23.567923,87.306843,CO,2,111,24
India,West_Bengal,Durgapur,"PCBL Residential Complex, Durgapur - WBPCB",26-02-2026 19:00:00,23.5087640,87.3544400,CO,46,109,59
India,West_Bengal,Haldia,"Priyambada Housing Estate, Haldia - WBPCB",26-02-2026 19:00:00,22.06047,88.109737,NO2,12,71,30
India,Uttarakhand,Kashipur,"Govt. Girls Inter College, Kashipur - UKPCB",26-02-2026 19:00:00,29.2124114,78.9611753,PM2.5,113,242,164
India,West_Bengal,Asansol,"Evelyn Lodge, Asansol - WBPCB",26-02-2026 19:00:00,23.6979360,86.9443950,NO2,10,41,25
India,West_Bengal,Asansol,"Mahabir Colliery, Asansol - WBPCB",26-02-2026 19:00:00,23.6181830,87.1057180,CO,46,102,67
India,West_Bengal,Asansol,"Trivenidevi Bhalotia College, Asansol - WBPCB",26-02-2026 19:00:00,23.616515,87.119133,SO2,4,11,7
India,Uttar_Pradesh,Lucknow,"Talkatora District Industries Center, Lucknow - CPCB",26-02-2026 19:00:00,26.83399722,80.8917361,OZONE,9,44,35
India,Uttar_Pradesh,Meerut,"Ganga Nagar, Meerut - UPPCB",26-02-2026 19:00:00,28.999264,77.7590354,PM2.5,91,240,163
India,Uttar_Pradesh,Meerut,"Jai Bhim Nagar, Meerut - UPPCB",26-02-2026 19:00:00,28.9535882,77.7622941,NO2,23,66,39
India,Uttar_Pradesh,Meerut,"Jai Bhim Nagar, Meerut - UPPCB",26-02-2026 19:00:00,28.9535882,77.7622941,NH3,6,10,8
India,Uttar_Pradesh,Meerut,"Jai Bhim Nagar, Meerut - UPPCB",26-02-2026 19:00:00,28.9535882,77.7622941,CO,39,82,46
India,Uttar_Pradesh,Muzaffarnagar,"New Mandi, Muzaffarnagar - UPPCB",26-02-2026 19:00:00,29.4723508,77.7194031,SO2,16,31,20
India,Uttar_Pradesh,Noida,"Sector-1, Noida - UPPCB",26-02-2026 19:00:00,28.5898,77.3101,PM10,89,211,147
India,Uttar_Pradesh,Prayagraj,"Jhunsi, Prayagraj - UPPCB",26-02-2026 19:00:00,25.425602,81.917152,PM2.5,32,78,52
India,Uttar_Pradesh,Moradabad,"Buddhi Vihar, Moradabad - UPPCB",26-02-2026 19:00:00,28.83526,78.74460,PM2.5,30,92,68
India,West_Bengal,Kolkata,"Ballygunge, Kolkata - WBPCB",26-02-2026 19:00:00,22.5367507,88.3638022,OZONE,9,40,28
India,West_Bengal,Kolkata,"Bidhannagar, Kolkata - WBPCB",26-02-2026 19:00:00,22.58157048,88.41002457,NH3,5,10,7
India,West_Bengal,Kolkata,"Fort William, Kolkata - WBPCB",26-02-2026 19:00:00,22.556640,88.342674,OZONE,2,44,38
India,West_Bengal,Kolkata,"Jadavpur, Kolkata - WBPCB",26-02-2026 19:00:00,22.49929,88.36917,SO2,1,5,3
India,West_Bengal,Kolkata,"Rabindra Bharati University, Kolkata - WBPCB",26-02-2026 19:00:00,22.627847,88.380669,SO2,6,26,10
India,West_Bengal,Kolkata,"Rabindra Sarobar, Kolkata - WBPCB",26-02-2026 19:00:00,22.51106,88.35142,CO,24,122,33
India,West_Bengal,Kolkata,"Victoria, Kolkata - WBPCB",26-02-2026 19:00:00,22.5448082,88.3403691,NO2,NA,NA,NA
India,West_Bengal,Siliguri,"Ward-32 Bapupara, Siliguri - WBPCB",26-02-2026 19:00:00,26.6879226,88.4152495,PM2.5,82,230,118
India,West_Bengal,Siliguri,"Ward-32 Bapupara, Siliguri - WBPCB",26-02-2026 19:00:00,26.6879226,88.4152495,NH3,10,10,10
India,West_Bengal,Siliguri,"Ward-32 Bapupara, Siliguri - WBPCB",26-02-2026 19:00:00,26.6879226,88.4152495,SO2,15,23,18
India,Andhra_Pradesh,Vijayawada,"Rajiv Gandhi Park, Vijayawada - APPCB",26-02-2026 19:00:00,16.509717,80.612222,SO2,12,18,15
India,Andhra_Pradesh,Vijayawada,"Rajiv Nagar, Vijayawada - APPCB",26-02-2026 19:00:00,16.554731,80.649110,PM10,59,68,63
India,Andhra_Pradesh,Vijayawada,"Rajiv Nagar, Vijayawada - APPCB",26-02-2026 19:00:00,16.554731,80.649110,NH3,4,5,4
India,Andhra_Pradesh,Visakhapatnam,"GVM Corporation, Visakhapatnam - APPCB",26-02-2026 19:00:00,17.72,83.3,SO2,6,119,21
India,Arunachal_Pradesh,Naharlagun,"Naharlagun, Naharlagun - APSPCB",26-02-2026 19:00:00,27.103358,93.679645,PM2.5,91,408,188
India,Arunachal_Pradesh,Naharlagun,"Naharlagun, Naharlagun - APSPCB",26-02-2026 19:00:00,27.103358,93.679645,OZONE,6,6,6
India,Assam,Byrnihat,"Central Academy for SFS, Byrnihat - PCBA",26-02-2026 19:00:00,26.071318,91.87488,PM2.5,88,411,188
India,Assam,Byrnihat,"Central Academy for SFS, Byrnihat - PCBA",26-02-2026 19:00:00,26.071318,91.87488,SO2,10,33,31
India,Assam,Guwahati,"LGBI Airport, Guwahati - PCBA",26-02-2026 19:00:00,26.10887,91.589544,PM10,33,147,96
India,Assam,Sivasagar,"Girls College, Sivasagar - PCBA",26-02-2026 19:00:00,26.987634,94.636574,SO2,7,14,9
India,Assam,Sivasagar,"Girls College, Sivasagar - PCBA",26-02-2026 19:00:00,26.987634,94.636574,OZONE,9,72,51
India,Bihar,Araria,"Kharahiya Basti, Araria - BSPCB",26-02-2026 19:00:00,26.146529,87.454184,NH3,4,5,4
India,Bihar,Araria,"Kharahiya Basti, Araria - BSPCB",26-02-2026 19:00:00,26.146529,87.454184,OZONE,9,10,10
India,Bihar,Arrah,"New DM Office, Arrah - BSPCB",26-02-2026 19:00:00,25.5626095,84.663264,NO2,5,9,7
India,Bihar,Aurangabad,"Gurdeo Nagar, Aurangabad - BSPCB",26-02-2026 19:00:00,24.75746,84.366208,PM2.5,20,77,38
India,Bihar,Aurangabad,"Gurdeo Nagar, Aurangabad - BSPCB",26-02-2026 19:00:00,24.75746,84.366208,PM10,59,143,87
India,Bihar,Aurangabad,"Gurdeo Nagar, Aurangabad - BSPCB",26-02-2026 19:00:00,24.75746,84.366208,NO2,7,8,8
India,Bihar,Bettiah,"Kamalnath Nagar, Bettiah - BSPCB",26-02-2026 19:00:00,26.80365,84.51954,NO2,7,9,8
India,Andhra_Pradesh,Tirupati,"Vaikuntapuram, Tirupati - APPCB",26-02-2026 19:00:00,13.615387,79.409230,SO2,14,17,15
India,Andhra_Pradesh,Vijayawada,"HB Colony, Vijayawada - APPCB",26-02-2026 19:00:00,16.536107,80.594233,PM2.5,44,109,55
India,Andhra_Pradesh,Vijayawada,"HB Colony, Vijayawada - APPCB",26-02-2026 19:00:00,16.536107,80.594233,PM10,39,105,51
India,Andhra_Pradesh,Vijayawada,"HB Colony, Vijayawada - APPCB",26-02-2026 19:00:00,16.536107,80.594233,NO2,16,20,19
India,Andhra_Pradesh,Vijayawada,"HB Colony, Vijayawada - APPCB",26-02-2026 19:00:00,16.536107,80.594233,NH3,5,6,5
India,Andhra_Pradesh,Vijayawada,"Kanuru, Vijayawada - APPCB",26-02-2026 19:00:00,16.486692,80.699436,CO,35,40,36
India,Andhra_Pradesh,Vijayawada,"Kanuru, Vijayawada - APPCB",26-02-2026 19:00:00,16.486692,80.699436,OZONE,38,44,41
India,Andhra_Pradesh,Vijayawada,"Rajiv Gandhi Park, Vijayawada - APPCB",26-02-2026 19:00:00,16.509717,80.612222,PM2.5,36,152,67
India,Assam,Guwahati,"Pan Bazaar, Guwahati - PCBA",26-02-2026 19:00:00,26.187500,91.744194,PM2.5,67,150,103
India,Assam,Guwahati,"Pan Bazaar, Guwahati - PCBA",26-02-2026 19:00:00,26.187500,91.744194,NO2,NA,NA,NA
India,Assam,Guwahati,"Pan Bazaar, Guwahati - PCBA",26-02-2026 19:00:00,26.187500,91.744194,NH3,1,1,1
India,Assam,Guwahati,"Pan Bazaar, Guwahati - PCBA",26-02-2026 19:00:00,26.187500,91.744194,SO2,33,70,47
India,Assam,Guwahati,"Pan Bazaar, Guwahati - PCBA",26-02-2026 19:00:00,26.187500,91.744194,CO,10,63,20
India,Assam,Guwahati,"Pan Bazaar, Guwahati - PCBA",26-02-2026 19:00:00,26.187500,91.744194,OZONE,12,22,19
India,Assam,Nagaon,"Christianpatty, Nagaon - PCBA",26-02-2026 19:00:00,26.349082,92.68449,SO2,8,13,10
India,Assam,Nagaon,"Christianpatty, Nagaon - PCBA",26-02-2026 19:00:00,26.349082,92.68449,OZONE,8,9,9
India,Assam,Nalbari,"Bata Chowk, Nalbari - PCBA",26-02-2026 19:00:00,26.446912,91.439057,PM10,98,129,114
India,Bihar,Bettiah,"Kamalnath Nagar, Bettiah - BSPCB",26-02-2026 19:00:00,26.80365,84.51954,CO,56,124,113
India,Bihar,Bihar Sharif,"D M Colony, Bihar Sharif - BSPCB",26-02-2026 19:00:00,25.204762,85.514960,SO2,9,10,10
India,Bihar,Buxar,"Charitra Van, Buxar - BSPCB",26-02-2026 19:00:00,25.567520,83.966379,NO2,9,10,9
India,Bihar,Buxar,"Charitra Van, Buxar - BSPCB",26-02-2026 19:00:00,25.567520,83.966379,OZONE,2,31,23
India,Bihar,Chhapra,"Darshan Nagar, Chhapra - BSPCB",26-02-2026 19:00:00,25.7808257,84.7446768,SO2,29,60,39
India,Bihar,Gaya,"Kareemganj, Gaya - BSPCB",26-02-2026 19:00:00,24.792403,84.992416,PM10,71,185,120
India,Bihar,Gaya,"SFTI Kusdihra, Gaya - BSPCB",26-02-2026 19:00:00,24.762518,84.982348,SO2,6,10,8
India,Bihar,Hajipur,"Industrial Area, Hajipur - BSPCB",26-02-2026 19:00:00,25.697189,85.245900,PM2.5,81,164,120
India,Bihar,Katihar,"Mirchaibari, Katihar - BSPCB",26-02-2026 19:00:00,25.560083,87.553265,PM10,28,79,56
India,Bihar,Katihar,"Mirchaibari, Katihar - BSPCB",26-02-2026 19:00:00,25.560083,87.553265,SO2,16,24,21
India,Andaman and Nicobar,Sri Vijaya Puram,"Police Line, Sri Vijaya Puram - ANPCC",26-02-2026 19:00:00,11.654054,92.734055,SO2,NA,NA,NA
India,Andhra_Pradesh,Amaravati,"Secretariat, Amaravati - APPCB",26-02-2026 19:00:00,16.5150833,80.5181667,OZONE,1,42,28
India,Andhra_Pradesh,Anantapur,"Gulzarpet, Anantapur - APPCB",26-02-2026 19:00:00,14.675886,77.593027,NO2,17,22,20
India,Assam,Nalbari,"Bata Chowk, Nalbari - PCBA",26-02-2026 19:00:00,26.446912,91.439057,NH3,5,7,6
India,Assam,Nalbari,"Bata Chowk, Nalbari - PCBA",26-02-2026 19:00:00,26.446912,91.439057,CO,18,23,21
India,Assam,Silchar,"Tarapur, Silchar - PCBA",26-02-2026 19:00:00,24.82827,92.79525,PM2.5,44,90,65
India,Assam,Silchar,"Tarapur, Silchar - PCBA",26-02-2026 19:00:00,24.82827,92.79525,NH3,1,2,2
India,Assam,Silchar,"Tarapur, Silchar - PCBA",26-02-2026 19:00:00,24.82827,92.79525,CO,22,44,39
India,Andhra_Pradesh,Chittoor,"Gangineni Cheruvu, Chittoor - APPCB",26-02-2026 19:00:00,13.204880,79.097889,SO2,12,16,13
India,Andhra_Pradesh,Kadapa,"Yerramukkapalli, Kadapa - APPCB",26-02-2026 19:00:00,14.465052,78.824187,PM10,68,93,81
India,Andhra_Pradesh,Kadapa,"Yerramukkapalli, Kadapa - APPCB",26-02-2026 19:00:00,14.465052,78.824187,NO2,21,25,22
India,Andhra_Pradesh,Tirumala,"Toll Gate, Tirumala - APPCB",26-02-2026 19:00:00,13.67,79.35,PM2.5,28,113,65
India,Andhra_Pradesh,Tirumala,"Toll Gate, Tirumala - APPCB",26-02-2026 19:00:00,13.67,79.35,PM10,46,94,64
India,Andhra_Pradesh,Tirumala,"Toll Gate, Tirumala - APPCB",26-02-2026 19:00:00,13.67,79.35,NH3,1,2,1
India,Delhi,Delhi,"Anand Vihar, Delhi - DPCC",26-02-2026 19:00:00,28.647622,77.3158090,SO2,7,39,21
India,Delhi,Delhi,"Ashok Vihar, Delhi - DPCC",26-02-2026 19:00:00,28.695381,77.181665,PM2.5,52,318,219
India,Delhi,Delhi,"Ashok Vihar, Delhi - DPCC",26-02-2026 19:00:00,28.695381,77.181665,NO2,30,143,82
India,Delhi,Delhi,"Ashok Vihar, Delhi - DPCC",26-02-2026 19:00:00,28.695381,77.181665,NH3,8,50,14
India,Delhi,Delhi,"Aya Nagar, Delhi - IMD",26-02-2026 19:00:00,28.4706914,77.1099364,PM2.5,50,229,128
India,Delhi,Delhi,"Aya Nagar, Delhi - IMD",26-02-2026 19:00:00,28.4706914,77.1099364,PM10,88,261,159
India,Delhi,Delhi,"Aya Nagar, Delhi - IMD",26-02-2026 19:00:00,28.4706914,77.1099364,OZONE,6,84,74
India,Delhi,Delhi,"Bawana, Delhi - DPCC",26-02-2026 19:00:00,28.776200,77.051074,PM10,121,318,206
India,Delhi,Delhi,"Burari Crossing, Delhi - IMD",26-02-2026 19:00:00,28.7256504,77.2011573,PM2.5,68,315,192
India,Delhi,Delhi,"Burari Crossing, Delhi - IMD",26-02-2026 19:00:00,28.7256504,77.2011573,PM10,111,252,169
India,Delhi,Delhi,"Burari Crossing, Delhi - IMD",26-02-2026 19:00:00,28.7256504,77.2011573,OZONE,11,309,284
India,Delhi,Delhi,"CRRI Mathura Road, Delhi - IMD",26-02-2026 19:00:00,28.5512005,77.2735737,OZONE,2,47,34
India,Bihar,Purnia,"Mariam Nagar, Purnia - BSPCB",26-02-2026 19:00:00,25.366336,87.117468,NO2,5,6,6
India,Bihar,Purnia,"Mariam Nagar, Purnia - BSPCB",26-02-2026 19:00:00,25.366336,87.117468,NH3,3,3,3
India,Bihar,Purnia,"Mariam Nagar, Purnia - BSPCB",26-02-2026 19:00:00,25.366336,87.117468,OZONE,4,57,9
India,Bihar,Rajgir,"Dangi Tola, Rajgir - BSPCB",26-02-2026 19:00:00,25.03280,85.41948,PM10,26,72,49
India,Bihar,Saharsa,"Police Line, Saharsa - BSPCB",26-02-2026 19:00:00,25.892357,86.590325,PM2.5,32,218,92
India,Bihar,Saharsa,"Police Line, Saharsa - BSPCB",26-02-2026 19:00:00,25.892357,86.590325,NH3,4,4,4
India,Bihar,Samastipur,"DM Office_Kasipur, Samastipur - BSPCB",26-02-2026 19:00:00,25.859655,85.77944,PM2.5,35,280,108
India,Bihar,Samastipur,"DM Office_Kasipur, Samastipur - BSPCB",26-02-2026 19:00:00,25.859655,85.77944,NH3,1,1,1
India,Bihar,Samastipur,"DM Office_Kasipur, Samastipur - BSPCB",26-02-2026 19:00:00,25.859655,85.77944,CO,4,4,4
India,Bihar,Samastipur,"DM Office_Kasipur, Samastipur - BSPCB",26-02-2026 19:00:00,25.859655,85.77944,OZONE,7,9,8
India,Bihar,Sasaram,"Dada Peer, Sasaram - BSPCB",26-02-2026 19:00:00,24.952822,84.002396,PM10,35,130,71
India,Bihar,Sasaram,"Dada Peer, Sasaram - BSPCB",26-02-2026 19:00:00,24.952822,84.002396,NO2,1,10,3
India,Chhattisgarh,Korba,"Rampur, Korba - CECB",26-02-2026 19:00:00,22.368195,82.746431,NH3,1,1,1
India,Chhattisgarh,Korba,"Rampur, Korba - CECB",26-02-2026 19:00:00,22.368195,82.746431,OZONE,1,12,8
India,Chhattisgarh,Korba,"Urja Nagar, Korba - CECB",26-02-2026 19:00:00,22.348441,82.549611,NO2,NA,NA,NA
India,Chhattisgarh,Korba,"Urja Nagar, Korba - CECB",26-02-2026 19:00:00,22.348441,82.549611,SO2,NA,NA,NA
India,Chhattisgarh,Korba,"Urja Nagar, Korba - CECB",26-02-2026 19:00:00,22.348441,82.549611,OZONE,3,63,25
India,Chhattisgarh,Kunjemura,"OP Jindal School, Kunjemura - CECB",26-02-2026 19:00:00,22.126650,83.483212,NO2,12,59,38
India,Chhattisgarh,Kunjemura,"OP Jindal School, Kunjemura - CECB",26-02-2026 19:00:00,22.126650,83.483212,SO2,1,41,14
India,Chhattisgarh,Milupara,"Govt. Higher Secondary School, Milupara - CECB",26-02-2026 19:00:00,22.1910172,83.5197009,NO2,NA,NA,NA
India,Bihar,Katihar,"Mirchaibari, Katihar - BSPCB",26-02-2026 19:00:00,25.560083,87.553265,OZONE,6,34,10
India,Bihar,Manguraha,"Forest Rest House, Manguraha - BSPCB",26-02-2026 19:00:00,27.308328,84.531742,OZONE,9,11,10
India,Bihar,Motihari,"Gandak Colony, Motihari - BSPCB",26-02-2026 19:00:00,26.63086,84.90051,NO2,4,7,5
India,Bihar,Motihari,"Gandak Colony, Motihari - BSPCB",26-02-2026 19:00:00,26.63086,84.90051,CO,16,29,18
India,Bihar,Munger,"Town Hall, Munger - BSPCB",26-02-2026 19:00:00,25.376776,86.471523,PM2.5,40,100,63
India,Bihar,Muzaffarpur,"Buddha Colony, Muzaffarpur - BSPCB",26-02-2026 19:00:00,26.11442,85.39813,PM10,NA,NA,NA
India,Bihar,Sasaram,"Dada Peer, Sasaram - BSPCB",26-02-2026 19:00:00,24.952822,84.002396,OZONE,15,34,20
India,Bihar,Siwan,"Chitragupta Nagar, Siwan - BSPCB",26-02-2026 19:00:00,26.2271665,84.3570427,PM2.5,42,87,55
India,Bihar,Siwan,"Chitragupta Nagar, Siwan - BSPCB",26-02-2026 19:00:00,26.2271665,84.3570427,NO2,2,2,2
India,Bihar,Siwan,"Chitragupta Nagar, Siwan - BSPCB",26-02-2026 19:00:00,26.2271665,84.3570427,CO,52,101,60
India,Bihar,Siwan,"Chitragupta Nagar, Siwan - BSPCB",26-02-2026 19:00:00,26.2271665,84.3570427,OZONE,10,11,11
India,Chandigarh,Chandigarh,"Sector 22, Chandigarh - CPCC",26-02-2026 19:00:00,30.735567,76.775714,SO2,9,35,13
India,Bihar,Muzaffarpur,"Buddha Colony, Muzaffarpur - BSPCB",26-02-2026 19:00:00,26.11442,85.39813,CO,18,70,28
India,Bihar,Muzaffarpur,"MIT-Daudpur Kothi, Muzaffarpur - BSPCB",26-02-2026 19:00:00,26.1403345,85.3650192,PM2.5,83,96,86
India,Bihar,Muzaffarpur,"Muzaffarpur Collectorate, Muzaffarpur - BSPCB",26-02-2026 19:00:00,26.1209,85.3647,NO2,10,17,15
India,Bihar,Patna,"DRM Office Danapur, Patna - BSPCB",26-02-2026 19:00:00,25.586562,85.043586,PM2.5,39,176,95
India,Bihar,Patna,"DRM Office Danapur, Patna - BSPCB",26-02-2026 19:00:00,25.586562,85.043586,SO2,5,7,6
India,Bihar,Patna,"Muradpur, Patna - BSPCB",26-02-2026 19:00:00,25.619651,85.147382,PM10,116,201,152
India,Bihar,Patna,"Muradpur, Patna - BSPCB",26-02-2026 19:00:00,25.619651,85.147382,SO2,7,10,9
India,Bihar,Patna,"Rajbansi Nagar, Patna - BSPCB",26-02-2026 19:00:00,25.599486,85.113666,PM2.5,69,99,83
India,Bihar,Patna,"Samanpura, Patna - BSPCB",26-02-2026 19:00:00,25.596727,85.085624,PM2.5,48,95,76
India,Chhattisgarh,Bhilai,"Hathkhoj, Bhilai - CECB",26-02-2026 19:00:00,21.224231,81.408350,PM2.5,14,143,50
India,Chhattisgarh,Bilaspur,"Mangala, Bilaspur - NTPC",26-02-2026 19:00:00,22.08815,82.13737,PM2.5,30,92,55
India,Chhattisgarh,Bilaspur,"Mangala, Bilaspur - NTPC",26-02-2026 19:00:00,22.08815,82.13737,SO2,11,39,18
India,Chhattisgarh,Raipur,"Krishak Nagar, Raipur - CECB",26-02-2026 19:00:00,21.237755,81.705301,PM2.5,21,65,47
India,Chhattisgarh,Raipur,"Siltara Phase-II, Raipur - CECB",26-02-2026 19:00:00,21.371751,81.664929,SO2,1,4,3
India,Delhi,Delhi,"Chandni Chowk, Delhi - IITM",26-02-2026 19:00:00,28.656756,77.227234,OZONE,1,108,85
India,Delhi,Delhi,"DTU, Delhi - CPCB",26-02-2026 19:00:00,28.7500499,77.1112615,NO2,24,71,52
India,Delhi,Delhi,"DTU, Delhi - CPCB",26-02-2026 19:00:00,28.7500499,77.1112615,OZONE,14,32,23
India,Delhi,Delhi,"Dr. Karni Singh Shooting Range, Delhi - DPCC",26-02-2026 19:00:00,28.498571,77.264840,PM10,97,237,160
India,Delhi,Delhi,"Dwarka-Sector 8, Delhi - DPCC ",26-02-2026 19:00:00,28.5710274,77.0719006,PM10,119,477,216
India,Delhi,Delhi,"IGI Airport (T3), Delhi - IMD",26-02-2026 19:00:00,28.5627763,77.1180053,PM10,NA,NA,NA
India,Delhi,Delhi,"IGI Airport (T3), Delhi - IMD",26-02-2026 19:00:00,28.5627763,77.1180053,CO,8,94,18
India,Delhi,Delhi,"IGI Airport (T3), Delhi - IMD",26-02-2026 19:00:00,28.5627763,77.1180053,OZONE,4,58,47
India,Delhi,Delhi,"IHBAS, Dilshad Garden, Delhi - CPCB",26-02-2026 19:00:00,28.6811736,77.3025234,PM2.5,70,210,127
India,Delhi,Delhi,"IHBAS, Dilshad Garden, Delhi - CPCB",26-02-2026 19:00:00,28.6811736,77.3025234,PM10,102,158,137
India,Delhi,Delhi,"Major Dhyan Chand National Stadium, Delhi - DPCC",26-02-2026 19:00:00,28.611281,77.237738,NO2,26,151,90
India,Delhi,Delhi,"Major Dhyan Chand National Stadium, Delhi - DPCC",26-02-2026 19:00:00,28.611281,77.237738,CO,2,115,39
India,Delhi,Delhi,"Mandir Marg, Delhi - DPCC",26-02-2026 19:00:00,28.636429,77.201067,PM2.5,2,103,66
India,Delhi,Delhi,"Mandir Marg, Delhi - DPCC",26-02-2026 19:00:00,28.636429,77.201067,NH3,10,12,11
India,Delhi,Delhi,"Mundka, Delhi - DPCC",26-02-2026 19:00:00,28.684678,77.076574,PM2.5,60,355,221
India,Delhi,Delhi,"Mundka, Delhi - DPCC",26-02-2026 19:00:00,28.684678,77.076574,PM10,131,500,240
India,Delhi,Delhi,"Mundka, Delhi - DPCC",26-02-2026 19:00:00,28.684678,77.076574,SO2,28,40,31
India,Delhi,Delhi,"NSIT Dwarka, Delhi - CPCB",26-02-2026 19:00:00,28.60909,77.0325413,PM2.5,124,149,130
India,Delhi,Delhi,"NSIT Dwarka, Delhi - CPCB",26-02-2026 19:00:00,28.60909,77.0325413,CO,37,69,55
India,Delhi,Delhi,"Narela, Delhi - DPCC",26-02-2026 19:00:00,28.822836,77.101981,PM10,108,255,174
India,Delhi,Delhi,"Narela, Delhi - DPCC",26-02-2026 19:00:00,28.822836,77.101981,NO2,12,73,34
India,Delhi,Delhi,"Nehru Nagar, Delhi - DPCC",26-02-2026 19:00:00,28.567890,77.250515,PM2.5,42,433,223
India,Delhi,Delhi,"Nehru Nagar, Delhi - DPCC",26-02-2026 19:00:00,28.567890,77.250515,CO,68,152,76
India,Delhi,Delhi,"North Campus, DU, Delhi - IMD",26-02-2026 19:00:00,28.6573814,77.1585447,PM2.5,62,250,162
India,Delhi,Delhi,"Okhla Phase-2, Delhi - DPCC",26-02-2026 19:00:00,28.530785,77.271255,SO2,5,22,15
India,Delhi,Delhi,"Okhla Phase-2, Delhi - DPCC",26-02-2026 19:00:00,28.530785,77.271255,CO,43,129,71
India,Delhi,Delhi,"Okhla Phase-2, Delhi - DPCC",26-02-2026 19:00:00,28.530785,77.271255,OZONE,2,121,92
India,Delhi,Delhi,"Punjabi Bagh, Delhi - DPCC",26-02-2026 19:00:00,28.674045,77.131023,PM2.5,52,319,213
India,Delhi,Delhi,"Punjabi Bagh, Delhi - DPCC",26-02-2026 19:00:00,28.674045,77.131023,SO2,NA,NA,NA
India,Delhi,Delhi,"Pusa, Delhi - IMD",26-02-2026 19:00:00,28.636110,77.173332,PM10,86,247,156
India,Delhi,Delhi,"R K Puram, Delhi - DPCC",26-02-2026 19:00:00,28.563262,77.186937,SO2,8,44,27
India,Delhi,Delhi,"Rohini, Delhi - DPCC",26-02-2026 19:00:00,28.732528,77.119920,PM2.5,52,361,228
India,Delhi,Delhi,"Shadipur, Delhi - CPCB",26-02-2026 19:00:00,28.6514781,77.1473105,PM2.5,119,482,278
India,Delhi,Delhi,"Shadipur, Delhi - CPCB",26-02-2026 19:00:00,28.6514781,77.1473105,SO2,15,21,18
India,Delhi,Delhi,"Shadipur, Delhi - CPCB",26-02-2026 19:00:00,28.6514781,77.1473105,CO,4,110,21
India,Delhi,Delhi,"Sirifort, Delhi - CPCB",26-02-2026 19:00:00,28.5504249,77.2159377,NH3,6,10,9
India,Gujarat,Gandhinagar,"Sector-10, Gandhinagar - GPCB",26-02-2026 19:00:00,23.221714,72.654328,PM10,94,246,138
India,Gujarat,Gandhinagar,"Sector-10, Gandhinagar - GPCB",26-02-2026 19:00:00,23.221714,72.654328,OZONE,3,23,18
India,Gujarat,Mehsana,"Sadanand Nagar, Mehsana - Nexteng Enviro",26-02-2026 19:00:00,23.593150,72.372792,PM2.5,9,217,78
India,Gujarat,Mehsana,"Sadanand Nagar, Mehsana - Nexteng Enviro",26-02-2026 19:00:00,23.593150,72.372792,OZONE,8,19,15
India,Gujarat,Nandesari,"GIDC, Nandesari - Nandesari Ind. Association",26-02-2026 19:00:00,22.410802,73.097923,PM2.5,82,343,216
India,Gujarat,Rajkot,"Mavdi, Rajkot - Nexteng Enviro ",26-02-2026 19:00:00,22.248853,70.776774,PM2.5,6,103,52
India,Delhi,Delhi,"IHBAS, Dilshad Garden, Delhi - CPCB",26-02-2026 19:00:00,28.6811736,77.3025234,SO2,12,48,23
India,Delhi,Delhi,"IHBAS, Dilshad Garden, Delhi - CPCB",26-02-2026 19:00:00,28.6811736,77.3025234,OZONE,22,25,24
India,Delhi,Delhi,"ITO, Delhi - CPCB",26-02-2026 19:00:00,28.628624,77.241060,CO,22,111,34
India,Delhi,Delhi,"Jawaharlal Nehru Stadium, Delhi - DPCC",26-02-2026 19:00:00,28.580280,77.233829,OZONE,1,179,142
India,Delhi,Delhi,"Lodhi Road, Delhi - IMD",26-02-2026 19:00:00,28.5918245,77.2273074,PM10,104,201,144
India,Delhi,Delhi,"Lodhi Road, Delhi - IMD",26-02-2026 19:00:00,28.5918245,77.2273074,NO2,11,47,26
India,Gujarat,Ahmedabad,"SAC ISRO Satellite, Ahmedabad - IITM",26-02-2026 19:00:00,23.023389,72.515201,PM10,71,138,106
India,Gujarat,Ankleshwar,"GIDC, Ankleshwar - GPCB",26-02-2026 19:00:00,21.613267,73.010555,NH3,5,9,6
India,Gujarat,Ankleshwar,"GIDC, Ankleshwar - GPCB",26-02-2026 19:00:00,21.613267,73.010555,OZONE,7,49,36
India,Gujarat,Bhavnagar,"Vidhyanagar, Bhavnagar - Nexteng Enviro",26-02-2026 19:00:00,21.755417,72.139056,NH3,2,7,5
India,Gujarat,Bhavnagar,"Vidhyanagar, Bhavnagar - Nexteng Enviro",26-02-2026 19:00:00,21.755417,72.139056,CO,90,96,92
India,Gujarat,Ahmedabad,"Maninagar, Ahmedabad - GPCB",26-02-2026 19:00:00,23.002657,72.591912,OZONE,40,95,83
India,Gujarat,Ahmedabad,"Raikhad, Ahmedabad - IITM",26-02-2026 19:00:00,23.020509,72.579261,PM10,55,145,106
India,Gujarat,Ahmedabad,"Raikhad, Ahmedabad - IITM",26-02-2026 19:00:00,23.020509,72.579261,SO2,20,104,41
India,Gujarat,Ahmedabad,"Rakhial, Ahmedabad - IITM",26-02-2026 19:00:00,23.016834,72.625775,PM2.5,26,172,78
India,Gujarat,Ahmedabad,"SAC ISRO Bopal, Ahmedabad - IITM",26-02-2026 19:00:00,23.041137,72.456691,OZONE,2,81,63
India,Delhi,Delhi,"Sonia Vihar, Delhi - DPCC",26-02-2026 19:00:00,28.710508,77.249485,PM10,78,222,166
India,Delhi,Delhi,"Sonia Vihar, Delhi - DPCC",26-02-2026 19:00:00,28.710508,77.249485,NH3,6,7,6
India,Haryana,Karnal,"Sector-12, Karnal - HSPCB",26-02-2026 19:00:00,29.695300,77.002700,NO2,6,7,6
India,Haryana,Karnal,"Sector-12, Karnal - HSPCB",26-02-2026 19:00:00,29.695300,77.002700,SO2,1,5,2
India,Haryana,Karnal,"Sector-12, Karnal - HSPCB",26-02-2026 19:00:00,29.695300,77.002700,CO,1,10,3
India,Haryana,Kurukshetra,"Sector-7, Kurukshetra - HSPCB",26-02-2026 19:00:00,29.966942,76.875879,PM2.5,144,266,205
India,Haryana,Kurukshetra,"Sector-7, Kurukshetra - HSPCB",26-02-2026 19:00:00,29.966942,76.875879,NH3,5,5,5
India,Haryana,Manesar,"Sector-2 IMT, Manesar - HSPCB",26-02-2026 19:00:00,28.360699,76.936090,PM10,38,413,199
India,Haryana,Narnaul,"Shastri Nagar, Narnaul - HSPCB",26-02-2026 19:00:00,28.060249,76.113115,PM10,31,157,84
India,Haryana,Narnaul,"Shastri Nagar, Narnaul - HSPCB",26-02-2026 19:00:00,28.060249,76.113115,NO2,36,59,48
India,Haryana,Narnaul,"Shastri Nagar, Narnaul - HSPCB",26-02-2026 19:00:00,28.060249,76.113115,NH3,8,16,12
India,Haryana,Narnaul,"Shastri Nagar, Narnaul - HSPCB",26-02-2026 19:00:00,28.060249,76.113115,CO,58,85,67
India,Jammu_and_Kashmir,Srinagar,"Rajbagh, Srinagar - JKPCC",26-02-2026 19:00:00,34.066206,74.819820,PM10,24,56,37
India,Jammu_and_Kashmir,Srinagar,"Rajbagh, Srinagar - JKPCC",26-02-2026 19:00:00,34.066206,74.819820,OZONE,1,1,1
India,Jharkhand,Dhanbad,"Sardar Patel Nagar, Dhanbad - JSPCB",26-02-2026 19:00:00,23.80569,86.44268,NO2,NA,NA,NA
India,Jharkhand,Dhanbad,"Sardar Patel Nagar, Dhanbad - JSPCB",26-02-2026 19:00:00,23.80569,86.44268,SO2,NA,NA,NA
India,Karnataka,Bengaluru,"BTM Layout, Bengaluru - CPCB",26-02-2026 19:00:00,12.9135218,77.5950804,NH3,3,3,3
India,Karnataka,Bengaluru,"Bapuji Nagar, Bengaluru - KSPCB",26-02-2026 19:00:00,12.951913,77.539784,OZONE,47,303,216
India,Karnataka,Bengaluru,"City Railway Station, Bengaluru - KSPCB",26-02-2026 19:00:00,12.9756843,77.5660749,NO2,36,39,38
India,Haryana,Palwal,"Shyam Nagar, Palwal - HSPCB",26-02-2026 19:00:00,28.1485564,77.3320667,PM2.5,44,75,59
India,Haryana,Palwal,"Shyam Nagar, Palwal - HSPCB",26-02-2026 19:00:00,28.1485564,77.3320667,PM10,47,87,67
India,Haryana,Palwal,"Shyam Nagar, Palwal - HSPCB",26-02-2026 19:00:00,28.1485564,77.3320667,NO2,23,25,24
India,Haryana,Palwal,"Shyam Nagar, Palwal - HSPCB",26-02-2026 19:00:00,28.1485564,77.3320667,CO,15,72,33
India,Haryana,Panchgaon,"Amity University, Panchgaon - IITM",26-02-2026 19:00:00,28.3153,76.9143,PM2.5,79,336,192
India,Haryana,Panchgaon,"Amity University, Panchgaon - IITM",26-02-2026 19:00:00,28.3153,76.9143,NO2,1,64,33
India,Haryana,Panchkula,"Sector-6, Panchkula - HSPCB ",26-02-2026 19:00:00,30.7057778,76.8531805555555,SO2,14,16,15
India,Haryana,Panipat,"Sector-18, Panipat - HSPCB",26-02-2026 19:00:00,29.432304,76.972765,PM10,111,138,126
India,Haryana,Rohtak,"MD University, Rohtak - HSPCB",26-02-2026 19:00:00,28.52123,76.37138,SO2,10,13,12
India,Haryana,Rohtak,"MD University, Rohtak - HSPCB",26-02-2026 19:00:00,28.52123,76.37138,OZONE,NA,NA,NA
India,Haryana,Sirsa,"F-Block, Sirsa - HSPCB",26-02-2026 19:00:00,29.536400,75.015800,NO2,18,95,25
India,Haryana,Sirsa,"F-Block, Sirsa - HSPCB",26-02-2026 19:00:00,29.536400,75.015800,OZONE,41,85,66
India,Himachal Pradesh,Baddi,"HIMUDA Complex Phase-1, Baddi - HPPCB",26-02-2026 19:00:00,30.943887,76.801991,PM10,127,210,158
India,Himachal Pradesh,Baddi,"HIMUDA Complex Phase-1, Baddi - HPPCB",26-02-2026 19:00:00,30.943887,76.801991,CO,46,78,52
India,Jammu_and_Kashmir,Pampore,"Khrew, Pampore - JKPCC",26-02-2026 19:00:00,34.031606,75.009712,NO2,13,57,28
India,Gujarat,Surat,"Katargam, Surat - Nexteng Enviro",26-02-2026 19:00:00,21.217779 ,72.834787 ,OZONE,9,9,9
India,Gujarat,Surat,"Science Center, Surat - SMC",26-02-2026 19:00:00,21.170046,72.795405,PM10,75,315,126
