country,state,city,station,last_update,latitude,longitude,pollutant_id,min_value,max_value,avg_value
India,Bihar,Bettiah,"Kamalnath Nagar, Bettiah - BSPCB",05-09-2025 07:00:00,26.80365,84.51954,NO2,4,12,8
India,Bihar,Bhagalpur,"DM Office_Kachari Chowk, Bhagalpur - BSPCB",05-09-2025 07:00:00,25.251013,86.989001,PM10,50,106,65
India,Bihar,Bhagalpur,"DM Office_Kachari Chowk, Bhagalpur - BSPCB",05-09-2025 07:00:00,25.251013,86.989001,OZONE,12,21,16
India,Bihar,Bhagalpur,"Mayaganj, Bhagalpur - BSPCB",05-09-2025 07:00:00,25.265194,87.012947,PM2.5,3,27,14
India,Bihar,Bihar Sharif,"D M Colony, Bihar Sharif - BSPCB",05-09-2025 07:00:00,25.204762,85.514960,PM10,78,91,84
India,Bihar,Bihar Sharif,"D M Colony, Bihar Sharif - BSPCB",05-09-2025 07:00:00,25.204762,85.514960,NO2,9,10,9
India,Bihar,Bihar Sharif,"D M Colony, Bihar Sharif - BSPCB",05-09-2025 07:00:00,25.204762,85.514960,NH3,2,2,2
India,Bihar,Buxar,"Charitra Van, Buxar - BSPCB",05-09-2025 07:00:00,25.567520,83.966379,PM10,60,72,70
India,Bihar,Buxar,"Charitra Van, Buxar - BSPCB",05-09-2025 07:00:00,25.567520,83.966379,NH3,3,3,3
India,Arunachal_Pradesh,Naharlagun,"Naharlagun, Naharlagun - APSPCB",05-09-2025 07:00:00,27.103358,93.679645,PM10,13,54,31
India,Arunachal_Pradesh,Naharlagun,"Naharlagun, Naharlagun - APSPCB",05-09-2025 07:00:00,27.103358,93.679645,NO2,6,6,6
India,Assam,Byrnihat,"Central Academy for SFS, Byrnihat - PCBA",05-09-2025 07:00:00,26.071318,91.87488,PM10,80,125,92
India,Assam,Byrnihat,"Central Academy for SFS, Byrnihat - PCBA",05-09-2025 07:00:00,26.071318,91.87488,OZONE,19,33,20
India,Assam,Guwahati,"IITG, Guwahati - PCBA",05-09-2025 07:00:00,26.2028636,91.70046436,PM2.5,11,56,30
India,Assam,Guwahati,"IITG, Guwahati - PCBA",05-09-2025 07:00:00,26.2028636,91.70046436,SO2,22,26,24
India,Assam,Guwahati,"LGBI Airport, Guwahati - PCBA",05-09-2025 07:00:00,26.10887,91.589544,SO2,4,18,12
India,Bihar,Hajipur,"Industrial Area, Hajipur - BSPCB",05-09-2025 07:00:00,25.697189,85.245900,CO,10,18,15
India,Bihar,Katihar,"Mirchaibari, Katihar - BSPCB",05-09-2025 07:00:00,25.560083,87.553265,NO2,12,17,14
India,Bihar,Kishanganj,"SDM Office_Khagra, Kishanganj - BSPCB",05-09-2025 07:00:00,26.0881305,87.93840336,NO2,7,8,8
India,Bihar,Kishanganj,"SDM Office_Khagra, Kishanganj - BSPCB",05-09-2025 07:00:00,26.0881305,87.93840336,NH3,3,3,3
India,Bihar,Manguraha,"Forest Rest House, Manguraha - BSPCB",05-09-2025 07:00:00,27.308328,84.531742,SO2,6,7,6
India,Bihar,Motihari,"Gandak Colony, Motihari - BSPCB",05-09-2025 07:00:00,26.63086,84.90051,NO2,1,1,1
India,Bihar,Arrah,"New DM Office, Arrah - BSPCB",05-09-2025 07:00:00,25.5626095,84.663264,PM2.5,27,30,28
India,Bihar,Arrah,"New DM Office, Arrah - BSPCB",05-09-2025 07:00:00,25.5626095,84.663264,NH3,1,1,1
India,Bihar,Arrah,"New DM Office, Arrah - BSPCB",05-09-2025 07:00:00,25.5626095,84.663264,SO2,7,10,10
India,Bihar,Arrah,"New DM Office, Arrah - BSPCB",05-09-2025 07:00:00,25.5626095,84.663264,OZONE,6,16,9
India,Bihar,Aurangabad,"Gurdeo Nagar, Aurangabad - BSPCB",05-09-2025 07:00:00,24.75746,84.366208,SO2,4,14,9
India,Bihar,Begusarai,"Lohiyanagar, Begusarai - BSPCB",05-09-2025 07:00:00,25.42742023,86.13886079,CO,34,74,62
India,Bihar,Bettiah,"Kamalnath Nagar, Bettiah - BSPCB",05-09-2025 07:00:00,26.80365,84.51954,PM2.5,3,35,16
India,Bihar,Buxar,"Charitra Van, Buxar - BSPCB",05-09-2025 07:00:00,25.567520,83.966379,SO2,1,8,4
India,Bihar,Buxar,"Charitra Van, Buxar - BSPCB",05-09-2025 07:00:00,25.567520,83.966379,CO,22,28,24
India,Bihar,Buxar,"Charitra Van, Buxar - BSPCB",05-09-2025 07:00:00,25.567520,83.966379,OZONE,1,153,2
India,Bihar,Gaya,"SFTI Kusdihra, Gaya - BSPCB",05-09-2025 07:00:00,24.762518,84.982348,PM10,12,103,42
India,Bihar,Gaya,"SFTI Kusdihra, Gaya - BSPCB",05-09-2025 07:00:00,24.762518,84.982348,SO2,2,7,6
India,Bihar,Gaya,"SFTI Kusdihra, Gaya - BSPCB",05-09-2025 07:00:00,24.762518,84.982348,CO,20,37,27
India,Bihar,Hajipur,"Industrial Area, Hajipur - BSPCB",05-09-2025 07:00:00,25.697189,85.245900,PM10,14,41,28
India,Bihar,Hajipur,"Industrial Area, Hajipur - BSPCB",05-09-2025 07:00:00,25.697189,85.245900,NO2,6,14,9
India,Andhra_Pradesh,Vijayawada,"HB Colony, Vijayawada - APPCB",05-09-2025 07:00:00,16.536107,80.594233,NO2,23,23,23
India,Andhra_Pradesh,Vijayawada,"Rajiv Gandhi Park, Vijayawada - APPCB",05-09-2025 07:00:00,16.509717,80.612222,PM10,30,73,53
India,Andhra_Pradesh,Visakhapatnam,"GVM Corporation, Visakhapatnam - APPCB",05-09-2025 07:00:00,17.72,83.3,SO2,5,28,12
India,Andhra_Pradesh,Visakhapatnam,"GVM Corporation, Visakhapatnam - APPCB",05-09-2025 07:00:00,17.72,83.3,OZONE,9,21,10
India,Arunachal_Pradesh,Naharlagun,"Naharlagun, Naharlagun - APSPCB",05-09-2025 07:00:00,27.103358,93.679645,PM2.5,2,51,24
India,Andhra_Pradesh,Chittoor,"Gangineni Cheruvu, Chittoor - APPCB",05-09-2025 07:00:00,13.204880,79.097889,PM10,62,90,76
India,Andhra_Pradesh,Chittoor,"Gangineni Cheruvu, Chittoor - APPCB",05-09-2025 07:00:00,13.204880,79.097889,OZONE,45,64,55
India,Andhra_Pradesh,Kadapa,"Yerramukkapalli, Kadapa - APPCB",05-09-2025 07:00:00,14.465052,78.824187,PM2.5,54,80,70
India,Andhra_Pradesh,Kadapa,"Yerramukkapalli, Kadapa - APPCB",05-09-2025 07:00:00,14.465052,78.824187,OZONE,31,41,36
India,Andhra_Pradesh,Rajamahendravaram,"Anand Kala Kshetram, Rajamahendravaram - APPCB",05-09-2025 07:00:00,16.9872867,81.7363176,NO2,8,58,19
India,Assam,Guwahati,"Railway Colony, Guwahati - PCBA",05-09-2025 07:00:00,26.181742,91.78063,PM10,13,82,45
India,Assam,Nagaon,"Christianpatty, Nagaon - PCBA",05-09-2025 07:00:00,26.349082,92.68449,OZONE,6,13,9
India,Assam,Nalbari,"Bata Chowk, Nalbari - PCBA",05-09-2025 07:00:00,26.446912,91.439057,OZONE,1,54,11
India,Assam,Silchar,"Tarapur, Silchar - PCBA",05-09-2025 07:00:00,24.82827,92.79525,PM2.5,37,41,39
India,Andaman and Nicobar,Sri Vijaya Puram,"Police Line, Sri Vijaya Puram - ANPCC",05-09-2025 07:00:00,11.654054,92.734055,OZONE,4,5,4
India,Andhra_Pradesh,Amaravati,"Secretariat, Amaravati - APPCB",05-09-2025 07:00:00,16.5150833,80.5181667,NO2,13,79,26
India,Andhra_Pradesh,Amaravati,"Secretariat, Amaravati - APPCB",05-09-2025 07:00:00,16.5150833,80.5181667,CO,12,38,20
India,Andhra_Pradesh,Tirumala,"Toll Gate, Tirumala - APPCB",05-09-2025 07:00:00,13.67,79.35,SO2,2,4,3
India,Andhra_Pradesh,Tirumala,"Toll Gate, Tirumala - APPCB",05-09-2025 07:00:00,13.67,79.35,OZONE,6,13,11
India,Andhra_Pradesh,Tirupati,"Vaikuntapuram, Tirupati - APPCB",05-09-2025 07:00:00,13.615387,79.409230,NH3,NA,NA,NA
India,Chhattisgarh,Tumidih,"OP Jindal Industrial Park, Tumidih - CECB",05-09-2025 07:00:00,22.06631475,83.33820077,CO,15,59,27
India,Delhi,Delhi,"Alipur, Delhi - DPCC",05-09-2025 07:00:00,28.815329,77.153010,OZONE,4,27,6
India,Delhi,Delhi,"Anand Vihar, Delhi - DPCC",05-09-2025 07:00:00,28.647622,77.3158090,NH3,3,8,5
India,Delhi,Delhi,"Anand Vihar, Delhi - DPCC",05-09-2025 07:00:00,28.647622,77.3158090,CO,68,97,82
India,Delhi,Delhi,"Ashok Vihar, Delhi - DPCC",05-09-2025 07:00:00,28.695381,77.181665,PM2.5,28,92,59
India,Delhi,Delhi,"Aya Nagar, Delhi - IMD",05-09-2025 07:00:00,28.4706914,77.1099364,PM2.5,4,72,29
India,Delhi,Delhi,"Aya Nagar, Delhi - IMD",05-09-2025 07:00:00,28.4706914,77.1099364,OZONE,14,74,19
India,Delhi,Delhi,"Bawana, Delhi - DPCC",05-09-2025 07:00:00,28.776200,77.051074,PM2.5,38,157,71
India,Bihar,Sasaram,"Dada Peer, Sasaram - BSPCB",05-09-2025 07:00:00,24.952822,84.002396,NH3,2,5,3
India,Chandigarh,Chandigarh,"Sector 22, Chandigarh - CPCC",05-09-2025 07:00:00,30.735567,76.775714,NO2,12,34,21
India,Chandigarh,Chandigarh,"Sector 22, Chandigarh - CPCC",05-09-2025 07:00:00,30.735567,76.775714,NH3,12,17,15
India,Chandigarh,Chandigarh,"Sector 22, Chandigarh - CPCC",05-09-2025 07:00:00,30.735567,76.775714,SO2,2,4,3
India,Chandigarh,Chandigarh,"Sector 22, Chandigarh - CPCC",05-09-2025 07:00:00,30.735567,76.775714,OZONE,2,16,4
India,Chandigarh,Chandigarh,"Sector-25, Chandigarh - CPCC",05-09-2025 07:00:00,30.751462,76.762879,NH3,3,4,4
India,Chandigarh,Chandigarh,"Sector-25, Chandigarh - CPCC",05-09-2025 07:00:00,30.751462,76.762879,SO2,1,10,4
India,Chandigarh,Chandigarh,"Sector-53, Chandigarh - CPCC",05-09-2025 07:00:00,30.719859,76.738637,PM2.5,3,33,17
India,Chandigarh,Chandigarh,"Sector-53, Chandigarh - CPCC",05-09-2025 07:00:00,30.719859,76.738637,PM10,NA,NA,NA
India,Chandigarh,Chandigarh,"Sector-53, Chandigarh - CPCC",05-09-2025 07:00:00,30.719859,76.738637,CO,36,81,52
India,Chhattisgarh,Bhilai,"32Bungalows, Bhilai - CECB",05-09-2025 07:00:00,21.194815,81.314770,NH3,3,4,3
India,Chhattisgarh,Bhilai,"Civic Center, Bhilai - Bhilai Steel Plant",05-09-2025 07:00:00,21.185571,81.343175,NH3,1,3,2
India,Chhattisgarh,Bhilai,"Civic Center, Bhilai - Bhilai Steel Plant",05-09-2025 07:00:00,21.185571,81.343175,CO,48,50,49
India,Chhattisgarh,Bhilai,"Civic Center, Bhilai - Bhilai Steel Plant",05-09-2025 07:00:00,21.185571,81.343175,OZONE,9,11,10
India,Chhattisgarh,Bhilai,"Hathkhoj, Bhilai - CECB",05-09-2025 07:00:00,21.224231,81.408350,OZONE,10,22,14
India,Chhattisgarh,Bilaspur,"Mangala, Bilaspur - NTPC",05-09-2025 07:00:00,22.08815,82.13737,NO2,10,59,16
India,Chhattisgarh,Chhal,"Nawapara SECL Colony, Chhal - CECB",05-09-2025 07:00:00,22.118125,83.140608,PM10,5,32,18
India,Delhi,Delhi,"Bawana, Delhi - DPCC",05-09-2025 07:00:00,28.776200,77.051074,NH3,3,7,5
India,Delhi,Delhi,"CRRI Mathura Road, Delhi - IMD",05-09-2025 07:00:00,28.5512005,77.2735737,CO,34,132,69
India,Delhi,Delhi,"DTU, Delhi - CPCB",05-09-2025 07:00:00,28.7500499,77.1112615,SO2,26,32,29
India,Delhi,Delhi,"Dr. Karni Singh Shooting Range, Delhi - DPCC",05-09-2025 07:00:00,28.498571,77.264840,NO2,23,61,37
India,Delhi,Delhi,"Dr. Karni Singh Shooting Range, Delhi - DPCC",05-09-2025 07:00:00,28.498571,77.264840,NH3,3,7,4
India,Delhi,Delhi,"Dr. Karni Singh Shooting Range, Delhi - DPCC",05-09-2025 07:00:00,28.498571,77.264840,OZONE,5,39,10
India,Delhi,Delhi,"Dwarka-Sector 8, Delhi - DPCC ",05-09-2025 07:00:00,28.5710274,77.0719006,PM10,23,116,60
India,Bihar,Purnia,"Mariam Nagar, Purnia - BSPCB",05-09-2025 07:00:00,25.366336,87.117468,SO2,NA,NA,NA
India,Bihar,Purnia,"Mariam Nagar, Purnia - BSPCB",05-09-2025 07:00:00,25.366336,87.117468,OZONE,14,43,30
India,Bihar,Rajgir,"Dangi Tola, Rajgir - BSPCB",05-09-2025 07:00:00,25.03280,85.41948,SO2,18,23,21
India,Bihar,Rajgir,"Dangi Tola, Rajgir - BSPCB",05-09-2025 07:00:00,25.03280,85.41948,OZONE,30,38,32
India,Bihar,Samastipur,"DM Office_Kasipur, Samastipur - BSPCB",05-09-2025 07:00:00,25.859655,85.77944,CO,2,42,4
India,Bihar,Sasaram,"Dada Peer, Sasaram - BSPCB",05-09-2025 07:00:00,24.952822,84.002396,PM2.5,2,17,8
India,Bihar,Sasaram,"Dada Peer, Sasaram - BSPCB",05-09-2025 07:00:00,24.952822,84.002396,PM10,4,41,18
India,Bihar,Muzaffarpur,"Buddha Colony, Muzaffarpur - BSPCB",05-09-2025 07:00:00,26.11442,85.39813,SO2,2,4,3
India,Bihar,Muzaffarpur,"Buddha Colony, Muzaffarpur - BSPCB",05-09-2025 07:00:00,26.11442,85.39813,OZONE,33,94,37
India,Bihar,Muzaffarpur,"MIT-Daudpur Kothi, Muzaffarpur - BSPCB",05-09-2025 07:00:00,26.1403345,85.3650192,NH3,1,2,1
India,Bihar,Muzaffarpur,"MIT-Daudpur Kothi, Muzaffarpur - BSPCB",05-09-2025 07:00:00,26.1403345,85.3650192,OZONE,20,33,20
India,Bihar,Muzaffarpur,"Muzaffarpur Collectorate, Muzaffarpur - BSPCB",05-09-2025 07:00:00,26.1209,85.3647,CO,18,48,18
India,Bihar,Patna,"DRM Office Danapur, Patna - BSPCB",05-09-2025 07:00:00,25.586562,85.043586,NO2,NA,NA,NA
India,Bihar,Patna,"DRM Office Danapur, Patna - BSPCB",05-09-2025 07:00:00,25.586562,85.043586,SO2,NA,NA,NA
India,Bihar,Patna,"Govt. High School Shikarpur, Patna - BSPCB",05-09-2025 07:00:00,25.592539,85.227158,NO2,5,6,5
India,Bihar,Patna,"Govt. High School Shikarpur, Patna - BSPCB",05-09-2025 07:00:00,25.592539,85.227158,CO,42,65,50
India,Bihar,Patna,"Muradpur, Patna - BSPCB",05-09-2025 07:00:00,25.619651,85.147382,NH3,4,5,5
India,Bihar,Patna,"Rajbansi Nagar, Patna - BSPCB",05-09-2025 07:00:00,25.599486,85.113666,PM2.5,16,41,25
India,Bihar,Patna,"Rajbansi Nagar, Patna - BSPCB",05-09-2025 07:00:00,25.599486,85.113666,PM10,20,36,27
India,Bihar,Patna,"Samanpura, Patna - BSPCB",05-09-2025 07:00:00,25.596727,85.085624,PM2.5,52,82,67
India,Bihar,Patna,"Samanpura, Patna - BSPCB",05-09-2025 07:00:00,25.596727,85.085624,NO2,37,50,44
India,Chhattisgarh,Raipur,"AIIMS, Raipur - CECB",05-09-2025 07:00:00,21.258815,81.578979,PM10,7,19,12
India,Chhattisgarh,Raipur,"Bhatagaon New ISBT, Raipur - CECB",05-09-2025 07:00:00,21.219665,81.630094,PM10,10,24,17
India,Chhattisgarh,Raipur,"Bhatagaon New ISBT, Raipur - CECB",05-09-2025 07:00:00,21.219665,81.630094,NH3,2,2,2
India,Chhattisgarh,Raipur,"Bhatagaon New ISBT, Raipur - CECB",05-09-2025 07:00:00,21.219665,81.630094,SO2,5,7,6
India,Chhattisgarh,Raipur,"Krishak Nagar, Raipur - CECB",05-09-2025 07:00:00,21.237755,81.705301,PM10,7,16,12
India,Chhattisgarh,Raipur,"Siltara Phase-II, Raipur - CECB",05-09-2025 07:00:00,21.371751,81.664929,PM10,13,31,22
India,Chhattisgarh,Raipur,"Siltara Phase-II, Raipur - CECB",05-09-2025 07:00:00,21.371751,81.664929,NH3,3,3,3
India,Chhattisgarh,Chhal,"Nawapara SECL Colony, Chhal - CECB",05-09-2025 07:00:00,22.118125,83.140608,SO2,6,23,10
India,Chhattisgarh,Milupara,"Govt. Higher Secondary School, Milupara - CECB",05-09-2025 07:00:00,22.1910172,83.5197009,OZONE,NA,NA,NA
India,Gujarat,Ahmedabad,"Raikhad, Ahmedabad - IITM",05-09-2025 07:00:00,23.020509,72.579261,PM2.5,21,59,39
India,Gujarat,Ahmedabad,"Rakhial, Ahmedabad - IITM",05-09-2025 07:00:00,23.016834,72.625775,NO2,1,44,20
India,Gujarat,Ahmedabad,"Rakhial, Ahmedabad - IITM",05-09-2025 07:00:00,23.016834,72.625775,SO2,10,22,14
India,Gujarat,Ahmedabad,"SAC ISRO Bopal, Ahmedabad - IITM",05-09-2025 07:00:00,23.041137,72.456691,PM10,18,78,43
India,Gujarat,Ahmedabad,"SAC ISRO Bopal, Ahmedabad - IITM",05-09-2025 07:00:00,23.041137,72.456691,NO2,22,29,25
India,Gujarat,Ahmedabad,"SAC ISRO Bopal, Ahmedabad - IITM",05-09-2025 07:00:00,23.041137,72.456691,CO,10,29,20
India,Gujarat,Ahmedabad,"SAC ISRO Satellite, Ahmedabad - IITM",05-09-2025 07:00:00,23.023389,72.515201,PM10,32,88,52
India,Gujarat,Ahmedabad,"SAC ISRO Satellite, Ahmedabad - IITM",05-09-2025 07:00:00,23.023389,72.515201,NH3,3,5,4
India,Delhi,Delhi,"Vivek Vihar, Delhi - DPCC",05-09-2025 07:00:00,28.672342,77.315260,SO2,4,19,9
India,Gujarat,Ahmedabad,"Chandkheda, Ahmedabad - IITM",05-09-2025 07:00:00,23.107969,72.574648,NH3,1,4,2
India,Gujarat,Ahmedabad,"Chandkheda, Ahmedabad - IITM",05-09-2025 07:00:00,23.107969,72.574648,OZONE,1,35,26
India,Gujarat,Ahmedabad,"Gyaspur, Ahmedabad - IITM",05-09-2025 07:00:00,22.977134,72.553024,PM2.5,9,44,23
India,Gujarat,Ahmedabad,"Gyaspur, Ahmedabad - IITM",05-09-2025 07:00:00,22.977134,72.553024,NH3,4,14,9
India,Gujarat,Ahmedabad,"Maninagar, Ahmedabad - GPCB",05-09-2025 07:00:00,23.002657,72.591912,PM10,26,115,57
India,Gujarat,Ahmedabad,"Maninagar, Ahmedabad - GPCB",05-09-2025 07:00:00,23.002657,72.591912,OZONE,5,41,31
India,Delhi,Delhi,"Okhla Phase-2, Delhi - DPCC",05-09-2025 07:00:00,28.530785,77.271255,PM10,24,96,63
India,Delhi,Delhi,"Okhla Phase-2, Delhi - DPCC",05-09-2025 07:00:00,28.530785,77.271255,CO,14,102,46
India,Delhi,Delhi,"Okhla Phase-2, Delhi - DPCC",05-09-2025 07:00:00,28.530785,77.271255,OZONE,12,68,16
India,Delhi,Delhi,"Patparganj, Delhi - DPCC",05-09-2025 07:00:00,28.623763,77.287209,PM10,39,108,72
India,Delhi,Delhi,"Punjabi Bagh, Delhi - DPCC",05-09-2025 07:00:00,28.674045,77.131023,NH3,2,3,2
India,Delhi,Delhi,"Pusa, Delhi - DPCC",05-09-2025 07:00:00,28.639652,77.146275,OZONE,NA,NA,NA
India,Delhi,Delhi,"Pusa, Delhi - IMD",05-09-2025 07:00:00,28.636110,77.173332,PM10,4,142,60
India,Delhi,Delhi,"Jawaharlal Nehru Stadium, Delhi - DPCC",05-09-2025 07:00:00,28.580280,77.233829,CO,42,79,57
India,Delhi,Delhi,"Major Dhyan Chand National Stadium, Delhi - DPCC",05-09-2025 07:00:00,28.611281,77.237738,PM2.5,15,120,48
India,Delhi,Delhi,"Major Dhyan Chand National Stadium, Delhi - DPCC",05-09-2025 07:00:00,28.611281,77.237738,NO2,15,66,39
India,Delhi,Delhi,"Major Dhyan Chand National Stadium, Delhi - DPCC",05-09-2025 07:00:00,28.611281,77.237738,NH3,14,16,15
India,Delhi,Delhi,"Major Dhyan Chand National Stadium, Delhi - DPCC",05-09-2025 07:00:00,28.611281,77.237738,CO,3,60,23
India,Delhi,Delhi,"Mandir Marg, Delhi - DPCC",05-09-2025 07:00:00,28.636429,77.201067,CO,14,52,29
India,Delhi,Delhi,"Mandir Marg, Delhi - DPCC",05-09-2025 07:00:00,28.636429,77.201067,OZONE,11,81,17
India,Delhi,Delhi,"IHBAS, Dilshad Garden, Delhi - CPCB",05-09-2025 07:00:00,28.6811736,77.3025234,SO2,10,15,12
India,Delhi,Delhi,"ITO, Delhi - CPCB",05-09-2025 07:00:00,28.628624,77.241060,PM2.5,22,90,48
India,Delhi,Delhi,"ITO, Delhi - CPCB",05-09-2025 07:00:00,28.628624,77.241060,NO2,61,85,74
India,Delhi,Delhi,"Jahangirpuri, Delhi - DPCC",05-09-2025 07:00:00,28.732820,77.170633,NO2,12,20,16
India,Delhi,Delhi,"Jahangirpuri, Delhi - DPCC",05-09-2025 07:00:00,28.732820,77.170633,OZONE,14,29,15
India,Delhi,Delhi,"Jawaharlal Nehru Stadium, Delhi - DPCC",05-09-2025 07:00:00,28.580280,77.233829,PM2.5,5,52,29
India,Gujarat,Ahmedabad,"SVPI Airport Hansol, Ahmedabad - IITM",05-09-2025 07:00:00,23.076793,72.627874,OZONE,5,31,25
India,Gujarat,Ankleshwar,"GIDC, Ankleshwar - GPCB",05-09-2025 07:00:00,21.613267,73.010555,SO2,46,70,56
India,Gujarat,Ankleshwar,"GIDC, Ankleshwar - GPCB",05-09-2025 07:00:00,21.613267,73.010555,OZONE,44,56,46
India,Gujarat,Gandhinagar,"GIFT City, Gandhinagar - IITM",05-09-2025 07:00:00,23.163798,72.677768,PM10,27,93,60
India,Gujarat,Gandhinagar,"IIPHG Lekawada, Gandhinagar - IITM",05-09-2025 07:00:00,23.243639,72.68994,NO2,5,8,6
India,Delhi,Delhi,"Pusa, Delhi - IMD",05-09-2025 07:00:00,28.636110,77.173332,OZONE,10,26,16
India,Delhi,Delhi,"R K Puram, Delhi - DPCC",05-09-2025 07:00:00,28.563262,77.186937,PM2.5,18,107,57
India,Delhi,Delhi,"R K Puram, Delhi - DPCC",05-09-2025 07:00:00,28.563262,77.186937,PM10,18,88,56
India,Delhi,Delhi,"R K Puram, Delhi - DPCC",05-09-2025 07:00:00,28.563262,77.186937,SO2,NA,NA,NA
India,Delhi,Delhi,"Shadipur, Delhi - CPCB",05-09-2025 07:00:00,28.6514781,77.1473105,NO2,NA,NA,NA
India,Delhi,Delhi,"Shadipur, Delhi - CPCB",05-09-2025 07:00:00,28.6514781,77.1473105,SO2,NA,NA,NA
India,Delhi,Delhi,"Shadipur, Delhi - CPCB",05-09-2025 07:00:00,28.6514781,77.1473105,OZONE,NA,NA,NA
India,Delhi,Delhi,"Sri Aurobindo Marg, Delhi - DPCC",05-09-2025 07:00:00,28.531346,77.190156,OZONE,8,41,13
India,Delhi,Delhi,"Vivek Vihar, Delhi - DPCC",05-09-2025 07:00:00,28.672342,77.315260,NO2,12,102,37
India,Delhi,Delhi,"Najafgarh, Delhi - DPCC",05-09-2025 07:00:00,28.570173,76.933762,CO,24,37,33
India,Gujarat,Gandhinagar,"Sector-10, Gandhinagar - GPCB",05-09-2025 07:00:00,23.221714,72.654328,NO2,9,9,9
India,Gujarat,Surat,"Science Center, Surat - SMC",05-09-2025 07:00:00,21.170046,72.795405,PM10,12,82,35
India,Gujarat,Surat,"Science Center, Surat - SMC",05-09-2025 07:00:00,21.170046,72.795405,NO2,7,20,12
India,Gujarat,Vapi,"Phase-1 GIDC, Vapi - GPCB",05-09-2025 07:00:00,20.362421,72.918013,PM2.5,23,87,51
India,Gujarat,Vapi,"Phase-1 GIDC, Vapi - GPCB",05-09-2025 07:00:00,20.362421,72.918013,PM10,37,106,73
India,Haryana,Gurugram,"NISE Gwal Pahari, Gurugram - IMD",05-09-2025 07:00:00,28.422681,77.148944,PM2.5,1,95,37
India,Haryana,Gurugram,"NISE Gwal Pahari, Gurugram - IMD",05-09-2025 07:00:00,28.422681,77.148944,CO,8,42,32
India,Haryana,Gurugram,"NISE Gwal Pahari, Gurugram - IMD",05-09-2025 07:00:00,28.422681,77.148944,OZONE,20,55,24
India,Haryana,Panchgaon,"Amity University, Panchgaon - IITM",05-09-2025 07:00:00,28.3153,76.9143,NH3,1,20,11
India,Himachal Pradesh,Baddi,"HIMUDA Complex Phase-1, Baddi - HPPCB",05-09-2025 07:00:00,30.943887,76.801991,PM10,6,128,48
India,Himachal Pradesh,Baddi,"HIMUDA Complex Phase-1, Baddi - HPPCB",05-09-2025 07:00:00,30.943887,76.801991,NO2,13,70,37
India,Karnataka,Chikkamagaluru,"Kalyana Nagara, Chikkamagaluru - KSPCB",05-09-2025 07:00:00,13.328028,75.797056,CO,NA,NA,NA
India,Karnataka,Davanagere,"Devaraj Urs Badavane, Davanagere - KSPCB",05-09-2025 07:00:00,14.475800,75.905200,PM2.5,NA,NA,NA
India,Karnataka,Davanagere,"Devaraj Urs Badavane, Davanagere - KSPCB",05-09-2025 07:00:00,14.475800,75.905200,SO2,NA,NA,NA
India,Karnataka,Davanagere,"Devaraj Urs Badavane, Davanagere - KSPCB",05-09-2025 07:00:00,14.475800,75.905200,CO,4,8,6
India,Karnataka,Haveri,"Ashwini Nagar, Haveri - KSPCB",05-09-2025 07:00:00,14.791800,75.389600,PM2.5,34,45,38
India,Karnataka,Haveri,"Ashwini Nagar, Haveri - KSPCB",05-09-2025 07:00:00,14.791800,75.389600,PM10,41,53,45
India,Karnataka,Haveri,"Ashwini Nagar, Haveri - KSPCB",05-09-2025 07:00:00,14.791800,75.389600,OZONE,10,32,14
India,Karnataka,Hubballi,"Lingaraj Nagar, Hubballi - KSPCB",05-09-2025 07:00:00,15.3714823,75.1160168,PM2.5,23,29,25
India,Karnataka,Hubballi,"Lingaraj Nagar, Hubballi - KSPCB",05-09-2025 07:00:00,15.3714823,75.1160168,NH3,1,2,1
India,Himachal Pradesh,Baddi,"HIMUDA Complex Phase-1, Baddi - HPPCB",05-09-2025 07:00:00,30.943887,76.801991,OZONE,6,38,9
India,Jharkhand,Jorapokhar,"Tata Stadium, Jorapokhar - JSPCB",05-09-2025 07:00:00,23.707909,86.414670,OZONE,2,17,8
India,Karnataka,Bagalkot,"Vidayagiri, Bagalkot - KSPCB",05-09-2025 07:00:00,16.172806,75.659694,PM2.5,33,34,34
India,Karnataka,Bagalkot,"Vidayagiri, Bagalkot - KSPCB",05-09-2025 07:00:00,16.172806,75.659694,NO2,9,10,9
India,Karnataka,Bagalkot,"Vidayagiri, Bagalkot - KSPCB",05-09-2025 07:00:00,16.172806,75.659694,SO2,7,7,7
India,Karnataka,Bagalkot,"Vidayagiri, Bagalkot - KSPCB",05-09-2025 07:00:00,16.172806,75.659694,OZONE,12,16,16
India,Karnataka,Bengaluru,"BTM Layout, Bengaluru - CPCB",05-09-2025 07:00:00,12.9135218,77.5950804,SO2,15,20,19
India,Karnataka,Bengaluru,"Sanegurava Halli, Bengaluru - KSPCB",05-09-2025 07:00:00,12.990328,77.5431385,NO2,17,21,19
India,Karnataka,Bengaluru,"Sanegurava Halli, Bengaluru - KSPCB",05-09-2025 07:00:00,12.990328,77.5431385,SO2,7,8,7
India,Karnataka,Bengaluru,"Sanegurava Halli, Bengaluru - KSPCB",05-09-2025 07:00:00,12.990328,77.5431385,CO,17,54,21
India,Karnataka,Bengaluru,"Shivapura_Peenya, Bengaluru - KSPCB",05-09-2025 07:00:00,13.0246342,77.5080115,PM10,48,77,61
India,Karnataka,Bengaluru,"Shivapura_Peenya, Bengaluru - KSPCB",05-09-2025 07:00:00,13.0246342,77.5080115,CO,20,32,28
India,Karnataka,Bengaluru,"Silk Board, Bengaluru - KSPCB",05-09-2025 07:00:00,12.917348,77.622813,OZONE,19,22,19
India,Karnataka,Chamarajanagar,"Urban, Chamarajanagar - KSPCB",05-09-2025 07:00:00,11.55358,76.55521,PM2.5,19,52,32
India,Karnataka,Chamarajanagar,"Urban, Chamarajanagar - KSPCB",05-09-2025 07:00:00,11.55358,76.55521,PM10,30,65,45
India,Karnataka,Bengaluru,"Hombegowda Nagar, Bengaluru - KSPCB",05-09-2025 07:00:00,12.938539,77.590100,PM10,19,64,35
India,Karnataka,Bengaluru,"Hombegowda Nagar, Bengaluru - KSPCB",05-09-2025 07:00:00,12.938539,77.590100,NO2,8,35,15
India,Karnataka,Bengaluru,"Hombegowda Nagar, Bengaluru - KSPCB",05-09-2025 07:00:00,12.938539,77.590100,NH3,1,2,2
India,Karnataka,Bengaluru,"Hombegowda Nagar, Bengaluru - KSPCB",05-09-2025 07:00:00,12.938539,77.590100,SO2,5,15,8
India,Karnataka,Bengaluru,"Jayanagar 5th Block, Bengaluru - KSPCB",05-09-2025 07:00:00,12.920984,77.584908,NO2,17,59,30
India,Karnataka,Bengaluru,"Jayanagar 5th Block, Bengaluru - KSPCB",05-09-2025 07:00:00,12.920984,77.584908,NH3,1,1,1
India,Karnataka,Bengaluru,"Jigani, Bengaluru - KSPCB",05-09-2025 07:00:00,12.7816279,77.6299145,PM2.5,34,40,36
India,Karnataka,Bengaluru,"Peenya, Bengaluru - CPCB",05-09-2025 07:00:00,13.0270199,77.494094,NO2,18,24,21
India,Karnataka,Shivamogga,"Vinoba Nagara, Shivamogga - KSPCB",05-09-2025 07:00:00,13.940000,75.555917,PM2.5,24,26,25
India,Karnataka,Vijayapura,"Ibrahimpur, Vijayapura - KSPCB",05-09-2025 07:00:00,16.802639,75.722694,PM2.5,30,38,37
India,Karnataka,Vijayapura,"Ibrahimpur, Vijayapura - KSPCB",05-09-2025 07:00:00,16.802639,75.722694,NH3,1,2,1
India,Karnataka,Vijayapura,"Ibrahimpur, Vijayapura - KSPCB",05-09-2025 07:00:00,16.802639,75.722694,OZONE,14,17,16
India,Karnataka,Yadgir,"Collector Office, Yadgir - KSPCB",05-09-2025 07:00:00,16.7602,77.1428,PM2.5,2,22,13
India,Karnataka,Yadgir,"Collector Office, Yadgir - KSPCB",05-09-2025 07:00:00,16.7602,77.1428,NO2,21,45,34
India,Karnataka,Yadgir,"Collector Office, Yadgir - KSPCB",05-09-2025 07:00:00,16.7602,77.1428,SO2,12,22,16
India,Karnataka,Kalaburagi,"Lal Bahadur Shastri Nagar, Kalaburagi - KSPCB",05-09-2025 07:00:00,17.321993,76.822628,PM10,49,79,62
India,Karnataka,Kalaburagi,"Lal Bahadur Shastri Nagar, Kalaburagi - KSPCB",05-09-2025 07:00:00,17.321993,76.822628,OZONE,20,20,20
India,Karnataka,Karwar,"KHB Colony, Karwar - KSPCB",05-09-2025 07:00:00,14.816666,74.141003,NH3,NA,NA,NA
India,Karnataka,Karwar,"KHB Colony, Karwar - KSPCB",05-09-2025 07:00:00,14.816666,74.141003,SO2,NA,NA,NA
India,Karnataka,Madikeri,"Stuart Hill, Madikeri - KSPCB",05-09-2025 07:00:00,12.415911,75.735050,PM2.5,4,10,7
India,Karnataka,Madikeri,"Stuart Hill, Madikeri - KSPCB",05-09-2025 07:00:00,12.415911,75.735050,CO,NA,NA,NA
India,Karnataka,Bengaluru,"Bapuji Nagar, Bengaluru - KSPCB",05-09-2025 07:00:00,12.951913,77.539784,OZONE,1,32,6
India,Karnataka,Bengaluru,"City Railway Station, Bengaluru - KSPCB",05-09-2025 07:00:00,12.9756843,77.5660749,NO2,42,49,46
India,Karnataka,Bengaluru,"Hebbal, Bengaluru - KSPCB",05-09-2025 07:00:00,13.029152,77.585901,SO2,5,11,8
India,Karnataka,Bengaluru,"Hebbal, Bengaluru - KSPCB",05-09-2025 07:00:00,13.029152,77.585901,CO,10,34,16
India,Karnataka,Mangalore,"Kadri, Mangalore - KSPCB",05-09-2025 07:00:00,12.889250,74.853000,OZONE,5,34,20
India,Karnataka,Mysuru,"Hebbal 1st Stage, Mysuru - KSPCB",05-09-2025 07:00:00,12.21041,76.37376,PM2.5,8,34,14
India,Karnataka,Ramanagara,"Vijay Nagar, Ramanagara - KSPCB",05-09-2025 07:00:00,12.733409,77.298051,PM2.5,NA,NA,NA
India,Madhya Pradesh,Indore,"Chhoti Gwaltoli, Indore - MPPCB",05-09-2025 07:00:00,22.4310,75.5213,CO,25,85,39
India,Madhya Pradesh,Indore,"Maguda Nagar, Indore - IMC",05-09-2025 07:00:00,22.7524,75.8872,PM10,3,16,9
India,Madhya Pradesh,Indore,"Maguda Nagar, Indore - IMC",05-09-2025 07:00:00,22.7524,75.8872,OZONE,7,9,8
India,Madhya Pradesh,Indore,"Regional Park, Indore - IMC",05-09-2025 07:00:00,22.6780,75.8559,NO2,13,19,15
India,Madhya Pradesh,Indore,"Regional Park, Indore - IMC",05-09-2025 07:00:00,22.6780,75.8559,CO,18,24,21
India,Madhya Pradesh,Indore,"Residency Area, Indore - IMC",05-09-2025 07:00:00,22.7084,75.8815,PM2.5,3,23,12
India,Madhya Pradesh,Indore,"Residency Area, Indore - IMC",05-09-2025 07:00:00,22.7084,75.8815,CO,12,14,14
India,Madhya Pradesh,Jabalpur,"Govindh Bhavan Colony, Jabalpur - JMC",05-09-2025 07:00:00,23.163174,79.973061,OZONE,3,39,16
India,Madhya Pradesh,Jabalpur,"Gupteshwar, Jabalpur - JMC",05-09-2025 07:00:00,23.142888,79.916147,PM2.5,12,51,27
India,Madhya Pradesh,Mandideep,"Sector-D Industrial Area, Mandideep - MPPCB",05-09-2025 07:00:00,23.108440,77.511428,OZONE,22,48,29
India,Madhya Pradesh,Pithampur,"Sector-2 Industrial Area, Pithampur - MPPCB",05-09-2025 07:00:00,22.624758,75.675238,NO2,5,35,16
India,Madhya Pradesh,Ratlam,"Shasthri Nagar, Ratlam - IPCA Lab",05-09-2025 07:00:00,23.331731,75.045981,SO2,27,28,27
India,Madhya Pradesh,Sagar,"Civil Lines, Sagar - MPPCB",05-09-2025 07:00:00,23.838586,78.759431,PM2.5,3,40,19
India,Madhya Pradesh,Satna,"Bandhavgar Colony, Satna - Birla Cement",05-09-2025 07:00:00,24.58434363,80.8549414,NO2,26,44,37
India,Madhya Pradesh,Singrauli,"Suryakiran Bhawan NCL, Singrauli - MPPCB",05-09-2025 07:00:00,24.108970,82.645580,NO2,18,28,20
India,Madhya Pradesh,Jabalpur,"Gupteshwar, Jabalpur - JMC",05-09-2025 07:00:00,23.142888,79.916147,NO2,NA,NA,NA
India,Madhya Pradesh,Jabalpur,"Gupteshwar, Jabalpur - JMC",05-09-2025 07:00:00,23.142888,79.916147,NH3,5,9,7
India,Madhya Pradesh,Jabalpur,"Suhagi, Jabalpur - JMC",05-09-2025 07:00:00,23.218135,79.957770,PM10,NA,NA,NA
India,Madhya Pradesh,Jabalpur,"Suhagi, Jabalpur - JMC",05-09-2025 07:00:00,23.218135,79.957770,CO,8,60,15
India,Madhya Pradesh,Jabalpur,"Suhagi, Jabalpur - JMC",05-09-2025 07:00:00,23.218135,79.957770,OZONE,12,32,27
India,Madhya Pradesh,Maihar,"Sahilara, Maihar - KJS Cements",05-09-2025 07:00:00,24.2613009,80.7231783,NO2,NA,NA,NA
India,Madhya Pradesh,Maihar,"Sahilara, Maihar - KJS Cements",05-09-2025 07:00:00,24.2613009,80.7231783,CO,20,20,20
India,Madhya Pradesh,Mandideep,"Sector-D Industrial Area, Mandideep - MPPCB",05-09-2025 07:00:00,23.108440,77.511428,CO,26,50,33
India,Madhya Pradesh,Singrauli,"Suryakiran Bhawan NCL, Singrauli - MPPCB",05-09-2025 07:00:00,24.108970,82.645580,OZONE,11,31,25
India,Maharashtra,Akola,"Ramdaspeth, Akola - MPCB",05-09-2025 07:00:00,20.719516,77.000253,PM10,15,49,30
India,Maharashtra,Akola,"Ramdaspeth, Akola - MPCB",05-09-2025 07:00:00,20.719516,77.000253,OZONE,6,32,8
India,Maharashtra,Amravati,"Shivneri Colony, Amravati - MPCB",05-09-2025 07:00:00,20.9402359,77.7895248,SO2,NA,NA,NA
India,Maharashtra,Amravati,"Shri Shivaji Science College, Amravati - MPCB",05-09-2025 07:00:00,20.939198,77.765701,PM2.5,14,41,27
India,Maharashtra,Amravati,"Shri Shivaji Science College, Amravati - MPCB",05-09-2025 07:00:00,20.939198,77.765701,NH3,1,2,1
India,Maharashtra,Aurangabad,"MIDC Chilkalthana, Aurangabad - MPCB",05-09-2025 07:00:00,19.875620,75.387310,SO2,11,11,11
India,Maharashtra,Aurangabad,"More Chowk Waluj, Aurangabad - MPCB",05-09-2025 07:00:00,19.8389439,75.244448,PM10,10,57,19
India,Maharashtra,Aurangabad,"More Chowk Waluj, Aurangabad - MPCB",05-09-2025 07:00:00,19.8389439,75.244448,NO2,15,25,19
India,Maharashtra,Aurangabad,"More Chowk Waluj, Aurangabad - MPCB",05-09-2025 07:00:00,19.8389439,75.244448,NH3,9,11,11
India,Maharashtra,Aurangabad,"Rachnakar Colony, Aurangabad - MPCB",05-09-2025 07:00:00,19.863756,75.321188,PM10,30,64,43
India,Maharashtra,Aurangabad,"Rachnakar Colony, Aurangabad - MPCB",05-09-2025 07:00:00,19.863756,75.321188,CO,14,20,15
India,Maharashtra,Badlapur,"Katrap, Badlapur - MPCB",05-09-2025 07:00:00,19.16485,73.23409,SO2,6,19,12
India,Maharashtra,Bhiwandi,"Gokul Nagar, Bhiwandi - MPCB",05-09-2025 07:00:00,19.309073,73.057223,CO,19,48,30
India,Maharashtra,Boisar,"Khaira, Boisar - MPCB",05-09-2025 07:00:00,19.786089,72.757971,NO2,10,22,16
India,Maharashtra,Boisar,"Khaira, Boisar - MPCB",05-09-2025 07:00:00,19.786089,72.757971,CO,28,86,42
India,Maharashtra,Chandrapur,"MIDC Khutala, Chandrapur - MPCB",05-09-2025 07:00:00,19.9775302,79.2337086,NH3,1,4,2
India,Maharashtra,Dhule,"Deopur, Dhule - MPCB",05-09-2025 07:00:00,20.918946,74.776388,PM2.5,28,53,36
India,Kerala,Eloor,"Udyogamandal, Eloor - Kerala PCB",05-09-2025 07:00:00,10.073232,76.302765,NO2,7,8,8
India,Kerala,Kollam,"Polayathode, Kollam - Kerala PCB",05-09-2025 07:00:00,8.8787,76.6073,PM2.5,NA,NA,NA
India,Kerala,Kollam,"Polayathode, Kollam - Kerala PCB",05-09-2025 07:00:00,8.8787,76.6073,SO2,NA,NA,NA
India,Kerala,Kollam,"Polayathode, Kollam - Kerala PCB",05-09-2025 07:00:00,8.8787,76.6073,CO,NA,NA,NA
India,Kerala,Thiruvananthapuram,"Plammoodu, Thiruvananthapuram - Kerala PCB",05-09-2025 07:00:00,8.5149093,76.9435879,NH3,6,7,6
India,Madhya Pradesh,Dewas,"Bhopal Chauraha, Dewas - MPPCB",05-09-2025 07:00:00,22.9682591,76.064118,OZONE,29,32,31
India,Madhya Pradesh,Gwalior,"City Center, Gwalior - MPPCB",05-09-2025 07:00:00,26.203442,78.193251,SO2,2,53,23
India,Madhya Pradesh,Indore,"Chhoti Gwaltoli, Indore - MPPCB",05-09-2025 07:00:00,22.4310,75.5213,PM2.5,15,55,38
India,Kerala,Thrissur,"Corporation Ground, Thrissur - Kerala PCB",05-09-2025 07:00:00,10.532400,76.215900,OZONE,30,30,30
India,Madhya Pradesh,Damoh,"Shrivastav Colony, Damoh - MPPCB",05-09-2025 07:00:00,23.81748678,79.446246,PM10,4,42,19
India,Madhya Pradesh,Damoh,"Shrivastav Colony, Damoh - MPPCB",05-09-2025 07:00:00,23.81748678,79.446246,SO2,17,18,18
India,Maharashtra,Kolhapur,"Shivaji University, Kolhapur - MPCB",05-09-2025 07:00:00,16.6870449,74.2505872,CO,4,32,10
India,Maharashtra,Kolhapur,"Shivaji University, Kolhapur - MPCB",05-09-2025 07:00:00,16.6870449,74.2505872,OZONE,6,21,11
India,Maharashtra,Kolhapur,"Sinchan Bhavan, Kolhapur - MPCB",05-09-2025 07:00:00,16.7143745,74.2426398,PM10,22,44,31
India,Maharashtra,Kolhapur,"Sinchan Bhavan, Kolhapur - MPCB",05-09-2025 07:00:00,16.7143745,74.2426398,NH3,2,7,5
India,Maharashtra,Latur,"Sawe Wadi, Latur - MPCB",05-09-2025 07:00:00,18.39963,76.57452,PM2.5,25,44,37
India,Maharashtra,Latur,"Sawe Wadi, Latur - MPCB",05-09-2025 07:00:00,18.39963,76.57452,NO2,3,33,13
India,Maharashtra,Latur,"Sawe Wadi, Latur - MPCB",05-09-2025 07:00:00,18.39963,76.57452,OZONE,13,40,22
India,Maharashtra,Mahad,"Kamble Tarf Birwadi, Mahad - MPCB",05-09-2025 07:00:00,18.1023399,73.4783687,NH3,3,8,7
India,Maharashtra,Jalgaon,"Prabhat Colony, Jalgaon - MPCB",05-09-2025 07:00:00,21.001264,75.565602,NO2,3,8,5
India,Maharashtra,Jalgaon,"Prabhat Colony, Jalgaon - MPCB",05-09-2025 07:00:00,21.001264,75.565602,NH3,2,3,2
India,Maharashtra,Jalgaon,"Prabhat Colony, Jalgaon - MPCB",05-09-2025 07:00:00,21.001264,75.565602,CO,4,16,7
India,Maharashtra,Jalna,"Old MIDC, Jalna - MPCB",05-09-2025 07:00:00,19.854616,75.905894,PM10,11,179,46
India,Maharashtra,Jalna,"Old MIDC, Jalna - MPCB",05-09-2025 07:00:00,19.854616,75.905894,NH3,3,5,4
India,Maharashtra,Jalna,"Old MIDC, Jalna - MPCB",05-09-2025 07:00:00,19.854616,75.905894,SO2,NA,NA,NA
India,Maharashtra,Jalna,"Old MIDC, Jalna - MPCB",05-09-2025 07:00:00,19.854616,75.905894,OZONE,21,43,25
India,Maharashtra,Kalyan,"Khadakpada, Kalyan - MPCB",05-09-2025 07:00:00,19.25292,73.142019,PM10,16,103,42
India,Maharashtra,Kalyan,"Khadakpada, Kalyan - MPCB",05-09-2025 07:00:00,19.25292,73.142019,NH3,1,2,2
India,Maharashtra,Mira-Bhayandar,"Bhayandar West, Mira-Bhayandar - MPCB",05-09-2025 07:00:00,19.296481,72.840923,NO2,4,48,10
India,Maharashtra,Mira-Bhayandar,"Bhayandar West, Mira-Bhayandar - MPCB",05-09-2025 07:00:00,19.296481,72.840923,SO2,3,4,3
India,Maharashtra,Mumbai,"Bandra Kurla Complex, Mumbai - IITM",05-09-2025 07:00:00,19.053536,72.84643,SO2,4,6,5
India,Maharashtra,Mumbai,"Bandra Kurla Complex, Mumbai - IITM",05-09-2025 07:00:00,19.053536,72.84643,CO,22,98,30
India,Maharashtra,Mumbai,"Bandra Kurla Complex, Mumbai - MPCB",05-09-2025 07:00:00,19.065931,72.862131,PM2.5,3,67,20
India,Maharashtra,Mumbai,"Bandra Kurla Complex, Mumbai - MPCB",05-09-2025 07:00:00,19.065931,72.862131,PM10,30,46,35
India,Maharashtra,Mumbai,"Bandra Kurla Complex, Mumbai - MPCB",05-09-2025 07:00:00,19.065931,72.862131,NH3,3,4,3
India,Maharashtra,Mumbai,"Bandra Kurla Complex, Mumbai - MPCB",05-09-2025 07:00:00,19.065931,72.862131,SO2,2,4,3
India,Maharashtra,Mumbai,"Mulund West, Mumbai - MPCB",05-09-2025 07:00:00,19.1750,72.9419,PM2.5,20,48,34
India,Maharashtra,Mumbai,"Mulund West, Mumbai - MPCB",05-09-2025 07:00:00,19.1750,72.9419,PM10,NA,NA,NA
India,Maharashtra,Mumbai,"Navy Nagar-Colaba, Mumbai - IITM",05-09-2025 07:00:00,18.897756,72.813320,NH3,2,3,2
India,Maharashtra,Mumbai,"Navy Nagar-Colaba, Mumbai - IITM",05-09-2025 07:00:00,18.897756,72.813320,OZONE,13,18,16
India,Maharashtra,Mumbai,"Sewri, Mumbai - BMC",05-09-2025 07:00:00,19.000084,72.856730,OZONE,NA,NA,NA
India,Maharashtra,Mumbai,"Shivaji Nagar, Mumbai - BMC",05-09-2025 07:00:00,19.060498,72.923356,PM10,46,114,68
India,Maharashtra,Mumbai,"Ghatkopar, Mumbai - BMC",05-09-2025 07:00:00,19.083694,72.920967,OZONE,1,8,4
India,Maharashtra,Mumbai,"Kandivali East, Mumbai - MPCB",05-09-2025 07:00:00,19.205800,72.868200,SO2,NA,NA,NA
India,Maharashtra,Mumbai,"Kandivali West, Mumbai - BMC",05-09-2025 07:00:00,19.215859,72.831718,CO,1,29,5
India,Maharashtra,Mumbai,"Kandivali West, Mumbai - BMC",05-09-2025 07:00:00,19.215859,72.831718,OZONE,1,30,16
India,Maharashtra,Mumbai,"Kherwadi_Bandra East, Mumbai - MPCB",05-09-2025 07:00:00,19.0632143,72.8456324,PM2.5,11,81,29
India,Maharashtra,Mumbai,"Borivali East, Mumbai - IITM",05-09-2025 07:00:00,19.23241,72.86895,NH3,NA,NA,NA
India,Maharashtra,Mumbai,"Borivali East, Mumbai - MPCB",05-09-2025 07:00:00,19.2243333,72.8658113,PM2.5,15,38,23
India,Maharashtra,Mumbai,"Byculla, Mumbai - BMC",05-09-2025 07:00:00,18.9767,72.8380,NO2,7,23,15
India,Maharashtra,Mumbai,"Chakala-Andheri East, Mumbai - IITM",05-09-2025 07:00:00,19.11074,72.86084,PM2.5,12,36,23
India,Maharashtra,Mumbai,"Chakala-Andheri East, Mumbai - IITM",05-09-2025 07:00:00,19.11074,72.86084,NO2,4,7,6
India,Maharashtra,Mumbai,"Chhatrapati Shivaji Intl. Airport (T2), Mumbai - MPCB",05-09-2025 07:00:00,19.10078,72.87462,NH3,1,1,1
India,Maharashtra,Mumbai,"Chhatrapati Shivaji Intl. Airport (T2), Mumbai - MPCB",05-09-2025 07:00:00,19.10078,72.87462,OZONE,7,7,7
India,Maharashtra,Mumbai,"Deonar, Mumbai - IITM",05-09-2025 07:00:00,19.04946,72.9230,PM2.5,9,62,26
India,Maharashtra,Mumbai,"Deonar, Mumbai - IITM",05-09-2025 07:00:00,19.04946,72.9230,PM10,62,97,78
India,Maharashtra,Mumbai,"Deonar, Mumbai - IITM",05-09-2025 07:00:00,19.04946,72.9230,CO,1,26,11
India,Maharashtra,Mumbai,"Deonar, Mumbai - IITM",05-09-2025 07:00:00,19.04946,72.9230,OZONE,1,4,2
India,Maharashtra,Mumbai,"Kurla, Mumbai - MPCB",05-09-2025 07:00:00,19.0863,72.8888,NH3,1,1,1
India,Maharashtra,Mumbai,"Malad West, Mumbai - IITM",05-09-2025 07:00:00,19.19709,72.82204,PM10,29,71,49
India,Maharashtra,Mumbai,"Mazgaon, Mumbai - IITM",05-09-2025 07:00:00,18.96702,72.84214,PM2.5,15,31,25
India,Maharashtra,Mumbai,"Mazgaon, Mumbai - IITM",05-09-2025 07:00:00,18.96702,72.84214,CO,41,82,50
India,Maharashtra,Malegaon,"Mahesh Nagar, Malegaon - MPCB",05-09-2025 07:00:00,20.555712,74.529236,PM2.5,31,74,46
India,Maharashtra,Malegaon,"Mahesh Nagar, Malegaon - MPCB",05-09-2025 07:00:00,20.555712,74.529236,CO,27,62,33
India,Maharashtra,Solapur,"Dnyaneshwar Nagar, Solapur - MPCB",05-09-2025 07:00:00,17.6336264,75.9132495,CO,6,16,7
India,Maharashtra,Solapur,"Dnyaneshwar Nagar, Solapur - MPCB",05-09-2025 07:00:00,17.6336264,75.9132495,OZONE,1,22,11
India,Maharashtra,Solapur,"Ratandeep Housing Society, Solapur - MPCB",05-09-2025 07:00:00,17.65439,75.90649,CO,8,49,12
India,Maharashtra,Thane,"Upvan Fort, Thane - MPCB",05-09-2025 07:00:00,19.222279,72.957979,SO2,3,5,3
India,Maharashtra,Thane,"Upvan Fort, Thane - MPCB",05-09-2025 07:00:00,19.222279,72.957979,OZONE,6,19,11
India,Maharashtra,Ulhasnagar,"Sidhi Vinayak Nagar, Ulhasnagar - MPCB",05-09-2025 07:00:00,19.235581,73.159121,PM2.5,27,65,45
India,Maharashtra,Ulhasnagar,"Sidhi Vinayak Nagar, Ulhasnagar - MPCB",05-09-2025 07:00:00,19.235581,73.159121,NO2,24,49,37
India,Maharashtra,Ulhasnagar,"Sidhi Vinayak Nagar, Ulhasnagar - MPCB",05-09-2025 07:00:00,19.235581,73.159121,SO2,8,23,15
India,Maharashtra,Nagpur,"Ram Nagar, Nagpur - MPCB",05-09-2025 07:00:00,21.143383,79.048912,PM10,18,59,38
India,Maharashtra,Nagpur,"Ram Nagar, Nagpur - MPCB",05-09-2025 07:00:00,21.143383,79.048912,OZONE,1,28,6
India,Maharashtra,Nanded,"Sneh Nagar, Nanded - MPCB",05-09-2025 07:00:00,19.173852,77.296291,PM10,NA,NA,NA
India,Maharashtra,Nanded,"Sneh Nagar, Nanded - MPCB",05-09-2025 07:00:00,19.173852,77.296291,SO2,NA,NA,NA
India,Maharashtra,Nashik,"Gangapur Road, Nashik - MPCB",05-09-2025 07:00:00,20.0073285,73.7762427,SO2,6,11,9
India,Maharashtra,Nashik,"Gangapur Road, Nashik - MPCB",05-09-2025 07:00:00,20.0073285,73.7762427,OZONE,14,14,14
India,Maharashtra,Nashik,"MIDC Ambad, Nashik - MPCB",05-09-2025 07:00:00,19.950220,73.731480,PM2.5,23,49,35
India,Maharashtra,Parbhani,"Masoom Colony, Parbhani - MPCB",05-09-2025 07:00:00,19.265594,76.761463,CO,8,15,11
India,Maharashtra,Pimpri-Chinchwad,"Gavalinagar, Pimpri Chinchwad - MPCB",05-09-2025 07:00:00,18.63673,73.82487,PM2.5,20,26,22
India,Maharashtra,Pimpri-Chinchwad,"Gavalinagar, Pimpri Chinchwad - MPCB",05-09-2025 07:00:00,18.63673,73.82487,NO2,20,31,23
India,Maharashtra,Pimpri-Chinchwad,"Gavalinagar, Pimpri Chinchwad - MPCB",05-09-2025 07:00:00,18.63673,73.82487,SO2,1,3,2
India,Maharashtra,Pimpri-Chinchwad,"Park Street Wakad, Pimpri Chinchwad - MPCB",05-09-2025 07:00:00,18.59051,73.77946,PM10,23,61,51
India,Maharashtra,Pimpri-Chinchwad,"Park Street Wakad, Pimpri Chinchwad - MPCB",05-09-2025 07:00:00,18.59051,73.77946,SO2,3,3,3
India,Maharashtra,Mumbai,"Siddharth Nagar-Worli, Mumbai - IITM",05-09-2025 07:00:00,19.000083,72.813993,OZONE,17,25,23
India,Maharashtra,Mumbai,"Worli, Mumbai - MPCB",05-09-2025 07:00:00,18.9936162,72.8128113,NH3,1,2,1
India,Maharashtra,Mumbai,"Worli, Mumbai - MPCB",05-09-2025 07:00:00,18.9936162,72.8128113,OZONE,20,20,20
India,Maharashtra,Nagpur,"Ambazari, Nagpur - MPCB",05-09-2025 07:00:00,21.121801,79.04952,PM2.5,25,64,48
India,Maharashtra,Nagpur,"Ambazari, Nagpur - MPCB",05-09-2025 07:00:00,21.121801,79.04952,PM10,36,66,51
India,Maharashtra,Nagpur,"Mahal, Nagpur - MPCB",05-09-2025 07:00:00,21.14472,79.107595,NO2,12,33,22
India,Maharashtra,Navi Mumbai,"Mahape, Navi Mumbai - MPCB",05-09-2025 07:00:00,19.1135051,73.008978,NH3,3,3,3
India,Maharashtra,Navi Mumbai,"Nerul, Navi Mumbai - MPCB",05-09-2025 07:00:00,19.008751,73.016620,PM2.5,16,45,29
India,Maharashtra,Navi Mumbai,"Sanpada, Navi Mumbai - MPCB",05-09-2025 07:00:00,19.0575752,73.0151367,NH3,7,18,11
India,Maharashtra,Navi Mumbai,"Tondare-Taloja, Navi Mumbai - MPCB",05-09-2025 07:00:00,19.0630,73.1209,NO2,20,76,44
India,Maharashtra,Navi Mumbai,"Tondare-Taloja, Navi Mumbai - MPCB",05-09-2025 07:00:00,19.0630,73.1209,CO,30,43,38
India,Maharashtra,Pune,"Katraj Dairy, Pune - MPCB",05-09-2025 07:00:00,18.454450,73.854155,SO2,3,52,24
India,Maharashtra,Pune,"Mhada Colony, Pune - IITM",05-09-2025 07:00:00,18.573040,73.927715,NO2,31,41,36
India,Maharashtra,Pune,"Mhada Colony, Pune - IITM",05-09-2025 07:00:00,18.573040,73.927715,OZONE,11,26,15
India,Maharashtra,Pune,"Panchawati_Pashan, Pune - IITM",05-09-2025 07:00:00,18.536457,73.805454,PM10,16,86,51
India,Maharashtra,Pune,"Savitribai Phule Pune University, Pune - MPCB",05-09-2025 07:00:00,18.547056,73.826908,NO2,NA,NA,NA
India,Maharashtra,Nashik,"MIDC Ambad, Nashik - MPCB",05-09-2025 07:00:00,19.950220,73.731480,CO,9,14,13
India,Maharashtra,Navi Mumbai,"Kopripada-Vashi, Navi Mumbai - MPCB",05-09-2025 07:00:00,19.090337,73.014232,PM2.5,14,34,23
India,Maharashtra,Navi Mumbai,"Kopripada-Vashi, Navi Mumbai - MPCB",05-09-2025 07:00:00,19.090337,73.014232,CO,14,103,34
India,Maharashtra,Navi Mumbai,"Mahape, Navi Mumbai - MPCB",05-09-2025 07:00:00,19.1135051,73.008978,NO2,34,36,35
India,Maharashtra,Pimpri-Chinchwad,"Thergaon, Pimpri Chinchwad - MPCB",05-09-2025 07:00:00,18.616318,73.765797,OZONE,2,12,6
India,Maharashtra,Pune,"Bhosari, Pune - IITM",05-09-2025 07:00:00,18.640051,73.848956,CO,NA,NA,NA
India,Maharashtra,Pune,"Bhumkar Nagar, Pune - IITM",05-09-2025 07:00:00,18.605770,73.749976,PM2.5,8,48,20
India,Maharashtra,Sangli,"Vijay Nagar, Sangli - MPCB",05-09-2025 07:00:00, 16.5038,74.3623,PM2.5,12,33,18
India,Maharashtra,Solapur,"Dnyaneshwar Nagar, Solapur - MPCB",05-09-2025 07:00:00,17.6336264,75.9132495,NO2,NA,NA,NA
India,Maharashtra,Solapur,"Dnyaneshwar Nagar, Solapur - MPCB",05-09-2025 07:00:00,17.6336264,75.9132495,NH3,NA,NA,NA
India,Maharashtra,Virar,"Bolinj, Virar - MPCB",05-09-2025 07:00:00,19.4458210,72.7988231,PM10,16,42,31
India,Maharashtra,Virar,"Bolinj, Virar - MPCB",05-09-2025 07:00:00,19.4458210,72.7988231,SO2,1,4,3
India,Maharashtra,Virar,"Bolinj, Virar - MPCB",05-09-2025 07:00:00,19.4458210,72.7988231,OZONE,4,31,17
India,Odisha,Angul,"Hakimapada, Angul - OSPCB",05-09-2025 07:00:00,20.832874,85.104082,PM10,14,102,43
India,Odisha,Balasore,"Kalidaspur, Balasore - OSPCB",05-09-2025 07:00:00,21.51161,86.89088,PM2.5,8,28,18
India,Odisha,Balasore,"Kalidaspur, Balasore - OSPCB",05-09-2025 07:00:00,21.51161,86.89088,PM10,11,28,18
India,Odisha,Balasore,"Kalidaspur, Balasore - OSPCB",05-09-2025 07:00:00,21.51161,86.89088,SO2,4,6,5
India,Odisha,Balasore,"Kalidaspur, Balasore - OSPCB",05-09-2025 07:00:00,21.51161,86.89088,CO,26,69,40
India,Odisha,Barbil,"Forest Office, Barbil - OSPCB",05-09-2025 07:00:00,22.1166054,85.3945546,CO,24,44,34
India,Odisha,Baripada,"Meher Colony, Baripada - OSPCB",05-09-2025 07:00:00,21.941841,86.728318,PM10,NA,NA,NA
India,Odisha,Byasanagar,"Ferro Chrome Colony, Byasanagar - OSPCB",05-09-2025 07:00:00,20.94185,86.11510,NO2,18,40,21
India,Odisha,Byasanagar,"Ferro Chrome Colony, Byasanagar - OSPCB",05-09-2025 07:00:00,20.94185,86.11510,OZONE,11,48,16
India,Odisha,Cuttack,"CDA Area, Cuttack - OSPCB",05-09-2025 07:00:00,20.48891     ,85.84768     ,SO2,3,6,4
India,Odisha,Cuttack,"CDA Area, Cuttack - OSPCB",05-09-2025 07:00:00,20.48891     ,85.84768     ,OZONE,6,32,9
India,Odisha,Keonjhar,"Jagamohanpur, Keonjhar - OSPCB",05-09-2025 07:00:00,21.643900,85.599355,PM2.5,16,28,19
India,Odisha,Nayagarh,"Dabuna, Nayagarh - OSPCB",05-09-2025 07:00:00,21.847279,85.416905,PM10,21,38,24
India,Odisha,Nayagarh,"Dabuna, Nayagarh - OSPCB",05-09-2025 07:00:00,21.847279,85.416905,NO2,12,37,25
India,Odisha,Nayagarh,"Dabuna, Nayagarh - OSPCB",05-09-2025 07:00:00,21.847279,85.416905,CO,12,20,19
India,Odisha,Rairangpur,"Divisional Forest Office, Rairangpur - OSPCB",05-09-2025 07:00:00,22.265816,86.174829,NH3,3,3,3
India,Punjab,Mandi Gobindgarh,"RIMT University, Mandi Gobindgarh - PPCB",05-09-2025 07:00:00,30.649961,76.331442,CO,50,106,64
India,Punjab,Patiala,"Model Town, Patiala - PPCB",05-09-2025 07:00:00,30.349388,76.366642,OZONE,16,20,17
India,Punjab,Rupnagar,"Ratanpura, Rupnagar - Ambuja Cements",05-09-2025 07:00:00,31.0325454,76.5623046,PM2.5,21,96,54
India,Punjab,Rupnagar,"Ratanpura, Rupnagar - Ambuja Cements",05-09-2025 07:00:00,31.0325454,76.5623046,NO2,3,5,4
India,Punjab,Rupnagar,"Ratanpura, Rupnagar - Ambuja Cements",05-09-2025 07:00:00,31.0325454,76.5623046,CO,8,12,10
India,Rajasthan,Alwar,"Moti Doongri, Alwar - RSPCB",05-09-2025 07:00:00,27.554793,76.611536,PM2.5,29,41,33
India,Rajasthan,Alwar,"Moti Doongri, Alwar - RSPCB",05-09-2025 07:00:00,27.554793,76.611536,CO,30,66,37
India,Rajasthan,Banswara,"Rati Talai, Banswara - RSPCB",05-09-2025 07:00:00,23.555190,74.440010,PM10,NA,NA,NA
India,Punjab,Bathinda,"Hardev Nagar, Bathinda - PPCB",05-09-2025 07:00:00,30.233011,74.907758,PM10,5,73,21
India,Punjab,Bathinda,"Hardev Nagar, Bathinda - PPCB",05-09-2025 07:00:00,30.233011,74.907758,SO2,5,23,11
India,Punjab,Jalandhar,"Civil Line, Jalandhar - PPCB",05-09-2025 07:00:00,31.321907,75.578914,PM2.5,36,54,42
India,Punjab,Jalandhar,"Civil Line, Jalandhar - PPCB",05-09-2025 07:00:00,31.321907,75.578914,NH3,4,4,4
India,Punjab,Jalandhar,"Civil Line, Jalandhar - PPCB",05-09-2025 07:00:00,31.321907,75.578914,CO,33,37,34
India,Punjab,Khanna,"Kalal Majra, Khanna - PPCB",05-09-2025 07:00:00,30.736056 ,76.209694,NO2,25,31,28
India,Punjab,Ludhiana,"Punjab Agricultural University, Ludhiana - PPCB",05-09-2025 07:00:00,30.9028,75.8086,SO2,4,7,5
India,Odisha,Rourkela,"Raghunathpali, Rourkela - OSPCB",05-09-2025 07:00:00,22.220833,84.809444,PM10,15,46,36
India,Odisha,Suakati,"OMC Colony, Suakati - OSPCB",05-09-2025 07:00:00,21.606865,85.510538,PM10,25,41,33
India,Odisha,Suakati,"OMC Colony, Suakati - OSPCB",05-09-2025 07:00:00,21.606865,85.510538,NO2,11,15,13
India,Odisha,Suakati,"OMC Colony, Suakati - OSPCB",05-09-2025 07:00:00,21.606865,85.510538,NH3,6,6,6
India,Odisha,Tensa,"Barsua Iron Ore Mines, Tensa - OSPCB",05-09-2025 07:00:00,21.869985,85.167016,NH3,NA,NA,NA
India,Punjab,Bathinda,"Hardev Nagar, Bathinda - PPCB",05-09-2025 07:00:00,30.233011,74.907758,PM2.5,4,10,7
India,Rajasthan,Baran,"Bamboliya, Baran - RSPCB",05-09-2025 07:00:00,25.106006,76.469948,NH3,2,3,2
India,Rajasthan,Barmer,"Railway Colony, Barmer - RSPCB",05-09-2025 07:00:00,25.747299,71.393989,NO2,NA,NA,NA
India,Rajasthan,Bhilwara,"Pratap Nagar, Bhilwara - RSPCB",05-09-2025 07:00:00,25.339605,74.618883,PM2.5,2,33,11
India,Rajasthan,Bhilwara,"Pratap Nagar, Bhilwara - RSPCB",05-09-2025 07:00:00,25.339605,74.618883,CO,8,16,11
India,Rajasthan,Bhilwara,"Pratap Nagar, Bhilwara - RSPCB",05-09-2025 07:00:00,25.339605,74.618883,OZONE,5,17,9
India,Rajasthan,Bhiwadi,"RIICO Ind. Area III, Bhiwadi - RSPCB",05-09-2025 07:00:00,28.194909,76.862296,PM2.5,42,193,98
India,Odisha,Bhubaneswar,"Patia, Bhubaneswar - OSPCB",05-09-2025 07:00:00,20.34652,85.81630,PM2.5,2,28,16
India,Odisha,Bhubaneswar,"Patia, Bhubaneswar - OSPCB",05-09-2025 07:00:00,20.34652,85.81630,SO2,2,5,4
India,Odisha,Bhubaneswar,"Patia, Bhubaneswar - OSPCB",05-09-2025 07:00:00,20.34652,85.81630,OZONE,6,18,9
India,Odisha,Bileipada,"Tata Township, Bileipada - OSPCB",05-09-2025 07:00:00,22.06156703,85.47409613,SO2,1,17,12
India,Odisha,Bileipada,"Tata Township, Bileipada - OSPCB",05-09-2025 07:00:00,22.06156703,85.47409613,CO,28,39,38
India,Odisha,Brajrajnagar,"GM Office, Brajrajnagar - OSPCB",05-09-2025 07:00:00,21.8004996,83.8396977,NO2,11,28,19
India,Rajasthan,Bhiwadi,"RIICO Ind. Area III, Bhiwadi - RSPCB",05-09-2025 07:00:00,28.194909,76.862296,NO2,1,41,11
India,Rajasthan,Bhiwadi,"Vasundhara Nagar_UIT, Bhiwadi - RSPCB",05-09-2025 07:00:00,28.207266,76.829265,PM2.5,16,86,48
India,Rajasthan,Bhiwadi,"Vasundhara Nagar_UIT, Bhiwadi - RSPCB",05-09-2025 07:00:00,28.207266,76.829265,PM10,60,176,99
India,Rajasthan,Bhiwadi,"Vasundhara Nagar_UIT, Bhiwadi - RSPCB",05-09-2025 07:00:00,28.207266,76.829265,CO,17,50,35
India,Rajasthan,Bundi,"New Colony, Bundi - RSPCB",05-09-2025 07:00:00,25.435774,75.644272,PM2.5,NA,NA,NA
India,Odisha,Rourkela,"Fertilizer Township, Rourkela - OSPCB",05-09-2025 07:00:00,22.18972222,84.86277778,NO2,11,11,11
India,Rajasthan,Pali,"Indira Colony Vistar, Pali - RSPCB",05-09-2025 07:00:00,25.771061, 73.340227,PM2.5,25,59,39
India,Rajasthan,Pali,"Indira Colony Vistar, Pali - RSPCB",05-09-2025 07:00:00,25.771061, 73.340227,NO2,17,44,30
India,Rajasthan,Pali,"Indira Colony Vistar, Pali - RSPCB",05-09-2025 07:00:00,25.771061, 73.340227,SO2,5,13,9
India,Rajasthan,Pali,"Indira Colony Vistar, Pali - RSPCB",05-09-2025 07:00:00,25.771061, 73.340227,CO,6,104,50
India,Rajasthan,Pratapgarh,"Pragati Nagar, Pratapgarh - RSPCB",05-09-2025 07:00:00,24.041198,74.780702,NO2,4,18,8
India,Rajasthan,Rajsamand,"Dhoinda, Rajsamand - RSPCB",05-09-2025 07:00:00,25.036360,73.883502,NH3,13,17,15
India,Rajasthan,Rajsamand,"Dhoinda, Rajsamand - RSPCB",05-09-2025 07:00:00,25.036360,73.883502,OZONE,9,301,40
India,Rajasthan,Sawai Madhopur,"Sahu Nagar, Sawai Madhopur - RSPCB",05-09-2025 07:00:00,26.031443,76.359327,PM10,11,152,44
India,Rajasthan,Sawai Madhopur,"Sahu Nagar, Sawai Madhopur - RSPCB",05-09-2025 07:00:00,26.031443,76.359327,CO,7,76,48
India,Rajasthan,Karauli,"Satyawati Vihar, Karauli - RSPCB",05-09-2025 07:00:00,26.506177,77.025989,NH3,1,4,3
India,Rajasthan,Karauli,"Satyawati Vihar, Karauli - RSPCB",05-09-2025 07:00:00,26.506177,77.025989,CO,2,20,7
India,Rajasthan,Kota,"Dhanmandi, Kota - RSPCB",05-09-2025 07:00:00,25.164090,75.858137,SO2,3,8,4
India,Rajasthan,Kota,"Nayapura, Kota - RSPCB",05-09-2025 07:00:00,25.196024,75.855668,SO2,5,38,26
India,Rajasthan,Kota,"Nayapura, Kota - RSPCB",05-09-2025 07:00:00,25.196024,75.855668,CO,34,51,45
India,Rajasthan,Kota,"Nayapura, Kota - RSPCB",05-09-2025 07:00:00,25.196024,75.855668,OZONE,16,39,22
India,Rajasthan,Kota,"Shrinath Puram, Kota - RSPCB",05-09-2025 07:00:00,25.14389,75.821256,CO,41,101,58
India,Rajasthan,Kota,"Shrinath Puram, Kota - RSPCB",05-09-2025 07:00:00,25.14389,75.821256,OZONE,18,27,23
India,Rajasthan,Nagaur,"Karni Colony, Nagaur - RSPCB",05-09-2025 07:00:00,27.213494,73.734444,PM10,13,77,31
India,Rajasthan,Churu,"Subash Chowk, Churu - RSPCB",05-09-2025 07:00:00,28.296139,74.961696,SO2,3,6,4
India,Rajasthan,Churu,"Subash Chowk, Churu - RSPCB",05-09-2025 07:00:00,28.296139,74.961696,CO,10,20,11
India,Rajasthan,Dausa,"Khatikan Mohalla, Dausa - RSPCB",05-09-2025 07:00:00,26.895552,76.334753,PM10,11,39,22
India,Rajasthan,Dausa,"Khatikan Mohalla, Dausa - RSPCB",05-09-2025 07:00:00,26.895552,76.334753,SO2,1,5,3
India,Rajasthan,Dausa,"Khatikan Mohalla, Dausa - RSPCB",05-09-2025 07:00:00,26.895552,76.334753,OZONE,8,36,20
India,Rajasthan,Dholpur,"Raja Ganj, Dholpur - RSPCB",05-09-2025 07:00:00,26.699557,77.898881,SO2,2,5,4
India,Rajasthan,Dholpur,"Raja Ganj, Dholpur - RSPCB",05-09-2025 07:00:00,26.699557,77.898881,OZONE,5,88,11
India,Rajasthan,Dungarpur,"Bhoiwada, Dungarpur - RSPCB",05-09-2025 07:00:00,23.837789,73.714926,PM2.5,12,32,17
India,Sikkim,Gangtok,"Zero Point GICI, Gangtok - SSPCB",05-09-2025 07:00:00,27.338530,88.614099,CO,1,4,1
India,TamilNadu,Chengalpattu,"Crescent University, Chengalpattu - TNPCB",05-09-2025 07:00:00,12.8777316,80.0834807,PM2.5,NA,NA,NA
India,TamilNadu,Chengalpattu,"Crescent University, Chengalpattu - TNPCB",05-09-2025 07:00:00,12.8777316,80.0834807,NH3,NA,NA,NA
India,TamilNadu,Chengalpattu,"Crescent University, Chengalpattu - TNPCB",05-09-2025 07:00:00,12.8777316,80.0834807,SO2,NA,NA,NA
India,TamilNadu,Chennai,"Arumbakkam, Chennai - TNPCB",05-09-2025 07:00:00,13.0664,80.2112 ,NO2,11,25,18
India,TamilNadu,Chennai,"Arumbakkam, Chennai - TNPCB",05-09-2025 07:00:00,13.0664,80.2112 ,NH3,3,4,3
India,Rajasthan,Sikar,"Radhakishan Pura, Sikar - RSPCB",05-09-2025 07:00:00,27.608912,75.153302,NO2,9,20,14
India,Rajasthan,Sikar,"Radhakishan Pura, Sikar - RSPCB",05-09-2025 07:00:00,27.608912,75.153302,SO2,2,3,3
India,Rajasthan,Sri Ganganagar,"Old City, Sri Ganganagar - RSPCB",05-09-2025 07:00:00,29.931624,73.864511,PM10,20,243,113
India,Rajasthan,Udaipur,"Ashok Nagar, Udaipur - RSPCB",05-09-2025 07:00:00,24.5886166,73.6321397,PM10,15,44,25
India,Rajasthan,Udaipur,"Ashok Nagar, Udaipur - RSPCB",05-09-2025 07:00:00,24.5886166,73.6321397,NO2,8,35,18
India,Rajasthan,Jaisalmer,"Sadar Bazar, Jaisalmer - RSPCB",05-09-2025 07:00:00,26.912329,70.909168,PM10,25,105,72
India,Rajasthan,Jhalawar,"Rajlaxmi Nagar, Jhalawar - RSPCB",05-09-2025 07:00:00,24.588397,76.172782,PM10,26,41,34
India,Rajasthan,Jhunjhunu,"Indra Nagar, Jhunjhunu - RSPCB",05-09-2025 07:00:00,28.108988,75.386577,NO2,4,19,11
India,Rajasthan,Jodhpur,"Collectorate, Jodhpur - RSPCB",05-09-2025 07:00:00,26.268249,73.0193853,PM10,25,100,62
India,Rajasthan,Jodhpur,"Collectorate, Jodhpur - RSPCB",05-09-2025 07:00:00,26.268249,73.0193853,OZONE,10,25,14
India,Rajasthan,Jodhpur,"Mandor, Jodhpur - RSPCB",05-09-2025 07:00:00,26.358805,73.047444,PM10,4,42,19
India,Rajasthan,Jodhpur,"Mandor, Jodhpur - RSPCB",05-09-2025 07:00:00,26.358805,73.047444,SO2,1,3,2
India,Rajasthan,Jaipur,"Mansarovar Sector-12, Jaipur - RSPCB",05-09-2025 07:00:00,26.843698,75.766894,PM10,9,52,26
India,Rajasthan,Jaipur,"RIICO Sitapura, Jaipur - RSPCB",05-09-2025 07:00:00,26.786682,75.827928,PM2.5,2,45,19
India,Rajasthan,Jaipur,"RIICO Sitapura, Jaipur - RSPCB",05-09-2025 07:00:00,26.786682,75.827928,NH3,1,4,2
India,Rajasthan,Hanumangarh,"Housing Board, Hanumangarh - RSPCB",05-09-2025 07:00:00,29.610750,74.283608,CO,8,26,12
India,Rajasthan,Jaipur,"Adarsh Nagar, Jaipur - RSPCB",05-09-2025 07:00:00,26.902909,75.836858,PM10,25,59,40
India,TamilNadu,Dindigul,"Mendonsa Colony, Dindigul - TNPCB",05-09-2025 07:00:00,10.358535,77.984321,PM2.5,11,46,22
India,TamilNadu,Dindigul,"Mendonsa Colony, Dindigul - TNPCB",05-09-2025 07:00:00,10.358535,77.984321,NO2,4,8,6
India,TamilNadu,Dindigul,"Mendonsa Colony, Dindigul - TNPCB",05-09-2025 07:00:00,10.358535,77.984321,SO2,19,23,21
India,TamilNadu,Gummidipoondi,"Anthoni Pillai Nagar, Gummidipoondi - TNPCB",05-09-2025 07:00:00,13.4127,80.1081,NH3,1,3,2
India,TamilNadu,Hosur,"SIPCOT Phase-1, Hosur - TNPCB",05-09-2025 07:00:00,12.746998,77.813811,PM10,19,68,36
India,TamilNadu,Hosur,"SIPCOT Phase-1, Hosur - TNPCB",05-09-2025 07:00:00,12.746998,77.813811,NH3,1,1,1
India,TamilNadu,Kanchipuram,"Kilambi, Kanchipuram - TNPCB",05-09-2025 07:00:00,12.864618,79.659968,CO,20,22,20
India,TamilNadu,Karur,"Kamadenu Nagar, Karur - TNPCB",05-09-2025 07:00:00,10.967820,78.080882,PM10,4,46,15
India,TamilNadu,Vellore,"Vasanthapuram, Vellore - TNPCB",05-09-2025 07:00:00,12.909494,79.131861,CO,7,7,7
India,TamilNadu,Virudhunagar,"Collectorate Office, Virudhunagar - TNPCB",05-09-2025 07:00:00,9.559382,77.948828,PM2.5,27,64,36
India,TamilNadu,Virudhunagar,"Collectorate Office, Virudhunagar - TNPCB",05-09-2025 07:00:00,9.559382,77.948828,CO,16,20,18
India,Telangana,Hyderabad,"Bollaram Industrial Area, Hyderabad - TSPCB",05-09-2025 07:00:00,17.540891,78.358528,OZONE,48,57,50
India,Telangana,Hyderabad,"Central University, Hyderabad - TSPCB",05-09-2025 07:00:00,17.460103,78.334361,PM2.5,3,35,20
India,Telangana,Hyderabad,"ECIL Kapra, Hyderabad - TSPCB",05-09-2025 07:00:00,17.470431,78.566959,PM2.5,49,50,49
India,TamilNadu,Thanjavur,"Parisutham Nagar, Thanjavur - TNPCB",05-09-2025 07:00:00,10.7654824,79.1389968,NO2,3,3,3
India,TamilNadu,Thanjavur,"Parisutham Nagar, Thanjavur - TNPCB",05-09-2025 07:00:00,10.7654824,79.1389968,SO2,16,16,16
India,TamilNadu,Thanjavur,"Parisutham Nagar, Thanjavur - TNPCB",05-09-2025 07:00:00,10.7654824,79.1389968,CO,8,10,8
India,TamilNadu,Tiruchirappalli,"St Joseph College, Tiruchirappalli - TNPCB",05-09-2025 07:00:00,10.830158,78.691849,NH3,1,1,1
India,TamilNadu,Tirunelveli,"Municipal Corporation Office, Tirunelveli - TNPCB",05-09-2025 07:00:00,8.728442,77.6962,SO2,15,19,18
India,TamilNadu,Tirupur,"Kumaran College, Tirupur - TNPCB",05-09-2025 07:00:00,11.0973603,77.3228673,PM10,13,58,32
India,Telangana,Hyderabad,"Ramachandrapuram, Hyderabad - TSPCB",05-09-2025 07:00:00,17.528544,78.286195,NH3,3,6,4
India,Telangana,Hyderabad,"Somajiguda, Hyderabad - TSPCB",05-09-2025 07:00:00,17.417094,78.457437,PM2.5,52,181,113
India,Telangana,Hyderabad,"Somajiguda, Hyderabad - TSPCB",05-09-2025 07:00:00,17.417094,78.457437,CO,10,49,17
India,Telangana,Hyderabad,"Somajiguda, Hyderabad - TSPCB",05-09-2025 07:00:00,17.417094,78.457437,OZONE,14,26,18
India,Telangana,Hyderabad,"Zoo Park, Hyderabad - TSPCB",05-09-2025 07:00:00,17.349694,78.451437,SO2,2,6,4
India,Tripura,Agartala,"Bardowali, Agartala - Tripura SPCB",05-09-2025 07:00:00,23.8175497,91.2726974,NH3,7,9,9
India,TamilNadu,Karur,"Kamadenu Nagar, Karur - TNPCB",05-09-2025 07:00:00,10.967820,78.080882,OZONE,7,10,8
India,TamilNadu,Madurai,"Uchapatti, Madurai - TNPCB",05-09-2025 07:00:00,9.865935,78.022669,NO2,16,16,16
India,TamilNadu,Madurai,"Uchapatti, Madurai - TNPCB",05-09-2025 07:00:00,9.865935,78.022669,CO,18,22,19
India,TamilNadu,Namakkal,"Ponnusamy Nagar, Namakkal - TNPCB",05-09-2025 07:00:00,11.273992,78.163545,NO2,7,11,8
India,TamilNadu,Ooty,"Bombay Castel, Ooty - TNPCB",05-09-2025 07:00:00,11.4068288,76.7138973,PM10,16,65,34
India,TamilNadu,Ooty,"Bombay Castel, Ooty - TNPCB",05-09-2025 07:00:00,11.4068288,76.7138973,OZONE,5,5,5
India,TamilNadu,Pudukottai,"SIPCOT Nathampannai, Pudukottai - TNPCB",05-09-2025 07:00:00,10.423417,78.784889,PM2.5,7,50,23
India,TamilNadu,Ramanathapuram,"Chalai Bazaar, Ramanathapuram - TNPCB",05-09-2025 07:00:00,9.36399,78.831977,NH3,2,2,2
India,TamilNadu,Ramanathapuram,"Chalai Bazaar, Ramanathapuram - TNPCB",05-09-2025 07:00:00,9.36399,78.831977,SO2,11,41,15
India,TamilNadu,Ramanathapuram,"Chalai Bazaar, Ramanathapuram - TNPCB",05-09-2025 07:00:00,9.36399,78.831977,CO,22,28,24
India,TamilNadu,Thanjavur,"Parisutham Nagar, Thanjavur - TNPCB",05-09-2025 07:00:00,10.7654824,79.1389968,PM2.5,8,34,21
India,TamilNadu,Chennai,"Manali Village, Chennai - TNPCB",05-09-2025 07:00:00,13.1662,80.2584,CO,18,101,55
India,TamilNadu,Chennai,"Manali, Chennai - CPCB",05-09-2025 07:00:00,13.164544,80.26285,OZONE,28,30,28
India,TamilNadu,Chennai,"Perungudi, Chennai - TNPCB",05-09-2025 07:00:00,12.9533,80.2357,PM2.5,8,134,37
India,TamilNadu,Chennai,"Perungudi, Chennai - TNPCB",05-09-2025 07:00:00,12.9533,80.2357,NO2,2,5,3
India,Telangana,Hyderabad,"ICRISAT Patancheru, Hyderabad - TSPCB",05-09-2025 07:00:00,17.518400,78.278777,OZONE,7,32,11
India,Telangana,Hyderabad,"IITH Kandi, Hyderabad - TSPCB",05-09-2025 07:00:00,17.585705,78.126199,NO2,7,14,11
India,Telangana,Hyderabad,"IITH Kandi, Hyderabad - TSPCB",05-09-2025 07:00:00,17.585705,78.126199,SO2,7,13,9
India,Telangana,Hyderabad,"New Malakpet, Hyderabad - TSPCB",05-09-2025 07:00:00,17.37206,78.50864,SO2,14,15,15
India,TamilNadu,Chennai,"Royapuram, Chennai - TNPCB",05-09-2025 07:00:00,13.1036,80.2909,NO2,8,29,18
India,TamilNadu,Chennai,"Royapuram, Chennai - TNPCB",05-09-2025 07:00:00,13.1036,80.2909,CO,16,36,20
India,TamilNadu,Cuddalore,"Semmandalam, Cuddalore - TNPCB",05-09-2025 07:00:00,11.7637683,79.7499835,PM2.5,8,60,21
India,Uttar_Pradesh,Agra,"Shastripuram, Agra - UPPCB",05-09-2025 07:00:00,27.19862,77.92066,PM2.5,2,44,24
India,Uttar_Pradesh,Agra,"Shastripuram, Agra - UPPCB",05-09-2025 07:00:00,27.19862,77.92066,PM10,26,104,56
India,Uttar_Pradesh,Agra,"Shastripuram, Agra - UPPCB",05-09-2025 07:00:00,27.19862,77.92066,OZONE,2,4,3
India,Uttar_Pradesh,Baghpat,"Sardar Patel Inter College, Baghpat - UPPCB",05-09-2025 07:00:00,28.964949,77.278761,NO2,NA,NA,NA
India,Uttar_Pradesh,Baghpat,"Sardar Patel Inter College, Baghpat - UPPCB",05-09-2025 07:00:00,28.964949,77.278761,NH3,NA,NA,NA
India,Uttar_Pradesh,Baghpat,"Sardar Patel Inter College, Baghpat - UPPCB",05-09-2025 07:00:00,28.964949,77.278761,CO,NA,NA,NA
India,Uttar_Pradesh,Baghpat,"Sardar Patel Inter College, Baghpat - UPPCB",05-09-2025 07:00:00,28.964949,77.278761,OZONE,NA,NA,NA
India,Uttar_Pradesh,Bareilly,"Rajendra Nagar, Bareilly - UPPCB",05-09-2025 07:00:00,28.38910936,79.42963708,CO,4,34,6
India,Uttar_Pradesh,Bulandshahr,"Yamunapuram, Bulandshahr - UPPCB",05-09-2025 07:00:00,28.406963,77.849831,PM10,12,43,28
India,Uttar_Pradesh,Kanpur,"NSI Kalyanpur, Kanpur - UPPCB",05-09-2025 07:00:00,26.509954,80.249612,OZONE,17,19,18
India,Uttar_Pradesh,Khurja,"Kalindi Kunj, Khurja - UPPCB",05-09-2025 07:00:00,28.2348927,77.8683002,PM10,16,93,41
India,Uttar_Pradesh,Khurja,"Kalindi Kunj, Khurja - UPPCB",05-09-2025 07:00:00,28.2348927,77.8683002,NO2,3,4,3
India,Uttar_Pradesh,Lucknow,"B R Ambedkar University, Lucknow - UPPCB",05-09-2025 07:00:00,26.766433,80.927299,PM2.5,24,44,33
India,Uttar_Pradesh,Lucknow,"B R Ambedkar University, Lucknow - UPPCB",05-09-2025 07:00:00,26.766433,80.927299,NO2,11,12,11
India,Uttar_Pradesh,Lucknow,"Gomti Nagar, Lucknow - UPPCB",05-09-2025 07:00:00,26.868120,81.005119,PM2.5,2,66,38
India,Uttar_Pradesh,Meerut,"Ganga Nagar, Meerut - UPPCB",05-09-2025 07:00:00,28.999264,77.7590354,PM2.5,NA,NA,NA
India,Uttar_Pradesh,Meerut,"Ganga Nagar, Meerut - UPPCB",05-09-2025 07:00:00,28.999264,77.7590354,NH3,NA,NA,NA
India,Uttar_Pradesh,Meerut,"Jai Bhim Nagar, Meerut - UPPCB",05-09-2025 07:00:00,28.9535882,77.7622941,PM10,11,50,28
India,Uttar_Pradesh,Meerut,"Jai Bhim Nagar, Meerut - UPPCB",05-09-2025 07:00:00,28.9535882,77.7622941,NH3,2,32,9
India,Uttar_Pradesh,Meerut,"Pallavpuram Phase 2, Meerut - UPPCB",05-09-2025 07:00:00,29.063510,77.709723,PM2.5,8,39,20
India,Uttar_Pradesh,Moradabad,"Buddhi Vihar, Moradabad - UPPCB",05-09-2025 07:00:00,28.83526,78.74460,PM2.5,NA,NA,NA
India,Uttar_Pradesh,Ghaziabad,"Vasundhara, Ghaziabad - UPPCB",05-09-2025 07:00:00,28.6603346,77.3572563,NO2,13,103,36
India,Uttar_Pradesh,Ghaziabad,"Vasundhara, Ghaziabad - UPPCB",05-09-2025 07:00:00,28.6603346,77.3572563,OZONE,1,36,19
India,Uttar_Pradesh,Greater Noida,"Knowledge Park - III, Greater Noida - UPPCB",05-09-2025 07:00:00,28.47272,77.482000,PM2.5,NA,NA,NA
India,Uttar_Pradesh,Greater Noida,"Knowledge Park - V, Greater Noida - UPPCB",05-09-2025 07:00:00,28.557054,77.453663,NO2,8,52,31
India,Uttar_Pradesh,Hapur,"Anand Vihar, Hapur - UPPCB",05-09-2025 07:00:00,28.725645,77.749675,PM10,19,59,34
India,Uttar_Pradesh,Bulandshahr,"Yamunapuram, Bulandshahr - UPPCB",05-09-2025 07:00:00,28.406963,77.849831,NH3,4,9,5
India,Uttar_Pradesh,Firozabad,"Nagla Bhau, Firozabad - UPPCB",05-09-2025 07:00:00,27.168897,78.376960,PM2.5,6,14,9
India,Uttar_Pradesh,Firozabad,"Vibhab Nagar, Firozabad - UPPCB",05-09-2025 07:00:00,27.1594,78.3953,SO2,7,15,11
India,Uttar_Pradesh,Ghaziabad,"Indirapuram, Ghaziabad - UPPCB",05-09-2025 07:00:00,28.646233,77.358075,SO2,18,35,21
India,Uttar_Pradesh,Kanpur,"FTI Kidwai Nagar, Kanpur - UPPCB",05-09-2025 07:00:00,26.428282,80.327067,PM10,36,59,44
India,Uttar_Pradesh,Kanpur,"FTI Kidwai Nagar, Kanpur - UPPCB",05-09-2025 07:00:00,26.428282,80.327067,NO2,16,17,17
India,Uttar_Pradesh,Kanpur,"FTI Kidwai Nagar, Kanpur - UPPCB",05-09-2025 07:00:00,26.428282,80.327067,CO,22,26,23
India,Uttar_Pradesh,Kanpur,"NSI Kalyanpur, Kanpur - UPPCB",05-09-2025 07:00:00,26.509954,80.249612,PM10,10,50,30
India,Uttar_Pradesh,Lucknow,"Kendriya Vidyalaya, Lucknow - CPCB",05-09-2025 07:00:00,26.906111,80.948222,SO2,3,22,12
India,Uttar_Pradesh,Lucknow,"Lalbagh, Lucknow - CPCB",05-09-2025 07:00:00,26.8458805,80.9365541,PM10,1,69,45
India,Uttar_Pradesh,Lucknow,"Lalbagh, Lucknow - CPCB",05-09-2025 07:00:00,26.8458805,80.9365541,OZONE,18,76,20
India,Uttar_Pradesh,Agra,"Sanjay Palace, Agra - UPPCB",05-09-2025 07:00:00,27.19865833,78.00598056,OZONE,9,21,15
India,Uttar_Pradesh,Agra,"Shahjahan Garden, Agra - UPPCB",05-09-2025 07:00:00,27.169338,78.03582,SO2,19,24,21
India,Uttar_Pradesh,Lucknow,"Talkatora District Industries Center, Lucknow - CPCB",05-09-2025 07:00:00,26.83399722,80.8917361,PM10,35,73,53
India,West_Bengal,Durgapur,"Womens College_City Center, Durgapur - WBPCB (Formerly known as Sidhu Kanhu Indoor Stadium)",05-09-2025 07:00:00,23.549395,87.300496,OZONE,8,30,11
India,West_Bengal,Haldia,"Priyambada Housing Estate, Haldia - WBPCB",05-09-2025 07:00:00,22.06047,88.109737,NO2,5,11,8
India,West_Bengal,Haldia,"Priyambada Housing Estate, Haldia - WBPCB",05-09-2025 07:00:00,22.06047,88.109737,SO2,10,15,13
India,West_Bengal,Haldia,"Priyambada Housing Estate, Haldia - WBPCB",05-09-2025 07:00:00,22.06047,88.109737,OZONE,19,25,21
India,West_Bengal,Howrah,"Belur Math, Howrah - WBPCB",05-09-2025 07:00:00,22.629801,88.352017,NO2,21,27,24
India,West_Bengal,Howrah,"Belur Math, Howrah - WBPCB",05-09-2025 07:00:00,22.629801,88.352017,NH3,9,10,10
India,West_Bengal,Howrah,"Botanical Garden, Howrah - WBPCB",05-09-2025 07:00:00,22.554954,88.292568,PM2.5,14,38,23
India,West_Bengal,Howrah,"Dasnagar, Howrah - WBPCB",05-09-2025 07:00:00,22.6025571,88.3105664,NO2,7,30,13
India,Uttar_Pradesh,Moradabad,"Jigar Colony, Moradabad - UPPCB",05-09-2025 07:00:00,28.856664,78.772638,PM2.5,14,76,33
India,Uttar_Pradesh,Moradabad,"Jigar Colony, Moradabad - UPPCB",05-09-2025 07:00:00,28.856664,78.772638,NO2,24,25,25
India,Uttar_Pradesh,Moradabad,"Jigar Colony, Moradabad - UPPCB",05-09-2025 07:00:00,28.856664,78.772638,CO,39,40,40
India,Uttar_Pradesh,Moradabad,"Kashiram Nagar, Moradabad - UPPCB",05-09-2025 07:00:00,28.849399,78.742362,PM2.5,2,98,41
India,Uttar_Pradesh,Moradabad,"Kashiram Nagar, Moradabad - UPPCB",05-09-2025 07:00:00,28.849399,78.742362,NO2,25,25,25
India,Uttar_Pradesh,Moradabad,"Kashiram Nagar, Moradabad - UPPCB",05-09-2025 07:00:00,28.849399,78.742362,NH3,4,4,4
India,Uttar_Pradesh,Moradabad,"Kashiram Nagar, Moradabad - UPPCB",05-09-2025 07:00:00,28.849399,78.742362,CO,12,30,16
India,Uttar_Pradesh,Moradabad,"Kashiram Nagar, Moradabad - UPPCB",05-09-2025 07:00:00,28.849399,78.742362,OZONE,19,60,28
India,Uttar_Pradesh,Moradabad,"Transport Nagar, Moradabad - UPPCB",05-09-2025 07:00:00,28.802625,78.753728,OZONE,29,42,32
India,West_Bengal,Kolkata,"Jadavpur, Kolkata - WBPCB",05-09-2025 07:00:00,22.49929,88.36917,NO2,59,221,145
India,West_Bengal,Kolkata,"Rabindra Bharati University, Kolkata - WBPCB",05-09-2025 07:00:00,22.627847,88.380669,NH3,9,11,10
India,West_Bengal,Kolkata,"Rabindra Bharati University, Kolkata - WBPCB",05-09-2025 07:00:00,22.627847,88.380669,SO2,7,11,8
India,West_Bengal,Kolkata,"Rabindra Sarobar, Kolkata - WBPCB",05-09-2025 07:00:00,22.51106,88.35142,PM10,23,31,24
India,West_Bengal,Siliguri,"Ward-32 Bapupara, Siliguri - WBPCB",05-09-2025 07:00:00,26.6879226,88.4152495,PM10,35,63,48
India,West_Bengal,Siliguri,"Ward-32 Bapupara, Siliguri - WBPCB",05-09-2025 07:00:00,26.6879226,88.4152495,NO2,22,45,33
India,Uttar_Pradesh,Vrindavan,"Omex Eternity, Vrindavan - UPPCB",05-09-2025 07:00:00,27.5714090,77.6557570,PM10,21,80,49
India,Uttar_Pradesh,Vrindavan,"Omex Eternity, Vrindavan - UPPCB",05-09-2025 07:00:00,27.5714090,77.6557570,NO2,12,12,12
India,Uttar_Pradesh,Vrindavan,"Omex Eternity, Vrindavan - UPPCB",05-09-2025 07:00:00,27.5714090,77.6557570,NH3,1,2,2
India,Uttarakhand,Kashipur,"Govt. Girls Inter College, Kashipur - UKPCB",05-09-2025 07:00:00,29.2124114,78.9611753,SO2,1,7,5
India,Uttarakhand,Kashipur,"Govt. Girls Inter College, Kashipur - UKPCB",05-09-2025 07:00:00,29.2124114,78.9611753,OZONE,1,9,3
India,West_Bengal,Asansol,"Evelyn Lodge, Asansol - WBPCB",05-09-2025 07:00:00,23.6979360,86.9443950,PM10,18,54,32
India,Uttar_Pradesh,Prayagraj,"Nagar Nigam, Prayagraj - UPPCB",05-09-2025 07:00:00,25.44919916 ,81.82735986 ,OZONE,13,25,18
India,Uttar_Pradesh,Varanasi,"Bhelupur, Varanasi - UPPCB",05-09-2025 07:00:00,25.301778,82.996789,PM10,14,42,29
India,Uttar_Pradesh,Varanasi,"IESD Banaras Hindu University, Varanasi - UPPCB",05-09-2025 07:00:00,25.262326,82.995408,NO2,2,2,2
India,Uttar_Pradesh,Varanasi,"IESD Banaras Hindu University, Varanasi - UPPCB",05-09-2025 07:00:00,25.262326,82.995408,NH3,1,1,1
India,Uttar_Pradesh,Varanasi,"Maldahiya, Varanasi - UPPCB",05-09-2025 07:00:00,25.32393,82.99687,NO2,2,2,2
India,West_Bengal,Asansol,"Mahabir Colliery, Asansol - WBPCB",05-09-2025 07:00:00,23.6181830,87.1057180,PM2.5,11,61,33
India,West_Bengal,Asansol,"Mahabir Colliery, Asansol - WBPCB",05-09-2025 07:00:00,23.6181830,87.1057180,PM10,13,78,39
India,West_Bengal,Asansol,"Trivenidevi Bhalotia College, Asansol - WBPCB",05-09-2025 07:00:00,23.616515,87.119133,NO2,8,26,14
India,West_Bengal,Barrackpore,"SVSPA Campus, Barrackpore - WBPCB",05-09-2025 07:00:00,22.7605581,88.3617589,PM2.5,9,44,25
India,Uttar_Pradesh,Muzaffarnagar,"New Mandi, Muzaffarnagar - UPPCB",05-09-2025 07:00:00,29.4723508,77.7194031,SO2,11,38,21
India,Uttar_Pradesh,Noida,"Sector - 125, Noida - UPPCB",05-09-2025 07:00:00,28.5447608,77.3231257,NH3,8,13,11
India,Uttar_Pradesh,Noida,"Sector - 125, Noida - UPPCB",05-09-2025 07:00:00,28.5447608,77.3231257,OZONE,29,100,34
India,Uttar_Pradesh,Noida,"Sector-1, Noida - UPPCB",05-09-2025 07:00:00,28.5898,77.3101,PM10,25,109,58
India,Uttar_Pradesh,Noida,"Sector-116, Noida - UPPCB",05-09-2025 07:00:00,28.569230,77.393848,NH3,NA,NA,NA
India,Uttar_Pradesh,Prayagraj,"Jhunsi, Prayagraj - UPPCB",05-09-2025 07:00:00,25.425602,81.917152,PM2.5,4,34,17
India,Uttar_Pradesh,Prayagraj,"Motilal Nehru NIT, Prayagraj - UPPCB",05-09-2025 07:00:00,25.494,81.863,PM10,10,24,17
India,Uttar_Pradesh,Prayagraj,"Motilal Nehru NIT, Prayagraj - UPPCB",05-09-2025 07:00:00,25.494,81.863,NH3,8,8,8
India,West_Bengal,Howrah,"Dasnagar, Howrah - WBPCB",05-09-2025 07:00:00,22.6025571,88.3105664,OZONE,3,31,12
India,West_Bengal,Kolkata,"Ballygunge, Kolkata - WBPCB",05-09-2025 07:00:00,22.5367507,88.3638022,SO2,3,6,4
India,Andhra_Pradesh,Kadapa,"Yerramukkapalli, Kadapa - APPCB",05-09-2025 07:00:00,14.465052,78.824187,PM10,56,86,75
India,Andhra_Pradesh,Kadapa,"Yerramukkapalli, Kadapa - APPCB",05-09-2025 07:00:00,14.465052,78.824187,NH3,4,5,5
India,Andhra_Pradesh,Kadapa,"Yerramukkapalli, Kadapa - APPCB",05-09-2025 07:00:00,14.465052,78.824187,SO2,20,22,21
India,Andhra_Pradesh,Kadapa,"Yerramukkapalli, Kadapa - APPCB",05-09-2025 07:00:00,14.465052,78.824187,CO,24,64,31
India,Andhra_Pradesh,Rajamahendravaram,"Anand Kala Kshetram, Rajamahendravaram - APPCB",05-09-2025 07:00:00,16.9872867,81.7363176,NH3,1,5,2
India,Andhra_Pradesh,Rajamahendravaram,"Anand Kala Kshetram, Rajamahendravaram - APPCB",05-09-2025 07:00:00,16.9872867,81.7363176,CO,2,24,10
India,Andhra_Pradesh,Tirumala,"Toll Gate, Tirumala - APPCB",05-09-2025 07:00:00,13.67,79.35,NO2,8,18,13
India,Andhra_Pradesh,Tirumala,"Toll Gate, Tirumala - APPCB",05-09-2025 07:00:00,13.67,79.35,NH3,1,2,1
India,Andhra_Pradesh,Vijayawada,"HB Colony, Vijayawada - APPCB",05-09-2025 07:00:00,16.536107,80.594233,NH3,5,5,5
India,Andhra_Pradesh,Vijayawada,"HB Colony, Vijayawada - APPCB",05-09-2025 07:00:00,16.536107,80.594233,SO2,21,21,21
India,Andhra_Pradesh,Vijayawada,"HB Colony, Vijayawada - APPCB",05-09-2025 07:00:00,16.536107,80.594233,CO,46,47,46
India,Andhra_Pradesh,Vijayawada,"Rajiv Gandhi Park, Vijayawada - APPCB",05-09-2025 07:00:00,16.509717,80.612222,SO2,25,29,28
India,Andhra_Pradesh,Vijayawada,"Rajiv Gandhi Park, Vijayawada - APPCB",05-09-2025 07:00:00,16.509717,80.612222,OZONE,54,69,57
India,Andhra_Pradesh,Vijayawada,"Rajiv Nagar, Vijayawada - APPCB",05-09-2025 07:00:00,16.554731,80.649110,PM10,40,55,47
India,Andhra_Pradesh,Visakhapatnam,"GVM Corporation, Visakhapatnam - APPCB",05-09-2025 07:00:00,17.72,83.3,PM10,112,200,149
India,Bihar,Araria,"Kharahiya Basti, Araria - BSPCB",05-09-2025 07:00:00,26.146529,87.454184,SO2,2,29,17
India,Bihar,Araria,"Kharahiya Basti, Araria - BSPCB",05-09-2025 07:00:00,26.146529,87.454184,OZONE,9,11,10
India,Bihar,Arrah,"New DM Office, Arrah - BSPCB",05-09-2025 07:00:00,25.5626095,84.663264,NO2,4,9,7
India,Bihar,Begusarai,"Lohiyanagar, Begusarai - BSPCB",05-09-2025 07:00:00,25.42742023,86.13886079,NO2,11,25,15
India,Bihar,Begusarai,"Lohiyanagar, Begusarai - BSPCB",05-09-2025 07:00:00,25.42742023,86.13886079,SO2,9,20,13
India,Bihar,Begusarai,"Lohiyanagar, Begusarai - BSPCB",05-09-2025 07:00:00,25.42742023,86.13886079,OZONE,24,60,42
India,Bihar,Bettiah,"Kamalnath Nagar, Bettiah - BSPCB",05-09-2025 07:00:00,26.80365,84.51954,CO,41,80,48
India,Bihar,Chhapra,"Darshan Nagar, Chhapra - BSPCB",05-09-2025 07:00:00,25.7808257,84.7446768,NH3,2,4,3
India,Bihar,Chhapra,"Darshan Nagar, Chhapra - BSPCB",05-09-2025 07:00:00,25.7808257,84.7446768,OZONE,1,22,4
India,Bihar,Gaya,"Kareemganj, Gaya - BSPCB",05-09-2025 07:00:00,24.792403,84.992416,NH3,4,6,5
India,Bihar,Gaya,"Kareemganj, Gaya - BSPCB",05-09-2025 07:00:00,24.792403,84.992416,CO,30,49,35
India,Bihar,Gaya,"Kareemganj, Gaya - BSPCB",05-09-2025 07:00:00,24.792403,84.992416,OZONE,3,64,27
India,Bihar,Gaya,"SFTI Kusdihra, Gaya - BSPCB",05-09-2025 07:00:00,24.762518,84.982348,PM2.5,3,185,30
India,Bihar,Katihar,"Mirchaibari, Katihar - BSPCB",05-09-2025 07:00:00,25.560083,87.553265,PM10,31,36,33
India,Assam,Byrnihat,"Central Academy for SFS, Byrnihat - PCBA",05-09-2025 07:00:00,26.071318,91.87488,NO2,6,10,7
India,Assam,Byrnihat,"Central Academy for SFS, Byrnihat - PCBA",05-09-2025 07:00:00,26.071318,91.87488,CO,42,71,50
India,Assam,Guwahati,"IITG, Guwahati - PCBA",05-09-2025 07:00:00,26.2028636,91.70046436,NO2,1,4,2
India,Assam,Guwahati,"IITG, Guwahati - PCBA",05-09-2025 07:00:00,26.2028636,91.70046436,CO,2,12,6
India,Assam,Guwahati,"LGBI Airport, Guwahati - PCBA",05-09-2025 07:00:00,26.10887,91.589544,NH3,4,20,10
India,Assam,Guwahati,"LGBI Airport, Guwahati - PCBA",05-09-2025 07:00:00,26.10887,91.589544,CO,13,70,34
India,Assam,Guwahati,"Railway Colony, Guwahati - PCBA",05-09-2025 07:00:00,26.181742,91.78063,NO2,3,3,3
India,Assam,Nagaon,"Christianpatty, Nagaon - PCBA",05-09-2025 07:00:00,26.349082,92.68449,CO,3,46,31
India,Assam,Nalbari,"Bata Chowk, Nalbari - PCBA",05-09-2025 07:00:00,26.446912,91.439057,PM10,40,42,41
India,Assam,Nalbari,"Bata Chowk, Nalbari - PCBA",05-09-2025 07:00:00,26.446912,91.439057,NO2,3,10,5
India,Assam,Silchar,"Tarapur, Silchar - PCBA",05-09-2025 07:00:00,24.82827,92.79525,OZONE,1,15,2
India,Assam,Sivasagar,"Girls College, Sivasagar - PCBA",05-09-2025 07:00:00,26.987634,94.636574,PM2.5,26,60,36
India,Assam,Sivasagar,"Girls College, Sivasagar - PCBA",05-09-2025 07:00:00,26.987634,94.636574,OZONE,2,7,3
India,Bihar,Bhagalpur,"Mayaganj, Bhagalpur - BSPCB",05-09-2025 07:00:00,25.265194,87.012947,SO2,4,83,55
India,Bihar,Bihar Sharif,"D M Colony, Bihar Sharif - BSPCB",05-09-2025 07:00:00,25.204762,85.514960,SO2,9,10,9
India,Bihar,Bihar Sharif,"D M Colony, Bihar Sharif - BSPCB",05-09-2025 07:00:00,25.204762,85.514960,CO,NA,NA,NA
India,Bihar,Chhapra,"Darshan Nagar, Chhapra - BSPCB",05-09-2025 07:00:00,25.7808257,84.7446768,PM2.5,17,500,112
India,Bihar,Chhapra,"Darshan Nagar, Chhapra - BSPCB",05-09-2025 07:00:00,25.7808257,84.7446768,PM10,17,148,79
India,Bihar,Chhapra,"Darshan Nagar, Chhapra - BSPCB",05-09-2025 07:00:00,25.7808257,84.7446768,NO2,114,114,114
India,Andaman and Nicobar,Sri Vijaya Puram,"Police Line, Sri Vijaya Puram - ANPCC",05-09-2025 07:00:00,11.654054,92.734055,NO2,NA,NA,NA
India,Andhra_Pradesh,Amaravati,"Secretariat, Amaravati - APPCB",05-09-2025 07:00:00,16.5150833,80.5181667,SO2,11,15,13
India,Andhra_Pradesh,Anantapur,"Gulzarpet, Anantapur - APPCB",05-09-2025 07:00:00,14.675886,77.593027,PM2.5,48,58,52
India,Andhra_Pradesh,Anantapur,"Gulzarpet, Anantapur - APPCB",05-09-2025 07:00:00,14.675886,77.593027,SO2,12,15,13
India,Bihar,Katihar,"Mirchaibari, Katihar - BSPCB",05-09-2025 07:00:00,25.560083,87.553265,CO,56,94,79
India,Bihar,Manguraha,"Forest Rest House, Manguraha - BSPCB",05-09-2025 07:00:00,27.308328,84.531742,OZONE,12,33,14
India,Bihar,Motihari,"Gandak Colony, Motihari - BSPCB",05-09-2025 07:00:00,26.63086,84.90051,PM2.5,5,93,53
India,Bihar,Motihari,"Gandak Colony, Motihari - BSPCB",05-09-2025 07:00:00,26.63086,84.90051,SO2,1,4,2
India,Andhra_Pradesh,Tirupati,"Vaikuntapuram, Tirupati - APPCB",05-09-2025 07:00:00,13.615387,79.409230,PM2.5,NA,NA,NA
India,Andhra_Pradesh,Tirupati,"Vaikuntapuram, Tirupati - APPCB",05-09-2025 07:00:00,13.615387,79.409230,PM10,NA,NA,NA
India,Bihar,Patna,"IGSC Planetarium Complex, Patna - BSPCB",05-09-2025 07:00:00,25.610369,85.132568,SO2,25,33,30
India,Bihar,Patna,"IGSC Planetarium Complex, Patna - BSPCB",05-09-2025 07:00:00,25.610369,85.132568,CO,91,103,102
India,Bihar,Patna,"IGSC Planetarium Complex, Patna - BSPCB",05-09-2025 07:00:00,25.610369,85.132568,OZONE,41,48,46
India,Bihar,Patna,"Muradpur, Patna - BSPCB",05-09-2025 07:00:00,25.619651,85.147382,NO2,8,11,9
India,Bihar,Patna,"Rajbansi Nagar, Patna - BSPCB",05-09-2025 07:00:00,25.599486,85.113666,NO2,21,26,23
India,Bihar,Patna,"Samanpura, Patna - BSPCB",05-09-2025 07:00:00,25.596727,85.085624,PM10,35,77,64
India,Bihar,Purnia,"Mariam Nagar, Purnia - BSPCB",05-09-2025 07:00:00,25.366336,87.117468,NO2,5,6,6
India,Bihar,Purnia,"Mariam Nagar, Purnia - BSPCB",05-09-2025 07:00:00,25.366336,87.117468,NH3,3,3,3
India,Bihar,Purnia,"Mariam Nagar, Purnia - BSPCB",05-09-2025 07:00:00,25.366336,87.117468,CO,3,38,15
India,Bihar,Rajgir,"Dangi Tola, Rajgir - BSPCB",05-09-2025 07:00:00,25.03280,85.41948,PM2.5,NA,NA,NA
India,Bihar,Saharsa,"Police Line, Saharsa - BSPCB",05-09-2025 07:00:00,25.892357,86.590325,PM10,11,148,79
India,Bihar,Saharsa,"Police Line, Saharsa - BSPCB",05-09-2025 07:00:00,25.892357,86.590325,NH3,4,4,4
India,Bihar,Saharsa,"Police Line, Saharsa - BSPCB",05-09-2025 07:00:00,25.892357,86.590325,SO2,14,17,16
India,Bihar,Sasaram,"Dada Peer, Sasaram - BSPCB",05-09-2025 07:00:00,24.952822,84.002396,CO,36,82,57
India,Bihar,Siwan,"Chitragupta Nagar, Siwan - BSPCB",05-09-2025 07:00:00,26.2271665,84.3570427,PM2.5,13,48,25
India,Bihar,Siwan,"Chitragupta Nagar, Siwan - BSPCB",05-09-2025 07:00:00,26.2271665,84.3570427,SO2,1,5,3
India,Delhi,Delhi,"Alipur, Delhi - DPCC",05-09-2025 07:00:00,28.815329,77.153010,PM10,NA,NA,NA
India,Delhi,Delhi,"Alipur, Delhi - DPCC",05-09-2025 07:00:00,28.815329,77.153010,NO2,6,16,13
India,Delhi,Delhi,"Anand Vihar, Delhi - DPCC",05-09-2025 07:00:00,28.647622,77.3158090,NO2,14,39,26
India,Delhi,Delhi,"Ashok Vihar, Delhi - DPCC",05-09-2025 07:00:00,28.695381,77.181665,NO2,14,35,25
India,Delhi,Delhi,"Ashok Vihar, Delhi - DPCC",05-09-2025 07:00:00,28.695381,77.181665,CO,12,32,19
India,Delhi,Delhi,"Aya Nagar, Delhi - IMD",05-09-2025 07:00:00,28.4706914,77.1099364,PM10,9,79,43
India,Delhi,Delhi,"Bawana, Delhi - DPCC",05-09-2025 07:00:00,28.776200,77.051074,PM10,40,111,73
India,Delhi,Delhi,"Bawana, Delhi - DPCC",05-09-2025 07:00:00,28.776200,77.051074,NO2,6,27,13
India,Delhi,Delhi,"Burari Crossing, Delhi - IMD",05-09-2025 07:00:00,28.7256504,77.2011573,NO2,19,42,29
India,Delhi,Delhi,"Burari Crossing, Delhi - IMD",05-09-2025 07:00:00,28.7256504,77.2011573,OZONE,17,85,18
India,Delhi,Delhi,"DTU, Delhi - CPCB",05-09-2025 07:00:00,28.7500499,77.1112615,OZONE,21,30,21
India,Delhi,Delhi,"Dr. Karni Singh Shooting Range, Delhi - DPCC",05-09-2025 07:00:00,28.498571,77.264840,PM2.5,10,103,45
India,Delhi,Delhi,"Dr. Karni Singh Shooting Range, Delhi - DPCC",05-09-2025 07:00:00,28.498571,77.264840,CO,5,106,33
India,Delhi,Delhi,"Dwarka-Sector 8, Delhi - DPCC ",05-09-2025 07:00:00,28.5710274,77.0719006,NO2,18,66,37
India,Delhi,Delhi,"Dwarka-Sector 8, Delhi - DPCC ",05-09-2025 07:00:00,28.5710274,77.0719006,SO2,1,12,8
India,Bihar,Muzaffarpur,"MIT-Daudpur Kothi, Muzaffarpur - BSPCB",05-09-2025 07:00:00,26.1403345,85.3650192,PM2.5,32,70,44
India,Bihar,Muzaffarpur,"MIT-Daudpur Kothi, Muzaffarpur - BSPCB",05-09-2025 07:00:00,26.1403345,85.3650192,CO,42,72,45
India,Bihar,Patna,"DRM Office Danapur, Patna - BSPCB",05-09-2025 07:00:00,25.586562,85.043586,PM10,NA,NA,NA
India,Bihar,Patna,"DRM Office Danapur, Patna - BSPCB",05-09-2025 07:00:00,25.586562,85.043586,CO,NA,NA,NA
India,Bihar,Patna,"Govt. High School Shikarpur, Patna - BSPCB",05-09-2025 07:00:00,25.592539,85.227158,NH3,3,4,4
India,Bihar,Patna,"Govt. High School Shikarpur, Patna - BSPCB",05-09-2025 07:00:00,25.592539,85.227158,OZONE,9,13,11
India,Chhattisgarh,Raipur,"AIIMS, Raipur - CECB",05-09-2025 07:00:00,21.258815,81.578979,CO,18,28,20
India,Chhattisgarh,Raipur,"AIIMS, Raipur - CECB",05-09-2025 07:00:00,21.258815,81.578979,OZONE,6,7,6
India,Chhattisgarh,Raipur,"Krishak Nagar, Raipur - CECB",05-09-2025 07:00:00,21.237755,81.705301,SO2,6,8,7
India,Chhattisgarh,Raipur,"Siltara Phase-II, Raipur - CECB",05-09-2025 07:00:00,21.371751,81.664929,SO2,6,7,7
India,Chhattisgarh,Tumidih,"OP Jindal Industrial Park, Tumidih - CECB",05-09-2025 07:00:00,22.06631475,83.33820077,NO2,15,50,31
India,Chhattisgarh,Bhilai,"Civic Center, Bhilai - Bhilai Steel Plant",05-09-2025 07:00:00,21.185571,81.343175,PM10,19,37,26
India,Chhattisgarh,Bhilai,"Hathkhoj, Bhilai - CECB",05-09-2025 07:00:00,21.224231,81.408350,NO2,8,43,17
India,Chhattisgarh,Bilaspur,"Mangala, Bilaspur - NTPC",05-09-2025 07:00:00,22.08815,82.13737,SO2,2,14,10
India,Chhattisgarh,Chhal,"Nawapara SECL Colony, Chhal - CECB",05-09-2025 07:00:00,22.118125,83.140608,OZONE,16,29,23
India,Bihar,Siwan,"Chitragupta Nagar, Siwan - BSPCB",05-09-2025 07:00:00,26.2271665,84.3570427,OZONE,2,8,3
India,Chandigarh,Chandigarh,"Sector-25, Chandigarh - CPCC",05-09-2025 07:00:00,30.751462,76.762879,NO2,3,10,6
India,Chandigarh,Chandigarh,"Sector-25, Chandigarh - CPCC",05-09-2025 07:00:00,30.751462,76.762879,CO,14,42,30
India,Chhattisgarh,Bhilai,"32Bungalows, Bhilai - CECB",05-09-2025 07:00:00,21.194815,81.314770,CO,1,8,7
India,Chhattisgarh,Milupara,"Govt. Higher Secondary School, Milupara - CECB",05-09-2025 07:00:00,22.1910172,83.5197009,PM10,NA,NA,NA
India,Chhattisgarh,Milupara,"Govt. Higher Secondary School, Milupara - CECB",05-09-2025 07:00:00,22.1910172,83.5197009,NH3,NA,NA,NA
India,Chhattisgarh,Milupara,"Govt. Higher Secondary School, Milupara - CECB",05-09-2025 07:00:00,22.1910172,83.5197009,SO2,NA,NA,NA
India,Chhattisgarh,Raipur,"AIIMS, Raipur - CECB",05-09-2025 07:00:00,21.258815,81.578979,NO2,7,9,8
India,Delhi,Delhi,"NSIT Dwarka, Delhi - CPCB",05-09-2025 07:00:00,28.60909,77.0325413,NO2,5,57,30
India,Delhi,Delhi,"NSIT Dwarka, Delhi - CPCB",05-09-2025 07:00:00,28.60909,77.0325413,NH3,5,8,6
India,Delhi,Delhi,"NSIT Dwarka, Delhi - CPCB",05-09-2025 07:00:00,28.60909,77.0325413,CO,5,30,14
India,Delhi,Delhi,"Najafgarh, Delhi - DPCC",05-09-2025 07:00:00,28.570173,76.933762,PM2.5,13,58,33
India,Delhi,Delhi,"Najafgarh, Delhi - DPCC",05-09-2025 07:00:00,28.570173,76.933762,PM10,31,82,49
India,Delhi,Delhi,"Najafgarh, Delhi - DPCC",05-09-2025 07:00:00,28.570173,76.933762,SO2,57,63,60
India,Delhi,Delhi,"Najafgarh, Delhi - DPCC",05-09-2025 07:00:00,28.570173,76.933762,OZONE,4,36,7
India,Delhi,Delhi,"Narela, Delhi - DPCC",05-09-2025 07:00:00,28.822836,77.101981,PM10,43,126,79
India,Delhi,Delhi,"Narela, Delhi - DPCC",05-09-2025 07:00:00,28.822836,77.101981,CO,30,59,39
India,Delhi,Delhi,"Nehru Nagar, Delhi - DPCC",05-09-2025 07:00:00,28.567890,77.250515,NO2,12,35,24
India,Delhi,Delhi,"Nehru Nagar, Delhi - DPCC",05-09-2025 07:00:00,28.567890,77.250515,SO2,5,17,10
India,Delhi,Delhi,"Nehru Nagar, Delhi - DPCC",05-09-2025 07:00:00,28.567890,77.250515,OZONE,3,87,10
India,Delhi,Delhi,"North Campus, DU, Delhi - IMD",05-09-2025 07:00:00,28.6573814,77.1585447,PM2.5,2,114,38
India,Delhi,Delhi,"Sirifort, Delhi - CPCB",05-09-2025 07:00:00,28.5504249,77.2159377,PM2.5,30,51,41
India,Delhi,Delhi,"Sirifort, Delhi - CPCB",05-09-2025 07:00:00,28.5504249,77.2159377,OZONE,24,38,32
India,Delhi,Delhi,"Sonia Vihar, Delhi - DPCC",05-09-2025 07:00:00,28.710508,77.249485,NH3,6,8,7
India,Delhi,Delhi,"Sonia Vihar, Delhi - DPCC",05-09-2025 07:00:00,28.710508,77.249485,SO2,9,15,11
India,Delhi,Delhi,"Sonia Vihar, Delhi - DPCC",05-09-2025 07:00:00,28.710508,77.249485,CO,45,78,50
India,Delhi,Delhi,"Sri Aurobindo Marg, Delhi - DPCC",05-09-2025 07:00:00,28.531346,77.190156,NO2,7,38,22
India,Delhi,Delhi,"Vivek Vihar, Delhi - DPCC",05-09-2025 07:00:00,28.672342,77.315260,OZONE,6,58,10
India,Delhi,Delhi,"Wazirpur, Delhi - DPCC",05-09-2025 07:00:00,28.699793,77.165453,PM2.5,10,123,68
India,Delhi,Delhi,"Wazirpur, Delhi - DPCC",05-09-2025 07:00:00,28.699793,77.165453,PM10,50,151,89
India,Delhi,Delhi,"North Campus, DU, Delhi - IMD",05-09-2025 07:00:00,28.6573814,77.1585447,CO,1,18,10
India,Delhi,Delhi,"Okhla Phase-2, Delhi - DPCC",05-09-2025 07:00:00,28.530785,77.271255,PM2.5,5,85,44
India,Delhi,Delhi,"Okhla Phase-2, Delhi - DPCC",05-09-2025 07:00:00,28.530785,77.271255,NH3,5,6,5
India,Delhi,Delhi,"Patparganj, Delhi - DPCC",05-09-2025 07:00:00,28.623763,77.287209,PM2.5,13,92,45
India,Delhi,Delhi,"Patparganj, Delhi - DPCC",05-09-2025 07:00:00,28.623763,77.287209,CO,24,78,39
India,Delhi,Delhi,"Patparganj, Delhi - DPCC",05-09-2025 07:00:00,28.623763,77.287209,OZONE,11,54,14
India,Delhi,Delhi,"Pusa, Delhi - DPCC",05-09-2025 07:00:00,28.639652,77.146275,PM10,NA,NA,NA
India,Delhi,Delhi,"Pusa, Delhi - DPCC",05-09-2025 07:00:00,28.639652,77.146275,NO2,NA,NA,NA
India,Delhi,Delhi,"Pusa, Delhi - DPCC",05-09-2025 07:00:00,28.639652,77.146275,NH3,NA,NA,NA
India,Gujarat,Ankleshwar,"GIDC, Ankleshwar - GPCB",05-09-2025 07:00:00,21.613267,73.010555,PM10,56,68,61
India,Gujarat,Ankleshwar,"GIDC, Ankleshwar - GPCB",05-09-2025 07:00:00,21.613267,73.010555,NH3,4,5,5
India,Gujarat,Gandhinagar,"GIFT City, Gandhinagar - IITM",05-09-2025 07:00:00,23.163798,72.677768,NO2,8,31,16
India,Gujarat,Gandhinagar,"GIFT City, Gandhinagar - IITM",05-09-2025 07:00:00,23.163798,72.677768,NH3,2,7,3
India,Gujarat,Gandhinagar,"GIFT City, Gandhinagar - IITM",05-09-2025 07:00:00,23.163798,72.677768,SO2,2,16,5
India,Gujarat,Gandhinagar,"IIPHG Lekawada, Gandhinagar - IITM",05-09-2025 07:00:00,23.243639,72.68994,PM10,33,84,58
India,Gujarat,Gandhinagar,"IIPHG Lekawada, Gandhinagar - IITM",05-09-2025 07:00:00,23.243639,72.68994,CO,38,90,46
India,Gujarat,Gandhinagar,"IIPHG Lekawada, Gandhinagar - IITM",05-09-2025 07:00:00,23.243639,72.68994,OZONE,1,11,8
India,Delhi,Delhi,"Lodhi Road, Delhi - IITM",05-09-2025 07:00:00,28.588333,77.221667,PM10,22,67,46
India,Delhi,Delhi,"Major Dhyan Chand National Stadium, Delhi - DPCC",05-09-2025 07:00:00,28.611281,77.237738,PM10,27,102,56
India,Delhi,Delhi,"Major Dhyan Chand National Stadium, Delhi - DPCC",05-09-2025 07:00:00,28.611281,77.237738,OZONE,2,59,9
India,Delhi,Delhi,"Mandir Marg, Delhi - DPCC",05-09-2025 07:00:00,28.636429,77.201067,PM10,2,100,64
India,Delhi,Delhi,"Mundka, Delhi - DPCC",05-09-2025 07:00:00,28.684678,77.076574,PM2.5,12,68,38
India,Delhi,Delhi,"Mundka, Delhi - DPCC",05-09-2025 07:00:00,28.684678,77.076574,NH3,5,6,6
India,Delhi,Delhi,"Mundka, Delhi - DPCC",05-09-2025 07:00:00,28.684678,77.076574,CO,18,36,32
India,Gujarat,Ahmedabad,"Rakhial, Ahmedabad - IITM",05-09-2025 07:00:00,23.016834,72.625775,PM10,33,126,75
India,Gujarat,Ahmedabad,"Rakhial, Ahmedabad - IITM",05-09-2025 07:00:00,23.016834,72.625775,OZONE,2,13,10
India,Gujarat,Ahmedabad,"SAC ISRO Bopal, Ahmedabad - IITM",05-09-2025 07:00:00,23.041137,72.456691,NH3,3,4,4
India,Gujarat,Ahmedabad,"SAC ISRO Bopal, Ahmedabad - IITM",05-09-2025 07:00:00,23.041137,72.456691,OZONE,1,45,38
India,Gujarat,Ahmedabad,"SAC ISRO Satellite, Ahmedabad - IITM",05-09-2025 07:00:00,23.023389,72.515201,SO2,3,5,4
India,Gujarat,Ahmedabad,"SAC ISRO Satellite, Ahmedabad - IITM",05-09-2025 07:00:00,23.023389,72.515201,CO,2,49,2
India,Gujarat,Ahmedabad,"SVPI Airport Hansol, Ahmedabad - IITM",05-09-2025 07:00:00,23.076793,72.627874,NH3,1,1,1
India,Delhi,Delhi,"IGI Airport (T3), Delhi - IMD",05-09-2025 07:00:00,28.5627763,77.1180053,NO2,43,120,80
India,Delhi,Delhi,"IHBAS, Dilshad Garden, Delhi - CPCB",05-09-2025 07:00:00,28.6811736,77.3025234,PM2.5,NA,NA,NA
India,Delhi,Delhi,"IHBAS, Dilshad Garden, Delhi - CPCB",05-09-2025 07:00:00,28.6811736,77.3025234,PM10,42,75,56
India,Delhi,Delhi,"IHBAS, Dilshad Garden, Delhi - CPCB",05-09-2025 07:00:00,28.6811736,77.3025234,NH3,1,3,2
India,Delhi,Delhi,"ITO, Delhi - CPCB",05-09-2025 07:00:00,28.628624,77.241060,OZONE,7,10,8
India,Delhi,Delhi,"Jahangirpuri, Delhi - DPCC",05-09-2025 07:00:00,28.732820,77.170633,PM2.5,57,187,97
India,Gujarat,Ahmedabad,"Chandkheda, Ahmedabad - IITM",05-09-2025 07:00:00,23.107969,72.574648,PM2.5,13,60,29
India,Gujarat,Ahmedabad,"Chandkheda, Ahmedabad - IITM",05-09-2025 07:00:00,23.107969,72.574648,SO2,1,8,4
India,Gujarat,Ahmedabad,"Gyaspur, Ahmedabad - IITM",05-09-2025 07:00:00,22.977134,72.553024,PM10,13,85,43
India,Gujarat,Ahmedabad,"Gyaspur, Ahmedabad - IITM",05-09-2025 07:00:00,22.977134,72.553024,CO,23,48,28
India,Gujarat,Ahmedabad,"Maninagar, Ahmedabad - GPCB",05-09-2025 07:00:00,23.002657,72.591912,NO2,16,17,16
India,Delhi,Delhi,"R K Puram, Delhi - DPCC",05-09-2025 07:00:00,28.563262,77.186937,NH3,3,4,3
India,Delhi,Delhi,"Rohini, Delhi - DPCC",05-09-2025 07:00:00,28.732528,77.119920,NH3,2,4,3
India,Delhi,Delhi,"Shadipur, Delhi - CPCB",05-09-2025 07:00:00,28.6514781,77.1473105,CO,NA,NA,NA
India,Karnataka,Kalaburagi,"Mahatma Basaveswar Colony, Kalaburgi - KSPCB",05-09-2025 07:00:00,17.336318,76.847397,PM10,28,67,42
India,Karnataka,Kalaburagi,"Mahatma Basaveswar Colony, Kalaburgi - KSPCB",05-09-2025 07:00:00,17.336318,76.847397,NO2,12,17,13
India,Karnataka,Kalaburagi,"Mahatma Basaveswar Colony, Kalaburgi - KSPCB",05-09-2025 07:00:00,17.336318,76.847397,NH3,2,3,3
India,Karnataka,Karwar,"KHB Colony, Karwar - KSPCB",05-09-2025 07:00:00,14.816666,74.141003,PM2.5,NA,NA,NA
India,Karnataka,Karwar,"KHB Colony, Karwar - KSPCB",05-09-2025 07:00:00,14.816666,74.141003,CO,NA,NA,NA
India,Karnataka,Koppal,"Diwator Nagar, Koppal - KSPCB",05-09-2025 07:00:00,15.347630,76.181767,NH3,6,9,7
India,Karnataka,Koppal,"Diwator Nagar, Koppal - KSPCB",05-09-2025 07:00:00,15.347630,76.181767,OZONE,4,11,6
India,Karnataka,Madikeri,"Stuart Hill, Madikeri - KSPCB",05-09-2025 07:00:00,12.415911,75.735050,OZONE,3,5,4
India,Karnataka,Mangalore,"Kadri, Mangalore - KSPCB",05-09-2025 07:00:00,12.889250,74.853000,NO2,12,25,20
India,Karnataka,Mangalore,"Kadri, Mangalore - KSPCB",05-09-2025 07:00:00,12.889250,74.853000,SO2,6,7,7
India,Karnataka,Bengaluru,"Jayanagar 5th Block, Bengaluru - KSPCB",05-09-2025 07:00:00,12.920984,77.584908,PM2.5,12,37,26
India,Karnataka,Bengaluru,"Jayanagar 5th Block, Bengaluru - KSPCB",05-09-2025 07:00:00,12.920984,77.584908,SO2,5,11,8
India,Karnataka,Bengaluru,"Jayanagar 5th Block, Bengaluru - KSPCB",05-09-2025 07:00:00,12.920984,77.584908,CO,8,31,14
India,Karnataka,Bengaluru,"Jayanagar 5th Block, Bengaluru - KSPCB",05-09-2025 07:00:00,12.920984,77.584908,OZONE,25,54,33
India,Karnataka,Bengaluru,"Jigani, Bengaluru - KSPCB",05-09-2025 07:00:00,12.7816279,77.6299145,PM10,43,59,51
India,Karnataka,Bengaluru,"Jigani, Bengaluru - KSPCB",05-09-2025 07:00:00,12.7816279,77.6299145,SO2,17,17,17
India,Karnataka,Bengaluru,"Jigani, Bengaluru - KSPCB",05-09-2025 07:00:00,12.7816279,77.6299145,CO,26,38,37
India,Karnataka,Bengaluru,"Peenya, Bengaluru - CPCB",05-09-2025 07:00:00,13.0270199,77.494094,SO2,2,15,6
India,Karnataka,Bengaluru,"Peenya, Bengaluru - CPCB",05-09-2025 07:00:00,13.0270199,77.494094,OZONE,27,28,28
India,Karnataka,Bengaluru,"RVCE-Mailasandra, Bengaluru - KSPCB",05-09-2025 07:00:00,12.921418,77.502466,CO,22,80,36
India,Karnataka,Bengaluru,"Shivapura_Peenya, Bengaluru - KSPCB",05-09-2025 07:00:00,13.0246342,77.5080115,SO2,2,9,5
India,Karnataka,Bengaluru,"Silk Board, Bengaluru - KSPCB",05-09-2025 07:00:00,12.917348,77.622813,NO2,7,23,12
India,Karnataka,Bengaluru,"Silk Board, Bengaluru - KSPCB",05-09-2025 07:00:00,12.917348,77.622813,CO,29,47,32
India,Karnataka,Chamarajanagar,"Urban, Chamarajanagar - KSPCB",05-09-2025 07:00:00,11.55358,76.55521,CO,15,120,31
India,Karnataka,Chikkaballapur,"Chikkaballapur Rural, Chikkaballapur - KSPCB",05-09-2025 07:00:00,13.428828,77.731418,CO,6,13,8
India,Karnataka,Chikkamagaluru,"Kalyana Nagara, Chikkamagaluru - KSPCB",05-09-2025 07:00:00,13.328028,75.797056,PM2.5,NA,NA,NA
India,Karnataka,Shivamogga,"Vinoba Nagara, Shivamogga - KSPCB",05-09-2025 07:00:00,13.940000,75.555917,SO2,5,6,6
India,Karnataka,Vijayapura,"Ibrahimpur, Vijayapura - KSPCB",05-09-2025 07:00:00,16.802639,75.722694,PM10,43,45,44
India,Karnataka,Yadgir,"Collector Office, Yadgir - KSPCB",05-09-2025 07:00:00,16.7602,77.1428,NH3,2,3,2
India,Karnataka,Yadgir,"Collector Office, Yadgir - KSPCB",05-09-2025 07:00:00,16.7602,77.1428,CO,14,24,17
India,Karnataka,Yadgir,"Collector Office, Yadgir - KSPCB",05-09-2025 07:00:00,16.7602,77.1428,OZONE,18,19,19
India,Kerala,Eloor,"Udyogamandal, Eloor - Kerala PCB",05-09-2025 07:00:00,10.073232,76.302765,PM10,42,58,49
India,Jharkhand,Dhanbad,"Sardar Patel Nagar, Dhanbad - JSPCB",05-09-2025 07:00:00,23.80569,86.44268,OZONE,NA,NA,NA
India,Jharkhand,Jorapokhar,"Tata Stadium, Jorapokhar - JSPCB",05-09-2025 07:00:00,23.707909,86.414670,PM10,19,115,50
India,Karnataka,Bengaluru,"BTM Layout, Bengaluru - CPCB",05-09-2025 07:00:00,12.9135218,77.5950804,NH3,4,6,4
India,Karnataka,Bengaluru,"BTM Layout, Bengaluru - CPCB",05-09-2025 07:00:00,12.9135218,77.5950804,OZONE,20,26,21
India,Karnataka,Bengaluru,"Bapuji Nagar, Bengaluru - KSPCB",05-09-2025 07:00:00,12.951913,77.539784,NH3,1,2,1
India,Karnataka,Bengaluru,"Bapuji Nagar, Bengaluru - KSPCB",05-09-2025 07:00:00,12.951913,77.539784,SO2,3,11,5
India,Gujarat,Surat,"Science Center, Surat - SMC",05-09-2025 07:00:00,21.170046,72.795405,SO2,15,18,16
India,Gujarat,Vapi,"Phase-1 GIDC, Vapi - GPCB",05-09-2025 07:00:00,20.362421,72.918013,OZONE,2,2,2
India,Haryana,Panchgaon,"Amity University, Panchgaon - IITM",05-09-2025 07:00:00,28.3153,76.9143,PM2.5,24,51,36
India,Haryana,Panchgaon,"Amity University, Panchgaon - IITM",05-09-2025 07:00:00,28.3153,76.9143,NO2,1,33,5
India,Himachal Pradesh,Baddi,"HIMUDA Complex Phase-1, Baddi - HPPCB",05-09-2025 07:00:00,30.943887,76.801991,NH3,4,12,6
India,Karnataka,Davanagere,"Devaraj Urs Badavane, Davanagere - KSPCB",05-09-2025 07:00:00,14.475800,75.905200,NH3,NA,NA,NA
India,Karnataka,Davanagere,"Devaraj Urs Badavane, Davanagere - KSPCB",05-09-2025 07:00:00,14.475800,75.905200,OZONE,NA,NA,NA
India,Karnataka,Hubballi,"Lingaraj Nagar, Hubballi - KSPCB",05-09-2025 07:00:00,15.3714823,75.1160168,PM10,33,41,35
India,Karnataka,Hubballi,"Lingaraj Nagar, Hubballi - KSPCB",05-09-2025 07:00:00,15.3714823,75.1160168,SO2,1,2,2
India,Karnataka,Kalaburagi,"Lal Bahadur Shastri Nagar, Kalaburagi - KSPCB",05-09-2025 07:00:00,17.321993,76.822628,NO2,12,12,12
India,Karnataka,Mysuru,"Hebbal 1st Stage, Mysuru - KSPCB",05-09-2025 07:00:00,12.21041,76.37376,CO,6,32,8
India,Karnataka,Shivamogga,"Vinoba Nagara, Shivamogga - KSPCB",05-09-2025 07:00:00,13.940000,75.555917,PM10,33,35,34
India,Karnataka,Bengaluru,"City Railway Station, Bengaluru - KSPCB",05-09-2025 07:00:00,12.9756843,77.5660749,CO,59,62,61
India,Maharashtra,Aurangabad,"More Chowk Waluj, Aurangabad - MPCB",05-09-2025 07:00:00,19.8389439,75.244448,SO2,1,17,8
India,Maharashtra,Aurangabad,"Rachnakar Colony, Aurangabad - MPCB",05-09-2025 07:00:00,19.863756,75.321188,PM2.5,23,55,35
India,Maharashtra,Aurangabad,"Rachnakar Colony, Aurangabad - MPCB",05-09-2025 07:00:00,19.863756,75.321188,OZONE,10,39,14
India,Maharashtra,Badlapur,"Katrap, Badlapur - MPCB",05-09-2025 07:00:00,19.16485,73.23409,NO2,25,59,39
India,Maharashtra,Badlapur,"Katrap, Badlapur - MPCB",05-09-2025 07:00:00,19.16485,73.23409,NH3,5,10,8
India,Maharashtra,Badlapur,"Katrap, Badlapur - MPCB",05-09-2025 07:00:00,19.16485,73.23409,CO,22,40,29
India,Maharashtra,Belapur,"CBD Belapur, Belapur - MPCB",05-09-2025 07:00:00,19.0243902,73.0406721,PM10,31,47,38
India,Maharashtra,Belapur,"CBD Belapur, Belapur - MPCB",05-09-2025 07:00:00,19.0243902,73.0406721,SO2,NA,NA,NA
India,Maharashtra,Bhiwandi,"Gokul Nagar, Bhiwandi - MPCB",05-09-2025 07:00:00,19.309073,73.057223,NO2,31,53,40
India,Maharashtra,Bhiwandi,"Gokul Nagar, Bhiwandi - MPCB",05-09-2025 07:00:00,19.309073,73.057223,SO2,8,22,14
India,Maharashtra,Bhiwandi,"Gokul Nagar, Bhiwandi - MPCB",05-09-2025 07:00:00,19.309073,73.057223,OZONE,14,40,16
India,Madhya Pradesh,Bhopal,"Paryavaran Parisar, Bhopal - MPPCB",05-09-2025 07:00:00,23.210494,77.425409,NO2,6,18,11
India,Madhya Pradesh,Bhopal,"Paryavaran Parisar, Bhopal - MPPCB",05-09-2025 07:00:00,23.210494,77.425409,NH3,3,4,3
India,Madhya Pradesh,Bhopal,"Paryavaran Parisar, Bhopal - MPPCB",05-09-2025 07:00:00,23.210494,77.425409,SO2,11,14,13
India,Madhya Pradesh,Bhopal,"Paryavaran Parisar, Bhopal - MPPCB",05-09-2025 07:00:00,23.210494,77.425409,CO,16,26,17
India,Madhya Pradesh,Bhopal,"T T Nagar, Bhopal - MPPCB",05-09-2025 07:00:00,23.233584,77.400574,NO2,10,19,14
India,Madhya Pradesh,Bhopal,"T T Nagar, Bhopal - MPPCB",05-09-2025 07:00:00,23.233584,77.400574,CO,18,33,21
India,Madhya Pradesh,Damoh,"Shrivastav Colony, Damoh - MPPCB",05-09-2025 07:00:00,23.81748678,79.446246,PM2.5,3,24,12
India,Madhya Pradesh,Gwalior,"City Center, Gwalior - MPPCB",05-09-2025 07:00:00,26.203442,78.193251,PM10,17,45,29
India,Madhya Pradesh,Gwalior,"City Center, Gwalior - MPPCB",05-09-2025 07:00:00,26.203442,78.193251,NO2,7,7,7
India,Kerala,Kannur,"Thavakkara, Kannur - Kerala PCB",05-09-2025 07:00:00,11.875000,75.373200,CO,18,20,18
India,Kerala,Kollam,"Polayathode, Kollam - Kerala PCB",05-09-2025 07:00:00,8.8787,76.6073,NH3,NA,NA,NA
India,Kerala,Thiruvananthapuram,"Kariavattom, Thiruvananthapuram - Kerala PCB",05-09-2025 07:00:00,8.563700,76.886500,SO2,1,4,1
India,Kerala,Thiruvananthapuram,"Plammoodu, Thiruvananthapuram - Kerala PCB",05-09-2025 07:00:00,8.5149093,76.9435879,PM10,1,105,36
India,Kerala,Thiruvananthapuram,"Plammoodu, Thiruvananthapuram - Kerala PCB",05-09-2025 07:00:00,8.5149093,76.9435879,NO2,57,93,71
India,Kerala,Thiruvananthapuram,"Plammoodu, Thiruvananthapuram - Kerala PCB",05-09-2025 07:00:00,8.5149093,76.9435879,CO,5,17,9
India,Madhya Pradesh,Sagar,"Civil Lines, Sagar - MPPCB",05-09-2025 07:00:00,23.838586,78.759431,NO2,3,4,3
India,Madhya Pradesh,Sagar,"Civil Lines, Sagar - MPPCB",05-09-2025 07:00:00,23.838586,78.759431,OZONE,19,50,32
India,Madhya Pradesh,Singrauli,"Suryakiran Bhawan NCL, Singrauli - MPPCB",05-09-2025 07:00:00,24.108970,82.645580,SO2,5,66,32
India,Madhya Pradesh,Singrauli,"Suryakiran Bhawan NCL, Singrauli - MPPCB",05-09-2025 07:00:00,24.108970,82.645580,CO,13,18,14
India,Maharashtra,Ahmednagar,"Tarakpur, Ahmednagar - MPCB",05-09-2025 07:00:00,19.10122,74.73339,NH3,4,7,6
India,Maharashtra,Ahmednagar,"Tarakpur, Ahmednagar - MPCB",05-09-2025 07:00:00,19.10122,74.73339,SO2,1,5,3
India,Maharashtra,Chandrapur,"Chauhan Colony, Chandrapur - MPCB",05-09-2025 07:00:00,19.962900,79.298714,CO,21,38,25
India,Maharashtra,Chandrapur,"MIDC Khutala, Chandrapur - MPCB",05-09-2025 07:00:00,19.9775302,79.2337086,PM2.5,6,59,35
India,Maharashtra,Chandrapur,"MIDC Khutala, Chandrapur - MPCB",05-09-2025 07:00:00,19.9775302,79.2337086,PM10,25,77,52
India,Maharashtra,Chandrapur,"MIDC Khutala, Chandrapur - MPCB",05-09-2025 07:00:00,19.9775302,79.2337086,NO2,3,15,9
India,Maharashtra,Dhule,"Deopur, Dhule - MPCB",05-09-2025 07:00:00,20.918946,74.776388,PM10,32,66,47
India,Maharashtra,Dhule,"Deopur, Dhule - MPCB",05-09-2025 07:00:00,20.918946,74.776388,NO2,5,26,8
India,Madhya Pradesh,Jabalpur,"Suhagi, Jabalpur - JMC",05-09-2025 07:00:00,23.218135,79.957770,SO2,3,7,5
India,Madhya Pradesh,Katni,"Gole Bazar, Katni - MPPCB",05-09-2025 07:00:00,23.50016,80.23284,CO,30,36,34
India,Madhya Pradesh,Mandideep,"Sector-D Industrial Area, Mandideep - MPPCB",05-09-2025 07:00:00,23.108440,77.511428,PM10,NA,NA,NA
India,Madhya Pradesh,Mandideep,"Sector-D Industrial Area, Mandideep - MPPCB",05-09-2025 07:00:00,23.108440,77.511428,NO2,8,18,13
India,Madhya Pradesh,Mandideep,"Sector-D Industrial Area, Mandideep - MPPCB",05-09-2025 07:00:00,23.108440,77.511428,NH3,3,4,4
India,Madhya Pradesh,Gwalior,"Deen Dayal Nagar, Gwalior - MPPCB",05-09-2025 07:00:00,26.259242,78.216432,PM2.5,8,97,38
