country,state,city,station,last_update,latitude,longitude,pollutant_id,min_value,max_value,avg_value
India,Bihar,Araria,"Kharahiya Basti, Araria - BSPCB",19-12-2025 08:00:00,26.146529,87.454184,OZONE,9,10,10
India,Bihar,Aurangabad,"Gurdeo Nagar, Aurangabad - BSPCB",19-12-2025 08:00:00,24.75746,84.366208,NO2,7,8,8
India,Bihar,Begusarai,"Lohiyanagar, Begusarai - BSPCB",19-12-2025 08:00:00,25.42742023,86.13886079,NO2,9,17,14
India,Bihar,Begusarai,"Lohiyanagar, Begusarai - BSPCB",19-12-2025 08:00:00,25.42742023,86.13886079,CO,34,71,55
India,Bihar,Bettiah,"Kamalnath Nagar, Bettiah - BSPCB",19-12-2025 08:00:00,26.80365,84.51954,PM2.5,15,140,50
India,Bihar,Bettiah,"Kamalnath Nagar, Bettiah - BSPCB",19-12-2025 08:00:00,26.80365,84.51954,PM10,17,126,56
India,Bihar,Chhapra,"Darshan Nagar, Chhapra - BSPCB",19-12-2025 08:00:00,25.7808257,84.7446768,PM2.5,17,98,61
India,Bihar,Chhapra,"Darshan Nagar, Chhapra - BSPCB",19-12-2025 08:00:00,25.7808257,84.7446768,PM10,21,116,76
India,Bihar,Chhapra,"Darshan Nagar, Chhapra - BSPCB",19-12-2025 08:00:00,25.7808257,84.7446768,SO2,39,44,42
India,Bihar,Chhapra,"Darshan Nagar, Chhapra - BSPCB",19-12-2025 08:00:00,25.7808257,84.7446768,CO,43,49,45
India,Bihar,Gaya,"Collectorate, Gaya - BSPCB",19-12-2025 08:00:00,24.7955,84.9994,CO,40,56,51
India,Bihar,Gaya,"Kareemganj, Gaya - BSPCB",19-12-2025 08:00:00,24.792403,84.992416,NO2,3,7,5
India,Bihar,Gaya,"Kareemganj, Gaya - BSPCB",19-12-2025 08:00:00,24.792403,84.992416,CO,39,44,42
India,Andhra_Pradesh,Visakhapatnam,"GVM Corporation, Visakhapatnam - APPCB",19-12-2025 08:00:00,17.72,83.3,NO2,23,255,127
India,Andhra_Pradesh,Visakhapatnam,"GVM Corporation, Visakhapatnam - APPCB",19-12-2025 08:00:00,17.72,83.3,CO,16,111,46
India,Arunachal_Pradesh,Naharlagun,"Naharlagun, Naharlagun - APSPCB",19-12-2025 08:00:00,27.103358,93.679645,PM2.5,40,382,184
India,Arunachal_Pradesh,Naharlagun,"Naharlagun, Naharlagun - APSPCB",19-12-2025 08:00:00,27.103358,93.679645,NO2,6,7,7
India,Assam,Silchar,"Tarapur, Silchar - PCBA",19-12-2025 08:00:00,24.82827,92.79525,PM2.5,26,73,50
India,Assam,Silchar,"Tarapur, Silchar - PCBA",19-12-2025 08:00:00,24.82827,92.79525,NH3,1,1,1
India,Assam,Sivasagar,"Girls College, Sivasagar - PCBA",19-12-2025 08:00:00,26.987634,94.636574,PM2.5,33,90,62
India,Assam,Sivasagar,"Girls College, Sivasagar - PCBA",19-12-2025 08:00:00,26.987634,94.636574,PM10,31,94,54
India,Assam,Sivasagar,"Girls College, Sivasagar - PCBA",19-12-2025 08:00:00,26.987634,94.636574,NH3,5,15,10
India,Assam,Guwahati,"Pan Bazaar, Guwahati - PCBA",19-12-2025 08:00:00,26.187500,91.744194,SO2,19,40,28
India,Assam,Guwahati,"Railway Colony, Guwahati - PCBA",19-12-2025 08:00:00,26.181742,91.78063,PM10,40,309,142
India,Assam,Guwahati,"Railway Colony, Guwahati - PCBA",19-12-2025 08:00:00,26.181742,91.78063,CO,27,105,87
India,Assam,Nagaon,"Christianpatty, Nagaon - PCBA",19-12-2025 08:00:00,26.349082,92.68449,SO2,5,15,12
India,Andhra_Pradesh,Anantapur,"Gulzarpet, Anantapur - APPCB",19-12-2025 08:00:00,14.675886,77.593027,NO2,18,23,20
India,Andhra_Pradesh,Anantapur,"Gulzarpet, Anantapur - APPCB",19-12-2025 08:00:00,14.675886,77.593027,CO,34,83,52
India,Andhra_Pradesh,Rajamahendravaram,"Anand Kala Kshetram, Rajamahendravaram - APPCB",19-12-2025 08:00:00,16.9872867,81.7363176,CO,38,86,56
India,Andaman and Nicobar,Sri Vijaya Puram,"Police Line, Sri Vijaya Puram - ANPCC",19-12-2025 08:00:00,11.654054,92.734055,PM2.5,NA,NA,NA
India,Andhra_Pradesh,Amaravati,"Secretariat, Amaravati - APPCB",19-12-2025 08:00:00,16.5150833,80.5181667,OZONE,1,62,7
India,Andhra_Pradesh,Tirupati,"Vaikuntapuram, Tirupati - APPCB",19-12-2025 08:00:00,13.615387,79.409230,SO2,15,17,16
India,Andhra_Pradesh,Vijayawada,"HB Colony, Vijayawada - APPCB",19-12-2025 08:00:00,16.536107,80.594233,PM10,47,162,96
India,Andhra_Pradesh,Vijayawada,"HB Colony, Vijayawada - APPCB",19-12-2025 08:00:00,16.536107,80.594233,NO2,19,23,20
India,Andhra_Pradesh,Vijayawada,"Kanuru, Vijayawada - APPCB",19-12-2025 08:00:00,16.486692,80.699436,NO2,NA,NA,NA
India,Andhra_Pradesh,Vijayawada,"Rajiv Gandhi Park, Vijayawada - APPCB",19-12-2025 08:00:00,16.509717,80.612222,PM2.5,86,123,104
India,Andhra_Pradesh,Vijayawada,"Rajiv Gandhi Park, Vijayawada - APPCB",19-12-2025 08:00:00,16.509717,80.612222,NO2,45,96,62
India,Bihar,Bettiah,"Kamalnath Nagar, Bettiah - BSPCB",19-12-2025 08:00:00,26.80365,84.51954,CO,78,114,86
India,Chhattisgarh,Bhilai,"Civic Center, Bhilai - Bhilai Steel Plant",19-12-2025 08:00:00,21.185571,81.343175,NH3,6,6,6
India,Chhattisgarh,Bhilai,"Hathkhoj, Bhilai - CECB",19-12-2025 08:00:00,21.224231,81.408350,PM2.5,4,192,55
India,Chhattisgarh,Bhilai,"Hathkhoj, Bhilai - CECB",19-12-2025 08:00:00,21.224231,81.408350,NH3,1,11,5
India,Chhattisgarh,Bhilai,"Hathkhoj, Bhilai - CECB",19-12-2025 08:00:00,21.224231,81.408350,CO,2,110,58
India,Chhattisgarh,Bhilai,"Hathkhoj, Bhilai - CECB",19-12-2025 08:00:00,21.224231,81.408350,OZONE,2,11,3
India,Chhattisgarh,Bilaspur,"Mangala, Bilaspur - NTPC",19-12-2025 08:00:00,22.08815,82.13737,PM10,56,102,74
India,Chhattisgarh,Chhal,"Nawapara SECL Colony, Chhal - CECB",19-12-2025 08:00:00,22.118125,83.140608,SO2,1,56,15
India,Chhattisgarh,Chhal,"Nawapara SECL Colony, Chhal - CECB",19-12-2025 08:00:00,22.118125,83.140608,CO,24,84,45
India,Chhattisgarh,Korba,"Rampur, Korba - CECB",19-12-2025 08:00:00,22.368195,82.746431,PM2.5,25,58,43
India,Chhattisgarh,Korba,"Rampur, Korba - CECB",19-12-2025 08:00:00,22.368195,82.746431,NH3,1,1,1
India,Chhattisgarh,Korba,"Urja Nagar, Korba - CECB",19-12-2025 08:00:00,22.348441,82.549611,SO2,8,31,15
India,Chhattisgarh,Kunjemura,"OP Jindal School, Kunjemura - CECB",19-12-2025 08:00:00,22.126650,83.483212,PM2.5,49,124,73
India,Chhattisgarh,Kunjemura,"OP Jindal School, Kunjemura - CECB",19-12-2025 08:00:00,22.126650,83.483212,PM10,59,436,120
India,Chhattisgarh,Kunjemura,"OP Jindal School, Kunjemura - CECB",19-12-2025 08:00:00,22.126650,83.483212,SO2,1,67,22
India,Chhattisgarh,Kunjemura,"OP Jindal School, Kunjemura - CECB",19-12-2025 08:00:00,22.126650,83.483212,CO,29,64,51
India,Chhattisgarh,Kunjemura,"OP Jindal School, Kunjemura - CECB",19-12-2025 08:00:00,22.126650,83.483212,OZONE,2,76,2
India,Chhattisgarh,Milupara,"Govt. Higher Secondary School, Milupara - CECB",19-12-2025 08:00:00,22.1910172,83.5197009,PM2.5,44,133,95
India,Chhattisgarh,Milupara,"Govt. Higher Secondary School, Milupara - CECB",19-12-2025 08:00:00,22.1910172,83.5197009,PM10,NA,NA,NA
India,Bihar,Muzaffarpur,"MIT-Daudpur Kothi, Muzaffarpur - BSPCB",19-12-2025 08:00:00,26.1403345,85.3650192,NH3,1,1,1
India,Bihar,Muzaffarpur,"Muzaffarpur Collectorate, Muzaffarpur - BSPCB",19-12-2025 08:00:00,26.1209,85.3647,OZONE,8,28,13
India,Bihar,Patna,"DRM Office Danapur, Patna - BSPCB",19-12-2025 08:00:00,25.586562,85.043586,SO2,10,15,12
India,Bihar,Patna,"DRM Office Danapur, Patna - BSPCB",19-12-2025 08:00:00,25.586562,85.043586,CO,50,81,58
India,Bihar,Patna,"Govt. High School Shikarpur, Patna - BSPCB",19-12-2025 08:00:00,25.592539,85.227158,PM10,92,145,116
India,Bihar,Patna,"IGSC Planetarium Complex, Patna - BSPCB",19-12-2025 08:00:00,25.610369,85.132568,NO2,1,12,6
India,Bihar,Samastipur,"DM Office_Kasipur, Samastipur - BSPCB",19-12-2025 08:00:00,25.859655,85.77944,NH3,1,1,1
India,Bihar,Samastipur,"DM Office_Kasipur, Samastipur - BSPCB",19-12-2025 08:00:00,25.859655,85.77944,CO,40,63,54
India,Bihar,Sasaram,"Dada Peer, Sasaram - BSPCB",19-12-2025 08:00:00,24.952822,84.002396,NO2,2,5,2
India,Bihar,Siwan,"Chitragupta Nagar, Siwan - BSPCB",19-12-2025 08:00:00,26.2271665,84.3570427,NH3,1,1,1
India,Bihar,Siwan,"Chitragupta Nagar, Siwan - BSPCB",19-12-2025 08:00:00,26.2271665,84.3570427,SO2,2,5,4
India,Bihar,Siwan,"Chitragupta Nagar, Siwan - BSPCB",19-12-2025 08:00:00,26.2271665,84.3570427,CO,21,40,31
India,Chandigarh,Chandigarh,"Sector 22, Chandigarh - CPCC",19-12-2025 08:00:00,30.735567,76.775714,PM2.5,223,372,306
India,Bihar,Hajipur,"Industrial Area, Hajipur - BSPCB",19-12-2025 08:00:00,25.697189,85.245900,PM10,69,122,108
India,Bihar,Katihar,"Mirchaibari, Katihar - BSPCB",19-12-2025 08:00:00,25.560083,87.553265,PM2.5,47,173,106
India,Bihar,Katihar,"Mirchaibari, Katihar - BSPCB",19-12-2025 08:00:00,25.560083,87.553265,PM10,43,115,85
India,Bihar,Katihar,"Mirchaibari, Katihar - BSPCB",19-12-2025 08:00:00,25.560083,87.553265,NO2,7,11,9
India,Bihar,Kishanganj,"SDM Office_Khagra, Kishanganj - BSPCB",19-12-2025 08:00:00,26.0881305,87.93840336,PM10,45,425,191
India,Bihar,Manguraha,"Forest Rest House, Manguraha - BSPCB",19-12-2025 08:00:00,27.308328,84.531742,NO2,5,10,6
India,Bihar,Motihari,"Gandak Colony, Motihari - BSPCB",19-12-2025 08:00:00,26.63086,84.90051,PM2.5,22,98,57
India,Bihar,Motihari,"Gandak Colony, Motihari - BSPCB",19-12-2025 08:00:00,26.63086,84.90051,NO2,4,6,4
India,Bihar,Motihari,"Gandak Colony, Motihari - BSPCB",19-12-2025 08:00:00,26.63086,84.90051,NH3,3,3,3
India,Bihar,Munger,"Town Hall, Munger - BSPCB",19-12-2025 08:00:00,25.376776,86.471523,OZONE,11,27,12
India,Bihar,Muzaffarpur,"Buddha Colony, Muzaffarpur - BSPCB",19-12-2025 08:00:00,26.11442,85.39813,OZONE,5,308,29
India,Bihar,Muzaffarpur,"MIT-Daudpur Kothi, Muzaffarpur - BSPCB",19-12-2025 08:00:00,26.1403345,85.3650192,PM10,68,88,75
India,Chandigarh,Chandigarh,"Sector 22, Chandigarh - CPCC",19-12-2025 08:00:00,30.735567,76.775714,PM10,107,199,149
India,Chandigarh,Chandigarh,"Sector 22, Chandigarh - CPCC",19-12-2025 08:00:00,30.735567,76.775714,NO2,31,121,66
India,Chandigarh,Chandigarh,"Sector-53, Chandigarh - CPCC",19-12-2025 08:00:00,30.719859,76.738637,NH3,8,14,10
India,Chhattisgarh,Bhilai,"32Bungalows, Bhilai - CECB",19-12-2025 08:00:00,21.194815,81.314770,NO2,27,47,38
India,Chhattisgarh,Bhilai,"32Bungalows, Bhilai - CECB",19-12-2025 08:00:00,21.194815,81.314770,NH3,3,4,3
India,Bihar,Patna,"Muradpur, Patna - BSPCB",19-12-2025 08:00:00,25.619651,85.147382,PM2.5,97,229,182
India,Bihar,Patna,"Rajbansi Nagar, Patna - BSPCB",19-12-2025 08:00:00,25.599486,85.113666,PM2.5,104,167,138
India,Bihar,Patna,"Rajbansi Nagar, Patna - BSPCB",19-12-2025 08:00:00,25.599486,85.113666,PM10,104,140,124
India,Bihar,Patna,"Rajbansi Nagar, Patna - BSPCB",19-12-2025 08:00:00,25.599486,85.113666,NH3,7,11,9
India,Bihar,Rajgir,"Dangi Tola, Rajgir - BSPCB",19-12-2025 08:00:00,25.03280,85.41948,NO2,7,10,9
India,Chhattisgarh,Raipur,"AIIMS, Raipur - CECB",19-12-2025 08:00:00,21.258815,81.578979,PM2.5,17,68,39
India,Chhattisgarh,Raipur,"AIIMS, Raipur - CECB",19-12-2025 08:00:00,21.258815,81.578979,PM10,18,113,58
India,Chhattisgarh,Raipur,"Bhatagaon New ISBT, Raipur - CECB",19-12-2025 08:00:00,21.219665,81.630094,PM2.5,14,59,33
India,Delhi,Delhi,"Major Dhyan Chand National Stadium, Delhi - DPCC",19-12-2025 08:00:00,28.611281,77.237738,PM10,185,374,299
India,Delhi,Delhi,"Major Dhyan Chand National Stadium, Delhi - DPCC",19-12-2025 08:00:00,28.611281,77.237738,SO2,3,13,9
India,Delhi,Delhi,"Major Dhyan Chand National Stadium, Delhi - DPCC",19-12-2025 08:00:00,28.611281,77.237738,OZONE,2,55,5
India,Delhi,Delhi,"Mandir Marg, Delhi - DPCC",19-12-2025 08:00:00,28.636429,77.201067,NO2,7,109,77
India,Delhi,Delhi,"Mandir Marg, Delhi - DPCC",19-12-2025 08:00:00,28.636429,77.201067,OZONE,8,40,11
India,Delhi,Delhi,"Mundka, Delhi - DPCC",19-12-2025 08:00:00,28.684678,77.076574,SO2,3,14,8
India,Delhi,Delhi,"NSIT Dwarka, Delhi - CPCB",19-12-2025 08:00:00,28.60909,77.0325413,SO2,13,23,17
India,Delhi,Delhi,"NSIT Dwarka, Delhi - CPCB",19-12-2025 08:00:00,28.60909,77.0325413,CO,55,101,72
India,Delhi,Delhi,"CRRI Mathura Road, Delhi - IMD",19-12-2025 08:00:00,28.5512005,77.2735737,PM10,149,415,252
India,Delhi,Delhi,"CRRI Mathura Road, Delhi - IMD",19-12-2025 08:00:00,28.5512005,77.2735737,NO2,13,46,29
India,Delhi,Delhi,"CRRI Mathura Road, Delhi - IMD",19-12-2025 08:00:00,28.5512005,77.2735737,OZONE,9,54,11
India,Delhi,Delhi,"Chandni Chowk, Delhi - IITM",19-12-2025 08:00:00,28.656756,77.227234,SO2,6,15,12
India,Delhi,Delhi,"DTU, Delhi - CPCB",19-12-2025 08:00:00,28.7500499,77.1112615,PM2.5,308,446,376
India,Delhi,Delhi,"DTU, Delhi - CPCB",19-12-2025 08:00:00,28.7500499,77.1112615,CO,72,106,99
India,Delhi,Delhi,"Dr. Karni Singh Shooting Range, Delhi - DPCC",19-12-2025 08:00:00,28.498571,77.264840,NH3,10,15,13
India,Delhi,Delhi,"ITO, Delhi - CPCB",19-12-2025 08:00:00,28.628624,77.241060,OZONE,12,20,13
India,Delhi,Delhi,"Jawaharlal Nehru Stadium, Delhi - DPCC",19-12-2025 08:00:00,28.580280,77.233829,PM2.5,324,429,384
India,Delhi,Delhi,"Jawaharlal Nehru Stadium, Delhi - DPCC",19-12-2025 08:00:00,28.580280,77.233829,PM10,193,423,343
India,Delhi,Delhi,"Lodhi Road, Delhi - IMD",19-12-2025 08:00:00,28.5918245,77.2273074,PM2.5,251,396,343
India,Delhi,Delhi,"Lodhi Road, Delhi - IMD",19-12-2025 08:00:00,28.5918245,77.2273074,NO2,14,59,29
India,Delhi,Delhi,"Lodhi Road, Delhi - IMD",19-12-2025 08:00:00,28.5918245,77.2273074,OZONE,4,33,13
India,Chhattisgarh,Raipur,"Siltara Phase-II, Raipur - CECB",19-12-2025 08:00:00,21.371751,81.664929,OZONE,3,3,3
India,Chhattisgarh,Tumidih,"OP Jindal Industrial Park, Tumidih - CECB",19-12-2025 08:00:00,22.06631475,83.33820077,SO2,NA,NA,NA
India,Delhi,Delhi,"Alipur, Delhi - DPCC",19-12-2025 08:00:00,28.815329,77.153010,SO2,1,4,2
India,Delhi,Delhi,"Anand Vihar, Delhi - DPCC",19-12-2025 08:00:00,28.647622,77.3158090,PM10,201,497,399
India,Delhi,Delhi,"Najafgarh, Delhi - DPCC",19-12-2025 08:00:00,28.570173,76.933762,CO,86,126,102
India,Delhi,Delhi,"Narela, Delhi - DPCC",19-12-2025 08:00:00,28.822836,77.101981,CO,30,103,51
India,Delhi,Delhi,"Narela, Delhi - DPCC",19-12-2025 08:00:00,28.822836,77.101981,OZONE,6,59,9
India,Delhi,Delhi,"Nehru Nagar, Delhi - DPCC",19-12-2025 08:00:00,28.567890,77.250515,NH3,7,22,10
India,Delhi,Delhi,"North Campus, DU, Delhi - IMD",19-12-2025 08:00:00,28.6573814,77.1585447,OZONE,8,40,13
India,Delhi,Delhi,"Anand Vihar, Delhi - DPCC",19-12-2025 08:00:00,28.647622,77.3158090,CO,104,140,119
India,Delhi,Delhi,"Ashok Vihar, Delhi - DPCC",19-12-2025 08:00:00,28.695381,77.181665,PM2.5,328,441,391
India,Delhi,Delhi,"Ashok Vihar, Delhi - DPCC",19-12-2025 08:00:00,28.695381,77.181665,PM10,194,417,316
India,Delhi,Delhi,"Ashok Vihar, Delhi - DPCC",19-12-2025 08:00:00,28.695381,77.181665,NO2,46,80,57
India,Delhi,Delhi,"IGI Airport (T3), Delhi - IMD",19-12-2025 08:00:00,28.5627763,77.1180053,OZONE,3,34,5
India,Delhi,Delhi,"IHBAS, Dilshad Garden, Delhi - CPCB",19-12-2025 08:00:00,28.6811736,77.3025234,SO2,14,24,18
India,Delhi,Delhi,"IIT Delhi, Delhi - IITM",19-12-2025 08:00:00,28.542460,77.191651,OZONE,9,45,13
India,Delhi,Delhi,"Bawana, Delhi - DPCC",19-12-2025 08:00:00,28.776200,77.051074,OZONE,3,44,4
India,Delhi,Delhi,"Burari Crossing, Delhi - IMD",19-12-2025 08:00:00,28.7256504,77.2011573,PM10,112,361,212
India,Chhattisgarh,Raipur,"Krishak Nagar, Raipur - CECB",19-12-2025 08:00:00,21.237755,81.705301,CO,24,60,57
India,Chhattisgarh,Raipur,"Siltara Phase-II, Raipur - CECB",19-12-2025 08:00:00,21.371751,81.664929,PM2.5,13,221,43
India,Haryana,Ballabgarh,"Nathu Colony, Ballabgarh - HSPCB",19-12-2025 08:00:00,28.3419248,77.319699,OZONE,15,15,15
India,Haryana,Bhiwani,"H.B. Colony, Bhiwani - HSPCB",19-12-2025 08:00:00,28.806223,76.141105,PM10,80,110,93
India,Haryana,Bhiwani,"H.B. Colony, Bhiwani - HSPCB",19-12-2025 08:00:00,28.806223,76.141105,OZONE,10,18,14
India,Haryana,Charkhi Dadri,"Mini Secretariat, Charkhi Dadri - HSPCB",19-12-2025 08:00:00,28.593883,76.270653,PM2.5,70,354,198
India,Haryana,Charkhi Dadri,"Mini Secretariat, Charkhi Dadri - HSPCB",19-12-2025 08:00:00,28.593883,76.270653,NH3,5,8,6
India,Haryana,Dharuhera,"Municipal Corporation Office, Dharuhera -  HSPCB",19-12-2025 08:00:00,28.206800,76.799700,PM2.5,186,428,343
India,Haryana,Dharuhera,"Municipal Corporation Office, Dharuhera -  HSPCB",19-12-2025 08:00:00,28.206800,76.799700,OZONE,5,39,6
India,Haryana,Faridabad,"New Industrial Town, Faridabad - HSPCB",19-12-2025 08:00:00,28.39072,77.30059,PM2.5,207,221,213
India,Gujarat,Ankleshwar,"GIDC, Ankleshwar - GPCB",19-12-2025 08:00:00,21.613267,73.010555,SO2,33,34,34
India,Gujarat,Ankleshwar,"GIDC, Ankleshwar - GPCB",19-12-2025 08:00:00,21.613267,73.010555,CO,32,108,70
India,Gujarat,Gandhinagar,"GIFT City, Gandhinagar - IITM",19-12-2025 08:00:00,23.163798,72.677768,NH3,3,10,6
India,Gujarat,Gandhinagar,"Sector-10, Gandhinagar - GPCB",19-12-2025 08:00:00,23.221714,72.654328,PM10,58,104,76
India,Gujarat,Surat,"Science Center, Surat - SMC",19-12-2025 08:00:00,21.170046,72.795405,PM10,NA,NA,NA
India,Gujarat,Surat,"Science Center, Surat - SMC",19-12-2025 08:00:00,21.170046,72.795405,SO2,29,37,33
India,Gujarat,Vapi,"Phase-1 GIDC, Vapi - GPCB",19-12-2025 08:00:00,20.362421,72.918013,PM2.5,33,212,102
India,Delhi,Delhi,"Sonia Vihar, Delhi - DPCC",19-12-2025 08:00:00,28.710508,77.249485,NO2,24,45,33
India,Delhi,Delhi,"Sonia Vihar, Delhi - DPCC",19-12-2025 08:00:00,28.710508,77.249485,OZONE,2,52,4
India,Delhi,Delhi,"Sri Aurobindo Marg, Delhi - DPCC",19-12-2025 08:00:00,28.531346,77.190156,SO2,4,14,9
India,Delhi,Delhi,"Vivek Vihar, Delhi - DPCC",19-12-2025 08:00:00,28.672342,77.315260,PM2.5,348,500,436
India,Delhi,Delhi,"Vivek Vihar, Delhi - DPCC",19-12-2025 08:00:00,28.672342,77.315260,NH3,14,17,15
India,Delhi,Delhi,"Vivek Vihar, Delhi - DPCC",19-12-2025 08:00:00,28.672342,77.315260,CO,59,126,78
India,Delhi,Delhi,"Wazirpur, Delhi - DPCC",19-12-2025 08:00:00,28.699793,77.165453,CO,68,109,89
India,Delhi,Delhi,"Wazirpur, Delhi - DPCC",19-12-2025 08:00:00,28.699793,77.165453,OZONE,9,27,21
India,Gujarat,Vatva,"Phase-4 GIDC, Vatva - GPCB",19-12-2025 08:00:00,22.969611,72.643500,PM2.5,44,158,91
India,Gujarat,Vatva,"Phase-4 GIDC, Vatva - GPCB",19-12-2025 08:00:00,22.969611,72.643500,NH3,5,7,6
India,Haryana,Ambala,"Patti Mehar, Ambala - HSPCB",19-12-2025 08:00:00,30.379589,76.778328,PM2.5,71,148,107
India,Haryana,Ambala,"Patti Mehar, Ambala - HSPCB",19-12-2025 08:00:00,30.379589,76.778328,SO2,31,32,31
India,Haryana,Ambala,"Patti Mehar, Ambala - HSPCB",19-12-2025 08:00:00,30.379589,76.778328,CO,74,75,75
India,Haryana,Ambala,"Patti Mehar, Ambala - HSPCB",19-12-2025 08:00:00,30.379589,76.778328,OZONE,48,51,50
India,Haryana,Bahadurgarh,"Arya Nagar, Bahadurgarh - HSPCB",19-12-2025 08:00:00,28.6701,76.9254,PM10,35,448,192
India,Delhi,Delhi,"Okhla Phase-2, Delhi - DPCC",19-12-2025 08:00:00,28.530785,77.271255,OZONE,4,101,10
India,Delhi,Delhi,"Patparganj, Delhi - DPCC",19-12-2025 08:00:00,28.623763,77.287209,SO2,9,15,12
India,Delhi,Delhi,"Patparganj, Delhi - DPCC",19-12-2025 08:00:00,28.623763,77.287209,CO,108,143,123
India,Delhi,Delhi,"Pusa, Delhi - DPCC",19-12-2025 08:00:00,28.639652,77.146275,PM10,171,455,323
India,Delhi,Delhi,"Pusa, Delhi - DPCC",19-12-2025 08:00:00,28.639652,77.146275,CO,48,103,78
India,Gujarat,Ahmedabad,"Gyaspur, Ahmedabad - IITM",19-12-2025 08:00:00,22.977134,72.553024,NO2,36,119,86
India,Gujarat,Ahmedabad,"Maninagar, Ahmedabad - GPCB",19-12-2025 08:00:00,23.002657,72.591912,PM2.5,32,172,75
India,Gujarat,Ahmedabad,"Raikhad, Ahmedabad - IITM",19-12-2025 08:00:00,23.020509,72.579261,PM2.5,NA,NA,NA
India,Gujarat,Ahmedabad,"Raikhad, Ahmedabad - IITM",19-12-2025 08:00:00,23.020509,72.579261,NO2,20,100,62
India,Gujarat,Ahmedabad,"Raikhad, Ahmedabad - IITM",19-12-2025 08:00:00,23.020509,72.579261,CO,16,66,29
India,Delhi,Delhi,"Rohini, Delhi - DPCC",19-12-2025 08:00:00,28.732528,77.119920,OZONE,5,82,8
India,Delhi,Delhi,"Shadipur, Delhi - CPCB",19-12-2025 08:00:00,28.6514781,77.1473105,PM10,152,409,279
India,Delhi,Delhi,"Shadipur, Delhi - CPCB",19-12-2025 08:00:00,28.6514781,77.1473105,NO2,43,66,52
India,Delhi,Delhi,"Sirifort, Delhi - CPCB",19-12-2025 08:00:00,28.5504249,77.2159377,CO,74,125,116
India,Gujarat,Ahmedabad,"SAC ISRO Bopal, Ahmedabad - IITM",19-12-2025 08:00:00,23.041137,72.456691,NH3,11,16,14
India,Gujarat,Ahmedabad,"SVPI Airport Hansol, Ahmedabad - IITM",19-12-2025 08:00:00,23.076793,72.627874,NO2,38,197,107
India,Gujarat,Ahmedabad,"SVPI Airport Hansol, Ahmedabad - IITM",19-12-2025 08:00:00,23.076793,72.627874,OZONE,2,45,6
India,Haryana,Faridabad,"New Industrial Town, Faridabad - HSPCB",19-12-2025 08:00:00,28.39072,77.30059,CO,10,13,11
India,Haryana,Faridabad,"Sector 11, Faridabad - HSPCB",19-12-2025 08:00:00,28.376058,77.315741,CO,38,79,53
India,Haryana,Hisar,"Urban Estate-II, Hisar - HSPCB",19-12-2025 08:00:00,29.140560,75.744941,NH3,7,8,8
India,Haryana,Hisar,"Urban Estate-II, Hisar - HSPCB",19-12-2025 08:00:00,29.140560,75.744941,OZONE,30,83,32
India,Haryana,Jind,"Police Lines, Jind - HSPCB",19-12-2025 08:00:00,29.307814,76.337619,PM10,66,161,114
India,Haryana,Jind,"Police Lines, Jind - HSPCB",19-12-2025 08:00:00,29.307814,76.337619,CO,40,134,95
India,Haryana,Jind,"Police Lines, Jind - HSPCB",19-12-2025 08:00:00,29.307814,76.337619,OZONE,5,31,12
India,Haryana,Kaithal,"Rishi Nagar, Kaithal - HSPCB",19-12-2025 08:00:00,29.8006,76.4155,PM10,65,154,116
India,Haryana,Kaithal,"Rishi Nagar, Kaithal - HSPCB",19-12-2025 08:00:00,29.8006,76.4155,NH3,1,6,5
India,Haryana,Kaithal,"Rishi Nagar, Kaithal - HSPCB",19-12-2025 08:00:00,29.8006,76.4155,SO2,26,35,31
India,Haryana,Kaithal,"Rishi Nagar, Kaithal - HSPCB",19-12-2025 08:00:00,29.8006,76.4155,OZONE,2,10,4
India,Haryana,Karnal,"Sector-12, Karnal - HSPCB",19-12-2025 08:00:00,29.695300,77.002700,PM2.5,7,388,129
India,Haryana,Kurukshetra,"Sector-7, Kurukshetra - HSPCB",19-12-2025 08:00:00,29.966942,76.875879,PM2.5,98,314,230
India,Karnataka,Bengaluru,"Jayanagar 5th Block, Bengaluru - KSPCB",19-12-2025 08:00:00,12.920984,77.584908,PM10,83,145,114
India,Karnataka,Bengaluru,"Jayanagar 5th Block, Bengaluru - KSPCB",19-12-2025 08:00:00,12.920984,77.584908,NO2,9,42,25
India,Karnataka,Bengaluru,"Jayanagar 5th Block, Bengaluru - KSPCB",19-12-2025 08:00:00,12.920984,77.584908,NH3,1,2,1
India,Karnataka,Bengaluru,"Kasturi Nagar, Bengaluru - KSPCB",19-12-2025 08:00:00,13.003872,77.664217,SO2,9,14,12
India,Karnataka,Bengaluru,"Kasturi Nagar, Bengaluru - KSPCB",19-12-2025 08:00:00,13.003872,77.664217,CO,35,58,45
India,Karnataka,Bengaluru,"Kasturi Nagar, Bengaluru - KSPCB",19-12-2025 08:00:00,13.003872,77.664217,OZONE,20,20,20
India,Karnataka,Bengaluru,"Peenya, Bengaluru - CPCB",19-12-2025 08:00:00,13.0270199,77.494094,OZONE,23,24,24
India,Karnataka,Bengaluru,"RVCE-Mailasandra, Bengaluru - KSPCB",19-12-2025 08:00:00,12.921418,77.502466,PM10,71,164,122
India,Jammu_and_Kashmir,Srinagar,"Khunmoh, Srinagar - JKPCC",19-12-2025 08:00:00,34.06313,74.96017,SO2,1,5,4
India,Jammu_and_Kashmir,Srinagar,"Rajbagh, Srinagar - JKPCC",19-12-2025 08:00:00,34.066206,74.819820,CO,14,28,24
India,Jharkhand,Dhanbad,"Sardar Patel Nagar, Dhanbad - JSPCB",19-12-2025 08:00:00,23.80569,86.44268,OZONE,NA,NA,NA
India,Karnataka,Belgaum,"Ramteerth Nagar, Belgaum - KSPCB",19-12-2025 08:00:00,15.888653,74.541751,NO2,55,139,82
India,Karnataka,Bengaluru,"BTM Layout, Bengaluru - CPCB",19-12-2025 08:00:00,12.9135218,77.5950804,PM2.5,73,127,92
India,Karnataka,Bengaluru,"BTM Layout, Bengaluru - CPCB",19-12-2025 08:00:00,12.9135218,77.5950804,CO,42,54,46
India,Karnataka,Bengaluru,"BTM Layout, Bengaluru - CPCB",19-12-2025 08:00:00,12.9135218,77.5950804,OZONE,21,22,21
India,Karnataka,Bengaluru,"BWSSB Kadabesanahalli, Bengaluru - CPCB",19-12-2025 08:00:00,12.9352049,77.6814488,CO,21,133,24
India,Karnataka,Bengaluru,"City Railway Station, Bengaluru - KSPCB",19-12-2025 08:00:00,12.9756843,77.5660749,CO,86,88,86
India,Karnataka,Bengaluru,"Hebbal, Bengaluru - KSPCB",19-12-2025 08:00:00,13.029152,77.585901,NH3,1,2,1
India,Karnataka,Bengaluru,"Hombegowda Nagar, Bengaluru - KSPCB",19-12-2025 08:00:00,12.938539,77.590100,PM2.5,33,87,58
India,Haryana,Gurugram,"NISE Gwal Pahari, Gurugram - IMD",19-12-2025 08:00:00,28.422681,77.148944,CO,103,128,121
India,Haryana,Gurugram,"Sector-51, Gurugram - HSPCB",19-12-2025 08:00:00,28.4227,77.0667,PM10,119,500,298
India,Haryana,Gurugram,"Sector-51, Gurugram - HSPCB",19-12-2025 08:00:00,28.4227,77.0667,CO,44,62,52
India,Haryana,Gurugram,"Sector-51, Gurugram - HSPCB",19-12-2025 08:00:00,28.4227,77.0667,OZONE,10,46,11
India,Haryana,Gurugram,"Teri Gram, Gurugram - HSPCB",19-12-2025 08:00:00,28.4275,77.1465,PM10,145,404,260
India,Haryana,Gurugram,"Teri Gram, Gurugram - HSPCB",19-12-2025 08:00:00,28.4275,77.1465,NO2,NA,NA,NA
India,Haryana,Mandikhera,"General Hospital, Mandikhera(Nuh) - HSPCB",19-12-2025 08:00:00,27.9002,76.9938,PM2.5,98,316,224
India,Haryana,Mandikhera,"General Hospital, Mandikhera(Nuh) - HSPCB",19-12-2025 08:00:00,27.9002,76.9938,NH3,12,14,13
India,Haryana,Mandikhera,"General Hospital, Mandikhera(Nuh) - HSPCB",19-12-2025 08:00:00,27.9002,76.9938,CO,61,82,73
India,Haryana,Mandikhera,"General Hospital, Mandikhera(Nuh) - HSPCB",19-12-2025 08:00:00,27.9002,76.9938,OZONE,24,29,27
India,Haryana,Manesar,"Sector-2 IMT, Manesar - HSPCB",19-12-2025 08:00:00,28.360699,76.936090,NO2,79,91,84
India,Haryana,Sonipat,"Murthal, Sonipat - HSPCB",19-12-2025 08:00:00,29.027200,77.062100,PM10,116,233,172
India,Haryana,Yamuna Nagar,"Gobind Pura, Yamuna Nagar - HSPCB",19-12-2025 08:00:00,30.1480566,77.2893471,CO,20,92,54
India,Himachal Pradesh,Baddi,"HIMUDA Complex Phase-1, Baddi - HPPCB",19-12-2025 08:00:00,30.943887,76.801991,OZONE,5,85,7
India,Karnataka,Bengaluru,"RVCE-Mailasandra, Bengaluru - KSPCB",19-12-2025 08:00:00,12.921418,77.502466,CO,28,52,37
India,Karnataka,Bengaluru,"Sanegurava Halli, Bengaluru - KSPCB",19-12-2025 08:00:00,12.990328,77.5431385,NO2,19,21,20
India,Karnataka,Bengaluru,"Shivapura_Peenya, Bengaluru - KSPCB",19-12-2025 08:00:00,13.0246342,77.5080115,PM10,92,133,114
India,Karnataka,Bengaluru,"Shivapura_Peenya, Bengaluru - KSPCB",19-12-2025 08:00:00,13.0246342,77.5080115,NH3,4,4,4
India,Haryana,Palwal,"Shyam Nagar, Palwal - HSPCB",19-12-2025 08:00:00,28.1485564,77.3320667,OZONE,10,24,14
India,Haryana,Sirsa,"F-Block, Sirsa - HSPCB",19-12-2025 08:00:00,29.536400,75.015800,NO2,14,26,21
India,Haryana,Sirsa,"F-Block, Sirsa - HSPCB",19-12-2025 08:00:00,29.536400,75.015800,SO2,4,22,13
India,Kerala,Thiruvananthapuram,"Kariavattom, Thiruvananthapuram - Kerala PCB",19-12-2025 08:00:00,8.563700,76.886500,PM2.5,50,243,115
India,Kerala,Thiruvananthapuram,"Kariavattom, Thiruvananthapuram - Kerala PCB",19-12-2025 08:00:00,8.563700,76.886500,CO,37,84,42
India,Kerala,Thrissur,"Corporation Ground, Thrissur - Kerala PCB",19-12-2025 08:00:00,10.532400,76.215900,NO2,7,11,9
India,Kerala,Thrissur,"Corporation Ground, Thrissur - Kerala PCB",19-12-2025 08:00:00,10.532400,76.215900,CO,26,35,33
India,Madhya Pradesh,Bhopal,"Idgah Hills, Bhopal - MPPCB",19-12-2025 08:00:00,23.264759,77.381568,PM2.5,8,213,91
India,Madhya Pradesh,Bhopal,"Idgah Hills, Bhopal - MPPCB",19-12-2025 08:00:00,23.264759,77.381568,CO,23,62,27
India,Madhya Pradesh,Bhopal,"Paryavaran Parisar, Bhopal - MPPCB",19-12-2025 08:00:00,23.210494,77.425409,NO2,28,98,53
India,Madhya Pradesh,Gwalior,"Deen Dayal Nagar, Gwalior - MPPCB",19-12-2025 08:00:00,26.259242,78.216432,NO2,18,59,35
India,Madhya Pradesh,Gwalior,"Maharaj Bada, Gwalior - MPPCB",19-12-2025 08:00:00,26.200388,78.147714,NO2,21,64,43
India,Madhya Pradesh,Gwalior,"Maharaj Bada, Gwalior - MPPCB",19-12-2025 08:00:00,26.200388,78.147714,OZONE,28,59,28
India,Madhya Pradesh,Indore,"Airport Area, Indore - IMC",19-12-2025 08:00:00,22.7289,75.8076,PM10,34,139,79
India,Madhya Pradesh,Indore,"Airport Area, Indore - IMC",19-12-2025 08:00:00,22.7289,75.8076,NO2,1,2,2
India,Madhya Pradesh,Indore,"Airport Area, Indore - IMC",19-12-2025 08:00:00,22.7289,75.8076,SO2,18,30,23
India,Madhya Pradesh,Indore,"Chhoti Gwaltoli, Indore - MPPCB",19-12-2025 08:00:00,22.4310,75.5213,NH3,NA,NA,NA
India,Madhya Pradesh,Indore,"Chhoti Gwaltoli, Indore - MPPCB",19-12-2025 08:00:00,22.4310,75.5213,OZONE,3,64,4
India,Karnataka,Shivamogga,"Vinoba Nagara, Shivamogga - KSPCB",19-12-2025 08:00:00,13.940000,75.555917,PM10,41,60,54
India,Karnataka,Shivamogga,"Vinoba Nagara, Shivamogga - KSPCB",19-12-2025 08:00:00,13.940000,75.555917,NO2,17,26,20
India,Karnataka,Tumakuru,"Thimmalapura, Tumakuru - KSPCB",19-12-2025 08:00:00,13.377516,77.099072,NO2,31,32,32
India,Karnataka,Tumakuru,"Thimmalapura, Tumakuru - KSPCB",19-12-2025 08:00:00,13.377516,77.099072,CO,52,54,54
India,Karnataka,Yadgir,"Collector Office, Yadgir - KSPCB",19-12-2025 08:00:00,16.7602,77.1428,CO,15,44,22
India,Kerala,Kannur,"Thavakkara, Kannur - Kerala PCB",19-12-2025 08:00:00,11.875000,75.373200,PM2.5,52,62,57
India,Kerala,Kannur,"Thavakkara, Kannur - Kerala PCB",19-12-2025 08:00:00,11.875000,75.373200,CO,16,18,16
India,Karnataka,Davanagere,"Devaraj Urs Badavane, Davanagere - KSPCB",19-12-2025 08:00:00,14.475800,75.905200,SO2,1,9,5
India,Karnataka,Haveri,"Ashwini Nagar, Haveri - KSPCB",19-12-2025 08:00:00,14.791800,75.389600,PM2.5,NA,NA,NA
India,Karnataka,Haveri,"Ashwini Nagar, Haveri - KSPCB",19-12-2025 08:00:00,14.791800,75.389600,NH3,NA,NA,NA
India,Karnataka,Kalaburagi,"Lal Bahadur Shastri Nagar, Kalaburagi - KSPCB",19-12-2025 08:00:00,17.321993,76.822628,SO2,NA,NA,NA
India,Karnataka,Kalaburagi,"Mahatma Basaveswar Colony, Kalaburgi - KSPCB",19-12-2025 08:00:00,17.336318,76.847397,PM2.5,17,53,41
India,Karnataka,Kalaburagi,"Mahatma Basaveswar Colony, Kalaburgi - KSPCB",19-12-2025 08:00:00,17.336318,76.847397,PM10,23,69,54
India,Karnataka,Koppal,"Diwator Nagar, Koppal - KSPCB",19-12-2025 08:00:00,15.347630,76.181767,PM10,42,102,71
India,Karnataka,Koppal,"Diwator Nagar, Koppal - KSPCB",19-12-2025 08:00:00,15.347630,76.181767,NO2,31,36,33
India,Karnataka,Koppal,"Diwator Nagar, Koppal - KSPCB",19-12-2025 08:00:00,15.347630,76.181767,CO,16,20,17
India,Karnataka,Madikeri,"Stuart Hill, Madikeri - KSPCB",19-12-2025 08:00:00,12.415911,75.735050,PM10,40,89,65
India,Karnataka,Madikeri,"Stuart Hill, Madikeri - KSPCB",19-12-2025 08:00:00,12.415911,75.735050,OZONE,3,5,4
India,Karnataka,Mysuru,"Hebbal 1st Stage, Mysuru - KSPCB",19-12-2025 08:00:00,12.21041,76.37376,PM2.5,32,88,56
India,Madhya Pradesh,Bhopal,"T T Nagar, Bhopal - MPPCB",19-12-2025 08:00:00,23.233584,77.400574,OZONE,21,203,116
India,Madhya Pradesh,Dewas,"Bhopal Chauraha, Dewas - MPPCB",19-12-2025 08:00:00,22.9682591,76.064118,OZONE,23,27,24
India,Madhya Pradesh,Gwalior,"City Center, Gwalior - MPPCB",19-12-2025 08:00:00,26.203442,78.193251,PM10,84,176,143
India,Madhya Pradesh,Gwalior,"City Center, Gwalior - MPPCB",19-12-2025 08:00:00,26.203442,78.193251,SO2,16,23,18
India,Karnataka,Bengaluru,"Silk Board, Bengaluru - KSPCB",19-12-2025 08:00:00,12.917348,77.622813,NO2,16,33,22
India,Karnataka,Bengaluru,"Silk Board, Bengaluru - KSPCB",19-12-2025 08:00:00,12.917348,77.622813,CO,16,34,29
India,Karnataka,Bengaluru,"Silk Board, Bengaluru - KSPCB",19-12-2025 08:00:00,12.917348,77.622813,OZONE,17,34,22
India,Karnataka,Chikkamagaluru,"Kalyana Nagara, Chikkamagaluru - KSPCB",19-12-2025 08:00:00,13.328028,75.797056,PM2.5,NA,NA,NA
India,Karnataka,Chikkamagaluru,"Kalyana Nagara, Chikkamagaluru - KSPCB",19-12-2025 08:00:00,13.328028,75.797056,OZONE,17,22,22
India,Madhya Pradesh,Indore,"Maguda Nagar, Indore - IMC",19-12-2025 08:00:00,22.7524,75.8872,OZONE,NA,NA,NA
India,Madhya Pradesh,Indore,"Regional Park, Indore - IMC",19-12-2025 08:00:00,22.6780,75.8559,PM2.5,21,148,58
India,Madhya Pradesh,Indore,"Regional Park, Indore - IMC",19-12-2025 08:00:00,22.6780,75.8559,NO2,7,14,10
India,Madhya Pradesh,Indore,"Residency Area, Indore - IMC",19-12-2025 08:00:00,22.7084,75.8815,OZONE,11,17,13
India,Madhya Pradesh,Gwalior,"Deen Dayal Nagar, Gwalior - MPPCB",19-12-2025 08:00:00,26.259242,78.216432,PM2.5,119,353,286
India,Maharashtra,Ahmednagar,"Tarakpur, Ahmednagar - MPCB",19-12-2025 08:00:00,19.10122,74.73339,NO2,13,23,16
India,Maharashtra,Ahmednagar,"Tarakpur, Ahmednagar - MPCB",19-12-2025 08:00:00,19.10122,74.73339,NH3,1,75,17
India,Maharashtra,Amravati,"Shivneri Colony, Amravati - MPCB",19-12-2025 08:00:00,20.9402359,77.7895248,PM10,32,109,61
India,Maharashtra,Amravati,"Shivneri Colony, Amravati - MPCB",19-12-2025 08:00:00,20.9402359,77.7895248,SO2,17,46,22
India,Maharashtra,Amravati,"Shri Shivaji Science College, Amravati - MPCB",19-12-2025 08:00:00,20.939198,77.765701,PM2.5,NA,NA,NA
India,Maharashtra,Amravati,"Shri Shivaji Science College, Amravati - MPCB",19-12-2025 08:00:00,20.939198,77.765701,SO2,6,75,15
India,Maharashtra,Aurangabad,"MIDC Chilkalthana, Aurangabad - MPCB",19-12-2025 08:00:00,19.875620,75.387310,NO2,26,115,52
India,Maharashtra,Belapur,"CBD Belapur, Belapur - MPCB",19-12-2025 08:00:00,19.0243902,73.0406721,CO,12,58,46
India,Maharashtra,Belapur,"CBD Belapur, Belapur - MPCB",19-12-2025 08:00:00,19.0243902,73.0406721,OZONE,7,84,7
India,Maharashtra,Bhiwandi,"Gokul Nagar, Bhiwandi - MPCB",19-12-2025 08:00:00,19.309073,73.057223,PM2.5,64,222,153
India,Maharashtra,Bhiwandi,"Gokul Nagar, Bhiwandi - MPCB",19-12-2025 08:00:00,19.309073,73.057223,PM10,99,201,150
India,Maharashtra,Bhiwandi,"Gokul Nagar, Bhiwandi - MPCB",19-12-2025 08:00:00,19.309073,73.057223,NH3,4,8,5
India,Madhya Pradesh,Sagar,"Deen Dayal Nagar, Sagar - MPPCB",19-12-2025 08:00:00,23.8640158,78.80289321,NO2,6,61,34
India,Madhya Pradesh,Satna,"Bandhavgar Colony, Satna - Birla Cement",19-12-2025 08:00:00,24.58434363,80.8549414,NO2,12,13,13
India,Madhya Pradesh,Singrauli,"Suryakiran Bhawan NCL, Singrauli - MPPCB",19-12-2025 08:00:00,24.108970,82.645580,SO2,1,28,21
India,Maharashtra,Aurangabad,"Rachnakar Colony, Aurangabad - MPCB",19-12-2025 08:00:00,19.863756,75.321188,PM2.5,78,303,182
India,Maharashtra,Aurangabad,"Rachnakar Colony, Aurangabad - MPCB",19-12-2025 08:00:00,19.863756,75.321188,PM10,78,203,138
India,Maharashtra,Badlapur,"Katrap, Badlapur - MPCB",19-12-2025 08:00:00,19.16485,73.23409,PM10,81,180,130
India,Maharashtra,Badlapur,"Katrap, Badlapur - MPCB",19-12-2025 08:00:00,19.16485,73.23409,SO2,4,16,10
India,Madhya Pradesh,Jabalpur,"Marhatal, Jabalpur - MPPCB",19-12-2025 08:00:00,23.168606,79.932247,PM2.5,33,233,101
India,Madhya Pradesh,Jabalpur,"Marhatal, Jabalpur - MPPCB",19-12-2025 08:00:00,23.168606,79.932247,NO2,16,55,29
India,Madhya Pradesh,Jabalpur,"Marhatal, Jabalpur - MPPCB",19-12-2025 08:00:00,23.168606,79.932247,OZONE,8,114,14
India,Madhya Pradesh,Jabalpur,"Suhagi, Jabalpur - JMC",19-12-2025 08:00:00,23.218135,79.957770,PM2.5,13,108,54
India,Maharashtra,Jalgaon,"Prabhat Colony, Jalgaon - MPCB",19-12-2025 08:00:00,21.001264,75.565602,SO2,NA,NA,NA
India,Maharashtra,Jalgaon,"Prabhat Colony, Jalgaon - MPCB",19-12-2025 08:00:00,21.001264,75.565602,OZONE,3,87,10
India,Maharashtra,Jalna,"Old MIDC, Jalna - MPCB",19-12-2025 08:00:00,19.854616,75.905894,NH3,2,5,3
India,Madhya Pradesh,Katni,"Gole Bazar, Katni - MPPCB",19-12-2025 08:00:00,23.50016,80.23284,SO2,11,33,22
India,Madhya Pradesh,Mandideep,"Sector-D Industrial Area, Mandideep - MPPCB",19-12-2025 08:00:00,23.108440,77.511428,SO2,26,119,57
India,Maharashtra,Belapur,"CBD Belapur, Belapur - MPCB",19-12-2025 08:00:00,19.0243902,73.0406721,PM2.5,13,48,38
India,Maharashtra,Belapur,"CBD Belapur, Belapur - MPCB",19-12-2025 08:00:00,19.0243902,73.0406721,NH3,1,2,1
India,Maharashtra,Chandrapur,"MIDC Khutala, Chandrapur - MPCB",19-12-2025 08:00:00,19.9775302,79.2337086,NO2,13,45,26
India,Maharashtra,Chandrapur,"MIDC Khutala, Chandrapur - MPCB",19-12-2025 08:00:00,19.9775302,79.2337086,CO,36,40,38
India,Maharashtra,Kalyan,"Khadakpada, Kalyan - MPCB",19-12-2025 08:00:00,19.25292,73.142019,NH3,1,1,1
India,Maharashtra,Kalyan,"Khadakpada, Kalyan - MPCB",19-12-2025 08:00:00,19.25292,73.142019,OZONE,8,9,9
India,Maharashtra,Kalyan,"Pimpleshwar Mandir, Kalyan - MPCB",19-12-2025 08:00:00,19.192056,72.9585188,PM10,NA,NA,NA
India,Maharashtra,Kalyan,"Pimpleshwar Mandir, Kalyan - MPCB",19-12-2025 08:00:00,19.192056,72.9585188,NO2,NA,NA,NA
India,Maharashtra,Kalyan,"Pimpleshwar Mandir, Kalyan - MPCB",19-12-2025 08:00:00,19.192056,72.9585188,NH3,NA,NA,NA
India,Maharashtra,Kolhapur,"Shivaji University, Kolhapur - MPCB",19-12-2025 08:00:00,16.6870449,74.2505872,NO2,10,64,28
India,Maharashtra,Kolhapur,"Shivaji University, Kolhapur - MPCB",19-12-2025 08:00:00,16.6870449,74.2505872,CO,18,60,37
India,Maharashtra,Kolhapur,"Sinchan Bhavan, Kolhapur - MPCB",19-12-2025 08:00:00,16.7143745,74.2426398,NH3,5,20,11
India,Maharashtra,Kolhapur,"Sinchan Bhavan, Kolhapur - MPCB",19-12-2025 08:00:00,16.7143745,74.2426398,SO2,2,9,5
India,Maharashtra,Kolhapur,"Sinchan Bhavan, Kolhapur - MPCB",19-12-2025 08:00:00,16.7143745,74.2426398,OZONE,1,43,13
India,Maharashtra,Mumbai,"Ghatkopar, Mumbai - BMC",19-12-2025 08:00:00,19.083694,72.920967,NO2,32,153,67
India,Maharashtra,Mumbai,"Kandivali West, Mumbai - BMC",19-12-2025 08:00:00,19.215859,72.831718,NO2,16,72,36
India,Maharashtra,Mumbai,"Kandivali West, Mumbai - BMC",19-12-2025 08:00:00,19.215859,72.831718,SO2,3,7,5
India,Maharashtra,Mumbai,"Kandivali West, Mumbai - BMC",19-12-2025 08:00:00,19.215859,72.831718,OZONE,1,125,2
India,Maharashtra,Mumbai,"Kherwadi_Bandra East, Mumbai - MPCB",19-12-2025 08:00:00,19.0632143,72.8456324,NO2,1,75,29
India,Maharashtra,Mumbai,"Kherwadi_Bandra East, Mumbai - MPCB",19-12-2025 08:00:00,19.0632143,72.8456324,CO,5,47,33
India,Maharashtra,Mumbai,"Siddharth Nagar-Worli, Mumbai - IITM",19-12-2025 08:00:00,19.000083,72.813993,PM2.5,NA,NA,NA
India,Maharashtra,Mumbai,"Siddharth Nagar-Worli, Mumbai - IITM",19-12-2025 08:00:00,19.000083,72.813993,PM10,103,161,130
India,Maharashtra,Mumbai,"Sion, Mumbai - MPCB",19-12-2025 08:00:00,19.047000,72.874600,NH3,NA,NA,NA
India,Maharashtra,Mumbai,"Vile Parle West, Mumbai - MPCB",19-12-2025 08:00:00,19.10861,72.83622,PM10,NA,NA,NA
India,Maharashtra,Mumbai,"Worli, Mumbai - MPCB",19-12-2025 08:00:00,18.9936162,72.8128113,PM2.5,95,303,190
India,Maharashtra,Latur,"Sawe Wadi, Latur - MPCB",19-12-2025 08:00:00,18.39963,76.57452,PM10,69,125,100
India,Maharashtra,Mahad,"Kamble Tarf Birwadi, Mahad - MPCB",19-12-2025 08:00:00,18.1023399,73.4783687,PM2.5,71,146,99
India,Maharashtra,Mira-Bhayandar,"Bhayandar West, Mira-Bhayandar - MPCB",19-12-2025 08:00:00,19.296481,72.840923,PM10,84,139,114
India,Maharashtra,Mira-Bhayandar,"Bhayandar West, Mira-Bhayandar - MPCB",19-12-2025 08:00:00,19.296481,72.840923,SO2,4,4,4
India,Maharashtra,Mumbai,"Byculla, Mumbai - BMC",19-12-2025 08:00:00,18.9767,72.8380,NO2,NA,NA,NA
India,Maharashtra,Mumbai,"Byculla, Mumbai - BMC",19-12-2025 08:00:00,18.9767,72.8380,CO,3,26,17
India,Maharashtra,Mumbai,"Chakala-Andheri East, Mumbai - IITM",19-12-2025 08:00:00,19.11074,72.86084,SO2,3,25,15
India,Maharashtra,Mumbai,"Chembur, Mumbai - MPCB",19-12-2025 08:00:00,19.0364585,72.8954371,CO,27,85,43
India,Maharashtra,Mumbai,"Mulund West, Mumbai - MPCB",19-12-2025 08:00:00,19.1750,72.9419,PM2.5,40,86,66
India,Maharashtra,Mumbai,"Navy Nagar-Colaba, Mumbai - IITM",19-12-2025 08:00:00,18.897756,72.813320,PM10,108,187,143
India,Maharashtra,Mumbai,"Sewri, Mumbai - BMC",19-12-2025 08:00:00,19.000084,72.856730,SO2,NA,NA,NA
India,Maharashtra,Nagpur,"Mahal, Nagpur - MPCB",19-12-2025 08:00:00,21.14472,79.107595,PM10,46,315,112
India,Maharashtra,Nagpur,"Opp GPO Civil Lines, Nagpur - MPCB",19-12-2025 08:00:00,21.152875,79.0517531,SO2,1,127,31
India,Maharashtra,Nagpur,"Ram Nagar, Nagpur - MPCB",19-12-2025 08:00:00,21.143383,79.048912,SO2,25,131,47
India,Maharashtra,Mumbai,"Bandra Kurla Complex, Mumbai - MPCB",19-12-2025 08:00:00,19.065931,72.862131,PM10,102,171,132
India,Maharashtra,Mumbai,"Kurla, Mumbai - MPCB",19-12-2025 08:00:00,19.0863,72.8888,PM10,NA,NA,NA
India,Meghalaya,Shillong,"JN Stadium, Shillong - Meghalaya PCB",19-12-2025 08:00:00,25.5803419,91.8942571,PM10,NA,NA,NA
India,Meghalaya,Shillong,"JN Stadium, Shillong - Meghalaya PCB",19-12-2025 08:00:00,25.5803419,91.8942571,NH3,15,29,21
India,Meghalaya,Shillong,"Lumpyngngad, Shillong - Meghalaya PCB",19-12-2025 08:00:00,25.5586,91.8985,SO2,6,11,8
India,Meghalaya,Shillong,"Lumpyngngad, Shillong - Meghalaya PCB",19-12-2025 08:00:00,25.5586,91.8985,OZONE,1,10,4
India,Mizoram,Aizawl,"Sikulpuikawn, Aizawl - Mizoram PCB",19-12-2025 08:00:00,23.7176342,92.7192841,CO,3,3,3
India,Nagaland,Kohima,"PWD Junction, Kohima - NPCB",19-12-2025 08:00:00,25.6635413,94.0989878,PM2.5,16,66,35
India,Nagaland,Kohima,"PWD Junction, Kohima - NPCB",19-12-2025 08:00:00,25.6635413,94.0989878,PM10,13,55,28
India,Nagaland,Kohima,"PWD Junction, Kohima - NPCB",19-12-2025 08:00:00,25.6635413,94.0989878,NH3,1,1,1
India,Maharashtra,Navi Mumbai,"Sector-2E Kalamboli, Navi Mumbai - MPCB",19-12-2025 08:00:00,19.02579,73.10297,NH3,7,25,14
India,Maharashtra,Navi Mumbai,"Sector-2E Kalamboli, Navi Mumbai - MPCB",19-12-2025 08:00:00,19.02579,73.10297,OZONE,10,19,10
India,Maharashtra,Navi Mumbai,"Tondare-Taloja, Navi Mumbai - MPCB",19-12-2025 08:00:00,19.0630,73.1209,PM2.5,49,231,151
India,Maharashtra,Navi Mumbai,"Tondare-Taloja, Navi Mumbai - MPCB",19-12-2025 08:00:00,19.0630,73.1209,PM10,NA,NA,NA
India,Maharashtra,Navi Mumbai,"Tondare-Taloja, Navi Mumbai - MPCB",19-12-2025 08:00:00,19.0630,73.1209,NH3,3,11,8
India,Maharashtra,Pimpri-Chinchwad,"Park Street Wakad, Pimpri Chinchwad - MPCB",19-12-2025 08:00:00,18.59051,73.77946,PM2.5,31,318,145
India,Maharashtra,Pimpri-Chinchwad,"Park Street Wakad, Pimpri Chinchwad - MPCB",19-12-2025 08:00:00,18.59051,73.77946,PM10,78,369,183
India,Maharashtra,Solapur,"Ratandeep Housing Society, Solapur - MPCB",19-12-2025 08:00:00,17.65439,75.90649,CO,16,79,33
India,Maharashtra,Thane,"Kasarvadavali, Thane - MPCB",19-12-2025 08:00:00,19.26777,72.97182,NH3,2,29,8
India,Maharashtra,Thane,"Kasarvadavali, Thane - MPCB",19-12-2025 08:00:00,19.26777,72.97182,CO,8,78,42
India,Maharashtra,Thane,"Upvan Fort, Thane - MPCB",19-12-2025 08:00:00,19.222279,72.957979,NH3,3,3,3
India,Maharashtra,Thane,"Upvan Fort, Thane - MPCB",19-12-2025 08:00:00,19.222279,72.957979,OZONE,10,110,27
India,Maharashtra,Ulhasnagar,"Sidhi Vinayak Nagar, Ulhasnagar - MPCB",19-12-2025 08:00:00,19.235581,73.159121,PM2.5,75,328,156
India,Maharashtra,Pimpri-Chinchwad,"Savta Mali Nagar, Pimpri-Chinchwad - IITM",19-12-2025 08:00:00,18.614767,73.799516,CO,2,116,102
India,Maharashtra,Pimpri-Chinchwad,"Thergaon, Pimpri Chinchwad - MPCB",19-12-2025 08:00:00,18.616318,73.765797,PM2.5,38,358,229
India,Maharashtra,Pimpri-Chinchwad,"Thergaon, Pimpri Chinchwad - MPCB",19-12-2025 08:00:00,18.616318,73.765797,PM10,110,413,220
India,Maharashtra,Pune,"Bhumkar Nagar, Pune - IITM",19-12-2025 08:00:00,18.605770,73.749976,PM2.5,227,366,308
India,Maharashtra,Pune,"Bhumkar Nagar, Pune - IITM",19-12-2025 08:00:00,18.605770,73.749976,CO,8,154,154
India,Maharashtra,Pune,"Bhumkar Nagar, Pune - IITM",19-12-2025 08:00:00,18.605770,73.749976,OZONE,1,74,3
India,Maharashtra,Pune,"Savitribai Phule Pune University, Pune - MPCB",19-12-2025 08:00:00,18.547056,73.826908,NH3,1,16,7
India,Maharashtra,Pune,"Savitribai Phule Pune University, Pune - MPCB",19-12-2025 08:00:00,18.547056,73.826908,CO,6,141,98
India,Maharashtra,Pune,"Transport Nagar-Nigdi, Pune - IITM",19-12-2025 08:00:00,18.664282,73.763966,CO,20,106,88
India,Maharashtra,Solapur,"Dnyaneshwar Nagar, Solapur - MPCB",19-12-2025 08:00:00,17.6336264,75.9132495,PM2.5,62,236,109
India,Maharashtra,Nashik,"Pandav Nagari, Nashik - MPCB",19-12-2025 08:00:00,19.9591346,73.7788008,OZONE,1,61,13
India,Maharashtra,Navi Mumbai,"Mahape, Navi Mumbai - MPCB",19-12-2025 08:00:00,19.1135051,73.008978,NH3,3,3,3
India,Maharashtra,Navi Mumbai,"Nerul, Navi Mumbai - MPCB",19-12-2025 08:00:00,19.008751,73.016620,NO2,36,39,38
India,Maharashtra,Navi Mumbai,"Sanpada, Navi Mumbai - MPCB",19-12-2025 08:00:00,19.0575752,73.0151367,SO2,10,25,13
India,Maharashtra,Pune,"Dhankawadi, Pune - IITM",19-12-2025 08:00:00,18.459883,73.852193,PM10,72,191,142
India,Maharashtra,Pune,"Hadapsar, Pune - IITM",19-12-2025 08:00:00,18.501793,73.927532,NO2,21,56,37
India,Maharashtra,Pune,"Panchawati_Pashan, Pune - IITM",19-12-2025 08:00:00,18.536457,73.805454,NO2,16,58,31
India,Maharashtra,Nashik,"Gangapur Road, Nashik - MPCB",19-12-2025 08:00:00,20.0073285,73.7762427,NH3,3,3,3
India,Maharashtra,Nashik,"MIDC Ambad, Nashik - MPCB",19-12-2025 08:00:00,19.950220,73.731480,SO2,13,23,17
India,Maharashtra,Nashik,"MIDC Ambad, Nashik - MPCB",19-12-2025 08:00:00,19.950220,73.731480,OZONE,15,62,29
India,Maharashtra,Nanded,"Sneh Nagar, Nanded - MPCB",19-12-2025 08:00:00,19.173852,77.296291,PM10,99,168,132
India,Maharashtra,Nanded,"Sneh Nagar, Nanded - MPCB",19-12-2025 08:00:00,19.173852,77.296291,CO,20,24,23
India,Odisha,Angul,"Hakimapada, Angul - OSPCB",19-12-2025 08:00:00,20.832874,85.104082,NH3,9,15,12
India,Odisha,Balasore,"Kalidaspur, Balasore - OSPCB",19-12-2025 08:00:00,21.51161,86.89088,SO2,7,24,12
India,Odisha,Balasore,"Kalidaspur, Balasore - OSPCB",19-12-2025 08:00:00,21.51161,86.89088,CO,16,74,49
India,Odisha,Barbil,"Forest Office, Barbil - OSPCB",19-12-2025 08:00:00,22.1166054,85.3945546,NH3,1,4,2
India,Odisha,Barbil,"Forest Office, Barbil - OSPCB",19-12-2025 08:00:00,22.1166054,85.3945546,OZONE,2,64,4
India,Odisha,Baripada,"Meher Colony, Baripada - OSPCB",19-12-2025 08:00:00,21.941841,86.728318,PM10,NA,NA,NA
India,Odisha,Baripada,"Meher Colony, Baripada - OSPCB",19-12-2025 08:00:00,21.941841,86.728318,NH3,NA,NA,NA
India,Odisha,Baripada,"Meher Colony, Baripada - OSPCB",19-12-2025 08:00:00,21.941841,86.728318,SO2,NA,NA,NA
India,Odisha,Rourkela,"Raghunathpali, Rourkela - OSPCB",19-12-2025 08:00:00,22.220833,84.809444,OZONE,2,12,4
India,Odisha,Suakati,"OMC Colony, Suakati - OSPCB",19-12-2025 08:00:00,21.606865,85.510538,SO2,4,6,5
India,Odisha,Tensa,"Barsua Iron Ore Mines, Tensa - OSPCB",19-12-2025 08:00:00,21.869985,85.167016,NO2,NA,NA,NA
India,Odisha,Tensa,"Barsua Iron Ore Mines, Tensa - OSPCB",19-12-2025 08:00:00,21.869985,85.167016,NH3,NA,NA,NA
India,Odisha,Tensa,"Barsua Iron Ore Mines, Tensa - OSPCB",19-12-2025 08:00:00,21.869985,85.167016,CO,50,64,52
India,Puducherry,Puducherry,"Jawahar Nagar, Puducherry - PPCC",19-12-2025 08:00:00,11.9309,79.8027,PM2.5,59,216,120
India,Rajasthan,Banswara,"Rati Talai, Banswara - RSPCB",19-12-2025 08:00:00,23.555190,74.440010,SO2,1,21,7
India,Rajasthan,Banswara,"Rati Talai, Banswara - RSPCB",19-12-2025 08:00:00,23.555190,74.440010,OZONE,3,136,56
India,Rajasthan,Baran,"Bamboliya, Baran - RSPCB",19-12-2025 08:00:00,25.106006,76.469948,PM10,62,210,105
India,Rajasthan,Barmer,"Railway Colony, Barmer - RSPCB",19-12-2025 08:00:00,25.747299,71.393989,NO2,10,116,44
India,Rajasthan,Barmer,"Railway Colony, Barmer - RSPCB",19-12-2025 08:00:00,25.747299,71.393989,SO2,5,19,9
India,Rajasthan,Bharatpur,"Krishna Nagar, Bharatpur - RSPCB",19-12-2025 08:00:00,27.215415,77.50873,PM2.5,92,217,142
India,Puducherry,Puducherry,"Jawahar Nagar, Puducherry - PPCC",19-12-2025 08:00:00,11.9309,79.8027,OZONE,34,77,47
India,Punjab,Bathinda,"Hardev Nagar, Bathinda - PPCB",19-12-2025 08:00:00,30.233011,74.907758,CO,59,80,76
India,Punjab,Jalandhar,"Civil Line, Jalandhar - PPCB",19-12-2025 08:00:00,31.321907,75.578914,NO2,31,35,33
India,Punjab,Jalandhar,"Civil Line, Jalandhar - PPCB",19-12-2025 08:00:00,31.321907,75.578914,NH3,3,4,4
India,Punjab,Jalandhar,"Civil Line, Jalandhar - PPCB",19-12-2025 08:00:00,31.321907,75.578914,CO,62,71,68
India,Punjab,Ludhiana,"Punjab Agricultural University, Ludhiana - PPCB",19-12-2025 08:00:00,30.9028,75.8086,PM10,95,136,108
India,Punjab,Ludhiana,"Punjab Agricultural University, Ludhiana - PPCB",19-12-2025 08:00:00,30.9028,75.8086,SO2,2,28,16
India,Punjab,Ludhiana,"Punjab Agricultural University, Ludhiana - PPCB",19-12-2025 08:00:00,30.9028,75.8086,CO,6,90,52
India,Punjab,Mandi Gobindgarh,"RIMT University, Mandi Gobindgarh - PPCB",19-12-2025 08:00:00,30.649961,76.331442,PM2.5,NA,NA,NA
India,Punjab,Mandi Gobindgarh,"RIMT University, Mandi Gobindgarh - PPCB",19-12-2025 08:00:00,30.649961,76.331442,NO2,NA,NA,NA
India,Odisha,Brajrajnagar,"GM Office, Brajrajnagar - OSPCB",19-12-2025 08:00:00,21.8004996,83.8396977,OZONE,26,30,28
India,Odisha,Cuttack,"CDA Area, Cuttack - OSPCB",19-12-2025 08:00:00,20.48891     ,85.84768     ,PM2.5,157,355,254
India,Odisha,Cuttack,"CDA Area, Cuttack - OSPCB",19-12-2025 08:00:00,20.48891     ,85.84768     ,PM10,136,378,192
India,Odisha,Cuttack,"CDA Area, Cuttack - OSPCB",19-12-2025 08:00:00,20.48891     ,85.84768     ,OZONE,3,177,17
India,Odisha,Keonjhar,"Jagamohanpur, Keonjhar - OSPCB",19-12-2025 08:00:00,21.643900,85.599355,NH3,9,28,14
India,Odisha,Rairangpur,"Divisional Forest Office, Rairangpur - OSPCB",19-12-2025 08:00:00,22.265816,86.174829,PM2.5,45,65,51
India,Odisha,Rairangpur,"Divisional Forest Office, Rairangpur - OSPCB",19-12-2025 08:00:00,22.265816,86.174829,NO2,11,11,11
India,Odisha,Rairangpur,"Divisional Forest Office, Rairangpur - OSPCB",19-12-2025 08:00:00,22.265816,86.174829,SO2,1,50,10
India,Odisha,Bhubaneswar,"Lingraj Mandir, Bhubaneswar - OSPCB",19-12-2025 08:00:00,20.240790,85.836784,CO,8,122,61
India,Odisha,Bhubaneswar,"Patia, Bhubaneswar - OSPCB",19-12-2025 08:00:00,20.34652,85.81630,CO,25,128,79
India,Odisha,Bileipada,"Tata Township, Bileipada - OSPCB",19-12-2025 08:00:00,22.06156703,85.47409613,SO2,9,11,10
India,Punjab,Patiala,"Model Town, Patiala - PPCB",19-12-2025 08:00:00,30.349388,76.366642,CO,13,49,36
India,Rajasthan,Ajmer,"Civil Lines,  Ajmer - RSPCB",19-12-2025 08:00:00,26.470859,74.646594,SO2,15,26,20
India,Rajasthan,Alwar,"Moti Doongri, Alwar - RSPCB",19-12-2025 08:00:00,27.554793,76.611536,NO2,43,82,67
India,Rajasthan,Jaipur,"Sector-2 Murlipura, Jaipur - RSPCB",19-12-2025 08:00:00,26.960669,75.771817,CO,16,112,44
India,Rajasthan,Jaipur,"Shastri Nagar, Jaipur - RSPCB",19-12-2025 08:00:00,26.9502929,75.730943,CO,1,169,66
India,Rajasthan,Jaisalmer,"Sadar Bazar, Jaisalmer - RSPCB",19-12-2025 08:00:00,26.912329,70.909168,OZONE,1,106,3
India,Rajasthan,Jalore,"Mudtra Sili, Jalore - RSPCB",19-12-2025 08:00:00,25.344694,72.626208,NO2,21,133,63
India,Rajasthan,Jalore,"Mudtra Sili, Jalore - RSPCB",19-12-2025 08:00:00,25.344694,72.626208,NH3,4,9,6
India,Rajasthan,Jalore,"Mudtra Sili, Jalore - RSPCB",19-12-2025 08:00:00,25.344694,72.626208,OZONE,4,105,9
India,Rajasthan,Jhalawar,"Rajlaxmi Nagar, Jhalawar - RSPCB",19-12-2025 08:00:00,24.588397,76.172782,PM10,51,179,96
India,Rajasthan,Jhunjhunu,"Indra Nagar, Jhunjhunu - RSPCB",19-12-2025 08:00:00,28.108988,75.386577,PM2.5,29,232,105
India,Rajasthan,Jaipur,"Mansarovar Sector-12, Jaipur - RSPCB",19-12-2025 08:00:00,26.843698,75.766894,NH3,12,54,19
India,Rajasthan,Jaipur,"Mansarovar Sector-12, Jaipur - RSPCB",19-12-2025 08:00:00,26.843698,75.766894,SO2,3,10,6
India,Rajasthan,Jaipur,"Police Commissionerate, Jaipur - RSPCB",19-12-2025 08:00:00,26.9164092,75.7994901,NH3,5,62,18
India,Rajasthan,Jaipur,"RIICO Sitapura, Jaipur - RSPCB",19-12-2025 08:00:00,26.786682,75.827928,PM10,84,481,181
India,Rajasthan,Jaipur,"RIICO Sitapura, Jaipur - RSPCB",19-12-2025 08:00:00,26.786682,75.827928,OZONE,21,55,43
India,Rajasthan,Jaipur,"Sector-2 Murlipura, Jaipur - RSPCB",19-12-2025 08:00:00,26.960669,75.771817,PM2.5,28,358,176
India,Rajasthan,Jaipur,"Sector-2 Murlipura, Jaipur - RSPCB",19-12-2025 08:00:00,26.960669,75.771817,PM10,50,286,154
India,Rajasthan,Jodhpur,"Samrat Ashok Udhyan, Jodhpur - RSPCB",19-12-2025 08:00:00,26.253384,72.976571,NO2,18,108,56
India,Rajasthan,Karauli,"Satyawati Vihar, Karauli - RSPCB",19-12-2025 08:00:00,26.506177,77.025989,PM2.5,26,313,112
India,Rajasthan,Karauli,"Satyawati Vihar, Karauli - RSPCB",19-12-2025 08:00:00,26.506177,77.025989,SO2,3,13,7
India,Rajasthan,Kota,"Dhanmandi, Kota - RSPCB",19-12-2025 08:00:00,25.164090,75.858137,PM2.5,82,395,224
India,Rajasthan,Kota,"Dhanmandi, Kota - RSPCB",19-12-2025 08:00:00,25.164090,75.858137,CO,16,153,47
India,Rajasthan,Kota,"Nayapura, Kota - RSPCB",19-12-2025 08:00:00,25.196024,75.855668,PM2.5,62,334,173
India,Rajasthan,Chittorgarh,"Shastri Nagar, Chittorgarh - RSPCB",19-12-2025 08:00:00,24.892047,74.623527,NH3,NA,NA,NA
India,Rajasthan,Chittorgarh,"Shastri Nagar, Chittorgarh - RSPCB",19-12-2025 08:00:00,24.892047,74.623527,CO,20,90,26
India,Rajasthan,Churu,"Subash Chowk, Churu - RSPCB",19-12-2025 08:00:00,28.296139,74.961696,OZONE,5,110,9
India,Rajasthan,Dausa,"Khatikan Mohalla, Dausa - RSPCB",19-12-2025 08:00:00,26.895552,76.334753,PM10,48,297,120
India,Rajasthan,Dungarpur,"Bhoiwada, Dungarpur - RSPCB",19-12-2025 08:00:00,23.837789,73.714926,NH3,3,14,5
India,Rajasthan,Pali,"Indira Colony Vistar, Pali - RSPCB",19-12-2025 08:00:00,25.771061, 73.340227,CO,24,108,68
India,Rajasthan,Pratapgarh,"Pragati Nagar, Pratapgarh - RSPCB",19-12-2025 08:00:00,24.041198,74.780702,PM2.5,50,250,105
India,Rajasthan,Rajsamand,"Dhoinda, Rajsamand - RSPCB",19-12-2025 08:00:00,25.036360,73.883502,PM10,29,407,92
India,Rajasthan,Rajsamand,"Dhoinda, Rajsamand - RSPCB",19-12-2025 08:00:00,25.036360,73.883502,SO2,1,40,9
India,Rajasthan,Nagaur,"Karni Colony, Nagaur - RSPCB",19-12-2025 08:00:00,27.213494,73.734444,NH3,7,18,13
India,Rajasthan,Nagaur,"Karni Colony, Nagaur - RSPCB",19-12-2025 08:00:00,27.213494,73.734444,CO,20,99,35
India,Rajasthan,Pali,"Indira Colony Vistar, Pali - RSPCB",19-12-2025 08:00:00,25.771061, 73.340227,PM2.5,72,255,131
India,Rajasthan,Bikaner,"MM Ground, Bikaner - RSPCB",19-12-2025 08:00:00,28.018792,73.292658,NO2,19,140,77
India,Rajasthan,Bikaner,"MM Ground, Bikaner - RSPCB",19-12-2025 08:00:00,28.018792,73.292658,OZONE,2,114,7
India,Rajasthan,Bundi,"New Colony, Bundi - RSPCB",19-12-2025 08:00:00,25.435774,75.644272,NH3,2,8,4
India,Rajasthan,Jodhpur,"Digari Kalan, Jodhpur - RSPCB",19-12-2025 08:00:00,26.295810,73.082283,PM2.5,8,203,71
India,Rajasthan,Jodhpur,"Digari Kalan, Jodhpur - RSPCB",19-12-2025 08:00:00,26.295810,73.082283,PM10,36,329,125
India,Rajasthan,Jodhpur,"Digari Kalan, Jodhpur - RSPCB",19-12-2025 08:00:00,26.295810,73.082283,NO2,5,90,39
India,Rajasthan,Jaipur,"Adarsh Nagar, Jaipur - RSPCB",19-12-2025 08:00:00,26.902909,75.836858,CO,44,110,54
India,TamilNadu,Nagapattinam,"Velippalayam, Nagapattinam - TNPCB",19-12-2025 08:00:00,10.798548,79.838212,NH3,NA,NA,NA
India,TamilNadu,Perundurai,"SIPCOT Industrial Park, Perundurai - TNPCB",19-12-2025 08:00:00,11.258242,77.552761,PM10,44,161,89
India,TamilNadu,Perundurai,"SIPCOT Industrial Park, Perundurai - TNPCB",19-12-2025 08:00:00,11.258242,77.552761,SO2,12,13,13
India,TamilNadu,Thoothukudi,"Meelavittan, Thoothukudi - TNPCB",19-12-2025 08:00:00,8.816428 ,78.099039,OZONE,1,13,2
India,TamilNadu,Tirunelveli,"Municipal Corporation Office, Tirunelveli - TNPCB",19-12-2025 08:00:00,8.728442,77.6962,SO2,NA,NA,NA
India,TamilNadu,Tirunelveli,"Municipal Corporation Office, Tirunelveli - TNPCB",19-12-2025 08:00:00,8.728442,77.6962,OZONE,6,7,6
India,TamilNadu,Tirupur,"Kumaran College, Tirupur - TNPCB",19-12-2025 08:00:00,11.0973603,77.3228673,SO2,NA,NA,NA
India,Rajasthan,Sawai Madhopur,"Sahu Nagar, Sawai Madhopur - RSPCB",19-12-2025 08:00:00,26.031443,76.359327,NH3,7,10,9
India,Rajasthan,Sawai Madhopur,"Sahu Nagar, Sawai Madhopur - RSPCB",19-12-2025 08:00:00,26.031443,76.359327,SO2,1,18,5
India,Rajasthan,Sikar,"Radhakishan Pura, Sikar - RSPCB",19-12-2025 08:00:00,27.608912,75.153302,NO2,18,117,55
India,Rajasthan,Sirohi,"Vedhaynath Colony, Sirohi - RSPCB",19-12-2025 08:00:00,24.885261,72.857549,PM2.5,18,320,75
India,Rajasthan,Sri Ganganagar,"Old City, Sri Ganganagar - RSPCB",19-12-2025 08:00:00,29.931624,73.864511,PM2.5,44,176,89
India,Rajasthan,Sri Ganganagar,"Old City, Sri Ganganagar - RSPCB",19-12-2025 08:00:00,29.931624,73.864511,NH3,2,27,10
India,Rajasthan,Sri Ganganagar,"Old City, Sri Ganganagar - RSPCB",19-12-2025 08:00:00,29.931624,73.864511,OZONE,1,105,2
India,TamilNadu,Coimbatore,"SIDCO Kurichi, Coimbatore - TNPCB",19-12-2025 08:00:00,10.942451,76.978996,NH3,1,4,2
India,TamilNadu,Coimbatore,"SIDCO Kurichi, Coimbatore - TNPCB",19-12-2025 08:00:00,10.942451,76.978996,CO,20,44,36
India,TamilNadu,Cuddalore,"Kudikadu, Cuddalore - TNPCB",19-12-2025 08:00:00,11.6829898,79.7532099,SO2,19,20,20
India,TamilNadu,Cuddalore,"Kudikadu, Cuddalore - TNPCB",19-12-2025 08:00:00,11.6829898,79.7532099,OZONE,11,15,12
India,TamilNadu,Gummidipoondi,"Anthoni Pillai Nagar, Gummidipoondi - TNPCB",19-12-2025 08:00:00,13.4127,80.1081,PM10,111,355,175
India,TamilNadu,Madurai,"Uchapatti, Madurai - TNPCB",19-12-2025 08:00:00,9.865935,78.022669,NO2,NA,NA,NA
India,Rajasthan,Tonk,"Shastri Nagar, Tonk - RSPCB",19-12-2025 08:00:00,26.159933,75.780517,CO,10,139,22
India,Rajasthan,Udaipur,"Ashok Nagar, Udaipur - RSPCB",19-12-2025 08:00:00,24.5886166,73.6321397,PM10,45,238,117
India,TamilNadu,Chennai,"Arumbakkam, Chennai - TNPCB",19-12-2025 08:00:00,13.0664,80.2112 ,PM10,101,198,149
India,TamilNadu,Chennai,"Arumbakkam, Chennai - TNPCB",19-12-2025 08:00:00,13.0664,80.2112 ,SO2,1,12,4
India,TamilNadu,Chennai,"Gandhi Nagar_Ennore, Chennai - TNPCB",19-12-2025 08:00:00,13.218341,80.32027,NH3,NA,NA,NA
India,Telangana,Hyderabad,"Nacharam_TSIIC IALA, Hyderabad - TSPCB",19-12-2025 08:00:00,17.429398,78.569354,OZONE,15,40,15
India,Telangana,Hyderabad,"New Malakpet, Hyderabad - TSPCB",19-12-2025 08:00:00,17.37206,78.50864,NO2,12,17,14
India,Telangana,Hyderabad,"Ramachandrapuram, Hyderabad - TSPCB",19-12-2025 08:00:00,17.528544,78.286195,NH3,3,5,3
India,Telangana,Hyderabad,"Sanathnagar, Hyderabad - TSPCB",19-12-2025 08:00:00,17.4559458,78.4332152,PM2.5,32,188,119
India,Telangana,Hyderabad,"Sanathnagar, Hyderabad - TSPCB",19-12-2025 08:00:00,17.4559458,78.4332152,CO,37,63,60
India,Telangana,Hyderabad,"IDA Pashamylaram, Hyderabad - TSPCB",19-12-2025 08:00:00,17.5316895,78.218939,PM2.5,NA,NA,NA
India,Telangana,Hyderabad,"IDA Pashamylaram, Hyderabad - TSPCB",19-12-2025 08:00:00,17.5316895,78.218939,SO2,NA,NA,NA
India,Telangana,Hyderabad,"Kokapet, Hyderabad - TSPCB",19-12-2025 08:00:00,17.393559,78.339194,NO2,NA,NA,NA
India,Telangana,Hyderabad,"Kompally Municipal Office, Hyderabad - TSPCB",19-12-2025 08:00:00,17.544899,78.486949,SO2,10,20,17
India,TamilNadu,Chennai,"Kodungaiyur, Chennai - TNPCB",19-12-2025 08:00:00,13.1278,80.2642,SO2,1,15,7
India,TamilNadu,Chennai,"Kodungaiyur, Chennai - TNPCB",19-12-2025 08:00:00,13.1278,80.2642,OZONE,26,34,30
India,TamilNadu,Chennai,"Manali Village, Chennai - TNPCB",19-12-2025 08:00:00,13.1662,80.2584,NH3,1,2,2
India,TamilNadu,Chennai,"Manali Village, Chennai - TNPCB",19-12-2025 08:00:00,13.1662,80.2584,CO,38,48,45
India,TamilNadu,Chennai,"Perungudi, Chennai - TNPCB",19-12-2025 08:00:00,12.9533,80.2357,SO2,1,7,5
India,TamilNadu,Coimbatore,"PSG College of Arts and Science, Coimbatore - TNPCB",19-12-2025 08:00:00,11.0328,77.0349,OZONE,4,6,5
India,Telangana,Hyderabad,"Bollaram Industrial Area, Hyderabad - TSPCB",19-12-2025 08:00:00,17.540891,78.358528,NO2,19,42,30
India,Uttar_Pradesh,Firozabad,"Nagla Bhau, Firozabad - UPPCB",19-12-2025 08:00:00,27.168897,78.376960,PM10,68,126,97
India,Uttar_Pradesh,Firozabad,"Nagla Bhau, Firozabad - UPPCB",19-12-2025 08:00:00,27.168897,78.376960,SO2,NA,NA,NA
India,Uttar_Pradesh,Firozabad,"Vibhab Nagar, Firozabad - UPPCB",19-12-2025 08:00:00,27.1594,78.3953,PM2.5,118,274,178
India,Uttar_Pradesh,Firozabad,"Vibhab Nagar, Firozabad - UPPCB",19-12-2025 08:00:00,27.1594,78.3953,OZONE,NA,NA,NA
India,Uttar_Pradesh,Ghaziabad,"Indirapuram, Ghaziabad - UPPCB",19-12-2025 08:00:00,28.646233,77.358075,CO,38,86,53
India,Uttar_Pradesh,Ghaziabad,"Loni, Ghaziabad - UPPCB",19-12-2025 08:00:00,28.757294,77.278792,PM10,139,415,268
India,Uttar_Pradesh,Ghaziabad,"Loni, Ghaziabad - UPPCB",19-12-2025 08:00:00,28.757294,77.278792,NO2,49,107,72
India,Uttar_Pradesh,Greater Noida,"Knowledge Park - V, Greater Noida - UPPCB",19-12-2025 08:00:00,28.557054,77.453663,OZONE,3,30,4
India,Uttar_Pradesh,Hapur,"Anand Vihar, Hapur - UPPCB",19-12-2025 08:00:00,28.725645,77.749675,NH3,6,8,7
India,Uttar_Pradesh,Hapur,"Anand Vihar, Hapur - UPPCB",19-12-2025 08:00:00,28.725645,77.749675,SO2,9,22,14
India,Uttar_Pradesh,Jhansi,"Shivaji Nagar, Jhansi - UPPCB",19-12-2025 08:00:00,25.4547,78.6039,SO2,13,17,14
India,Uttar_Pradesh,Kanpur,"FTI Kidwai Nagar, Kanpur - UPPCB",19-12-2025 08:00:00,26.428282,80.327067,PM2.5,87,181,120
India,Uttar_Pradesh,Kanpur,"FTI Kidwai Nagar, Kanpur - UPPCB",19-12-2025 08:00:00,26.428282,80.327067,SO2,14,16,15
India,Uttar_Pradesh,Agra,"Manoharpur, Agra - UPPCB",19-12-2025 08:00:00,27.23711,78.01936,NO2,24,36,24
India,Uttar_Pradesh,Agra,"Rohta, Agra - UPPCB",19-12-2025 08:00:00,27.106972,78.000111,PM2.5,90,275,167
India,Uttar_Pradesh,Agra,"Rohta, Agra - UPPCB",19-12-2025 08:00:00,27.106972,78.000111,NH3,6,6,6
India,Uttar_Pradesh,Agra,"Rohta, Agra - UPPCB",19-12-2025 08:00:00,27.106972,78.000111,OZONE,17,17,17
India,Uttar_Pradesh,Agra,"Sanjay Palace, Agra - UPPCB",19-12-2025 08:00:00,27.19865833,78.00598056,NO2,4,7,5
India,Uttar_Pradesh,Agra,"Sector-3B Avas Vikas Colony, Agra - UPPCB",19-12-2025 08:00:00,27.19412,77.96237,PM2.5,57,157,100
India,Uttar_Pradesh,Ghaziabad,"Vasundhara, Ghaziabad - UPPCB",19-12-2025 08:00:00,28.6603346,77.3572563,CO,NA,NA,NA
India,Uttar_Pradesh,Ghaziabad,"Vasundhara, Ghaziabad - UPPCB",19-12-2025 08:00:00,28.6603346,77.3572563,OZONE,NA,NA,NA
India,Uttar_Pradesh,Gorakhpur,"Madan Mohan Malaviya University of Technology, Gorakhpur - UPPCB",19-12-2025 08:00:00,26.730136,83.433859,NH3,1,1,1
India,Uttar_Pradesh,Gorakhpur,"Madan Mohan Malaviya University of Technology, Gorakhpur - UPPCB",19-12-2025 08:00:00,26.730136,83.433859,SO2,35,37,35
India,Uttar_Pradesh,Greater Noida,"Knowledge Park - III, Greater Noida - UPPCB",19-12-2025 08:00:00,28.47272,77.482000,CO,22,101,48
India,Uttar_Pradesh,Kanpur,"NSI Kalyanpur, Kanpur - UPPCB",19-12-2025 08:00:00,26.509954,80.249612,OZONE,16,18,16
India,Uttar_Pradesh,Khurja,"Kalindi Kunj, Khurja - UPPCB",19-12-2025 08:00:00,28.2348927,77.8683002,PM10,81,248,148
India,Uttar_Pradesh,Khurja,"Kalindi Kunj, Khurja - UPPCB",19-12-2025 08:00:00,28.2348927,77.8683002,NH3,1,1,1
India,Uttar_Pradesh,Lucknow,"B R Ambedkar University, Lucknow - UPPCB",19-12-2025 08:00:00,26.766433,80.927299,PM10,51,122,94
India,Uttar_Pradesh,Lucknow,"B R Ambedkar University, Lucknow - UPPCB",19-12-2025 08:00:00,26.766433,80.927299,CO,16,20,17
India,Telangana,Hyderabad,"Somajiguda, Hyderabad - TSPCB",19-12-2025 08:00:00,17.417094,78.457437,NH3,3,4,4
India,Telangana,Hyderabad,"Somajiguda, Hyderabad - TSPCB",19-12-2025 08:00:00,17.417094,78.457437,CO,18,94,38
India,Telangana,Hyderabad,"Zoo Park, Hyderabad - TSPCB",19-12-2025 08:00:00,17.349694,78.451437,PM2.5,40,172,106
India,Telangana,Hyderabad,"Zoo Park, Hyderabad - TSPCB",19-12-2025 08:00:00,17.349694,78.451437,SO2,5,41,22
India,Tripura,Agartala,"Bardowali, Agartala - Tripura SPCB",19-12-2025 08:00:00,23.8175497,91.2726974,CO,13,26,18
India,Uttar_Pradesh,Baghpat,"Sardar Patel Inter College, Baghpat - UPPCB",19-12-2025 08:00:00,28.964949,77.278761,SO2,NA,NA,NA
India,Uttar_Pradesh,Baghpat,"Sardar Patel Inter College, Baghpat - UPPCB",19-12-2025 08:00:00,28.964949,77.278761,CO,12,53,18
India,Uttar_Pradesh,Baghpat,"Sardar Patel Inter College, Baghpat - UPPCB",19-12-2025 08:00:00,28.964949,77.278761,OZONE,2,19,2
India,Uttar_Pradesh,Bareilly,"Civil Lines, Bareilly - UPPCB",19-12-2025 08:00:00,28.359581,79.414455,NH3,1,4,2
India,Uttar_Pradesh,Bulandshahr,"Yamunapuram, Bulandshahr - UPPCB",19-12-2025 08:00:00,28.406963,77.849831,SO2,19,29,24
India,Uttar_Pradesh,Agra,"Sector-3B Avas Vikas Colony, Agra - UPPCB",19-12-2025 08:00:00,27.19412,77.96237,NH3,7,13,12
India,Uttar_Pradesh,Agra,"Shastripuram, Agra - UPPCB",19-12-2025 08:00:00,27.19862,77.92066,SO2,5,9,7
India,Uttar_Pradesh,Agra,"Shastripuram, Agra - UPPCB",19-12-2025 08:00:00,27.19862,77.92066,CO,30,43,41
India,Uttar_Pradesh,Baghpat,"Sardar Patel Inter College, Baghpat - UPPCB",19-12-2025 08:00:00,28.964949,77.278761,PM2.5,NA,NA,NA
India,Uttar_Pradesh,Ghaziabad,"Sanjay Nagar, Ghaziabad - UPPCB",19-12-2025 08:00:00,28.685382,77.453839,NO2,41,122,83
India,Uttar_Pradesh,Ghaziabad,"Vasundhara, Ghaziabad - UPPCB",19-12-2025 08:00:00,28.6603346,77.3572563,PM2.5,NA,NA,NA
India,Uttar_Pradesh,Ghaziabad,"Vasundhara, Ghaziabad - UPPCB",19-12-2025 08:00:00,28.6603346,77.3572563,NO2,NA,NA,NA
India,Uttar_Pradesh,Lucknow,"Talkatora District Industries Center, Lucknow - CPCB",19-12-2025 08:00:00,26.83399722,80.8917361,SO2,2,37,9
India,Uttar_Pradesh,Lucknow,"Talkatora District Industries Center, Lucknow - CPCB",19-12-2025 08:00:00,26.83399722,80.8917361,OZONE,8,53,13
India,Uttar_Pradesh,Meerut,"Ganga Nagar, Meerut - UPPCB",19-12-2025 08:00:00,28.999264,77.7590354,PM10,100,340,203
India,Uttar_Pradesh,Meerut,"Ganga Nagar, Meerut - UPPCB",19-12-2025 08:00:00,28.999264,77.7590354,NH3,4,9,6
India,Uttar_Pradesh,Meerut,"Ganga Nagar, Meerut - UPPCB",19-12-2025 08:00:00,28.999264,77.7590354,OZONE,8,96,14
India,Uttar_Pradesh,Meerut,"Jai Bhim Nagar, Meerut - UPPCB",19-12-2025 08:00:00,28.9535882,77.7622941,NH3,27,45,34
India,Uttar_Pradesh,Meerut,"Jai Bhim Nagar, Meerut - UPPCB",19-12-2025 08:00:00,28.9535882,77.7622941,CO,62,117,77
India,Uttar_Pradesh,Meerut,"Jai Bhim Nagar, Meerut - UPPCB",19-12-2025 08:00:00,28.9535882,77.7622941,OZONE,3,86,6
India,Uttar_Pradesh,Meerut,"Pallavpuram Phase 2, Meerut - UPPCB",19-12-2025 08:00:00,29.063510,77.709723,NH3,2,3,2
India,Uttar_Pradesh,Meerut,"Pallavpuram Phase 2, Meerut - UPPCB",19-12-2025 08:00:00,29.063510,77.709723,SO2,4,17,9
India,Uttar_Pradesh,Moradabad,"Buddhi Vihar, Moradabad - UPPCB",19-12-2025 08:00:00,28.83526,78.74460,PM2.5,60,210,116
India,Uttar_Pradesh,Moradabad,"Buddhi Vihar, Moradabad - UPPCB",19-12-2025 08:00:00,28.83526,78.74460,NH3,5,5,5
India,Uttar_Pradesh,Lucknow,"B R Ambedkar University, Lucknow - UPPCB",19-12-2025 08:00:00,26.766433,80.927299,OZONE,25,115,33
India,Uttar_Pradesh,Lucknow,"Gomti Nagar, Lucknow - UPPCB",19-12-2025 08:00:00,26.868120,81.005119,CO,28,34,28
India,Uttar_Pradesh,Lucknow,"Kendriya Vidyalaya, Lucknow - CPCB",19-12-2025 08:00:00,26.906111,80.948222,PM2.5,64,287,172
India,Uttar_Pradesh,Lucknow,"Kendriya Vidyalaya, Lucknow - CPCB",19-12-2025 08:00:00,26.906111,80.948222,NO2,35,41,39
India,Uttar_Pradesh,Lucknow,"Kendriya Vidyalaya, Lucknow - CPCB",19-12-2025 08:00:00,26.906111,80.948222,SO2,6,10,7
India,Uttar_Pradesh,Lucknow,"Kukrail Picnic Spot-1, Lucknow - UPPCB",19-12-2025 08:00:00,26.90723,80.98579,CO,8,14,12
India,Uttar_Pradesh,Lucknow,"Lalbagh, Lucknow - CPCB",19-12-2025 08:00:00,26.8458805,80.9365541,PM2.5,71,331,255
India,Uttar_Pradesh,Lucknow,"Lalbagh, Lucknow - CPCB",19-12-2025 08:00:00,26.8458805,80.9365541,PM10,124,222,171
India,Uttar_Pradesh,Lucknow,"Lalbagh, Lucknow - CPCB",19-12-2025 08:00:00,26.8458805,80.9365541,SO2,2,15,6
India,Uttar_Pradesh,Moradabad,"Kashiram Nagar, Moradabad - UPPCB",19-12-2025 08:00:00,28.849399,78.742362,NH3,4,4,4
India,Uttar_Pradesh,Moradabad,"Kashiram Nagar, Moradabad - UPPCB",19-12-2025 08:00:00,28.849399,78.742362,OZONE,22,26,22
India,Uttar_Pradesh,Moradabad,"Transport Nagar, Moradabad - UPPCB",19-12-2025 08:00:00,28.802625,78.753728,PM10,63,158,102
India,Uttar_Pradesh,Moradabad,"Transport Nagar, Moradabad - UPPCB",19-12-2025 08:00:00,28.802625,78.753728,OZONE,26,30,27
India,Uttar_Pradesh,Muzaffarnagar,"New Mandi, Muzaffarnagar - UPPCB",19-12-2025 08:00:00,29.4723508,77.7194031,PM2.5,90,350,228
India,Uttar_Pradesh,Muzaffarnagar,"New Mandi, Muzaffarnagar - UPPCB",19-12-2025 08:00:00,29.4723508,77.7194031,PM10,86,246,148
India,Uttar_Pradesh,Muzaffarnagar,"New Mandi, Muzaffarnagar - UPPCB",19-12-2025 08:00:00,29.4723508,77.7194031,NO2,44,108,66
India,Uttar_Pradesh,Muzaffarnagar,"New Mandi, Muzaffarnagar - UPPCB",19-12-2025 08:00:00,29.4723508,77.7194031,CO,36,100,50
India,Uttar_Pradesh,Noida,"Sector - 125, Noida - UPPCB",19-12-2025 08:00:00,28.5447608,77.3231257,OZONE,9,59,10
India,West_Bengal,Asansol,"Mahabir Colliery, Asansol - WBPCB",19-12-2025 08:00:00,23.6181830,87.1057180,NH3,1,50,5
India,West_Bengal,Asansol,"Mahabir Colliery, Asansol - WBPCB",19-12-2025 08:00:00,23.6181830,87.1057180,SO2,5,7,6
India,West_Bengal,Asansol,"Mahabir Colliery, Asansol - WBPCB",19-12-2025 08:00:00,23.6181830,87.1057180,CO,33,113,90
India,West_Bengal,Asansol,"Trivenidevi Bhalotia College, Asansol - WBPCB",19-12-2025 08:00:00,23.616515,87.119133,NO2,21,36,28
India,West_Bengal,Asansol,"Trivenidevi Bhalotia College, Asansol - WBPCB",19-12-2025 08:00:00,23.616515,87.119133,OZONE,11,29,12
India,West_Bengal,Barrackpore,"SVSPA Campus, Barrackpore - WBPCB",19-12-2025 08:00:00,22.7605581,88.3617589,NO2,12,39,23
India,West_Bengal,Barrackpore,"SVSPA Campus, Barrackpore - WBPCB",19-12-2025 08:00:00,22.7605581,88.3617589,CO,61,92,83
India,West_Bengal,Durgapur,"Mahishkapur Road_B-Zone, Durgapur - WBPCB",19-12-2025 08:00:00,23.567923,87.306843,NH3,2,2,2
India,Uttar_Pradesh,Prayagraj,"Motilal Nehru NIT, Prayagraj - UPPCB",19-12-2025 08:00:00,25.494,81.863,CO,35,52,38
India,Uttar_Pradesh,Varanasi,"Ardhali Bazar, Varanasi - UPPCB",19-12-2025 08:00:00,25.3505986,82.9083074,PM2.5,70,144,103
India,Uttar_Pradesh,Varanasi,"Bhelupur, Varanasi - UPPCB",19-12-2025 08:00:00,25.301778,82.996789,PM2.5,62,159,90
India,Uttar_Pradesh,Varanasi,"Bhelupur, Varanasi - UPPCB",19-12-2025 08:00:00,25.301778,82.996789,SO2,28,30,28
India,Uttar_Pradesh,Varanasi,"Bhelupur, Varanasi - UPPCB",19-12-2025 08:00:00,25.301778,82.996789,OZONE,1,1,1
India,Uttar_Pradesh,Varanasi,"IESD Banaras Hindu University, Varanasi - UPPCB",19-12-2025 08:00:00,25.262326,82.995408,PM2.5,36,139,73
India,Uttar_Pradesh,Noida,"Sector-1, Noida - UPPCB",19-12-2025 08:00:00,28.5898,77.3101,PM10,215,467,387
India,Uttar_Pradesh,Noida,"Sector-1, Noida - UPPCB",19-12-2025 08:00:00,28.5898,77.3101,NH3,7,37,29
India,Uttar_Pradesh,Noida,"Sector-1, Noida - UPPCB",19-12-2025 08:00:00,28.5898,77.3101,CO,26,122,73
India,Uttar_Pradesh,Prayagraj,"Jhunsi, Prayagraj - UPPCB",19-12-2025 08:00:00,25.425602,81.917152,NH3,5,5,5
India,Uttar_Pradesh,Prayagraj,"Motilal Nehru NIT, Prayagraj - UPPCB",19-12-2025 08:00:00,25.494,81.863,SO2,31,34,33
India,Uttar_Pradesh,Moradabad,"Eco Herbal Park, Moradabad - UPPCB",19-12-2025 08:00:00,28.840739,78.697531,PM2.5,92,307,181
India,Uttar_Pradesh,Moradabad,"Jigar Colony, Moradabad - UPPCB",19-12-2025 08:00:00,28.856664,78.772638,PM10,88,191,133
India,Uttar_Pradesh,Moradabad,"Jigar Colony, Moradabad - UPPCB",19-12-2025 08:00:00,28.856664,78.772638,NH3,6,9,6
India,Uttar_Pradesh,Moradabad,"Jigar Colony, Moradabad - UPPCB",19-12-2025 08:00:00,28.856664,78.772638,OZONE,17,47,17
India,Uttar_Pradesh,Vrindavan,"Omex Eternity, Vrindavan - UPPCB",19-12-2025 08:00:00,27.5714090,77.6557570,SO2,11,18,13
India,Uttarakhand,Dehradun,"Doon University, Dehradun - UKPCB",19-12-2025 08:00:00,30.269444,78.044167,NO2,1,8,4
India,West_Bengal,Asansol,"Asansol Court Area, Asansol - WBPCB",19-12-2025 08:00:00,23.685297,86.945968,SO2,16,60,24
India,West_Bengal,Asansol,"Evelyn Lodge, Asansol - WBPCB",19-12-2025 08:00:00,23.6979360,86.9443950,PM10,76,178,130
India,West_Bengal,Durgapur,"PCBL Residential Complex, Durgapur - WBPCB",19-12-2025 08:00:00,23.5087640,87.3544400,NH3,12,15,14
India,West_Bengal,Durgapur,"Womens College_City Center, Durgapur - WBPCB (Formerly known as Sidhu Kanhu Indoor Stadium)",19-12-2025 08:00:00,23.549395,87.300496,NO2,28,45,34
India,West_Bengal,Durgapur,"Womens College_City Center, Durgapur - WBPCB (Formerly known as Sidhu Kanhu Indoor Stadium)",19-12-2025 08:00:00,23.549395,87.300496,SO2,13,42,24
India,West_Bengal,Haldia,"Priyambada Housing Estate, Haldia - WBPCB",19-12-2025 08:00:00,22.06047,88.109737,PM2.5,140,315,237
India,West_Bengal,Haldia,"Priyambada Housing Estate, Haldia - WBPCB",19-12-2025 08:00:00,22.06047,88.109737,PM10,112,179,139
India,West_Bengal,Haldia,"Priyambada Housing Estate, Haldia - WBPCB",19-12-2025 08:00:00,22.06047,88.109737,CO,32,69,54
India,West_Bengal,Howrah,"Belur Math, Howrah - WBPCB",19-12-2025 08:00:00,22.629801,88.352017,PM2.5,123,346,290
India,West_Bengal,Howrah,"Belur Math, Howrah - WBPCB",19-12-2025 08:00:00,22.629801,88.352017,SO2,9,23,13
India,West_Bengal,Howrah,"Botanical Garden, Howrah - WBPCB",19-12-2025 08:00:00,22.554954,88.292568,PM2.5,39,161,105
India,West_Bengal,Howrah,"Botanical Garden, Howrah - WBPCB",19-12-2025 08:00:00,22.554954,88.292568,OZONE,5,18,6
India,West_Bengal,Howrah,"Dasnagar, Howrah - WBPCB",19-12-2025 08:00:00,22.6025571,88.3105664,NH3,2,4,3
India,West_Bengal,Howrah,"Dasnagar, Howrah - WBPCB",19-12-2025 08:00:00,22.6025571,88.3105664,CO,7,68,38
India,West_Bengal,Howrah,"Ghusuri, Howrah - WBPCB",19-12-2025 08:00:00,22.611968,88.347422,NO2,25,55,46
India,West_Bengal,Howrah,"Ghusuri, Howrah - WBPCB",19-12-2025 08:00:00,22.611968,88.347422,CO,4,78,56
India,West_Bengal,Howrah,"Padmapukur, Howrah - WBPCB",19-12-2025 08:00:00,22.5687319,88.2797276,NH3,2,2,2
India,West_Bengal,Kolkata,"Ballygunge, Kolkata - WBPCB",19-12-2025 08:00:00,22.5367507,88.3638022,CO,22,116,83
India,West_Bengal,Kolkata,"Ballygunge, Kolkata - WBPCB",19-12-2025 08:00:00,22.5367507,88.3638022,OZONE,5,26,5
India,West_Bengal,Kolkata,"Bidhannagar, Kolkata - WBPCB",19-12-2025 08:00:00,22.58157048,88.41002457,OZONE,11,35,12
India,West_Bengal,Kolkata,"Fort William, Kolkata - WBPCB",19-12-2025 08:00:00,22.556640,88.342674,PM10,65,162,110
India,West_Bengal,Kolkata,"Fort William, Kolkata - WBPCB",19-12-2025 08:00:00,22.556640,88.342674,CO,20,104,65
India,West_Bengal,Kolkata,"Fort William, Kolkata - WBPCB",19-12-2025 08:00:00,22.556640,88.342674,OZONE,16,69,25
India,West_Bengal,Kolkata,"Jadavpur, Kolkata - WBPCB",19-12-2025 08:00:00,22.49929,88.36917,PM10,89,189,148
India,West_Bengal,Kolkata,"Jadavpur, Kolkata - WBPCB",19-12-2025 08:00:00,22.49929,88.36917,NH3,6,11,8
India,West_Bengal,Kolkata,"Jadavpur, Kolkata - WBPCB",19-12-2025 08:00:00,22.49929,88.36917,OZONE,9,56,10
India,West_Bengal,Kolkata,"Rabindra Bharati University, Kolkata - WBPCB",19-12-2025 08:00:00,22.627847,88.380669,NO2,31,113,80
India,West_Bengal,Kolkata,"Rabindra Sarobar, Kolkata - WBPCB",19-12-2025 08:00:00,22.51106,88.35142,SO2,3,27,12
India,West_Bengal,Kolkata,"Rabindra Sarobar, Kolkata - WBPCB",19-12-2025 08:00:00,22.51106,88.35142,CO,25,109,71
India,West_Bengal,Kolkata,"Victoria, Kolkata - WBPCB",19-12-2025 08:00:00,22.5448082,88.3403691,NO2,21,21,21
India,West_Bengal,Kolkata,"Victoria, Kolkata - WBPCB",19-12-2025 08:00:00,22.5448082,88.3403691,OZONE,5,51,6
India,West_Bengal,Siliguri,"Ward-32 Bapupara, Siliguri - WBPCB",19-12-2025 08:00:00,26.6879226,88.4152495,PM10,40,180,96
India,Andhra_Pradesh,Chittoor,"Gangineni Cheruvu, Chittoor - APPCB",19-12-2025 08:00:00,13.204880,79.097889,NO2,31,39,37
India,Andhra_Pradesh,Chittoor,"Gangineni Cheruvu, Chittoor - APPCB",19-12-2025 08:00:00,13.204880,79.097889,NH3,5,7,5
India,Andhra_Pradesh,Chittoor,"Gangineni Cheruvu, Chittoor - APPCB",19-12-2025 08:00:00,13.204880,79.097889,CO,28,67,54
India,Andhra_Pradesh,Chittoor,"Gangineni Cheruvu, Chittoor - APPCB",19-12-2025 08:00:00,13.204880,79.097889,OZONE,49,55,52
India,Andhra_Pradesh,Kadapa,"Yerramukkapalli, Kadapa - APPCB",19-12-2025 08:00:00,14.465052,78.824187,PM2.5,45,305,110
India,Andhra_Pradesh,Kadapa,"Yerramukkapalli, Kadapa - APPCB",19-12-2025 08:00:00,14.465052,78.824187,SO2,13,18,13
India,Andhra_Pradesh,Rajamahendravaram,"Anand Kala Kshetram, Rajamahendravaram - APPCB",19-12-2025 08:00:00,16.9872867,81.7363176,PM2.5,186,348,275
India,Andhra_Pradesh,Tirumala,"Toll Gate, Tirumala - APPCB",19-12-2025 08:00:00,13.67,79.35,PM10,116,146,127
India,Andhra_Pradesh,Tirumala,"Toll Gate, Tirumala - APPCB",19-12-2025 08:00:00,13.67,79.35,NH3,1,1,1
India,Assam,Byrnihat,"Central Academy for SFS, Byrnihat - PCBA",19-12-2025 08:00:00,26.071318,91.87488,NO2,5,9,7
India,Assam,Guwahati,"LGBI Airport, Guwahati - PCBA",19-12-2025 08:00:00,26.10887,91.589544,PM10,69,150,121
India,Assam,Guwahati,"LGBI Airport, Guwahati - PCBA",19-12-2025 08:00:00,26.10887,91.589544,NO2,13,16,15
India,Assam,Guwahati,"LGBI Airport, Guwahati - PCBA",19-12-2025 08:00:00,26.10887,91.589544,OZONE,11,14,12
India,Assam,Guwahati,"Pan Bazaar, Guwahati - PCBA",19-12-2025 08:00:00,26.187500,91.744194,PM2.5,1,220,78
India,Assam,Guwahati,"Pan Bazaar, Guwahati - PCBA",19-12-2025 08:00:00,26.187500,91.744194,PM10,NA,NA,NA
India,Assam,Guwahati,"Pan Bazaar, Guwahati - PCBA",19-12-2025 08:00:00,26.187500,91.744194,CO,12,76,41
India,Assam,Guwahati,"Railway Colony, Guwahati - PCBA",19-12-2025 08:00:00,26.181742,91.78063,PM2.5,44,375,209
India,Andaman and Nicobar,Sri Vijaya Puram,"Police Line, Sri Vijaya Puram - ANPCC",19-12-2025 08:00:00,11.654054,92.734055,SO2,NA,NA,NA
India,Andhra_Pradesh,Amaravati,"Secretariat, Amaravati - APPCB",19-12-2025 08:00:00,16.5150833,80.5181667,PM2.5,72,302,176
India,Andhra_Pradesh,Amaravati,"Secretariat, Amaravati - APPCB",19-12-2025 08:00:00,16.5150833,80.5181667,CO,27,70,44
India,Andhra_Pradesh,Anantapur,"Gulzarpet, Anantapur - APPCB",19-12-2025 08:00:00,14.675886,77.593027,OZONE,16,76,29
India,Andhra_Pradesh,Chittoor,"Gangineni Cheruvu, Chittoor - APPCB",19-12-2025 08:00:00,13.204880,79.097889,PM10,33,199,85
India,Assam,Nagaon,"Christianpatty, Nagaon - PCBA",19-12-2025 08:00:00,26.349082,92.68449,CO,9,26,22
India,Assam,Nalbari,"Bata Chowk, Nalbari - PCBA",19-12-2025 08:00:00,26.446912,91.439057,PM2.5,134,180,154
India,Assam,Nalbari,"Bata Chowk, Nalbari - PCBA",19-12-2025 08:00:00,26.446912,91.439057,NH3,6,6,6
India,Assam,Nalbari,"Bata Chowk, Nalbari - PCBA",19-12-2025 08:00:00,26.446912,91.439057,CO,20,22,21
India,Assam,Nalbari,"Bata Chowk, Nalbari - PCBA",19-12-2025 08:00:00,26.446912,91.439057,OZONE,7,22,13
India,Assam,Silchar,"Tarapur, Silchar - PCBA",19-12-2025 08:00:00,24.82827,92.79525,SO2,5,7,6
India,Assam,Silchar,"Tarapur, Silchar - PCBA",19-12-2025 08:00:00,24.82827,92.79525,CO,16,30,23
India,Andhra_Pradesh,Tirupati,"Vaikuntapuram, Tirupati - APPCB",19-12-2025 08:00:00,13.615387,79.409230,PM10,38,500,201
India,Andhra_Pradesh,Vijayawada,"HB Colony, Vijayawada - APPCB",19-12-2025 08:00:00,16.536107,80.594233,OZONE,NA,NA,NA
India,Andhra_Pradesh,Vijayawada,"Kanuru, Vijayawada - APPCB",19-12-2025 08:00:00,16.486692,80.699436,PM2.5,NA,NA,NA
India,Andhra_Pradesh,Vijayawada,"Kanuru, Vijayawada - APPCB",19-12-2025 08:00:00,16.486692,80.699436,PM10,NA,NA,NA
India,Andhra_Pradesh,Vijayawada,"Kanuru, Vijayawada - APPCB",19-12-2025 08:00:00,16.486692,80.699436,SO2,NA,NA,NA
India,Bihar,Bhagalpur,"DM Office_Kachari Chowk, Bhagalpur - BSPCB",19-12-2025 08:00:00,25.251013,86.989001,PM2.5,80,260,157
India,Bihar,Bhagalpur,"DM Office_Kachari Chowk, Bhagalpur - BSPCB",19-12-2025 08:00:00,25.251013,86.989001,NH3,1,1,1
India,Bihar,Bhagalpur,"DM Office_Kachari Chowk, Bhagalpur - BSPCB",19-12-2025 08:00:00,25.251013,86.989001,CO,12,17,14
India,Bihar,Bhagalpur,"Mayaganj, Bhagalpur - BSPCB",19-12-2025 08:00:00,25.265194,87.012947,PM2.5,60,277,130
India,Bihar,Bhagalpur,"Mayaganj, Bhagalpur - BSPCB",19-12-2025 08:00:00,25.265194,87.012947,PM10,85,199,137
India,Andhra_Pradesh,Vijayawada,"Rajiv Gandhi Park, Vijayawada - APPCB",19-12-2025 08:00:00,16.509717,80.612222,SO2,7,17,15
India,Andhra_Pradesh,Vijayawada,"Rajiv Gandhi Park, Vijayawada - APPCB",19-12-2025 08:00:00,16.509717,80.612222,OZONE,4,48,5
India,Andhra_Pradesh,Vijayawada,"Rajiv Nagar, Vijayawada - APPCB",19-12-2025 08:00:00,16.554731,80.649110,PM10,43,64,51
India,Bihar,Bhagalpur,"Mayaganj, Bhagalpur - BSPCB",19-12-2025 08:00:00,25.265194,87.012947,CO,67,84,75
India,Bihar,Bhagalpur,"Mayaganj, Bhagalpur - BSPCB",19-12-2025 08:00:00,25.265194,87.012947,OZONE,9,11,9
India,Bihar,Gaya,"Kareemganj, Gaya - BSPCB",19-12-2025 08:00:00,24.792403,84.992416,PM2.5,62,193,122
India,Bihar,Araria,"Kharahiya Basti, Araria - BSPCB",19-12-2025 08:00:00,26.146529,87.454184,NO2,1,36,10
India,Bihar,Araria,"Kharahiya Basti, Araria - BSPCB",19-12-2025 08:00:00,26.146529,87.454184,SO2,2,35,15
India,Bihar,Araria,"Kharahiya Basti, Araria - BSPCB",19-12-2025 08:00:00,26.146529,87.454184,CO,3,55,36
India,Bihar,Begusarai,"Lohiyanagar, Begusarai - BSPCB",19-12-2025 08:00:00,25.42742023,86.13886079,PM2.5,103,337,144
India,Bihar,Begusarai,"Lohiyanagar, Begusarai - BSPCB",19-12-2025 08:00:00,25.42742023,86.13886079,SO2,55,63,60
India,Bihar,Kishanganj,"SDM Office_Khagra, Kishanganj - BSPCB",19-12-2025 08:00:00,26.0881305,87.93840336,CO,16,26,17
India,Bihar,Manguraha,"Forest Rest House, Manguraha - BSPCB",19-12-2025 08:00:00,27.308328,84.531742,PM2.5,65,312,183
India,Bihar,Manguraha,"Forest Rest House, Manguraha - BSPCB",19-12-2025 08:00:00,27.308328,84.531742,OZONE,10,10,10
India,Bihar,Motihari,"Gandak Colony, Motihari - BSPCB",19-12-2025 08:00:00,26.63086,84.90051,CO,16,25,18
India,Bihar,Munger,"Town Hall, Munger - BSPCB",19-12-2025 08:00:00,25.376776,86.471523,PM2.5,63,343,152
India,Bihar,Munger,"Town Hall, Munger - BSPCB",19-12-2025 08:00:00,25.376776,86.471523,NO2,4,6,5
India,Bihar,Munger,"Town Hall, Munger - BSPCB",19-12-2025 08:00:00,25.376776,86.471523,NH3,5,7,6
India,Bihar,Munger,"Town Hall, Munger - BSPCB",19-12-2025 08:00:00,25.376776,86.471523,SO2,31,68,41
India,Bihar,Munger,"Town Hall, Munger - BSPCB",19-12-2025 08:00:00,25.376776,86.471523,CO,16,40,25
India,Bihar,Purnia,"Mariam Nagar, Purnia - BSPCB",19-12-2025 08:00:00,25.366336,87.117468,PM10,NA,NA,NA
India,Bihar,Purnia,"Mariam Nagar, Purnia - BSPCB",19-12-2025 08:00:00,25.366336,87.117468,NO2,NA,NA,NA
India,Bihar,Purnia,"Mariam Nagar, Purnia - BSPCB",19-12-2025 08:00:00,25.366336,87.117468,OZONE,22,31,23
India,Bihar,Rajgir,"Dangi Tola, Rajgir - BSPCB",19-12-2025 08:00:00,25.03280,85.41948,PM2.5,33,318,178
India,Bihar,Rajgir,"Dangi Tola, Rajgir - BSPCB",19-12-2025 08:00:00,25.03280,85.41948,SO2,8,24,21
India,Bihar,Saharsa,"Police Line, Saharsa - BSPCB",19-12-2025 08:00:00,25.892357,86.590325,PM10,52,151,95
India,Bihar,Saharsa,"Police Line, Saharsa - BSPCB",19-12-2025 08:00:00,25.892357,86.590325,NO2,6,9,7
India,Bihar,Saharsa,"Police Line, Saharsa - BSPCB",19-12-2025 08:00:00,25.892357,86.590325,OZONE,9,12,10
India,Bihar,Samastipur,"DM Office_Kasipur, Samastipur - BSPCB",19-12-2025 08:00:00,25.859655,85.77944,PM2.5,42,78,59
India,Bihar,Gaya,"Kareemganj, Gaya - BSPCB",19-12-2025 08:00:00,24.792403,84.992416,NH3,4,6,5
India,Bihar,Gaya,"Kareemganj, Gaya - BSPCB",19-12-2025 08:00:00,24.792403,84.992416,OZONE,3,9,6
India,Bihar,Gaya,"SFTI Kusdihra, Gaya - BSPCB",19-12-2025 08:00:00,24.762518,84.982348,NO2,22,29,25
India,Bihar,Gaya,"SFTI Kusdihra, Gaya - BSPCB",19-12-2025 08:00:00,24.762518,84.982348,SO2,7,8,7
India,Bihar,Gaya,"SFTI Kusdihra, Gaya - BSPCB",19-12-2025 08:00:00,24.762518,84.982348,OZONE,9,14,13
India,Bihar,Hajipur,"Industrial Area, Hajipur - BSPCB",19-12-2025 08:00:00,25.697189,85.245900,PM2.5,91,248,196
India,Bihar,Katihar,"Mirchaibari, Katihar - BSPCB",19-12-2025 08:00:00,25.560083,87.553265,CO,70,94,85
India,Chhattisgarh,Korba,"Urja Nagar, Korba - CECB",19-12-2025 08:00:00,22.348441,82.549611,OZONE,35,36,36
India,Chhattisgarh,Kunjemura,"OP Jindal School, Kunjemura - CECB",19-12-2025 08:00:00,22.126650,83.483212,NO2,23,60,39
India,Chhattisgarh,Milupara,"Govt. Higher Secondary School, Milupara - CECB",19-12-2025 08:00:00,22.1910172,83.5197009,SO2,6,21,14
India,Chhattisgarh,Milupara,"Govt. Higher Secondary School, Milupara - CECB",19-12-2025 08:00:00,22.1910172,83.5197009,CO,2,24,13
India,Chhattisgarh,Milupara,"Govt. Higher Secondary School, Milupara - CECB",19-12-2025 08:00:00,22.1910172,83.5197009,OZONE,2,115,13
India,Chhattisgarh,Raipur,"AIIMS, Raipur - CECB",19-12-2025 08:00:00,21.258815,81.578979,NH3,1,1,1
India,Bihar,Muzaffarpur,"Buddha Colony, Muzaffarpur - BSPCB",19-12-2025 08:00:00,26.11442,85.39813,NO2,19,50,33
India,Bihar,Muzaffarpur,"MIT-Daudpur Kothi, Muzaffarpur - BSPCB",19-12-2025 08:00:00,26.1403345,85.3650192,PM2.5,103,130,114
India,Bihar,Muzaffarpur,"MIT-Daudpur Kothi, Muzaffarpur - BSPCB",19-12-2025 08:00:00,26.1403345,85.3650192,NO2,1,3,2
India,Bihar,Muzaffarpur,"MIT-Daudpur Kothi, Muzaffarpur - BSPCB",19-12-2025 08:00:00,26.1403345,85.3650192,SO2,9,22,14
India,Bihar,Muzaffarpur,"Muzaffarpur Collectorate, Muzaffarpur - BSPCB",19-12-2025 08:00:00,26.1209,85.3647,SO2,5,6,6
India,Bihar,Patna,"DRM Office Danapur, Patna - BSPCB",19-12-2025 08:00:00,25.586562,85.043586,NO2,26,29,27
India,Bihar,Patna,"Govt. High School Shikarpur, Patna - BSPCB",19-12-2025 08:00:00,25.592539,85.227158,NO2,14,25,19
India,Bihar,Patna,"Govt. High School Shikarpur, Patna - BSPCB",19-12-2025 08:00:00,25.592539,85.227158,NH3,4,6,5
India,Bihar,Patna,"Govt. High School Shikarpur, Patna - BSPCB",19-12-2025 08:00:00,25.592539,85.227158,SO2,10,17,13
India,Bihar,Patna,"Muradpur, Patna - BSPCB",19-12-2025 08:00:00,25.619651,85.147382,NH3,4,5,5
India,Bihar,Patna,"Rajbansi Nagar, Patna - BSPCB",19-12-2025 08:00:00,25.599486,85.113666,CO,42,80,48
India,Bihar,Sasaram,"Dada Peer, Sasaram - BSPCB",19-12-2025 08:00:00,24.952822,84.002396,OZONE,16,25,17
India,Chandigarh,Chandigarh,"Sector 22, Chandigarh - CPCC",19-12-2025 08:00:00,30.735567,76.775714,SO2,5,14,10
India,Chandigarh,Chandigarh,"Sector 22, Chandigarh - CPCC",19-12-2025 08:00:00,30.735567,76.775714,OZONE,4,91,5
India,Chandigarh,Chandigarh,"Sector-25, Chandigarh - CPCC",19-12-2025 08:00:00,30.751462,76.762879,SO2,7,12,9
India,Chhattisgarh,Bhilai,"32Bungalows, Bhilai - CECB",19-12-2025 08:00:00,21.194815,81.314770,CO,21,50,36
India,Chhattisgarh,Bhilai,"Civic Center, Bhilai - Bhilai Steel Plant",19-12-2025 08:00:00,21.185571,81.343175,PM10,16,111,50
India,Chhattisgarh,Bhilai,"Hathkhoj, Bhilai - CECB",19-12-2025 08:00:00,21.224231,81.408350,PM10,10,171,58
India,Chhattisgarh,Chhal,"Nawapara SECL Colony, Chhal - CECB",19-12-2025 08:00:00,22.118125,83.140608,PM10,52,195,84
India,Chhattisgarh,Korba,"Rampur, Korba - CECB",19-12-2025 08:00:00,22.368195,82.746431,NO2,17,36,22
India,Delhi,Delhi,"DTU, Delhi - CPCB",19-12-2025 08:00:00,28.7500499,77.1112615,PM10,127,330,223
India,Delhi,Delhi,"DTU, Delhi - CPCB",19-12-2025 08:00:00,28.7500499,77.1112615,NO2,26,44,36
India,Delhi,Delhi,"DTU, Delhi - CPCB",19-12-2025 08:00:00,28.7500499,77.1112615,NH3,9,15,10
India,Delhi,Delhi,"Dr. Karni Singh Shooting Range, Delhi - DPCC",19-12-2025 08:00:00,28.498571,77.264840,PM10,174,449,350
India,Delhi,Delhi,"Dwarka-Sector 8, Delhi - DPCC ",19-12-2025 08:00:00,28.5710274,77.0719006,NH3,19,27,24
India,Delhi,Delhi,"IGI Airport (T3), Delhi - IMD",19-12-2025 08:00:00,28.5627763,77.1180053,PM10,131,437,348
India,Delhi,Delhi,"IHBAS, Dilshad Garden, Delhi - CPCB",19-12-2025 08:00:00,28.6811736,77.3025234,PM10,182,390,279
India,Delhi,Delhi,"IHBAS, Dilshad Garden, Delhi - CPCB",19-12-2025 08:00:00,28.6811736,77.3025234,NH3,10,11,10
India,Delhi,Delhi,"IHBAS, Dilshad Garden, Delhi - CPCB",19-12-2025 08:00:00,28.6811736,77.3025234,OZONE,9,14,10
India,Delhi,Delhi,"IIT Delhi, Delhi - IITM",19-12-2025 08:00:00,28.542460,77.191651,PM2.5,225,431,364
India,Delhi,Delhi,"IIT Delhi, Delhi - IITM",19-12-2025 08:00:00,28.542460,77.191651,NO2,NA,NA,NA
India,Delhi,Delhi,"Jahangirpuri, Delhi - DPCC",19-12-2025 08:00:00,28.732820,77.170633,SO2,5,27,14
India,Delhi,Delhi,"Jahangirpuri, Delhi - DPCC",19-12-2025 08:00:00,28.732820,77.170633,CO,90,131,106
India,Delhi,Delhi,"Jawaharlal Nehru Stadium, Delhi - DPCC",19-12-2025 08:00:00,28.580280,77.233829,NH3,21,25,23
India,Delhi,Delhi,"Jawaharlal Nehru Stadium, Delhi - DPCC",19-12-2025 08:00:00,28.580280,77.233829,CO,90,135,115
India,Delhi,Delhi,"Lodhi Road, Delhi - IITM",19-12-2025 08:00:00,28.588333,77.221667,PM2.5,309,371,349
India,Delhi,Delhi,"Major Dhyan Chand National Stadium, Delhi - DPCC",19-12-2025 08:00:00,28.611281,77.237738,PM2.5,329,410,376
India,Delhi,Delhi,"Mundka, Delhi - DPCC",19-12-2025 08:00:00,28.684678,77.076574,PM10,145,422,287
India,Chhattisgarh,Raipur,"Krishak Nagar, Raipur - CECB",19-12-2025 08:00:00,21.237755,81.705301,OZONE,1,4,1
India,Chhattisgarh,Raipur,"Siltara Phase-II, Raipur - CECB",19-12-2025 08:00:00,21.371751,81.664929,NH3,2,2,2
India,Chhattisgarh,Tumidih,"OP Jindal Industrial Park, Tumidih - CECB",19-12-2025 08:00:00,22.06631475,83.33820077,CO,NA,NA,NA
India,Delhi,Delhi,"Alipur, Delhi - DPCC",19-12-2025 08:00:00,28.815329,77.153010,OZONE,6,24,7
India,Delhi,Delhi,"Ashok Vihar, Delhi - DPCC",19-12-2025 08:00:00,28.695381,77.181665,NH3,8,9,8
India,Delhi,Delhi,"Ashok Vihar, Delhi - DPCC",19-12-2025 08:00:00,28.695381,77.181665,SO2,13,23,18
India,Delhi,Delhi,"Ashok Vihar, Delhi - DPCC",19-12-2025 08:00:00,28.695381,77.181665,OZONE,5,43,7
India,Delhi,Delhi,"Aya Nagar, Delhi - IMD",19-12-2025 08:00:00,28.4706914,77.1099364,PM2.5,167,429,342
India,Delhi,Delhi,"Aya Nagar, Delhi - IMD",19-12-2025 08:00:00,28.4706914,77.1099364,NO2,25,118,60
India,Delhi,Delhi,"Bawana, Delhi - DPCC",19-12-2025 08:00:00,28.776200,77.051074,PM2.5,253,493,378
India,Delhi,Delhi,"Bawana, Delhi - DPCC",19-12-2025 08:00:00,28.776200,77.051074,NO2,19,47,29
India,Delhi,Delhi,"CRRI Mathura Road, Delhi - IMD",19-12-2025 08:00:00,28.5512005,77.2735737,CO,78,130,118
India,Delhi,Delhi,"Chandni Chowk, Delhi - IITM",19-12-2025 08:00:00,28.656756,77.227234,PM2.5,343,436,386
India,Delhi,Delhi,"Mundka, Delhi - DPCC",19-12-2025 08:00:00,28.684678,77.076574,NO2,47,84,63
India,Delhi,Delhi,"Najafgarh, Delhi - DPCC",19-12-2025 08:00:00,28.570173,76.933762,PM2.5,237,428,337
India,Delhi,Delhi,"Najafgarh, Delhi - DPCC",19-12-2025 08:00:00,28.570173,76.933762,PM10,113,325,203
India,Delhi,Delhi,"Najafgarh, Delhi - DPCC",19-12-2025 08:00:00,28.570173,76.933762,NH3,11,17,14
India,Chhattisgarh,Raipur,"Bhatagaon New ISBT, Raipur - CECB",19-12-2025 08:00:00,21.219665,81.630094,NH3,2,2,2
India,Chhattisgarh,Raipur,"Krishak Nagar, Raipur - CECB",19-12-2025 08:00:00,21.237755,81.705301,PM10,16,51,30
India,Delhi,Delhi,"Anand Vihar, Delhi - DPCC",19-12-2025 08:00:00,28.647622,77.3158090,NH3,12,17,15
India,Delhi,Delhi,"Anand Vihar, Delhi - DPCC",19-12-2025 08:00:00,28.647622,77.3158090,SO2,7,57,30
India,Gujarat,Ahmedabad,"Maninagar, Ahmedabad - GPCB",19-12-2025 08:00:00,23.002657,72.591912,SO2,38,51,45
India,Gujarat,Ahmedabad,"Maninagar, Ahmedabad - GPCB",19-12-2025 08:00:00,23.002657,72.591912,OZONE,26,66,36
India,Gujarat,Ahmedabad,"Rakhial, Ahmedabad - IITM",19-12-2025 08:00:00,23.016834,72.625775,NO2,14,70,36
India,Gujarat,Ahmedabad,"Rakhial, Ahmedabad - IITM",19-12-2025 08:00:00,23.016834,72.625775,SO2,19,64,33
India,Gujarat,Ahmedabad,"SAC ISRO Bopal, Ahmedabad - IITM",19-12-2025 08:00:00,23.041137,72.456691,PM2.5,92,198,158
India,Gujarat,Ahmedabad,"SAC ISRO Bopal, Ahmedabad - IITM",19-12-2025 08:00:00,23.041137,72.456691,PM10,92,175,134
India,Gujarat,Ahmedabad,"SAC ISRO Bopal, Ahmedabad - IITM",19-12-2025 08:00:00,23.041137,72.456691,NO2,27,52,42
India,Gujarat,Ahmedabad,"SAC ISRO Bopal, Ahmedabad - IITM",19-12-2025 08:00:00,23.041137,72.456691,CO,26,53,40
India,Gujarat,Ahmedabad,"SAC ISRO Satellite, Ahmedabad - IITM",19-12-2025 08:00:00,23.023389,72.515201,NH3,9,22,13
India,Delhi,Delhi,"Pusa, Delhi - DPCC",19-12-2025 08:00:00,28.639652,77.146275,NO2,41,171,95
India,Delhi,Delhi,"Pusa, Delhi - DPCC",19-12-2025 08:00:00,28.639652,77.146275,NH3,15,28,21
India,Delhi,Delhi,"Pusa, Delhi - DPCC",19-12-2025 08:00:00,28.639652,77.146275,SO2,3,8,6
India,Delhi,Delhi,"R K Puram, Delhi - DPCC",19-12-2025 08:00:00,28.563262,77.186937,PM2.5,329,500,436
India,Delhi,Delhi,"R K Puram, Delhi - DPCC",19-12-2025 08:00:00,28.563262,77.186937,PM10,146,500,363
India,Delhi,Delhi,"Rohini, Delhi - DPCC",19-12-2025 08:00:00,28.732528,77.119920,PM2.5,312,493,396
India,Delhi,Delhi,"Rohini, Delhi - DPCC",19-12-2025 08:00:00,28.732528,77.119920,NO2,29,72,46
India,Delhi,Delhi,"Rohini, Delhi - DPCC",19-12-2025 08:00:00,28.732528,77.119920,SO2,9,16,13
India,Delhi,Delhi,"Shadipur, Delhi - CPCB",19-12-2025 08:00:00,28.6514781,77.1473105,PM2.5,301,329,306
India,Delhi,Delhi,"Nehru Nagar, Delhi - DPCC",19-12-2025 08:00:00,28.567890,77.250515,PM10,200,456,339
India,Delhi,Delhi,"Nehru Nagar, Delhi - DPCC",19-12-2025 08:00:00,28.567890,77.250515,NO2,22,88,46
India,Delhi,Delhi,"Nehru Nagar, Delhi - DPCC",19-12-2025 08:00:00,28.567890,77.250515,CO,4,73,15
India,Delhi,Delhi,"Nehru Nagar, Delhi - DPCC",19-12-2025 08:00:00,28.567890,77.250515,OZONE,3,111,8
India,Delhi,Delhi,"North Campus, DU, Delhi - IMD",19-12-2025 08:00:00,28.6573814,77.1585447,PM2.5,256,409,349
India,Delhi,Delhi,"Okhla Phase-2, Delhi - DPCC",19-12-2025 08:00:00,28.530785,77.271255,PM2.5,341,493,416
India,Delhi,Delhi,"Patparganj, Delhi - DPCC",19-12-2025 08:00:00,28.623763,77.287209,PM2.5,342,477,408
India,Delhi,Delhi,"Patparganj, Delhi - DPCC",19-12-2025 08:00:00,28.623763,77.287209,PM10,174,419,294
India,Haryana,Charkhi Dadri,"Mini Secretariat, Charkhi Dadri - HSPCB",19-12-2025 08:00:00,28.593883,76.270653,SO2,9,11,10
India,Haryana,Dharuhera,"Municipal Corporation Office, Dharuhera -  HSPCB",19-12-2025 08:00:00,28.206800,76.799700,PM10,134,433,294
India,Haryana,Dharuhera,"Municipal Corporation Office, Dharuhera -  HSPCB",19-12-2025 08:00:00,28.206800,76.799700,SO2,6,20,10
India,Haryana,Faridabad,"New Industrial Town, Faridabad - HSPCB",19-12-2025 08:00:00,28.39072,77.30059,NO2,23,26,25
India,Haryana,Faridabad,"Sector 11, Faridabad - HSPCB",19-12-2025 08:00:00,28.376058,77.315741,PM10,79,416,279
India,Haryana,Faridabad,"Sector 11, Faridabad - HSPCB",19-12-2025 08:00:00,28.376058,77.315741,NO2,30,33,32
India,Delhi,Delhi,"Vivek Vihar, Delhi - DPCC",19-12-2025 08:00:00,28.672342,77.315260,PM10,206,480,376
India,Delhi,Delhi,"Vivek Vihar, Delhi - DPCC",19-12-2025 08:00:00,28.672342,77.315260,OZONE,1,12,1
India,Delhi,Delhi,"Wazirpur, Delhi - DPCC",19-12-2025 08:00:00,28.699793,77.165453,PM10,184,441,329
India,Delhi,Delhi,"Wazirpur, Delhi - DPCC",19-12-2025 08:00:00,28.699793,77.165453,NO2,49,93,75
India,Gujarat,Ahmedabad,"Chandkheda, Ahmedabad - IITM",19-12-2025 08:00:00,23.107969,72.574648,NH3,6,12,8
India,Gujarat,Ahmedabad,"Chandkheda, Ahmedabad - IITM",19-12-2025 08:00:00,23.107969,72.574648,SO2,1,21,9
India,Gujarat,Ahmedabad,"Gyaspur, Ahmedabad - IITM",19-12-2025 08:00:00,22.977134,72.553024,PM10,86,191,160
India,Delhi,Delhi,"Shadipur, Delhi - CPCB",19-12-2025 08:00:00,28.6514781,77.1473105,OZONE,9,39,12
India,Delhi,Delhi,"Sirifort, Delhi - CPCB",19-12-2025 08:00:00,28.5504249,77.2159377,PM10,183,435,375
India,Delhi,Delhi,"Sirifort, Delhi - CPCB",19-12-2025 08:00:00,28.5504249,77.2159377,OZONE,12,25,14
India,Delhi,Delhi,"Sonia Vihar, Delhi - DPCC",19-12-2025 08:00:00,28.710508,77.249485,PM10,152,288,214
India,Delhi,Delhi,"Sonia Vihar, Delhi - DPCC",19-12-2025 08:00:00,28.710508,77.249485,SO2,7,12,9
India,Delhi,Delhi,"Sri Aurobindo Marg, Delhi - DPCC",19-12-2025 08:00:00,28.531346,77.190156,NH3,8,12,10
India,Gujarat,Ahmedabad,"SAC ISRO Satellite, Ahmedabad - IITM",19-12-2025 08:00:00,23.023389,72.515201,CO,24,90,47
India,Gujarat,Gandhinagar,"GIFT City, Gandhinagar - IITM",19-12-2025 08:00:00,23.163798,72.677768,NO2,22,69,41
India,Gujarat,Gandhinagar,"GIFT City, Gandhinagar - IITM",19-12-2025 08:00:00,23.163798,72.677768,SO2,3,12,8
India,Gujarat,Gandhinagar,"IIPHG Lekawada, Gandhinagar - IITM",19-12-2025 08:00:00,23.243639,72.68994,PM10,62,121,96
India,Haryana,Bahadurgarh,"Arya Nagar, Bahadurgarh - HSPCB",19-12-2025 08:00:00,28.6701,76.9254,PM2.5,44,500,290
India,Haryana,Ballabgarh,"Nathu Colony, Ballabgarh - HSPCB",19-12-2025 08:00:00,28.3419248,77.319699,NO2,19,21,20
India,Haryana,Bhiwani,"H.B. Colony, Bhiwani - HSPCB",19-12-2025 08:00:00,28.806223,76.141105,PM2.5,107,199,142
India,Gujarat,Gandhinagar,"Sector-10, Gandhinagar - GPCB",19-12-2025 08:00:00,23.221714,72.654328,SO2,8,17,13
India,Gujarat,Vapi,"Phase-1 GIDC, Vapi - GPCB",19-12-2025 08:00:00,20.362421,72.918013,SO2,29,34,31
India,Haryana,Faridabad,"Sector 11, Faridabad - HSPCB",19-12-2025 08:00:00,28.376058,77.315741,OZONE,14,16,15
India,Haryana,Faridabad,"Sector 30, Faridabad - HSPCB",19-12-2025 08:00:00,28.4417,77.3217,NO2,35,40,38
India,Haryana,Faridabad,"Sector 30, Faridabad - HSPCB",19-12-2025 08:00:00,28.4417,77.3217,NH3,11,12,11
India,Haryana,Faridabad,"Sector 30, Faridabad - HSPCB",19-12-2025 08:00:00,28.4417,77.3217,SO2,6,6,6
India,Haryana,Fatehabad,"Huda Sector, Fatehabad - HSPCB",19-12-2025 08:00:00,29.503664,75.467934,SO2,10,11,11
India,Haryana,Gurugram,"NISE Gwal Pahari, Gurugram - IMD",19-12-2025 08:00:00,28.422681,77.148944,PM2.5,202,487,385
India,Haryana,Gurugram,"NISE Gwal Pahari, Gurugram - IMD",19-12-2025 08:00:00,28.422681,77.148944,OZONE,5,51,8
India,Haryana,Gurugram,"Sector-51, Gurugram - HSPCB",19-12-2025 08:00:00,28.4227,77.0667,NO2,4,10,6
India,Haryana,Kaithal,"Rishi Nagar, Kaithal - HSPCB",19-12-2025 08:00:00,29.8006,76.4155,CO,9,68,42
India,Haryana,Karnal,"Sector-12, Karnal - HSPCB",19-12-2025 08:00:00,29.695300,77.002700,PM10,8,414,121
India,Haryana,Karnal,"Sector-12, Karnal - HSPCB",19-12-2025 08:00:00,29.695300,77.002700,NH3,6,7,6
India,Haryana,Karnal,"Sector-12, Karnal - HSPCB",19-12-2025 08:00:00,29.695300,77.002700,CO,34,60,50
India,Haryana,Karnal,"Sector-12, Karnal - HSPCB",19-12-2025 08:00:00,29.695300,77.002700,OZONE,36,36,36
India,Haryana,Kurukshetra,"Sector-7, Kurukshetra - HSPCB",19-12-2025 08:00:00,29.966942,76.875879,NH3,5,5,5
India,Haryana,Mandikhera,"General Hospital, Mandikhera(Nuh) - HSPCB",19-12-2025 08:00:00,27.9002,76.9938,PM10,106,214,158
India,Haryana,Mandikhera,"General Hospital, Mandikhera(Nuh) - HSPCB",19-12-2025 08:00:00,27.9002,76.9938,NO2,20,22,21
India,Karnataka,Bengaluru,"City Railway Station, Bengaluru - KSPCB",19-12-2025 08:00:00,12.9756843,77.5660749,SO2,21,25,24
India,Karnataka,Bengaluru,"Hebbal, Bengaluru - KSPCB",19-12-2025 08:00:00,13.029152,77.585901,PM2.5,46,180,110
India,Karnataka,Bengaluru,"Hebbal, Bengaluru - KSPCB",19-12-2025 08:00:00,13.029152,77.585901,SO2,5,10,8
India,Karnataka,Bengaluru,"Hombegowda Nagar, Bengaluru - KSPCB",19-12-2025 08:00:00,12.938539,77.590100,NO2,15,82,31
India,Karnataka,Bengaluru,"Jayanagar 5th Block, Bengaluru - KSPCB",19-12-2025 08:00:00,12.920984,77.584908,CO,8,72,15
India,Karnataka,Bengaluru,"Jayanagar 5th Block, Bengaluru - KSPCB",19-12-2025 08:00:00,12.920984,77.584908,OZONE,7,55,44
India,Karnataka,Bengaluru,"Jigani, Bengaluru - KSPCB",19-12-2025 08:00:00,12.7816279,77.6299145,PM10,69,145,111
India,Himachal Pradesh,Baddi,"HIMUDA Complex Phase-1, Baddi - HPPCB",19-12-2025 08:00:00,30.943887,76.801991,NH3,4,9,6
India,Jammu_and_Kashmir,Pampore,"Khrew, Pampore - JKPCC",19-12-2025 08:00:00,34.031606,75.009712,NO2,62,111,81
India,Jammu_and_Kashmir,Srinagar,"Khunmoh, Srinagar - JKPCC",19-12-2025 08:00:00,34.06313,74.96017,PM10,149,255,185
India,Jammu_and_Kashmir,Srinagar,"Rajbagh, Srinagar - JKPCC",19-12-2025 08:00:00,34.066206,74.819820,PM10,121,277,186
India,Jammu_and_Kashmir,Srinagar,"Rajbagh, Srinagar - JKPCC",19-12-2025 08:00:00,34.066206,74.819820,NO2,NA,NA,NA
India,Karnataka,Belgaum,"Ramteerth Nagar, Belgaum - KSPCB",19-12-2025 08:00:00,15.888653,74.541751,PM2.5,35,103,67
India,Karnataka,Belgaum,"Ramteerth Nagar, Belgaum - KSPCB",19-12-2025 08:00:00,15.888653,74.541751,CO,6,10,8
India,Karnataka,Belgaum,"Ramteerth Nagar, Belgaum - KSPCB",19-12-2025 08:00:00,15.888653,74.541751,OZONE,19,20,19
India,Karnataka,Bengaluru,"BWSSB Kadabesanahalli, Bengaluru - CPCB",19-12-2025 08:00:00,12.9352049,77.6814488,NO2,14,39,25
India,Karnataka,Bengaluru,"BWSSB Kadabesanahalli, Bengaluru - CPCB",19-12-2025 08:00:00,12.9352049,77.6814488,NH3,1,1,1
India,Karnataka,Bengaluru,"BWSSB Kadabesanahalli, Bengaluru - CPCB",19-12-2025 08:00:00,12.9352049,77.6814488,SO2,2,7,4
India,Haryana,Manesar,"Sector-2 IMT, Manesar - HSPCB",19-12-2025 08:00:00,28.360699,76.936090,NH3,17,24,22
India,Haryana,Manesar,"Sector-2 IMT, Manesar - HSPCB",19-12-2025 08:00:00,28.360699,76.936090,CO,54,102,74
India,Haryana,Palwal,"Shyam Nagar, Palwal - HSPCB",19-12-2025 08:00:00,28.1485564,77.3320667,PM10,NA,NA,NA
India,Haryana,Panchgaon,"Amity University, Panchgaon - IITM",19-12-2025 08:00:00,28.3153,76.9143,OZONE,1,57,2
India,Haryana,Panipat,"Sector-18, Panipat - HSPCB",19-12-2025 08:00:00,29.432304,76.972765,PM2.5,NA,NA,NA
India,Haryana,Panipat,"Sector-18, Panipat - HSPCB",19-12-2025 08:00:00,29.432304,76.972765,NO2,31,32,31
India,Haryana,Panipat,"Sector-18, Panipat - HSPCB",19-12-2025 08:00:00,29.432304,76.972765,NH3,2,3,3
India,Haryana,Sirsa,"F-Block, Sirsa - HSPCB",19-12-2025 08:00:00,29.536400,75.015800,NH3,11,16,13
India,Haryana,Sonipat,"Murthal, Sonipat - HSPCB",19-12-2025 08:00:00,29.027200,77.062100,NO2,24,52,42
India,Karnataka,Bengaluru,"Peenya, Bengaluru - CPCB",19-12-2025 08:00:00,13.0270199,77.494094,PM2.5,21,54,34
India,Karnataka,Bengaluru,"Peenya, Bengaluru - CPCB",19-12-2025 08:00:00,13.0270199,77.494094,PM10,94,161,121
India,Karnataka,Bengaluru,"RVCE-Mailasandra, Bengaluru - KSPCB",19-12-2025 08:00:00,12.921418,77.502466,SO2,5,6,6
India,Haryana,Hisar,"Urban Estate-II, Hisar - HSPCB",19-12-2025 08:00:00,29.140560,75.744941,PM2.5,19,68,56
India,Haryana,Jind,"Police Lines, Jind - HSPCB",19-12-2025 08:00:00,29.307814,76.337619,SO2,1,2,1
India,Kerala,Thrissur,"Corporation Ground, Thrissur - Kerala PCB",19-12-2025 08:00:00,10.532400,76.215900,PM10,57,68,60
