country,state,city,station,last_update,latitude,longitude,pollutant_id,min_value,max_value,avg_value
India,Andhra_Pradesh,Vijayawada,"Rajiv Gandhi Park, Vijayawada - APPCB",20-01-2026 08:00:00,16.509717,80.612222,PM2.5,47,107,83
India,Andhra_Pradesh,Vijayawada,"Rajiv Nagar, Vijayawada - APPCB",20-01-2026 08:00:00,16.554731,80.649110,PM10,NA,NA,NA
India,Andhra_Pradesh,Vijayawada,"Rajiv Nagar, Vijayawada - APPCB",20-01-2026 08:00:00,16.554731,80.649110,NH3,NA,NA,NA
India,Andhra_Pradesh,Vijayawada,"Rajiv Nagar, Vijayawada - APPCB",20-01-2026 08:00:00,16.554731,80.649110,SO2,12,34,16
India,Andhra_Pradesh,Vijayawada,"Rajiv Nagar, Vijayawada - APPCB",20-01-2026 08:00:00,16.554731,80.649110,OZONE,NA,NA,NA
India,Andhra_Pradesh,Visakhapatnam,"GVM Corporation, Visakhapatnam - APPCB",20-01-2026 08:00:00,17.72,83.3,PM2.5,166,328,275
India,Andhra_Pradesh,Visakhapatnam,"GVM Corporation, Visakhapatnam - APPCB",20-01-2026 08:00:00,17.72,83.3,NO2,29,231,134
India,Andhra_Pradesh,Visakhapatnam,"GVM Corporation, Visakhapatnam - APPCB",20-01-2026 08:00:00,17.72,83.3,CO,20,101,57
India,Arunachal_Pradesh,Naharlagun,"Naharlagun, Naharlagun - APSPCB",20-01-2026 08:00:00,27.103358,93.679645,PM10,73,406,166
India,Bihar,Bihar Sharif,"D M Colony, Bihar Sharif - BSPCB",20-01-2026 08:00:00,25.204762,85.514960,SO2,10,10,10
India,Bihar,Buxar,"Charitra Van, Buxar - BSPCB",20-01-2026 08:00:00,25.567520,83.966379,PM2.5,92,348,194
India,Bihar,Buxar,"Charitra Van, Buxar - BSPCB",20-01-2026 08:00:00,25.567520,83.966379,OZONE,2,48,3
India,Bihar,Chhapra,"Darshan Nagar, Chhapra - BSPCB",20-01-2026 08:00:00,25.7808257,84.7446768,PM2.5,45,457,284
India,Bihar,Gaya,"Collectorate, Gaya - BSPCB",20-01-2026 08:00:00,24.7955,84.9994,OZONE,19,21,20
India,Bihar,Gaya,"Kareemganj, Gaya - BSPCB",20-01-2026 08:00:00,24.792403,84.992416,CO,34,40,40
India,Andaman and Nicobar,Sri Vijaya Puram,"Police Line, Sri Vijaya Puram - ANPCC",20-01-2026 08:00:00,11.654054,92.734055,NH3,NA,NA,NA
India,Andhra_Pradesh,Amaravati,"Secretariat, Amaravati - APPCB",20-01-2026 08:00:00,16.5150833,80.5181667,SO2,5,15,8
India,Andhra_Pradesh,Amaravati,"Secretariat, Amaravati - APPCB",20-01-2026 08:00:00,16.5150833,80.5181667,OZONE,1,60,6
India,Andhra_Pradesh,Anantapur,"Gulzarpet, Anantapur - APPCB",20-01-2026 08:00:00,14.675886,77.593027,OZONE,8,25,13
India,Andhra_Pradesh,Chittoor,"Gangineni Cheruvu, Chittoor - APPCB",20-01-2026 08:00:00,13.204880,79.097889,PM2.5,53,133,85
India,Assam,Nagaon,"Christianpatty, Nagaon - PCBA",20-01-2026 08:00:00,26.349082,92.68449,SO2,8,16,12
India,Assam,Nalbari,"Bata Chowk, Nalbari - PCBA",20-01-2026 08:00:00,26.446912,91.439057,PM2.5,96,170,145
India,Assam,Nalbari,"Bata Chowk, Nalbari - PCBA",20-01-2026 08:00:00,26.446912,91.439057,NH3,6,6,6
India,Assam,Nalbari,"Bata Chowk, Nalbari - PCBA",20-01-2026 08:00:00,26.446912,91.439057,OZONE,6,16,16
India,Assam,Silchar,"Tarapur, Silchar - PCBA",20-01-2026 08:00:00,24.82827,92.79525,SO2,2,6,4
India,Assam,Sivasagar,"Girls College, Sivasagar - PCBA",20-01-2026 08:00:00,26.987634,94.636574,NH3,4,14,10
India,Arunachal_Pradesh,Naharlagun,"Naharlagun, Naharlagun - APSPCB",20-01-2026 08:00:00,27.103358,93.679645,NO2,7,7,7
India,Assam,Byrnihat,"Central Academy for SFS, Byrnihat - PCBA",20-01-2026 08:00:00,26.071318,91.87488,PM2.5,NA,NA,NA
India,Assam,Byrnihat,"Central Academy for SFS, Byrnihat - PCBA",20-01-2026 08:00:00,26.071318,91.87488,PM10,NA,NA,NA
India,Assam,Byrnihat,"Central Academy for SFS, Byrnihat - PCBA",20-01-2026 08:00:00,26.071318,91.87488,NH3,NA,NA,NA
India,Assam,Byrnihat,"Central Academy for SFS, Byrnihat - PCBA",20-01-2026 08:00:00,26.071318,91.87488,SO2,NA,NA,NA
India,Assam,Guwahati,"Pan Bazaar, Guwahati - PCBA",20-01-2026 08:00:00,26.187500,91.744194,CO,20,76,36
India,Bihar,Arrah,"New DM Office, Arrah - BSPCB",20-01-2026 08:00:00,25.5626095,84.663264,NH3,1,1,1
India,Bihar,Begusarai,"Lohiyanagar, Begusarai - BSPCB",20-01-2026 08:00:00,25.42742023,86.13886079,NH3,8,11,11
India,Bihar,Bettiah,"Kamalnath Nagar, Bettiah - BSPCB",20-01-2026 08:00:00,26.80365,84.51954,OZONE,22,24,23
India,Bihar,Bhagalpur,"Mayaganj, Bhagalpur - BSPCB",20-01-2026 08:00:00,25.265194,87.012947,PM2.5,53,173,99
India,Bihar,Motihari,"Gandak Colony, Motihari - BSPCB",20-01-2026 08:00:00,26.63086,84.90051,NO2,3,7,5
India,Bihar,Motihari,"Gandak Colony, Motihari - BSPCB",20-01-2026 08:00:00,26.63086,84.90051,SO2,3,3,3
India,Bihar,Munger,"Town Hall, Munger - BSPCB",20-01-2026 08:00:00,25.376776,86.471523,NO2,4,5,5
India,Bihar,Muzaffarpur,"Buddha Colony, Muzaffarpur - BSPCB",20-01-2026 08:00:00,26.11442,85.39813,PM2.5,74,217,141
India,Bihar,Muzaffarpur,"Buddha Colony, Muzaffarpur - BSPCB",20-01-2026 08:00:00,26.11442,85.39813,NO2,36,75,47
India,Bihar,Katihar,"Mirchaibari, Katihar - BSPCB",20-01-2026 08:00:00,25.560083,87.553265,PM10,55,157,98
India,Bihar,Kishanganj,"SDM Office_Khagra, Kishanganj - BSPCB",20-01-2026 08:00:00,26.0881305,87.93840336,CO,15,24,17
India,Bihar,Manguraha,"Forest Rest House, Manguraha - BSPCB",20-01-2026 08:00:00,27.308328,84.531742,CO,32,34,32
India,Andhra_Pradesh,Tirumala,"Toll Gate, Tirumala - APPCB",20-01-2026 08:00:00,13.67,79.35,PM10,53,108,74
India,Andhra_Pradesh,Tirumala,"Toll Gate, Tirumala - APPCB",20-01-2026 08:00:00,13.67,79.35,OZONE,21,95,63
India,Andhra_Pradesh,Tirupati,"Vaikuntapuram, Tirupati - APPCB",20-01-2026 08:00:00,13.615387,79.409230,NO2,30,44,34
India,Andhra_Pradesh,Kadapa,"Yerramukkapalli, Kadapa - APPCB",20-01-2026 08:00:00,14.465052,78.824187,NH3,3,4,3
India,Andhra_Pradesh,Rajamahendravaram,"Anand Kala Kshetram, Rajamahendravaram - APPCB",20-01-2026 08:00:00,16.9872867,81.7363176,NH3,6,10,8
India,Chandigarh,Chandigarh,"Sector-53, Chandigarh - CPCC",20-01-2026 08:00:00,30.719859,76.738637,CO,34,128,54
India,Chhattisgarh,Bhilai,"32Bungalows, Bhilai - CECB",20-01-2026 08:00:00,21.194815,81.314770,PM2.5,26,60,40
India,Chhattisgarh,Bhilai,"32Bungalows, Bhilai - CECB",20-01-2026 08:00:00,21.194815,81.314770,SO2,7,9,8
India,Chhattisgarh,Bhilai,"Civic Center, Bhilai - Bhilai Steel Plant",20-01-2026 08:00:00,21.185571,81.343175,CO,27,34,34
India,Chhattisgarh,Bhilai,"Hathkhoj, Bhilai - CECB",20-01-2026 08:00:00,21.224231,81.408350,SO2,18,94,42
India,Chhattisgarh,Bhilai,"Hathkhoj, Bhilai - CECB",20-01-2026 08:00:00,21.224231,81.408350,OZONE,2,19,3
India,Chhattisgarh,Bilaspur,"Mangala, Bilaspur - NTPC",20-01-2026 08:00:00,22.08815,82.13737,CO,42,111,71
India,Chhattisgarh,Chhal,"Nawapara SECL Colony, Chhal - CECB",20-01-2026 08:00:00,22.118125,83.140608,PM10,44,199,80
India,Bihar,Patna,"Samanpura, Patna - BSPCB",20-01-2026 08:00:00,25.596727,85.085624,PM10,113,136,121
India,Bihar,Patna,"Samanpura, Patna - BSPCB",20-01-2026 08:00:00,25.596727,85.085624,CO,2,101,47
India,Bihar,Purnia,"Mariam Nagar, Purnia - BSPCB",20-01-2026 08:00:00,25.366336,87.117468,NH3,3,3,3
India,Bihar,Rajgir,"Dangi Tola, Rajgir - BSPCB",20-01-2026 08:00:00,25.03280,85.41948,PM2.5,45,321,132
India,Bihar,Rajgir,"Dangi Tola, Rajgir - BSPCB",20-01-2026 08:00:00,25.03280,85.41948,NH3,4,8,6
India,Bihar,Rajgir,"Dangi Tola, Rajgir - BSPCB",20-01-2026 08:00:00,25.03280,85.41948,SO2,13,26,20
India,Bihar,Saharsa,"Police Line, Saharsa - BSPCB",20-01-2026 08:00:00,25.892357,86.590325,PM2.5,83,321,184
India,Bihar,Saharsa,"Police Line, Saharsa - BSPCB",20-01-2026 08:00:00,25.892357,86.590325,OZONE,9,11,10
India,Bihar,Samastipur,"DM Office_Kasipur, Samastipur - BSPCB",20-01-2026 08:00:00,25.859655,85.77944,CO,8,12,10
India,Chhattisgarh,Chhal,"Nawapara SECL Colony, Chhal - CECB",20-01-2026 08:00:00,22.118125,83.140608,SO2,3,127,31
India,Chhattisgarh,Chhal,"Nawapara SECL Colony, Chhal - CECB",20-01-2026 08:00:00,22.118125,83.140608,CO,21,54,38
India,Chhattisgarh,Korba,"Urja Nagar, Korba - CECB",20-01-2026 08:00:00,22.348441,82.549611,PM2.5,22,369,97
India,Chhattisgarh,Korba,"Urja Nagar, Korba - CECB",20-01-2026 08:00:00,22.348441,82.549611,PM10,24,335,84
India,Chhattisgarh,Kunjemura,"OP Jindal School, Kunjemura - CECB",20-01-2026 08:00:00,22.126650,83.483212,PM10,67,206,122
India,Chhattisgarh,Kunjemura,"OP Jindal School, Kunjemura - CECB",20-01-2026 08:00:00,22.126650,83.483212,SO2,1,99,26
India,Chhattisgarh,Milupara,"Govt. Higher Secondary School, Milupara - CECB",20-01-2026 08:00:00,22.1910172,83.5197009,PM10,29,115,66
India,Chhattisgarh,Raipur,"AIIMS, Raipur - CECB",20-01-2026 08:00:00,21.258815,81.578979,PM2.5,27,193,87
India,Chhattisgarh,Raipur,"Krishak Nagar, Raipur - CECB",20-01-2026 08:00:00,21.237755,81.705301,NO2,21,33,27
India,Chhattisgarh,Raipur,"Krishak Nagar, Raipur - CECB",20-01-2026 08:00:00,21.237755,81.705301,CO,20,64,56
India,Chhattisgarh,Raipur,"Krishak Nagar, Raipur - CECB",20-01-2026 08:00:00,21.237755,81.705301,OZONE,13,20,13
India,Chhattisgarh,Raipur,"Siltara Phase-II, Raipur - CECB",20-01-2026 08:00:00,21.371751,81.664929,SO2,3,10,5
India,Chhattisgarh,Tumidih,"OP Jindal Industrial Park, Tumidih - CECB",20-01-2026 08:00:00,22.06631475,83.33820077,NH3,1,4,2
India,Chhattisgarh,Tumidih,"OP Jindal Industrial Park, Tumidih - CECB",20-01-2026 08:00:00,22.06631475,83.33820077,CO,18,72,34
India,Delhi,Delhi,"Alipur, Delhi - DPCC",20-01-2026 08:00:00,28.815329,77.153010,PM2.5,315,463,390
India,Delhi,Delhi,"Alipur, Delhi - DPCC",20-01-2026 08:00:00,28.815329,77.153010,OZONE,3,51,4
India,Delhi,Delhi,"Anand Vihar, Delhi - DPCC",20-01-2026 08:00:00,28.647622,77.3158090,OZONE,6,30,16
India,Delhi,Delhi,"Ashok Vihar, Delhi - DPCC",20-01-2026 08:00:00,28.695381,77.181665,PM2.5,344,500,442
India,Delhi,Delhi,"Aya Nagar, Delhi - IMD",20-01-2026 08:00:00,28.4706914,77.1099364,CO,64,118,107
India,Delhi,Delhi,"Bawana, Delhi - DPCC",20-01-2026 08:00:00,28.776200,77.051074,PM10,197,479,331
India,Delhi,Delhi,"CRRI Mathura Road, Delhi - IMD",20-01-2026 08:00:00,28.5512005,77.2735737,NO2,29,65,50
India,Delhi,Delhi,"Chandni Chowk, Delhi - IITM",20-01-2026 08:00:00,28.656756,77.227234,PM2.5,306,500,408
India,Delhi,Delhi,"Chandni Chowk, Delhi - IITM",20-01-2026 08:00:00,28.656756,77.227234,PM10,245,500,404
India,Delhi,Delhi,"Chandni Chowk, Delhi - IITM",20-01-2026 08:00:00,28.656756,77.227234,OZONE,1,168,2
India,Delhi,Delhi,"Dr. Karni Singh Shooting Range, Delhi - DPCC",20-01-2026 08:00:00,28.498571,77.264840,PM10,141,478,336
India,Bihar,Sasaram,"Dada Peer, Sasaram - BSPCB",20-01-2026 08:00:00,24.952822,84.002396,PM2.5,21,76,38
India,Chandigarh,Chandigarh,"Sector 22, Chandigarh - CPCC",20-01-2026 08:00:00,30.735567,76.775714,NH3,4,15,11
India,Chandigarh,Chandigarh,"Sector 22, Chandigarh - CPCC",20-01-2026 08:00:00,30.735567,76.775714,OZONE,5,158,5
India,Chandigarh,Chandigarh,"Sector-25, Chandigarh - CPCC",20-01-2026 08:00:00,30.751462,76.762879,NH3,4,6,5
India,Chandigarh,Chandigarh,"Sector-25, Chandigarh - CPCC",20-01-2026 08:00:00,30.751462,76.762879,OZONE,1,67,2
India,Chhattisgarh,Raipur,"AIIMS, Raipur - CECB",20-01-2026 08:00:00,21.258815,81.578979,CO,46,102,90
India,Chhattisgarh,Raipur,"Bhatagaon New ISBT, Raipur - CECB",20-01-2026 08:00:00,21.219665,81.630094,NH3,2,2,2
India,Bihar,Patna,"DRM Office Danapur, Patna - BSPCB",20-01-2026 08:00:00,25.586562,85.043586,CO,4,130,32
India,Bihar,Patna,"Muradpur, Patna - BSPCB",20-01-2026 08:00:00,25.619651,85.147382,PM10,109,127,117
India,Delhi,Delhi,"Mandir Marg, Delhi - DPCC",20-01-2026 08:00:00,28.636429,77.201067,PM2.5,113,500,369
India,Delhi,Delhi,"Mandir Marg, Delhi - DPCC",20-01-2026 08:00:00,28.636429,77.201067,NO2,33,162,88
India,Delhi,Delhi,"Mandir Marg, Delhi - DPCC",20-01-2026 08:00:00,28.636429,77.201067,NH3,1,9,3
India,Delhi,Delhi,"Mandir Marg, Delhi - DPCC",20-01-2026 08:00:00,28.636429,77.201067,SO2,1,79,29
India,Delhi,Delhi,"Mundka, Delhi - DPCC",20-01-2026 08:00:00,28.684678,77.076574,NO2,66,119,95
India,Delhi,Delhi,"Mundka, Delhi - DPCC",20-01-2026 08:00:00,28.684678,77.076574,NH3,15,24,19
India,Delhi,Delhi,"Mundka, Delhi - DPCC",20-01-2026 08:00:00,28.684678,77.076574,SO2,10,30,18
India,Delhi,Delhi,"NSIT Dwarka, Delhi - CPCB",20-01-2026 08:00:00,28.60909,77.0325413,NH3,6,9,7
India,Delhi,Delhi,"Najafgarh, Delhi - DPCC",20-01-2026 08:00:00,28.570173,76.933762,CO,28,127,72
India,Delhi,Delhi,"ITO, Delhi - CPCB",20-01-2026 08:00:00,28.628624,77.241060,NH3,2,8,3
India,Delhi,Delhi,"ITO, Delhi - CPCB",20-01-2026 08:00:00,28.628624,77.241060,CO,22,128,121
India,Delhi,Delhi,"ITO, Delhi - CPCB",20-01-2026 08:00:00,28.628624,77.241060,OZONE,27,52,40
India,Delhi,Delhi,"Jahangirpuri, Delhi - DPCC",20-01-2026 08:00:00,28.732820,77.170633,NH3,15,39,30
India,Delhi,Delhi,"Jawaharlal Nehru Stadium, Delhi - DPCC",20-01-2026 08:00:00,28.580280,77.233829,PM2.5,273,497,407
India,Delhi,Delhi,"Jawaharlal Nehru Stadium, Delhi - DPCC",20-01-2026 08:00:00,28.580280,77.233829,OZONE,5,198,5
India,Delhi,Delhi,"Major Dhyan Chand National Stadium, Delhi - DPCC",20-01-2026 08:00:00,28.611281,77.237738,PM2.5,257,477,381
India,Delhi,Delhi,"Major Dhyan Chand National Stadium, Delhi - DPCC",20-01-2026 08:00:00,28.611281,77.237738,CO,5,126,70
India,Gujarat,Ahmedabad,"Raikhad, Ahmedabad - IITM",20-01-2026 08:00:00,23.020509,72.579261,OZONE,2,72,6
India,Gujarat,Ahmedabad,"Rakhial, Ahmedabad - IITM",20-01-2026 08:00:00,23.016834,72.625775,NH3,5,11,7
India,Gujarat,Ahmedabad,"Rakhial, Ahmedabad - IITM",20-01-2026 08:00:00,23.016834,72.625775,SO2,27,54,39
India,Gujarat,Ahmedabad,"SAC ISRO Bopal, Ahmedabad - IITM",20-01-2026 08:00:00,23.041137,72.456691,NO2,14,51,29
India,Gujarat,Ahmedabad,"SAC ISRO Satellite, Ahmedabad - IITM",20-01-2026 08:00:00,23.023389,72.515201,NO2,2,27,15
India,Gujarat,Ahmedabad,"SVPI Airport Hansol, Ahmedabad - IITM",20-01-2026 08:00:00,23.076793,72.627874,NO2,11,83,49
India,Gujarat,Ahmedabad,"SVPI Airport Hansol, Ahmedabad - IITM",20-01-2026 08:00:00,23.076793,72.627874,NH3,2,30,9
India,Delhi,Delhi,"Vivek Vihar, Delhi - DPCC",20-01-2026 08:00:00,28.672342,77.315260,CO,34,140,80
India,Gujarat,Ahmedabad,"Chandkheda, Ahmedabad - IITM",20-01-2026 08:00:00,23.107969,72.574648,PM10,89,181,128
India,Gujarat,Ahmedabad,"Chandkheda, Ahmedabad - IITM",20-01-2026 08:00:00,23.107969,72.574648,NH3,2,11,5
India,Gujarat,Ahmedabad,"Chandkheda, Ahmedabad - IITM",20-01-2026 08:00:00,23.107969,72.574648,OZONE,1,47,5
India,Gujarat,Ahmedabad,"Maninagar, Ahmedabad - GPCB",20-01-2026 08:00:00,23.002657,72.591912,SO2,25,43,35
India,Gujarat,Ahmedabad,"Raikhad, Ahmedabad - IITM",20-01-2026 08:00:00,23.020509,72.579261,PM2.5,58,182,117
India,Delhi,Delhi,"Narela, Delhi - DPCC",20-01-2026 08:00:00,28.822836,77.101981,SO2,4,30,14
India,Delhi,Delhi,"Nehru Nagar, Delhi - DPCC",20-01-2026 08:00:00,28.567890,77.250515,PM2.5,302,500,431
India,Delhi,Delhi,"North Campus, DU, Delhi - IMD",20-01-2026 08:00:00,28.6573814,77.1585447,NO2,48,208,101
India,Delhi,Delhi,"North Campus, DU, Delhi - IMD",20-01-2026 08:00:00,28.6573814,77.1585447,CO,58,176,132
India,Delhi,Delhi,"Patparganj, Delhi - DPCC",20-01-2026 08:00:00,28.623763,77.287209,PM10,200,443,334
India,Delhi,Delhi,"Shadipur, Delhi - CPCB",20-01-2026 08:00:00,28.6514781,77.1473105,NO2,63,219,114
India,Delhi,Delhi,"Shadipur, Delhi - CPCB",20-01-2026 08:00:00,28.6514781,77.1473105,NH3,17,24,20
India,Delhi,Delhi,"Sonia Vihar, Delhi - DPCC",20-01-2026 08:00:00,28.710508,77.249485,OZONE,6,164,10
India,Delhi,Delhi,"Sri Aurobindo Marg, Delhi - DPCC",20-01-2026 08:00:00,28.531346,77.190156,PM10,103,402,250
India,Delhi,Delhi,"Vivek Vihar, Delhi - DPCC",20-01-2026 08:00:00,28.672342,77.315260,PM10,236,494,396
India,Delhi,Delhi,"IGI Airport (T3), Delhi - IMD",20-01-2026 08:00:00,28.5627763,77.1180053,NO2,71,164,109
India,Delhi,Delhi,"IHBAS, Dilshad Garden, Delhi - CPCB",20-01-2026 08:00:00,28.6811736,77.3025234,NH3,6,25,12
India,Delhi,Delhi,"IHBAS, Dilshad Garden, Delhi - CPCB",20-01-2026 08:00:00,28.6811736,77.3025234,SO2,5,29,18
India,Delhi,Delhi,"IIT Delhi, Delhi - IITM",20-01-2026 08:00:00,28.542460,77.191651,NO2,17,144,60
India,Delhi,Delhi,"Pusa, Delhi - DPCC",20-01-2026 08:00:00,28.639652,77.146275,PM2.5,332,492,411
India,Delhi,Delhi,"Pusa, Delhi - DPCC",20-01-2026 08:00:00,28.639652,77.146275,PM10,217,445,359
India,Delhi,Delhi,"Rohini, Delhi - DPCC",20-01-2026 08:00:00,28.732528,77.119920,NO2,40,100,62
India,Delhi,Delhi,"Shadipur, Delhi - CPCB",20-01-2026 08:00:00,28.6514781,77.1473105,PM10,201,500,372
India,Delhi,Delhi,"Punjabi Bagh, Delhi - DPCC",20-01-2026 08:00:00,28.674045,77.131023,NO2,37,103,61
India,Gujarat,Vapi,"Phase-1 GIDC, Vapi - GPCB",20-01-2026 08:00:00,20.362421,72.918013,PM10,42,117,70
India,Gujarat,Vatva,"Phase-4 GIDC, Vatva - GPCB",20-01-2026 08:00:00,22.969611,72.643500,NO2,56,117,87
India,Haryana,Ambala,"Patti Mehar, Ambala - HSPCB",20-01-2026 08:00:00,30.379589,76.778328,PM2.5,79,206,139
India,Haryana,Ambala,"Patti Mehar, Ambala - HSPCB",20-01-2026 08:00:00,30.379589,76.778328,NO2,20,25,22
India,Haryana,Ambala,"Patti Mehar, Ambala - HSPCB",20-01-2026 08:00:00,30.379589,76.778328,NH3,9,11,10
India,Haryana,Bahadurgarh,"Arya Nagar, Bahadurgarh - HSPCB",20-01-2026 08:00:00,28.6701,76.9254,OZONE,16,19,18
India,Haryana,Bhiwani,"H.B. Colony, Bhiwani - HSPCB",20-01-2026 08:00:00,28.806223,76.141105,NO2,1,35,31
India,Haryana,Charkhi Dadri,"Mini Secretariat, Charkhi Dadri - HSPCB",20-01-2026 08:00:00,28.593883,76.270653,PM10,113,457,223
India,Haryana,Dharuhera,"Municipal Corporation Office, Dharuhera -  HSPCB",20-01-2026 08:00:00,28.206800,76.799700,OZONE,6,34,7
India,Haryana,Faridabad,"New Industrial Town, Faridabad - HSPCB",20-01-2026 08:00:00,28.39072,77.30059,PM2.5,208,217,213
India,Haryana,Faridabad,"New Industrial Town, Faridabad - HSPCB",20-01-2026 08:00:00,28.39072,77.30059,NO2,23,26,25
India,Haryana,Faridabad,"New Industrial Town, Faridabad - HSPCB",20-01-2026 08:00:00,28.39072,77.30059,CO,10,12,12
India,Haryana,Faridabad,"Sector 11, Faridabad - HSPCB",20-01-2026 08:00:00,28.376058,77.315741,PM10,117,441,258
India,Haryana,Faridabad,"Sector 11, Faridabad - HSPCB",20-01-2026 08:00:00,28.376058,77.315741,CO,10,84,17
India,Haryana,Manesar,"Sector-2 IMT, Manesar - HSPCB",20-01-2026 08:00:00,28.360699,76.936090,NO2,37,53,40
India,Haryana,Manesar,"Sector-2 IMT, Manesar - HSPCB",20-01-2026 08:00:00,28.360699,76.936090,SO2,5,14,10
India,Haryana,Manesar,"Sector-2 IMT, Manesar - HSPCB",20-01-2026 08:00:00,28.360699,76.936090,CO,36,105,57
India,Haryana,Narnaul,"Shastri Nagar, Narnaul - HSPCB",20-01-2026 08:00:00,28.060249,76.113115,PM2.5,301,413,356
India,Haryana,Palwal,"Shyam Nagar, Palwal - HSPCB",20-01-2026 08:00:00,28.1485564,77.3320667,NO2,23,25,24
India,Haryana,Palwal,"Shyam Nagar, Palwal - HSPCB",20-01-2026 08:00:00,28.1485564,77.3320667,SO2,1,15,10
India,Haryana,Panchgaon,"Amity University, Panchgaon - IITM",20-01-2026 08:00:00,28.3153,76.9143,PM2.5,53,311,108
India,Haryana,Jind,"Police Lines, Jind - HSPCB",20-01-2026 08:00:00,29.307814,76.337619,PM10,132,181,155
India,Haryana,Karnal,"Sector-12, Karnal - HSPCB",20-01-2026 08:00:00,29.695300,77.002700,PM2.5,103,324,240
India,Haryana,Karnal,"Sector-12, Karnal - HSPCB",20-01-2026 08:00:00,29.695300,77.002700,PM10,104,216,156
India,Haryana,Karnal,"Sector-12, Karnal - HSPCB",20-01-2026 08:00:00,29.695300,77.002700,NH3,6,6,6
India,Haryana,Karnal,"Sector-12, Karnal - HSPCB",20-01-2026 08:00:00,29.695300,77.002700,CO,30,52,38
India,Haryana,Kurukshetra,"Sector-7, Kurukshetra - HSPCB",20-01-2026 08:00:00,29.966942,76.875879,PM2.5,87,291,207
India,Gujarat,Gandhinagar,"GIFT City, Gandhinagar - IITM",20-01-2026 08:00:00,23.163798,72.677768,NO2,15,71,45
India,Gujarat,Gandhinagar,"GIFT City, Gandhinagar - IITM",20-01-2026 08:00:00,23.163798,72.677768,NH3,5,19,10
India,Gujarat,Gandhinagar,"GIFT City, Gandhinagar - IITM",20-01-2026 08:00:00,23.163798,72.677768,CO,12,62,32
India,Gujarat,Gandhinagar,"IIPHG Lekawada, Gandhinagar - IITM",20-01-2026 08:00:00,23.243639,72.68994,PM10,89,172,125
India,Gujarat,Surat,"Science Center, Surat - SMC",20-01-2026 08:00:00,21.170046,72.795405,SO2,25,32,27
India,Himachal Pradesh,Baddi,"HIMUDA Complex Phase-1, Baddi - HPPCB",20-01-2026 08:00:00,30.943887,76.801991,NO2,2,18,8
India,Himachal Pradesh,Baddi,"HIMUDA Complex Phase-1, Baddi - HPPCB",20-01-2026 08:00:00,30.943887,76.801991,SO2,35,134,62
India,Jammu_and_Kashmir,Srinagar,"Rajbagh, Srinagar - JKPCC",20-01-2026 08:00:00,34.066206,74.819820,PM2.5,12,25,19
India,Jammu_and_Kashmir,Srinagar,"Rajbagh, Srinagar - JKPCC",20-01-2026 08:00:00,34.066206,74.819820,CO,9,66,13
India,Haryana,Fatehabad,"Huda Sector, Fatehabad - HSPCB",20-01-2026 08:00:00,29.503664,75.467934,PM10,153,213,191
India,Haryana,Gurugram,"Vikas Sadan, Gurugram - HSPCB",20-01-2026 08:00:00,28.4501238,77.0263051,SO2,2,8,5
India,Haryana,Hisar,"Urban Estate-II, Hisar - HSPCB",20-01-2026 08:00:00,29.140560,75.744941,CO,22,108,49
India,Haryana,Rohtak,"MD University, Rohtak - HSPCB",20-01-2026 08:00:00,28.52123,76.37138,PM2.5,181,319,282
India,Haryana,Sirsa,"F-Block, Sirsa - HSPCB",20-01-2026 08:00:00,29.536400,75.015800,NO2,12,27,20
India,Karnataka,Bagalkot,"Vidayagiri, Bagalkot - KSPCB",20-01-2026 08:00:00,16.172806,75.659694,SO2,7,7,7
India,Karnataka,Belgaum,"Ramteerth Nagar, Belgaum - KSPCB",20-01-2026 08:00:00,15.888653,74.541751,NH3,9,10,10
India,Karnataka,Bengaluru,"Silk Board, Bengaluru - KSPCB",20-01-2026 08:00:00,12.917348,77.622813,CO,24,110,29
India,Karnataka,Chamarajanagar,"Urban, Chamarajanagar - KSPCB",20-01-2026 08:00:00,11.55358,76.55521,PM2.5,26,49,40
India,Karnataka,Chikkaballapur,"Chikkaballapur Rural, Chikkaballapur - KSPCB",20-01-2026 08:00:00,13.428828,77.731418,PM2.5,46,106,77
India,Karnataka,Chikkaballapur,"Chikkaballapur Rural, Chikkaballapur - KSPCB",20-01-2026 08:00:00,13.428828,77.731418,NO2,14,86,37
India,Karnataka,Chikkaballapur,"Chikkaballapur Rural, Chikkaballapur - KSPCB",20-01-2026 08:00:00,13.428828,77.731418,NH3,4,8,6
India,Karnataka,Chikkaballapur,"Chikkaballapur Rural, Chikkaballapur - KSPCB",20-01-2026 08:00:00,13.428828,77.731418,SO2,41,52,45
India,Karnataka,Chikkaballapur,"Chikkaballapur Rural, Chikkaballapur - KSPCB",20-01-2026 08:00:00,13.428828,77.731418,OZONE,19,26,25
India,Karnataka,Chikkamagaluru,"Kalyana Nagara, Chikkamagaluru - KSPCB",20-01-2026 08:00:00,13.328028,75.797056,NO2,15,27,21
India,Karnataka,Chikkamagaluru,"Kalyana Nagara, Chikkamagaluru - KSPCB",20-01-2026 08:00:00,13.328028,75.797056,SO2,2,12,8
India,Karnataka,Davanagere,"Devaraj Urs Badavane, Davanagere - KSPCB",20-01-2026 08:00:00,14.475800,75.905200,NO2,24,53,34
India,Karnataka,Bengaluru,"Jigani, Bengaluru - KSPCB",20-01-2026 08:00:00,12.7816279,77.6299145,OZONE,20,21,20
India,Karnataka,Bengaluru,"Kasturi Nagar, Bengaluru - KSPCB",20-01-2026 08:00:00,13.003872,77.664217,PM2.5,72,73,72
India,Karnataka,Bengaluru,"Kasturi Nagar, Bengaluru - KSPCB",20-01-2026 08:00:00,13.003872,77.664217,SO2,12,19,14
India,Karnataka,Bengaluru,"Peenya, Bengaluru - CPCB",20-01-2026 08:00:00,13.0270199,77.494094,PM2.5,21,64,35
India,Karnataka,Bengaluru,"Peenya, Bengaluru - CPCB",20-01-2026 08:00:00,13.0270199,77.494094,NH3,3,4,4
India,Karnataka,Bengaluru,"Peenya, Bengaluru - CPCB",20-01-2026 08:00:00,13.0270199,77.494094,CO,6,65,8
India,Karnataka,Bengaluru,"RVCE-Mailasandra, Bengaluru - KSPCB",20-01-2026 08:00:00,12.921418,77.502466,OZONE,NA,NA,NA
India,Karnataka,Bengaluru,"Sanegurava Halli, Bengaluru - KSPCB",20-01-2026 08:00:00,12.990328,77.5431385,SO2,NA,NA,NA
India,Karnataka,Bengaluru,"Shivapura_Peenya, Bengaluru - KSPCB",20-01-2026 08:00:00,13.0246342,77.5080115,PM2.5,27,302,46
India,Karnataka,Bengaluru,"Bapuji Nagar, Bengaluru - KSPCB",20-01-2026 08:00:00,12.951913,77.539784,NH3,2,2,2
India,Karnataka,Bengaluru,"Hebbal, Bengaluru - KSPCB",20-01-2026 08:00:00,13.029152,77.585901,SO2,8,22,15
India,Karnataka,Bengaluru,"Hombegowda Nagar, Bengaluru - KSPCB",20-01-2026 08:00:00,12.938539,77.590100,PM2.5,55,156,74
India,Karnataka,Bengaluru,"Hombegowda Nagar, Bengaluru - KSPCB",20-01-2026 08:00:00,12.938539,77.590100,NH3,3,5,4
India,Karnataka,Bengaluru,"Hombegowda Nagar, Bengaluru - KSPCB",20-01-2026 08:00:00,12.938539,77.590100,CO,12,64,15
India,Karnataka,Bengaluru,"Jayanagar 5th Block, Bengaluru - KSPCB",20-01-2026 08:00:00,12.920984,77.584908,PM10,62,267,111
India,Karnataka,Bengaluru,"Jayanagar 5th Block, Bengaluru - KSPCB",20-01-2026 08:00:00,12.920984,77.584908,NH3,1,1,1
India,Karnataka,Bengaluru,"Jayanagar 5th Block, Bengaluru - KSPCB",20-01-2026 08:00:00,12.920984,77.584908,SO2,4,14,10
India,Karnataka,Bengaluru,"Jigani, Bengaluru - KSPCB",20-01-2026 08:00:00,12.7816279,77.6299145,PM2.5,49,78,61
India,Madhya Pradesh,Gwalior,"Deen Dayal Nagar, Gwalior - MPPCB",20-01-2026 08:00:00,26.259242,78.216432,PM2.5,143,327,281
India,Madhya Pradesh,Gwalior,"Maharaj Bada, Gwalior - MPPCB",20-01-2026 08:00:00,26.200388,78.147714,OZONE,8,47,16
India,Madhya Pradesh,Indore,"Airport Area, Indore - IMC",20-01-2026 08:00:00,22.7289,75.8076,PM2.5,63,387,210
India,Madhya Pradesh,Indore,"Airport Area, Indore - IMC",20-01-2026 08:00:00,22.7289,75.8076,OZONE,9,14,11
India,Madhya Pradesh,Indore,"Chhoti Gwaltoli, Indore - MPPCB",20-01-2026 08:00:00,22.4310,75.5213,PM2.5,45,203,92
India,Madhya Pradesh,Indore,"Chhoti Gwaltoli, Indore - MPPCB",20-01-2026 08:00:00,22.4310,75.5213,PM10,68,187,113
India,Madhya Pradesh,Indore,"Chhoti Gwaltoli, Indore - MPPCB",20-01-2026 08:00:00,22.4310,75.5213,CO,30,109,76
India,Madhya Pradesh,Indore,"Maguda Nagar, Indore - IMC",20-01-2026 08:00:00,22.7524,75.8872,PM10,NA,NA,NA
India,Kerala,Thrissur,"Corporation Ground, Thrissur - Kerala PCB",20-01-2026 08:00:00,10.532400,76.215900,OZONE,30,31,30
India,Madhya Pradesh,Bhopal,"Paryavaran Parisar, Bhopal - MPPCB",20-01-2026 08:00:00,23.210494,77.425409,NH3,4,6,5
India,Madhya Pradesh,Bhopal,"Paryavaran Parisar, Bhopal - MPPCB",20-01-2026 08:00:00,23.210494,77.425409,SO2,5,12,10
India,Madhya Pradesh,Bhopal,"Paryavaran Parisar, Bhopal - MPPCB",20-01-2026 08:00:00,23.210494,77.425409,CO,8,94,22
India,Madhya Pradesh,Bhopal,"T T Nagar, Bhopal - MPPCB",20-01-2026 08:00:00,23.233584,77.400574,NO2,24,52,38
India,Madhya Pradesh,Bhopal,"T T Nagar, Bhopal - MPPCB",20-01-2026 08:00:00,23.233584,77.400574,NH3,7,8,7
India,Madhya Pradesh,Dewas,"Bhopal Chauraha, Dewas - MPPCB",20-01-2026 08:00:00,22.9682591,76.064118,PM10,75,124,98
India,Karnataka,Mysuru,"Hebbal 1st Stage, Mysuru - KSPCB",20-01-2026 08:00:00,12.21041,76.37376,SO2,4,109,15
India,Karnataka,Ramanagara,"Vijay Nagar, Ramanagara - KSPCB",20-01-2026 08:00:00,12.733409,77.298051,SO2,14,27,19
India,Karnataka,Tumakuru,"Thimmalapura, Tumakuru - KSPCB",20-01-2026 08:00:00,13.377516,77.099072,PM2.5,82,480,145
India,Karnataka,Vijayapura,"Ibrahimpur, Vijayapura - KSPCB",20-01-2026 08:00:00,16.802639,75.722694,PM2.5,30,31,30
India,Karnataka,Yadgir,"Collector Office, Yadgir - KSPCB",20-01-2026 08:00:00,16.7602,77.1428,PM2.5,53,98,69
India,Karnataka,Yadgir,"Collector Office, Yadgir - KSPCB",20-01-2026 08:00:00,16.7602,77.1428,PM10,57,121,80
India,Karnataka,Davanagere,"Devaraj Urs Badavane, Davanagere - KSPCB",20-01-2026 08:00:00,14.475800,75.905200,SO2,1,5,3
India,Karnataka,Hubballi,"Lingaraj Nagar, Hubballi - KSPCB",20-01-2026 08:00:00,15.3714823,75.1160168,PM10,57,62,59
India,Karnataka,Kalaburagi,"Mahatma Basaveswar Colony, Kalaburgi - KSPCB",20-01-2026 08:00:00,17.336318,76.847397,SO2,2,4,3
India,Karnataka,Kalaburagi,"Mahatma Basaveswar Colony, Kalaburgi - KSPCB",20-01-2026 08:00:00,17.336318,76.847397,CO,30,64,42
India,Karnataka,Madikeri,"Stuart Hill, Madikeri - KSPCB",20-01-2026 08:00:00,12.415911,75.735050,OZONE,2,6,3
India,Kerala,Eloor,"Udyogamandal, Eloor - Kerala PCB",20-01-2026 08:00:00,10.073232,76.302765,NO2,6,7,6
India,Kerala,Kannur,"Thavakkara, Kannur - Kerala PCB",20-01-2026 08:00:00,11.875000,75.373200,OZONE,28,32,28
India,Kerala,Thiruvananthapuram,"Kariavattom, Thiruvananthapuram - Kerala PCB",20-01-2026 08:00:00,8.563700,76.886500,PM10,73,122,104
India,Kerala,Thiruvananthapuram,"Plammoodu, Thiruvananthapuram - Kerala PCB",20-01-2026 08:00:00,8.5149093,76.9435879,NO2,NA,NA,NA
India,Kerala,Thiruvananthapuram,"Plammoodu, Thiruvananthapuram - Kerala PCB",20-01-2026 08:00:00,8.5149093,76.9435879,OZONE,7,41,29
India,Karnataka,Bengaluru,"BTM Layout, Bengaluru - CPCB",20-01-2026 08:00:00,12.9135218,77.5950804,PM10,124,125,124
India,Karnataka,Bengaluru,"BWSSB Kadabesanahalli, Bengaluru - CPCB",20-01-2026 08:00:00,12.9352049,77.6814488,SO2,2,7,5
India,Karnataka,Bengaluru,"BWSSB Kadabesanahalli, Bengaluru - CPCB",20-01-2026 08:00:00,12.9352049,77.6814488,OZONE,12,186,35
India,Karnataka,Bengaluru,"Bapuji Nagar, Bengaluru - KSPCB",20-01-2026 08:00:00,12.951913,77.539784,PM2.5,50,130,70
India,Madhya Pradesh,Indore,"Maguda Nagar, Indore - IMC",20-01-2026 08:00:00,22.7524,75.8872,OZONE,19,53,20
India,Madhya Pradesh,Indore,"Regional Park, Indore - IMC",20-01-2026 08:00:00,22.6780,75.8559,NH3,1,9,2
India,Madhya Pradesh,Indore,"Regional Park, Indore - IMC",20-01-2026 08:00:00,22.6780,75.8559,SO2,4,24,15
India,Madhya Pradesh,Indore,"Residency Area, Indore - IMC",20-01-2026 08:00:00,22.7084,75.8815,PM2.5,42,215,85
India,Madhya Pradesh,Indore,"Residency Area, Indore - IMC",20-01-2026 08:00:00,22.7084,75.8815,NO2,25,34,31
India,Madhya Pradesh,Indore,"Residency Area, Indore - IMC",20-01-2026 08:00:00,22.7084,75.8815,SO2,4,6,5
India,Madhya Pradesh,Jabalpur,"Govindh Bhavan Colony, Jabalpur - JMC",20-01-2026 08:00:00,23.163174,79.973061,PM2.5,45,143,88
India,Madhya Pradesh,Jabalpur,"Govindh Bhavan Colony, Jabalpur - JMC",20-01-2026 08:00:00,23.163174,79.973061,PM10,51,113,92
India,Madhya Pradesh,Jabalpur,"Govindh Bhavan Colony, Jabalpur - JMC",20-01-2026 08:00:00,23.163174,79.973061,NO2,13,26,16
India,Madhya Pradesh,Jabalpur,"Gupteshwar, Jabalpur - JMC",20-01-2026 08:00:00,23.142888,79.916147,PM2.5,60,246,132
India,Madhya Pradesh,Jabalpur,"Gupteshwar, Jabalpur - JMC",20-01-2026 08:00:00,23.142888,79.916147,NO2,21,101,54
India,Madhya Pradesh,Jabalpur,"Marhatal, Jabalpur - MPPCB",20-01-2026 08:00:00,23.168606,79.932247,PM2.5,64,350,184
India,Maharashtra,Akola,"Ramdaspeth, Akola - MPCB",20-01-2026 08:00:00,20.719516,77.000253,PM10,40,155,93
India,Maharashtra,Akola,"Ramdaspeth, Akola - MPCB",20-01-2026 08:00:00,20.719516,77.000253,NH3,5,6,5
India,Maharashtra,Amravati,"Shivneri Colony, Amravati - MPCB",20-01-2026 08:00:00,20.9402359,77.7895248,PM10,73,105,89
India,Maharashtra,Amravati,"Shivneri Colony, Amravati - MPCB",20-01-2026 08:00:00,20.9402359,77.7895248,NH3,3,3,3
India,Maharashtra,Amravati,"Shivneri Colony, Amravati - MPCB",20-01-2026 08:00:00,20.9402359,77.7895248,CO,2,41,18
India,Maharashtra,Amravati,"Shri Shivaji Science College, Amravati - MPCB",20-01-2026 08:00:00,20.939198,77.765701,PM10,78,154,103
India,Maharashtra,Amravati,"Shri Shivaji Science College, Amravati - MPCB",20-01-2026 08:00:00,20.939198,77.765701,CO,42,109,47
India,Maharashtra,Aurangabad,"MIDC Chilkalthana, Aurangabad - MPCB",20-01-2026 08:00:00,19.875620,75.387310,OZONE,8,77,25
India,Maharashtra,Aurangabad,"More Chowk Waluj, Aurangabad - MPCB",20-01-2026 08:00:00,19.8389439,75.244448,SO2,10,23,16
India,Madhya Pradesh,Jabalpur,"Marhatal, Jabalpur - MPPCB",20-01-2026 08:00:00,23.168606,79.932247,NO2,26,117,57
India,Madhya Pradesh,Jabalpur,"Suhagi, Jabalpur - JMC",20-01-2026 08:00:00,23.218135,79.957770,NO2,15,143,52
India,Madhya Pradesh,Jabalpur,"Suhagi, Jabalpur - JMC",20-01-2026 08:00:00,23.218135,79.957770,OZONE,48,104,49
India,Madhya Pradesh,Katni,"Gole Bazar, Katni - MPPCB",20-01-2026 08:00:00,23.50016,80.23284,OZONE,8,139,15
India,Madhya Pradesh,Pithampur,"Sector-2 Industrial Area, Pithampur - MPPCB",20-01-2026 08:00:00,22.624758,75.675238,PM10,57,255,133
India,Madhya Pradesh,Pithampur,"Sector-2 Industrial Area, Pithampur - MPPCB",20-01-2026 08:00:00,22.624758,75.675238,SO2,20,76,40
India,Madhya Pradesh,Ratlam,"Shasthri Nagar, Ratlam - IPCA Lab",20-01-2026 08:00:00,23.331731,75.045981,SO2,32,35,33
India,Madhya Pradesh,Sagar,"Civil Lines, Sagar - MPPCB",20-01-2026 08:00:00,23.838586,78.759431,PM2.5,36,129,77
India,Maharashtra,Kalyan,"Khadakpada, Kalyan - MPCB",20-01-2026 08:00:00,19.25292,73.142019,OZONE,9,16,10
India,Maharashtra,Kalyan,"Pimpleshwar Mandir, Kalyan - MPCB",20-01-2026 08:00:00,19.192056,72.9585188,PM10,109,159,128
India,Maharashtra,Kalyan,"Pimpleshwar Mandir, Kalyan - MPCB",20-01-2026 08:00:00,19.192056,72.9585188,NO2,11,25,16
India,Maharashtra,Kolhapur,"Shivaji University, Kolhapur - MPCB",20-01-2026 08:00:00,16.6870449,74.2505872,NH3,3,5,4
India,Maharashtra,Kolhapur,"Sinchan Bhavan, Kolhapur - MPCB",20-01-2026 08:00:00,16.7143745,74.2426398,PM10,31,83,48
India,Maharashtra,Kolhapur,"Sinchan Bhavan, Kolhapur - MPCB",20-01-2026 08:00:00,16.7143745,74.2426398,NO2,4,26,18
India,Maharashtra,Kolhapur,"Sinchan Bhavan, Kolhapur - MPCB",20-01-2026 08:00:00,16.7143745,74.2426398,NH3,1,5,3
India,Maharashtra,Kolhapur,"Sinchan Bhavan, Kolhapur - MPCB",20-01-2026 08:00:00,16.7143745,74.2426398,CO,12,37,14
India,Maharashtra,Latur,"Sawe Wadi, Latur - MPCB",20-01-2026 08:00:00,18.39963,76.57452,OZONE,1,75,35
India,Madhya Pradesh,Sagar,"Deen Dayal Nagar, Sagar - MPPCB",20-01-2026 08:00:00,23.8640158,78.80289321,NO2,2,70,24
India,Madhya Pradesh,Satna,"Bandhavgar Colony, Satna - Birla Cement",20-01-2026 08:00:00,24.58434363,80.8549414,CO,24,50,38
India,Madhya Pradesh,Singrauli,"Suryakiran Bhawan NCL, Singrauli - MPPCB",20-01-2026 08:00:00,24.108970,82.645580,CO,22,104,44
India,Madhya Pradesh,Singrauli,"Suryakiran Bhawan NCL, Singrauli - MPPCB",20-01-2026 08:00:00,24.108970,82.645580,OZONE,8,38,9
India,Madhya Pradesh,Ujjain,"Mahashweta Nagar, Ujjain - MPPCB",20-01-2026 08:00:00,23.1633321,75.800225,OZONE,1,90,3
India,Maharashtra,Ahmednagar,"Tarakpur, Ahmednagar - MPCB",20-01-2026 08:00:00,19.10122,74.73339,PM10,57,113,95
India,Maharashtra,Chandrapur,"Chauhan Colony, Chandrapur - MPCB",20-01-2026 08:00:00,19.962900,79.298714,SO2,37,37,37
India,Maharashtra,Chandrapur,"MIDC Khutala, Chandrapur - MPCB",20-01-2026 08:00:00,19.9775302,79.2337086,PM2.5,60,305,141
India,Maharashtra,Chandrapur,"MIDC Khutala, Chandrapur - MPCB",20-01-2026 08:00:00,19.9775302,79.2337086,CO,36,42,39
India,Maharashtra,Dhule,"Deopur, Dhule - MPCB",20-01-2026 08:00:00,20.918946,74.776388,PM10,94,130,109
India,Maharashtra,Dhule,"Deopur, Dhule - MPCB",20-01-2026 08:00:00,20.918946,74.776388,CO,9,36,19
India,Maharashtra,Jalgaon,"Prabhat Colony, Jalgaon - MPCB",20-01-2026 08:00:00,21.001264,75.565602,PM2.5,68,143,100
India,Maharashtra,Aurangabad,"Rachnakar Colony, Aurangabad - MPCB",20-01-2026 08:00:00,19.863756,75.321188,CO,17,30,20
India,Maharashtra,Badlapur,"Katrap, Badlapur - MPCB",20-01-2026 08:00:00,19.16485,73.23409,NO2,13,34,24
India,Maharashtra,Bhiwandi,"Gokul Nagar, Bhiwandi - MPCB",20-01-2026 08:00:00,19.309073,73.057223,NO2,13,39,24
India,Maharashtra,Boisar,"Khaira, Boisar - MPCB",20-01-2026 08:00:00,19.786089,72.757971,PM2.5,33,85,58
India,Maharashtra,Boisar,"Khaira, Boisar - MPCB",20-01-2026 08:00:00,19.786089,72.757971,NH3,6,11,9
India,Maharashtra,Boisar,"Khaira, Boisar - MPCB",20-01-2026 08:00:00,19.786089,72.757971,CO,11,79,33
India,Maharashtra,Mira-Bhayandar,"Bhayandar West, Mira-Bhayandar - MPCB",20-01-2026 08:00:00,19.296481,72.840923,PM10,43,109,70
India,Maharashtra,Mira-Bhayandar,"Bhayandar West, Mira-Bhayandar - MPCB",20-01-2026 08:00:00,19.296481,72.840923,CO,14,75,28
India,Maharashtra,Mumbai,"Bandra Kurla Complex, Mumbai - IITM",20-01-2026 08:00:00,19.053536,72.84643,NH3,3,23,11
India,Maharashtra,Mumbai,"Bandra Kurla Complex, Mumbai - IITM",20-01-2026 08:00:00,19.053536,72.84643,OZONE,1,58,1
India,Maharashtra,Mumbai,"Bandra Kurla Complex, Mumbai - MPCB",20-01-2026 08:00:00,19.065931,72.862131,NH3,2,8,5
India,Maharashtra,Mumbai,"Bandra Kurla Complex, Mumbai - MPCB",20-01-2026 08:00:00,19.065931,72.862131,SO2,4,4,4
India,Maharashtra,Mumbai,"Borivali East, Mumbai - IITM",20-01-2026 08:00:00,19.23241,72.86895,NO2,NA,NA,NA
India,Maharashtra,Mumbai,"Borivali East, Mumbai - IITM",20-01-2026 08:00:00,19.23241,72.86895,NH3,NA,NA,NA
India,Maharashtra,Mumbai,"Borivali East, Mumbai - IITM",20-01-2026 08:00:00,19.23241,72.86895,CO,NA,NA,NA
India,Maharashtra,Mumbai,"Chakala-Andheri East, Mumbai - IITM",20-01-2026 08:00:00,19.11074,72.86084,PM2.5,46,86,64
India,Maharashtra,Mumbai,"Chakala-Andheri East, Mumbai - IITM",20-01-2026 08:00:00,19.11074,72.86084,NH3,9,19,13
India,Maharashtra,Mumbai,"Chakala-Andheri East, Mumbai - IITM",20-01-2026 08:00:00,19.11074,72.86084,CO,2,28,8
India,Maharashtra,Mumbai,"Chhatrapati Shivaji Intl. Airport (T2), Mumbai - MPCB",20-01-2026 08:00:00,19.10078,72.87462,NO2,1,1,1
India,Maharashtra,Nagpur,"Opp GPO Civil Lines, Nagpur - MPCB",20-01-2026 08:00:00,21.152875,79.0517531,CO,22,122,44
India,Maharashtra,Nagpur,"Ram Nagar, Nagpur - MPCB",20-01-2026 08:00:00,21.143383,79.048912,PM10,78,157,131
India,Maharashtra,Nagpur,"Ram Nagar, Nagpur - MPCB",20-01-2026 08:00:00,21.143383,79.048912,CO,30,103,66
India,Maharashtra,Nanded,"Sneh Nagar, Nanded - MPCB",20-01-2026 08:00:00,19.173852,77.296291,NO2,7,72,24
India,Maharashtra,Nanded,"Sneh Nagar, Nanded - MPCB",20-01-2026 08:00:00,19.173852,77.296291,NH3,3,5,4
India,Maharashtra,Nashik,"Gangapur Road, Nashik - MPCB",20-01-2026 08:00:00,20.0073285,73.7762427,PM2.5,60,99,75
India,Maharashtra,Nashik,"Hirawadi, Nashik - MPCB",20-01-2026 08:00:00,20.021503,73.813844,PM2.5,52,80,64
India,Maharashtra,Nashik,"Hirawadi, Nashik - MPCB",20-01-2026 08:00:00,20.021503,73.813844,PM10,63,96,77
India,Maharashtra,Nashik,"Hirawadi, Nashik - MPCB",20-01-2026 08:00:00,20.021503,73.813844,NH3,2,6,3
India,Maharashtra,Nashik,"Hirawadi, Nashik - MPCB",20-01-2026 08:00:00,20.021503,73.813844,SO2,10,19,15
India,Maharashtra,Navi Mumbai,"Sanpada, Navi Mumbai - MPCB",20-01-2026 08:00:00,19.0575752,73.0151367,PM10,50,149,98
India,Maharashtra,Navi Mumbai,"Sector-2E Kalamboli, Navi Mumbai - MPCB",20-01-2026 08:00:00,19.02579,73.10297,PM10,38,90,67
India,Maharashtra,Navi Mumbai,"Tondare-Taloja, Navi Mumbai - MPCB",20-01-2026 08:00:00,19.0630,73.1209,NO2,10,35,21
India,Maharashtra,Navi Mumbai,"Tondare-Taloja, Navi Mumbai - MPCB",20-01-2026 08:00:00,19.0630,73.1209,NH3,5,8,6
India,Maharashtra,Navi Mumbai,"Tondare-Taloja, Navi Mumbai - MPCB",20-01-2026 08:00:00,19.0630,73.1209,OZONE,10,57,12
India,Maharashtra,Parbhani,"Masoom Colony, Parbhani - MPCB",20-01-2026 08:00:00,19.265594,76.761463,NO2,NA,NA,NA
India,Maharashtra,Parbhani,"Masoom Colony, Parbhani - MPCB",20-01-2026 08:00:00,19.265594,76.761463,NH3,3,5,4
India,Maharashtra,Parbhani,"Masoom Colony, Parbhani - MPCB",20-01-2026 08:00:00,19.265594,76.761463,OZONE,10,10,10
India,Maharashtra,Pimpri-Chinchwad,"Gavalinagar, Pimpri Chinchwad - MPCB",20-01-2026 08:00:00,18.63673,73.82487,PM10,75,107,85
India,Maharashtra,Mumbai,"Siddharth Nagar-Worli, Mumbai - IITM",20-01-2026 08:00:00,19.000083,72.813993,NH3,4,7,5
India,Maharashtra,Mumbai,"Siddharth Nagar-Worli, Mumbai - IITM",20-01-2026 08:00:00,19.000083,72.813993,CO,12,58,44
India,Maharashtra,Mumbai,"Siddharth Nagar-Worli, Mumbai - IITM",20-01-2026 08:00:00,19.000083,72.813993,OZONE,18,78,44
India,Maharashtra,Mumbai,"Sion, Mumbai - MPCB",20-01-2026 08:00:00,19.047000,72.874600,NH3,6,7,6
India,Maharashtra,Mumbai,"Sion, Mumbai - MPCB",20-01-2026 08:00:00,19.047000,72.874600,SO2,1,13,7
India,Maharashtra,Mumbai,"Vile Parle West, Mumbai - MPCB",20-01-2026 08:00:00,19.10861,72.83622,CO,62,70,64
India,Maharashtra,Nagpur,"Ambazari, Nagpur - MPCB",20-01-2026 08:00:00,21.121801,79.04952,PM10,80,142,116
India,Maharashtra,Nagpur,"Ambazari, Nagpur - MPCB",20-01-2026 08:00:00,21.121801,79.04952,NH3,2,21,7
India,Maharashtra,Nagpur,"Ambazari, Nagpur - MPCB",20-01-2026 08:00:00,21.121801,79.04952,SO2,24,81,46
India,Maharashtra,Nagpur,"Mahal, Nagpur - MPCB",20-01-2026 08:00:00,21.14472,79.107595,PM10,94,146,122
India,Maharashtra,Pimpri-Chinchwad,"Park Street Wakad, Pimpri Chinchwad - MPCB",20-01-2026 08:00:00,18.59051,73.77946,NO2,38,80,56
India,Maharashtra,Pimpri-Chinchwad,"Savta Mali Nagar, Pimpri-Chinchwad - IITM",20-01-2026 08:00:00,18.614767,73.799516,CO,92,113,106
India,Maharashtra,Pimpri-Chinchwad,"Savta Mali Nagar, Pimpri-Chinchwad - IITM",20-01-2026 08:00:00,18.614767,73.799516,OZONE,5,67,15
India,Maharashtra,Pimpri-Chinchwad,"Thergaon, Pimpri Chinchwad - MPCB",20-01-2026 08:00:00,18.616318,73.765797,PM10,81,116,102
India,Maharashtra,Pune,"Bhumkar Nagar, Pune - IITM",20-01-2026 08:00:00,18.605770,73.749976,PM10,97,139,115
India,Maharashtra,Pune,"Hadapsar, Pune - IITM",20-01-2026 08:00:00,18.501793,73.927532,PM10,126,192,155
India,Maharashtra,Pune,"Katraj Dairy, Pune - MPCB",20-01-2026 08:00:00,18.454450,73.854155,PM2.5,43,70,51
India,Maharashtra,Pune,"Katraj Dairy, Pune - MPCB",20-01-2026 08:00:00,18.454450,73.854155,OZONE,1,25,3
India,Maharashtra,Pune,"Panchawati_Pashan, Pune - IITM",20-01-2026 08:00:00,18.536457,73.805454,PM2.5,35,103,78
India,Maharashtra,Pune,"Panchawati_Pashan, Pune - IITM",20-01-2026 08:00:00,18.536457,73.805454,OZONE,1,43,2
India,Maharashtra,Pune,"Revenue Colony-Shivajinagar, Pune - IITM",20-01-2026 08:00:00,18.530085,73.849598,PM2.5,58,153,100
India,Maharashtra,Pune,"Savitribai Phule Pune University, Pune - MPCB",20-01-2026 08:00:00,18.547056,73.826908,SO2,NA,NA,NA
India,Maharashtra,Pune,"Savitribai Phule Pune University, Pune - MPCB",20-01-2026 08:00:00,18.547056,73.826908,CO,13,56,38
India,Maharashtra,Pune,"Savitribai Phule Pune University, Pune - MPCB",20-01-2026 08:00:00,18.547056,73.826908,OZONE,4,218,5
India,Maharashtra,Mumbai,"Navy Nagar-Colaba, Mumbai - IITM",20-01-2026 08:00:00,18.897756,72.813320,SO2,21,72,36
India,Maharashtra,Mumbai,"Powai, Mumbai - MPCB",20-01-2026 08:00:00,19.137500,72.915056,PM2.5,11,33,18
India,Maharashtra,Mumbai,"Sewri, Mumbai - BMC",20-01-2026 08:00:00,19.000084,72.856730,PM10,65,146,97
India,Maharashtra,Mumbai,"Sewri, Mumbai - BMC",20-01-2026 08:00:00,19.000084,72.856730,CO,10,48,33
India,Maharashtra,Mumbai,"Sewri, Mumbai - BMC",20-01-2026 08:00:00,19.000084,72.856730,OZONE,1,17,1
India,Maharashtra,Mumbai,"Shivaji Nagar, Mumbai - BMC",20-01-2026 08:00:00,19.060498,72.923356,CO,30,42,33
India,Maharashtra,Nashik,"MIDC Ambad, Nashik - MPCB",20-01-2026 08:00:00,19.950220,73.731480,NH3,2,3,2
India,Maharashtra,Navi Mumbai,"Kopripada-Vashi, Navi Mumbai - MPCB",20-01-2026 08:00:00,19.090337,73.014232,PM10,80,113,96
India,Maharashtra,Navi Mumbai,"Kopripada-Vashi, Navi Mumbai - MPCB",20-01-2026 08:00:00,19.090337,73.014232,NH3,4,5,4
India,Maharashtra,Navi Mumbai,"Nerul, Navi Mumbai - MPCB",20-01-2026 08:00:00,19.008751,73.016620,PM2.5,43,154,72
India,Maharashtra,Navi Mumbai,"Nerul, Navi Mumbai - MPCB",20-01-2026 08:00:00,19.008751,73.016620,NO2,38,39,38
India,Maharashtra,Mumbai,"Kherwadi_Bandra East, Mumbai - MPCB",20-01-2026 08:00:00,19.0632143,72.8456324,NH3,10,26,18
India,Maharashtra,Mumbai,"Khindipada-Bhandup West, Mumbai - IITM",20-01-2026 08:00:00,19.1653323,72.922099,PM10,38,103,61
India,Maharashtra,Mumbai,"Kurla, Mumbai - MPCB",20-01-2026 08:00:00,19.0863,72.8888,NO2,5,6,5
India,Maharashtra,Mumbai,"Kurla, Mumbai - MPCB",20-01-2026 08:00:00,19.0863,72.8888,OZONE,28,29,28
India,Maharashtra,Mumbai,"Deonar, Mumbai - IITM",20-01-2026 08:00:00,19.04946,72.9230,CO,22,64,24
India,Maharashtra,Mumbai,"Kandivali East, Mumbai - MPCB",20-01-2026 08:00:00,19.205800,72.868200,CO,20,21,20
India,Maharashtra,Ulhasnagar,"Sidhi Vinayak Nagar, Ulhasnagar - MPCB",20-01-2026 08:00:00,19.235581,73.159121,OZONE,12,90,14
India,Maharashtra,Virar,"Bolinj, Virar - MPCB",20-01-2026 08:00:00,19.4458210,72.7988231,PM10,61,121,82
India,Maharashtra,Virar,"Bolinj, Virar - MPCB",20-01-2026 08:00:00,19.4458210,72.7988231,CO,9,48,22
India,Meghalaya,Shillong,"Lumpyngngad, Shillong - Meghalaya PCB",20-01-2026 08:00:00,25.5586,91.8985,PM2.5,2,15,9
India,Mizoram,Aizawl,"Sikulpuikawn, Aizawl - Mizoram PCB",20-01-2026 08:00:00,23.7176342,92.7192841,CO,3,4,3
India,Nagaland,Kohima,"PWD Junction, Kohima - NPCB",20-01-2026 08:00:00,25.6635413,94.0989878,PM2.5,21,97,46
India,Nagaland,Kohima,"PWD Junction, Kohima - NPCB",20-01-2026 08:00:00,25.6635413,94.0989878,OZONE,2,12,3
India,Odisha,Angul,"Hakimapada, Angul - OSPCB",20-01-2026 08:00:00,20.832874,85.104082,PM10,NA,NA,NA
India,Odisha,Angul,"Hakimapada, Angul - OSPCB",20-01-2026 08:00:00,20.832874,85.104082,NO2,NA,NA,NA
India,Maharashtra,Sangli,"Vijay Nagar, Sangli - MPCB",20-01-2026 08:00:00, 16.5038,74.3623,CO,16,73,30
India,Maharashtra,Sangli,"Vijay Nagar, Sangli - MPCB",20-01-2026 08:00:00, 16.5038,74.3623,OZONE,4,69,12
India,Maharashtra,Solapur,"Dnyaneshwar Nagar, Solapur - MPCB",20-01-2026 08:00:00,17.6336264,75.9132495,NH3,8,38,16
India,Maharashtra,Solapur,"Ratandeep Housing Society, Solapur - MPCB",20-01-2026 08:00:00,17.65439,75.90649,NH3,3,35,10
India,Maharashtra,Solapur,"Ratandeep Housing Society, Solapur - MPCB",20-01-2026 08:00:00,17.65439,75.90649,CO,16,149,27
India,Maharashtra,Thane,"Kasarvadavali, Thane - MPCB",20-01-2026 08:00:00,19.26777,72.97182,CO,4,45,25
India,Maharashtra,Thane,"Upvan Fort, Thane - MPCB",20-01-2026 08:00:00,19.222279,72.957979,PM10,63,134,83
India,Maharashtra,Thane,"Upvan Fort, Thane - MPCB",20-01-2026 08:00:00,19.222279,72.957979,NH3,5,6,6
India,Maharashtra,Thane,"Upvan Fort, Thane - MPCB",20-01-2026 08:00:00,19.222279,72.957979,SO2,8,22,15
India,Maharashtra,Thane,"Upvan Fort, Thane - MPCB",20-01-2026 08:00:00,19.222279,72.957979,CO,8,52,22
India,Odisha,Cuttack,"CDA Area, Cuttack - OSPCB",20-01-2026 08:00:00,20.48891     ,85.84768     ,OZONE,8,304,24
India,Odisha,Nayagarh,"Dabuna, Nayagarh - OSPCB",20-01-2026 08:00:00,21.847279,85.416905,NO2,10,11,10
India,Odisha,Rairangpur,"Divisional Forest Office, Rairangpur - OSPCB",20-01-2026 08:00:00,22.265816,86.174829,PM10,66,137,97
India,Odisha,Rairangpur,"Divisional Forest Office, Rairangpur - OSPCB",20-01-2026 08:00:00,22.265816,86.174829,CO,15,78,30
India,Odisha,Rourkela,"Fertilizer Township, Rourkela - OSPCB",20-01-2026 08:00:00,22.18972222,84.86277778,CO,17,30,22
India,Odisha,Rourkela,"Raghunathpali, Rourkela - OSPCB",20-01-2026 08:00:00,22.220833,84.809444,NH3,1,2,2
India,Odisha,Rourkela,"Raghunathpali, Rourkela - OSPCB",20-01-2026 08:00:00,22.220833,84.809444,CO,52,126,69
India,Odisha,Rourkela,"Sector-2, Rourkela - OSPCB",20-01-2026 08:00:00,22.24500000,84.88111111,PM2.5,77,211,104
India,Rajasthan,Barmer,"Railway Colony, Barmer - RSPCB",20-01-2026 08:00:00,25.747299,71.393989,NH3,6,13,8
India,Rajasthan,Barmer,"Railway Colony, Barmer - RSPCB",20-01-2026 08:00:00,25.747299,71.393989,SO2,4,47,14
India,Rajasthan,Bharatpur,"Krishna Nagar, Bharatpur - RSPCB",20-01-2026 08:00:00,27.215415,77.50873,PM10,75,179,119
India,Rajasthan,Bharatpur,"Krishna Nagar, Bharatpur - RSPCB",20-01-2026 08:00:00,27.215415,77.50873,NH3,17,26,21
India,Rajasthan,Bharatpur,"Krishna Nagar, Bharatpur - RSPCB",20-01-2026 08:00:00,27.215415,77.50873,SO2,3,11,7
India,Rajasthan,Bharatpur,"Krishna Nagar, Bharatpur - RSPCB",20-01-2026 08:00:00,27.215415,77.50873,OZONE,5,198,29
India,Rajasthan,Bhilwara,"Pratap Nagar, Bhilwara - RSPCB",20-01-2026 08:00:00,25.339605,74.618883,PM10,48,159,108
India,Rajasthan,Bhiwadi,"Vasundhara Nagar_UIT, Bhiwadi - RSPCB",20-01-2026 08:00:00,28.207266,76.829265,CO,92,132,102
India,Odisha,Bhubaneswar,"Patia, Bhubaneswar - OSPCB",20-01-2026 08:00:00,20.34652,85.81630,NH3,7,11,8
India,Odisha,Bhubaneswar,"Patia, Bhubaneswar - OSPCB",20-01-2026 08:00:00,20.34652,85.81630,SO2,4,20,10
India,Odisha,Bileipada,"Tata Township, Bileipada - OSPCB",20-01-2026 08:00:00,22.06156703,85.47409613,PM10,65,257,150
India,Odisha,Bileipada,"Tata Township, Bileipada - OSPCB",20-01-2026 08:00:00,22.06156703,85.47409613,OZONE,21,23,22
India,Odisha,Brajrajnagar,"GM Office, Brajrajnagar - OSPCB",20-01-2026 08:00:00,21.8004996,83.8396977,PM10,91,373,152
India,Odisha,Brajrajnagar,"GM Office, Brajrajnagar - OSPCB",20-01-2026 08:00:00,21.8004996,83.8396977,SO2,21,30,24
India,Odisha,Cuttack,"CDA Area, Cuttack - OSPCB",20-01-2026 08:00:00,20.48891     ,85.84768     ,PM2.5,143,331,222
India,Punjab,Khanna,"Kalal Majra, Khanna - PPCB",20-01-2026 08:00:00,30.736056 ,76.209694,CO,24,82,75
India,Punjab,Ludhiana,"Punjab Agricultural University, Ludhiana - PPCB",20-01-2026 08:00:00,30.9028,75.8086,CO,23,82,32
India,Punjab,Ludhiana,"Punjab Agricultural University, Ludhiana - PPCB",20-01-2026 08:00:00,30.9028,75.8086,OZONE,12,36,25
India,Punjab,Mandi Gobindgarh,"RIMT University, Mandi Gobindgarh - PPCB",20-01-2026 08:00:00,30.649961,76.331442,NO2,23,25,24
India,Punjab,Patiala,"Model Town, Patiala - PPCB",20-01-2026 08:00:00,30.349388,76.366642,NH3,6,7,6
India,Odisha,Talcher,"Talcher Coalfields,Talcher - OSPCB",20-01-2026 08:00:00,20.9360711,85.1707021,NH3,NA,NA,NA
India,Puducherry,Puducherry,"Jawahar Nagar, Puducherry - PPCC",20-01-2026 08:00:00,11.9309,79.8027,SO2,4,11,8
India,Punjab,Amritsar,"Golden Temple, Amritsar - PPCB",20-01-2026 08:00:00,31.620000,74.876512,PM10,50,192,110
India,Punjab,Bathinda,"Hardev Nagar, Bathinda - PPCB",20-01-2026 08:00:00,30.233011,74.907758,PM2.5,42,146,95
India,Odisha,Barbil,"Forest Office, Barbil - OSPCB",20-01-2026 08:00:00,22.1166054,85.3945546,NO2,17,76,39
India,Odisha,Baripada,"Meher Colony, Baripada - OSPCB",20-01-2026 08:00:00,21.941841,86.728318,NO2,6,77,37
India,Odisha,Baripada,"Meher Colony, Baripada - OSPCB",20-01-2026 08:00:00,21.941841,86.728318,CO,18,90,25
India,Odisha,Bhubaneswar,"Lingraj Mandir, Bhubaneswar - OSPCB",20-01-2026 08:00:00,20.240790,85.836784,PM10,NA,NA,NA
India,Odisha,Bhubaneswar,"Lingraj Mandir, Bhubaneswar - OSPCB",20-01-2026 08:00:00,20.240790,85.836784,NH3,NA,NA,NA
India,Odisha,Bhubaneswar,"Lingraj Mandir, Bhubaneswar - OSPCB",20-01-2026 08:00:00,20.240790,85.836784,CO,NA,NA,NA
India,Rajasthan,Alwar,"Moti Doongri, Alwar - RSPCB",20-01-2026 08:00:00,27.554793,76.611536,NO2,40,80,49
India,Rajasthan,Alwar,"Moti Doongri, Alwar - RSPCB",20-01-2026 08:00:00,27.554793,76.611536,CO,48,105,71
India,Rajasthan,Banswara,"Rati Talai, Banswara - RSPCB",20-01-2026 08:00:00,23.555190,74.440010,SO2,3,8,5
India,Rajasthan,Baran,"Bamboliya, Baran - RSPCB",20-01-2026 08:00:00,25.106006,76.469948,NH3,8,11,10
India,Rajasthan,Kota,"Shrinath Puram, Kota - RSPCB",20-01-2026 08:00:00,25.14389,75.821256,PM2.5,118,500,216
India,Rajasthan,Kota,"Shrinath Puram, Kota - RSPCB",20-01-2026 08:00:00,25.14389,75.821256,PM10,92,223,130
India,Rajasthan,Kota,"Shrinath Puram, Kota - RSPCB",20-01-2026 08:00:00,25.14389,75.821256,SO2,5,55,12
India,Rajasthan,Kota,"Shrinath Puram, Kota - RSPCB",20-01-2026 08:00:00,25.14389,75.821256,CO,10,106,25
India,Rajasthan,Nagaur,"Karni Colony, Nagaur - RSPCB",20-01-2026 08:00:00,27.213494,73.734444,PM10,94,355,185
India,Rajasthan,Nagaur,"Karni Colony, Nagaur - RSPCB",20-01-2026 08:00:00,27.213494,73.734444,NO2,14,77,44
India,Rajasthan,Nagaur,"Karni Colony, Nagaur - RSPCB",20-01-2026 08:00:00,27.213494,73.734444,CO,22,81,48
India,Rajasthan,Pali,"Indira Colony Vistar, Pali - RSPCB",20-01-2026 08:00:00,25.771061, 73.340227,SO2,9,16,12
India,Rajasthan,Pali,"Indira Colony Vistar, Pali - RSPCB",20-01-2026 08:00:00,25.771061, 73.340227,CO,3,68,53
India,Rajasthan,Pali,"Indira Colony Vistar, Pali - RSPCB",20-01-2026 08:00:00,25.771061, 73.340227,OZONE,6,55,18
India,Rajasthan,Jaipur,"RIICO Sitapura, Jaipur - RSPCB",20-01-2026 08:00:00,26.786682,75.827928,SO2,2,9,6
India,Rajasthan,Jaipur,"Sector-2 Murlipura, Jaipur - RSPCB",20-01-2026 08:00:00,26.960669,75.771817,SO2,6,9,7
India,Rajasthan,Jaipur,"Sector-2 Murlipura, Jaipur - RSPCB",20-01-2026 08:00:00,26.960669,75.771817,CO,24,105,47
India,Rajasthan,Jaipur,"Shastri Nagar, Jaipur - RSPCB",20-01-2026 08:00:00,26.9502929,75.730943,PM2.5,202,318,278
India,Rajasthan,Jaipur,"Shastri Nagar, Jaipur - RSPCB",20-01-2026 08:00:00,26.9502929,75.730943,SO2,3,45,20
India,Rajasthan,Jaipur,"Shastri Nagar, Jaipur - RSPCB",20-01-2026 08:00:00,26.9502929,75.730943,CO,29,122,108
India,Rajasthan,Jaisalmer,"Sadar Bazar, Jaisalmer - RSPCB",20-01-2026 08:00:00,26.912329,70.909168,SO2,4,8,6
India,Rajasthan,Jalore,"Mudtra Sili, Jalore - RSPCB",20-01-2026 08:00:00,25.344694,72.626208,PM2.5,47,344,159
India,Rajasthan,Dungarpur,"Bhoiwada, Dungarpur - RSPCB",20-01-2026 08:00:00,23.837789,73.714926,PM10,64,183,99
India,Rajasthan,Dungarpur,"Bhoiwada, Dungarpur - RSPCB",20-01-2026 08:00:00,23.837789,73.714926,CO,5,50,34
India,Rajasthan,Dungarpur,"Bhoiwada, Dungarpur - RSPCB",20-01-2026 08:00:00,23.837789,73.714926,OZONE,3,95,8
India,Rajasthan,Jaipur,"Adarsh Nagar, Jaipur - RSPCB",20-01-2026 08:00:00,26.902909,75.836858,PM2.5,115,321,228
India,Rajasthan,Jaipur,"Adarsh Nagar, Jaipur - RSPCB",20-01-2026 08:00:00,26.902909,75.836858,PM10,50,181,135
India,Rajasthan,Jaipur,"Mansarovar Sector-12, Jaipur - RSPCB",20-01-2026 08:00:00,26.843698,75.766894,PM2.5,217,345,291
India,Rajasthan,Jaipur,"Mansarovar Sector-12, Jaipur - RSPCB",20-01-2026 08:00:00,26.843698,75.766894,CO,22,101,50
India,Rajasthan,Jaipur,"Police Commissionerate, Jaipur - RSPCB",20-01-2026 08:00:00,26.9164092,75.7994901,PM2.5,91,297,200
India,Rajasthan,Jalore,"Mudtra Sili, Jalore - RSPCB",20-01-2026 08:00:00,25.344694,72.626208,CO,30,126,48
India,Rajasthan,Jhalawar,"Rajlaxmi Nagar, Jhalawar - RSPCB",20-01-2026 08:00:00,24.588397,76.172782,NO2,68,122,93
India,Rajasthan,Jhunjhunu,"Indra Nagar, Jhunjhunu - RSPCB",20-01-2026 08:00:00,28.108988,75.386577,PM10,124,276,191
India,Rajasthan,Jhunjhunu,"Indra Nagar, Jhunjhunu - RSPCB",20-01-2026 08:00:00,28.108988,75.386577,NH3,9,16,12
India,Rajasthan,Jodhpur,"Collectorate, Jodhpur - RSPCB",20-01-2026 08:00:00,26.268249,73.0193853,SO2,1,28,10
India,Rajasthan,Jodhpur,"Collectorate, Jodhpur - RSPCB",20-01-2026 08:00:00,26.268249,73.0193853,OZONE,14,90,28
India,Rajasthan,Jodhpur,"Digari Kalan, Jodhpur - RSPCB",20-01-2026 08:00:00,26.295810,73.082283,CO,16,72,34
India,Rajasthan,Bikaner,"MM Ground, Bikaner - RSPCB",20-01-2026 08:00:00,28.018792,73.292658,NH3,8,13,11
India,Rajasthan,Chittorgarh,"Shastri Nagar, Chittorgarh - RSPCB",20-01-2026 08:00:00,24.892047,74.623527,PM2.5,40,307,151
India,Rajasthan,Churu,"Subash Chowk, Churu - RSPCB",20-01-2026 08:00:00,28.296139,74.961696,PM2.5,118,374,218
India,Rajasthan,Churu,"Subash Chowk, Churu - RSPCB",20-01-2026 08:00:00,28.296139,74.961696,NO2,13,48,28
India,Rajasthan,Churu,"Subash Chowk, Churu - RSPCB",20-01-2026 08:00:00,28.296139,74.961696,NH3,17,23,20
India,Rajasthan,Dausa,"Khatikan Mohalla, Dausa - RSPCB",20-01-2026 08:00:00,26.895552,76.334753,NH3,8,15,10
India,Rajasthan,Dholpur,"Raja Ganj, Dholpur - RSPCB",20-01-2026 08:00:00,26.699557,77.898881,PM2.5,88,326,206
India,Rajasthan,Rajsamand,"Dhoinda, Rajsamand - RSPCB",20-01-2026 08:00:00,25.036360,73.883502,PM10,35,141,75
India,Rajasthan,Sawai Madhopur,"Sahu Nagar, Sawai Madhopur - RSPCB",20-01-2026 08:00:00,26.031443,76.359327,PM10,101,438,211
India,Rajasthan,Sawai Madhopur,"Sahu Nagar, Sawai Madhopur - RSPCB",20-01-2026 08:00:00,26.031443,76.359327,NH3,10,17,14
India,Rajasthan,Sawai Madhopur,"Sahu Nagar, Sawai Madhopur - RSPCB",20-01-2026 08:00:00,26.031443,76.359327,CO,42,119,75
India,Rajasthan,Sirohi,"Vedhaynath Colony, Sirohi - RSPCB",20-01-2026 08:00:00,24.885261,72.857549,NH3,1,5,3
India,Rajasthan,Jodhpur,"Jhalamand, Jodhpur - RSPCB",20-01-2026 08:00:00,26.215415,73.070156,PM10,49,314,131
India,Rajasthan,Jodhpur,"Mandor, Jodhpur - RSPCB",20-01-2026 08:00:00,26.358805,73.047444,PM2.5,35,313,125
India,Rajasthan,Jodhpur,"Mandor, Jodhpur - RSPCB",20-01-2026 08:00:00,26.358805,73.047444,OZONE,7,93,34
India,Rajasthan,Jodhpur,"Samrat Ashok Udhyan, Jodhpur - RSPCB",20-01-2026 08:00:00,26.253384,72.976571,SO2,2,55,9
India,Rajasthan,Tonk,"Shastri Nagar, Tonk - RSPCB",20-01-2026 08:00:00,26.159933,75.780517,PM10,93,491,210
India,Rajasthan,Udaipur,"Ashok Nagar, Udaipur - RSPCB",20-01-2026 08:00:00,24.5886166,73.6321397,PM10,49,159,104
India,TamilNadu,Chennai,"Arumbakkam, Chennai - TNPCB",20-01-2026 08:00:00,13.0664,80.2112 ,PM10,86,181,132
India,Rajasthan,Jodhpur,"Samrat Ashok Udhyan, Jodhpur - RSPCB",20-01-2026 08:00:00,26.253384,72.976571,OZONE,6,152,58
India,Rajasthan,Karauli,"Satyawati Vihar, Karauli - RSPCB",20-01-2026 08:00:00,26.506177,77.025989,PM2.5,94,338,159
India,Rajasthan,Karauli,"Satyawati Vihar, Karauli - RSPCB",20-01-2026 08:00:00,26.506177,77.025989,CO,39,108,47
India,TamilNadu,Dindigul,"Mendonsa Colony, Dindigul - TNPCB",20-01-2026 08:00:00,10.358535,77.984321,PM10,38,76,56
India,TamilNadu,Dindigul,"Mendonsa Colony, Dindigul - TNPCB",20-01-2026 08:00:00,10.358535,77.984321,NH3,1,5,2
India,TamilNadu,Gummidipoondi,"Anthoni Pillai Nagar, Gummidipoondi - TNPCB",20-01-2026 08:00:00,13.4127,80.1081,SO2,NA,NA,NA
India,TamilNadu,Madurai,"Uchapatti, Madurai - TNPCB",20-01-2026 08:00:00,9.865935,78.022669,NO2,7,7,7
India,TamilNadu,Perundurai,"SIPCOT Industrial Park, Perundurai - TNPCB",20-01-2026 08:00:00,11.258242,77.552761,PM10,28,101,65
India,TamilNadu,Perundurai,"SIPCOT Industrial Park, Perundurai - TNPCB",20-01-2026 08:00:00,11.258242,77.552761,NH3,2,3,2
India,TamilNadu,Pudukottai,"SIPCOT Nathampannai, Pudukottai - TNPCB",20-01-2026 08:00:00,10.423417,78.784889,PM2.5,43,120,76
India,TamilNadu,Thoothukudi,"Meelavittan, Thoothukudi - TNPCB",20-01-2026 08:00:00,8.816428 ,78.099039,PM10,48,95,68
India,TamilNadu,Chennai,"Velachery Res. Area, Chennai - CPCB",20-01-2026 08:00:00,13.0052189,80.2398125,PM2.5,63,166,99
India,TamilNadu,Chennai,"Velachery Res. Area, Chennai - CPCB",20-01-2026 08:00:00,13.0052189,80.2398125,NH3,2,4,3
India,TamilNadu,Chennai,"Velachery Res. Area, Chennai - CPCB",20-01-2026 08:00:00,13.0052189,80.2398125,OZONE,1,8,1
India,TamilNadu,Coimbatore,"PSG College of Arts and Science, Coimbatore - TNPCB",20-01-2026 08:00:00,11.0328,77.0349,PM2.5,99,205,149
India,TamilNadu,Coimbatore,"PSG College of Arts and Science, Coimbatore - TNPCB",20-01-2026 08:00:00,11.0328,77.0349,PM10,76,110,94
India,TamilNadu,Coimbatore,"SIDCO Kurichi, Coimbatore - TNPCB",20-01-2026 08:00:00,10.942451,76.978996,PM10,46,109,75
India,TamilNadu,Coimbatore,"SIDCO Kurichi, Coimbatore - TNPCB",20-01-2026 08:00:00,10.942451,76.978996,NO2,2,14,6
India,TamilNadu,Coimbatore,"SIDCO Kurichi, Coimbatore - TNPCB",20-01-2026 08:00:00,10.942451,76.978996,SO2,20,21,20
India,TamilNadu,Coimbatore,"SIDCO Kurichi, Coimbatore - TNPCB",20-01-2026 08:00:00,10.942451,76.978996,CO,46,51,49
India,Telangana,Hyderabad,"Zoo Park, Hyderabad - TSPCB",20-01-2026 08:00:00,17.349694,78.451437,PM2.5,40,112,74
India,Telangana,Hyderabad,"Zoo Park, Hyderabad - TSPCB",20-01-2026 08:00:00,17.349694,78.451437,PM10,55,132,97
India,Telangana,Hyderabad,"Zoo Park, Hyderabad - TSPCB",20-01-2026 08:00:00,17.349694,78.451437,NO2,7,17,13
India,Telangana,Hyderabad,"Zoo Park, Hyderabad - TSPCB",20-01-2026 08:00:00,17.349694,78.451437,OZONE,22,24,23
India,Tripura,Agartala,"Bardowali, Agartala - Tripura SPCB",20-01-2026 08:00:00,23.8175497,91.2726974,PM10,39,104,69
India,Tripura,Agartala,"Bardowali, Agartala - Tripura SPCB",20-01-2026 08:00:00,23.8175497,91.2726974,OZONE,2,5,2
India,Uttar_Pradesh,Agra,"Manoharpur, Agra - UPPCB",20-01-2026 08:00:00,27.23711,78.01936,PM2.5,72,304,153
India,Uttar_Pradesh,Agra,"Manoharpur, Agra - UPPCB",20-01-2026 08:00:00,27.23711,78.01936,PM10,94,221,140
India,Uttar_Pradesh,Agra,"Shahjahan Garden, Agra - UPPCB",20-01-2026 08:00:00,27.169338,78.03582,SO2,21,32,27
India,Uttar_Pradesh,Agra,"Shastripuram, Agra - UPPCB",20-01-2026 08:00:00,27.19862,77.92066,PM2.5,59,306,133
India,Uttar_Pradesh,Agra,"Shastripuram, Agra - UPPCB",20-01-2026 08:00:00,27.19862,77.92066,CO,24,42,32
India,Uttar_Pradesh,Baghpat,"Sardar Patel Inter College, Baghpat - UPPCB",20-01-2026 08:00:00,28.964949,77.278761,NH3,1,3,2
India,Uttar_Pradesh,Baghpat,"Sardar Patel Inter College, Baghpat - UPPCB",20-01-2026 08:00:00,28.964949,77.278761,SO2,2,27,10
India,Uttar_Pradesh,Baghpat,"Sardar Patel Inter College, Baghpat - UPPCB",20-01-2026 08:00:00,28.964949,77.278761,OZONE,4,74,12
India,Telangana,Hyderabad,"IDA Pashamylaram, Hyderabad - TSPCB",20-01-2026 08:00:00,17.5316895,78.218939,PM10,25,62,45
India,Telangana,Hyderabad,"IDA Pashamylaram, Hyderabad - TSPCB",20-01-2026 08:00:00,17.5316895,78.218939,OZONE,12,13,12
India,Telangana,Hyderabad,"IITH Kandi, Hyderabad - TSPCB",20-01-2026 08:00:00,17.585705,78.126199,NO2,12,13,13
India,Telangana,Hyderabad,"Kokapet, Hyderabad - TSPCB",20-01-2026 08:00:00,17.393559,78.339194,PM10,85,101,93
India,Telangana,Hyderabad,"Kokapet, Hyderabad - TSPCB",20-01-2026 08:00:00,17.393559,78.339194,SO2,11,15,12
India,Telangana,Hyderabad,"Nacharam_TSIIC IALA, Hyderabad - TSPCB",20-01-2026 08:00:00,17.429398,78.569354,SO2,10,16,12
India,Telangana,Hyderabad,"Bollaram Industrial Area, Hyderabad - TSPCB",20-01-2026 08:00:00,17.540891,78.358528,PM2.5,53,155,86
India,Telangana,Hyderabad,"Bollaram Industrial Area, Hyderabad - TSPCB",20-01-2026 08:00:00,17.540891,78.358528,CO,6,42,26
India,Telangana,Hyderabad,"Central University, Hyderabad - TSPCB",20-01-2026 08:00:00,17.460103,78.334361,CO,8,34,18
India,Telangana,Hyderabad,"ECIL Kapra, Hyderabad - TSPCB",20-01-2026 08:00:00,17.470431,78.566959,CO,16,35,27
India,Telangana,Hyderabad,"ICRISAT Patancheru, Hyderabad - TSPCB",20-01-2026 08:00:00,17.518400,78.278777,SO2,4,11,7
India,TamilNadu,Chennai,"Gandhi Nagar_Ennore, Chennai - TNPCB",20-01-2026 08:00:00,13.218341,80.32027,SO2,NA,NA,NA
India,TamilNadu,Chennai,"Gandhi Nagar_Ennore, Chennai - TNPCB",20-01-2026 08:00:00,13.218341,80.32027,CO,NA,NA,NA
India,TamilNadu,Chennai,"Kodungaiyur, Chennai - TNPCB",20-01-2026 08:00:00,13.1278,80.2642,NH3,2,6,3
India,TamilNadu,Chennai,"Manali Village, Chennai - TNPCB",20-01-2026 08:00:00,13.1662,80.2584,OZONE,16,28,26
India,TamilNadu,Chennai,"Perungudi, Chennai - TNPCB",20-01-2026 08:00:00,12.9533,80.2357,PM10,80,142,111
India,Telangana,Hyderabad,"New Malakpet, Hyderabad - TSPCB",20-01-2026 08:00:00,17.37206,78.50864,NO2,14,18,15
India,Telangana,Hyderabad,"New Malakpet, Hyderabad - TSPCB",20-01-2026 08:00:00,17.37206,78.50864,OZONE,14,36,21
India,Telangana,Hyderabad,"Ramachandrapuram, Hyderabad - TSPCB",20-01-2026 08:00:00,17.528544,78.286195,PM2.5,36,50,45
India,Telangana,Hyderabad,"Ramachandrapuram, Hyderabad - TSPCB",20-01-2026 08:00:00,17.528544,78.286195,NO2,12,19,13
India,Telangana,Hyderabad,"Ramachandrapuram, Hyderabad - TSPCB",20-01-2026 08:00:00,17.528544,78.286195,OZONE,22,36,26
India,Telangana,Hyderabad,"Somajiguda, Hyderabad - TSPCB",20-01-2026 08:00:00,17.417094,78.457437,PM10,95,101,97
India,Telangana,Hyderabad,"Somajiguda, Hyderabad - TSPCB",20-01-2026 08:00:00,17.417094,78.457437,NH3,4,4,4
India,Uttar_Pradesh,Ghaziabad,"Indirapuram, Ghaziabad - UPPCB",20-01-2026 08:00:00,28.646233,77.358075,NO2,3,11,6
India,Uttar_Pradesh,Ghaziabad,"Indirapuram, Ghaziabad - UPPCB",20-01-2026 08:00:00,28.646233,77.358075,NH3,9,9,9
India,Uttar_Pradesh,Ghaziabad,"Indirapuram, Ghaziabad - UPPCB",20-01-2026 08:00:00,28.646233,77.358075,SO2,18,37,24
India,Uttar_Pradesh,Ghaziabad,"Loni, Ghaziabad - UPPCB",20-01-2026 08:00:00,28.757294,77.278792,SO2,2,17,9
India,Uttar_Pradesh,Ghaziabad,"Sanjay Nagar, Ghaziabad - UPPCB",20-01-2026 08:00:00,28.685382,77.453839,PM2.5,139,410,335
India,Uttar_Pradesh,Ghaziabad,"Sanjay Nagar, Ghaziabad - UPPCB",20-01-2026 08:00:00,28.685382,77.453839,SO2,11,45,17
India,Uttar_Pradesh,Ghaziabad,"Sanjay Nagar, Ghaziabad - UPPCB",20-01-2026 08:00:00,28.685382,77.453839,CO,8,133,45
India,Uttar_Pradesh,Ghaziabad,"Sanjay Nagar, Ghaziabad - UPPCB",20-01-2026 08:00:00,28.685382,77.453839,OZONE,9,45,10
India,Uttar_Pradesh,Ghaziabad,"Vasundhara, Ghaziabad - UPPCB",20-01-2026 08:00:00,28.6603346,77.3572563,PM10,NA,NA,NA
India,Uttar_Pradesh,Ghaziabad,"Vasundhara, Ghaziabad - UPPCB",20-01-2026 08:00:00,28.6603346,77.3572563,SO2,19,57,32
India,Uttar_Pradesh,Gorakhpur,"Madan Mohan Malaviya University of Technology, Gorakhpur - UPPCB",20-01-2026 08:00:00,26.730136,83.433859,PM2.5,NA,NA,NA
India,Uttar_Pradesh,Gorakhpur,"Madan Mohan Malaviya University of Technology, Gorakhpur - UPPCB",20-01-2026 08:00:00,26.730136,83.433859,OZONE,NA,NA,NA
India,Uttar_Pradesh,Greater Noida,"Knowledge Park - III, Greater Noida - UPPCB",20-01-2026 08:00:00,28.47272,77.482000,PM10,158,500,326
India,Uttar_Pradesh,Greater Noida,"Knowledge Park - V, Greater Noida - UPPCB",20-01-2026 08:00:00,28.557054,77.453663,CO,30,136,47
India,Uttar_Pradesh,Hapur,"Anand Vihar, Hapur - UPPCB",20-01-2026 08:00:00,28.725645,77.749675,PM10,56,189,131
India,Uttar_Pradesh,Hapur,"Anand Vihar, Hapur - UPPCB",20-01-2026 08:00:00,28.725645,77.749675,NO2,2,24,11
India,Uttar_Pradesh,Hapur,"Anand Vihar, Hapur - UPPCB",20-01-2026 08:00:00,28.725645,77.749675,CO,24,100,80
India,Uttar_Pradesh,Jhansi,"Shivaji Nagar, Jhansi - UPPCB",20-01-2026 08:00:00,25.4547,78.6039,PM10,36,135,83
India,Uttar_Pradesh,Jhansi,"Shivaji Nagar, Jhansi - UPPCB",20-01-2026 08:00:00,25.4547,78.6039,NO2,6,6,6
India,Uttar_Pradesh,Moradabad,"Eco Herbal Park, Moradabad - UPPCB",20-01-2026 08:00:00,28.840739,78.697531,CO,18,116,60
India,Uttar_Pradesh,Moradabad,"Employment Office, Moradabad - UPPCB",20-01-2026 08:00:00,28.88528,78.73880,OZONE,23,64,32
India,Uttar_Pradesh,Moradabad,"Jigar Colony, Moradabad - UPPCB",20-01-2026 08:00:00,28.856664,78.772638,OZONE,17,48,17
India,Uttar_Pradesh,Moradabad,"Kashiram Nagar, Moradabad - UPPCB",20-01-2026 08:00:00,28.849399,78.742362,NO2,25,25,25
India,Uttar_Pradesh,Moradabad,"Kashiram Nagar, Moradabad - UPPCB",20-01-2026 08:00:00,28.849399,78.742362,NH3,4,4,4
India,Uttar_Pradesh,Moradabad,"Transport Nagar, Moradabad - UPPCB",20-01-2026 08:00:00,28.802625,78.753728,NO2,29,30,29
India,Uttar_Pradesh,Muzaffarnagar,"New Mandi, Muzaffarnagar - UPPCB",20-01-2026 08:00:00,29.4723508,77.7194031,NH3,11,21,15
India,Uttar_Pradesh,Kanpur,"FTI Kidwai Nagar, Kanpur - UPPCB",20-01-2026 08:00:00,26.428282,80.327067,OZONE,8,10,9
India,Uttar_Pradesh,Kanpur,"NSI Kalyanpur, Kanpur - UPPCB",20-01-2026 08:00:00,26.509954,80.249612,NH3,5,5,5
India,Uttar_Pradesh,Kanpur,"Nehru Nagar, Kanpur - UPPCB",20-01-2026 08:00:00,26.4703136,80.3229863,PM2.5,95,346,216
India,Uttar_Pradesh,Kanpur,"Nehru Nagar, Kanpur - UPPCB",20-01-2026 08:00:00,26.4703136,80.3229863,NO2,49,57,53
India,Uttar_Pradesh,Khurja,"Kalindi Kunj, Khurja - UPPCB",20-01-2026 08:00:00,28.2348927,77.8683002,NH3,NA,NA,NA
India,Uttar_Pradesh,Lucknow,"B R Ambedkar University, Lucknow - UPPCB",20-01-2026 08:00:00,26.766433,80.927299,NH3,4,5,4
India,Uttar_Pradesh,Lucknow,"B R Ambedkar University, Lucknow - UPPCB",20-01-2026 08:00:00,26.766433,80.927299,CO,14,36,29
India,Uttar_Pradesh,Prayagraj,"Jhunsi, Prayagraj - UPPCB",20-01-2026 08:00:00,25.425602,81.917152,OZONE,17,59,19
India,Uttar_Pradesh,Prayagraj,"Motilal Nehru NIT, Prayagraj - UPPCB",20-01-2026 08:00:00,25.494,81.863,SO2,14,24,22
India,Uttar_Pradesh,Prayagraj,"Motilal Nehru NIT, Prayagraj - UPPCB",20-01-2026 08:00:00,25.494,81.863,CO,32,102,62
India,Uttar_Pradesh,Prayagraj,"Nagar Nigam, Prayagraj - UPPCB",20-01-2026 08:00:00,25.44919916 ,81.82735986 ,PM2.5,66,235,137
India,Uttar_Pradesh,Prayagraj,"Nagar Nigam, Prayagraj - UPPCB",20-01-2026 08:00:00,25.44919916 ,81.82735986 ,OZONE,10,23,13
India,Uttar_Pradesh,Varanasi,"Bhelupur, Varanasi - UPPCB",20-01-2026 08:00:00,25.301778,82.996789,PM10,62,344,139
India,Uttar_Pradesh,Varanasi,"Bhelupur, Varanasi - UPPCB",20-01-2026 08:00:00,25.301778,82.996789,CO,12,113,77
India,Uttar_Pradesh,Lucknow,"Gomti Nagar, Lucknow - UPPCB",20-01-2026 08:00:00,26.868120,81.005119,CO,29,36,30
India,Uttar_Pradesh,Lucknow,"Kendriya Vidyalaya, Lucknow - CPCB",20-01-2026 08:00:00,26.906111,80.948222,SO2,1,8,4
India,Uttar_Pradesh,Lucknow,"Kukrail Picnic Spot-1, Lucknow - UPPCB",20-01-2026 08:00:00,26.90723,80.98579,PM2.5,28,227,85
India,Uttar_Pradesh,Lucknow,"Kukrail Picnic Spot-1, Lucknow - UPPCB",20-01-2026 08:00:00,26.90723,80.98579,NH3,6,6,6
India,Uttar_Pradesh,Lucknow,"Lalbagh, Lucknow - CPCB",20-01-2026 08:00:00,26.8458805,80.9365541,PM10,126,500,289
India,Uttar_Pradesh,Lucknow,"Lalbagh, Lucknow - CPCB",20-01-2026 08:00:00,26.8458805,80.9365541,NO2,42,51,47
India,Uttar_Pradesh,Noida,"Sector - 125, Noida - UPPCB",20-01-2026 08:00:00,28.5447608,77.3231257,SO2,10,22,14
India,Uttar_Pradesh,Noida,"Sector - 62, Noida - IMD",20-01-2026 08:00:00,28.6245479,77.3577104,OZONE,20,181,40
India,Uttar_Pradesh,Noida,"Sector-1, Noida - UPPCB",20-01-2026 08:00:00,28.5898,77.3101,OZONE,2,21,2
India,Uttar_Pradesh,Noida,"Sector-116, Noida - UPPCB",20-01-2026 08:00:00,28.569230,77.393848,NH3,16,31,22
India,Uttar_Pradesh,Prayagraj,"Jhunsi, Prayagraj - UPPCB",20-01-2026 08:00:00,25.425602,81.917152,SO2,18,57,27
India,Uttar_Pradesh,Bareilly,"Rajendra Nagar, Bareilly - UPPCB",20-01-2026 08:00:00,28.38910936,79.42963708,PM2.5,35,76,58
India,Uttar_Pradesh,Bareilly,"Rajendra Nagar, Bareilly - UPPCB",20-01-2026 08:00:00,28.38910936,79.42963708,PM10,64,139,104
India,Uttar_Pradesh,Bulandshahr,"Yamunapuram, Bulandshahr - UPPCB",20-01-2026 08:00:00,28.406963,77.849831,PM2.5,66,342,250
India,Uttar_Pradesh,Bulandshahr,"Yamunapuram, Bulandshahr - UPPCB",20-01-2026 08:00:00,28.406963,77.849831,SO2,6,28,16
India,Uttar_Pradesh,Firozabad,"Nagla Bhau, Firozabad - UPPCB",20-01-2026 08:00:00,27.168897,78.376960,CO,2,83,18
India,Uttar_Pradesh,Meerut,"Ganga Nagar, Meerut - UPPCB",20-01-2026 08:00:00,28.999264,77.7590354,NO2,40,110,60
India,Uttar_Pradesh,Meerut,"Jai Bhim Nagar, Meerut - UPPCB",20-01-2026 08:00:00,28.9535882,77.7622941,PM10,143,318,212
India,Uttar_Pradesh,Moradabad,"Buddhi Vihar, Moradabad - UPPCB",20-01-2026 08:00:00,28.83526,78.74460,OZONE,9,16,12
India,Uttar_Pradesh,Varanasi,"Maldahiya, Varanasi - UPPCB",20-01-2026 08:00:00,25.32393,82.99687,PM2.5,60,283,153
India,Uttar_Pradesh,Varanasi,"Maldahiya, Varanasi - UPPCB",20-01-2026 08:00:00,25.32393,82.99687,SO2,28,31,29
India,Uttar_Pradesh,Vrindavan,"Omex Eternity, Vrindavan - UPPCB",20-01-2026 08:00:00,27.5714090,77.6557570,PM2.5,30,125,65
India,Uttar_Pradesh,Vrindavan,"Omex Eternity, Vrindavan - UPPCB",20-01-2026 08:00:00,27.5714090,77.6557570,PM10,37,151,81
India,Uttar_Pradesh,Vrindavan,"Omex Eternity, Vrindavan - UPPCB",20-01-2026 08:00:00,27.5714090,77.6557570,SO2,14,29,18
India,Uttar_Pradesh,Vrindavan,"Omex Eternity, Vrindavan - UPPCB",20-01-2026 08:00:00,27.5714090,77.6557570,CO,30,96,69
India,Uttarakhand,Kashipur,"Govt. Girls Inter College, Kashipur - UKPCB",20-01-2026 08:00:00,29.2124114,78.9611753,CO,30,40,34
India,Uttarakhand,Rishikesh,"Shivaji Nagar, Rishikesh - UKPCB",20-01-2026 08:00:00,30.075911,78.2859547,PM10,45,84,65
India,Uttarakhand,Rishikesh,"Shivaji Nagar, Rishikesh - UKPCB",20-01-2026 08:00:00,30.075911,78.2859547,NH3,5,19,10
India,West_Bengal,Asansol,"Asansol Court Area, Asansol - WBPCB",20-01-2026 08:00:00,23.685297,86.945968,PM2.5,174,333,273
India,West_Bengal,Asansol,"Asansol Court Area, Asansol - WBPCB",20-01-2026 08:00:00,23.685297,86.945968,SO2,18,83,40
India,West_Bengal,Asansol,"Asansol Court Area, Asansol - WBPCB",20-01-2026 08:00:00,23.685297,86.945968,CO,51,112,95
India,West_Bengal,Asansol,"Asansol Court Area, Asansol - WBPCB",20-01-2026 08:00:00,23.685297,86.945968,OZONE,10,60,11
India,West_Bengal,Asansol,"Evelyn Lodge, Asansol - WBPCB",20-01-2026 08:00:00,23.6979360,86.9443950,PM2.5,148,326,279
India,West_Bengal,Durgapur,"Mahishkapur Road_B-Zone, Durgapur - WBPCB",20-01-2026 08:00:00,23.567923,87.306843,NH3,2,3,3
India,West_Bengal,Durgapur,"PCBL Residential Complex, Durgapur - WBPCB",20-01-2026 08:00:00,23.5087640,87.3544400,PM2.5,106,352,240
India,West_Bengal,Durgapur,"Womens College_City Center, Durgapur - WBPCB",20-01-2026 08:00:00,23.549395,87.300496,NO2,18,58,34
India,West_Bengal,Durgapur,"Womens College_City Center, Durgapur - WBPCB",20-01-2026 08:00:00,23.549395,87.300496,SO2,27,28,28
India,West_Bengal,Haldia,"Priyambada Housing Estate, Haldia - WBPCB",20-01-2026 08:00:00,22.06047,88.109737,PM2.5,94,270,189
India,West_Bengal,Howrah,"Belur Math, Howrah - WBPCB",20-01-2026 08:00:00,22.629801,88.352017,OZONE,23,64,26
India,West_Bengal,Howrah,"Botanical Garden, Howrah - WBPCB",20-01-2026 08:00:00,22.554954,88.292568,NO2,7,20,13
India,West_Bengal,Howrah,"Botanical Garden, Howrah - WBPCB",20-01-2026 08:00:00,22.554954,88.292568,NH3,1,1,1
India,West_Bengal,Howrah,"Botanical Garden, Howrah - WBPCB",20-01-2026 08:00:00,22.554954,88.292568,SO2,6,17,9
India,West_Bengal,Howrah,"Botanical Garden, Howrah - WBPCB",20-01-2026 08:00:00,22.554954,88.292568,CO,38,138,118
India,West_Bengal,Howrah,"Dasnagar, Howrah - WBPCB",20-01-2026 08:00:00,22.6025571,88.3105664,PM2.5,79,348,212
India,West_Bengal,Howrah,"Dasnagar, Howrah - WBPCB",20-01-2026 08:00:00,22.6025571,88.3105664,SO2,11,72,23
India,West_Bengal,Howrah,"Ghusuri, Howrah - WBPCB",20-01-2026 08:00:00,22.611968,88.347422,SO2,8,52,17
India,West_Bengal,Howrah,"Ghusuri, Howrah - WBPCB",20-01-2026 08:00:00,22.611968,88.347422,CO,61,149,131
India,West_Bengal,Howrah,"Padmapukur, Howrah - WBPCB",20-01-2026 08:00:00,22.5687319,88.2797276,PM2.5,95,371,237
India,West_Bengal,Howrah,"Padmapukur, Howrah - WBPCB",20-01-2026 08:00:00,22.5687319,88.2797276,NH3,4,42,16
India,West_Bengal,Kolkata,"Bidhannagar, Kolkata - WBPCB",20-01-2026 08:00:00,22.58157048,88.41002457,PM2.5,90,365,191
India,West_Bengal,Kolkata,"Fort William, Kolkata - WBPCB",20-01-2026 08:00:00,22.556640,88.342674,CO,25,138,120
India,West_Bengal,Kolkata,"Fort William, Kolkata - WBPCB",20-01-2026 08:00:00,22.556640,88.342674,OZONE,33,82,45
India,West_Bengal,Kolkata,"Jadavpur, Kolkata - WBPCB",20-01-2026 08:00:00,22.49929,88.36917,PM10,114,325,207
India,West_Bengal,Kolkata,"Jadavpur, Kolkata - WBPCB",20-01-2026 08:00:00,22.49929,88.36917,SO2,12,15,13
India,West_Bengal,Kolkata,"Rabindra Bharati University, Kolkata - WBPCB",20-01-2026 08:00:00,22.627847,88.380669,CO,53,158,123
India,West_Bengal,Kolkata,"Rabindra Bharati University, Kolkata - WBPCB",20-01-2026 08:00:00,22.627847,88.380669,OZONE,10,65,10
India,West_Bengal,Kolkata,"Rabindra Sarobar, Kolkata - WBPCB",20-01-2026 08:00:00,22.51106,88.35142,SO2,5,47,14
India,West_Bengal,Kolkata,"Victoria, Kolkata - WBPCB",20-01-2026 08:00:00,22.5448082,88.3403691,NO2,31,47,40
India,Bihar,Bettiah,"Kamalnath Nagar, Bettiah - BSPCB",20-01-2026 08:00:00,26.80365,84.51954,NO2,7,9,8
India,Bihar,Bhagalpur,"DM Office_Kachari Chowk, Bhagalpur - BSPCB",20-01-2026 08:00:00,25.251013,86.989001,PM2.5,62,200,118
India,Bihar,Bhagalpur,"DM Office_Kachari Chowk, Bhagalpur - BSPCB",20-01-2026 08:00:00,25.251013,86.989001,NO2,5,15,10
India,Bihar,Bhagalpur,"DM Office_Kachari Chowk, Bhagalpur - BSPCB",20-01-2026 08:00:00,25.251013,86.989001,NH3,1,1,1
India,Bihar,Bhagalpur,"DM Office_Kachari Chowk, Bhagalpur - BSPCB",20-01-2026 08:00:00,25.251013,86.989001,SO2,22,64,40
India,Bihar,Bhagalpur,"DM Office_Kachari Chowk, Bhagalpur - BSPCB",20-01-2026 08:00:00,25.251013,86.989001,CO,7,22,15
India,Bihar,Bhagalpur,"Mayaganj, Bhagalpur - BSPCB",20-01-2026 08:00:00,25.265194,87.012947,NO2,7,8,7
India,Bihar,Bhagalpur,"Mayaganj, Bhagalpur - BSPCB",20-01-2026 08:00:00,25.265194,87.012947,SO2,54,65,59
India,Bihar,Bhagalpur,"Mayaganj, Bhagalpur - BSPCB",20-01-2026 08:00:00,25.265194,87.012947,CO,82,99,90
India,Bihar,Bhagalpur,"Mayaganj, Bhagalpur - BSPCB",20-01-2026 08:00:00,25.265194,87.012947,OZONE,12,19,14
India,Bihar,Bihar Sharif,"D M Colony, Bihar Sharif - BSPCB",20-01-2026 08:00:00,25.204762,85.514960,PM10,84,181,135
India,Bihar,Bihar Sharif,"D M Colony, Bihar Sharif - BSPCB",20-01-2026 08:00:00,25.204762,85.514960,CO,2,122,36
India,Bihar,Chhapra,"Darshan Nagar, Chhapra - BSPCB",20-01-2026 08:00:00,25.7808257,84.7446768,NO2,1,2,1
India,Bihar,Gaya,"Collectorate, Gaya - BSPCB",20-01-2026 08:00:00,24.7955,84.9994,SO2,NA,NA,NA
India,Bihar,Gaya,"Collectorate, Gaya - BSPCB",20-01-2026 08:00:00,24.7955,84.9994,CO,40,46,40
India,Bihar,Gaya,"Kareemganj, Gaya - BSPCB",20-01-2026 08:00:00,24.792403,84.992416,SO2,14,16,16
India,Bihar,Gaya,"SFTI Kusdihra, Gaya - BSPCB",20-01-2026 08:00:00,24.762518,84.982348,SO2,7,9,8
India,Bihar,Gaya,"SFTI Kusdihra, Gaya - BSPCB",20-01-2026 08:00:00,24.762518,84.982348,OZONE,10,54,12
India,Bihar,Hajipur,"Industrial Area, Hajipur - BSPCB",20-01-2026 08:00:00,25.697189,85.245900,PM10,61,203,130
India,Bihar,Hajipur,"Industrial Area, Hajipur - BSPCB",20-01-2026 08:00:00,25.697189,85.245900,NH3,NA,NA,NA
India,Bihar,Hajipur,"Industrial Area, Hajipur - BSPCB",20-01-2026 08:00:00,25.697189,85.245900,CO,45,101,88
India,Bihar,Katihar,"Mirchaibari, Katihar - BSPCB",20-01-2026 08:00:00,25.560083,87.553265,NO2,8,10,9
India,Bihar,Katihar,"Mirchaibari, Katihar - BSPCB",20-01-2026 08:00:00,25.560083,87.553265,CO,54,96,84
India,Bihar,Katihar,"Mirchaibari, Katihar - BSPCB",20-01-2026 08:00:00,25.560083,87.553265,OZONE,21,30,27
India,Andhra_Pradesh,Tirupati,"Vaikuntapuram, Tirupati - APPCB",20-01-2026 08:00:00,13.615387,79.409230,PM2.5,64,76,72
India,Andhra_Pradesh,Tirupati,"Vaikuntapuram, Tirupati - APPCB",20-01-2026 08:00:00,13.615387,79.409230,PM10,82,97,91
India,Andhra_Pradesh,Tirupati,"Vaikuntapuram, Tirupati - APPCB",20-01-2026 08:00:00,13.615387,79.409230,NH3,5,5,5
India,Andhra_Pradesh,Vijayawada,"HB Colony, Vijayawada - APPCB",20-01-2026 08:00:00,16.536107,80.594233,PM10,57,104,91
India,Andhra_Pradesh,Vijayawada,"HB Colony, Vijayawada - APPCB",20-01-2026 08:00:00,16.536107,80.594233,NO2,22,33,24
India,Andhra_Pradesh,Vijayawada,"Kanuru, Vijayawada - APPCB",20-01-2026 08:00:00,16.486692,80.699436,NO2,26,143,38
India,Andhra_Pradesh,Vijayawada,"Kanuru, Vijayawada - APPCB",20-01-2026 08:00:00,16.486692,80.699436,OZONE,25,40,25
India,Andhra_Pradesh,Vijayawada,"Rajiv Gandhi Park, Vijayawada - APPCB",20-01-2026 08:00:00,16.509717,80.612222,NO2,33,75,51
India,Andhra_Pradesh,Vijayawada,"Rajiv Gandhi Park, Vijayawada - APPCB",20-01-2026 08:00:00,16.509717,80.612222,SO2,15,19,16
India,Andhra_Pradesh,Vijayawada,"Rajiv Nagar, Vijayawada - APPCB",20-01-2026 08:00:00,16.554731,80.649110,NO2,NA,NA,NA
India,Assam,Guwahati,"Pan Bazaar, Guwahati - PCBA",20-01-2026 08:00:00,26.187500,91.744194,PM10,55,137,103
India,Assam,Guwahati,"Railway Colony, Guwahati - PCBA",20-01-2026 08:00:00,26.181742,91.78063,PM10,101,260,170
India,Assam,Nagaon,"Christianpatty, Nagaon - PCBA",20-01-2026 08:00:00,26.349082,92.68449,PM2.5,71,154,115
India,Assam,Nagaon,"Christianpatty, Nagaon - PCBA",20-01-2026 08:00:00,26.349082,92.68449,NH3,2,4,4
India,Assam,Nalbari,"Bata Chowk, Nalbari - PCBA",20-01-2026 08:00:00,26.446912,91.439057,NO2,13,15,14
India,Assam,Silchar,"Tarapur, Silchar - PCBA",20-01-2026 08:00:00,24.82827,92.79525,NO2,19,27,23
India,Assam,Silchar,"Tarapur, Silchar - PCBA",20-01-2026 08:00:00,24.82827,92.79525,NH3,1,1,1
India,Assam,Silchar,"Tarapur, Silchar - PCBA",20-01-2026 08:00:00,24.82827,92.79525,OZONE,2,4,2
India,Andhra_Pradesh,Vijayawada,"Rajiv Nagar, Vijayawada - APPCB",20-01-2026 08:00:00,16.554731,80.649110,CO,4,20,7
India,Andhra_Pradesh,Visakhapatnam,"GVM Corporation, Visakhapatnam - APPCB",20-01-2026 08:00:00,17.72,83.3,PM10,132,349,225
India,Andhra_Pradesh,Visakhapatnam,"GVM Corporation, Visakhapatnam - APPCB",20-01-2026 08:00:00,17.72,83.3,NH3,3,4,4
India,Andhra_Pradesh,Visakhapatnam,"GVM Corporation, Visakhapatnam - APPCB",20-01-2026 08:00:00,17.72,83.3,OZONE,3,89,5
India,Arunachal_Pradesh,Naharlagun,"Naharlagun, Naharlagun - APSPCB",20-01-2026 08:00:00,27.103358,93.679645,PM2.5,2,380,195
India,Arunachal_Pradesh,Naharlagun,"Naharlagun, Naharlagun - APSPCB",20-01-2026 08:00:00,27.103358,93.679645,CO,12,68,22
India,Assam,Guwahati,"LGBI Airport, Guwahati - PCBA",20-01-2026 08:00:00,26.10887,91.589544,NH3,5,6,5
India,Bihar,Kishanganj,"SDM Office_Khagra, Kishanganj - BSPCB",20-01-2026 08:00:00,26.0881305,87.93840336,OZONE,16,18,16
India,Bihar,Manguraha,"Forest Rest House, Manguraha - BSPCB",20-01-2026 08:00:00,27.308328,84.531742,NO2,4,13,6
India,Bihar,Motihari,"Gandak Colony, Motihari - BSPCB",20-01-2026 08:00:00,26.63086,84.90051,CO,15,30,17
India,Bihar,Munger,"Town Hall, Munger - BSPCB",20-01-2026 08:00:00,25.376776,86.471523,PM10,33,86,56
India,Bihar,Muzaffarpur,"Buddha Colony, Muzaffarpur - BSPCB",20-01-2026 08:00:00,26.11442,85.39813,NH3,7,12,9
India,Bihar,Muzaffarpur,"Buddha Colony, Muzaffarpur - BSPCB",20-01-2026 08:00:00,26.11442,85.39813,SO2,3,6,5
India,Assam,Sivasagar,"Girls College, Sivasagar - PCBA",20-01-2026 08:00:00,26.987634,94.636574,CO,16,94,68
India,Bihar,Araria,"Kharahiya Basti, Araria - BSPCB",20-01-2026 08:00:00,26.146529,87.454184,SO2,1,21,14
India,Bihar,Arrah,"New DM Office, Arrah - BSPCB",20-01-2026 08:00:00,25.5626095,84.663264,OZONE,7,8,8
India,Bihar,Aurangabad,"Gurdeo Nagar, Aurangabad - BSPCB",20-01-2026 08:00:00,24.75746,84.366208,PM2.5,40,203,79
India,Bihar,Begusarai,"Lohiyanagar, Begusarai - BSPCB",20-01-2026 08:00:00,25.42742023,86.13886079,CO,29,32,30
India,Andhra_Pradesh,Chittoor,"Gangineni Cheruvu, Chittoor - APPCB",20-01-2026 08:00:00,13.204880,79.097889,NO2,37,50,40
India,Andhra_Pradesh,Kadapa,"Yerramukkapalli, Kadapa - APPCB",20-01-2026 08:00:00,14.465052,78.824187,SO2,13,17,14
India,Andhra_Pradesh,Kadapa,"Yerramukkapalli, Kadapa - APPCB",20-01-2026 08:00:00,14.465052,78.824187,OZONE,20,23,21
India,Andhra_Pradesh,Rajamahendravaram,"Anand Kala Kshetram, Rajamahendravaram - APPCB",20-01-2026 08:00:00,16.9872867,81.7363176,PM10,113,165,130
India,Andhra_Pradesh,Rajamahendravaram,"Anand Kala Kshetram, Rajamahendravaram - APPCB",20-01-2026 08:00:00,16.9872867,81.7363176,SO2,8,23,12
India,Andhra_Pradesh,Rajamahendravaram,"Anand Kala Kshetram, Rajamahendravaram - APPCB",20-01-2026 08:00:00,16.9872867,81.7363176,OZONE,8,25,13
India,Andaman and Nicobar,Sri Vijaya Puram,"Police Line, Sri Vijaya Puram - ANPCC",20-01-2026 08:00:00,11.654054,92.734055,PM10,NA,NA,NA
India,Delhi,Delhi,"Aya Nagar, Delhi - IMD",20-01-2026 08:00:00,28.4706914,77.1099364,NO2,NA,NA,NA
India,Delhi,Delhi,"Bawana, Delhi - DPCC",20-01-2026 08:00:00,28.776200,77.051074,PM2.5,318,500,416
India,Delhi,Delhi,"Bawana, Delhi - DPCC",20-01-2026 08:00:00,28.776200,77.051074,NO2,23,85,40
India,Delhi,Delhi,"Bawana, Delhi - DPCC",20-01-2026 08:00:00,28.776200,77.051074,CO,34,108,76
India,Delhi,Delhi,"Bawana, Delhi - DPCC",20-01-2026 08:00:00,28.776200,77.051074,OZONE,5,146,6
India,Delhi,Delhi,"Burari Crossing, Delhi - IMD",20-01-2026 08:00:00,28.7256504,77.2011573,PM2.5,308,489,414
India,Delhi,Delhi,"CRRI Mathura Road, Delhi - IMD",20-01-2026 08:00:00,28.5512005,77.2735737,CO,61,139,120
India,Delhi,Delhi,"Chandni Chowk, Delhi - IITM",20-01-2026 08:00:00,28.656756,77.227234,NO2,31,150,85
India,Delhi,Delhi,"Chandni Chowk, Delhi - IITM",20-01-2026 08:00:00,28.656756,77.227234,NH3,4,30,19
India,Delhi,Delhi,"DTU, Delhi - CPCB",20-01-2026 08:00:00,28.7500499,77.1112615,PM10,186,425,295
India,Bihar,Rajgir,"Dangi Tola, Rajgir - BSPCB",20-01-2026 08:00:00,25.03280,85.41948,CO,54,102,87
India,Bihar,Rajgir,"Dangi Tola, Rajgir - BSPCB",20-01-2026 08:00:00,25.03280,85.41948,OZONE,29,34,32
India,Bihar,Samastipur,"DM Office_Kasipur, Samastipur - BSPCB",20-01-2026 08:00:00,25.859655,85.77944,NO2,8,9,8
India,Bihar,Samastipur,"DM Office_Kasipur, Samastipur - BSPCB",20-01-2026 08:00:00,25.859655,85.77944,SO2,17,28,23
India,Bihar,Sasaram,"Dada Peer, Sasaram - BSPCB",20-01-2026 08:00:00,24.952822,84.002396,NO2,1,9,3
India,Bihar,Sasaram,"Dada Peer, Sasaram - BSPCB",20-01-2026 08:00:00,24.952822,84.002396,CO,30,105,66
India,Bihar,Siwan,"Chitragupta Nagar, Siwan - BSPCB",20-01-2026 08:00:00,26.2271665,84.3570427,SO2,7,8,7
India,Bihar,Siwan,"Chitragupta Nagar, Siwan - BSPCB",20-01-2026 08:00:00,26.2271665,84.3570427,OZONE,12,13,12
India,Chandigarh,Chandigarh,"Sector 22, Chandigarh - CPCC",20-01-2026 08:00:00,30.735567,76.775714,PM2.5,57,287,127
India,Chhattisgarh,Raipur,"Siltara Phase-II, Raipur - CECB",20-01-2026 08:00:00,21.371751,81.664929,CO,34,36,35
India,Chhattisgarh,Tumidih,"OP Jindal Industrial Park, Tumidih - CECB",20-01-2026 08:00:00,22.06631475,83.33820077,NO2,10,100,74
India,Delhi,Delhi,"Alipur, Delhi - DPCC",20-01-2026 08:00:00,28.815329,77.153010,NO2,43,132,67
India,Delhi,Delhi,"Alipur, Delhi - DPCC",20-01-2026 08:00:00,28.815329,77.153010,SO2,9,20,13
India,Delhi,Delhi,"Ashok Vihar, Delhi - DPCC",20-01-2026 08:00:00,28.695381,77.181665,NO2,50,169,90
India,Delhi,Delhi,"Ashok Vihar, Delhi - DPCC",20-01-2026 08:00:00,28.695381,77.181665,SO2,5,25,16
India,Delhi,Delhi,"Ashok Vihar, Delhi - DPCC",20-01-2026 08:00:00,28.695381,77.181665,OZONE,5,172,5
India,Bihar,Patna,"IGSC Planetarium Complex, Patna - BSPCB",20-01-2026 08:00:00,25.610369,85.132568,OZONE,29,30,30
India,Bihar,Patna,"Muradpur, Patna - BSPCB",20-01-2026 08:00:00,25.619651,85.147382,OZONE,5,17,5
India,Bihar,Patna,"Samanpura, Patna - BSPCB",20-01-2026 08:00:00,25.596727,85.085624,NO2,21,25,22
India,Bihar,Patna,"Samanpura, Patna - BSPCB",20-01-2026 08:00:00,25.596727,85.085624,NH3,5,6,5
India,Bihar,Purnia,"Mariam Nagar, Purnia - BSPCB",20-01-2026 08:00:00,25.366336,87.117468,PM10,65,103,83
India,Bihar,Purnia,"Mariam Nagar, Purnia - BSPCB",20-01-2026 08:00:00,25.366336,87.117468,NO2,5,7,6
India,Bihar,Rajgir,"Dangi Tola, Rajgir - BSPCB",20-01-2026 08:00:00,25.03280,85.41948,PM10,48,211,109
India,Bihar,Muzaffarpur,"Buddha Colony, Muzaffarpur - BSPCB",20-01-2026 08:00:00,26.11442,85.39813,CO,34,104,53
India,Bihar,Muzaffarpur,"MIT-Daudpur Kothi, Muzaffarpur - BSPCB",20-01-2026 08:00:00,26.1403345,85.3650192,NH3,2,2,2
India,Bihar,Patna,"DRM Office Danapur, Patna - BSPCB",20-01-2026 08:00:00,25.586562,85.043586,PM10,94,362,179
India,Bihar,Patna,"DRM Office Danapur, Patna - BSPCB",20-01-2026 08:00:00,25.586562,85.043586,NO2,13,108,35
India,Bihar,Patna,"Govt. High School Shikarpur, Patna - BSPCB",20-01-2026 08:00:00,25.592539,85.227158,NO2,14,17,16
India,Bihar,Patna,"Govt. High School Shikarpur, Patna - BSPCB",20-01-2026 08:00:00,25.592539,85.227158,OZONE,9,12,10
India,Chhattisgarh,Kunjemura,"OP Jindal School, Kunjemura - CECB",20-01-2026 08:00:00,22.126650,83.483212,CO,26,61,36
India,Chhattisgarh,Kunjemura,"OP Jindal School, Kunjemura - CECB",20-01-2026 08:00:00,22.126650,83.483212,OZONE,1,70,1
India,Chhattisgarh,Milupara,"Govt. Higher Secondary School, Milupara - CECB",20-01-2026 08:00:00,22.1910172,83.5197009,CO,17,46,29
India,Chhattisgarh,Raipur,"Bhatagaon New ISBT, Raipur - CECB",20-01-2026 08:00:00,21.219665,81.630094,PM10,16,170,99
India,Chhattisgarh,Raipur,"Bhatagaon New ISBT, Raipur - CECB",20-01-2026 08:00:00,21.219665,81.630094,SO2,5,35,10
India,Chhattisgarh,Raipur,"Bhatagaon New ISBT, Raipur - CECB",20-01-2026 08:00:00,21.219665,81.630094,CO,24,112,107
India,Chhattisgarh,Bilaspur,"Mangala, Bilaspur - NTPC",20-01-2026 08:00:00,22.08815,82.13737,PM10,63,151,100
India,Chhattisgarh,Bilaspur,"Mangala, Bilaspur - NTPC",20-01-2026 08:00:00,22.08815,82.13737,SO2,7,46,20
India,Chhattisgarh,Korba,"Rampur, Korba - CECB",20-01-2026 08:00:00,22.368195,82.746431,SO2,1,94,38
India,Chhattisgarh,Korba,"Urja Nagar, Korba - CECB",20-01-2026 08:00:00,22.348441,82.549611,NO2,18,26,22
India,Chhattisgarh,Kunjemura,"OP Jindal School, Kunjemura - CECB",20-01-2026 08:00:00,22.126650,83.483212,PM2.5,27,76,59
India,Chandigarh,Chandigarh,"Sector-25, Chandigarh - CPCC",20-01-2026 08:00:00,30.751462,76.762879,SO2,5,13,8
India,Chhattisgarh,Bhilai,"32Bungalows, Bhilai - CECB",20-01-2026 08:00:00,21.194815,81.314770,NH3,5,7,6
India,Chhattisgarh,Bhilai,"32Bungalows, Bhilai - CECB",20-01-2026 08:00:00,21.194815,81.314770,OZONE,2,55,2
India,Chhattisgarh,Bhilai,"Civic Center, Bhilai - Bhilai Steel Plant",20-01-2026 08:00:00,21.185571,81.343175,PM10,23,121,70
India,Chhattisgarh,Bhilai,"Civic Center, Bhilai - Bhilai Steel Plant",20-01-2026 08:00:00,21.185571,81.343175,NH3,1,2,2
India,Delhi,Delhi,"IIT Delhi, Delhi - IITM",20-01-2026 08:00:00,28.542460,77.191651,OZONE,7,93,10
India,Delhi,Delhi,"ITO, Delhi - CPCB",20-01-2026 08:00:00,28.628624,77.241060,PM2.5,313,500,413
India,Delhi,Delhi,"Jahangirpuri, Delhi - DPCC",20-01-2026 08:00:00,28.732820,77.170633,PM2.5,307,500,443
India,Delhi,Delhi,"Jawaharlal Nehru Stadium, Delhi - DPCC",20-01-2026 08:00:00,28.580280,77.233829,PM10,145,454,350
India,Delhi,Delhi,"Jawaharlal Nehru Stadium, Delhi - DPCC",20-01-2026 08:00:00,28.580280,77.233829,NH3,22,34,27
India,Gujarat,Ahmedabad,"Gyaspur, Ahmedabad - IITM",20-01-2026 08:00:00,22.977134,72.553024,NO2,34,179,93
India,Gujarat,Ahmedabad,"Gyaspur, Ahmedabad - IITM",20-01-2026 08:00:00,22.977134,72.553024,NH3,3,85,21
India,Gujarat,Ahmedabad,"Maninagar, Ahmedabad - GPCB",20-01-2026 08:00:00,23.002657,72.591912,PM10,104,172,124
India,Gujarat,Ahmedabad,"Maninagar, Ahmedabad - GPCB",20-01-2026 08:00:00,23.002657,72.591912,NO2,98,107,104
India,Gujarat,Ahmedabad,"Raikhad, Ahmedabad - IITM",20-01-2026 08:00:00,23.020509,72.579261,CO,2,67,27
India,Gujarat,Ahmedabad,"Rakhial, Ahmedabad - IITM",20-01-2026 08:00:00,23.016834,72.625775,CO,1,130,45
India,Gujarat,Ahmedabad,"SAC ISRO Bopal, Ahmedabad - IITM",20-01-2026 08:00:00,23.041137,72.456691,CO,28,73,70
India,Gujarat,Ahmedabad,"SAC ISRO Bopal, Ahmedabad - IITM",20-01-2026 08:00:00,23.041137,72.456691,OZONE,NA,NA,NA
India,Delhi,Delhi,"Najafgarh, Delhi - DPCC",20-01-2026 08:00:00,28.570173,76.933762,NH3,13,17,15
India,Delhi,Delhi,"Najafgarh, Delhi - DPCC",20-01-2026 08:00:00,28.570173,76.933762,OZONE,3,99,5
India,Delhi,Delhi,"Narela, Delhi - DPCC",20-01-2026 08:00:00,28.822836,77.101981,PM2.5,300,454,391
India,Delhi,Delhi,"Narela, Delhi - DPCC",20-01-2026 08:00:00,28.822836,77.101981,PM10,235,455,354
India,Delhi,Delhi,"Nehru Nagar, Delhi - DPCC",20-01-2026 08:00:00,28.567890,77.250515,NO2,42,124,74
India,Delhi,Delhi,"Nehru Nagar, Delhi - DPCC",20-01-2026 08:00:00,28.567890,77.250515,SO2,3,108,18
India,Delhi,Delhi,"Okhla Phase-2, Delhi - DPCC",20-01-2026 08:00:00,28.530785,77.271255,PM2.5,143,500,415
India,Gujarat,Gandhinagar,"Sector-10, Gandhinagar - GPCB",20-01-2026 08:00:00,23.221714,72.654328,NH3,2,6,4
India,Gujarat,Gandhinagar,"Sector-10, Gandhinagar - GPCB",20-01-2026 08:00:00,23.221714,72.654328,CO,24,40,31
India,Gujarat,Gandhinagar,"Sector-10, Gandhinagar - GPCB",20-01-2026 08:00:00,23.221714,72.654328,OZONE,3,61,4
India,Gujarat,Vapi,"Phase-1 GIDC, Vapi - GPCB",20-01-2026 08:00:00,20.362421,72.918013,NH3,3,6,4
India,Gujarat,Vapi,"Phase-1 GIDC, Vapi - GPCB",20-01-2026 08:00:00,20.362421,72.918013,OZONE,4,16,4
India,Gujarat,Vatva,"Phase-4 GIDC, Vatva - GPCB",20-01-2026 08:00:00,22.969611,72.643500,PM10,53,386,180
India,Delhi,Delhi,"Jawaharlal Nehru Stadium, Delhi - DPCC",20-01-2026 08:00:00,28.580280,77.233829,SO2,20,47,31
India,Delhi,Delhi,"Jawaharlal Nehru Stadium, Delhi - DPCC",20-01-2026 08:00:00,28.580280,77.233829,CO,14,171,104
India,Delhi,Delhi,"Major Dhyan Chand National Stadium, Delhi - DPCC",20-01-2026 08:00:00,28.611281,77.237738,OZONE,2,205,2
India,Delhi,Delhi,"NSIT Dwarka, Delhi - CPCB",20-01-2026 08:00:00,28.60909,77.0325413,PM10,150,448,300
India,Delhi,Delhi,"NSIT Dwarka, Delhi - CPCB",20-01-2026 08:00:00,28.60909,77.0325413,NO2,52,103,76
India,Delhi,Delhi,"R K Puram, Delhi - DPCC",20-01-2026 08:00:00,28.563262,77.186937,NO2,51,186,119
India,Delhi,Delhi,"Rohini, Delhi - DPCC",20-01-2026 08:00:00,28.732528,77.119920,PM2.5,329,500,438
India,Delhi,Delhi,"Shadipur, Delhi - CPCB",20-01-2026 08:00:00,28.6514781,77.1473105,PM2.5,310,375,341
India,Delhi,Delhi,"Shadipur, Delhi - CPCB",20-01-2026 08:00:00,28.6514781,77.1473105,CO,29,132,103
India,Delhi,Delhi,"Sirifort, Delhi - CPCB",20-01-2026 08:00:00,28.5504249,77.2159377,SO2,26,37,32
India,Delhi,Delhi,"Punjabi Bagh, Delhi - DPCC",20-01-2026 08:00:00,28.674045,77.131023,NH3,7,9,8
India,Delhi,Delhi,"Punjabi Bagh, Delhi - DPCC",20-01-2026 08:00:00,28.674045,77.131023,OZONE,6,111,8
India,Delhi,Delhi,"Pusa, Delhi - IMD",20-01-2026 08:00:00,28.636110,77.173332,PM2.5,NA,NA,NA
India,Delhi,Delhi,"Pusa, Delhi - IMD",20-01-2026 08:00:00,28.636110,77.173332,CO,NA,NA,NA
India,Delhi,Delhi,"R K Puram, Delhi - DPCC",20-01-2026 08:00:00,28.563262,77.186937,PM2.5,88,500,420
India,Delhi,Delhi,"R K Puram, Delhi - DPCC",20-01-2026 08:00:00,28.563262,77.186937,PM10,135,500,357
India,Delhi,Delhi,"Sri Aurobindo Marg, Delhi - DPCC",20-01-2026 08:00:00,28.531346,77.190156,SO2,3,14,8
India,Delhi,Delhi,"Vivek Vihar, Delhi - DPCC",20-01-2026 08:00:00,28.672342,77.315260,NO2,46,195,90
India,Delhi,Delhi,"Wazirpur, Delhi - DPCC",20-01-2026 08:00:00,28.699793,77.165453,NH3,8,21,14
India,Gujarat,Ahmedabad,"Chandkheda, Ahmedabad - IITM",20-01-2026 08:00:00,23.107969,72.574648,PM2.5,46,196,108
India,Gujarat,Ankleshwar,"GIDC, Ankleshwar - GPCB",20-01-2026 08:00:00,21.613267,73.010555,CO,32,98,81
India,Gujarat,Gandhinagar,"GIFT City, Gandhinagar - IITM",20-01-2026 08:00:00,23.163798,72.677768,OZONE,1,42,7
India,Gujarat,Gandhinagar,"IIPHG Lekawada, Gandhinagar - IITM",20-01-2026 08:00:00,23.243639,72.68994,SO2,7,13,9
India,Delhi,Delhi,"Patparganj, Delhi - DPCC",20-01-2026 08:00:00,28.623763,77.287209,PM2.5,308,500,434
India,Delhi,Delhi,"Patparganj, Delhi - DPCC",20-01-2026 08:00:00,28.623763,77.287209,NH3,16,23,19
India,Delhi,Delhi,"Patparganj, Delhi - DPCC",20-01-2026 08:00:00,28.623763,77.287209,SO2,4,11,7
India,Delhi,Delhi,"Patparganj, Delhi - DPCC",20-01-2026 08:00:00,28.623763,77.287209,OZONE,4,311,5
India,Haryana,Rohtak,"MD University, Rohtak - HSPCB",20-01-2026 08:00:00,28.52123,76.37138,CO,11,38,35
India,Haryana,Sirsa,"F-Block, Sirsa - HSPCB",20-01-2026 08:00:00,29.536400,75.015800,OZONE,41,61,50
India,Haryana,Sonipat,"Murthal, Sonipat - HSPCB",20-01-2026 08:00:00,29.027200,77.062100,PM2.5,55,265,136
India,Haryana,Sonipat,"Murthal, Sonipat - HSPCB",20-01-2026 08:00:00,29.027200,77.062100,SO2,6,13,8
India,Haryana,Yamuna Nagar,"Gobind Pura, Yamuna Nagar - HSPCB",20-01-2026 08:00:00,30.1480566,77.2893471,PM10,99,177,147
India,Haryana,Yamuna Nagar,"Gobind Pura, Yamuna Nagar - HSPCB",20-01-2026 08:00:00,30.1480566,77.2893471,NO2,11,20,16
India,Haryana,Yamuna Nagar,"Gobind Pura, Yamuna Nagar - HSPCB",20-01-2026 08:00:00,30.1480566,77.2893471,OZONE,8,34,11
India,Himachal Pradesh,Baddi,"HIMUDA Complex Phase-1, Baddi - HPPCB",20-01-2026 08:00:00,30.943887,76.801991,PM2.5,35,240,89
India,Himachal Pradesh,Baddi,"HIMUDA Complex Phase-1, Baddi - HPPCB",20-01-2026 08:00:00,30.943887,76.801991,PM10,47,321,127
India,Himachal Pradesh,Baddi,"HIMUDA Complex Phase-1, Baddi - HPPCB",20-01-2026 08:00:00,30.943887,76.801991,NH3,1,2,2
India,Jammu_and_Kashmir,Pampore,"Khrew, Pampore - JKPCC",20-01-2026 08:00:00,34.031606,75.009712,PM10,70,141,97
India,Haryana,Gurugram,"Sector-51, Gurugram - HSPCB",20-01-2026 08:00:00,28.4227,77.0667,NO2,1,1,1
India,Haryana,Gurugram,"Sector-51, Gurugram - HSPCB",20-01-2026 08:00:00,28.4227,77.0667,NH3,8,8,8
India,Haryana,Gurugram,"Vikas Sadan, Gurugram - HSPCB",20-01-2026 08:00:00,28.4501238,77.0263051,PM2.5,337,500,419
India,Haryana,Gurugram,"Vikas Sadan, Gurugram - HSPCB",20-01-2026 08:00:00,28.4501238,77.0263051,NO2,9,46,26
India,Haryana,Gurugram,"Vikas Sadan, Gurugram - HSPCB",20-01-2026 08:00:00,28.4501238,77.0263051,OZONE,4,31,10
India,Haryana,Hisar,"Urban Estate-II, Hisar - HSPCB",20-01-2026 08:00:00,29.140560,75.744941,PM10,25,164,125
India,Haryana,Hisar,"Urban Estate-II, Hisar - HSPCB",20-01-2026 08:00:00,29.140560,75.744941,NO2,26,27,26
India,Haryana,Hisar,"Urban Estate-II, Hisar - HSPCB",20-01-2026 08:00:00,29.140560,75.744941,NH3,10,11,11
India,Haryana,Jind,"Police Lines, Jind - HSPCB",20-01-2026 08:00:00,29.307814,76.337619,SO2,2,4,3
India,Haryana,Jind,"Police Lines, Jind - HSPCB",20-01-2026 08:00:00,29.307814,76.337619,OZONE,4,38,6
India,Haryana,Kaithal,"Rishi Nagar, Kaithal - HSPCB",20-01-2026 08:00:00,29.8006,76.4155,PM2.5,171,341,289
India,Haryana,Kaithal,"Rishi Nagar, Kaithal - HSPCB",20-01-2026 08:00:00,29.8006,76.4155,NO2,26,35,31
India,Karnataka,Bengaluru,"BTM Layout, Bengaluru - CPCB",20-01-2026 08:00:00,12.9135218,77.5950804,PM2.5,79,187,100
India,Karnataka,Bengaluru,"BWSSB Kadabesanahalli, Bengaluru - CPCB",20-01-2026 08:00:00,12.9352049,77.6814488,CO,37,40,38
India,Karnataka,Bengaluru,"Bapuji Nagar, Bengaluru - KSPCB",20-01-2026 08:00:00,12.951913,77.539784,PM10,96,195,120
India,Karnataka,Bengaluru,"Bapuji Nagar, Bengaluru - KSPCB",20-01-2026 08:00:00,12.951913,77.539784,CO,1,102,6
India,Karnataka,Bengaluru,"City Railway Station, Bengaluru - KSPCB",20-01-2026 08:00:00,12.9756843,77.5660749,PM10,NA,NA,NA
India,Karnataka,Bengaluru,"City Railway Station, Bengaluru - KSPCB",20-01-2026 08:00:00,12.9756843,77.5660749,SO2,NA,NA,NA
India,Karnataka,Bengaluru,"Hebbal, Bengaluru - KSPCB",20-01-2026 08:00:00,13.029152,77.585901,NO2,NA,NA,NA
India,Haryana,Kurukshetra,"Sector-7, Kurukshetra - HSPCB",20-01-2026 08:00:00,29.966942,76.875879,NO2,16,21,18
India,Haryana,Kurukshetra,"Sector-7, Kurukshetra - HSPCB",20-01-2026 08:00:00,29.966942,76.875879,CO,15,78,43
India,Haryana,Mandikhera,"General Hospital, Mandikhera(Nuh) - HSPCB",20-01-2026 08:00:00,27.9002,76.9938,NH3,13,14,13
India,Haryana,Manesar,"Sector-2 IMT, Manesar - HSPCB",20-01-2026 08:00:00,28.360699,76.936090,OZONE,5,23,7
India,Haryana,Narnaul,"Shastri Nagar, Narnaul - HSPCB",20-01-2026 08:00:00,28.060249,76.113115,CO,43,76,60
India,Haryana,Narnaul,"Shastri Nagar, Narnaul - HSPCB",20-01-2026 08:00:00,28.060249,76.113115,OZONE,8,40,8
India,Haryana,Bahadurgarh,"Arya Nagar, Bahadurgarh - HSPCB",20-01-2026 08:00:00,28.6701,76.9254,PM2.5,54,308,187
India,Haryana,Bhiwani,"H.B. Colony, Bhiwani - HSPCB",20-01-2026 08:00:00,28.806223,76.141105,PM10,104,187,127
India,Haryana,Dharuhera,"Municipal Corporation Office, Dharuhera -  HSPCB",20-01-2026 08:00:00,28.206800,76.799700,NH3,10,33,23
India,Jammu_and_Kashmir,Srinagar,"Khunmoh, Srinagar - JKPCC",20-01-2026 08:00:00,34.06313,74.96017,NO2,2,6,4
India,Jammu_and_Kashmir,Srinagar,"Rajbagh, Srinagar - JKPCC",20-01-2026 08:00:00,34.066206,74.819820,OZONE,NA,NA,NA
India,Jharkhand,Dhanbad,"Sardar Patel Nagar, Dhanbad - JSPCB",20-01-2026 08:00:00,23.80569,86.44268,PM10,113,402,213
India,Haryana,Faridabad,"Sector 11, Faridabad - HSPCB",20-01-2026 08:00:00,28.376058,77.315741,NO2,29,33,31
India,Haryana,Fatehabad,"Huda Sector, Fatehabad - HSPCB",20-01-2026 08:00:00,29.503664,75.467934,NH3,13,15,14
India,Haryana,Gurugram,"NISE Gwal Pahari, Gurugram - IMD",20-01-2026 08:00:00,28.422681,77.148944,PM10,129,435,286
India,Haryana,Palwal,"Shyam Nagar, Palwal - HSPCB",20-01-2026 08:00:00,28.1485564,77.3320667,NH3,8,9,9
India,Haryana,Palwal,"Shyam Nagar, Palwal - HSPCB",20-01-2026 08:00:00,28.1485564,77.3320667,OZONE,13,28,15
India,Haryana,Panipat,"Sector-18, Panipat - HSPCB",20-01-2026 08:00:00,29.432304,76.972765,PM10,NA,NA,NA
India,Haryana,Panipat,"Sector-18, Panipat - HSPCB",20-01-2026 08:00:00,29.432304,76.972765,OZONE,NA,NA,NA
India,Karnataka,Bengaluru,"Hombegowda Nagar, Bengaluru - KSPCB",20-01-2026 08:00:00,12.938539,77.590100,PM10,48,107,69
India,Karnataka,Bengaluru,"Hombegowda Nagar, Bengaluru - KSPCB",20-01-2026 08:00:00,12.938539,77.590100,OZONE,10,107,30
India,Karnataka,Bengaluru,"Jayanagar 5th Block, Bengaluru - KSPCB",20-01-2026 08:00:00,12.920984,77.584908,PM2.5,51,178,97
India,Karnataka,Tumakuru,"Thimmalapura, Tumakuru - KSPCB",20-01-2026 08:00:00,13.377516,77.099072,PM10,96,138,118
India,Karnataka,Tumakuru,"Thimmalapura, Tumakuru - KSPCB",20-01-2026 08:00:00,13.377516,77.099072,SO2,26,27,26
India,Karnataka,Vijayapura,"Ibrahimpur, Vijayapura - KSPCB",20-01-2026 08:00:00,16.802639,75.722694,NO2,11,12,11
India,Karnataka,Vijayapura,"Ibrahimpur, Vijayapura - KSPCB",20-01-2026 08:00:00,16.802639,75.722694,CO,14,36,21
India,Karnataka,Vijayapura,"Ibrahimpur, Vijayapura - KSPCB",20-01-2026 08:00:00,16.802639,75.722694,OZONE,16,17,16
India,Karnataka,Yadgir,"Collector Office, Yadgir - KSPCB",20-01-2026 08:00:00,16.7602,77.1428,NO2,8,35,19
India,Karnataka,Yadgir,"Collector Office, Yadgir - KSPCB",20-01-2026 08:00:00,16.7602,77.1428,OZONE,17,20,18
India,Kerala,Eloor,"Udyogamandal, Eloor - Kerala PCB",20-01-2026 08:00:00,10.073232,76.302765,OZONE,12,20,13
India,Kerala,Kannur,"Thavakkara, Kannur - Kerala PCB",20-01-2026 08:00:00,11.875000,75.373200,PM2.5,51,92,81
India,Kerala,Kannur,"Thavakkara, Kannur - Kerala PCB",20-01-2026 08:00:00,11.875000,75.373200,SO2,3,9,4
India,Kerala,Kollam,"Polayathode, Kollam - Kerala PCB",20-01-2026 08:00:00,8.8787,76.6073,PM2.5,150,336,289
India,Madhya Pradesh,Jabalpur,"Gupteshwar, Jabalpur - JMC",20-01-2026 08:00:00,23.142888,79.916147,CO,38,109,74
India,Madhya Pradesh,Jabalpur,"Gupteshwar, Jabalpur - JMC",20-01-2026 08:00:00,23.142888,79.916147,OZONE,1,95,2
India,Madhya Pradesh,Jabalpur,"Marhatal, Jabalpur - MPPCB",20-01-2026 08:00:00,23.168606,79.932247,CO,21,109,80
India,Madhya Pradesh,Jabalpur,"Marhatal, Jabalpur - MPPCB",20-01-2026 08:00:00,23.168606,79.932247,OZONE,2,186,14
India,Madhya Pradesh,Jabalpur,"Suhagi, Jabalpur - JMC",20-01-2026 08:00:00,23.218135,79.957770,NH3,4,9,7
