country,state,city,station,last_update,latitude,longitude,pollutant_id,min_value,max_value,avg_value
India,Assam,Silchar,"Tarapur, Silchar - PCBA",28-01-2026 08:00:00,24.82827,92.79525,PM10,51,65,56
India,Assam,Silchar,"Tarapur, Silchar - PCBA",28-01-2026 08:00:00,24.82827,92.79525,NH3,1,1,1
India,Assam,Silchar,"Tarapur, Silchar - PCBA",28-01-2026 08:00:00,24.82827,92.79525,SO2,2,7,5
India,Assam,Sivasagar,"Girls College, Sivasagar - PCBA",28-01-2026 08:00:00,26.987634,94.636574,PM10,25,96,51
India,Assam,Sivasagar,"Girls College, Sivasagar - PCBA",28-01-2026 08:00:00,26.987634,94.636574,NH3,5,29,12
India,Assam,Sivasagar,"Girls College, Sivasagar - PCBA",28-01-2026 08:00:00,26.987634,94.636574,OZONE,3,91,5
India,Bihar,Araria,"Kharahiya Basti, Araria - BSPCB",28-01-2026 08:00:00,26.146529,87.454184,NH3,4,5,4
India,Bihar,Arrah,"New DM Office, Arrah - BSPCB",28-01-2026 08:00:00,25.5626095,84.663264,PM2.5,20,58,42
India,Bihar,Arrah,"New DM Office, Arrah - BSPCB",28-01-2026 08:00:00,25.5626095,84.663264,PM10,30,86,62
India,Bihar,Arrah,"New DM Office, Arrah - BSPCB",28-01-2026 08:00:00,25.5626095,84.663264,OZONE,7,8,8
India,Bihar,Aurangabad,"Gurdeo Nagar, Aurangabad - BSPCB",28-01-2026 08:00:00,24.75746,84.366208,OZONE,NA,NA,NA
India,Bihar,Begusarai,"Lohiyanagar, Begusarai - BSPCB",28-01-2026 08:00:00,25.42742023,86.13886079,PM2.5,48,365,162
India,Bihar,Begusarai,"Lohiyanagar, Begusarai - BSPCB",28-01-2026 08:00:00,25.42742023,86.13886079,NO2,6,14,10
India,Andhra_Pradesh,Visakhapatnam,"GVM Corporation, Visakhapatnam - APPCB",28-01-2026 08:00:00,17.72,83.3,OZONE,4,67,5
India,Arunachal_Pradesh,Naharlagun,"Naharlagun, Naharlagun - APSPCB",28-01-2026 08:00:00,27.103358,93.679645,PM2.5,15,500,183
India,Arunachal_Pradesh,Naharlagun,"Naharlagun, Naharlagun - APSPCB",28-01-2026 08:00:00,27.103358,93.679645,PM10,50,500,166
India,Arunachal_Pradesh,Naharlagun,"Naharlagun, Naharlagun - APSPCB",28-01-2026 08:00:00,27.103358,93.679645,OZONE,5,6,6
India,Assam,Byrnihat,"Central Academy for SFS, Byrnihat - PCBA",28-01-2026 08:00:00,26.071318,91.87488,CO,34,68,47
India,Assam,Guwahati,"Pan Bazaar, Guwahati - PCBA",28-01-2026 08:00:00,26.187500,91.744194,PM10,43,151,96
India,Assam,Guwahati,"Railway Colony, Guwahati - PCBA",28-01-2026 08:00:00,26.181742,91.78063,SO2,35,38,37
India,Assam,Nalbari,"Bata Chowk, Nalbari - PCBA",28-01-2026 08:00:00,26.446912,91.439057,PM2.5,NA,NA,NA
India,Bihar,Muzaffarpur,"Buddha Colony, Muzaffarpur - BSPCB",28-01-2026 08:00:00,26.11442,85.39813,OZONE,20,77,23
India,Bihar,Muzaffarpur,"MIT-Daudpur Kothi, Muzaffarpur - BSPCB",28-01-2026 08:00:00,26.1403345,85.3650192,CO,52,63,57
India,Bihar,Muzaffarpur,"MIT-Daudpur Kothi, Muzaffarpur - BSPCB",28-01-2026 08:00:00,26.1403345,85.3650192,OZONE,42,58,44
India,Bihar,Muzaffarpur,"Muzaffarpur Collectorate, Muzaffarpur - BSPCB",28-01-2026 08:00:00,26.1209,85.3647,CO,24,60,50
India,Bihar,Patna,"Govt. High School Shikarpur, Patna - BSPCB",28-01-2026 08:00:00,25.592539,85.227158,NO2,14,20,16
India,Bihar,Patna,"Govt. High School Shikarpur, Patna - BSPCB",28-01-2026 08:00:00,25.592539,85.227158,SO2,13,39,16
India,Bihar,Patna,"IGSC Planetarium Complex, Patna - BSPCB",28-01-2026 08:00:00,25.610369,85.132568,NO2,21,22,21
India,Bihar,Patna,"IGSC Planetarium Complex, Patna - BSPCB",28-01-2026 08:00:00,25.610369,85.132568,SO2,33,36,34
India,Bihar,Patna,"Muradpur, Patna - BSPCB",28-01-2026 08:00:00,25.619651,85.147382,SO2,7,10,9
India,Bihar,Gaya,"Collectorate, Gaya - BSPCB",28-01-2026 08:00:00,24.7955,84.9994,OZONE,6,20,20
India,Bihar,Gaya,"Kareemganj, Gaya - BSPCB",28-01-2026 08:00:00,24.792403,84.992416,SO2,NA,NA,NA
India,Bihar,Gaya,"SFTI Kusdihra, Gaya - BSPCB",28-01-2026 08:00:00,24.762518,84.982348,OZONE,1,38,11
India,Bihar,Hajipur,"Industrial Area, Hajipur - BSPCB",28-01-2026 08:00:00,25.697189,85.245900,PM2.5,51,386,219
India,Bihar,Hajipur,"Industrial Area, Hajipur - BSPCB",28-01-2026 08:00:00,25.697189,85.245900,NO2,18,62,34
India,Bihar,Hajipur,"Industrial Area, Hajipur - BSPCB",28-01-2026 08:00:00,25.697189,85.245900,SO2,6,8,7
India,Bihar,Katihar,"Mirchaibari, Katihar - BSPCB",28-01-2026 08:00:00,25.560083,87.553265,PM2.5,43,143,86
India,Bihar,Katihar,"Mirchaibari, Katihar - BSPCB",28-01-2026 08:00:00,25.560083,87.553265,OZONE,20,27,24
India,Bihar,Kishanganj,"SDM Office_Khagra, Kishanganj - BSPCB",28-01-2026 08:00:00,26.0881305,87.93840336,PM10,35,106,66
India,Andhra_Pradesh,Anantapur,"Gulzarpet, Anantapur - APPCB",28-01-2026 08:00:00,14.675886,77.593027,PM2.5,68,87,78
India,Andhra_Pradesh,Anantapur,"Gulzarpet, Anantapur - APPCB",28-01-2026 08:00:00,14.675886,77.593027,NO2,14,20,15
India,Andhra_Pradesh,Chittoor,"Gangineni Cheruvu, Chittoor - APPCB",28-01-2026 08:00:00,13.204880,79.097889,NH3,6,8,7
India,Andhra_Pradesh,Chittoor,"Gangineni Cheruvu, Chittoor - APPCB",28-01-2026 08:00:00,13.204880,79.097889,CO,48,79,59
India,Andhra_Pradesh,Kadapa,"Yerramukkapalli, Kadapa - APPCB",28-01-2026 08:00:00,14.465052,78.824187,CO,8,12,9
India,Andhra_Pradesh,Tirumala,"Toll Gate, Tirumala - APPCB",28-01-2026 08:00:00,13.67,79.35,NH3,1,2,2
India,Andhra_Pradesh,Tirumala,"Toll Gate, Tirumala - APPCB",28-01-2026 08:00:00,13.67,79.35,OZONE,31,63,46
India,Andhra_Pradesh,Tirupati,"Vaikuntapuram, Tirupati - APPCB",28-01-2026 08:00:00,13.615387,79.409230,PM10,62,87,74
India,Andhra_Pradesh,Vijayawada,"HB Colony, Vijayawada - APPCB",28-01-2026 08:00:00,16.536107,80.594233,PM2.5,50,104,68
India,Andhra_Pradesh,Vijayawada,"HB Colony, Vijayawada - APPCB",28-01-2026 08:00:00,16.536107,80.594233,CO,19,46,20
India,Andhra_Pradesh,Vijayawada,"Kanuru, Vijayawada - APPCB",28-01-2026 08:00:00,16.486692,80.699436,PM2.5,51,89,72
India,Andhra_Pradesh,Vijayawada,"Kanuru, Vijayawada - APPCB",28-01-2026 08:00:00,16.486692,80.699436,PM10,47,83,69
India,Andhra_Pradesh,Vijayawada,"Kanuru, Vijayawada - APPCB",28-01-2026 08:00:00,16.486692,80.699436,NO2,29,40,31
India,Andhra_Pradesh,Vijayawada,"Kanuru, Vijayawada - APPCB",28-01-2026 08:00:00,16.486692,80.699436,NH3,5,6,5
India,Andhra_Pradesh,Vijayawada,"Rajiv Gandhi Park, Vijayawada - APPCB",28-01-2026 08:00:00,16.509717,80.612222,NO2,41,90,60
India,Andhra_Pradesh,Vijayawada,"Rajiv Gandhi Park, Vijayawada - APPCB",28-01-2026 08:00:00,16.509717,80.612222,NH3,2,5,4
India,Andhra_Pradesh,Vijayawada,"Rajiv Gandhi Park, Vijayawada - APPCB",28-01-2026 08:00:00,16.509717,80.612222,SO2,14,21,17
India,Andhra_Pradesh,Vijayawada,"Rajiv Nagar, Vijayawada - APPCB",28-01-2026 08:00:00,16.554731,80.649110,CO,22,38,26
India,Bihar,Patna,"Samanpura, Patna - BSPCB",28-01-2026 08:00:00,25.596727,85.085624,SO2,2,4,3
India,Bihar,Purnia,"Mariam Nagar, Purnia - BSPCB",28-01-2026 08:00:00,25.366336,87.117468,PM2.5,77,173,122
India,Bihar,Purnia,"Mariam Nagar, Purnia - BSPCB",28-01-2026 08:00:00,25.366336,87.117468,SO2,15,19,16
India,Bihar,Rajgir,"Dangi Tola, Rajgir - BSPCB",28-01-2026 08:00:00,25.03280,85.41948,NO2,8,11,9
India,Bihar,Samastipur,"DM Office_Kasipur, Samastipur - BSPCB",28-01-2026 08:00:00,25.859655,85.77944,NO2,8,9,8
India,Bihar,Siwan,"Chitragupta Nagar, Siwan - BSPCB",28-01-2026 08:00:00,26.2271665,84.3570427,PM2.5,7,253,102
India,Bihar,Begusarai,"Lohiyanagar, Begusarai - BSPCB",28-01-2026 08:00:00,25.42742023,86.13886079,NH3,10,11,11
India,Bihar,Bhagalpur,"DM Office_Kachari Chowk, Bhagalpur - BSPCB",28-01-2026 08:00:00,25.251013,86.989001,PM2.5,25,103,63
India,Bihar,Bhagalpur,"DM Office_Kachari Chowk, Bhagalpur - BSPCB",28-01-2026 08:00:00,25.251013,86.989001,NH3,1,1,1
India,Bihar,Buxar,"Charitra Van, Buxar - BSPCB",28-01-2026 08:00:00,25.567520,83.966379,PM10,64,130,95
India,Bihar,Buxar,"Charitra Van, Buxar - BSPCB",28-01-2026 08:00:00,25.567520,83.966379,NO2,5,10,9
India,Bihar,Kishanganj,"SDM Office_Khagra, Kishanganj - BSPCB",28-01-2026 08:00:00,26.0881305,87.93840336,NH3,3,3,3
India,Bihar,Motihari,"Gandak Colony, Motihari - BSPCB",28-01-2026 08:00:00,26.63086,84.90051,SO2,NA,NA,NA
India,Bihar,Motihari,"Gandak Colony, Motihari - BSPCB",28-01-2026 08:00:00,26.63086,84.90051,CO,16,30,19
India,Bihar,Munger,"Town Hall, Munger - BSPCB",28-01-2026 08:00:00,25.376776,86.471523,PM2.5,67,334,144
India,Bihar,Munger,"Town Hall, Munger - BSPCB",28-01-2026 08:00:00,25.376776,86.471523,CO,13,48,29
India,Chandigarh,Chandigarh,"Sector 22, Chandigarh - CPCC",28-01-2026 08:00:00,30.735567,76.775714,PM10,28,107,59
India,Chandigarh,Chandigarh,"Sector-25, Chandigarh - CPCC",28-01-2026 08:00:00,30.751462,76.762879,SO2,30,30,30
India,Chhattisgarh,Bhilai,"32Bungalows, Bhilai - CECB",28-01-2026 08:00:00,21.194815,81.314770,SO2,6,11,9
India,Chhattisgarh,Bhilai,"Hathkhoj, Bhilai - CECB",28-01-2026 08:00:00,21.224231,81.408350,CO,17,105,44
India,Delhi,Delhi,"DTU, Delhi - CPCB",28-01-2026 08:00:00,28.7500499,77.1112615,NO2,14,26,24
India,Delhi,Delhi,"Dr. Karni Singh Shooting Range, Delhi - DPCC",28-01-2026 08:00:00,28.498571,77.264840,NO2,NA,NA,NA
India,Delhi,Delhi,"IGI Airport (T3), Delhi - IMD",28-01-2026 08:00:00,28.5627763,77.1180053,NO2,49,104,67
India,Delhi,Delhi,"IGI Airport (T3), Delhi - IMD",28-01-2026 08:00:00,28.5627763,77.1180053,OZONE,1,18,2
India,Delhi,Delhi,"IHBAS, Dilshad Garden, Delhi - CPCB",28-01-2026 08:00:00,28.6811736,77.3025234,PM2.5,58,409,233
India,Delhi,Delhi,"IHBAS, Dilshad Garden, Delhi - CPCB",28-01-2026 08:00:00,28.6811736,77.3025234,PM10,54,294,156
India,Delhi,Delhi,"IHBAS, Dilshad Garden, Delhi - CPCB",28-01-2026 08:00:00,28.6811736,77.3025234,NO2,46,151,81
India,Delhi,Delhi,"IHBAS, Dilshad Garden, Delhi - CPCB",28-01-2026 08:00:00,28.6811736,77.3025234,SO2,3,20,13
India,Delhi,Delhi,"IIT Delhi, Delhi - IITM",28-01-2026 08:00:00,28.542460,77.191651,PM10,76,283,145
India,Delhi,Delhi,"ITO, Delhi - CPCB",28-01-2026 08:00:00,28.628624,77.241060,PM10,105,333,160
India,Chhattisgarh,Bilaspur,"Mangala, Bilaspur - NTPC",28-01-2026 08:00:00,22.08815,82.13737,PM10,87,155,123
India,Chhattisgarh,Chhal,"Nawapara SECL Colony, Chhal - CECB",28-01-2026 08:00:00,22.118125,83.140608,PM2.5,102,197,145
India,Chhattisgarh,Chhal,"Nawapara SECL Colony, Chhal - CECB",28-01-2026 08:00:00,22.118125,83.140608,PM10,67,265,125
India,Chhattisgarh,Chhal,"Nawapara SECL Colony, Chhal - CECB",28-01-2026 08:00:00,22.118125,83.140608,NO2,8,46,17
India,Chhattisgarh,Chhal,"Nawapara SECL Colony, Chhal - CECB",28-01-2026 08:00:00,22.118125,83.140608,SO2,2,82,19
India,Chhattisgarh,Korba,"Urja Nagar, Korba - CECB",28-01-2026 08:00:00,22.348441,82.549611,NO2,16,28,23
India,Chhattisgarh,Kunjemura,"OP Jindal School, Kunjemura - CECB",28-01-2026 08:00:00,22.126650,83.483212,CO,33,76,52
India,Chhattisgarh,Milupara,"Govt. Higher Secondary School, Milupara - CECB",28-01-2026 08:00:00,22.1910172,83.5197009,PM10,79,245,128
India,Chhattisgarh,Milupara,"Govt. Higher Secondary School, Milupara - CECB",28-01-2026 08:00:00,22.1910172,83.5197009,SO2,15,46,22
India,Delhi,Delhi,"Mundka, Delhi - DPCC",28-01-2026 08:00:00,28.684678,77.076574,SO2,3,17,7
India,Delhi,Delhi,"NSIT Dwarka, Delhi - CPCB",28-01-2026 08:00:00,28.60909,77.0325413,SO2,10,22,15
India,Delhi,Delhi,"NSIT Dwarka, Delhi - CPCB",28-01-2026 08:00:00,28.60909,77.0325413,CO,44,88,56
India,Delhi,Delhi,"Najafgarh, Delhi - DPCC",28-01-2026 08:00:00,28.570173,76.933762,PM2.5,230,320,286
India,Delhi,Delhi,"Najafgarh, Delhi - DPCC",28-01-2026 08:00:00,28.570173,76.933762,NO2,40,108,73
India,Delhi,Delhi,"Najafgarh, Delhi - DPCC",28-01-2026 08:00:00,28.570173,76.933762,SO2,12,32,18
India,Delhi,Delhi,"Najafgarh, Delhi - DPCC",28-01-2026 08:00:00,28.570173,76.933762,OZONE,3,28,4
India,Delhi,Delhi,"Narela, Delhi - DPCC",28-01-2026 08:00:00,28.822836,77.101981,OZONE,5,38,7
India,Delhi,Delhi,"Nehru Nagar, Delhi - DPCC",28-01-2026 08:00:00,28.567890,77.250515,SO2,8,111,22
India,Delhi,Delhi,"Okhla Phase-2, Delhi - DPCC",28-01-2026 08:00:00,28.530785,77.271255,PM10,80,322,168
India,Delhi,Delhi,"Anand Vihar, Delhi - DPCC",28-01-2026 08:00:00,28.647622,77.3158090,CO,54,107,60
India,Delhi,Delhi,"Ashok Vihar, Delhi - DPCC",28-01-2026 08:00:00,28.695381,77.181665,NO2,36,131,72
India,Delhi,Delhi,"Ashok Vihar, Delhi - DPCC",28-01-2026 08:00:00,28.695381,77.181665,CO,36,82,52
India,Delhi,Delhi,"Aya Nagar, Delhi - IMD",28-01-2026 08:00:00,28.4706914,77.1099364,PM10,121,365,176
India,Delhi,Delhi,"Bawana, Delhi - DPCC",28-01-2026 08:00:00,28.776200,77.051074,PM2.5,267,462,329
India,Delhi,Delhi,"Bawana, Delhi - DPCC",28-01-2026 08:00:00,28.776200,77.051074,OZONE,1,43,4
India,Delhi,Delhi,"Burari Crossing, Delhi - IMD",28-01-2026 08:00:00,28.7256504,77.2011573,NO2,100,189,134
India,Delhi,Delhi,"DTU, Delhi - CPCB",28-01-2026 08:00:00,28.7500499,77.1112615,PM2.5,200,407,299
India,Delhi,Delhi,"Jahangirpuri, Delhi - DPCC",28-01-2026 08:00:00,28.732820,77.170633,NH3,26,42,37
India,Delhi,Delhi,"Jawaharlal Nehru Stadium, Delhi - DPCC",28-01-2026 08:00:00,28.580280,77.233829,SO2,55,75,62
India,Delhi,Delhi,"Lodhi Road, Delhi - IMD",28-01-2026 08:00:00,28.5918245,77.2273074,PM2.5,63,276,155
India,Delhi,Delhi,"Major Dhyan Chand National Stadium, Delhi - DPCC",28-01-2026 08:00:00,28.611281,77.237738,PM10,107,362,169
India,Delhi,Delhi,"Major Dhyan Chand National Stadium, Delhi - DPCC",28-01-2026 08:00:00,28.611281,77.237738,OZONE,1,52,2
India,Delhi,Delhi,"Mundka, Delhi - DPCC",28-01-2026 08:00:00,28.684678,77.076574,PM2.5,257,366,320
India,Delhi,Delhi,"Mundka, Delhi - DPCC",28-01-2026 08:00:00,28.684678,77.076574,NH3,11,18,14
India,Chhattisgarh,Raipur,"AIIMS, Raipur - CECB",28-01-2026 08:00:00,21.258815,81.578979,OZONE,1,2,1
India,Chhattisgarh,Raipur,"Bhatagaon New ISBT, Raipur - CECB",28-01-2026 08:00:00,21.219665,81.630094,CO,26,100,78
India,Chhattisgarh,Raipur,"Siltara Phase-II, Raipur - CECB",28-01-2026 08:00:00,21.371751,81.664929,OZONE,3,3,3
India,Delhi,Delhi,"Alipur, Delhi - DPCC",28-01-2026 08:00:00,28.815329,77.153010,PM2.5,93,387,232
India,Delhi,Delhi,"Alipur, Delhi - DPCC",28-01-2026 08:00:00,28.815329,77.153010,PM10,77,355,155
India,Delhi,Delhi,"Anand Vihar, Delhi - DPCC",28-01-2026 08:00:00,28.647622,77.3158090,PM2.5,160,368,269
India,Delhi,Delhi,"Punjabi Bagh, Delhi - DPCC",28-01-2026 08:00:00,28.674045,77.131023,OZONE,5,17,8
India,Delhi,Delhi,"Pusa, Delhi - DPCC",28-01-2026 08:00:00,28.639652,77.146275,PM2.5,180,375,296
India,Delhi,Delhi,"Pusa, Delhi - DPCC",28-01-2026 08:00:00,28.639652,77.146275,NO2,43,96,63
India,Delhi,Delhi,"Pusa, Delhi - DPCC",28-01-2026 08:00:00,28.639652,77.146275,NH3,14,25,21
India,Delhi,Delhi,"Pusa, Delhi - DPCC",28-01-2026 08:00:00,28.639652,77.146275,CO,41,91,66
India,Delhi,Delhi,"Pusa, Delhi - IMD",28-01-2026 08:00:00,28.636110,77.173332,PM2.5,88,372,226
India,Delhi,Delhi,"Pusa, Delhi - IMD",28-01-2026 08:00:00,28.636110,77.173332,PM10,57,288,154
India,Delhi,Delhi,"Rohini, Delhi - DPCC",28-01-2026 08:00:00,28.732528,77.119920,PM10,112,421,189
India,Delhi,Delhi,"Shadipur, Delhi - CPCB",28-01-2026 08:00:00,28.6514781,77.1473105,PM10,83,210,134
India,Delhi,Delhi,"Shadipur, Delhi - CPCB",28-01-2026 08:00:00,28.6514781,77.1473105,SO2,9,20,16
India,Delhi,Delhi,"Sirifort, Delhi - CPCB",28-01-2026 08:00:00,28.5504249,77.2159377,OZONE,12,21,19
India,Delhi,Delhi,"Sri Aurobindo Marg, Delhi - DPCC",28-01-2026 08:00:00,28.531346,77.190156,NH3,6,9,7
India,Delhi,Delhi,"Sri Aurobindo Marg, Delhi - DPCC",28-01-2026 08:00:00,28.531346,77.190156,CO,30,78,33
India,Delhi,Delhi,"Patparganj, Delhi - DPCC",28-01-2026 08:00:00,28.623763,77.287209,PM2.5,183,395,295
India,Delhi,Delhi,"Patparganj, Delhi - DPCC",28-01-2026 08:00:00,28.623763,77.287209,SO2,10,22,16
India,Delhi,Delhi,"Punjabi Bagh, Delhi - DPCC",28-01-2026 08:00:00,28.674045,77.131023,PM10,107,290,166
India,Haryana,Ambala,"Patti Mehar, Ambala - HSPCB",28-01-2026 08:00:00,30.379589,76.778328,OZONE,12,15,13
India,Haryana,Bahadurgarh,"Arya Nagar, Bahadurgarh - HSPCB",28-01-2026 08:00:00,28.6701,76.9254,NH3,12,13,13
India,Haryana,Ballabgarh,"Nathu Colony, Ballabgarh - HSPCB",28-01-2026 08:00:00,28.3419248,77.319699,NO2,19,21,20
India,Haryana,Ballabgarh,"Nathu Colony, Ballabgarh - HSPCB",28-01-2026 08:00:00,28.3419248,77.319699,NH3,3,4,3
India,Haryana,Ballabgarh,"Nathu Colony, Ballabgarh - HSPCB",28-01-2026 08:00:00,28.3419248,77.319699,CO,18,51,27
India,Haryana,Bhiwani,"H.B. Colony, Bhiwani - HSPCB",28-01-2026 08:00:00,28.806223,76.141105,OZONE,NA,NA,NA
India,Haryana,Charkhi Dadri,"Mini Secretariat, Charkhi Dadri - HSPCB",28-01-2026 08:00:00,28.593883,76.270653,PM10,66,229,155
India,Haryana,Charkhi Dadri,"Mini Secretariat, Charkhi Dadri - HSPCB",28-01-2026 08:00:00,28.593883,76.270653,SO2,9,11,10
India,Haryana,Charkhi Dadri,"Mini Secretariat, Charkhi Dadri - HSPCB",28-01-2026 08:00:00,28.593883,76.270653,OZONE,12,17,15
India,Haryana,Dharuhera,"Municipal Corporation Office, Dharuhera -  HSPCB",28-01-2026 08:00:00,28.206800,76.799700,PM10,184,257,217
India,Haryana,Dharuhera,"Municipal Corporation Office, Dharuhera -  HSPCB",28-01-2026 08:00:00,28.206800,76.799700,SO2,7,7,7
India,Haryana,Faridabad,"New Industrial Town, Faridabad - HSPCB",28-01-2026 08:00:00,28.39072,77.30059,PM2.5,174,219,211
India,Haryana,Faridabad,"New Industrial Town, Faridabad - HSPCB",28-01-2026 08:00:00,28.39072,77.30059,NO2,23,26,25
India,Haryana,Faridabad,"New Industrial Town, Faridabad - HSPCB",28-01-2026 08:00:00,28.39072,77.30059,NH3,11,12,11
India,Haryana,Mandikhera,"General Hospital, Mandikhera(Nuh) - HSPCB",28-01-2026 08:00:00,27.9002,76.9938,CO,64,89,75
India,Haryana,Narnaul,"Shastri Nagar, Narnaul - HSPCB",28-01-2026 08:00:00,28.060249,76.113115,OZONE,8,39,8
India,Haryana,Palwal,"Shyam Nagar, Palwal - HSPCB",28-01-2026 08:00:00,28.1485564,77.3320667,PM10,53,113,69
India,Haryana,Palwal,"Shyam Nagar, Palwal - HSPCB",28-01-2026 08:00:00,28.1485564,77.3320667,SO2,7,99,21
India,Haryana,Panchgaon,"Amity University, Panchgaon - IITM",28-01-2026 08:00:00,28.3153,76.9143,PM10,13,96,45
India,Haryana,Panchgaon,"Amity University, Panchgaon - IITM",28-01-2026 08:00:00,28.3153,76.9143,NH3,5,8,6
India,Haryana,Panchgaon,"Amity University, Panchgaon - IITM",28-01-2026 08:00:00,28.3153,76.9143,SO2,15,19,17
India,Haryana,Panchgaon,"Amity University, Panchgaon - IITM",28-01-2026 08:00:00,28.3153,76.9143,OZONE,4,50,13
India,Haryana,Panchkula,"Sector-6, Panchkula - HSPCB ",28-01-2026 08:00:00,30.7057778,76.8531805555555,CO,10,20,19
India,Haryana,Panipat,"Sector-18, Panipat - HSPCB",28-01-2026 08:00:00,29.432304,76.972765,PM2.5,49,50,49
India,Haryana,Panipat,"Sector-18, Panipat - HSPCB",28-01-2026 08:00:00,29.432304,76.972765,CO,NA,NA,NA
India,Gujarat,Ahmedabad,"SAC ISRO Bopal, Ahmedabad - IITM",28-01-2026 08:00:00,23.041137,72.456691,PM10,68,128,96
India,Gujarat,Ahmedabad,"SAC ISRO Bopal, Ahmedabad - IITM",28-01-2026 08:00:00,23.041137,72.456691,NO2,11,24,19
India,Gujarat,Ahmedabad,"SAC ISRO Satellite, Ahmedabad - IITM",28-01-2026 08:00:00,23.023389,72.515201,NH3,3,8,5
India,Gujarat,Ahmedabad,"SAC ISRO Satellite, Ahmedabad - IITM",28-01-2026 08:00:00,23.023389,72.515201,CO,10,67,59
India,Gujarat,Ahmedabad,"SVPI Airport Hansol, Ahmedabad - IITM",28-01-2026 08:00:00,23.076793,72.627874,CO,14,33,19
India,Gujarat,Ankleshwar,"GIDC, Ankleshwar - GPCB",28-01-2026 08:00:00,21.613267,73.010555,NO2,16,28,26
India,Gujarat,Ankleshwar,"GIDC, Ankleshwar - GPCB",28-01-2026 08:00:00,21.613267,73.010555,OZONE,8,62,19
India,Gujarat,Bhavnagar,"Vidhyanagar, Bhavnagar - Nexteng Enviro",28-01-2026 08:00:00,21.755417,72.139056,PM2.5,NA,NA,NA
India,Gujarat,Bhavnagar,"Vidhyanagar, Bhavnagar - Nexteng Enviro",28-01-2026 08:00:00,21.755417,72.139056,PM10,NA,NA,NA
India,Gujarat,Gandhinagar,"GIFT City, Gandhinagar - IITM",28-01-2026 08:00:00,23.163798,72.677768,PM2.5,45,130,75
India,Haryana,Faridabad,"Sector 11, Faridabad - HSPCB",28-01-2026 08:00:00,28.376058,77.315741,SO2,4,5,4
India,Haryana,Faridabad,"Sector 11, Faridabad - HSPCB",28-01-2026 08:00:00,28.376058,77.315741,CO,10,30,27
India,Haryana,Faridabad,"Sector 30, Faridabad - HSPCB",28-01-2026 08:00:00,28.4417,77.3217,CO,59,66,63
India,Haryana,Fatehabad,"Huda Sector, Fatehabad - HSPCB",28-01-2026 08:00:00,29.503664,75.467934,NO2,NA,NA,NA
India,Haryana,Gurugram,"NISE Gwal Pahari, Gurugram - IMD",28-01-2026 08:00:00,28.422681,77.148944,CO,36,57,39
India,Haryana,Gurugram,"Sector-51, Gurugram - HSPCB",28-01-2026 08:00:00,28.4227,77.0667,PM10,142,292,179
India,Haryana,Gurugram,"Sector-51, Gurugram - HSPCB",28-01-2026 08:00:00,28.4227,77.0667,CO,21,32,23
India,Haryana,Gurugram,"Vikas Sadan, Gurugram - HSPCB",28-01-2026 08:00:00,28.4501238,77.0263051,PM10,102,467,154
India,Delhi,Delhi,"Vivek Vihar, Delhi - DPCC",28-01-2026 08:00:00,28.672342,77.315260,NH3,11,14,13
India,Delhi,Delhi,"Wazirpur, Delhi - DPCC",28-01-2026 08:00:00,28.699793,77.165453,PM10,116,451,212
India,Delhi,Delhi,"Wazirpur, Delhi - DPCC",28-01-2026 08:00:00,28.699793,77.165453,OZONE,12,101,55
India,Gujarat,Ahmedabad,"Chandkheda, Ahmedabad - IITM",28-01-2026 08:00:00,23.107969,72.574648,OZONE,18,44,27
India,Gujarat,Ahmedabad,"Gyaspur, Ahmedabad - IITM",28-01-2026 08:00:00,22.977134,72.553024,NH3,3,18,7
India,Gujarat,Ahmedabad,"Gyaspur, Ahmedabad - IITM",28-01-2026 08:00:00,22.977134,72.553024,SO2,12,127,57
India,Gujarat,Ahmedabad,"Raikhad, Ahmedabad - IITM",28-01-2026 08:00:00,23.020509,72.579261,PM10,105,178,126
India,Gujarat,Ahmedabad,"Rakhial, Ahmedabad - IITM",28-01-2026 08:00:00,23.016834,72.625775,NH3,4,8,6
India,Haryana,Gurugram,"Vikas Sadan, Gurugram - HSPCB",28-01-2026 08:00:00,28.4501238,77.0263051,CO,62,114,96
India,Haryana,Hisar,"Urban Estate-II, Hisar - HSPCB",28-01-2026 08:00:00,29.140560,75.744941,PM10,91,116,103
India,Haryana,Kaithal,"Rishi Nagar, Kaithal - HSPCB",28-01-2026 08:00:00,29.8006,76.4155,NH3,1,7,6
India,Haryana,Karnal,"Sector-12, Karnal - HSPCB",28-01-2026 08:00:00,29.695300,77.002700,OZONE,32,32,32
India,Haryana,Mandikhera,"General Hospital, Mandikhera(Nuh) - HSPCB",28-01-2026 08:00:00,27.9002,76.9938,PM2.5,66,237,126
India,Gujarat,Gandhinagar,"Sector-10, Gandhinagar - GPCB",28-01-2026 08:00:00,23.221714,72.654328,SO2,4,10,8
India,Gujarat,Surat,"Science Center, Surat - SMC",28-01-2026 08:00:00,21.170046,72.795405,SO2,24,26,25
India,Gujarat,Vapi,"Phase-1 GIDC, Vapi - GPCB",28-01-2026 08:00:00,20.362421,72.918013,PM10,12,156,81
India,Gujarat,Vatva,"Phase-4 GIDC, Vatva - GPCB",28-01-2026 08:00:00,22.969611,72.643500,PM2.5,29,182,114
India,Gujarat,Vatva,"Phase-4 GIDC, Vatva - GPCB",28-01-2026 08:00:00,22.969611,72.643500,OZONE,18,43,24
India,Gujarat,Gandhinagar,"IIPHG Lekawada, Gandhinagar - IITM",28-01-2026 08:00:00,23.243639,72.68994,PM2.5,61,212,95
India,Gujarat,Gandhinagar,"IIPHG Lekawada, Gandhinagar - IITM",28-01-2026 08:00:00,23.243639,72.68994,SO2,9,20,13
India,Gujarat,Gandhinagar,"IIPHG Lekawada, Gandhinagar - IITM",28-01-2026 08:00:00,23.243639,72.68994,OZONE,7,51,15
India,Haryana,Ambala,"Patti Mehar, Ambala - HSPCB",28-01-2026 08:00:00,30.379589,76.778328,SO2,15,32,22
India,Jammu_and_Kashmir,Srinagar,"Khunmoh, Srinagar - JKPCC",28-01-2026 08:00:00,34.06313,74.96017,SO2,2,4,3
India,Jammu_and_Kashmir,Srinagar,"Rajbagh, Srinagar - JKPCC",28-01-2026 08:00:00,34.066206,74.819820,PM2.5,13,84,23
India,Jammu_and_Kashmir,Srinagar,"Rajbagh, Srinagar - JKPCC",28-01-2026 08:00:00,34.066206,74.819820,OZONE,NA,NA,NA
India,Karnataka,Bagalkot,"Vidayagiri, Bagalkot - KSPCB",28-01-2026 08:00:00,16.172806,75.659694,NH3,1,2,1
India,Karnataka,Bagalkot,"Vidayagiri, Bagalkot - KSPCB",28-01-2026 08:00:00,16.172806,75.659694,CO,8,48,24
India,Karnataka,Belgaum,"Ramteerth Nagar, Belgaum - KSPCB",28-01-2026 08:00:00,15.888653,74.541751,NO2,6,60,27
India,Karnataka,Belgaum,"Ramteerth Nagar, Belgaum - KSPCB",28-01-2026 08:00:00,15.888653,74.541751,OZONE,19,20,20
India,Karnataka,Bengaluru,"BWSSB Kadabesanahalli, Bengaluru - CPCB",28-01-2026 08:00:00,12.9352049,77.6814488,OZONE,17,58,41
India,Karnataka,Bengaluru,"Bapuji Nagar, Bengaluru - KSPCB",28-01-2026 08:00:00,12.951913,77.539784,PM10,100,150,122
India,Karnataka,Bengaluru,"Bapuji Nagar, Bengaluru - KSPCB",28-01-2026 08:00:00,12.951913,77.539784,NO2,6,18,12
India,Karnataka,Bengaluru,"Bapuji Nagar, Bengaluru - KSPCB",28-01-2026 08:00:00,12.951913,77.539784,SO2,12,33,19
India,Haryana,Rohtak,"MD University, Rohtak - HSPCB",28-01-2026 08:00:00,28.52123,76.37138,SO2,10,14,12
India,Haryana,Sonipat,"Murthal, Sonipat - HSPCB",28-01-2026 08:00:00,29.027200,77.062100,SO2,NA,NA,NA
India,Haryana,Yamuna Nagar,"Gobind Pura, Yamuna Nagar - HSPCB",28-01-2026 08:00:00,30.1480566,77.2893471,PM2.5,60,161,107
India,Haryana,Yamuna Nagar,"Gobind Pura, Yamuna Nagar - HSPCB",28-01-2026 08:00:00,30.1480566,77.2893471,PM10,72,138,113
India,Haryana,Yamuna Nagar,"Gobind Pura, Yamuna Nagar - HSPCB",28-01-2026 08:00:00,30.1480566,77.2893471,OZONE,8,34,11
India,Himachal Pradesh,Baddi,"HIMUDA Complex Phase-1, Baddi - HPPCB",28-01-2026 08:00:00,30.943887,76.801991,PM2.5,NA,NA,NA
India,Himachal Pradesh,Baddi,"HIMUDA Complex Phase-1, Baddi - HPPCB",28-01-2026 08:00:00,30.943887,76.801991,NO2,1,17,7
India,Jammu_and_Kashmir,Srinagar,"Khunmoh, Srinagar - JKPCC",28-01-2026 08:00:00,34.06313,74.96017,PM2.5,16,33,25
India,Karnataka,Bengaluru,"Bapuji Nagar, Bengaluru - KSPCB",28-01-2026 08:00:00,12.951913,77.539784,OZONE,19,43,35
India,Karnataka,Bengaluru,"Hebbal, Bengaluru - KSPCB",28-01-2026 08:00:00,13.029152,77.585901,NO2,40,47,43
India,Karnataka,Bengaluru,"Hebbal, Bengaluru - KSPCB",28-01-2026 08:00:00,13.029152,77.585901,SO2,12,15,14
India,Karnataka,Bengaluru,"Hombegowda Nagar, Bengaluru - KSPCB",28-01-2026 08:00:00,12.938539,77.590100,NO2,15,64,29
India,Karnataka,Bengaluru,"Jayanagar 5th Block, Bengaluru - KSPCB",28-01-2026 08:00:00,12.920984,77.584908,PM2.5,45,100,72
India,Karnataka,Bengaluru,"Jigani, Bengaluru - KSPCB",28-01-2026 08:00:00,12.7816279,77.6299145,PM10,64,121,94
India,Karnataka,Bengaluru,"Jigani, Bengaluru - KSPCB",28-01-2026 08:00:00,12.7816279,77.6299145,CO,32,34,32
India,Karnataka,Bengaluru,"Kasturi Nagar, Bengaluru - KSPCB",28-01-2026 08:00:00,13.003872,77.664217,SO2,2,14,12
India,Karnataka,Bengaluru,"Kasturi Nagar, Bengaluru - KSPCB",28-01-2026 08:00:00,13.003872,77.664217,CO,28,102,49
India,Karnataka,Chamarajanagar,"Urban, Chamarajanagar - KSPCB",28-01-2026 08:00:00,11.55358,76.55521,OZONE,13,38,15
India,Karnataka,Chikkaballapur,"Chikkaballapur Rural, Chikkaballapur - KSPCB",28-01-2026 08:00:00,13.428828,77.731418,PM2.5,35,142,78
India,Karnataka,Chikkaballapur,"Chikkaballapur Rural, Chikkaballapur - KSPCB",28-01-2026 08:00:00,13.428828,77.731418,PM10,50,150,102
India,Karnataka,Davanagere,"Devaraj Urs Badavane, Davanagere - KSPCB",28-01-2026 08:00:00,14.475800,75.905200,SO2,2,6,4
India,Karnataka,Dharwad,"Kalabhavan, Dharwad - KSPCB",28-01-2026 08:00:00,15.459706,75.008381,NH3,5,6,5
India,Karnataka,Dharwad,"Kalabhavan, Dharwad - KSPCB",28-01-2026 08:00:00,15.459706,75.008381,SO2,5,6,5
India,Karnataka,Dharwad,"Kalabhavan, Dharwad - KSPCB",28-01-2026 08:00:00,15.459706,75.008381,OZONE,17,28,28
India,Karnataka,Hubballi,"Lingaraj Nagar, Hubballi - KSPCB",28-01-2026 08:00:00,15.3714823,75.1160168,NH3,1,2,2
India,Karnataka,Madikeri,"Stuart Hill, Madikeri - KSPCB",28-01-2026 08:00:00,12.415911,75.735050,PM2.5,30,93,57
India,Karnataka,Madikeri,"Stuart Hill, Madikeri - KSPCB",28-01-2026 08:00:00,12.415911,75.735050,PM10,23,70,43
India,Karnataka,Mangalore,"Kadri, Mangalore - KSPCB",28-01-2026 08:00:00,12.889250,74.853000,NO2,NA,NA,NA
India,Karnataka,Mysuru,"Hebbal 1st Stage, Mysuru - KSPCB",28-01-2026 08:00:00,12.21041,76.37376,CO,12,100,20
India,Karnataka,Ramanagara,"Vijay Nagar, Ramanagara - KSPCB",28-01-2026 08:00:00,12.733409,77.298051,PM2.5,30,120,70
India,Karnataka,Ramanagara,"Vijay Nagar, Ramanagara - KSPCB",28-01-2026 08:00:00,12.733409,77.298051,NH3,1,2,2
India,Karnataka,Tumakuru,"Thimmalapura, Tumakuru - KSPCB",28-01-2026 08:00:00,13.377516,77.099072,PM10,73,135,109
India,Karnataka,Tumakuru,"Thimmalapura, Tumakuru - KSPCB",28-01-2026 08:00:00,13.377516,77.099072,SO2,26,27,26
India,Karnataka,Tumakuru,"Thimmalapura, Tumakuru - KSPCB",28-01-2026 08:00:00,13.377516,77.099072,OZONE,23,23,23
India,Karnataka,Vijayapura,"Ibrahimpur, Vijayapura - KSPCB",28-01-2026 08:00:00,16.802639,75.722694,NH3,1,2,1
India,Karnataka,Vijayapura,"Ibrahimpur, Vijayapura - KSPCB",28-01-2026 08:00:00,16.802639,75.722694,OZONE,16,16,16
India,Kerala,Eloor,"Udyogamandal, Eloor - Kerala PCB",28-01-2026 08:00:00,10.073232,76.302765,SO2,1,1,1
India,Kerala,Kannur,"Thavakkara, Kannur - Kerala PCB",28-01-2026 08:00:00,11.875000,75.373200,NO2,16,17,16
India,Kerala,Thiruvananthapuram,"Kariavattom, Thiruvananthapuram - Kerala PCB",28-01-2026 08:00:00,8.563700,76.886500,NH3,1,1,1
India,Karnataka,Bengaluru,"Kasturi Nagar, Bengaluru - KSPCB",28-01-2026 08:00:00,13.003872,77.664217,OZONE,26,26,26
India,Karnataka,Bengaluru,"Peenya, Bengaluru - CPCB",28-01-2026 08:00:00,13.0270199,77.494094,PM2.5,18,51,32
India,Karnataka,Bengaluru,"RVCE-Mailasandra, Bengaluru - KSPCB",28-01-2026 08:00:00,12.921418,77.502466,CO,2,36,12
India,Karnataka,Bengaluru,"Shivapura_Peenya, Bengaluru - KSPCB",28-01-2026 08:00:00,13.0246342,77.5080115,NH3,7,8,7
India,Karnataka,Bengaluru,"Silk Board, Bengaluru - KSPCB",28-01-2026 08:00:00,12.917348,77.622813,CO,24,72,29
India,Karnataka,Bengaluru,"Silk Board, Bengaluru - KSPCB",28-01-2026 08:00:00,12.917348,77.622813,OZONE,30,89,60
India,Madhya Pradesh,Bhopal,"Paryavaran Parisar, Bhopal - MPPCB",28-01-2026 08:00:00,23.210494,77.425409,PM10,50,228,115
India,Madhya Pradesh,Bhopal,"Paryavaran Parisar, Bhopal - MPPCB",28-01-2026 08:00:00,23.210494,77.425409,CO,13,52,26
India,Madhya Pradesh,Bhopal,"T T Nagar, Bhopal - MPPCB",28-01-2026 08:00:00,23.233584,77.400574,NH3,7,8,7
India,Madhya Pradesh,Damoh,"Shrivastav Colony, Damoh - MPPCB",28-01-2026 08:00:00,23.81748678,79.446246,SO2,NA,NA,NA
India,Madhya Pradesh,Dewas,"Bhopal Chauraha, Dewas - MPPCB",28-01-2026 08:00:00,22.9682591,76.064118,PM10,101,140,117
India,Kerala,Thrissur,"Corporation Ground, Thrissur - Kerala PCB",28-01-2026 08:00:00,10.532400,76.215900,SO2,1,1,1
India,Kerala,Thrissur,"Corporation Ground, Thrissur - Kerala PCB",28-01-2026 08:00:00,10.532400,76.215900,OZONE,29,30,29
India,Madhya Pradesh,Bhopal,"Idgah Hills, Bhopal - MPPCB",28-01-2026 08:00:00,23.264759,77.381568,NH3,5,6,5
India,Maharashtra,Akola,"Ramdaspeth, Akola - MPCB",28-01-2026 08:00:00,20.719516,77.000253,SO2,12,24,18
India,Maharashtra,Akola,"Ramdaspeth, Akola - MPCB",28-01-2026 08:00:00,20.719516,77.000253,CO,16,59,18
India,Maharashtra,Akola,"Ramdaspeth, Akola - MPCB",28-01-2026 08:00:00,20.719516,77.000253,OZONE,4,56,25
India,Maharashtra,Amravati,"Shivneri Colony, Amravati - MPCB",28-01-2026 08:00:00,20.9402359,77.7895248,PM2.5,58,110,68
India,Maharashtra,Amravati,"Shivneri Colony, Amravati - MPCB",28-01-2026 08:00:00,20.9402359,77.7895248,NH3,4,4,4
India,Maharashtra,Amravati,"Shri Shivaji Science College, Amravati - MPCB",28-01-2026 08:00:00,20.939198,77.765701,PM10,82,250,123
India,Maharashtra,Amravati,"Shri Shivaji Science College, Amravati - MPCB",28-01-2026 08:00:00,20.939198,77.765701,NH3,2,10,3
India,Maharashtra,Amravati,"Shri Shivaji Science College, Amravati - MPCB",28-01-2026 08:00:00,20.939198,77.765701,OZONE,4,76,43
India,Maharashtra,Aurangabad,"MIDC Chilkalthana, Aurangabad - MPCB",28-01-2026 08:00:00,19.875620,75.387310,CO,6,12,10
India,Maharashtra,Aurangabad,"More Chowk Waluj, Aurangabad - MPCB",28-01-2026 08:00:00,19.8389439,75.244448,PM2.5,NA,NA,NA
India,Maharashtra,Aurangabad,"Rachnakar Colony, Aurangabad - MPCB",28-01-2026 08:00:00,19.863756,75.321188,PM10,71,116,95
India,Maharashtra,Kolhapur,"Shivaji University, Kolhapur - MPCB",28-01-2026 08:00:00,16.6870449,74.2505872,PM10,32,94,65
India,Maharashtra,Kolhapur,"Shivaji University, Kolhapur - MPCB",28-01-2026 08:00:00,16.6870449,74.2505872,NO2,14,57,33
India,Maharashtra,Kolhapur,"Sinchan Bhavan, Kolhapur - MPCB",28-01-2026 08:00:00,16.7143745,74.2426398,NO2,1,37,18
India,Maharashtra,Mahad,"Kamble Tarf Birwadi, Mahad - MPCB",28-01-2026 08:00:00,18.1023399,73.4783687,NH3,3,8,5
India,Maharashtra,Mahad,"Kamble Tarf Birwadi, Mahad - MPCB",28-01-2026 08:00:00,18.1023399,73.4783687,OZONE,20,75,30
India,Maharashtra,Malegaon,"Mahesh Nagar, Malegaon - MPCB",28-01-2026 08:00:00,20.555712,74.529236,PM10,65,116,98
India,Maharashtra,Malegaon,"Mahesh Nagar, Malegaon - MPCB",28-01-2026 08:00:00,20.555712,74.529236,NO2,4,12,7
India,Maharashtra,Mira-Bhayandar,"Bhayandar West, Mira-Bhayandar - MPCB",28-01-2026 08:00:00,19.296481,72.840923,PM10,57,102,82
India,Maharashtra,Chandrapur,"MIDC Khutala, Chandrapur - MPCB",28-01-2026 08:00:00,19.9775302,79.2337086,NO2,11,26,18
India,Maharashtra,Chandrapur,"MIDC Khutala, Chandrapur - MPCB",28-01-2026 08:00:00,19.9775302,79.2337086,NH3,2,7,4
India,Maharashtra,Chandrapur,"MIDC Khutala, Chandrapur - MPCB",28-01-2026 08:00:00,19.9775302,79.2337086,OZONE,17,19,18
India,Maharashtra,Jalgaon,"Prabhat Colony, Jalgaon - MPCB",28-01-2026 08:00:00,21.001264,75.565602,NH3,2,3,3
India,Maharashtra,Jalgaon,"Prabhat Colony, Jalgaon - MPCB",28-01-2026 08:00:00,21.001264,75.565602,OZONE,14,53,28
India,Maharashtra,Jalna,"Old MIDC, Jalna - MPCB",28-01-2026 08:00:00,19.854616,75.905894,PM10,NA,NA,NA
India,Maharashtra,Jalna,"Old MIDC, Jalna - MPCB",28-01-2026 08:00:00,19.854616,75.905894,NO2,NA,NA,NA
India,Maharashtra,Kalyan,"Khadakpada, Kalyan - MPCB",28-01-2026 08:00:00,19.25292,73.142019,NO2,36,37,36
India,Maharashtra,Kalyan,"Pimpleshwar Mandir, Kalyan - MPCB",28-01-2026 08:00:00,19.192056,72.9585188,NH3,1,4,2
India,Madhya Pradesh,Jabalpur,"Gupteshwar, Jabalpur - JMC",28-01-2026 08:00:00,23.142888,79.916147,CO,41,121,45
India,Madhya Pradesh,Jabalpur,"Marhatal, Jabalpur - MPPCB",28-01-2026 08:00:00,23.168606,79.932247,PM2.5,87,172,124
India,Madhya Pradesh,Jabalpur,"Suhagi, Jabalpur - JMC",28-01-2026 08:00:00,23.218135,79.957770,NH3,5,9,7
India,Madhya Pradesh,Katni,"Gole Bazar, Katni - MPPCB",28-01-2026 08:00:00,23.50016,80.23284,PM2.5,58,286,123
India,Madhya Pradesh,Katni,"Gole Bazar, Katni - MPPCB",28-01-2026 08:00:00,23.50016,80.23284,NH3,3,5,4
India,Madhya Pradesh,Katni,"Gole Bazar, Katni - MPPCB",28-01-2026 08:00:00,23.50016,80.23284,SO2,1,51,28
India,Madhya Pradesh,Mandideep,"Sector-D Industrial Area, Mandideep - MPPCB",28-01-2026 08:00:00,23.108440,77.511428,CO,28,66,40
India,Madhya Pradesh,Mandideep,"Sector-D Industrial Area, Mandideep - MPPCB",28-01-2026 08:00:00,23.108440,77.511428,OZONE,17,61,18
India,Maharashtra,Badlapur,"Katrap, Badlapur - MPCB",28-01-2026 08:00:00,19.16485,73.23409,PM2.5,69,119,88
India,Maharashtra,Belapur,"CBD Belapur, Belapur - MPCB",28-01-2026 08:00:00,19.0243902,73.0406721,PM10,73,147,105
India,Maharashtra,Belapur,"CBD Belapur, Belapur - MPCB",28-01-2026 08:00:00,19.0243902,73.0406721,NH3,1,2,1
India,Maharashtra,Belapur,"CBD Belapur, Belapur - MPCB",28-01-2026 08:00:00,19.0243902,73.0406721,OZONE,2,50,14
India,Maharashtra,Bhiwandi,"Gokul Nagar, Bhiwandi - MPCB",28-01-2026 08:00:00,19.309073,73.057223,NO2,14,33,24
India,Maharashtra,Boisar,"Khaira, Boisar - MPCB",28-01-2026 08:00:00,19.786089,72.757971,PM10,73,128,94
India,Maharashtra,Boisar,"Khaira, Boisar - MPCB",28-01-2026 08:00:00,19.786089,72.757971,OZONE,1,53,11
India,Maharashtra,Chandrapur,"Chauhan Colony, Chandrapur - MPCB",28-01-2026 08:00:00,19.962900,79.298714,PM10,115,206,147
India,Madhya Pradesh,Sagar,"Civil Lines, Sagar - MPPCB",28-01-2026 08:00:00,23.838586,78.759431,PM2.5,63,170,98
India,Madhya Pradesh,Sagar,"Civil Lines, Sagar - MPPCB",28-01-2026 08:00:00,23.838586,78.759431,PM10,107,186,129
India,Madhya Pradesh,Sagar,"Civil Lines, Sagar - MPPCB",28-01-2026 08:00:00,23.838586,78.759431,OZONE,40,97,58
India,Madhya Pradesh,Singrauli,"Suryakiran Bhawan NCL, Singrauli - MPPCB",28-01-2026 08:00:00,24.108970,82.645580,PM2.5,258,500,360
India,Madhya Pradesh,Singrauli,"Suryakiran Bhawan NCL, Singrauli - MPPCB",28-01-2026 08:00:00,24.108970,82.645580,NO2,NA,NA,NA
India,Madhya Pradesh,Ujjain,"Mahashweta Nagar, Ujjain - MPPCB",28-01-2026 08:00:00,23.1633321,75.800225,NH3,NA,NA,NA
India,Maharashtra,Ahmednagar,"Tarakpur, Ahmednagar - MPCB",28-01-2026 08:00:00,19.10122,74.73339,CO,8,97,26
India,Madhya Pradesh,Indore,"Chhoti Gwaltoli, Indore - MPPCB",28-01-2026 08:00:00,22.4310,75.5213,NO2,35,109,74
India,Madhya Pradesh,Indore,"Maguda Nagar, Indore - IMC",28-01-2026 08:00:00,22.7524,75.8872,PM2.5,47,130,80
India,Madhya Pradesh,Indore,"Residency Area, Indore - IMC",28-01-2026 08:00:00,22.7084,75.8815,PM2.5,47,94,67
India,Madhya Pradesh,Indore,"Residency Area, Indore - IMC",28-01-2026 08:00:00,22.7084,75.8815,OZONE,6,11,9
India,Madhya Pradesh,Jabalpur,"Gupteshwar, Jabalpur - JMC",28-01-2026 08:00:00,23.142888,79.916147,PM10,77,136,94
India,Maharashtra,Mumbai,"Bandra Kurla Complex, Mumbai - IITM",28-01-2026 08:00:00,19.053536,72.84643,OZONE,1,58,2
India,Maharashtra,Mumbai,"Borivali East, Mumbai - IITM",28-01-2026 08:00:00,19.23241,72.86895,PM10,68,147,95
India,Maharashtra,Mumbai,"Borivali East, Mumbai - IITM",28-01-2026 08:00:00,19.23241,72.86895,NH3,1,10,6
India,Maharashtra,Mumbai,"Borivali East, Mumbai - IITM",28-01-2026 08:00:00,19.23241,72.86895,CO,64,96,71
India,Maharashtra,Mumbai,"Borivali East, Mumbai - MPCB",28-01-2026 08:00:00,19.2243333,72.8658113,OZONE,17,19,18
India,Madhya Pradesh,Gwalior,"Deen Dayal Nagar, Gwalior - MPPCB",28-01-2026 08:00:00,26.259242,78.216432,PM10,NA,NA,NA
India,Madhya Pradesh,Gwalior,"Deen Dayal Nagar, Gwalior - MPPCB",28-01-2026 08:00:00,26.259242,78.216432,NO2,NA,NA,NA
India,Madhya Pradesh,Gwalior,"Deen Dayal Nagar, Gwalior - MPPCB",28-01-2026 08:00:00,26.259242,78.216432,CO,31,68,68
India,Madhya Pradesh,Gwalior,"Maharaj Bada, Gwalior - MPPCB",28-01-2026 08:00:00,26.200388,78.147714,OZONE,8,45,8
India,Maharashtra,Sangli,"Vijay Nagar, Sangli - MPCB",28-01-2026 08:00:00, 16.5038,74.3623,CO,10,45,27
India,Maharashtra,Solapur,"Dnyaneshwar Nagar, Solapur - MPCB",28-01-2026 08:00:00,17.6336264,75.9132495,PM10,58,96,75
India,Maharashtra,Solapur,"Dnyaneshwar Nagar, Solapur - MPCB",28-01-2026 08:00:00,17.6336264,75.9132495,OZONE,24,61,37
India,Maharashtra,Solapur,"Ratandeep Housing Society, Solapur - MPCB",28-01-2026 08:00:00,17.65439,75.90649,CO,20,84,28
India,Maharashtra,Solapur,"Ratandeep Housing Society, Solapur - MPCB",28-01-2026 08:00:00,17.65439,75.90649,OZONE,2,342,2
India,Maharashtra,Thane,"Kasarvadavali, Thane - MPCB",28-01-2026 08:00:00,19.26777,72.97182,NH3,4,5,4
India,Maharashtra,Thane,"Kasarvadavali, Thane - MPCB",28-01-2026 08:00:00,19.26777,72.97182,SO2,10,14,11
India,Maharashtra,Thane,"Upvan Fort, Thane - MPCB",28-01-2026 08:00:00,19.222279,72.957979,NO2,5,50,17
India,Maharashtra,Thane,"Upvan Fort, Thane - MPCB",28-01-2026 08:00:00,19.222279,72.957979,SO2,1,45,6
India,Maharashtra,Thane,"Upvan Fort, Thane - MPCB",28-01-2026 08:00:00,19.222279,72.957979,OZONE,5,56,28
India,Maharashtra,Ulhasnagar,"Sidhi Vinayak Nagar, Ulhasnagar - MPCB",28-01-2026 08:00:00,19.235581,73.159121,CO,8,30,16
India,Maharashtra,Mumbai,"Chembur, Mumbai - MPCB",28-01-2026 08:00:00,19.0364585,72.8954371,PM2.5,32,67,44
India,Maharashtra,Mumbai,"Chembur, Mumbai - MPCB",28-01-2026 08:00:00,19.0364585,72.8954371,NO2,20,41,32
India,Maharashtra,Mumbai,"Chembur, Mumbai - MPCB",28-01-2026 08:00:00,19.0364585,72.8954371,SO2,1,7,3
India,Maharashtra,Mumbai,"Chembur, Mumbai - MPCB",28-01-2026 08:00:00,19.0364585,72.8954371,CO,16,40,26
India,Maharashtra,Mumbai,"Chembur, Mumbai - MPCB",28-01-2026 08:00:00,19.0364585,72.8954371,OZONE,4,40,10
India,Maharashtra,Mumbai,"Chhatrapati Shivaji Intl. Airport (T2), Mumbai - MPCB",28-01-2026 08:00:00,19.10078,72.87462,OZONE,7,8,7
India,Maharashtra,Mumbai,"Colaba, Mumbai - MPCB",28-01-2026 08:00:00,18.910000,72.820000,SO2,NA,NA,NA
India,Maharashtra,Mumbai,"Colaba, Mumbai - MPCB",28-01-2026 08:00:00,18.910000,72.820000,OZONE,10,11,11
India,Maharashtra,Mumbai,"Ghatkopar, Mumbai - BMC",28-01-2026 08:00:00,19.083694,72.920967,PM10,71,98,80
India,Maharashtra,Mumbai,"Ghatkopar, Mumbai - BMC",28-01-2026 08:00:00,19.083694,72.920967,SO2,1,3,1
India,Maharashtra,Mumbai,"Kandivali East, Mumbai - MPCB",28-01-2026 08:00:00,19.205800,72.868200,PM10,53,117,79
India,Maharashtra,Mumbai,"Mindspace-Malad West, Mumbai - MPCB",28-01-2026 08:00:00,19.1878657,72.8304069,CO,4,26,18
India,Maharashtra,Mumbai,"Mulund West, Mumbai - MPCB",28-01-2026 08:00:00,19.1750,72.9419,PM2.5,26,53,35
India,Maharashtra,Mumbai,"Navy Nagar-Colaba, Mumbai - IITM",28-01-2026 08:00:00,18.897756,72.813320,PM2.5,39,175,71
India,Maharashtra,Mumbai,"Navy Nagar-Colaba, Mumbai - IITM",28-01-2026 08:00:00,18.897756,72.813320,NH3,4,6,5
India,Maharashtra,Mumbai,"Navy Nagar-Colaba, Mumbai - IITM",28-01-2026 08:00:00,18.897756,72.813320,SO2,8,15,11
India,Maharashtra,Mumbai,"Navy Nagar-Colaba, Mumbai - IITM",28-01-2026 08:00:00,18.897756,72.813320,OZONE,26,60,39
India,Maharashtra,Mumbai,"Sewri, Mumbai - BMC",28-01-2026 08:00:00,19.000084,72.856730,PM2.5,32,46,40
India,Maharashtra,Mumbai,"Sewri, Mumbai - BMC",28-01-2026 08:00:00,19.000084,72.856730,OZONE,3,16,4
India,Maharashtra,Mumbai,"Shivaji Nagar, Mumbai - BMC",28-01-2026 08:00:00,19.060498,72.923356,SO2,1,8,4
India,Maharashtra,Mumbai,"Siddharth Nagar-Worli, Mumbai - IITM",28-01-2026 08:00:00,19.000083,72.813993,PM2.5,24,84,44
India,Maharashtra,Navi Mumbai,"Mahape, Navi Mumbai - MPCB",28-01-2026 08:00:00,19.1135051,73.008978,OZONE,8,10,10
India,Maharashtra,Navi Mumbai,"Sanpada, Navi Mumbai - MPCB",28-01-2026 08:00:00,19.0575752,73.0151367,PM2.5,36,91,59
India,Maharashtra,Navi Mumbai,"Sector-2E Kalamboli, Navi Mumbai - MPCB",28-01-2026 08:00:00,19.02579,73.10297,PM2.5,28,67,41
India,Maharashtra,Navi Mumbai,"Sector-2E Kalamboli, Navi Mumbai - MPCB",28-01-2026 08:00:00,19.02579,73.10297,PM10,42,81,55
India,Maharashtra,Navi Mumbai,"Tondare-Taloja, Navi Mumbai - MPCB",28-01-2026 08:00:00,19.0630,73.1209,PM2.5,46,75,63
India,Maharashtra,Navi Mumbai,"Tondare-Taloja, Navi Mumbai - MPCB",28-01-2026 08:00:00,19.0630,73.1209,SO2,2,4,4
India,Maharashtra,Parbhani,"Masoom Colony, Parbhani - MPCB",28-01-2026 08:00:00,19.265594,76.761463,NH3,3,5,4
India,Maharashtra,Parbhani,"Masoom Colony, Parbhani - MPCB",28-01-2026 08:00:00,19.265594,76.761463,OZONE,10,10,10
India,Maharashtra,Pimpri-Chinchwad,"Gavalinagar, Pimpri Chinchwad - MPCB",28-01-2026 08:00:00,18.63673,73.82487,PM10,61,132,90
India,Maharashtra,Pimpri-Chinchwad,"Gavalinagar, Pimpri Chinchwad - MPCB",28-01-2026 08:00:00,18.63673,73.82487,SO2,1,2,1
India,Maharashtra,Pimpri-Chinchwad,"Gavalinagar, Pimpri Chinchwad - MPCB",28-01-2026 08:00:00,18.63673,73.82487,OZONE,12,13,12
India,Maharashtra,Pimpri-Chinchwad,"Park Street Wakad, Pimpri Chinchwad - MPCB",28-01-2026 08:00:00,18.59051,73.77946,PM10,74,109,93
India,Maharashtra,Pimpri-Chinchwad,"Park Street Wakad, Pimpri Chinchwad - MPCB",28-01-2026 08:00:00,18.59051,73.77946,OZONE,1,97,15
India,Maharashtra,Pimpri-Chinchwad,"Savta Mali Nagar, Pimpri-Chinchwad - IITM",28-01-2026 08:00:00,18.614767,73.799516,PM2.5,52,147,95
India,Maharashtra,Pimpri-Chinchwad,"Savta Mali Nagar, Pimpri-Chinchwad - IITM",28-01-2026 08:00:00,18.614767,73.799516,CO,12,82,44
India,Maharashtra,Pune,"Bhosari, Pune - IITM",28-01-2026 08:00:00,18.640051,73.848956,PM10,59,132,94
India,Maharashtra,Pune,"Dhankawadi, Pune - IITM",28-01-2026 08:00:00,18.459883,73.852193,PM2.5,68,182,112
India,Maharashtra,Mumbai,"Kandivali West, Mumbai - BMC",28-01-2026 08:00:00,19.215859,72.831718,NH3,2,3,2
India,Maharashtra,Mumbai,"Kherwadi_Bandra East, Mumbai - MPCB",28-01-2026 08:00:00,19.0632143,72.8456324,NH3,8,14,11
India,Maharashtra,Mumbai,"Khindipada-Bhandup West, Mumbai - IITM",28-01-2026 08:00:00,19.1653323,72.922099,PM10,24,68,47
India,Maharashtra,Mumbai,"Kurla, Mumbai - MPCB",28-01-2026 08:00:00,19.0863,72.8888,PM2.5,32,109,61
India,Maharashtra,Mumbai,"Kurla, Mumbai - MPCB",28-01-2026 08:00:00,19.0863,72.8888,PM10,39,120,75
India,Maharashtra,Mumbai,"Kurla, Mumbai - MPCB",28-01-2026 08:00:00,19.0863,72.8888,CO,7,12,9
India,Maharashtra,Mumbai,"Malad West, Mumbai - IITM",28-01-2026 08:00:00,19.19709,72.82204,SO2,5,12,8
India,Maharashtra,Mumbai,"Mazgaon, Mumbai - IITM",28-01-2026 08:00:00,18.96702,72.84214,PM10,44,77,61
India,Maharashtra,Nanded,"Sneh Nagar, Nanded - MPCB",28-01-2026 08:00:00,19.173852,77.296291,PM2.5,61,113,80
India,Maharashtra,Nanded,"Sneh Nagar, Nanded - MPCB",28-01-2026 08:00:00,19.173852,77.296291,CO,18,28,22
India,Maharashtra,Nashik,"Gangapur Road, Nashik - MPCB",28-01-2026 08:00:00,20.0073285,73.7762427,CO,21,22,22
India,Maharashtra,Nashik,"MIDC Ambad, Nashik - MPCB",28-01-2026 08:00:00,19.950220,73.731480,PM2.5,46,129,79
India,Maharashtra,Navi Mumbai,"Kopripada-Vashi, Navi Mumbai - MPCB",28-01-2026 08:00:00,19.090337,73.014232,NO2,NA,NA,NA
India,Maharashtra,Navi Mumbai,"Kopripada-Vashi, Navi Mumbai - MPCB",28-01-2026 08:00:00,19.090337,73.014232,SO2,NA,NA,NA
India,Maharashtra,Navi Mumbai,"Kopripada-Vashi, Navi Mumbai - MPCB",28-01-2026 08:00:00,19.090337,73.014232,CO,NA,NA,NA
India,Maharashtra,Pune,"Hadapsar, Pune - IITM",28-01-2026 08:00:00,18.501793,73.927532,PM10,132,214,168
India,Maharashtra,Pune,"Katraj Dairy, Pune - MPCB",28-01-2026 08:00:00,18.454450,73.854155,NO2,12,55,28
India,Maharashtra,Pune,"Katraj Dairy, Pune - MPCB",28-01-2026 08:00:00,18.454450,73.854155,OZONE,31,50,34
India,Maharashtra,Pune,"Panchawati_Pashan, Pune - IITM",28-01-2026 08:00:00,18.536457,73.805454,NO2,3,30,10
India,Maharashtra,Pune,"Transport Nagar-Nigdi, Pune - IITM",28-01-2026 08:00:00,18.664282,73.763966,PM2.5,40,167,84
India,Maharashtra,Mumbai,"Siddharth Nagar-Worli, Mumbai - IITM",28-01-2026 08:00:00,19.000083,72.813993,NO2,31,68,40
India,Maharashtra,Nagpur,"Ambazari, Nagpur - MPCB",28-01-2026 08:00:00,21.121801,79.04952,OZONE,3,97,14
India,Rajasthan,Alwar,"Moti Doongri, Alwar - RSPCB",28-01-2026 08:00:00,27.554793,76.611536,SO2,13,45,26
India,Rajasthan,Alwar,"Moti Doongri, Alwar - RSPCB",28-01-2026 08:00:00,27.554793,76.611536,CO,20,104,41
India,Rajasthan,Banswara,"Rati Talai, Banswara - RSPCB",28-01-2026 08:00:00,23.555190,74.440010,NH3,6,14,10
India,Rajasthan,Banswara,"Rati Talai, Banswara - RSPCB",28-01-2026 08:00:00,23.555190,74.440010,CO,14,44,26
India,Rajasthan,Banswara,"Rati Talai, Banswara - RSPCB",28-01-2026 08:00:00,23.555190,74.440010,OZONE,14,144,32
India,Rajasthan,Baran,"Bamboliya, Baran - RSPCB",28-01-2026 08:00:00,25.106006,76.469948,PM10,60,155,114
India,Rajasthan,Baran,"Bamboliya, Baran - RSPCB",28-01-2026 08:00:00,25.106006,76.469948,NO2,12,25,18
India,Rajasthan,Baran,"Bamboliya, Baran - RSPCB",28-01-2026 08:00:00,25.106006,76.469948,CO,22,36,24
India,Rajasthan,Bharatpur,"Krishna Nagar, Bharatpur - RSPCB",28-01-2026 08:00:00,27.215415,77.50873,PM10,98,152,122
India,Rajasthan,Bharatpur,"Krishna Nagar, Bharatpur - RSPCB",28-01-2026 08:00:00,27.215415,77.50873,SO2,1,8,4
India,Rajasthan,Bharatpur,"Krishna Nagar, Bharatpur - RSPCB",28-01-2026 08:00:00,27.215415,77.50873,CO,32,55,36
India,Rajasthan,Bhilwara,"Pratap Nagar, Bhilwara - RSPCB",28-01-2026 08:00:00,25.339605,74.618883,PM2.5,77,309,176
India,Rajasthan,Churu,"Subash Chowk, Churu - RSPCB",28-01-2026 08:00:00,28.296139,74.961696,OZONE,21,109,41
India,Rajasthan,Dausa,"Khatikan Mohalla, Dausa - RSPCB",28-01-2026 08:00:00,26.895552,76.334753,PM2.5,55,103,81
India,Rajasthan,Dausa,"Khatikan Mohalla, Dausa - RSPCB",28-01-2026 08:00:00,26.895552,76.334753,NH3,7,31,17
India,Rajasthan,Dholpur,"Raja Ganj, Dholpur - RSPCB",28-01-2026 08:00:00,26.699557,77.898881,SO2,NA,NA,NA
India,Rajasthan,Dholpur,"Raja Ganj, Dholpur - RSPCB",28-01-2026 08:00:00,26.699557,77.898881,CO,NA,NA,NA
India,Rajasthan,Dungarpur,"Bhoiwada, Dungarpur - RSPCB",28-01-2026 08:00:00,23.837789,73.714926,NO2,8,32,15
India,Rajasthan,Hanumangarh,"Housing Board, Hanumangarh - RSPCB",28-01-2026 08:00:00,29.610750,74.283608,NO2,NA,NA,NA
India,Rajasthan,Hanumangarh,"Housing Board, Hanumangarh - RSPCB",28-01-2026 08:00:00,29.610750,74.283608,SO2,4,13,7
India,Rajasthan,Jaipur,"Adarsh Nagar, Jaipur - RSPCB",28-01-2026 08:00:00,26.902909,75.836858,PM10,110,146,127
India,Rajasthan,Jaipur,"Adarsh Nagar, Jaipur - RSPCB",28-01-2026 08:00:00,26.902909,75.836858,NO2,23,52,32
India,Rajasthan,Jaipur,"Adarsh Nagar, Jaipur - RSPCB",28-01-2026 08:00:00,26.902909,75.836858,NH3,11,16,13
India,Maharashtra,Virar,"Bolinj, Virar - MPCB",28-01-2026 08:00:00,19.4458210,72.7988231,PM2.5,6,73,30
India,Maharashtra,Virar,"Bolinj, Virar - MPCB",28-01-2026 08:00:00,19.4458210,72.7988231,OZONE,15,38,20
India,Meghalaya,Shillong,"Lumpyngngad, Shillong - Meghalaya PCB",28-01-2026 08:00:00,25.5586,91.8985,CO,8,30,9
India,Meghalaya,Shillong,"Lumpyngngad, Shillong - Meghalaya PCB",28-01-2026 08:00:00,25.5586,91.8985,OZONE,15,35,28
India,Nagaland,Kohima,"PWD Junction, Kohima - NPCB",28-01-2026 08:00:00,25.6635413,94.0989878,NO2,3,4,3
India,Odisha,Angul,"Hakimapada, Angul - OSPCB",28-01-2026 08:00:00,20.832874,85.104082,PM2.5,91,347,221
India,Odisha,Balasore,"Kalidaspur, Balasore - OSPCB",28-01-2026 08:00:00,21.51161,86.89088,NH3,NA,NA,NA
India,Odisha,Barbil,"Forest Office, Barbil - OSPCB",28-01-2026 08:00:00,22.1166054,85.3945546,NH3,1,4,2
India,Odisha,Barbil,"Forest Office, Barbil - OSPCB",28-01-2026 08:00:00,22.1166054,85.3945546,CO,8,85,64
India,Rajasthan,Jaipur,"Adarsh Nagar, Jaipur - RSPCB",28-01-2026 08:00:00,26.902909,75.836858,SO2,16,25,21
India,Rajasthan,Jaipur,"Police Commissionerate, Jaipur - RSPCB",28-01-2026 08:00:00,26.9164092,75.7994901,SO2,20,33,27
India,Rajasthan,Jaipur,"RIICO Sitapura, Jaipur - RSPCB",28-01-2026 08:00:00,26.786682,75.827928,PM10,115,192,142
India,Rajasthan,Jaipur,"RIICO Sitapura, Jaipur - RSPCB",28-01-2026 08:00:00,26.786682,75.827928,SO2,5,8,6
India,Rajasthan,Jaipur,"RIICO Sitapura, Jaipur - RSPCB",28-01-2026 08:00:00,26.786682,75.827928,CO,26,105,35
India,Rajasthan,Jaipur,"Sector-2 Murlipura, Jaipur - RSPCB",28-01-2026 08:00:00,26.960669,75.771817,NO2,19,77,37
India,Rajasthan,Jaipur,"Shastri Nagar, Jaipur - RSPCB",28-01-2026 08:00:00,26.9502929,75.730943,PM2.5,132,309,236
India,Rajasthan,Jaipur,"Shastri Nagar, Jaipur - RSPCB",28-01-2026 08:00:00,26.9502929,75.730943,PM10,112,146,128
India,Rajasthan,Jaipur,"Shastri Nagar, Jaipur - RSPCB",28-01-2026 08:00:00,26.9502929,75.730943,NH3,9,19,13
India,Odisha,Baripada,"Meher Colony, Baripada - OSPCB",28-01-2026 08:00:00,21.941841,86.728318,NH3,1,5,4
India,Odisha,Baripada,"Meher Colony, Baripada - OSPCB",28-01-2026 08:00:00,21.941841,86.728318,CO,20,94,25
India,Odisha,Bhubaneswar,"Patia, Bhubaneswar - OSPCB",28-01-2026 08:00:00,20.34652,85.81630,OZONE,5,150,13
India,Odisha,Bileipada,"Tata Township, Bileipada - OSPCB",28-01-2026 08:00:00,22.06156703,85.47409613,PM10,NA,NA,NA
India,Odisha,Bileipada,"Tata Township, Bileipada - OSPCB",28-01-2026 08:00:00,22.06156703,85.47409613,NO2,NA,NA,NA
India,Odisha,Bileipada,"Tata Township, Bileipada - OSPCB",28-01-2026 08:00:00,22.06156703,85.47409613,NH3,NA,NA,NA
India,Odisha,Bileipada,"Tata Township, Bileipada - OSPCB",28-01-2026 08:00:00,22.06156703,85.47409613,CO,NA,NA,NA
India,Odisha,Brajrajnagar,"GM Office, Brajrajnagar - OSPCB",28-01-2026 08:00:00,21.8004996,83.8396977,PM2.5,45,337,181
India,Odisha,Brajrajnagar,"GM Office, Brajrajnagar - OSPCB",28-01-2026 08:00:00,21.8004996,83.8396977,SO2,20,30,24
India,Punjab,Jalandhar,"Civil Line, Jalandhar - PPCB",28-01-2026 08:00:00,31.321907,75.578914,NH3,5,6,5
India,Punjab,Khanna,"Kalal Majra, Khanna - PPCB",28-01-2026 08:00:00,30.736056 ,76.209694,CO,52,84,65
India,Punjab,Ludhiana,"Punjab Agricultural University, Ludhiana - PPCB",28-01-2026 08:00:00,30.9028,75.8086,SO2,8,33,18
India,Punjab,Mandi Gobindgarh,"RIMT University, Mandi Gobindgarh - PPCB",28-01-2026 08:00:00,30.649961,76.331442,PM2.5,12,216,56
India,Punjab,Patiala,"Model Town, Patiala - PPCB",28-01-2026 08:00:00,30.349388,76.366642,PM2.5,29,78,50
India,Rajasthan,Ajmer,"Civil Lines,  Ajmer - RSPCB",28-01-2026 08:00:00,26.470859,74.646594,NO2,28,33,31
India,Odisha,Byasanagar,"Ferro Chrome Colony, Byasanagar - OSPCB",28-01-2026 08:00:00,20.94185,86.11510,CO,24,98,65
India,Odisha,Cuttack,"CDA Area, Cuttack - OSPCB",28-01-2026 08:00:00,20.48891     ,85.84768     ,CO,62,120,84
India,Odisha,Nayagarh,"Dabuna, Nayagarh - OSPCB",28-01-2026 08:00:00,21.847279,85.416905,NH3,NA,NA,NA
India,Odisha,Rairangpur,"Divisional Forest Office, Rairangpur - OSPCB",28-01-2026 08:00:00,22.265816,86.174829,OZONE,9,66,13
India,Odisha,Rourkela,"Fertilizer Township, Rourkela - OSPCB",28-01-2026 08:00:00,22.18972222,84.86277778,NO2,NA,NA,NA
India,Odisha,Rourkela,"Raghunathpali, Rourkela - OSPCB",28-01-2026 08:00:00,22.220833,84.809444,PM10,80,252,142
India,Rajasthan,Bhilwara,"Pratap Nagar, Bhilwara - RSPCB",28-01-2026 08:00:00,25.339605,74.618883,NO2,12,34,20
India,Rajasthan,Bhiwadi,"RIICO Ind. Area III, Bhiwadi - RSPCB",28-01-2026 08:00:00,28.194909,76.862296,CO,6,114,51
India,Rajasthan,Bundi,"New Colony, Bundi - RSPCB",28-01-2026 08:00:00,25.435774,75.644272,NH3,3,6,4
India,Rajasthan,Bundi,"New Colony, Bundi - RSPCB",28-01-2026 08:00:00,25.435774,75.644272,OZONE,22,84,69
India,Rajasthan,Chittorgarh,"Shastri Nagar, Chittorgarh - RSPCB",28-01-2026 08:00:00,24.892047,74.623527,CO,20,43,26
India,Odisha,Rourkela,"Raghunathpali, Rourkela - OSPCB",28-01-2026 08:00:00,22.220833,84.809444,CO,42,109,87
India,Odisha,Suakati,"OMC Colony, Suakati - OSPCB",28-01-2026 08:00:00,21.606865,85.510538,PM10,135,431,172
India,Odisha,Suakati,"OMC Colony, Suakati - OSPCB",28-01-2026 08:00:00,21.606865,85.510538,CO,23,38,24
India,Puducherry,Puducherry,"Jawahar Nagar, Puducherry - PPCC",28-01-2026 08:00:00,11.9309,79.8027,OZONE,21,80,38
India,Rajasthan,Jaisalmer,"Sadar Bazar, Jaisalmer - RSPCB",28-01-2026 08:00:00,26.912329,70.909168,PM10,43,158,104
India,Rajasthan,Jaisalmer,"Sadar Bazar, Jaisalmer - RSPCB",28-01-2026 08:00:00,26.912329,70.909168,NO2,15,58,33
India,Rajasthan,Jaisalmer,"Sadar Bazar, Jaisalmer - RSPCB",28-01-2026 08:00:00,26.912329,70.909168,SO2,4,11,6
India,Rajasthan,Jalore,"Mudtra Sili, Jalore - RSPCB",28-01-2026 08:00:00,25.344694,72.626208,NH3,4,9,6
India,Rajasthan,Jalore,"Mudtra Sili, Jalore - RSPCB",28-01-2026 08:00:00,25.344694,72.626208,SO2,4,13,8
India,Rajasthan,Jhalawar,"Rajlaxmi Nagar, Jhalawar - RSPCB",28-01-2026 08:00:00,24.588397,76.172782,PM10,56,115,80
India,Rajasthan,Jhalawar,"Rajlaxmi Nagar, Jhalawar - RSPCB",28-01-2026 08:00:00,24.588397,76.172782,NO2,54,110,90
India,Rajasthan,Jhalawar,"Rajlaxmi Nagar, Jhalawar - RSPCB",28-01-2026 08:00:00,24.588397,76.172782,SO2,5,17,9
India,Rajasthan,Jhalawar,"Rajlaxmi Nagar, Jhalawar - RSPCB",28-01-2026 08:00:00,24.588397,76.172782,CO,28,70,35
India,Rajasthan,Jhunjhunu,"Indra Nagar, Jhunjhunu - RSPCB",28-01-2026 08:00:00,28.108988,75.386577,NH3,12,19,14
India,Rajasthan,Jhunjhunu,"Indra Nagar, Jhunjhunu - RSPCB",28-01-2026 08:00:00,28.108988,75.386577,OZONE,24,93,40
India,Rajasthan,Jodhpur,"Collectorate, Jodhpur - RSPCB",28-01-2026 08:00:00,26.268249,73.0193853,NO2,13,18,15
India,Rajasthan,Jodhpur,"Collectorate, Jodhpur - RSPCB",28-01-2026 08:00:00,26.268249,73.0193853,NH3,4,10,7
India,Rajasthan,Jodhpur,"Digari Kalan, Jodhpur - RSPCB",28-01-2026 08:00:00,26.295810,73.082283,PM2.5,50,230,136
India,Rajasthan,Jodhpur,"Digari Kalan, Jodhpur - RSPCB",28-01-2026 08:00:00,26.295810,73.082283,PM10,45,109,81
India,Sikkim,Gangtok,"Zero Point GICI, Gangtok - SSPCB",28-01-2026 08:00:00,27.338530,88.614099,NO2,6,7,6
India,Sikkim,Gangtok,"Zero Point GICI, Gangtok - SSPCB",28-01-2026 08:00:00,27.338530,88.614099,NH3,1,1,1
India,TamilNadu,Chennai,"Kodungaiyur, Chennai - TNPCB",28-01-2026 08:00:00,13.1278,80.2642,PM2.5,90,320,151
India,TamilNadu,Chennai,"Manali Village, Chennai - TNPCB",28-01-2026 08:00:00,13.1662,80.2584,OZONE,16,46,43
India,TamilNadu,Chennai,"Manali, Chennai - CPCB",28-01-2026 08:00:00,13.164544,80.26285,PM2.5,84,311,151
India,TamilNadu,Chennai,"Manali, Chennai - CPCB",28-01-2026 08:00:00,13.164544,80.26285,NH3,6,7,7
India,TamilNadu,Chennai,"Manali, Chennai - CPCB",28-01-2026 08:00:00,13.164544,80.26285,CO,12,48,26
India,TamilNadu,Chennai,"Manali, Chennai - CPCB",28-01-2026 08:00:00,13.164544,80.26285,OZONE,10,25,10
India,TamilNadu,Chennai,"Perungudi, Chennai - TNPCB",28-01-2026 08:00:00,12.9533,80.2357,SO2,2,11,5
India,TamilNadu,Chennai,"Royapuram, Chennai - TNPCB",28-01-2026 08:00:00,13.1036,80.2909,CO,45,60,54
India,TamilNadu,Chennai,"Royapuram, Chennai - TNPCB",28-01-2026 08:00:00,13.1036,80.2909,OZONE,14,32,23
India,TamilNadu,Chennai,"Velachery Res. Area, Chennai - CPCB",28-01-2026 08:00:00,13.0052189,80.2398125,OZONE,2,8,3
India,TamilNadu,Coimbatore,"SIDCO Kurichi, Coimbatore - TNPCB",28-01-2026 08:00:00,10.942451,76.978996,SO2,20,23,22
India,TamilNadu,Gummidipoondi,"Anthoni Pillai Nagar, Gummidipoondi - TNPCB",28-01-2026 08:00:00,13.4127,80.1081,PM2.5,92,429,235
India,TamilNadu,Gummidipoondi,"Anthoni Pillai Nagar, Gummidipoondi - TNPCB",28-01-2026 08:00:00,13.4127,80.1081,NH3,1,2,1
India,TamilNadu,Madurai,"Uchapatti, Madurai - TNPCB",28-01-2026 08:00:00,9.865935,78.022669,CO,17,27,25
India,Rajasthan,Kota,"Nayapura, Kota - RSPCB",28-01-2026 08:00:00,25.196024,75.855668,CO,22,70,33
India,Rajasthan,Nagaur,"Karni Colony, Nagaur - RSPCB",28-01-2026 08:00:00,27.213494,73.734444,PM2.5,60,123,91
India,Rajasthan,Pratapgarh,"Pragati Nagar, Pratapgarh - RSPCB",28-01-2026 08:00:00,24.041198,74.780702,PM2.5,55,328,137
India,Rajasthan,Rajsamand,"Dhoinda, Rajsamand - RSPCB",28-01-2026 08:00:00,25.036360,73.883502,SO2,11,22,14
India,Rajasthan,Rajsamand,"Dhoinda, Rajsamand - RSPCB",28-01-2026 08:00:00,25.036360,73.883502,OZONE,12,128,90
India,Rajasthan,Sawai Madhopur,"Sahu Nagar, Sawai Madhopur - RSPCB",28-01-2026 08:00:00,26.031443,76.359327,NO2,4,19,10
India,Rajasthan,Sikar,"Radhakishan Pura, Sikar - RSPCB",28-01-2026 08:00:00,27.608912,75.153302,CO,32,48,36
India,Rajasthan,Sirohi,"Vedhaynath Colony, Sirohi - RSPCB",28-01-2026 08:00:00,24.885261,72.857549,CO,16,68,32
India,Rajasthan,Tonk,"Shastri Nagar, Tonk - RSPCB",28-01-2026 08:00:00,26.159933,75.780517,PM2.5,140,373,271
India,Rajasthan,Tonk,"Shastri Nagar, Tonk - RSPCB",28-01-2026 08:00:00,26.159933,75.780517,NO2,12,61,25
India,Rajasthan,Tonk,"Shastri Nagar, Tonk - RSPCB",28-01-2026 08:00:00,26.159933,75.780517,SO2,1,5,2
India,Rajasthan,Tonk,"Shastri Nagar, Tonk - RSPCB",28-01-2026 08:00:00,26.159933,75.780517,CO,32,104,36
India,Rajasthan,Tonk,"Shastri Nagar, Tonk - RSPCB",28-01-2026 08:00:00,26.159933,75.780517,OZONE,1,45,21
India,Sikkim,Gangtok,"Zero Point GICI, Gangtok - SSPCB",28-01-2026 08:00:00,27.338530,88.614099,PM2.5,36,70,49
India,Rajasthan,Jodhpur,"Jhalamand, Jodhpur - RSPCB",28-01-2026 08:00:00,26.215415,73.070156,NO2,6,49,19
India,Rajasthan,Jodhpur,"Jhalamand, Jodhpur - RSPCB",28-01-2026 08:00:00,26.215415,73.070156,NH3,8,18,11
India,Rajasthan,Jodhpur,"Samrat Ashok Udhyan, Jodhpur - RSPCB",28-01-2026 08:00:00,26.253384,72.976571,NO2,13,38,20
India,Rajasthan,Jodhpur,"Samrat Ashok Udhyan, Jodhpur - RSPCB",28-01-2026 08:00:00,26.253384,72.976571,NH3,4,6,5
India,Rajasthan,Karauli,"Satyawati Vihar, Karauli - RSPCB",28-01-2026 08:00:00,26.506177,77.025989,PM10,82,127,108
India,Rajasthan,Kota,"Nayapura, Kota - RSPCB",28-01-2026 08:00:00,25.196024,75.855668,PM2.5,62,180,107
India,Rajasthan,Kota,"Nayapura, Kota - RSPCB",28-01-2026 08:00:00,25.196024,75.855668,PM10,86,167,128
India,TamilNadu,Chennai,"Royapuram, Chennai - TNPCB",28-01-2026 08:00:00,13.1036,80.2909,PM2.5,78,315,135
India,TamilNadu,Nagapattinam,"Velippalayam, Nagapattinam - TNPCB",28-01-2026 08:00:00,10.798548,79.838212,NO2,4,6,6
India,TamilNadu,Nagapattinam,"Velippalayam, Nagapattinam - TNPCB",28-01-2026 08:00:00,10.798548,79.838212,NH3,2,3,2
India,TamilNadu,Nagapattinam,"Velippalayam, Nagapattinam - TNPCB",28-01-2026 08:00:00,10.798548,79.838212,OZONE,1,1,1
India,TamilNadu,Perundurai,"SIPCOT Industrial Park, Perundurai - TNPCB",28-01-2026 08:00:00,11.258242,77.552761,PM2.5,NA,NA,NA
India,TamilNadu,Perundurai,"SIPCOT Industrial Park, Perundurai - TNPCB",28-01-2026 08:00:00,11.258242,77.552761,CO,20,30,26
India,TamilNadu,Ramanathapuram,"Chalai Bazaar, Ramanathapuram - TNPCB",28-01-2026 08:00:00,9.36399,78.831977,CO,14,20,18
India,TamilNadu,Thoothukudi,"Meelavittan, Thoothukudi - TNPCB",28-01-2026 08:00:00,8.816428 ,78.099039,PM10,44,99,68
India,TamilNadu,Thoothukudi,"Meelavittan, Thoothukudi - TNPCB",28-01-2026 08:00:00,8.816428 ,78.099039,SO2,1,17,10
India,TamilNadu,Thoothukudi,"Meelavittan, Thoothukudi - TNPCB",28-01-2026 08:00:00,8.816428 ,78.099039,CO,10,62,33
India,Telangana,Hyderabad,"Bollaram Industrial Area, Hyderabad - TSPCB",28-01-2026 08:00:00,17.540891,78.358528,PM10,77,147,112
India,Telangana,Hyderabad,"Bollaram Industrial Area, Hyderabad - TSPCB",28-01-2026 08:00:00,17.540891,78.358528,NO2,17,44,31
India,Telangana,Hyderabad,"Bollaram Industrial Area, Hyderabad - TSPCB",28-01-2026 08:00:00,17.540891,78.358528,NH3,2,6,4
India,Uttar_Pradesh,Agra,"Shastripuram, Agra - UPPCB",28-01-2026 08:00:00,27.19862,77.92066,PM10,63,104,84
India,Uttar_Pradesh,Agra,"Shastripuram, Agra - UPPCB",28-01-2026 08:00:00,27.19862,77.92066,NH3,3,3,3
India,Uttar_Pradesh,Baghpat,"Sardar Patel Inter College, Baghpat - UPPCB",28-01-2026 08:00:00,28.964949,77.278761,PM10,50,204,92
India,Uttar_Pradesh,Baghpat,"Sardar Patel Inter College, Baghpat - UPPCB",28-01-2026 08:00:00,28.964949,77.278761,CO,14,78,18
India,Uttar_Pradesh,Bareilly,"Rajendra Nagar, Bareilly - UPPCB",28-01-2026 08:00:00,28.38910936,79.42963708,NH3,1,1,1
India,Uttar_Pradesh,Bulandshahr,"Yamunapuram, Bulandshahr - UPPCB",28-01-2026 08:00:00,28.406963,77.849831,OZONE,4,36,13
India,Uttar_Pradesh,Firozabad,"Nagla Bhau, Firozabad - UPPCB",28-01-2026 08:00:00,27.168897,78.376960,NH3,2,2,2
India,Uttar_Pradesh,Firozabad,"Nagla Bhau, Firozabad - UPPCB",28-01-2026 08:00:00,27.168897,78.376960,SO2,2,75,27
India,Uttar_Pradesh,Firozabad,"Vibhab Nagar, Firozabad - UPPCB",28-01-2026 08:00:00,27.1594,78.3953,PM2.5,47,93,64
India,Telangana,Hyderabad,"Central University, Hyderabad - TSPCB",28-01-2026 08:00:00,17.460103,78.334361,NH3,2,6,4
India,Telangana,Hyderabad,"ECIL Kapra, Hyderabad - TSPCB",28-01-2026 08:00:00,17.470431,78.566959,NH3,5,7,7
India,Telangana,Hyderabad,"ECIL Kapra, Hyderabad - TSPCB",28-01-2026 08:00:00,17.470431,78.566959,OZONE,8,48,11
India,Telangana,Hyderabad,"IDA Pashamylaram, Hyderabad - TSPCB",28-01-2026 08:00:00,17.5316895,78.218939,PM2.5,41,58,51
India,Telangana,Hyderabad,"IDA Pashamylaram, Hyderabad - TSPCB",28-01-2026 08:00:00,17.5316895,78.218939,PM10,42,60,52
India,Telangana,Hyderabad,"IDA Pashamylaram, Hyderabad - TSPCB",28-01-2026 08:00:00,17.5316895,78.218939,NO2,7,7,7
India,Telangana,Hyderabad,"IDA Pashamylaram, Hyderabad - TSPCB",28-01-2026 08:00:00,17.5316895,78.218939,NH3,1,1,1
India,Telangana,Hyderabad,"IDA Pashamylaram, Hyderabad - TSPCB",28-01-2026 08:00:00,17.5316895,78.218939,SO2,3,18,10
India,Telangana,Hyderabad,"IITH Kandi, Hyderabad - TSPCB",28-01-2026 08:00:00,17.585705,78.126199,NH3,3,5,4
India,Telangana,Hyderabad,"IITH Kandi, Hyderabad - TSPCB",28-01-2026 08:00:00,17.585705,78.126199,OZONE,21,37,23
India,Telangana,Hyderabad,"Kokapet, Hyderabad - TSPCB",28-01-2026 08:00:00,17.393559,78.339194,NO2,12,16,14
India,Uttar_Pradesh,Firozabad,"Vibhab Nagar, Firozabad - UPPCB",28-01-2026 08:00:00,27.1594,78.3953,NO2,15,15,15
India,Uttar_Pradesh,Firozabad,"Vibhab Nagar, Firozabad - UPPCB",28-01-2026 08:00:00,27.1594,78.3953,SO2,8,21,13
India,Uttar_Pradesh,Ghaziabad,"Indirapuram, Ghaziabad - UPPCB",28-01-2026 08:00:00,28.646233,77.358075,NO2,30,175,66
India,Uttar_Pradesh,Ghaziabad,"Loni, Ghaziabad - UPPCB",28-01-2026 08:00:00,28.757294,77.278792,PM10,113,409,165
India,Uttar_Pradesh,Ghaziabad,"Loni, Ghaziabad - UPPCB",28-01-2026 08:00:00,28.757294,77.278792,NH3,1,4,2
India,Uttar_Pradesh,Ghaziabad,"Sanjay Nagar, Ghaziabad - UPPCB",28-01-2026 08:00:00,28.685382,77.453839,NO2,23,82,57
India,Uttar_Pradesh,Ghaziabad,"Sanjay Nagar, Ghaziabad - UPPCB",28-01-2026 08:00:00,28.685382,77.453839,NH3,3,27,6
India,Uttar_Pradesh,Ghaziabad,"Sanjay Nagar, Ghaziabad - UPPCB",28-01-2026 08:00:00,28.685382,77.453839,CO,14,36,29
India,Uttar_Pradesh,Ghaziabad,"Vasundhara, Ghaziabad - UPPCB",28-01-2026 08:00:00,28.6603346,77.3572563,NO2,25,107,53
India,Uttar_Pradesh,Ghaziabad,"Vasundhara, Ghaziabad - UPPCB",28-01-2026 08:00:00,28.6603346,77.3572563,OZONE,10,35,19
India,Uttar_Pradesh,Gorakhpur,"Madan Mohan Malaviya University of Technology, Gorakhpur - UPPCB",28-01-2026 08:00:00,26.730136,83.433859,SO2,39,41,40
India,Uttar_Pradesh,Greater Noida,"Knowledge Park - V, Greater Noida - UPPCB",28-01-2026 08:00:00,28.557054,77.453663,PM10,62,500,144
India,Uttar_Pradesh,Hapur,"Anand Vihar, Hapur - UPPCB",28-01-2026 08:00:00,28.725645,77.749675,PM2.5,39,285,148
India,Uttar_Pradesh,Hapur,"Anand Vihar, Hapur - UPPCB",28-01-2026 08:00:00,28.725645,77.749675,OZONE,NA,NA,NA
India,Uttar_Pradesh,Jhansi,"Shivaji Nagar, Jhansi - UPPCB",28-01-2026 08:00:00,25.4547,78.6039,PM2.5,NA,NA,NA
India,Uttar_Pradesh,Jhansi,"Shivaji Nagar, Jhansi - UPPCB",28-01-2026 08:00:00,25.4547,78.6039,CO,NA,NA,NA
India,Uttar_Pradesh,Kanpur,"FTI Kidwai Nagar, Kanpur - UPPCB",28-01-2026 08:00:00,26.428282,80.327067,PM2.5,20,87,57
India,Uttar_Pradesh,Agra,"Manoharpur, Agra - UPPCB",28-01-2026 08:00:00,27.23711,78.01936,SO2,4,6,4
India,Uttar_Pradesh,Agra,"Sanjay Palace, Agra - UPPCB",28-01-2026 08:00:00,27.19865833,78.00598056,NO2,1,9,4
India,Uttar_Pradesh,Agra,"Sanjay Palace, Agra - UPPCB",28-01-2026 08:00:00,27.19865833,78.00598056,CO,34,50,39
India,Uttar_Pradesh,Agra,"Sector-3B Avas Vikas Colony, Agra - UPPCB",28-01-2026 08:00:00,27.19412,77.96237,PM2.5,47,124,76
India,Uttar_Pradesh,Agra,"Sector-3B Avas Vikas Colony, Agra - UPPCB",28-01-2026 08:00:00,27.19412,77.96237,NH3,3,10,9
India,Uttar_Pradesh,Agra,"Sector-3B Avas Vikas Colony, Agra - UPPCB",28-01-2026 08:00:00,27.19412,77.96237,CO,8,20,9
India,Uttar_Pradesh,Agra,"Shahjahan Garden, Agra - UPPCB",28-01-2026 08:00:00,27.169338,78.03582,SO2,23,28,26
India,Uttar_Pradesh,Agra,"Shahjahan Garden, Agra - UPPCB",28-01-2026 08:00:00,27.169338,78.03582,CO,16,28,23
India,Uttar_Pradesh,Lucknow,"Lalbagh, Lucknow - CPCB",28-01-2026 08:00:00,26.8458805,80.9365541,PM10,54,221,154
India,Uttar_Pradesh,Lucknow,"Lalbagh, Lucknow - CPCB",28-01-2026 08:00:00,26.8458805,80.9365541,SO2,3,22,8
India,Uttar_Pradesh,Lucknow,"Lalbagh, Lucknow - CPCB",28-01-2026 08:00:00,26.8458805,80.9365541,CO,38,101,56
India,Uttar_Pradesh,Meerut,"Ganga Nagar, Meerut - UPPCB",28-01-2026 08:00:00,28.999264,77.7590354,OZONE,6,67,34
India,Uttar_Pradesh,Meerut,"Jai Bhim Nagar, Meerut - UPPCB",28-01-2026 08:00:00,28.9535882,77.7622941,PM2.5,NA,NA,NA
India,Telangana,Hyderabad,"Kompally Municipal Office, Hyderabad - TSPCB",28-01-2026 08:00:00,17.544899,78.486949,NH3,3,5,4
India,Telangana,Hyderabad,"Kompally Municipal Office, Hyderabad - TSPCB",28-01-2026 08:00:00,17.544899,78.486949,OZONE,18,40,18
India,Telangana,Hyderabad,"New Malakpet, Hyderabad - TSPCB",28-01-2026 08:00:00,17.37206,78.50864,PM2.5,NA,NA,NA
India,Telangana,Hyderabad,"New Malakpet, Hyderabad - TSPCB",28-01-2026 08:00:00,17.37206,78.50864,NO2,13,18,15
India,Telangana,Hyderabad,"Somajiguda, Hyderabad - TSPCB",28-01-2026 08:00:00,17.417094,78.457437,SO2,14,16,15
India,Uttar_Pradesh,Khurja,"Kalindi Kunj, Khurja - UPPCB",28-01-2026 08:00:00,28.2348927,77.8683002,NO2,7,9,8
India,Uttar_Pradesh,Lucknow,"B R Ambedkar University, Lucknow - UPPCB",28-01-2026 08:00:00,26.766433,80.927299,NO2,4,5,4
India,Uttar_Pradesh,Lucknow,"B R Ambedkar University, Lucknow - UPPCB",28-01-2026 08:00:00,26.766433,80.927299,NH3,4,4,4
India,Uttar_Pradesh,Meerut,"Jai Bhim Nagar, Meerut - UPPCB",28-01-2026 08:00:00,28.9535882,77.7622941,OZONE,NA,NA,NA
India,Uttar_Pradesh,Meerut,"Pallavpuram Phase 2, Meerut - UPPCB",28-01-2026 08:00:00,29.063510,77.709723,CO,8,48,29
India,Uttar_Pradesh,Moradabad,"Buddhi Vihar, Moradabad - UPPCB",28-01-2026 08:00:00,28.83526,78.74460,SO2,26,44,29
India,Uttar_Pradesh,Moradabad,"Eco Herbal Park, Moradabad - UPPCB",28-01-2026 08:00:00,28.840739,78.697531,NO2,22,100,31
India,Uttar_Pradesh,Moradabad,"Employment Office, Moradabad - UPPCB",28-01-2026 08:00:00,28.88528,78.73880,PM10,35,138,72
India,Uttar_Pradesh,Moradabad,"Jigar Colony, Moradabad - UPPCB",28-01-2026 08:00:00,28.856664,78.772638,PM10,37,153,82
India,Uttar_Pradesh,Moradabad,"Jigar Colony, Moradabad - UPPCB",28-01-2026 08:00:00,28.856664,78.772638,OZONE,16,20,17
India,Uttar_Pradesh,Moradabad,"Kashiram Nagar, Moradabad - UPPCB",28-01-2026 08:00:00,28.849399,78.742362,NO2,25,25,25
India,Uttar_Pradesh,Moradabad,"Kashiram Nagar, Moradabad - UPPCB",28-01-2026 08:00:00,28.849399,78.742362,NH3,4,4,4
India,Uttar_Pradesh,Muzaffarnagar,"New Mandi, Muzaffarnagar - UPPCB",28-01-2026 08:00:00,29.4723508,77.7194031,PM2.5,28,349,133
India,Uttar_Pradesh,Noida,"Sector - 125, Noida - UPPCB",28-01-2026 08:00:00,28.5447608,77.3231257,PM10,91,351,158
India,Uttar_Pradesh,Noida,"Sector - 125, Noida - UPPCB",28-01-2026 08:00:00,28.5447608,77.3231257,NH3,3,3,3
India,Uttar_Pradesh,Noida,"Sector - 62, Noida - IMD",28-01-2026 08:00:00,28.6245479,77.3577104,NO2,6,31,17
India,Uttar_Pradesh,Noida,"Sector-1, Noida - UPPCB",28-01-2026 08:00:00,28.5898,77.3101,CO,40,88,46
India,Uttar_Pradesh,Noida,"Sector-116, Noida - UPPCB",28-01-2026 08:00:00,28.569230,77.393848,NO2,34,114,61
India,Uttar_Pradesh,Prayagraj,"Jhunsi, Prayagraj - UPPCB",28-01-2026 08:00:00,25.425602,81.917152,PM10,73,137,108
India,Uttar_Pradesh,Prayagraj,"Jhunsi, Prayagraj - UPPCB",28-01-2026 08:00:00,25.425602,81.917152,NO2,6,6,6
India,Uttar_Pradesh,Prayagraj,"Jhunsi, Prayagraj - UPPCB",28-01-2026 08:00:00,25.425602,81.917152,NH3,5,5,5
India,Uttar_Pradesh,Varanasi,"Ardhali Bazar, Varanasi - UPPCB",28-01-2026 08:00:00,25.3505986,82.9083074,SO2,9,13,11
India,Uttar_Pradesh,Varanasi,"Ardhali Bazar, Varanasi - UPPCB",28-01-2026 08:00:00,25.3505986,82.9083074,CO,7,21,14
India,Uttar_Pradesh,Varanasi,"Bhelupur, Varanasi - UPPCB",28-01-2026 08:00:00,25.301778,82.996789,PM10,56,117,71
India,Uttar_Pradesh,Varanasi,"IESD Banaras Hindu University, Varanasi - UPPCB",28-01-2026 08:00:00,25.262326,82.995408,NO2,2,2,2
India,Uttar_Pradesh,Varanasi,"IESD Banaras Hindu University, Varanasi - UPPCB",28-01-2026 08:00:00,25.262326,82.995408,OZONE,1,16,3
India,Uttar_Pradesh,Varanasi,"Maldahiya, Varanasi - UPPCB",28-01-2026 08:00:00,25.32393,82.99687,OZONE,1,4,1
India,Uttarakhand,Dehradun,"Doon University, Dehradun - UKPCB",28-01-2026 08:00:00,30.269444,78.044167,OZONE,28,54,32
India,Uttarakhand,Kashipur,"Govt. Girls Inter College, Kashipur - UKPCB",28-01-2026 08:00:00,29.2124114,78.9611753,CO,18,36,35
India,Uttarakhand,Rishikesh,"Shivaji Nagar, Rishikesh - UKPCB",28-01-2026 08:00:00,30.075911,78.2859547,NH3,5,10,7
India,West_Bengal,Asansol,"Asansol Court Area, Asansol - WBPCB",28-01-2026 08:00:00,23.685297,86.945968,NH3,2,9,5
India,West_Bengal,Asansol,"Evelyn Lodge, Asansol - WBPCB",28-01-2026 08:00:00,23.6979360,86.9443950,NH3,6,8,7
India,West_Bengal,Asansol,"Mahabir Colliery, Asansol - WBPCB",28-01-2026 08:00:00,23.6181830,87.1057180,PM2.5,80,377,229
India,West_Bengal,Asansol,"Trivenidevi Bhalotia College, Asansol - WBPCB",28-01-2026 08:00:00,23.616515,87.119133,PM10,85,152,116
India,West_Bengal,Barrackpore,"SVSPA Campus, Barrackpore - WBPCB",28-01-2026 08:00:00,22.7605581,88.3617589,SO2,10,16,12
India,West_Bengal,Durgapur,"Mahishkapur Road_B-Zone, Durgapur - WBPCB",28-01-2026 08:00:00,23.567923,87.306843,PM10,68,117,96
India,West_Bengal,Durgapur,"Mahishkapur Road_B-Zone, Durgapur - WBPCB",28-01-2026 08:00:00,23.567923,87.306843,NH3,3,3,3
India,West_Bengal,Durgapur,"Mahishkapur Road_B-Zone, Durgapur - WBPCB",28-01-2026 08:00:00,23.567923,87.306843,OZONE,NA,NA,NA
India,West_Bengal,Durgapur,"Womens College_City Center, Durgapur - WBPCB",28-01-2026 08:00:00,23.549395,87.300496,PM2.5,94,215,137
India,West_Bengal,Durgapur,"Womens College_City Center, Durgapur - WBPCB",28-01-2026 08:00:00,23.549395,87.300496,NH3,3,5,3
India,West_Bengal,Haldia,"Priyambada Housing Estate, Haldia - WBPCB",28-01-2026 08:00:00,22.06047,88.109737,PM10,53,162,103
India,West_Bengal,Haldia,"Priyambada Housing Estate, Haldia - WBPCB",28-01-2026 08:00:00,22.06047,88.109737,CO,26,88,52
India,West_Bengal,Howrah,"Belur Math, Howrah - WBPCB",28-01-2026 08:00:00,22.629801,88.352017,PM2.5,76,211,123
India,West_Bengal,Howrah,"Belur Math, Howrah - WBPCB",28-01-2026 08:00:00,22.629801,88.352017,PM10,113,180,140
India,West_Bengal,Howrah,"Botanical Garden, Howrah - WBPCB",28-01-2026 08:00:00,22.554954,88.292568,NO2,9,39,18
India,West_Bengal,Howrah,"Botanical Garden, Howrah - WBPCB",28-01-2026 08:00:00,22.554954,88.292568,NH3,1,2,2
India,West_Bengal,Howrah,"Dasnagar, Howrah - WBPCB",28-01-2026 08:00:00,22.6025571,88.3105664,OZONE,14,139,15
India,West_Bengal,Howrah,"Ghusuri, Howrah - WBPCB",28-01-2026 08:00:00,22.611968,88.347422,PM10,88,288,151
India,West_Bengal,Howrah,"Ghusuri, Howrah - WBPCB",28-01-2026 08:00:00,22.611968,88.347422,CO,34,111,93
India,West_Bengal,Kolkata,"Ballygunge, Kolkata - WBPCB",28-01-2026 08:00:00,22.5367507,88.3638022,CO,7,91,58
India,West_Bengal,Kolkata,"Bidhannagar, Kolkata - WBPCB",28-01-2026 08:00:00,22.58157048,88.41002457,PM10,79,126,102
India,West_Bengal,Kolkata,"Jadavpur, Kolkata - WBPCB",28-01-2026 08:00:00,22.49929,88.36917,SO2,12,15,14
India,West_Bengal,Kolkata,"Jadavpur, Kolkata - WBPCB",28-01-2026 08:00:00,22.49929,88.36917,OZONE,9,30,10
India,West_Bengal,Kolkata,"Rabindra Bharati University, Kolkata - WBPCB",28-01-2026 08:00:00,22.627847,88.380669,PM2.5,64,210,123
India,West_Bengal,Kolkata,"Rabindra Bharati University, Kolkata - WBPCB",28-01-2026 08:00:00,22.627847,88.380669,NO2,49,173,100
India,West_Bengal,Kolkata,"Rabindra Bharati University, Kolkata - WBPCB",28-01-2026 08:00:00,22.627847,88.380669,OZONE,7,46,11
India,West_Bengal,Kolkata,"Rabindra Sarobar, Kolkata - WBPCB",28-01-2026 08:00:00,22.51106,88.35142,CO,40,102,81
India,West_Bengal,Kolkata,"Victoria, Kolkata - WBPCB",28-01-2026 08:00:00,22.5448082,88.3403691,OZONE,5,58,6
India,West_Bengal,Siliguri,"Ward-32 Bapupara, Siliguri - WBPCB",28-01-2026 08:00:00,26.6879226,88.4152495,CO,30,100,57
India,Bihar,Muzaffarpur,"MIT-Daudpur Kothi, Muzaffarpur - BSPCB",28-01-2026 08:00:00,26.1403345,85.3650192,PM10,61,72,68
India,Bihar,Muzaffarpur,"MIT-Daudpur Kothi, Muzaffarpur - BSPCB",28-01-2026 08:00:00,26.1403345,85.3650192,NH3,5,8,8
India,Bihar,Muzaffarpur,"MIT-Daudpur Kothi, Muzaffarpur - BSPCB",28-01-2026 08:00:00,26.1403345,85.3650192,SO2,10,16,13
India,Bihar,Muzaffarpur,"Muzaffarpur Collectorate, Muzaffarpur - BSPCB",28-01-2026 08:00:00,26.1209,85.3647,PM2.5,95,110,100
India,Bihar,Patna,"DRM Office Danapur, Patna - BSPCB",28-01-2026 08:00:00,25.586562,85.043586,CO,26,123,61
India,Bihar,Patna,"Govt. High School Shikarpur, Patna - BSPCB",28-01-2026 08:00:00,25.592539,85.227158,PM10,97,110,104
India,Bihar,Patna,"Govt. High School Shikarpur, Patna - BSPCB",28-01-2026 08:00:00,25.592539,85.227158,OZONE,8,12,10
India,Bihar,Patna,"IGSC Planetarium Complex, Patna - BSPCB",28-01-2026 08:00:00,25.610369,85.132568,PM2.5,42,96,72
India,Bihar,Patna,"IGSC Planetarium Complex, Patna - BSPCB",28-01-2026 08:00:00,25.610369,85.132568,OZONE,28,29,29
India,Bihar,Patna,"Muradpur, Patna - BSPCB",28-01-2026 08:00:00,25.619651,85.147382,PM2.5,59,97,77
India,Bihar,Patna,"Rajbansi Nagar, Patna - BSPCB",28-01-2026 08:00:00,25.599486,85.113666,PM2.5,54,100,81
India,Bihar,Patna,"Rajbansi Nagar, Patna - BSPCB",28-01-2026 08:00:00,25.599486,85.113666,NH3,2,6,5
India,Bihar,Patna,"Samanpura, Patna - BSPCB",28-01-2026 08:00:00,25.596727,85.085624,NO2,20,24,22
India,Bihar,Purnia,"Mariam Nagar, Purnia - BSPCB",28-01-2026 08:00:00,25.366336,87.117468,NH3,3,3,3
India,Bihar,Rajgir,"Dangi Tola, Rajgir - BSPCB",28-01-2026 08:00:00,25.03280,85.41948,NH3,2,8,6
India,Bihar,Rajgir,"Dangi Tola, Rajgir - BSPCB",28-01-2026 08:00:00,25.03280,85.41948,CO,26,104,93
India,Bihar,Saharsa,"Police Line, Saharsa - BSPCB",28-01-2026 08:00:00,25.892357,86.590325,NO2,5,9,7
India,Bihar,Saharsa,"Police Line, Saharsa - BSPCB",28-01-2026 08:00:00,25.892357,86.590325,NH3,4,4,4
India,Bihar,Samastipur,"DM Office_Kasipur, Samastipur - BSPCB",28-01-2026 08:00:00,25.859655,85.77944,PM2.5,32,416,216
India,Bihar,Samastipur,"DM Office_Kasipur, Samastipur - BSPCB",28-01-2026 08:00:00,25.859655,85.77944,PM10,31,410,151
India,Bihar,Samastipur,"DM Office_Kasipur, Samastipur - BSPCB",28-01-2026 08:00:00,25.859655,85.77944,NH3,1,1,1
India,Bihar,Samastipur,"DM Office_Kasipur, Samastipur - BSPCB",28-01-2026 08:00:00,25.859655,85.77944,SO2,18,34,25
India,Bihar,Chhapra,"Darshan Nagar, Chhapra - BSPCB",28-01-2026 08:00:00,25.7808257,84.7446768,NH3,7,12,9
India,Bihar,Chhapra,"Darshan Nagar, Chhapra - BSPCB",28-01-2026 08:00:00,25.7808257,84.7446768,CO,24,70,58
India,Bihar,Chhapra,"Darshan Nagar, Chhapra - BSPCB",28-01-2026 08:00:00,25.7808257,84.7446768,OZONE,16,24,20
India,Bihar,Gaya,"Collectorate, Gaya - BSPCB",28-01-2026 08:00:00,24.7955,84.9994,NO2,9,9,9
India,Bihar,Gaya,"Kareemganj, Gaya - BSPCB",28-01-2026 08:00:00,24.792403,84.992416,NO2,NA,NA,NA
India,Bihar,Gaya,"Kareemganj, Gaya - BSPCB",28-01-2026 08:00:00,24.792403,84.992416,NH3,NA,NA,NA
India,Bihar,Gaya,"SFTI Kusdihra, Gaya - BSPCB",28-01-2026 08:00:00,24.762518,84.982348,PM2.5,54,75,62
India,Bihar,Hajipur,"Industrial Area, Hajipur - BSPCB",28-01-2026 08:00:00,25.697189,85.245900,NH3,8,14,12
India,Bihar,Hajipur,"Industrial Area, Hajipur - BSPCB",28-01-2026 08:00:00,25.697189,85.245900,CO,30,71,45
India,Bihar,Katihar,"Mirchaibari, Katihar - BSPCB",28-01-2026 08:00:00,25.560083,87.553265,NH3,1,1,1
India,Bihar,Katihar,"Mirchaibari, Katihar - BSPCB",28-01-2026 08:00:00,25.560083,87.553265,CO,51,82,66
India,Arunachal_Pradesh,Naharlagun,"Naharlagun, Naharlagun - APSPCB",28-01-2026 08:00:00,27.103358,93.679645,CO,11,66,16
India,Assam,Byrnihat,"Central Academy for SFS, Byrnihat - PCBA",28-01-2026 08:00:00,26.071318,91.87488,PM2.5,91,315,160
India,Assam,Guwahati,"LGBI Airport, Guwahati - PCBA",28-01-2026 08:00:00,26.10887,91.589544,PM2.5,52,143,95
India,Assam,Guwahati,"LGBI Airport, Guwahati - PCBA",28-01-2026 08:00:00,26.10887,91.589544,NO2,12,19,15
India,Assam,Guwahati,"Pan Bazaar, Guwahati - PCBA",28-01-2026 08:00:00,26.187500,91.744194,SO2,23,48,35
India,Assam,Guwahati,"Pan Bazaar, Guwahati - PCBA",28-01-2026 08:00:00,26.187500,91.744194,OZONE,17,18,17
India,Assam,Guwahati,"Railway Colony, Guwahati - PCBA",28-01-2026 08:00:00,26.181742,91.78063,PM10,74,309,158
India,Assam,Nagaon,"Christianpatty, Nagaon - PCBA",28-01-2026 08:00:00,26.349082,92.68449,NO2,1,9,1
India,Assam,Nalbari,"Bata Chowk, Nalbari - PCBA",28-01-2026 08:00:00,26.446912,91.439057,SO2,NA,NA,NA
India,Assam,Nalbari,"Bata Chowk, Nalbari - PCBA",28-01-2026 08:00:00,26.446912,91.439057,CO,NA,NA,NA
India,Assam,Sivasagar,"Girls College, Sivasagar - PCBA",28-01-2026 08:00:00,26.987634,94.636574,PM2.5,32,95,59
India,Bihar,Araria,"Kharahiya Basti, Araria - BSPCB",28-01-2026 08:00:00,26.146529,87.454184,SO2,NA,NA,NA
India,Bihar,Arrah,"New DM Office, Arrah - BSPCB",28-01-2026 08:00:00,25.5626095,84.663264,CO,48,57,52
India,Bihar,Aurangabad,"Gurdeo Nagar, Aurangabad - BSPCB",28-01-2026 08:00:00,24.75746,84.366208,PM2.5,NA,NA,NA
India,Bihar,Aurangabad,"Gurdeo Nagar, Aurangabad - BSPCB",28-01-2026 08:00:00,24.75746,84.366208,PM10,NA,NA,NA
India,Bihar,Aurangabad,"Gurdeo Nagar, Aurangabad - BSPCB",28-01-2026 08:00:00,24.75746,84.366208,SO2,NA,NA,NA
India,Bihar,Aurangabad,"Gurdeo Nagar, Aurangabad - BSPCB",28-01-2026 08:00:00,24.75746,84.366208,CO,NA,NA,NA
India,Andhra_Pradesh,Kadapa,"Yerramukkapalli, Kadapa - APPCB",28-01-2026 08:00:00,14.465052,78.824187,NO2,28,40,32
India,Andhra_Pradesh,Kadapa,"Yerramukkapalli, Kadapa - APPCB",28-01-2026 08:00:00,14.465052,78.824187,NH3,4,6,5
India,Andhra_Pradesh,Kadapa,"Yerramukkapalli, Kadapa - APPCB",28-01-2026 08:00:00,14.465052,78.824187,OZONE,11,23,11
India,Andhra_Pradesh,Rajamahendravaram,"Anand Kala Kshetram, Rajamahendravaram - APPCB",28-01-2026 08:00:00,16.9872867,81.7363176,PM2.5,83,272,184
India,Andhra_Pradesh,Rajamahendravaram,"Anand Kala Kshetram, Rajamahendravaram - APPCB",28-01-2026 08:00:00,16.9872867,81.7363176,NO2,14,72,40
India,Andhra_Pradesh,Rajamahendravaram,"Anand Kala Kshetram, Rajamahendravaram - APPCB",28-01-2026 08:00:00,16.9872867,81.7363176,NH3,5,8,6
India,Andhra_Pradesh,Tirumala,"Toll Gate, Tirumala - APPCB",28-01-2026 08:00:00,13.67,79.35,NO2,13,37,22
India,Andhra_Pradesh,Tirumala,"Toll Gate, Tirumala - APPCB",28-01-2026 08:00:00,13.67,79.35,CO,14,40,28
India,Bihar,Kishanganj,"SDM Office_Khagra, Kishanganj - BSPCB",28-01-2026 08:00:00,26.0881305,87.93840336,OZONE,15,19,16
India,Bihar,Manguraha,"Forest Rest House, Manguraha - BSPCB",28-01-2026 08:00:00,27.308328,84.531742,PM10,NA,NA,NA
India,Bihar,Manguraha,"Forest Rest House, Manguraha - BSPCB",28-01-2026 08:00:00,27.308328,84.531742,NO2,NA,NA,NA
India,Bihar,Manguraha,"Forest Rest House, Manguraha - BSPCB",28-01-2026 08:00:00,27.308328,84.531742,OZONE,NA,NA,NA
India,Bihar,Munger,"Town Hall, Munger - BSPCB",28-01-2026 08:00:00,25.376776,86.471523,NH3,5,7,6
India,Bihar,Muzaffarpur,"Buddha Colony, Muzaffarpur - BSPCB",28-01-2026 08:00:00,26.11442,85.39813,PM10,44,147,114
India,Bihar,Muzaffarpur,"Buddha Colony, Muzaffarpur - BSPCB",28-01-2026 08:00:00,26.11442,85.39813,CO,24,112,38
India,Andhra_Pradesh,Tirupati,"Vaikuntapuram, Tirupati - APPCB",28-01-2026 08:00:00,13.615387,79.409230,SO2,15,23,17
India,Andhra_Pradesh,Vijayawada,"HB Colony, Vijayawada - APPCB",28-01-2026 08:00:00,16.536107,80.594233,PM10,42,103,63
India,Andhra_Pradesh,Vijayawada,"Kanuru, Vijayawada - APPCB",28-01-2026 08:00:00,16.486692,80.699436,OZONE,21,33,21
India,Andhra_Pradesh,Vijayawada,"Rajiv Nagar, Vijayawada - APPCB",28-01-2026 08:00:00,16.554731,80.649110,NH3,5,5,5
India,Andhra_Pradesh,Visakhapatnam,"GVM Corporation, Visakhapatnam - APPCB",28-01-2026 08:00:00,17.72,83.3,CO,17,68,40
India,Bihar,Bhagalpur,"Mayaganj, Bhagalpur - BSPCB",28-01-2026 08:00:00,25.265194,87.012947,CO,79,96,87
India,Bihar,Bhagalpur,"Mayaganj, Bhagalpur - BSPCB",28-01-2026 08:00:00,25.265194,87.012947,OZONE,11,45,14
India,Bihar,Buxar,"Charitra Van, Buxar - BSPCB",28-01-2026 08:00:00,25.567520,83.966379,PM2.5,67,177,99
India,Bihar,Chhapra,"Darshan Nagar, Chhapra - BSPCB",28-01-2026 08:00:00,25.7808257,84.7446768,PM10,53,218,127
India,Andhra_Pradesh,Amaravati,"Secretariat, Amaravati - APPCB",28-01-2026 08:00:00,16.5150833,80.5181667,NH3,4,7,6
India,Delhi,Delhi,"DTU, Delhi - CPCB",28-01-2026 08:00:00,28.7500499,77.1112615,SO2,28,34,30
India,Delhi,Delhi,"DTU, Delhi - CPCB",28-01-2026 08:00:00,28.7500499,77.1112615,OZONE,9,17,11
India,Delhi,Delhi,"Dr. Karni Singh Shooting Range, Delhi - DPCC",28-01-2026 08:00:00,28.498571,77.264840,NH3,8,12,10
India,Delhi,Delhi,"Dr. Karni Singh Shooting Range, Delhi - DPCC",28-01-2026 08:00:00,28.498571,77.264840,CO,3,53,38
India,Delhi,Delhi,"Dr. Karni Singh Shooting Range, Delhi - DPCC",28-01-2026 08:00:00,28.498571,77.264840,OZONE,4,62,20
India,Delhi,Delhi,"Dwarka-Sector 8, Delhi - DPCC ",28-01-2026 08:00:00,28.5710274,77.0719006,OZONE,4,40,12
India,Delhi,Delhi,"IIT Delhi, Delhi - IITM",28-01-2026 08:00:00,28.542460,77.191651,PM2.5,91,346,218
India,Delhi,Delhi,"ITO, Delhi - CPCB",28-01-2026 08:00:00,28.628624,77.241060,CO,20,89,45
India,Delhi,Delhi,"Ashok Vihar, Delhi - DPCC",28-01-2026 08:00:00,28.695381,77.181665,SO2,11,23,14
India,Delhi,Delhi,"Aya Nagar, Delhi - IMD",28-01-2026 08:00:00,28.4706914,77.1099364,PM2.5,118,323,229
India,Delhi,Delhi,"Burari Crossing, Delhi - IMD",28-01-2026 08:00:00,28.7256504,77.2011573,PM2.5,170,409,274
India,Delhi,Delhi,"Burari Crossing, Delhi - IMD",28-01-2026 08:00:00,28.7256504,77.2011573,OZONE,3,16,3
India,Delhi,Delhi,"CRRI Mathura Road, Delhi - IMD",28-01-2026 08:00:00,28.5512005,77.2735737,NO2,11,52,26
India,Delhi,Delhi,"Chandni Chowk, Delhi - IITM",28-01-2026 08:00:00,28.656756,77.227234,SO2,13,31,21
India,Delhi,Delhi,"Chandni Chowk, Delhi - IITM",28-01-2026 08:00:00,28.656756,77.227234,CO,92,112,98
India,Chandigarh,Chandigarh,"Sector 22, Chandigarh - CPCC",28-01-2026 08:00:00,30.735567,76.775714,PM2.5,40,190,85
India,Chandigarh,Chandigarh,"Sector-25, Chandigarh - CPCC",28-01-2026 08:00:00,30.751462,76.762879,NO2,14,30,22
India,Chandigarh,Chandigarh,"Sector-25, Chandigarh - CPCC",28-01-2026 08:00:00,30.751462,76.762879,NH3,8,9,9
India,Chandigarh,Chandigarh,"Sector-25, Chandigarh - CPCC",28-01-2026 08:00:00,30.751462,76.762879,CO,19,46,21
India,Chhattisgarh,Bhilai,"Civic Center, Bhilai - Bhilai Steel Plant",28-01-2026 08:00:00,21.185571,81.343175,NO2,13,278,130
India,Chhattisgarh,Bhilai,"Hathkhoj, Bhilai - CECB",28-01-2026 08:00:00,21.224231,81.408350,NH3,4,7,5
India,Chhattisgarh,Bhilai,"Hathkhoj, Bhilai - CECB",28-01-2026 08:00:00,21.224231,81.408350,OZONE,4,16,7
India,Chhattisgarh,Chhal,"Nawapara SECL Colony, Chhal - CECB",28-01-2026 08:00:00,22.118125,83.140608,NH3,5,5,5
India,Chhattisgarh,Chhal,"Nawapara SECL Colony, Chhal - CECB",28-01-2026 08:00:00,22.118125,83.140608,CO,35,68,42
India,Chhattisgarh,Korba,"Urja Nagar, Korba - CECB",28-01-2026 08:00:00,22.348441,82.549611,PM2.5,53,390,173
India,Chhattisgarh,Korba,"Urja Nagar, Korba - CECB",28-01-2026 08:00:00,22.348441,82.549611,PM10,45,448,156
India,Chhattisgarh,Kunjemura,"OP Jindal School, Kunjemura - CECB",28-01-2026 08:00:00,22.126650,83.483212,SO2,2,83,28
India,Chhattisgarh,Milupara,"Govt. Higher Secondary School, Milupara - CECB",28-01-2026 08:00:00,22.1910172,83.5197009,CO,26,60,40
India,Chhattisgarh,Raipur,"Bhatagaon New ISBT, Raipur - CECB",28-01-2026 08:00:00,21.219665,81.630094,OZONE,2,15,3
India,Chhattisgarh,Raipur,"Krishak Nagar, Raipur - CECB",28-01-2026 08:00:00,21.237755,81.705301,SO2,4,6,5
India,Chhattisgarh,Raipur,"Siltara Phase-II, Raipur - CECB",28-01-2026 08:00:00,21.371751,81.664929,PM2.5,53,228,119
India,Delhi,Delhi,"Alipur, Delhi - DPCC",28-01-2026 08:00:00,28.815329,77.153010,SO2,4,12,8
India,Delhi,Delhi,"Anand Vihar, Delhi - DPCC",28-01-2026 08:00:00,28.647622,77.3158090,PM10,97,408,157
India,Delhi,Delhi,"Anand Vihar, Delhi - DPCC",28-01-2026 08:00:00,28.647622,77.3158090,SO2,13,26,20
India,Delhi,Delhi,"Punjabi Bagh, Delhi - DPCC",28-01-2026 08:00:00,28.674045,77.131023,NH3,5,6,5
India,Delhi,Delhi,"Punjabi Bagh, Delhi - DPCC",28-01-2026 08:00:00,28.674045,77.131023,CO,38,80,51
India,Delhi,Delhi,"Pusa, Delhi - DPCC",28-01-2026 08:00:00,28.639652,77.146275,PM10,111,407,171
India,Delhi,Delhi,"Pusa, Delhi - IMD",28-01-2026 08:00:00,28.636110,77.173332,OZONE,31,59,34
India,Delhi,Delhi,"R K Puram, Delhi - DPCC",28-01-2026 08:00:00,28.563262,77.186937,PM10,84,284,163
India,Delhi,Delhi,"R K Puram, Delhi - DPCC",28-01-2026 08:00:00,28.563262,77.186937,SO2,8,33,20
India,Delhi,Delhi,"Rohini, Delhi - DPCC",28-01-2026 08:00:00,28.732528,77.119920,SO2,6,13,10
India,Delhi,Delhi,"Mundka, Delhi - DPCC",28-01-2026 08:00:00,28.684678,77.076574,OZONE,8,43,12
India,Delhi,Delhi,"Narela, Delhi - DPCC",28-01-2026 08:00:00,28.822836,77.101981,PM10,106,414,178
India,Delhi,Delhi,"Nehru Nagar, Delhi - DPCC",28-01-2026 08:00:00,28.567890,77.250515,PM2.5,157,428,284
India,Delhi,Delhi,"Nehru Nagar, Delhi - DPCC",28-01-2026 08:00:00,28.567890,77.250515,PM10,101,404,164
India,Delhi,Delhi,"Nehru Nagar, Delhi - DPCC",28-01-2026 08:00:00,28.567890,77.250515,NO2,24,89,49
India,Delhi,Delhi,"North Campus, DU, Delhi - IMD",28-01-2026 08:00:00,28.6573814,77.1585447,PM10,101,396,165
India,Delhi,Delhi,"Jahangirpuri, Delhi - DPCC",28-01-2026 08:00:00,28.732820,77.170633,PM2.5,220,451,327
India,Delhi,Delhi,"Jahangirpuri, Delhi - DPCC",28-01-2026 08:00:00,28.732820,77.170633,SO2,35,59,43
India,Delhi,Delhi,"Lodhi Road, Delhi - IMD",28-01-2026 08:00:00,28.5918245,77.2273074,OZONE,18,55,23
India,Delhi,Delhi,"Major Dhyan Chand National Stadium, Delhi - DPCC",28-01-2026 08:00:00,28.611281,77.237738,CO,12,86,72
India,Delhi,Delhi,"Okhla Phase-2, Delhi - DPCC",28-01-2026 08:00:00,28.530785,77.271255,NH3,17,26,21
India,Delhi,Delhi,"Okhla Phase-2, Delhi - DPCC",28-01-2026 08:00:00,28.530785,77.271255,SO2,7,40,14
India,Delhi,Delhi,"Okhla Phase-2, Delhi - DPCC",28-01-2026 08:00:00,28.530785,77.271255,CO,48,108,86
India,Delhi,Delhi,"Patparganj, Delhi - DPCC",28-01-2026 08:00:00,28.623763,77.287209,OZONE,2,53,8
India,Delhi,Delhi,"Vivek Vihar, Delhi - DPCC",28-01-2026 08:00:00,28.672342,77.315260,SO2,8,45,17
India,Delhi,Delhi,"Vivek Vihar, Delhi - DPCC",28-01-2026 08:00:00,28.672342,77.315260,CO,24,90,39
India,Delhi,Delhi,"Vivek Vihar, Delhi - DPCC",28-01-2026 08:00:00,28.672342,77.315260,OZONE,1,22,6
India,Delhi,Delhi,"Wazirpur, Delhi - DPCC",28-01-2026 08:00:00,28.699793,77.165453,NH3,13,17,15
India,Gujarat,Ahmedabad,"Chandkheda, Ahmedabad - IITM",28-01-2026 08:00:00,23.107969,72.574648,PM2.5,37,99,61
India,Gujarat,Ahmedabad,"Chandkheda, Ahmedabad - IITM",28-01-2026 08:00:00,23.107969,72.574648,SO2,5,70,20
India,Gujarat,Ahmedabad,"Gyaspur, Ahmedabad - IITM",28-01-2026 08:00:00,22.977134,72.553024,NO2,34,117,63
India,Gujarat,Ahmedabad,"Gyaspur, Ahmedabad - IITM",28-01-2026 08:00:00,22.977134,72.553024,CO,2,74,8
India,Gujarat,Ahmedabad,"Maninagar, Ahmedabad - GPCB",28-01-2026 08:00:00,23.002657,72.591912,SO2,31,51,44
India,Gujarat,Ahmedabad,"Raikhad, Ahmedabad - IITM",28-01-2026 08:00:00,23.020509,72.579261,PM2.5,51,177,92
India,Gujarat,Ahmedabad,"Raikhad, Ahmedabad - IITM",28-01-2026 08:00:00,23.020509,72.579261,NO2,18,54,34
India,Gujarat,Ahmedabad,"Rakhial, Ahmedabad - IITM",28-01-2026 08:00:00,23.016834,72.625775,PM2.5,60,172,96
India,Haryana,Faridabad,"Sector 11, Faridabad - HSPCB",28-01-2026 08:00:00,28.376058,77.315741,NO2,30,33,31
India,Haryana,Faridabad,"Sector 30, Faridabad - HSPCB",28-01-2026 08:00:00,28.4417,77.3217,PM10,73,77,75
India,Haryana,Faridabad,"Sector 30, Faridabad - HSPCB",28-01-2026 08:00:00,28.4417,77.3217,OZONE,17,19,18
India,Haryana,Fatehabad,"Huda Sector, Fatehabad - HSPCB",28-01-2026 08:00:00,29.503664,75.467934,PM2.5,NA,NA,NA
India,Haryana,Fatehabad,"Huda Sector, Fatehabad - HSPCB",28-01-2026 08:00:00,29.503664,75.467934,NH3,NA,NA,NA
India,Haryana,Gurugram,"NISE Gwal Pahari, Gurugram - IMD",28-01-2026 08:00:00,28.422681,77.148944,PM2.5,156,357,249
India,Haryana,Gurugram,"Sector-51, Gurugram - HSPCB",28-01-2026 08:00:00,28.4227,77.0667,NH3,9,14,12
India,Haryana,Gurugram,"Sector-51, Gurugram - HSPCB",28-01-2026 08:00:00,28.4227,77.0667,SO2,1,5,2
India,Haryana,Gurugram,"Teri Gram, Gurugram - HSPCB",28-01-2026 08:00:00,28.4275,77.1465,SO2,3,37,20
India,Haryana,Gurugram,"Vikas Sadan, Gurugram - HSPCB",28-01-2026 08:00:00,28.4501238,77.0263051,PM2.5,115,439,212
India,Haryana,Gurugram,"Vikas Sadan, Gurugram - HSPCB",28-01-2026 08:00:00,28.4501238,77.0263051,NO2,9,45,26
India,Gujarat,Ahmedabad,"SAC ISRO Bopal, Ahmedabad - IITM",28-01-2026 08:00:00,23.041137,72.456691,OZONE,4,66,12
India,Gujarat,Ahmedabad,"SAC ISRO Satellite, Ahmedabad - IITM",28-01-2026 08:00:00,23.023389,72.515201,OZONE,13,36,17
India,Gujarat,Ankleshwar,"GIDC, Ankleshwar - GPCB",28-01-2026 08:00:00,21.613267,73.010555,NH3,5,10,8
India,Gujarat,Bhavnagar,"Vidhyanagar, Bhavnagar - Nexteng Enviro",28-01-2026 08:00:00,21.755417,72.139056,NH3,NA,NA,NA
India,Gujarat,Bhavnagar,"Vidhyanagar, Bhavnagar - Nexteng Enviro",28-01-2026 08:00:00,21.755417,72.139056,SO2,NA,NA,NA
India,Gujarat,Bhavnagar,"Vidhyanagar, Bhavnagar - Nexteng Enviro",28-01-2026 08:00:00,21.755417,72.139056,OZONE,16,28,17
India,Gujarat,Gandhinagar,"GIFT City, Gandhinagar - IITM",28-01-2026 08:00:00,23.163798,72.677768,PM10,118,176,143
India,Gujarat,Gandhinagar,"GIFT City, Gandhinagar - IITM",28-01-2026 08:00:00,23.163798,72.677768,NH3,5,9,7
India,Gujarat,Gandhinagar,"GIFT City, Gandhinagar - IITM",28-01-2026 08:00:00,23.163798,72.677768,SO2,3,9,6
India,Haryana,Bahadurgarh,"Arya Nagar, Bahadurgarh - HSPCB",28-01-2026 08:00:00,28.6701,76.9254,SO2,7,7,7
India,Haryana,Bhiwani,"H.B. Colony, Bhiwani - HSPCB",28-01-2026 08:00:00,28.806223,76.141105,PM2.5,NA,NA,NA
India,Haryana,Bhiwani,"H.B. Colony, Bhiwani - HSPCB",28-01-2026 08:00:00,28.806223,76.141105,PM10,NA,NA,NA
India,Haryana,Bhiwani,"H.B. Colony, Bhiwani - HSPCB",28-01-2026 08:00:00,28.806223,76.141105,CO,NA,NA,NA
India,Haryana,Charkhi Dadri,"Mini Secretariat, Charkhi Dadri - HSPCB",28-01-2026 08:00:00,28.593883,76.270653,NH3,5,8,6
India,Haryana,Dharuhera,"Municipal Corporation Office, Dharuhera -  HSPCB",28-01-2026 08:00:00,28.206800,76.799700,NH3,6,17,13
India,Haryana,Dharuhera,"Municipal Corporation Office, Dharuhera -  HSPCB",28-01-2026 08:00:00,28.206800,76.799700,OZONE,4,37,5
India,Haryana,Faridabad,"New Industrial Town, Faridabad - HSPCB",28-01-2026 08:00:00,28.39072,77.30059,SO2,8,8,8
India,Haryana,Mandikhera,"General Hospital, Mandikhera(Nuh) - HSPCB",28-01-2026 08:00:00,27.9002,76.9938,OZONE,25,31,28
India,Haryana,Narnaul,"Shastri Nagar, Narnaul - HSPCB",28-01-2026 08:00:00,28.060249,76.113115,PM2.5,301,411,330
India,Haryana,Palwal,"Shyam Nagar, Palwal - HSPCB",28-01-2026 08:00:00,28.1485564,77.3320667,PM2.5,32,95,47
India,Haryana,Palwal,"Shyam Nagar, Palwal - HSPCB",28-01-2026 08:00:00,28.1485564,77.3320667,NO2,23,25,24
India,Haryana,Palwal,"Shyam Nagar, Palwal - HSPCB",28-01-2026 08:00:00,28.1485564,77.3320667,CO,8,46,26
India,Haryana,Panchkula,"Sector-6, Panchkula - HSPCB ",28-01-2026 08:00:00,30.7057778,76.8531805555555,NO2,23,26,25
India,Haryana,Panipat,"Sector-18, Panipat - HSPCB",28-01-2026 08:00:00,29.432304,76.972765,SO2,18,19,19
India,Haryana,Hisar,"Urban Estate-II, Hisar - HSPCB",28-01-2026 08:00:00,29.140560,75.744941,NH3,10,11,11
India,Haryana,Jind,"Police Lines, Jind - HSPCB",28-01-2026 08:00:00,29.307814,76.337619,NH3,1,4,2
India,Haryana,Jind,"Police Lines, Jind - HSPCB",28-01-2026 08:00:00,29.307814,76.337619,SO2,2,3,2
India,Haryana,Kaithal,"Rishi Nagar, Kaithal - HSPCB",28-01-2026 08:00:00,29.8006,76.4155,PM2.5,15,106,53
India,Haryana,Kaithal,"Rishi Nagar, Kaithal - HSPCB",28-01-2026 08:00:00,29.8006,76.4155,SO2,28,34,32
India,Haryana,Karnal,"Sector-12, Karnal - HSPCB",28-01-2026 08:00:00,29.695300,77.002700,PM2.5,11,370,117
India,Haryana,Kurukshetra,"Sector-7, Kurukshetra - HSPCB",28-01-2026 08:00:00,29.966942,76.875879,NH3,5,5,5
India,Gujarat,Gandhinagar,"Sector-10, Gandhinagar - GPCB",28-01-2026 08:00:00,23.221714,72.654328,PM10,98,132,109
India,Gujarat,Gandhinagar,"Sector-10, Gandhinagar - GPCB",28-01-2026 08:00:00,23.221714,72.654328,NH3,2,3,3
India,Gujarat,Surat,"Science Center, Surat - SMC",28-01-2026 08:00:00,21.170046,72.795405,PM2.5,27,89,56
India,Gujarat,Vapi,"Phase-1 GIDC, Vapi - GPCB",28-01-2026 08:00:00,20.362421,72.918013,OZONE,4,22,4
India,Gujarat,Vatva,"Phase-4 GIDC, Vatva - GPCB",28-01-2026 08:00:00,22.969611,72.643500,PM10,71,218,127
India,Haryana,Ambala,"Patti Mehar, Ambala - HSPCB",28-01-2026 08:00:00,30.379589,76.778328,PM10,30,87,50
India,Delhi,Delhi,"Rohini, Delhi - DPCC",28-01-2026 08:00:00,28.732528,77.119920,OZONE,3,51,8
India,Delhi,Delhi,"Sirifort, Delhi - CPCB",28-01-2026 08:00:00,28.5504249,77.2159377,PM2.5,151,364,301
India,Delhi,Delhi,"Sonia Vihar, Delhi - DPCC",28-01-2026 08:00:00,28.710508,77.249485,PM10,119,465,207
India,Delhi,Delhi,"Sri Aurobindo Marg, Delhi - DPCC",28-01-2026 08:00:00,28.531346,77.190156,OZONE,2,40,10
India,Haryana,Ambala,"Patti Mehar, Ambala - HSPCB",28-01-2026 08:00:00,30.379589,76.778328,NH3,9,11,10
India,Karnataka,Chikkaballapur,"Chikkaballapur Rural, Chikkaballapur - KSPCB",28-01-2026 08:00:00,13.428828,77.731418,NO2,7,60,21
India,Karnataka,Chikkaballapur,"Chikkaballapur Rural, Chikkaballapur - KSPCB",28-01-2026 08:00:00,13.428828,77.731418,NH3,3,8,5
India,Karnataka,Chikkamagaluru,"Kalyana Nagara, Chikkamagaluru - KSPCB",28-01-2026 08:00:00,13.328028,75.797056,PM10,11,34,25
India,Karnataka,Chikkamagaluru,"Kalyana Nagara, Chikkamagaluru - KSPCB",28-01-2026 08:00:00,13.328028,75.797056,NO2,15,128,26
India,Karnataka,Chikkamagaluru,"Kalyana Nagara, Chikkamagaluru - KSPCB",28-01-2026 08:00:00,13.328028,75.797056,SO2,1,4,3
India,Karnataka,Chikkamagaluru,"Kalyana Nagara, Chikkamagaluru - KSPCB",28-01-2026 08:00:00,13.328028,75.797056,OZONE,11,51,12
India,Karnataka,Davanagere,"Devaraj Urs Badavane, Davanagere - KSPCB",28-01-2026 08:00:00,14.475800,75.905200,PM2.5,12,90,46
India,Karnataka,Davanagere,"Devaraj Urs Badavane, Davanagere - KSPCB",28-01-2026 08:00:00,14.475800,75.905200,PM10,25,105,53
India,Karnataka,Davanagere,"Devaraj Urs Badavane, Davanagere - KSPCB",28-01-2026 08:00:00,14.475800,75.905200,CO,8,21,16
India,Karnataka,Hubballi,"Lingaraj Nagar, Hubballi - KSPCB",28-01-2026 08:00:00,15.3714823,75.1160168,NO2,7,11,10
India,Karnataka,Hubballi,"Lingaraj Nagar, Hubballi - KSPCB",28-01-2026 08:00:00,15.3714823,75.1160168,CO,10,38,27
India,Haryana,Rohtak,"MD University, Rohtak - HSPCB",28-01-2026 08:00:00,28.52123,76.37138,CO,30,38,34
India,Haryana,Rohtak,"MD University, Rohtak - HSPCB",28-01-2026 08:00:00,28.52123,76.37138,OZONE,39,40,40
India,Haryana,Sirsa,"F-Block, Sirsa - HSPCB",28-01-2026 08:00:00,29.536400,75.015800,NH3,11,16,14
India,Haryana,Sirsa,"F-Block, Sirsa - HSPCB",28-01-2026 08:00:00,29.536400,75.015800,SO2,5,24,14
India,Haryana,Sonipat,"Murthal, Sonipat - HSPCB",28-01-2026 08:00:00,29.027200,77.062100,PM10,NA,NA,NA
India,Haryana,Yamuna Nagar,"Gobind Pura, Yamuna Nagar - HSPCB",28-01-2026 08:00:00,30.1480566,77.2893471,NO2,11,21,16
India,Haryana,Yamuna Nagar,"Gobind Pura, Yamuna Nagar - HSPCB",28-01-2026 08:00:00,30.1480566,77.2893471,CO,29,52,34
India,Himachal Pradesh,Baddi,"HIMUDA Complex Phase-1, Baddi - HPPCB",28-01-2026 08:00:00,30.943887,76.801991,CO,42,108,52
India,Karnataka,Bengaluru,"Hebbal, Bengaluru - KSPCB",28-01-2026 08:00:00,13.029152,77.585901,PM10,64,120,87
India,Karnataka,Bengaluru,"Hebbal, Bengaluru - KSPCB",28-01-2026 08:00:00,13.029152,77.585901,CO,8,52,24
India,Karnataka,Bengaluru,"Hombegowda Nagar, Bengaluru - KSPCB",28-01-2026 08:00:00,12.938539,77.590100,PM10,51,98,72
India,Karnataka,Bengaluru,"Hombegowda Nagar, Bengaluru - KSPCB",28-01-2026 08:00:00,12.938539,77.590100,CO,2,26,13
India,Karnataka,Bengaluru,"Jayanagar 5th Block, Bengaluru - KSPCB",28-01-2026 08:00:00,12.920984,77.584908,SO2,6,15,10
India,Karnataka,Bengaluru,"Jayanagar 5th Block, Bengaluru - KSPCB",28-01-2026 08:00:00,12.920984,77.584908,CO,12,56,15
India,Karnataka,Bengaluru,"Jigani, Bengaluru - KSPCB",28-01-2026 08:00:00,12.7816279,77.6299145,PM2.5,44,70,56
India,Karnataka,Bengaluru,"Jigani, Bengaluru - KSPCB",28-01-2026 08:00:00,12.7816279,77.6299145,NH3,3,3,3
India,Karnataka,Bengaluru,"Jigani, Bengaluru - KSPCB",28-01-2026 08:00:00,12.7816279,77.6299145,SO2,18,19,18
India,Karnataka,Bengaluru,"Jigani, Bengaluru - KSPCB",28-01-2026 08:00:00,12.7816279,77.6299145,OZONE,22,24,23
India,Kerala,Thiruvananthapuram,"Kariavattom, Thiruvananthapuram - Kerala PCB",28-01-2026 08:00:00,8.563700,76.886500,OZONE,36,37,36
India,Kerala,Thiruvananthapuram,"Plammoodu, Thiruvananthapuram - Kerala PCB",28-01-2026 08:00:00,8.5149093,76.9435879,PM2.5,22,51,32
India,Kerala,Thiruvananthapuram,"Plammoodu, Thiruvananthapuram - Kerala PCB",28-01-2026 08:00:00,8.5149093,76.9435879,NO2,NA,NA,NA
India,Kerala,Thrissur,"Corporation Ground, Thrissur - Kerala PCB",28-01-2026 08:00:00,10.532400,76.215900,NO2,7,9,8
India,Madhya Pradesh,Bhopal,"Idgah Hills, Bhopal - MPPCB",28-01-2026 08:00:00,23.264759,77.381568,SO2,9,44,20
India,Madhya Pradesh,Bhopal,"Idgah Hills, Bhopal - MPPCB",28-01-2026 08:00:00,23.264759,77.381568,CO,21,57,24
India,Karnataka,Kalaburagi,"Mahatma Basaveswar Colony, Kalaburgi - KSPCB",28-01-2026 08:00:00,17.336318,76.847397,CO,NA,NA,NA
India,Karnataka,Mysuru,"Hebbal 1st Stage, Mysuru - KSPCB",28-01-2026 08:00:00,12.21041,76.37376,SO2,1,8,4
India,Karnataka,Ramanagara,"Vijay Nagar, Ramanagara - KSPCB",28-01-2026 08:00:00,12.733409,77.298051,PM10,43,139,94
India,Karnataka,Ramanagara,"Vijay Nagar, Ramanagara - KSPCB",28-01-2026 08:00:00,12.733409,77.298051,NO2,32,53,41
India,Karnataka,Ramanagara,"Vijay Nagar, Ramanagara - KSPCB",28-01-2026 08:00:00,12.733409,77.298051,OZONE,23,59,40
India,Karnataka,Shivamogga,"Vinoba Nagara, Shivamogga - KSPCB",28-01-2026 08:00:00,13.940000,75.555917,SO2,3,6,5
India,Karnataka,Bengaluru,"Peenya, Bengaluru - CPCB",28-01-2026 08:00:00,13.0270199,77.494094,NH3,3,4,4
India,Karnataka,Bengaluru,"Sanegurava Halli, Bengaluru - KSPCB",28-01-2026 08:00:00,12.990328,77.5431385,SO2,6,6,6
India,Karnataka,Bengaluru,"Shivapura_Peenya, Bengaluru - KSPCB",28-01-2026 08:00:00,13.0246342,77.5080115,NO2,78,79,79
India,Karnataka,Chamarajanagar,"Urban, Chamarajanagar - KSPCB",28-01-2026 08:00:00,11.55358,76.55521,PM10,28,92,63
India,Karnataka,Chamarajanagar,"Urban, Chamarajanagar - KSPCB",28-01-2026 08:00:00,11.55358,76.55521,NO2,6,35,19
