country,state,city,station,last_update,latitude,longitude,pollutant_id,min_value,max_value,avg_value
India,Assam,Guwahati,"LGBI Airport, Guwahati - PCBA",13-01-2026 08:00:00,26.10887,91.589544,OZONE,10,15,13
India,Assam,Guwahati,"Pan Bazaar, Guwahati - PCBA",13-01-2026 08:00:00,26.187500,91.744194,OZONE,17,25,18
India,Assam,Guwahati,"Railway Colony, Guwahati - PCBA",13-01-2026 08:00:00,26.181742,91.78063,PM10,54,309,163
India,Assam,Nagaon,"Christianpatty, Nagaon - PCBA",13-01-2026 08:00:00,26.349082,92.68449,PM2.5,79,200,124
India,Assam,Nagaon,"Christianpatty, Nagaon - PCBA",13-01-2026 08:00:00,26.349082,92.68449,OZONE,7,18,9
India,Assam,Nalbari,"Bata Chowk, Nalbari - PCBA",13-01-2026 08:00:00,26.446912,91.439057,PM2.5,136,171,152
India,Assam,Nalbari,"Bata Chowk, Nalbari - PCBA",13-01-2026 08:00:00,26.446912,91.439057,PM10,110,121,115
India,Assam,Nalbari,"Bata Chowk, Nalbari - PCBA",13-01-2026 08:00:00,26.446912,91.439057,NH3,6,7,6
India,Assam,Silchar,"Tarapur, Silchar - PCBA",13-01-2026 08:00:00,24.82827,92.79525,NO2,23,29,27
India,Assam,Sivasagar,"Girls College, Sivasagar - PCBA",13-01-2026 08:00:00,26.987634,94.636574,NH3,4,19,10
India,Assam,Sivasagar,"Girls College, Sivasagar - PCBA",13-01-2026 08:00:00,26.987634,94.636574,SO2,9,12,11
India,Bihar,Araria,"Kharahiya Basti, Araria - BSPCB",13-01-2026 08:00:00,26.146529,87.454184,OZONE,9,10,10
India,Bihar,Arrah,"New DM Office, Arrah - BSPCB",13-01-2026 08:00:00,25.5626095,84.663264,OZONE,7,8,8
India,Bihar,Aurangabad,"Gurdeo Nagar, Aurangabad - BSPCB",13-01-2026 08:00:00,24.75746,84.366208,PM2.5,28,73,47
India,Bihar,Aurangabad,"Gurdeo Nagar, Aurangabad - BSPCB",13-01-2026 08:00:00,24.75746,84.366208,OZONE,6,59,21
India,Bihar,Begusarai,"Lohiyanagar, Begusarai - BSPCB",13-01-2026 08:00:00,25.42742023,86.13886079,PM2.5,NA,NA,NA
India,Andhra_Pradesh,Chittoor,"Gangineni Cheruvu, Chittoor - APPCB",13-01-2026 08:00:00,13.204880,79.097889,NO2,39,44,41
India,Andhra_Pradesh,Chittoor,"Gangineni Cheruvu, Chittoor - APPCB",13-01-2026 08:00:00,13.204880,79.097889,SO2,6,35,15
India,Andhra_Pradesh,Chittoor,"Gangineni Cheruvu, Chittoor - APPCB",13-01-2026 08:00:00,13.204880,79.097889,CO,2,17,8
India,Andhra_Pradesh,Kadapa,"Yerramukkapalli, Kadapa - APPCB",13-01-2026 08:00:00,14.465052,78.824187,NO2,20,25,24
India,Andhra_Pradesh,Kadapa,"Yerramukkapalli, Kadapa - APPCB",13-01-2026 08:00:00,14.465052,78.824187,NH3,3,4,4
India,Andhra_Pradesh,Kadapa,"Yerramukkapalli, Kadapa - APPCB",13-01-2026 08:00:00,14.465052,78.824187,OZONE,20,22,22
India,Andhra_Pradesh,Rajamahendravaram,"Anand Kala Kshetram, Rajamahendravaram - APPCB",13-01-2026 08:00:00,16.9872867,81.7363176,PM2.5,62,113,78
India,Andhra_Pradesh,Rajamahendravaram,"Anand Kala Kshetram, Rajamahendravaram - APPCB",13-01-2026 08:00:00,16.9872867,81.7363176,NH3,4,5,4
India,Bihar,Hajipur,"Industrial Area, Hajipur - BSPCB",13-01-2026 08:00:00,25.697189,85.245900,PM2.5,58,284,131
India,Bihar,Hajipur,"Industrial Area, Hajipur - BSPCB",13-01-2026 08:00:00,25.697189,85.245900,NH3,2,12,8
India,Bihar,Katihar,"Mirchaibari, Katihar - BSPCB",13-01-2026 08:00:00,25.560083,87.553265,PM2.5,47,193,122
India,Bihar,Kishanganj,"SDM Office_Khagra, Kishanganj - BSPCB",13-01-2026 08:00:00,26.0881305,87.93840336,NH3,3,7,3
India,Bihar,Manguraha,"Forest Rest House, Manguraha - BSPCB",13-01-2026 08:00:00,27.308328,84.531742,CO,32,33,32
India,Bihar,Motihari,"Gandak Colony, Motihari - BSPCB",13-01-2026 08:00:00,26.63086,84.90051,PM2.5,53,325,117
India,Andhra_Pradesh,Tirumala,"Toll Gate, Tirumala - APPCB",13-01-2026 08:00:00,13.67,79.35,OZONE,11,53,48
India,Andhra_Pradesh,Tirupati,"Vaikuntapuram, Tirupati - APPCB",13-01-2026 08:00:00,13.615387,79.409230,NH3,4,5,4
India,Andhra_Pradesh,Vijayawada,"Kanuru, Vijayawada - APPCB",13-01-2026 08:00:00,16.486692,80.699436,PM2.5,83,102,92
India,Andhra_Pradesh,Vijayawada,"Kanuru, Vijayawada - APPCB",13-01-2026 08:00:00,16.486692,80.699436,SO2,10,18,13
India,Andhra_Pradesh,Vijayawada,"Rajiv Gandhi Park, Vijayawada - APPCB",13-01-2026 08:00:00,16.509717,80.612222,PM2.5,87,134,103
India,Bihar,Bettiah,"Kamalnath Nagar, Bettiah - BSPCB",13-01-2026 08:00:00,26.80365,84.51954,PM2.5,83,367,198
India,Bihar,Bettiah,"Kamalnath Nagar, Bettiah - BSPCB",13-01-2026 08:00:00,26.80365,84.51954,CO,57,167,80
India,Bihar,Bhagalpur,"DM Office_Kachari Chowk, Bhagalpur - BSPCB",13-01-2026 08:00:00,25.251013,86.989001,NO2,6,14,9
India,Bihar,Bhagalpur,"DM Office_Kachari Chowk, Bhagalpur - BSPCB",13-01-2026 08:00:00,25.251013,86.989001,NH3,1,1,1
India,Bihar,Bihar Sharif,"D M Colony, Bihar Sharif - BSPCB",13-01-2026 08:00:00,25.204762,85.514960,PM2.5,48,267,132
India,Arunachal_Pradesh,Naharlagun,"Naharlagun, Naharlagun - APSPCB",13-01-2026 08:00:00,27.103358,93.679645,CO,NA,NA,NA
India,Assam,Byrnihat,"Central Academy for SFS, Byrnihat - PCBA",13-01-2026 08:00:00,26.071318,91.87488,NO2,3,8,7
India,Assam,Byrnihat,"Central Academy for SFS, Byrnihat - PCBA",13-01-2026 08:00:00,26.071318,91.87488,SO2,22,33,32
India,Assam,Guwahati,"LGBI Airport, Guwahati - PCBA",13-01-2026 08:00:00,26.10887,91.589544,PM2.5,52,139,94
India,Bihar,Chhapra,"Darshan Nagar, Chhapra - BSPCB",13-01-2026 08:00:00,25.7808257,84.7446768,SO2,21,30,28
India,Bihar,Chhapra,"Darshan Nagar, Chhapra - BSPCB",13-01-2026 08:00:00,25.7808257,84.7446768,OZONE,7,20,17
India,Bihar,Gaya,"Kareemganj, Gaya - BSPCB",13-01-2026 08:00:00,24.792403,84.992416,PM10,60,223,126
India,Bihar,Gaya,"Kareemganj, Gaya - BSPCB",13-01-2026 08:00:00,24.792403,84.992416,CO,29,40,36
India,Andhra_Pradesh,Vijayawada,"Rajiv Nagar, Vijayawada - APPCB",13-01-2026 08:00:00,16.554731,80.649110,NH3,NA,NA,NA
India,Andhra_Pradesh,Vijayawada,"Rajiv Nagar, Vijayawada - APPCB",13-01-2026 08:00:00,16.554731,80.649110,CO,18,40,18
India,Andhra_Pradesh,Visakhapatnam,"GVM Corporation, Visakhapatnam - APPCB",13-01-2026 08:00:00,17.72,83.3,SO2,5,16,9
India,Bihar,Motihari,"Gandak Colony, Motihari - BSPCB",13-01-2026 08:00:00,26.63086,84.90051,SO2,2,3,3
India,Bihar,Muzaffarpur,"Buddha Colony, Muzaffarpur - BSPCB",13-01-2026 08:00:00,26.11442,85.39813,NO2,37,78,46
India,Bihar,Muzaffarpur,"Buddha Colony, Muzaffarpur - BSPCB",13-01-2026 08:00:00,26.11442,85.39813,OZONE,17,98,38
India,Chhattisgarh,Kunjemura,"OP Jindal School, Kunjemura - CECB",13-01-2026 08:00:00,22.126650,83.483212,OZONE,1,69,1
India,Chhattisgarh,Milupara,"Govt. Higher Secondary School, Milupara - CECB",13-01-2026 08:00:00,22.1910172,83.5197009,PM10,56,119,76
India,Chhattisgarh,Raipur,"AIIMS, Raipur - CECB",13-01-2026 08:00:00,21.258815,81.578979,NO2,47,54,50
India,Chhattisgarh,Raipur,"AIIMS, Raipur - CECB",13-01-2026 08:00:00,21.258815,81.578979,SO2,3,7,5
India,Chhattisgarh,Raipur,"AIIMS, Raipur - CECB",13-01-2026 08:00:00,21.258815,81.578979,CO,38,90,65
India,Chhattisgarh,Raipur,"Bhatagaon New ISBT, Raipur - CECB",13-01-2026 08:00:00,21.219665,81.630094,PM10,12,106,45
India,Chhattisgarh,Raipur,"Bhatagaon New ISBT, Raipur - CECB",13-01-2026 08:00:00,21.219665,81.630094,NO2,1,59,38
India,Chhattisgarh,Raipur,"Bhatagaon New ISBT, Raipur - CECB",13-01-2026 08:00:00,21.219665,81.630094,CO,32,115,92
India,Chhattisgarh,Raipur,"Krishak Nagar, Raipur - CECB",13-01-2026 08:00:00,21.237755,81.705301,PM10,28,72,57
India,Chhattisgarh,Raipur,"Siltara Phase-II, Raipur - CECB",13-01-2026 08:00:00,21.371751,81.664929,PM10,39,151,104
India,Chhattisgarh,Raipur,"Siltara Phase-II, Raipur - CECB",13-01-2026 08:00:00,21.371751,81.664929,NH3,2,2,2
India,Chhattisgarh,Raipur,"Siltara Phase-II, Raipur - CECB",13-01-2026 08:00:00,21.371751,81.664929,CO,34,36,34
India,Chhattisgarh,Tumidih,"OP Jindal Industrial Park, Tumidih - CECB",13-01-2026 08:00:00,22.06631475,83.33820077,NH3,1,2,2
India,Chhattisgarh,Tumidih,"OP Jindal Industrial Park, Tumidih - CECB",13-01-2026 08:00:00,22.06631475,83.33820077,CO,16,42,36
India,Chhattisgarh,Tumidih,"OP Jindal Industrial Park, Tumidih - CECB",13-01-2026 08:00:00,22.06631475,83.33820077,OZONE,6,110,12
India,Delhi,Delhi,"Alipur, Delhi - DPCC",13-01-2026 08:00:00,28.815329,77.153010,PM2.5,68,480,322
India,Delhi,Delhi,"Anand Vihar, Delhi - DPCC",13-01-2026 08:00:00,28.647622,77.3158090,NO2,35,77,54
India,Delhi,Delhi,"Ashok Vihar, Delhi - DPCC",13-01-2026 08:00:00,28.695381,77.181665,OZONE,4,94,4
India,Delhi,Delhi,"Aya Nagar, Delhi - IMD",13-01-2026 08:00:00,28.4706914,77.1099364,NO2,31,290,85
India,Delhi,Delhi,"Bawana, Delhi - DPCC",13-01-2026 08:00:00,28.776200,77.051074,NO2,18,88,36
India,Delhi,Delhi,"Burari Crossing, Delhi - IMD",13-01-2026 08:00:00,28.7256504,77.2011573,PM2.5,70,384,310
India,Delhi,Delhi,"Burari Crossing, Delhi - IMD",13-01-2026 08:00:00,28.7256504,77.2011573,OZONE,9,131,10
India,Delhi,Delhi,"CRRI Mathura Road, Delhi - IMD",13-01-2026 08:00:00,28.5512005,77.2735737,CO,10,142,131
India,Delhi,Delhi,"Chandni Chowk, Delhi - IITM",13-01-2026 08:00:00,28.656756,77.227234,SO2,2,95,39
India,Delhi,Delhi,"Chandni Chowk, Delhi - IITM",13-01-2026 08:00:00,28.656756,77.227234,OZONE,1,113,2
India,Bihar,Muzaffarpur,"Muzaffarpur Collectorate, Muzaffarpur - BSPCB",13-01-2026 08:00:00,26.1209,85.3647,OZONE,6,24,6
India,Bihar,Patna,"DRM Office Danapur, Patna - BSPCB",13-01-2026 08:00:00,25.586562,85.043586,NO2,30,104,56
India,Bihar,Patna,"DRM Office Danapur, Patna - BSPCB",13-01-2026 08:00:00,25.586562,85.043586,SO2,3,8,6
India,Bihar,Patna,"Govt. High School Shikarpur, Patna - BSPCB",13-01-2026 08:00:00,25.592539,85.227158,PM10,96,110,104
India,Bihar,Patna,"IGSC Planetarium Complex, Patna - BSPCB",13-01-2026 08:00:00,25.610369,85.132568,NO2,1,22,20
India,Bihar,Patna,"IGSC Planetarium Complex, Patna - BSPCB",13-01-2026 08:00:00,25.610369,85.132568,SO2,1,36,33
India,Chandigarh,Chandigarh,"Sector 22, Chandigarh - CPCC",13-01-2026 08:00:00,30.735567,76.775714,NH3,9,17,15
India,Chandigarh,Chandigarh,"Sector 22, Chandigarh - CPCC",13-01-2026 08:00:00,30.735567,76.775714,SO2,1,21,6
India,Chandigarh,Chandigarh,"Sector 22, Chandigarh - CPCC",13-01-2026 08:00:00,30.735567,76.775714,CO,61,128,76
India,Chhattisgarh,Bhilai,"32Bungalows, Bhilai - CECB",13-01-2026 08:00:00,21.194815,81.314770,PM2.5,15,40,29
India,Chhattisgarh,Bhilai,"32Bungalows, Bhilai - CECB",13-01-2026 08:00:00,21.194815,81.314770,NO2,30,69,46
India,Chhattisgarh,Bhilai,"32Bungalows, Bhilai - CECB",13-01-2026 08:00:00,21.194815,81.314770,SO2,6,10,8
India,Chhattisgarh,Bhilai,"32Bungalows, Bhilai - CECB",13-01-2026 08:00:00,21.194815,81.314770,CO,20,54,37
India,Chhattisgarh,Bhilai,"32Bungalows, Bhilai - CECB",13-01-2026 08:00:00,21.194815,81.314770,OZONE,2,38,5
India,Delhi,Delhi,"DTU, Delhi - CPCB",13-01-2026 08:00:00,28.7500499,77.1112615,OZONE,18,29,21
India,Delhi,Delhi,"Dr. Karni Singh Shooting Range, Delhi - DPCC",13-01-2026 08:00:00,28.498571,77.264840,NH3,7,13,10
India,Delhi,Delhi,"Dwarka-Sector 8, Delhi - DPCC ",13-01-2026 08:00:00,28.5710274,77.0719006,NO2,47,120,71
India,Delhi,Delhi,"IHBAS, Dilshad Garden, Delhi - CPCB",13-01-2026 08:00:00,28.6811736,77.3025234,PM10,133,395,228
India,Delhi,Delhi,"IHBAS, Dilshad Garden, Delhi - CPCB",13-01-2026 08:00:00,28.6811736,77.3025234,NH3,8,19,13
India,Bihar,Patna,"Muradpur, Patna - BSPCB",13-01-2026 08:00:00,25.619651,85.147382,PM10,81,150,123
India,Bihar,Patna,"Muradpur, Patna - BSPCB",13-01-2026 08:00:00,25.619651,85.147382,CO,42,86,53
India,Bihar,Patna,"Rajbansi Nagar, Patna - BSPCB",13-01-2026 08:00:00,25.599486,85.113666,NH3,2,6,4
India,Bihar,Patna,"Samanpura, Patna - BSPCB",13-01-2026 08:00:00,25.596727,85.085624,PM2.5,63,232,143
India,Bihar,Patna,"Samanpura, Patna - BSPCB",13-01-2026 08:00:00,25.596727,85.085624,PM10,93,194,124
India,Bihar,Patna,"Samanpura, Patna - BSPCB",13-01-2026 08:00:00,25.596727,85.085624,NH3,5,6,5
India,Bihar,Rajgir,"Dangi Tola, Rajgir - BSPCB",13-01-2026 08:00:00,25.03280,85.41948,NO2,7,10,9
India,Bihar,Rajgir,"Dangi Tola, Rajgir - BSPCB",13-01-2026 08:00:00,25.03280,85.41948,NH3,6,8,6
India,Bihar,Saharsa,"Police Line, Saharsa - BSPCB",13-01-2026 08:00:00,25.892357,86.590325,PM2.5,75,347,190
India,Bihar,Sasaram,"Dada Peer, Sasaram - BSPCB",13-01-2026 08:00:00,24.952822,84.002396,PM2.5,24,56,36
India,Chhattisgarh,Bilaspur,"Mangala, Bilaspur - NTPC",13-01-2026 08:00:00,22.08815,82.13737,PM10,40,122,78
India,Chhattisgarh,Bilaspur,"Mangala, Bilaspur - NTPC",13-01-2026 08:00:00,22.08815,82.13737,CO,28,72,45
India,Delhi,Delhi,"IIT Delhi, Delhi - IITM",13-01-2026 08:00:00,28.542460,77.191651,CO,54,121,119
India,Delhi,Delhi,"ITO, Delhi - CPCB",13-01-2026 08:00:00,28.628624,77.241060,CO,34,127,93
India,Delhi,Delhi,"ITO, Delhi - CPCB",13-01-2026 08:00:00,28.628624,77.241060,OZONE,22,63,41
India,Delhi,Delhi,"Jahangirpuri, Delhi - DPCC",13-01-2026 08:00:00,28.732820,77.170633,CO,26,128,101
India,Delhi,Delhi,"Jawaharlal Nehru Stadium, Delhi - DPCC",13-01-2026 08:00:00,28.580280,77.233829,PM2.5,85,459,328
India,Delhi,Delhi,"Jawaharlal Nehru Stadium, Delhi - DPCC",13-01-2026 08:00:00,28.580280,77.233829,OZONE,1,159,1
India,Delhi,Delhi,"Lodhi Road, Delhi - IMD",13-01-2026 08:00:00,28.5918245,77.2273074,NO2,6,60,30
India,Delhi,Delhi,"Lodhi Road, Delhi - IMD",13-01-2026 08:00:00,28.5918245,77.2273074,CO,28,103,101
India,Delhi,Delhi,"Major Dhyan Chand National Stadium, Delhi - DPCC",13-01-2026 08:00:00,28.611281,77.237738,PM2.5,50,418,293
India,Delhi,Delhi,"Patparganj, Delhi - DPCC",13-01-2026 08:00:00,28.623763,77.287209,PM2.5,143,500,366
India,Delhi,Delhi,"Patparganj, Delhi - DPCC",13-01-2026 08:00:00,28.623763,77.287209,PM10,121,451,255
India,Delhi,Delhi,"Patparganj, Delhi - DPCC",13-01-2026 08:00:00,28.623763,77.287209,SO2,7,14,11
India,Delhi,Delhi,"Patparganj, Delhi - DPCC",13-01-2026 08:00:00,28.623763,77.287209,CO,20,172,69
India,Delhi,Delhi,"Punjabi Bagh, Delhi - DPCC",13-01-2026 08:00:00,28.674045,77.131023,PM10,92,403,271
India,Delhi,Delhi,"Punjabi Bagh, Delhi - DPCC",13-01-2026 08:00:00,28.674045,77.131023,NO2,44,84,63
India,Delhi,Delhi,"Punjabi Bagh, Delhi - DPCC",13-01-2026 08:00:00,28.674045,77.131023,CO,22,138,56
India,Delhi,Delhi,"Pusa, Delhi - DPCC",13-01-2026 08:00:00,28.639652,77.146275,NH3,6,22,16
India,Delhi,Delhi,"Pusa, Delhi - DPCC",13-01-2026 08:00:00,28.639652,77.146275,OZONE,2,26,3
India,Delhi,Delhi,"Pusa, Delhi - IMD",13-01-2026 08:00:00,28.636110,77.173332,CO,76,188,141
India,Delhi,Delhi,"Najafgarh, Delhi - DPCC",13-01-2026 08:00:00,28.570173,76.933762,CO,20,126,105
India,Delhi,Delhi,"Najafgarh, Delhi - DPCC",13-01-2026 08:00:00,28.570173,76.933762,OZONE,4,12,5
India,Delhi,Delhi,"Narela, Delhi - DPCC",13-01-2026 08:00:00,28.822836,77.101981,PM10,108,500,319
India,Delhi,Delhi,"Narela, Delhi - DPCC",13-01-2026 08:00:00,28.822836,77.101981,OZONE,NA,NA,NA
India,Delhi,Delhi,"Nehru Nagar, Delhi - DPCC",13-01-2026 08:00:00,28.567890,77.250515,NO2,35,124,65
India,Delhi,Delhi,"North Campus, DU, Delhi - IMD",13-01-2026 08:00:00,28.6573814,77.1585447,NO2,31,180,91
India,Delhi,Delhi,"Okhla Phase-2, Delhi - DPCC",13-01-2026 08:00:00,28.530785,77.271255,SO2,9,33,21
India,Delhi,Delhi,"Okhla Phase-2, Delhi - DPCC",13-01-2026 08:00:00,28.530785,77.271255,OZONE,3,198,7
India,Gujarat,Ahmedabad,"SVPI Airport Hansol, Ahmedabad - IITM",13-01-2026 08:00:00,23.076793,72.627874,NH3,3,11,5
India,Gujarat,Ahmedabad,"SVPI Airport Hansol, Ahmedabad - IITM",13-01-2026 08:00:00,23.076793,72.627874,CO,1,62,6
India,Gujarat,Ankleshwar,"GIDC, Ankleshwar - GPCB",13-01-2026 08:00:00,21.613267,73.010555,SO2,27,38,35
India,Gujarat,Gandhinagar,"GIFT City, Gandhinagar - IITM",13-01-2026 08:00:00,23.163798,72.677768,PM10,129,195,154
India,Gujarat,Gandhinagar,"GIFT City, Gandhinagar - IITM",13-01-2026 08:00:00,23.163798,72.677768,OZONE,3,75,22
India,Gujarat,Gandhinagar,"IIPHG Lekawada, Gandhinagar - IITM",13-01-2026 08:00:00,23.243639,72.68994,PM2.5,95,227,166
India,Gujarat,Gandhinagar,"IIPHG Lekawada, Gandhinagar - IITM",13-01-2026 08:00:00,23.243639,72.68994,PM10,91,149,120
India,Delhi,Delhi,"Sri Aurobindo Marg, Delhi - DPCC",13-01-2026 08:00:00,28.531346,77.190156,NH3,1,6,4
India,Delhi,Delhi,"Sri Aurobindo Marg, Delhi - DPCC",13-01-2026 08:00:00,28.531346,77.190156,CO,16,113,108
India,Delhi,Delhi,"Vivek Vihar, Delhi - DPCC",13-01-2026 08:00:00,28.672342,77.315260,NO2,42,128,75
India,Delhi,Delhi,"Vivek Vihar, Delhi - DPCC",13-01-2026 08:00:00,28.672342,77.315260,SO2,7,42,14
India,Delhi,Delhi,"Vivek Vihar, Delhi - DPCC",13-01-2026 08:00:00,28.672342,77.315260,CO,42,129,70
India,Delhi,Delhi,"Wazirpur, Delhi - DPCC",13-01-2026 08:00:00,28.699793,77.165453,SO2,1,9,4
India,Gujarat,Ahmedabad,"Gyaspur, Ahmedabad - IITM",13-01-2026 08:00:00,22.977134,72.553024,PM10,130,198,154
India,Delhi,Delhi,"Major Dhyan Chand National Stadium, Delhi - DPCC",13-01-2026 08:00:00,28.611281,77.237738,SO2,19,39,26
India,Delhi,Delhi,"Mandir Marg, Delhi - DPCC",13-01-2026 08:00:00,28.636429,77.201067,PM2.5,15,437,300
India,Delhi,Delhi,"Mundka, Delhi - DPCC",13-01-2026 08:00:00,28.684678,77.076574,PM2.5,93,500,370
India,Delhi,Delhi,"Mundka, Delhi - DPCC",13-01-2026 08:00:00,28.684678,77.076574,CO,34,133,105
India,Delhi,Delhi,"Mundka, Delhi - DPCC",13-01-2026 08:00:00,28.684678,77.076574,OZONE,4,79,4
India,Delhi,Delhi,"NSIT Dwarka, Delhi - CPCB",13-01-2026 08:00:00,28.60909,77.0325413,NO2,59,128,84
India,Gujarat,Gandhinagar,"IIPHG Lekawada, Gandhinagar - IITM",13-01-2026 08:00:00,23.243639,72.68994,CO,4,68,19
India,Gujarat,Gandhinagar,"Sector-10, Gandhinagar - GPCB",13-01-2026 08:00:00,23.221714,72.654328,PM10,103,194,127
India,Gujarat,Vapi,"Phase-1 GIDC, Vapi - GPCB",13-01-2026 08:00:00,20.362421,72.918013,PM2.5,NA,NA,NA
India,Gujarat,Vatva,"Phase-4 GIDC, Vatva - GPCB",13-01-2026 08:00:00,22.969611,72.643500,SO2,18,101,44
India,Delhi,Delhi,"R K Puram, Delhi - DPCC",13-01-2026 08:00:00,28.563262,77.186937,NH3,8,12,10
India,Delhi,Delhi,"Shadipur, Delhi - CPCB",13-01-2026 08:00:00,28.6514781,77.1473105,NH3,13,19,16
India,Delhi,Delhi,"Sonia Vihar, Delhi - DPCC",13-01-2026 08:00:00,28.710508,77.249485,PM10,142,401,239
India,Delhi,Delhi,"Sonia Vihar, Delhi - DPCC",13-01-2026 08:00:00,28.710508,77.249485,NO2,31,74,50
India,Delhi,Delhi,"Sonia Vihar, Delhi - DPCC",13-01-2026 08:00:00,28.710508,77.249485,SO2,13,27,18
India,Gujarat,Ahmedabad,"Maninagar, Ahmedabad - GPCB",13-01-2026 08:00:00,23.002657,72.591912,NO2,88,102,96
India,Gujarat,Ahmedabad,"Maninagar, Ahmedabad - GPCB",13-01-2026 08:00:00,23.002657,72.591912,SO2,11,70,43
India,Gujarat,Ahmedabad,"Rakhial, Ahmedabad - IITM",13-01-2026 08:00:00,23.016834,72.625775,NO2,16,103,42
India,Haryana,Ambala,"Patti Mehar, Ambala - HSPCB",13-01-2026 08:00:00,30.379589,76.778328,NH3,9,11,10
India,Haryana,Ambala,"Patti Mehar, Ambala - HSPCB",13-01-2026 08:00:00,30.379589,76.778328,OZONE,12,38,12
India,Haryana,Bahadurgarh,"Arya Nagar, Bahadurgarh - HSPCB",13-01-2026 08:00:00,28.6701,76.9254,NH3,12,13,13
India,Haryana,Bahadurgarh,"Arya Nagar, Bahadurgarh - HSPCB",13-01-2026 08:00:00,28.6701,76.9254,CO,45,50,48
India,Haryana,Bahadurgarh,"Arya Nagar, Bahadurgarh - HSPCB",13-01-2026 08:00:00,28.6701,76.9254,OZONE,16,19,18
India,Haryana,Ballabgarh,"Nathu Colony, Ballabgarh - HSPCB",13-01-2026 08:00:00,28.3419248,77.319699,OZONE,14,15,15
India,Haryana,Bhiwani,"H.B. Colony, Bhiwani - HSPCB",13-01-2026 08:00:00,28.806223,76.141105,PM10,67,119,90
India,Haryana,Bhiwani,"H.B. Colony, Bhiwani - HSPCB",13-01-2026 08:00:00,28.806223,76.141105,SO2,12,13,12
India,Haryana,Bhiwani,"H.B. Colony, Bhiwani - HSPCB",13-01-2026 08:00:00,28.806223,76.141105,OZONE,5,14,8
India,Haryana,Charkhi Dadri,"Mini Secretariat, Charkhi Dadri - HSPCB",13-01-2026 08:00:00,28.593883,76.270653,PM2.5,82,388,270
India,Haryana,Charkhi Dadri,"Mini Secretariat, Charkhi Dadri - HSPCB",13-01-2026 08:00:00,28.593883,76.270653,NH3,5,8,6
India,Haryana,Yamuna Nagar,"Gobind Pura, Yamuna Nagar - HSPCB",13-01-2026 08:00:00,30.1480566,77.2893471,PM10,20,456,221
India,Haryana,Yamuna Nagar,"Gobind Pura, Yamuna Nagar - HSPCB",13-01-2026 08:00:00,30.1480566,77.2893471,NO2,11,21,16
India,Haryana,Yamuna Nagar,"Gobind Pura, Yamuna Nagar - HSPCB",13-01-2026 08:00:00,30.1480566,77.2893471,SO2,10,15,11
India,Himachal Pradesh,Baddi,"HIMUDA Complex Phase-1, Baddi - HPPCB",13-01-2026 08:00:00,30.943887,76.801991,PM10,149,500,263
India,Himachal Pradesh,Baddi,"HIMUDA Complex Phase-1, Baddi - HPPCB",13-01-2026 08:00:00,30.943887,76.801991,SO2,26,114,61
India,Himachal Pradesh,Baddi,"HIMUDA Complex Phase-1, Baddi - HPPCB",13-01-2026 08:00:00,30.943887,76.801991,CO,76,116,104
India,Jammu_and_Kashmir,Pampore,"Khrew, Pampore - JKPCC",13-01-2026 08:00:00,34.031606,75.009712,PM2.5,NA,NA,NA
India,Jammu_and_Kashmir,Pampore,"Khrew, Pampore - JKPCC",13-01-2026 08:00:00,34.031606,75.009712,SO2,NA,NA,NA
India,Jammu_and_Kashmir,Srinagar,"Rajbagh, Srinagar - JKPCC",13-01-2026 08:00:00,34.066206,74.819820,PM10,20,47,33
India,Jammu_and_Kashmir,Srinagar,"Rajbagh, Srinagar - JKPCC",13-01-2026 08:00:00,34.066206,74.819820,SO2,3,4,3
India,Haryana,Panchkula,"Sector-6, Panchkula - HSPCB ",13-01-2026 08:00:00,30.7057778,76.8531805555555,SO2,14,15,15
India,Haryana,Panipat,"Sector-18, Panipat - HSPCB",13-01-2026 08:00:00,29.432304,76.972765,NO2,31,32,31
India,Haryana,Rohtak,"MD University, Rohtak - HSPCB",13-01-2026 08:00:00,28.52123,76.37138,NO2,10,12,11
India,Haryana,Sirsa,"F-Block, Sirsa - HSPCB",13-01-2026 08:00:00,29.536400,75.015800,CO,42,81,60
India,Haryana,Sonipat,"Murthal, Sonipat - HSPCB",13-01-2026 08:00:00,29.027200,77.062100,NO2,19,41,31
India,Haryana,Sonipat,"Murthal, Sonipat - HSPCB",13-01-2026 08:00:00,29.027200,77.062100,NH3,19,37,26
India,Haryana,Sonipat,"Murthal, Sonipat - HSPCB",13-01-2026 08:00:00,29.027200,77.062100,SO2,6,10,8
India,Haryana,Sonipat,"Murthal, Sonipat - HSPCB",13-01-2026 08:00:00,29.027200,77.062100,CO,29,62,58
India,Haryana,Sonipat,"Murthal, Sonipat - HSPCB",13-01-2026 08:00:00,29.027200,77.062100,OZONE,25,26,26
India,Haryana,Kurukshetra,"Sector-7, Kurukshetra - HSPCB",13-01-2026 08:00:00,29.966942,76.875879,PM10,123,252,180
India,Haryana,Kurukshetra,"Sector-7, Kurukshetra - HSPCB",13-01-2026 08:00:00,29.966942,76.875879,SO2,2,19,9
India,Haryana,Kurukshetra,"Sector-7, Kurukshetra - HSPCB",13-01-2026 08:00:00,29.966942,76.875879,OZONE,1,33,1
India,Haryana,Mandikhera,"General Hospital, Mandikhera(Nuh) - HSPCB",13-01-2026 08:00:00,27.9002,76.9938,NO2,19,23,21
India,Haryana,Mandikhera,"General Hospital, Mandikhera(Nuh) - HSPCB",13-01-2026 08:00:00,27.9002,76.9938,SO2,30,37,34
India,Haryana,Manesar,"Sector-2 IMT, Manesar - HSPCB",13-01-2026 08:00:00,28.360699,76.936090,NO2,31,52,35
India,Haryana,Gurugram,"Vikas Sadan, Gurugram - HSPCB",13-01-2026 08:00:00,28.4501238,77.0263051,CO,65,114,96
India,Haryana,Hisar,"Urban Estate-II, Hisar - HSPCB",13-01-2026 08:00:00,29.140560,75.744941,PM2.5,13,31,22
India,Haryana,Hisar,"Urban Estate-II, Hisar - HSPCB",13-01-2026 08:00:00,29.140560,75.744941,SO2,6,15,11
India,Haryana,Jind,"Police Lines, Jind - HSPCB",13-01-2026 08:00:00,29.307814,76.337619,PM10,88,130,112
India,Haryana,Jind,"Police Lines, Jind - HSPCB",13-01-2026 08:00:00,29.307814,76.337619,NO2,33,51,42
India,Haryana,Jind,"Police Lines, Jind - HSPCB",13-01-2026 08:00:00,29.307814,76.337619,NH3,1,3,2
India,Haryana,Manesar,"Sector-2 IMT, Manesar - HSPCB",13-01-2026 08:00:00,28.360699,76.936090,SO2,9,13,11
India,Haryana,Palwal,"Shyam Nagar, Palwal - HSPCB",13-01-2026 08:00:00,28.1485564,77.3320667,PM2.5,NA,NA,NA
India,Haryana,Palwal,"Shyam Nagar, Palwal - HSPCB",13-01-2026 08:00:00,28.1485564,77.3320667,PM10,NA,NA,NA
India,Haryana,Palwal,"Shyam Nagar, Palwal - HSPCB",13-01-2026 08:00:00,28.1485564,77.3320667,NH3,NA,NA,NA
India,Haryana,Panchgaon,"Amity University, Panchgaon - IITM",13-01-2026 08:00:00,28.3153,76.9143,NO2,5,100,42
India,Haryana,Panchgaon,"Amity University, Panchgaon - IITM",13-01-2026 08:00:00,28.3153,76.9143,SO2,7,23,12
India,Haryana,Charkhi Dadri,"Mini Secretariat, Charkhi Dadri - HSPCB",13-01-2026 08:00:00,28.593883,76.270653,CO,6,25,15
India,Haryana,Faridabad,"New Industrial Town, Faridabad - HSPCB",13-01-2026 08:00:00,28.39072,77.30059,SO2,8,8,8
India,Haryana,Faridabad,"New Industrial Town, Faridabad - HSPCB",13-01-2026 08:00:00,28.39072,77.30059,CO,10,12,12
India,Haryana,Faridabad,"Sector 11, Faridabad - HSPCB",13-01-2026 08:00:00,28.376058,77.315741,NH3,10,10,10
India,Haryana,Faridabad,"Sector 30, Faridabad - HSPCB",13-01-2026 08:00:00,28.4417,77.3217,CO,58,65,62
India,Karnataka,Bagalkot,"Vidayagiri, Bagalkot - KSPCB",13-01-2026 08:00:00,16.172806,75.659694,PM2.5,22,36,34
India,Karnataka,Belgaum,"Ramteerth Nagar, Belgaum - KSPCB",13-01-2026 08:00:00,15.888653,74.541751,NH3,8,11,10
India,Karnataka,Belgaum,"Ramteerth Nagar, Belgaum - KSPCB",13-01-2026 08:00:00,15.888653,74.541751,SO2,24,25,24
India,Karnataka,Bengaluru,"BTM Layout, Bengaluru - CPCB",13-01-2026 08:00:00,12.9135218,77.5950804,PM2.5,NA,NA,NA
India,Karnataka,Bengaluru,"BTM Layout, Bengaluru - CPCB",13-01-2026 08:00:00,12.9135218,77.5950804,OZONE,NA,NA,NA
India,Haryana,Gurugram,"Sector-51, Gurugram - HSPCB",13-01-2026 08:00:00,28.4227,77.0667,OZONE,3,16,3
India,Haryana,Gurugram,"Teri Gram, Gurugram - HSPCB",13-01-2026 08:00:00,28.4275,77.1465,NH3,12,24,16
India,Haryana,Gurugram,"Teri Gram, Gurugram - HSPCB",13-01-2026 08:00:00,28.4275,77.1465,OZONE,4,19,4
India,Karnataka,Bengaluru,"RVCE-Mailasandra, Bengaluru - KSPCB",13-01-2026 08:00:00,12.921418,77.502466,SO2,NA,NA,NA
India,Karnataka,Bengaluru,"RVCE-Mailasandra, Bengaluru - KSPCB",13-01-2026 08:00:00,12.921418,77.502466,CO,NA,NA,NA
India,Karnataka,Bengaluru,"Sanegurava Halli, Bengaluru - KSPCB",13-01-2026 08:00:00,12.990328,77.5431385,PM10,55,64,57
India,Karnataka,Bengaluru,"Shivapura_Peenya, Bengaluru - KSPCB",13-01-2026 08:00:00,13.0246342,77.5080115,NH3,4,4,4
India,Karnataka,Bengaluru,"Shivapura_Peenya, Bengaluru - KSPCB",13-01-2026 08:00:00,13.0246342,77.5080115,SO2,9,10,9
India,Karnataka,Bengaluru,"Silk Board, Bengaluru - KSPCB",13-01-2026 08:00:00,12.917348,77.622813,NO2,23,101,56
India,Karnataka,Bengaluru,"Silk Board, Bengaluru - KSPCB",13-01-2026 08:00:00,12.917348,77.622813,CO,25,94,30
India,Karnataka,Chamarajanagar,"Urban, Chamarajanagar - KSPCB",13-01-2026 08:00:00,11.55358,76.55521,PM2.5,20,48,31
India,Karnataka,Chamarajanagar,"Urban, Chamarajanagar - KSPCB",13-01-2026 08:00:00,11.55358,76.55521,NO2,14,36,22
India,Karnataka,Chamarajanagar,"Urban, Chamarajanagar - KSPCB",13-01-2026 08:00:00,11.55358,76.55521,NH3,1,3,2
India,Karnataka,Chamarajanagar,"Urban, Chamarajanagar - KSPCB",13-01-2026 08:00:00,11.55358,76.55521,OZONE,14,38,17
India,Karnataka,Bengaluru,"Jayanagar 5th Block, Bengaluru - KSPCB",13-01-2026 08:00:00,12.920984,77.584908,CO,5,64,11
India,Karnataka,Bengaluru,"Jigani, Bengaluru - KSPCB",13-01-2026 08:00:00,12.7816279,77.6299145,PM2.5,42,53,48
India,Karnataka,Bengaluru,"Jigani, Bengaluru - KSPCB",13-01-2026 08:00:00,12.7816279,77.6299145,PM10,60,89,74
India,Karnataka,Bengaluru,"Kasturi Nagar, Bengaluru - KSPCB",13-01-2026 08:00:00,13.003872,77.664217,PM10,58,79,69
India,Karnataka,Bengaluru,"Peenya, Bengaluru - CPCB",13-01-2026 08:00:00,13.0270199,77.494094,PM2.5,18,41,28
India,Karnataka,Bengaluru,"Peenya, Bengaluru - CPCB",13-01-2026 08:00:00,13.0270199,77.494094,NO2,23,28,25
India,Karnataka,Madikeri,"Stuart Hill, Madikeri - KSPCB",13-01-2026 08:00:00,12.415911,75.735050,PM10,6,36,17
India,Karnataka,Mysuru,"Hebbal 1st Stage, Mysuru - KSPCB",13-01-2026 08:00:00,12.21041,76.37376,PM2.5,16,36,27
India,Karnataka,Mysuru,"Hebbal 1st Stage, Mysuru - KSPCB",13-01-2026 08:00:00,12.21041,76.37376,SO2,2,6,4
India,Karnataka,Ramanagara,"Vijay Nagar, Ramanagara - KSPCB",13-01-2026 08:00:00,12.733409,77.298051,PM2.5,9,63,38
India,Karnataka,Ramanagara,"Vijay Nagar, Ramanagara - KSPCB",13-01-2026 08:00:00,12.733409,77.298051,OZONE,14,54,38
India,Karnataka,Tumakuru,"Thimmalapura, Tumakuru - KSPCB",13-01-2026 08:00:00,13.377516,77.099072,CO,NA,NA,NA
India,Karnataka,Vijayapura,"Ibrahimpur, Vijayapura - KSPCB",13-01-2026 08:00:00,16.802639,75.722694,CO,12,119,34
India,Karnataka,Vijayapura,"Ibrahimpur, Vijayapura - KSPCB",13-01-2026 08:00:00,16.802639,75.722694,OZONE,14,17,16
India,Karnataka,Yadgir,"Collector Office, Yadgir - KSPCB",13-01-2026 08:00:00,16.7602,77.1428,OZONE,18,19,18
India,Karnataka,Dharwad,"Kalabhavan, Dharwad - KSPCB",13-01-2026 08:00:00,15.459706,75.008381,SO2,6,12,7
India,Karnataka,Dharwad,"Kalabhavan, Dharwad - KSPCB",13-01-2026 08:00:00,15.459706,75.008381,OZONE,7,39,30
India,Karnataka,Hubballi,"Lingaraj Nagar, Hubballi - KSPCB",13-01-2026 08:00:00,15.3714823,75.1160168,NH3,1,2,2
India,Karnataka,Hubballi,"Lingaraj Nagar, Hubballi - KSPCB",13-01-2026 08:00:00,15.3714823,75.1160168,CO,16,25,17
India,Kerala,Kannur,"Thavakkara, Kannur - Kerala PCB",13-01-2026 08:00:00,11.875000,75.373200,PM2.5,59,74,66
India,Kerala,Kannur,"Thavakkara, Kannur - Kerala PCB",13-01-2026 08:00:00,11.875000,75.373200,NO2,15,17,16
India,Kerala,Kollam,"Polayathode, Kollam - Kerala PCB",13-01-2026 08:00:00,8.8787,76.6073,NO2,8,10,9
India,Kerala,Kollam,"Polayathode, Kollam - Kerala PCB",13-01-2026 08:00:00,8.8787,76.6073,SO2,2,3,2
India,Karnataka,Bengaluru,"BWSSB Kadabesanahalli, Bengaluru - CPCB",13-01-2026 08:00:00,12.9352049,77.6814488,OZONE,18,58,45
India,Karnataka,Bengaluru,"Bapuji Nagar, Bengaluru - KSPCB",13-01-2026 08:00:00,12.951913,77.539784,NO2,8,20,15
India,Karnataka,Bengaluru,"Hebbal, Bengaluru - KSPCB",13-01-2026 08:00:00,13.029152,77.585901,SO2,12,18,14
India,Karnataka,Bengaluru,"Hombegowda Nagar, Bengaluru - KSPCB",13-01-2026 08:00:00,12.938539,77.590100,OZONE,21,40,34
India,Karnataka,Davanagere,"Devaraj Urs Badavane, Davanagere - KSPCB",13-01-2026 08:00:00,14.475800,75.905200,PM2.5,12,121,41
India,Karnataka,Davanagere,"Devaraj Urs Badavane, Davanagere - KSPCB",13-01-2026 08:00:00,14.475800,75.905200,CO,6,14,8
India,Madhya Pradesh,Indore,"Residency Area, Indore - IMC",13-01-2026 08:00:00,22.7084,75.8815,SO2,25,28,26
India,Madhya Pradesh,Indore,"Residency Area, Indore - IMC",13-01-2026 08:00:00,22.7084,75.8815,OZONE,15,19,16
India,Madhya Pradesh,Jabalpur,"Govindh Bhavan Colony, Jabalpur - JMC",13-01-2026 08:00:00,23.163174,79.973061,PM2.5,48,120,79
India,Madhya Pradesh,Jabalpur,"Govindh Bhavan Colony, Jabalpur - JMC",13-01-2026 08:00:00,23.163174,79.973061,NH3,1,2,1
India,Madhya Pradesh,Jabalpur,"Gupteshwar, Jabalpur - JMC",13-01-2026 08:00:00,23.142888,79.916147,PM2.5,76,390,224
India,Madhya Pradesh,Jabalpur,"Gupteshwar, Jabalpur - JMC",13-01-2026 08:00:00,23.142888,79.916147,OZONE,2,221,26
India,Madhya Pradesh,Jabalpur,"Marhatal, Jabalpur - MPPCB",13-01-2026 08:00:00,23.168606,79.932247,PM2.5,56,321,222
India,Madhya Pradesh,Jabalpur,"Marhatal, Jabalpur - MPPCB",13-01-2026 08:00:00,23.168606,79.932247,NO2,17,57,31
India,Madhya Pradesh,Jabalpur,"Marhatal, Jabalpur - MPPCB",13-01-2026 08:00:00,23.168606,79.932247,CO,14,116,37
India,Madhya Pradesh,Jabalpur,"Suhagi, Jabalpur - JMC",13-01-2026 08:00:00,23.218135,79.957770,NO2,13,124,48
India,Madhya Pradesh,Jabalpur,"Suhagi, Jabalpur - JMC",13-01-2026 08:00:00,23.218135,79.957770,SO2,NA,NA,NA
India,Madhya Pradesh,Katni,"Gole Bazar, Katni - MPPCB",13-01-2026 08:00:00,23.50016,80.23284,PM2.5,46,259,119
India,Madhya Pradesh,Katni,"Gole Bazar, Katni - MPPCB",13-01-2026 08:00:00,23.50016,80.23284,SO2,10,52,29
India,Madhya Pradesh,Mandideep,"Sector-D Industrial Area, Mandideep - MPPCB",13-01-2026 08:00:00,23.108440,77.511428,PM2.5,75,331,193
India,Madhya Pradesh,Mandideep,"Sector-D Industrial Area, Mandideep - MPPCB",13-01-2026 08:00:00,23.108440,77.511428,CO,8,102,65
India,Madhya Pradesh,Pithampur,"Sector-2 Industrial Area, Pithampur - MPPCB",13-01-2026 08:00:00,22.624758,75.675238,PM2.5,90,406,214
India,Madhya Pradesh,Pithampur,"Sector-2 Industrial Area, Pithampur - MPPCB",13-01-2026 08:00:00,22.624758,75.675238,NO2,18,48,26
India,Kerala,Kollam,"Polayathode, Kollam - Kerala PCB",13-01-2026 08:00:00,8.8787,76.6073,CO,12,17,15
India,Kerala,Thiruvananthapuram,"Kariavattom, Thiruvananthapuram - Kerala PCB",13-01-2026 08:00:00,8.563700,76.886500,PM2.5,30,190,98
India,Kerala,Thiruvananthapuram,"Kariavattom, Thiruvananthapuram - Kerala PCB",13-01-2026 08:00:00,8.563700,76.886500,PM10,30,99,66
India,Kerala,Thiruvananthapuram,"Plammoodu, Thiruvananthapuram - Kerala PCB",13-01-2026 08:00:00,8.5149093,76.9435879,NO2,NA,NA,NA
India,Kerala,Thiruvananthapuram,"Plammoodu, Thiruvananthapuram - Kerala PCB",13-01-2026 08:00:00,8.5149093,76.9435879,OZONE,4,24,17
India,Kerala,Thrissur,"Corporation Ground, Thrissur - Kerala PCB",13-01-2026 08:00:00,10.532400,76.215900,PM2.5,52,62,56
India,Kerala,Thrissur,"Corporation Ground, Thrissur - Kerala PCB",13-01-2026 08:00:00,10.532400,76.215900,SO2,1,1,1
India,Madhya Pradesh,Ratlam,"Shasthri Nagar, Ratlam - IPCA Lab",13-01-2026 08:00:00,23.331731,75.045981,SO2,31,34,32
India,Madhya Pradesh,Sagar,"Civil Lines, Sagar - MPPCB",13-01-2026 08:00:00,23.838586,78.759431,SO2,4,10,7
India,Madhya Pradesh,Satna,"Bandhavgar Colony, Satna - Birla Cement",13-01-2026 08:00:00,24.58434363,80.8549414,NO2,12,13,12
India,Madhya Pradesh,Bhopal,"Idgah Hills, Bhopal - MPPCB",13-01-2026 08:00:00,23.264759,77.381568,PM2.5,57,263,136
India,Madhya Pradesh,Bhopal,"Idgah Hills, Bhopal - MPPCB",13-01-2026 08:00:00,23.264759,77.381568,NH3,5,6,5
India,Madhya Pradesh,Dewas,"Bhopal Chauraha, Dewas - MPPCB",13-01-2026 08:00:00,22.9682591,76.064118,NH3,4,34,8
India,Madhya Pradesh,Dewas,"Bhopal Chauraha, Dewas - MPPCB",13-01-2026 08:00:00,22.9682591,76.064118,OZONE,19,302,28
India,Madhya Pradesh,Gwalior,"Deen Dayal Nagar, Gwalior - MPPCB",13-01-2026 08:00:00,26.259242,78.216432,PM2.5,62,345,204
India,Madhya Pradesh,Gwalior,"Deen Dayal Nagar, Gwalior - MPPCB",13-01-2026 08:00:00,26.259242,78.216432,NH3,5,8,6
India,Madhya Pradesh,Indore,"Regional Park, Indore - IMC",13-01-2026 08:00:00,22.6780,75.8559,NO2,9,16,12
India,Madhya Pradesh,Indore,"Regional Park, Indore - IMC",13-01-2026 08:00:00,22.6780,75.8559,CO,27,40,33
India,Madhya Pradesh,Gwalior,"Maharaj Bada, Gwalior - MPPCB",13-01-2026 08:00:00,26.200388,78.147714,OZONE,16,32,16
India,Madhya Pradesh,Indore,"Residency Area, Indore - IMC",13-01-2026 08:00:00,22.7084,75.8815,PM10,49,118,77
India,Maharashtra,Belapur,"CBD Belapur, Belapur - MPCB",13-01-2026 08:00:00,19.0243902,73.0406721,SO2,11,27,19
India,Maharashtra,Bhiwandi,"Gokul Nagar, Bhiwandi - MPCB",13-01-2026 08:00:00,19.309073,73.057223,CO,14,48,43
India,Maharashtra,Boisar,"Khaira, Boisar - MPCB",13-01-2026 08:00:00,19.786089,72.757971,PM10,97,125,111
India,Maharashtra,Boisar,"Khaira, Boisar - MPCB",13-01-2026 08:00:00,19.786089,72.757971,OZONE,8,70,29
India,Maharashtra,Chandrapur,"Chauhan Colony, Chandrapur - MPCB",13-01-2026 08:00:00,19.962900,79.298714,CO,20,50,35
India,Maharashtra,Chandrapur,"MIDC Khutala, Chandrapur - MPCB",13-01-2026 08:00:00,19.9775302,79.2337086,PM10,42,138,78
India,Maharashtra,Chandrapur,"MIDC Khutala, Chandrapur - MPCB",13-01-2026 08:00:00,19.9775302,79.2337086,NH3,1,7,3
India,Maharashtra,Chandrapur,"MIDC Khutala, Chandrapur - MPCB",13-01-2026 08:00:00,19.9775302,79.2337086,SO2,8,9,9
India,Maharashtra,Chandrapur,"MIDC Khutala, Chandrapur - MPCB",13-01-2026 08:00:00,19.9775302,79.2337086,OZONE,17,19,18
India,Maharashtra,Amravati,"Shri Shivaji Science College, Amravati - MPCB",13-01-2026 08:00:00,20.939198,77.765701,SO2,4,60,45
India,Maharashtra,Aurangabad,"More Chowk Waluj, Aurangabad - MPCB",13-01-2026 08:00:00,19.8389439,75.244448,CO,14,122,39
India,Maharashtra,Aurangabad,"Rachnakar Colony, Aurangabad - MPCB",13-01-2026 08:00:00,19.863756,75.321188,PM2.5,71,234,123
India,Maharashtra,Aurangabad,"Rachnakar Colony, Aurangabad - MPCB",13-01-2026 08:00:00,19.863756,75.321188,PM10,69,141,100
India,Maharashtra,Aurangabad,"Rachnakar Colony, Aurangabad - MPCB",13-01-2026 08:00:00,19.863756,75.321188,NO2,18,100,42
India,Maharashtra,Badlapur,"Katrap, Badlapur - MPCB",13-01-2026 08:00:00,19.16485,73.23409,CO,14,64,30
India,Maharashtra,Belapur,"CBD Belapur, Belapur - MPCB",13-01-2026 08:00:00,19.0243902,73.0406721,PM2.5,2,238,118
India,Maharashtra,Malegaon,"Mahesh Nagar, Malegaon - MPCB",13-01-2026 08:00:00,20.555712,74.529236,NO2,39,47,45
India,Maharashtra,Mira-Bhayandar,"Bhayandar West, Mira-Bhayandar - MPCB",13-01-2026 08:00:00,19.296481,72.840923,PM2.5,55,144,85
India,Maharashtra,Mira-Bhayandar,"Bhayandar West, Mira-Bhayandar - MPCB",13-01-2026 08:00:00,19.296481,72.840923,PM10,74,130,111
India,Maharashtra,Mira-Bhayandar,"Bhayandar West, Mira-Bhayandar - MPCB",13-01-2026 08:00:00,19.296481,72.840923,NO2,27,94,58
India,Maharashtra,Mira-Bhayandar,"Bhayandar West, Mira-Bhayandar - MPCB",13-01-2026 08:00:00,19.296481,72.840923,OZONE,1,64,1
India,Maharashtra,Mumbai,"Bandra Kurla Complex, Mumbai - IITM",13-01-2026 08:00:00,19.053536,72.84643,NO2,NA,NA,NA
India,Maharashtra,Mumbai,"Bandra Kurla Complex, Mumbai - MPCB",13-01-2026 08:00:00,19.065931,72.862131,PM10,120,429,201
India,Maharashtra,Mumbai,"Colaba, Mumbai - MPCB",13-01-2026 08:00:00,18.910000,72.820000,PM10,66,112,88
India,Maharashtra,Mumbai,"Colaba, Mumbai - MPCB",13-01-2026 08:00:00,18.910000,72.820000,SO2,NA,NA,NA
India,Maharashtra,Mumbai,"Deonar, Mumbai - IITM",13-01-2026 08:00:00,19.04946,72.9230,NO2,29,83,49
India,Maharashtra,Mumbai,"Deonar, Mumbai - IITM",13-01-2026 08:00:00,19.04946,72.9230,SO2,1,12,5
India,Maharashtra,Mumbai,"Ghatkopar, Mumbai - BMC",13-01-2026 08:00:00,19.083694,72.920967,NO2,34,108,66
India,Maharashtra,Mumbai,"Kandivali East, Mumbai - MPCB",13-01-2026 08:00:00,19.205800,72.868200,PM2.5,3,25,11
India,Maharashtra,Mumbai,"Kandivali West, Mumbai - BMC",13-01-2026 08:00:00,19.215859,72.831718,PM2.5,62,113,79
India,Maharashtra,Dhule,"Deopur, Dhule - MPCB",13-01-2026 08:00:00,20.918946,74.776388,NO2,11,40,23
India,Maharashtra,Dhule,"Deopur, Dhule - MPCB",13-01-2026 08:00:00,20.918946,74.776388,NH3,1,1,1
India,Maharashtra,Dhule,"Deopur, Dhule - MPCB",13-01-2026 08:00:00,20.918946,74.776388,SO2,9,25,18
India,Maharashtra,Jalgaon,"Prabhat Colony, Jalgaon - MPCB",13-01-2026 08:00:00,21.001264,75.565602,PM2.5,57,152,88
India,Maharashtra,Jalna,"Old MIDC, Jalna - MPCB",13-01-2026 08:00:00,19.854616,75.905894,PM2.5,53,191,86
India,Maharashtra,Jalna,"Old MIDC, Jalna - MPCB",13-01-2026 08:00:00,19.854616,75.905894,CO,14,67,31
India,Maharashtra,Kalyan,"Khadakpada, Kalyan - MPCB",13-01-2026 08:00:00,19.25292,73.142019,OZONE,9,23,10
India,Maharashtra,Mumbai,"Byculla, Mumbai - BMC",13-01-2026 08:00:00,18.9767,72.8380,NH3,10,42,20
India,Maharashtra,Mumbai,"Chakala-Andheri East, Mumbai - IITM",13-01-2026 08:00:00,19.11074,72.86084,PM2.5,80,101,89
India,Maharashtra,Mumbai,"Chakala-Andheri East, Mumbai - IITM",13-01-2026 08:00:00,19.11074,72.86084,NO2,22,94,68
India,Maharashtra,Mumbai,"Chembur, Mumbai - MPCB",13-01-2026 08:00:00,19.0364585,72.8954371,NH3,12,18,15
India,Maharashtra,Mumbai,"Chembur, Mumbai - MPCB",13-01-2026 08:00:00,19.0364585,72.8954371,OZONE,14,97,20
India,Maharashtra,Mumbai,"Chhatrapati Shivaji Intl. Airport (T2), Mumbai - MPCB",13-01-2026 08:00:00,19.10078,72.87462,NO2,1,1,1
India,Madhya Pradesh,Ujjain,"Mahashweta Nagar, Ujjain - MPPCB",13-01-2026 08:00:00,23.1633321,75.800225,SO2,1,34,12
India,Maharashtra,Ahmednagar,"Tarakpur, Ahmednagar - MPCB",13-01-2026 08:00:00,19.10122,74.73339,PM2.5,42,99,66
India,Maharashtra,Ahmednagar,"Tarakpur, Ahmednagar - MPCB",13-01-2026 08:00:00,19.10122,74.73339,CO,24,80,32
India,Maharashtra,Akola,"Ramdaspeth, Akola - MPCB",13-01-2026 08:00:00,20.719516,77.000253,PM2.5,41,100,59
India,Maharashtra,Amravati,"Shivneri Colony, Amravati - MPCB",13-01-2026 08:00:00,20.9402359,77.7895248,OZONE,17,97,31
India,Maharashtra,Kalyan,"Pimpleshwar Mandir, Kalyan - MPCB",13-01-2026 08:00:00,19.192056,72.9585188,OZONE,5,175,8
India,Maharashtra,Kolhapur,"Shivaji University, Kolhapur - MPCB",13-01-2026 08:00:00,16.6870449,74.2505872,SO2,NA,NA,NA
India,Maharashtra,Kolhapur,"Sinchan Bhavan, Kolhapur - MPCB",13-01-2026 08:00:00,16.7143745,74.2426398,NO2,19,61,38
India,Maharashtra,Mahad,"Kamble Tarf Birwadi, Mahad - MPCB",13-01-2026 08:00:00,18.1023399,73.4783687,PM2.5,49,97,67
India,Maharashtra,Mahad,"Kamble Tarf Birwadi, Mahad - MPCB",13-01-2026 08:00:00,18.1023399,73.4783687,PM10,67,150,96
India,Maharashtra,Mumbai,"Kherwadi_Bandra East, Mumbai - MPCB",13-01-2026 08:00:00,19.0632143,72.8456324,CO,11,44,37
India,Maharashtra,Mumbai,"Kherwadi_Bandra East, Mumbai - MPCB",13-01-2026 08:00:00,19.0632143,72.8456324,OZONE,3,98,3
India,Maharashtra,Pimpri-Chinchwad,"Gavalinagar, Pimpri Chinchwad - MPCB",13-01-2026 08:00:00,18.63673,73.82487,NH3,8,19,11
India,Maharashtra,Pimpri-Chinchwad,"Gavalinagar, Pimpri Chinchwad - MPCB",13-01-2026 08:00:00,18.63673,73.82487,CO,24,76,40
India,Maharashtra,Pimpri-Chinchwad,"Park Street Wakad, Pimpri Chinchwad - MPCB",13-01-2026 08:00:00,18.59051,73.77946,PM2.5,NA,NA,NA
India,Maharashtra,Pimpri-Chinchwad,"Park Street Wakad, Pimpri Chinchwad - MPCB",13-01-2026 08:00:00,18.59051,73.77946,SO2,NA,NA,NA
India,Maharashtra,Pimpri-Chinchwad,"Thergaon, Pimpri Chinchwad - MPCB",13-01-2026 08:00:00,18.616318,73.765797,SO2,2,6,3
India,Maharashtra,Pune,"Bhumkar Nagar, Pune - IITM",13-01-2026 08:00:00,18.605770,73.749976,PM2.5,92,321,216
India,Maharashtra,Pune,"Bhumkar Nagar, Pune - IITM",13-01-2026 08:00:00,18.605770,73.749976,NO2,50,129,77
India,Maharashtra,Pune,"Bhumkar Nagar, Pune - IITM",13-01-2026 08:00:00,18.605770,73.749976,OZONE,1,80,22
India,Maharashtra,Pune,"Hadapsar, Pune - IITM",13-01-2026 08:00:00,18.501793,73.927532,PM10,NA,NA,NA
India,Maharashtra,Nagpur,"Ram Nagar, Nagpur - MPCB",13-01-2026 08:00:00,21.143383,79.048912,OZONE,4,53,14
India,Maharashtra,Nanded,"Sneh Nagar, Nanded - MPCB",13-01-2026 08:00:00,19.173852,77.296291,NH3,3,5,4
India,Maharashtra,Nanded,"Sneh Nagar, Nanded - MPCB",13-01-2026 08:00:00,19.173852,77.296291,SO2,8,10,9
India,Maharashtra,Nashik,"Gangapur Road, Nashik - MPCB",13-01-2026 08:00:00,20.0073285,73.7762427,PM2.5,18,198,102
India,Maharashtra,Nashik,"Gangapur Road, Nashik - MPCB",13-01-2026 08:00:00,20.0073285,73.7762427,PM10,26,160,100
India,Maharashtra,Nashik,"Gangapur Road, Nashik - MPCB",13-01-2026 08:00:00,20.0073285,73.7762427,NO2,5,5,5
India,Maharashtra,Nashik,"Gangapur Road, Nashik - MPCB",13-01-2026 08:00:00,20.0073285,73.7762427,CO,21,22,22
India,Maharashtra,Nashik,"Hirawadi, Nashik - MPCB",13-01-2026 08:00:00,20.021503,73.813844,NH3,1,2,2
India,Maharashtra,Nashik,"MIDC Ambad, Nashik - MPCB",13-01-2026 08:00:00,19.950220,73.731480,NO2,20,109,46
India,Maharashtra,Mumbai,"Sewri, Mumbai - BMC",13-01-2026 08:00:00,19.000084,72.856730,NO2,21,138,81
India,Maharashtra,Mumbai,"Sewri, Mumbai - BMC",13-01-2026 08:00:00,19.000084,72.856730,NH3,3,32,16
India,Maharashtra,Mumbai,"Sewri, Mumbai - BMC",13-01-2026 08:00:00,19.000084,72.856730,OZONE,NA,NA,NA
India,Maharashtra,Mumbai,"Shivaji Nagar, Mumbai - BMC",13-01-2026 08:00:00,19.060498,72.923356,PM2.5,33,71,50
India,Maharashtra,Mumbai,"Siddharth Nagar-Worli, Mumbai - IITM",13-01-2026 08:00:00,19.000083,72.813993,NH3,NA,NA,NA
India,Maharashtra,Mumbai,"Sion, Mumbai - MPCB",13-01-2026 08:00:00,19.047000,72.874600,PM10,47,180,105
India,Maharashtra,Mumbai,"Vile Parle West, Mumbai - MPCB",13-01-2026 08:00:00,19.10861,72.83622,NO2,11,11,11
India,Maharashtra,Mumbai,"Mazgaon, Mumbai - IITM",13-01-2026 08:00:00,18.96702,72.84214,SO2,15,31,21
India,Maharashtra,Mumbai,"Mindspace-Malad West, Mumbai - MPCB",13-01-2026 08:00:00,19.1878657,72.8304069,PM10,54,117,103
India,Maharashtra,Mumbai,"Mindspace-Malad West, Mumbai - MPCB",13-01-2026 08:00:00,19.1878657,72.8304069,NH3,1,38,7
India,Maharashtra,Mumbai,"Mulund West, Mumbai - MPCB",13-01-2026 08:00:00,19.1750,72.9419,PM2.5,54,113,78
India,Maharashtra,Mumbai,"Navy Nagar-Colaba, Mumbai - IITM",13-01-2026 08:00:00,18.897756,72.813320,NO2,40,190,120
India,Maharashtra,Mumbai,"Navy Nagar-Colaba, Mumbai - IITM",13-01-2026 08:00:00,18.897756,72.813320,OZONE,16,61,27
India,Maharashtra,Nashik,"Pandav Nagari, Nashik - MPCB",13-01-2026 08:00:00,19.9591346,73.7788008,OZONE,13,67,32
India,Maharashtra,Navi Mumbai,"Kopripada-Vashi, Navi Mumbai - MPCB",13-01-2026 08:00:00,19.090337,73.014232,NH3,5,8,7
India,Maharashtra,Navi Mumbai,"Kopripada-Vashi, Navi Mumbai - MPCB",13-01-2026 08:00:00,19.090337,73.014232,SO2,21,33,25
India,Maharashtra,Navi Mumbai,"Kopripada-Vashi, Navi Mumbai - MPCB",13-01-2026 08:00:00,19.090337,73.014232,CO,13,48,36
India,Maharashtra,Navi Mumbai,"Kopripada-Vashi, Navi Mumbai - MPCB",13-01-2026 08:00:00,19.090337,73.014232,OZONE,1,63,8
India,Maharashtra,Mumbai,"Vile Parle West, Mumbai - MPCB",13-01-2026 08:00:00,19.10861,72.83622,NH3,6,6,6
India,Maharashtra,Mumbai,"Vile Parle West, Mumbai - MPCB",13-01-2026 08:00:00,19.10861,72.83622,SO2,48,51,50
India,Maharashtra,Mumbai,"Vile Parle West, Mumbai - MPCB",13-01-2026 08:00:00,19.10861,72.83622,CO,78,91,81
India,Maharashtra,Nagpur,"Opp GPO Civil Lines, Nagpur - MPCB",13-01-2026 08:00:00,21.152875,79.0517531,PM2.5,65,246,140
India,Maharashtra,Navi Mumbai,"Sanpada, Navi Mumbai - MPCB",13-01-2026 08:00:00,19.0575752,73.0151367,PM2.5,48,158,95
India,Maharashtra,Navi Mumbai,"Tondare-Taloja, Navi Mumbai - MPCB",13-01-2026 08:00:00,19.0630,73.1209,PM10,51,112,93
India,Maharashtra,Navi Mumbai,"Tondare-Taloja, Navi Mumbai - MPCB",13-01-2026 08:00:00,19.0630,73.1209,NO2,16,69,35
India,Maharashtra,Mumbai,"Kurla, Mumbai - MPCB",13-01-2026 08:00:00,19.0863,72.8888,PM2.5,73,103,88
India,Maharashtra,Mumbai,"Kurla, Mumbai - MPCB",13-01-2026 08:00:00,19.0863,72.8888,NH3,1,2,2
India,Maharashtra,Mumbai,"Malad West, Mumbai - IITM",13-01-2026 08:00:00,19.19709,72.82204,SO2,1,24,7
India,Maharashtra,Pune,"Panchawati_Pashan, Pune - IITM",13-01-2026 08:00:00,18.536457,73.805454,PM2.5,NA,NA,NA
India,Maharashtra,Pune,"Savitribai Phule Pune University, Pune - MPCB",13-01-2026 08:00:00,18.547056,73.826908,PM2.5,39,121,79
India,Meghalaya,Shillong,"Lumpyngngad, Shillong - Meghalaya PCB",13-01-2026 08:00:00,25.5586,91.8985,SO2,6,11,8
India,Meghalaya,Shillong,"Lumpyngngad, Shillong - Meghalaya PCB",13-01-2026 08:00:00,25.5586,91.8985,CO,2,16,2
India,Mizoram,Aizawl,"Sikulpuikawn, Aizawl - Mizoram PCB",13-01-2026 08:00:00,23.7176342,92.7192841,PM2.5,54,63,58
India,Mizoram,Aizawl,"Sikulpuikawn, Aizawl - Mizoram PCB",13-01-2026 08:00:00,23.7176342,92.7192841,PM10,49,52,51
India,Nagaland,Kohima,"PWD Junction, Kohima - NPCB",13-01-2026 08:00:00,25.6635413,94.0989878,NO2,3,4,3
India,Nagaland,Kohima,"PWD Junction, Kohima - NPCB",13-01-2026 08:00:00,25.6635413,94.0989878,CO,4,20,6
India,Odisha,Angul,"Hakimapada, Angul - OSPCB",13-01-2026 08:00:00,20.832874,85.104082,PM10,101,255,141
India,Odisha,Angul,"Hakimapada, Angul - OSPCB",13-01-2026 08:00:00,20.832874,85.104082,OZONE,29,174,40
India,Punjab,Khanna,"Kalal Majra, Khanna - PPCB",13-01-2026 08:00:00,30.736056 ,76.209694,PM10,88,145,120
India,Punjab,Khanna,"Kalal Majra, Khanna - PPCB",13-01-2026 08:00:00,30.736056 ,76.209694,NH3,7,8,7
India,Punjab,Khanna,"Kalal Majra, Khanna - PPCB",13-01-2026 08:00:00,30.736056 ,76.209694,SO2,7,13,10
India,Punjab,Ludhiana,"Punjab Agricultural University, Ludhiana - PPCB",13-01-2026 08:00:00,30.9028,75.8086,SO2,9,38,18
India,Punjab,Patiala,"Model Town, Patiala - PPCB",13-01-2026 08:00:00,30.349388,76.366642,NO2,16,19,18
India,Punjab,Rupnagar,"Ratanpura, Rupnagar - Ambuja Cements",13-01-2026 08:00:00,31.0325454,76.5623046,PM2.5,NA,NA,NA
India,Punjab,Rupnagar,"Ratanpura, Rupnagar - Ambuja Cements",13-01-2026 08:00:00,31.0325454,76.5623046,PM10,NA,NA,NA
India,Punjab,Amritsar,"Golden Temple, Amritsar - PPCB",13-01-2026 08:00:00,31.620000,74.876512,PM2.5,24,183,98
India,Punjab,Amritsar,"Golden Temple, Amritsar - PPCB",13-01-2026 08:00:00,31.620000,74.876512,NO2,6,113,18
India,Punjab,Bathinda,"Hardev Nagar, Bathinda - PPCB",13-01-2026 08:00:00,30.233011,74.907758,CO,76,79,78
India,Punjab,Jalandhar,"Civil Line, Jalandhar - PPCB",13-01-2026 08:00:00,31.321907,75.578914,PM2.5,62,174,105
India,Punjab,Jalandhar,"Civil Line, Jalandhar - PPCB",13-01-2026 08:00:00,31.321907,75.578914,NO2,37,41,38
India,Punjab,Jalandhar,"Civil Line, Jalandhar - PPCB",13-01-2026 08:00:00,31.321907,75.578914,NH3,4,6,4
India,Punjab,Jalandhar,"Civil Line, Jalandhar - PPCB",13-01-2026 08:00:00,31.321907,75.578914,OZONE,7,55,36
India,Odisha,Balasore,"Kalidaspur, Balasore - OSPCB",13-01-2026 08:00:00,21.51161,86.89088,OZONE,10,59,22
India,Odisha,Barbil,"Forest Office, Barbil - OSPCB",13-01-2026 08:00:00,22.1166054,85.3945546,SO2,9,31,16
India,Odisha,Baripada,"Meher Colony, Baripada - OSPCB",13-01-2026 08:00:00,21.941841,86.728318,NO2,4,62,30
India,Odisha,Baripada,"Meher Colony, Baripada - OSPCB",13-01-2026 08:00:00,21.941841,86.728318,SO2,9,21,12
India,Odisha,Baripada,"Meher Colony, Baripada - OSPCB",13-01-2026 08:00:00,21.941841,86.728318,OZONE,8,91,32
India,Odisha,Bhubaneswar,"Lingraj Mandir, Bhubaneswar - OSPCB",13-01-2026 08:00:00,20.240790,85.836784,NH3,7,12,10
India,Odisha,Bhubaneswar,"Patia, Bhubaneswar - OSPCB",13-01-2026 08:00:00,20.34652,85.81630,SO2,3,33,13
India,Odisha,Brajrajnagar,"GM Office, Brajrajnagar - OSPCB",13-01-2026 08:00:00,21.8004996,83.8396977,CO,39,68,47
India,Odisha,Byasanagar,"Ferro Chrome Colony, Byasanagar - OSPCB",13-01-2026 08:00:00,20.94185,86.11510,PM10,65,189,114
India,Odisha,Byasanagar,"Ferro Chrome Colony, Byasanagar - OSPCB",13-01-2026 08:00:00,20.94185,86.11510,NH3,2,3,2
India,Odisha,Byasanagar,"Ferro Chrome Colony, Byasanagar - OSPCB",13-01-2026 08:00:00,20.94185,86.11510,CO,22,114,69
India,Odisha,Byasanagar,"Ferro Chrome Colony, Byasanagar - OSPCB",13-01-2026 08:00:00,20.94185,86.11510,OZONE,42,167,70
India,Maharashtra,Pune,"Savitribai Phule Pune University, Pune - MPCB",13-01-2026 08:00:00,18.547056,73.826908,OZONE,1,116,1
India,Maharashtra,Pune,"Transport Nagar-Nigdi, Pune - IITM",13-01-2026 08:00:00,18.664282,73.763966,PM10,NA,NA,NA
India,Maharashtra,Solapur,"Dnyaneshwar Nagar, Solapur - MPCB",13-01-2026 08:00:00,17.6336264,75.9132495,NH3,6,18,10
India,Maharashtra,Solapur,"Ratandeep Housing Society, Solapur - MPCB",13-01-2026 08:00:00,17.65439,75.90649,NH3,2,8,4
India,Odisha,Rourkela,"Fertilizer Township, Rourkela - OSPCB",13-01-2026 08:00:00,22.18972222,84.86277778,CO,16,32,23
India,Odisha,Rourkela,"Sector-2, Rourkela - OSPCB",13-01-2026 08:00:00,22.24500000,84.88111111,PM2.5,85,202,107
India,Odisha,Suakati,"OMC Colony, Suakati - OSPCB",13-01-2026 08:00:00,21.606865,85.510538,PM2.5,98,247,185
India,Odisha,Suakati,"OMC Colony, Suakati - OSPCB",13-01-2026 08:00:00,21.606865,85.510538,PM10,108,137,119
India,Maharashtra,Thane,"Upvan Fort, Thane - MPCB",13-01-2026 08:00:00,19.222279,72.957979,PM2.5,53,121,75
India,Maharashtra,Thane,"Upvan Fort, Thane - MPCB",13-01-2026 08:00:00,19.222279,72.957979,CO,12,42,32
India,Maharashtra,Ulhasnagar,"Sidhi Vinayak Nagar, Ulhasnagar - MPCB",13-01-2026 08:00:00,19.235581,73.159121,PM2.5,48,309,155
India,Maharashtra,Ulhasnagar,"Sidhi Vinayak Nagar, Ulhasnagar - MPCB",13-01-2026 08:00:00,19.235581,73.159121,NH3,1,6,4
India,Maharashtra,Ulhasnagar,"Sidhi Vinayak Nagar, Ulhasnagar - MPCB",13-01-2026 08:00:00,19.235581,73.159121,OZONE,11,67,13
India,Odisha,Nayagarh,"Dabuna, Nayagarh - OSPCB",13-01-2026 08:00:00,21.847279,85.416905,NO2,9,10,10
India,Odisha,Rairangpur,"Divisional Forest Office, Rairangpur - OSPCB",13-01-2026 08:00:00,22.265816,86.174829,NO2,11,11,11
India,Rajasthan,Jaipur,"Adarsh Nagar, Jaipur - RSPCB",13-01-2026 08:00:00,26.902909,75.836858,CO,33,58,35
India,Rajasthan,Jaipur,"Adarsh Nagar, Jaipur - RSPCB",13-01-2026 08:00:00,26.902909,75.836858,OZONE,26,62,48
India,Rajasthan,Jaipur,"Mansarovar Sector-12, Jaipur - RSPCB",13-01-2026 08:00:00,26.843698,75.766894,NO2,7,77,23
India,Rajasthan,Jaipur,"Mansarovar Sector-12, Jaipur - RSPCB",13-01-2026 08:00:00,26.843698,75.766894,SO2,6,10,8
India,Rajasthan,Jaipur,"Mansarovar Sector-12, Jaipur - RSPCB",13-01-2026 08:00:00,26.843698,75.766894,OZONE,6,179,119
India,Rajasthan,Jaipur,"Police Commissionerate, Jaipur - RSPCB",13-01-2026 08:00:00,26.9164092,75.7994901,NO2,123,157,143
India,Rajasthan,Jaipur,"Police Commissionerate, Jaipur - RSPCB",13-01-2026 08:00:00,26.9164092,75.7994901,CO,38,61,44
India,Rajasthan,Jaipur,"Police Commissionerate, Jaipur - RSPCB",13-01-2026 08:00:00,26.9164092,75.7994901,OZONE,15,73,40
India,Rajasthan,Jaipur,"RIICO Sitapura, Jaipur - RSPCB",13-01-2026 08:00:00,26.786682,75.827928,PM10,NA,NA,NA
India,Rajasthan,Jaipur,"RIICO Sitapura, Jaipur - RSPCB",13-01-2026 08:00:00,26.786682,75.827928,NO2,NA,NA,NA
India,Rajasthan,Jaipur,"RIICO Sitapura, Jaipur - RSPCB",13-01-2026 08:00:00,26.786682,75.827928,OZONE,NA,NA,NA
India,Rajasthan,Jaipur,"Sector-2 Murlipura, Jaipur - RSPCB",13-01-2026 08:00:00,26.960669,75.771817,NO2,15,137,63
India,Rajasthan,Jhalawar,"Rajlaxmi Nagar, Jhalawar - RSPCB",13-01-2026 08:00:00,24.588397,76.172782,NO2,44,62,53
India,Rajasthan,Jhalawar,"Rajlaxmi Nagar, Jhalawar - RSPCB",13-01-2026 08:00:00,24.588397,76.172782,SO2,2,21,14
India,Rajasthan,Jodhpur,"Collectorate, Jodhpur - RSPCB",13-01-2026 08:00:00,26.268249,73.0193853,PM2.5,27,329,108
India,Rajasthan,Jodhpur,"Collectorate, Jodhpur - RSPCB",13-01-2026 08:00:00,26.268249,73.0193853,NO2,7,34,23
India,Rajasthan,Jodhpur,"Collectorate, Jodhpur - RSPCB",13-01-2026 08:00:00,26.268249,73.0193853,OZONE,3,98,5
India,Rajasthan,Jodhpur,"Digari Kalan, Jodhpur - RSPCB",13-01-2026 08:00:00,26.295810,73.082283,NO2,17,110,49
India,Rajasthan,Jodhpur,"Digari Kalan, Jodhpur - RSPCB",13-01-2026 08:00:00,26.295810,73.082283,NH3,5,19,9
India,Rajasthan,Jodhpur,"Digari Kalan, Jodhpur - RSPCB",13-01-2026 08:00:00,26.295810,73.082283,SO2,3,12,6
India,Rajasthan,Jodhpur,"Jhalamand, Jodhpur - RSPCB",13-01-2026 08:00:00,26.215415,73.070156,PM10,96,500,195
India,Rajasthan,Jodhpur,"Jhalamand, Jodhpur - RSPCB",13-01-2026 08:00:00,26.215415,73.070156,NO2,9,111,42
India,Rajasthan,Jodhpur,"Jhalamand, Jodhpur - RSPCB",13-01-2026 08:00:00,26.215415,73.070156,CO,14,103,58
India,Rajasthan,Jodhpur,"Mandor, Jodhpur - RSPCB",13-01-2026 08:00:00,26.358805,73.047444,SO2,3,14,8
India,Rajasthan,Jodhpur,"Samrat Ashok Udhyan, Jodhpur - RSPCB",13-01-2026 08:00:00,26.253384,72.976571,CO,17,121,66
India,Rajasthan,Jodhpur,"Samrat Ashok Udhyan, Jodhpur - RSPCB",13-01-2026 08:00:00,26.253384,72.976571,OZONE,3,174,24
India,Rajasthan,Karauli,"Satyawati Vihar, Karauli - RSPCB",13-01-2026 08:00:00,26.506177,77.025989,NH3,8,14,11
India,Rajasthan,Karauli,"Satyawati Vihar, Karauli - RSPCB",13-01-2026 08:00:00,26.506177,77.025989,OZONE,9,106,36
India,Rajasthan,Kota,"Dhanmandi, Kota - RSPCB",13-01-2026 08:00:00,25.164090,75.858137,NH3,1,4,3
India,Rajasthan,Kota,"Dhanmandi, Kota - RSPCB",13-01-2026 08:00:00,25.164090,75.858137,CO,1,192,47
India,Rajasthan,Kota,"Dhanmandi, Kota - RSPCB",13-01-2026 08:00:00,25.164090,75.858137,OZONE,4,112,11
India,Rajasthan,Bhiwadi,"Vasundhara Nagar_UIT, Bhiwadi - RSPCB",13-01-2026 08:00:00,28.207266,76.829265,SO2,6,20,10
India,Rajasthan,Bikaner,"MM Ground, Bikaner - RSPCB",13-01-2026 08:00:00,28.018792,73.292658,PM2.5,75,415,264
India,Rajasthan,Bikaner,"MM Ground, Bikaner - RSPCB",13-01-2026 08:00:00,28.018792,73.292658,NO2,14,112,51
India,Rajasthan,Bikaner,"MM Ground, Bikaner - RSPCB",13-01-2026 08:00:00,28.018792,73.292658,SO2,1,12,8
India,Rajasthan,Chittorgarh,"Shastri Nagar, Chittorgarh - RSPCB",13-01-2026 08:00:00,24.892047,74.623527,NH3,3,7,5
India,Rajasthan,Chittorgarh,"Shastri Nagar, Chittorgarh - RSPCB",13-01-2026 08:00:00,24.892047,74.623527,CO,2,84,27
India,Rajasthan,Churu,"Subash Chowk, Churu - RSPCB",13-01-2026 08:00:00,28.296139,74.961696,OZONE,34,134,59
India,Rajasthan,Dausa,"Khatikan Mohalla, Dausa - RSPCB",13-01-2026 08:00:00,26.895552,76.334753,PM10,49,165,82
India,Rajasthan,Dholpur,"Raja Ganj, Dholpur - RSPCB",13-01-2026 08:00:00,26.699557,77.898881,PM2.5,47,233,137
India,Rajasthan,Dholpur,"Raja Ganj, Dholpur - RSPCB",13-01-2026 08:00:00,26.699557,77.898881,CO,38,103,68
India,Rajasthan,Dungarpur,"Bhoiwada, Dungarpur - RSPCB",13-01-2026 08:00:00,23.837789,73.714926,SO2,3,15,7
India,Rajasthan,Hanumangarh,"Housing Board, Hanumangarh - RSPCB",13-01-2026 08:00:00,29.610750,74.283608,PM2.5,38,197,90
India,Rajasthan,Jaipur,"Adarsh Nagar, Jaipur - RSPCB",13-01-2026 08:00:00,26.902909,75.836858,PM2.5,81,176,119
India,Rajasthan,Kota,"Nayapura, Kota - RSPCB",13-01-2026 08:00:00,25.196024,75.855668,PM2.5,83,310,192
India,Rajasthan,Kota,"Shrinath Puram, Kota - RSPCB",13-01-2026 08:00:00,25.14389,75.821256,PM2.5,206,348,303
India,Rajasthan,Kota,"Shrinath Puram, Kota - RSPCB",13-01-2026 08:00:00,25.14389,75.821256,PM10,121,190,157
India,Rajasthan,Kota,"Shrinath Puram, Kota - RSPCB",13-01-2026 08:00:00,25.14389,75.821256,NO2,9,17,11
India,Rajasthan,Nagaur,"Karni Colony, Nagaur - RSPCB",13-01-2026 08:00:00,27.213494,73.734444,PM2.5,65,335,165
India,Rajasthan,Pali,"Indira Colony Vistar, Pali - RSPCB",13-01-2026 08:00:00,25.771061, 73.340227,PM2.5,81,310,203
India,Punjab,Rupnagar,"Ratanpura, Rupnagar - Ambuja Cements",13-01-2026 08:00:00,31.0325454,76.5623046,CO,NA,NA,NA
India,Rajasthan,Alwar,"Moti Doongri, Alwar - RSPCB",13-01-2026 08:00:00,27.554793,76.611536,PM10,103,160,125
India,Rajasthan,Alwar,"Moti Doongri, Alwar - RSPCB",13-01-2026 08:00:00,27.554793,76.611536,NO2,41,70,46
India,Rajasthan,Alwar,"Moti Doongri, Alwar - RSPCB",13-01-2026 08:00:00,27.554793,76.611536,SO2,6,44,28
India,Rajasthan,Alwar,"Moti Doongri, Alwar - RSPCB",13-01-2026 08:00:00,27.554793,76.611536,OZONE,14,28,17
India,Rajasthan,Baran,"Bamboliya, Baran - RSPCB",13-01-2026 08:00:00,25.106006,76.469948,PM10,114,182,137
India,Rajasthan,Jaipur,"Sector-2 Murlipura, Jaipur - RSPCB",13-01-2026 08:00:00,26.960669,75.771817,SO2,3,6,4
India,Rajasthan,Jaipur,"Shastri Nagar, Jaipur - RSPCB",13-01-2026 08:00:00,26.9502929,75.730943,PM10,NA,NA,NA
India,Rajasthan,Jalore,"Mudtra Sili, Jalore - RSPCB",13-01-2026 08:00:00,25.344694,72.626208,NO2,24,157,66
India,Rajasthan,Jalore,"Mudtra Sili, Jalore - RSPCB",13-01-2026 08:00:00,25.344694,72.626208,OZONE,4,108,32
India,Rajasthan,Bhiwadi,"RIICO Ind. Area III, Bhiwadi - RSPCB",13-01-2026 08:00:00,28.194909,76.862296,SO2,7,29,18
India,TamilNadu,Madurai,"Uchapatti, Madurai - TNPCB",13-01-2026 08:00:00,9.865935,78.022669,NH3,9,9,9
India,TamilNadu,Madurai,"Uchapatti, Madurai - TNPCB",13-01-2026 08:00:00,9.865935,78.022669,OZONE,1,1,1
India,TamilNadu,Nagapattinam,"Velippalayam, Nagapattinam - TNPCB",13-01-2026 08:00:00,10.798548,79.838212,PM2.5,NA,NA,NA
India,TamilNadu,Perundurai,"SIPCOT Industrial Park, Perundurai - TNPCB",13-01-2026 08:00:00,11.258242,77.552761,PM10,33,87,56
India,TamilNadu,Perundurai,"SIPCOT Industrial Park, Perundurai - TNPCB",13-01-2026 08:00:00,11.258242,77.552761,NH3,2,9,3
India,TamilNadu,Perundurai,"SIPCOT Industrial Park, Perundurai - TNPCB",13-01-2026 08:00:00,11.258242,77.552761,CO,24,34,34
India,TamilNadu,Pudukottai,"SIPCOT Nathampannai, Pudukottai - TNPCB",13-01-2026 08:00:00,10.423417,78.784889,PM2.5,55,82,67
India,TamilNadu,Pudukottai,"SIPCOT Nathampannai, Pudukottai - TNPCB",13-01-2026 08:00:00,10.423417,78.784889,NH3,1,1,1
India,TamilNadu,Ramanathapuram,"Chalai Bazaar, Ramanathapuram - TNPCB",13-01-2026 08:00:00,9.36399,78.831977,SO2,3,7,4
India,TamilNadu,Ramanathapuram,"Chalai Bazaar, Ramanathapuram - TNPCB",13-01-2026 08:00:00,9.36399,78.831977,CO,16,20,17
India,TamilNadu,Ramanathapuram,"Chalai Bazaar, Ramanathapuram - TNPCB",13-01-2026 08:00:00,9.36399,78.831977,OZONE,5,6,5
India,TamilNadu,Chennai,"Manali, Chennai - CPCB",13-01-2026 08:00:00,13.164544,80.26285,SO2,8,16,14
India,TamilNadu,Chennai,"Manali, Chennai - CPCB",13-01-2026 08:00:00,13.164544,80.26285,OZONE,10,12,11
India,TamilNadu,Chennai,"Perungudi, Chennai - TNPCB",13-01-2026 08:00:00,12.9533,80.2357,PM10,61,80,72
India,TamilNadu,Chennai,"Perungudi, Chennai - TNPCB",13-01-2026 08:00:00,12.9533,80.2357,OZONE,5,35,7
India,TamilNadu,Chennai,"Royapuram, Chennai - TNPCB",13-01-2026 08:00:00,13.1036,80.2909,PM2.5,6,63,25
India,TamilNadu,Chennai,"Royapuram, Chennai - TNPCB",13-01-2026 08:00:00,13.1036,80.2909,NH3,NA,NA,NA
India,TamilNadu,Chennai,"Velachery Res. Area, Chennai - CPCB",13-01-2026 08:00:00,13.0052189,80.2398125,SO2,5,8,6
India,TamilNadu,Coimbatore,"PSG College of Arts and Science, Coimbatore - TNPCB",13-01-2026 08:00:00,11.0328,77.0349,SO2,2,4,3
India,Telangana,Hyderabad,"IDA Pashamylaram, Hyderabad - TSPCB",13-01-2026 08:00:00,17.5316895,78.218939,SO2,8,23,12
India,Telangana,Hyderabad,"IDA Pashamylaram, Hyderabad - TSPCB",13-01-2026 08:00:00,17.5316895,78.218939,CO,30,114,36
India,Telangana,Hyderabad,"IITH Kandi, Hyderabad - TSPCB",13-01-2026 08:00:00,17.585705,78.126199,PM10,63,88,70
India,Telangana,Hyderabad,"Kokapet, Hyderabad - TSPCB",13-01-2026 08:00:00,17.393559,78.339194,PM2.5,54,69,60
India,Telangana,Hyderabad,"Kokapet, Hyderabad - TSPCB",13-01-2026 08:00:00,17.393559,78.339194,PM10,79,98,87
India,Telangana,Hyderabad,"Kokapet, Hyderabad - TSPCB",13-01-2026 08:00:00,17.393559,78.339194,NO2,10,15,12
India,Telangana,Hyderabad,"Kompally Municipal Office, Hyderabad - TSPCB",13-01-2026 08:00:00,17.544899,78.486949,NO2,12,14,14
India,TamilNadu,Cuddalore,"Semmandalam, Cuddalore - TNPCB",13-01-2026 08:00:00,11.7637683,79.7499835,NO2,4,21,13
India,TamilNadu,Cuddalore,"Semmandalam, Cuddalore - TNPCB",13-01-2026 08:00:00,11.7637683,79.7499835,NH3,1,3,2
India,TamilNadu,Cuddalore,"Semmandalam, Cuddalore - TNPCB",13-01-2026 08:00:00,11.7637683,79.7499835,OZONE,1,2,2
India,TamilNadu,Dindigul,"Mendonsa Colony, Dindigul - TNPCB",13-01-2026 08:00:00,10.358535,77.984321,NH3,NA,NA,NA
India,TamilNadu,Gummidipoondi,"Anthoni Pillai Nagar, Gummidipoondi - TNPCB",13-01-2026 08:00:00,13.4127,80.1081,PM2.5,49,395,152
India,TamilNadu,Gummidipoondi,"Anthoni Pillai Nagar, Gummidipoondi - TNPCB",13-01-2026 08:00:00,13.4127,80.1081,NO2,1,12,4
India,TamilNadu,Gummidipoondi,"Anthoni Pillai Nagar, Gummidipoondi - TNPCB",13-01-2026 08:00:00,13.4127,80.1081,SO2,1,75,33
India,Rajasthan,Tonk,"Shastri Nagar, Tonk - RSPCB",13-01-2026 08:00:00,26.159933,75.780517,OZONE,3,114,30
India,Rajasthan,Udaipur,"Ashok Nagar, Udaipur - RSPCB",13-01-2026 08:00:00,24.5886166,73.6321397,NO2,16,57,32
India,Rajasthan,Udaipur,"Ashok Nagar, Udaipur - RSPCB",13-01-2026 08:00:00,24.5886166,73.6321397,SO2,7,10,8
India,Sikkim,Gangtok,"Zero Point GICI, Gangtok - SSPCB",13-01-2026 08:00:00,27.338530,88.614099,PM2.5,8,49,27
India,Sikkim,Gangtok,"Zero Point GICI, Gangtok - SSPCB",13-01-2026 08:00:00,27.338530,88.614099,PM10,NA,NA,NA
India,Sikkim,Gangtok,"Zero Point GICI, Gangtok - SSPCB",13-01-2026 08:00:00,27.338530,88.614099,CO,1,12,3
India,TamilNadu,Chennai,"Arumbakkam, Chennai - TNPCB",13-01-2026 08:00:00,13.0664,80.2112 ,SO2,2,6,3
India,TamilNadu,Chennai,"Kodungaiyur, Chennai - TNPCB",13-01-2026 08:00:00,13.1278,80.2642,NO2,1,14,7
India,TamilNadu,Chennai,"Kodungaiyur, Chennai - TNPCB",13-01-2026 08:00:00,13.1278,80.2642,OZONE,28,35,32
India,TamilNadu,Chennai,"Manali Village, Chennai - TNPCB",13-01-2026 08:00:00,13.1662,80.2584,CO,40,64,56
India,Telangana,Hyderabad,"Nacharam_TSIIC IALA, Hyderabad - TSPCB",13-01-2026 08:00:00,17.429398,78.569354,NH3,5,7,6
India,Telangana,Hyderabad,"Ramachandrapuram, Hyderabad - TSPCB",13-01-2026 08:00:00,17.528544,78.286195,PM2.5,38,53,48
India,Telangana,Hyderabad,"Sanathnagar, Hyderabad - TSPCB",13-01-2026 08:00:00,17.4559458,78.4332152,CO,42,52,49
India,Telangana,Hyderabad,"Somajiguda, Hyderabad - TSPCB",13-01-2026 08:00:00,17.417094,78.457437,PM2.5,56,67,65
India,Telangana,Hyderabad,"Somajiguda, Hyderabad - TSPCB",13-01-2026 08:00:00,17.417094,78.457437,NH3,3,5,4
India,Rajasthan,Rajsamand,"Dhoinda, Rajsamand - RSPCB",13-01-2026 08:00:00,25.036360,73.883502,NH3,NA,NA,NA
India,Rajasthan,Rajsamand,"Dhoinda, Rajsamand - RSPCB",13-01-2026 08:00:00,25.036360,73.883502,CO,9,101,16
India,Rajasthan,Sawai Madhopur,"Sahu Nagar, Sawai Madhopur - RSPCB",13-01-2026 08:00:00,26.031443,76.359327,CO,24,94,35
India,Rajasthan,Sikar,"Radhakishan Pura, Sikar - RSPCB",13-01-2026 08:00:00,27.608912,75.153302,PM2.5,95,373,179
India,Rajasthan,Sikar,"Radhakishan Pura, Sikar - RSPCB",13-01-2026 08:00:00,27.608912,75.153302,OZONE,40,117,87
India,Telangana,Hyderabad,"Central University, Hyderabad - TSPCB",13-01-2026 08:00:00,17.460103,78.334361,PM2.5,50,75,59
India,Uttar_Pradesh,Ghaziabad,"Indirapuram, Ghaziabad - UPPCB",13-01-2026 08:00:00,28.646233,77.358075,SO2,6,20,11
India,Uttar_Pradesh,Ghaziabad,"Loni, Ghaziabad - UPPCB",13-01-2026 08:00:00,28.757294,77.278792,NH3,NA,NA,NA
India,Uttar_Pradesh,Ghaziabad,"Loni, Ghaziabad - UPPCB",13-01-2026 08:00:00,28.757294,77.278792,SO2,NA,NA,NA
India,Uttar_Pradesh,Ghaziabad,"Sanjay Nagar, Ghaziabad - UPPCB",13-01-2026 08:00:00,28.685382,77.453839,NH3,6,9,8
India,Uttar_Pradesh,Ghaziabad,"Sanjay Nagar, Ghaziabad - UPPCB",13-01-2026 08:00:00,28.685382,77.453839,SO2,8,21,13
India,Uttar_Pradesh,Ghaziabad,"Sanjay Nagar, Ghaziabad - UPPCB",13-01-2026 08:00:00,28.685382,77.453839,CO,10,125,64
India,Uttar_Pradesh,Ghaziabad,"Sanjay Nagar, Ghaziabad - UPPCB",13-01-2026 08:00:00,28.685382,77.453839,OZONE,6,143,8
India,Uttar_Pradesh,Ghaziabad,"Vasundhara, Ghaziabad - UPPCB",13-01-2026 08:00:00,28.6603346,77.3572563,OZONE,NA,NA,NA
India,Uttar_Pradesh,Gorakhpur,"Madan Mohan Malaviya University of Technology, Gorakhpur - UPPCB",13-01-2026 08:00:00,26.730136,83.433859,PM2.5,49,163,82
India,Uttar_Pradesh,Gorakhpur,"Madan Mohan Malaviya University of Technology, Gorakhpur - UPPCB",13-01-2026 08:00:00,26.730136,83.433859,PM10,NA,NA,NA
India,Uttar_Pradesh,Gorakhpur,"Madan Mohan Malaviya University of Technology, Gorakhpur - UPPCB",13-01-2026 08:00:00,26.730136,83.433859,NO2,11,12,12
India,Uttar_Pradesh,Gorakhpur,"Madan Mohan Malaviya University of Technology, Gorakhpur - UPPCB",13-01-2026 08:00:00,26.730136,83.433859,SO2,37,39,38
India,Uttar_Pradesh,Gorakhpur,"Madan Mohan Malaviya University of Technology, Gorakhpur - UPPCB",13-01-2026 08:00:00,26.730136,83.433859,CO,5,8,7
India,Uttar_Pradesh,Lucknow,"Kendriya Vidyalaya, Lucknow - CPCB",13-01-2026 08:00:00,26.906111,80.948222,PM10,143,217,178
India,Uttar_Pradesh,Lucknow,"Kendriya Vidyalaya, Lucknow - CPCB",13-01-2026 08:00:00,26.906111,80.948222,NO2,40,43,41
India,Uttar_Pradesh,Lucknow,"Kendriya Vidyalaya, Lucknow - CPCB",13-01-2026 08:00:00,26.906111,80.948222,SO2,3,11,6
India,Uttar_Pradesh,Lucknow,"Kendriya Vidyalaya, Lucknow - CPCB",13-01-2026 08:00:00,26.906111,80.948222,CO,34,103,59
India,Uttar_Pradesh,Lucknow,"Kukrail Picnic Spot-1, Lucknow - UPPCB",13-01-2026 08:00:00,26.90723,80.98579,PM2.5,35,148,91
India,Uttar_Pradesh,Lucknow,"Lalbagh, Lucknow - CPCB",13-01-2026 08:00:00,26.8458805,80.9365541,PM2.5,108,307,196
India,Uttar_Pradesh,Lucknow,"Lalbagh, Lucknow - CPCB",13-01-2026 08:00:00,26.8458805,80.9365541,PM10,106,500,327
India,Uttar_Pradesh,Lucknow,"Lalbagh, Lucknow - CPCB",13-01-2026 08:00:00,26.8458805,80.9365541,OZONE,5,54,10
India,Uttar_Pradesh,Lucknow,"Talkatora District Industries Center, Lucknow - CPCB",13-01-2026 08:00:00,26.83399722,80.8917361,SO2,4,14,9
India,Uttar_Pradesh,Meerut,"Ganga Nagar, Meerut - UPPCB",13-01-2026 08:00:00,28.999264,77.7590354,PM10,124,406,228
India,Uttar_Pradesh,Greater Noida,"Knowledge Park - III, Greater Noida - UPPCB",13-01-2026 08:00:00,28.47272,77.482000,PM10,128,452,308
India,Uttar_Pradesh,Greater Noida,"Knowledge Park - III, Greater Noida - UPPCB",13-01-2026 08:00:00,28.47272,77.482000,NH3,4,12,8
India,Uttar_Pradesh,Greater Noida,"Knowledge Park - V, Greater Noida - UPPCB",13-01-2026 08:00:00,28.557054,77.453663,SO2,10,20,15
India,Uttar_Pradesh,Hapur,"Anand Vihar, Hapur - UPPCB",13-01-2026 08:00:00,28.725645,77.749675,NO2,2,28,14
India,Uttar_Pradesh,Hapur,"Anand Vihar, Hapur - UPPCB",13-01-2026 08:00:00,28.725645,77.749675,OZONE,7,73,7
India,Uttar_Pradesh,Jhansi,"Shivaji Nagar, Jhansi - UPPCB",13-01-2026 08:00:00,25.4547,78.6039,SO2,15,48,20
India,Uttar_Pradesh,Kanpur,"FTI Kidwai Nagar, Kanpur - UPPCB",13-01-2026 08:00:00,26.428282,80.327067,PM2.5,27,368,125
India,Uttar_Pradesh,Kanpur,"FTI Kidwai Nagar, Kanpur - UPPCB",13-01-2026 08:00:00,26.428282,80.327067,PM10,58,415,146
India,Uttar_Pradesh,Kanpur,"FTI Kidwai Nagar, Kanpur - UPPCB",13-01-2026 08:00:00,26.428282,80.327067,SO2,23,32,28
India,Uttar_Pradesh,Meerut,"Ganga Nagar, Meerut - UPPCB",13-01-2026 08:00:00,28.999264,77.7590354,NH3,12,19,15
India,Uttar_Pradesh,Meerut,"Ganga Nagar, Meerut - UPPCB",13-01-2026 08:00:00,28.999264,77.7590354,CO,42,116,85
India,Uttar_Pradesh,Meerut,"Jai Bhim Nagar, Meerut - UPPCB",13-01-2026 08:00:00,28.9535882,77.7622941,PM10,125,367,228
India,Uttar_Pradesh,Meerut,"Jai Bhim Nagar, Meerut - UPPCB",13-01-2026 08:00:00,28.9535882,77.7622941,NH3,12,21,16
India,Uttar_Pradesh,Meerut,"Jai Bhim Nagar, Meerut - UPPCB",13-01-2026 08:00:00,28.9535882,77.7622941,CO,16,116,79
India,Uttar_Pradesh,Meerut,"Jai Bhim Nagar, Meerut - UPPCB",13-01-2026 08:00:00,28.9535882,77.7622941,OZONE,1,136,3
India,Uttar_Pradesh,Meerut,"Pallavpuram Phase 2, Meerut - UPPCB",13-01-2026 08:00:00,29.063510,77.709723,PM2.5,212,389,317
India,Uttar_Pradesh,Meerut,"Pallavpuram Phase 2, Meerut - UPPCB",13-01-2026 08:00:00,29.063510,77.709723,NO2,2,16,10
India,Uttar_Pradesh,Meerut,"Pallavpuram Phase 2, Meerut - UPPCB",13-01-2026 08:00:00,29.063510,77.709723,NH3,1,2,2
India,Uttar_Pradesh,Kanpur,"FTI Kidwai Nagar, Kanpur - UPPCB",13-01-2026 08:00:00,26.428282,80.327067,OZONE,8,9,9
India,Uttar_Pradesh,Kanpur,"NSI Kalyanpur, Kanpur - UPPCB",13-01-2026 08:00:00,26.509954,80.249612,PM2.5,31,318,103
India,Uttar_Pradesh,Kanpur,"NSI Kalyanpur, Kanpur - UPPCB",13-01-2026 08:00:00,26.509954,80.249612,NO2,22,23,22
India,Uttar_Pradesh,Kanpur,"NSI Kalyanpur, Kanpur - UPPCB",13-01-2026 08:00:00,26.509954,80.249612,NH3,5,5,5
India,Uttar_Pradesh,Kanpur,"NSI Kalyanpur, Kanpur - UPPCB",13-01-2026 08:00:00,26.509954,80.249612,SO2,20,22,21
India,Uttar_Pradesh,Khurja,"Kalindi Kunj, Khurja - UPPCB",13-01-2026 08:00:00,28.2348927,77.8683002,PM2.5,18,386,193
India,Uttar_Pradesh,Khurja,"Kalindi Kunj, Khurja - UPPCB",13-01-2026 08:00:00,28.2348927,77.8683002,PM10,29,464,207
India,Uttar_Pradesh,Khurja,"Kalindi Kunj, Khurja - UPPCB",13-01-2026 08:00:00,28.2348927,77.8683002,NH3,1,1,1
India,Uttar_Pradesh,Agra,"Sector-3B Avas Vikas Colony, Agra - UPPCB",13-01-2026 08:00:00,27.19412,77.96237,CO,6,127,84
India,Uttar_Pradesh,Agra,"Shahjahan Garden, Agra - UPPCB",13-01-2026 08:00:00,27.169338,78.03582,PM2.5,33,318,134
India,Uttar_Pradesh,Agra,"Shahjahan Garden, Agra - UPPCB",13-01-2026 08:00:00,27.169338,78.03582,PM10,111,348,205
India,Uttar_Pradesh,Agra,"Shastripuram, Agra - UPPCB",13-01-2026 08:00:00,27.19862,77.92066,OZONE,6,11,11
India,Uttar_Pradesh,Baghpat,"Sardar Patel Inter College, Baghpat - UPPCB",13-01-2026 08:00:00,28.964949,77.278761,PM2.5,82,342,260
India,Uttar_Pradesh,Baghpat,"Sardar Patel Inter College, Baghpat - UPPCB",13-01-2026 08:00:00,28.964949,77.278761,OZONE,2,68,4
India,Uttar_Pradesh,Bulandshahr,"Yamunapuram, Bulandshahr - UPPCB",13-01-2026 08:00:00,28.406963,77.849831,PM10,122,258,185
India,Uttar_Pradesh,Bulandshahr,"Yamunapuram, Bulandshahr - UPPCB",13-01-2026 08:00:00,28.406963,77.849831,NO2,46,164,73
India,Uttar_Pradesh,Bulandshahr,"Yamunapuram, Bulandshahr - UPPCB",13-01-2026 08:00:00,28.406963,77.849831,OZONE,1,79,2
India,Uttar_Pradesh,Firozabad,"Nagla Bhau, Firozabad - UPPCB",13-01-2026 08:00:00,27.168897,78.376960,SO2,NA,NA,NA
India,Uttar_Pradesh,Firozabad,"Nagla Bhau, Firozabad - UPPCB",13-01-2026 08:00:00,27.168897,78.376960,CO,NA,NA,NA
India,Uttar_Pradesh,Firozabad,"Vibhab Nagar, Firozabad - UPPCB",13-01-2026 08:00:00,27.1594,78.3953,NO2,15,15,15
India,Uttar_Pradesh,Firozabad,"Vibhab Nagar, Firozabad - UPPCB",13-01-2026 08:00:00,27.1594,78.3953,NH3,2,2,2
India,Telangana,Hyderabad,"Zoo Park, Hyderabad - TSPCB",13-01-2026 08:00:00,17.349694,78.451437,PM2.5,55,133,86
India,Tripura,Agartala,"Bardowali, Agartala - Tripura SPCB",13-01-2026 08:00:00,23.8175497,91.2726974,CO,28,40,31
India,Uttar_Pradesh,Agra,"Manoharpur, Agra - UPPCB",13-01-2026 08:00:00,27.23711,78.01936,NH3,3,4,4
India,Uttar_Pradesh,Agra,"Sanjay Palace, Agra - UPPCB",13-01-2026 08:00:00,27.19865833,78.00598056,NO2,4,19,9
India,Uttar_Pradesh,Moradabad,"Jigar Colony, Moradabad - UPPCB",13-01-2026 08:00:00,28.856664,78.772638,SO2,16,38,24
India,Uttar_Pradesh,Moradabad,"Kashiram Nagar, Moradabad - UPPCB",13-01-2026 08:00:00,28.849399,78.742362,CO,33,74,46
India,Uttar_Pradesh,Moradabad,"Transport Nagar, Moradabad - UPPCB",13-01-2026 08:00:00,28.802625,78.753728,NO2,29,30,30
India,Uttar_Pradesh,Moradabad,"Transport Nagar, Moradabad - UPPCB",13-01-2026 08:00:00,28.802625,78.753728,NH3,5,6,6
India,West_Bengal,Kolkata,"Bidhannagar, Kolkata - WBPCB",13-01-2026 08:00:00,22.58157048,88.41002457,CO,10,34,17
India,West_Bengal,Kolkata,"Fort William, Kolkata - WBPCB",13-01-2026 08:00:00,22.556640,88.342674,PM10,84,143,115
India,West_Bengal,Kolkata,"Fort William, Kolkata - WBPCB",13-01-2026 08:00:00,22.556640,88.342674,NO2,15,20,17
India,West_Bengal,Kolkata,"Fort William, Kolkata - WBPCB",13-01-2026 08:00:00,22.556640,88.342674,NH3,9,10,9
India,West_Bengal,Kolkata,"Fort William, Kolkata - WBPCB",13-01-2026 08:00:00,22.556640,88.342674,OZONE,39,80,46
India,West_Bengal,Kolkata,"Jadavpur, Kolkata - WBPCB",13-01-2026 08:00:00,22.49929,88.36917,PM2.5,40,140,82
India,West_Bengal,Kolkata,"Jadavpur, Kolkata - WBPCB",13-01-2026 08:00:00,22.49929,88.36917,PM10,37,120,82
India,West_Bengal,Kolkata,"Jadavpur, Kolkata - WBPCB",13-01-2026 08:00:00,22.49929,88.36917,SO2,11,12,11
India,West_Bengal,Kolkata,"Jadavpur, Kolkata - WBPCB",13-01-2026 08:00:00,22.49929,88.36917,CO,34,92,56
India,West_Bengal,Kolkata,"Rabindra Bharati University, Kolkata - WBPCB",13-01-2026 08:00:00,22.627847,88.380669,CO,51,100,59
India,West_Bengal,Kolkata,"Rabindra Sarobar, Kolkata - WBPCB",13-01-2026 08:00:00,22.51106,88.35142,PM2.5,53,118,85
India,West_Bengal,Kolkata,"Rabindra Sarobar, Kolkata - WBPCB",13-01-2026 08:00:00,22.51106,88.35142,NO2,23,118,65
India,West_Bengal,Kolkata,"Rabindra Sarobar, Kolkata - WBPCB",13-01-2026 08:00:00,22.51106,88.35142,SO2,6,27,12
India,Uttar_Pradesh,Varanasi,"Bhelupur, Varanasi - UPPCB",13-01-2026 08:00:00,25.301778,82.996789,OZONE,NA,NA,NA
India,Uttar_Pradesh,Varanasi,"IESD Banaras Hindu University, Varanasi - UPPCB",13-01-2026 08:00:00,25.262326,82.995408,PM2.5,18,122,73
India,Uttar_Pradesh,Varanasi,"IESD Banaras Hindu University, Varanasi - UPPCB",13-01-2026 08:00:00,25.262326,82.995408,PM10,62,139,110
India,Uttar_Pradesh,Varanasi,"IESD Banaras Hindu University, Varanasi - UPPCB",13-01-2026 08:00:00,25.262326,82.995408,NH3,1,4,2
India,Uttar_Pradesh,Varanasi,"Maldahiya, Varanasi - UPPCB",13-01-2026 08:00:00,25.32393,82.99687,PM10,42,109,81
India,Uttar_Pradesh,Varanasi,"Maldahiya, Varanasi - UPPCB",13-01-2026 08:00:00,25.32393,82.99687,CO,2,18,10
India,Uttar_Pradesh,Vrindavan,"Omex Eternity, Vrindavan - UPPCB",13-01-2026 08:00:00,27.5714090,77.6557570,CO,26,116,92
India,Uttarakhand,Dehradun,"Doon University, Dehradun - UKPCB",13-01-2026 08:00:00,30.269444,78.044167,CO,6,32,7
India,Uttar_Pradesh,Muzaffarnagar,"New Mandi, Muzaffarnagar - UPPCB",13-01-2026 08:00:00,29.4723508,77.7194031,PM10,66,176,131
India,Uttar_Pradesh,Muzaffarnagar,"New Mandi, Muzaffarnagar - UPPCB",13-01-2026 08:00:00,29.4723508,77.7194031,OZONE,2,79,5
India,Uttar_Pradesh,Noida,"Sector - 125, Noida - UPPCB",13-01-2026 08:00:00,28.5447608,77.3231257,PM10,125,489,298
India,Uttar_Pradesh,Noida,"Sector - 125, Noida - UPPCB",13-01-2026 08:00:00,28.5447608,77.3231257,SO2,5,14,10
India,Uttar_Pradesh,Noida,"Sector - 125, Noida - UPPCB",13-01-2026 08:00:00,28.5447608,77.3231257,CO,27,140,95
India,Uttar_Pradesh,Noida,"Sector - 62, Noida - IMD",13-01-2026 08:00:00,28.6245479,77.3577104,PM2.5,84,419,307
India,Uttar_Pradesh,Noida,"Sector - 62, Noida - IMD",13-01-2026 08:00:00,28.6245479,77.3577104,PM10,126,423,256
India,Uttar_Pradesh,Noida,"Sector - 62, Noida - IMD",13-01-2026 08:00:00,28.6245479,77.3577104,OZONE,21,58,27
India,Uttar_Pradesh,Noida,"Sector-1, Noida - UPPCB",13-01-2026 08:00:00,28.5898,77.3101,PM10,114,474,265
India,West_Bengal,Durgapur,"PCBL Residential Complex, Durgapur - WBPCB",13-01-2026 08:00:00,23.5087640,87.3544400,OZONE,5,6,6
India,West_Bengal,Durgapur,"Womens College_City Center, Durgapur - WBPCB (Formerly known as Sidhu Kanhu Indoor Stadium)",13-01-2026 08:00:00,23.549395,87.300496,SO2,NA,NA,NA
India,West_Bengal,Durgapur,"Womens College_City Center, Durgapur - WBPCB (Formerly known as Sidhu Kanhu Indoor Stadium)",13-01-2026 08:00:00,23.549395,87.300496,CO,NA,NA,NA
India,West_Bengal,Haldia,"Priyambada Housing Estate, Haldia - WBPCB",13-01-2026 08:00:00,22.06047,88.109737,NO2,16,33,22
India,West_Bengal,Haldia,"Priyambada Housing Estate, Haldia - WBPCB",13-01-2026 08:00:00,22.06047,88.109737,NH3,8,8,8
India,West_Bengal,Howrah,"Botanical Garden, Howrah - WBPCB",13-01-2026 08:00:00,22.554954,88.292568,SO2,2,10,5
India,West_Bengal,Howrah,"Dasnagar, Howrah - WBPCB",13-01-2026 08:00:00,22.6025571,88.3105664,PM2.5,51,106,79
India,West_Bengal,Howrah,"Dasnagar, Howrah - WBPCB",13-01-2026 08:00:00,22.6025571,88.3105664,NO2,16,97,52
India,West_Bengal,Howrah,"Ghusuri, Howrah - WBPCB",13-01-2026 08:00:00,22.611968,88.347422,NO2,21,37,26
India,West_Bengal,Howrah,"Ghusuri, Howrah - WBPCB",13-01-2026 08:00:00,22.611968,88.347422,OZONE,9,29,10
India,West_Bengal,Howrah,"Padmapukur, Howrah - WBPCB",13-01-2026 08:00:00,22.5687319,88.2797276,NO2,4,53,28
India,West_Bengal,Howrah,"Padmapukur, Howrah - WBPCB",13-01-2026 08:00:00,22.5687319,88.2797276,SO2,4,13,9
India,West_Bengal,Kolkata,"Ballygunge, Kolkata - WBPCB",13-01-2026 08:00:00,22.5367507,88.3638022,NO2,NA,NA,NA
India,West_Bengal,Kolkata,"Ballygunge, Kolkata - WBPCB",13-01-2026 08:00:00,22.5367507,88.3638022,SO2,NA,NA,NA
India,Uttarakhand,Kashipur,"Govt. Girls Inter College, Kashipur - UKPCB",13-01-2026 08:00:00,29.2124114,78.9611753,SO2,8,11,9
India,Uttarakhand,Kashipur,"Govt. Girls Inter College, Kashipur - UKPCB",13-01-2026 08:00:00,29.2124114,78.9611753,CO,36,48,43
India,Uttarakhand,Rishikesh,"Shivaji Nagar, Rishikesh - UKPCB",13-01-2026 08:00:00,30.075911,78.2859547,PM2.5,72,151,115
India,Uttarakhand,Rishikesh,"Shivaji Nagar, Rishikesh - UKPCB",13-01-2026 08:00:00,30.075911,78.2859547,NO2,17,25,21
India,Uttarakhand,Rishikesh,"Shivaji Nagar, Rishikesh - UKPCB",13-01-2026 08:00:00,30.075911,78.2859547,NH3,6,13,8
India,Uttarakhand,Rishikesh,"Shivaji Nagar, Rishikesh - UKPCB",13-01-2026 08:00:00,30.075911,78.2859547,SO2,2,3,3
India,West_Bengal,Asansol,"Evelyn Lodge, Asansol - WBPCB",13-01-2026 08:00:00,23.6979360,86.9443950,PM10,NA,NA,NA
India,Uttar_Pradesh,Prayagraj,"Jhunsi, Prayagraj - UPPCB",13-01-2026 08:00:00,25.425602,81.917152,PM2.5,57,249,109
India,Uttar_Pradesh,Prayagraj,"Jhunsi, Prayagraj - UPPCB",13-01-2026 08:00:00,25.425602,81.917152,PM10,68,216,118
India,Uttar_Pradesh,Prayagraj,"Jhunsi, Prayagraj - UPPCB",13-01-2026 08:00:00,25.425602,81.917152,NH3,5,5,5
India,Uttar_Pradesh,Prayagraj,"Nagar Nigam, Prayagraj - UPPCB",13-01-2026 08:00:00,25.44919916 ,81.82735986 ,NO2,5,5,5
India,Uttar_Pradesh,Prayagraj,"Nagar Nigam, Prayagraj - UPPCB",13-01-2026 08:00:00,25.44919916 ,81.82735986 ,CO,30,72,42
India,Uttar_Pradesh,Varanasi,"Ardhali Bazar, Varanasi - UPPCB",13-01-2026 08:00:00,25.3505986,82.9083074,PM2.5,37,87,63
India,Uttar_Pradesh,Varanasi,"Ardhali Bazar, Varanasi - UPPCB",13-01-2026 08:00:00,25.3505986,82.9083074,NO2,88,98,94
India,West_Bengal,Asansol,"Mahabir Colliery, Asansol - WBPCB",13-01-2026 08:00:00,23.6181830,87.1057180,PM10,64,160,115
India,West_Bengal,Asansol,"Trivenidevi Bhalotia College, Asansol - WBPCB",13-01-2026 08:00:00,23.616515,87.119133,PM10,57,127,89
India,West_Bengal,Asansol,"Trivenidevi Bhalotia College, Asansol - WBPCB",13-01-2026 08:00:00,23.616515,87.119133,SO2,1,7,4
India,West_Bengal,Barrackpore,"SVSPA Campus, Barrackpore - WBPCB",13-01-2026 08:00:00,22.7605581,88.3617589,PM2.5,55,132,104
India,West_Bengal,Barrackpore,"SVSPA Campus, Barrackpore - WBPCB",13-01-2026 08:00:00,22.7605581,88.3617589,SO2,8,10,9
India,West_Bengal,Siliguri,"Ward-32 Bapupara, Siliguri - WBPCB",13-01-2026 08:00:00,26.6879226,88.4152495,PM10,69,190,119
India,West_Bengal,Siliguri,"Ward-32 Bapupara, Siliguri - WBPCB",13-01-2026 08:00:00,26.6879226,88.4152495,NH3,10,10,10
India,Bihar,Arrah,"New DM Office, Arrah - BSPCB",13-01-2026 08:00:00,25.5626095,84.663264,NH3,1,1,1
India,Bihar,Arrah,"New DM Office, Arrah - BSPCB",13-01-2026 08:00:00,25.5626095,84.663264,CO,38,64,50
India,Bihar,Aurangabad,"Gurdeo Nagar, Aurangabad - BSPCB",13-01-2026 08:00:00,24.75746,84.366208,CO,62,104,102
India,Bihar,Begusarai,"Lohiyanagar, Begusarai - BSPCB",13-01-2026 08:00:00,25.42742023,86.13886079,NO2,NA,NA,NA
India,Bihar,Begusarai,"Lohiyanagar, Begusarai - BSPCB",13-01-2026 08:00:00,25.42742023,86.13886079,OZONE,9,39,10
India,Bihar,Bettiah,"Kamalnath Nagar, Bettiah - BSPCB",13-01-2026 08:00:00,26.80365,84.51954,NO2,8,9,8
India,Bihar,Bhagalpur,"DM Office_Kachari Chowk, Bhagalpur - BSPCB",13-01-2026 08:00:00,25.251013,86.989001,PM2.5,52,98,69
India,Andhra_Pradesh,Rajamahendravaram,"Anand Kala Kshetram, Rajamahendravaram - APPCB",13-01-2026 08:00:00,16.9872867,81.7363176,SO2,9,49,18
India,Andhra_Pradesh,Tirumala,"Toll Gate, Tirumala - APPCB",13-01-2026 08:00:00,13.67,79.35,PM10,61,89,77
India,Andhra_Pradesh,Tirumala,"Toll Gate, Tirumala - APPCB",13-01-2026 08:00:00,13.67,79.35,CO,23,30,26
India,Andhra_Pradesh,Tirupati,"Vaikuntapuram, Tirupati - APPCB",13-01-2026 08:00:00,13.615387,79.409230,SO2,14,26,17
India,Andhra_Pradesh,Vijayawada,"HB Colony, Vijayawada - APPCB",13-01-2026 08:00:00,16.536107,80.594233,PM2.5,63,83,72
India,Andhra_Pradesh,Vijayawada,"HB Colony, Vijayawada - APPCB",13-01-2026 08:00:00,16.536107,80.594233,NO2,13,25,19
India,Andhra_Pradesh,Vijayawada,"HB Colony, Vijayawada - APPCB",13-01-2026 08:00:00,16.536107,80.594233,OZONE,6,60,44
India,Andhra_Pradesh,Vijayawada,"Kanuru, Vijayawada - APPCB",13-01-2026 08:00:00,16.486692,80.699436,PM10,75,96,85
India,Andhra_Pradesh,Vijayawada,"Kanuru, Vijayawada - APPCB",13-01-2026 08:00:00,16.486692,80.699436,CO,38,52,39
India,Andhra_Pradesh,Vijayawada,"Rajiv Gandhi Park, Vijayawada - APPCB",13-01-2026 08:00:00,16.509717,80.612222,NO2,47,80,60
India,Andhra_Pradesh,Vijayawada,"Rajiv Gandhi Park, Vijayawada - APPCB",13-01-2026 08:00:00,16.509717,80.612222,SO2,14,22,16
India,Andhra_Pradesh,Vijayawada,"Rajiv Gandhi Park, Vijayawada - APPCB",13-01-2026 08:00:00,16.509717,80.612222,CO,28,41,36
India,Andhra_Pradesh,Vijayawada,"Rajiv Nagar, Vijayawada - APPCB",13-01-2026 08:00:00,16.554731,80.649110,NO2,NA,NA,NA
India,Andhra_Pradesh,Visakhapatnam,"GVM Corporation, Visakhapatnam - APPCB",13-01-2026 08:00:00,17.72,83.3,PM2.5,50,101,66
India,Andhra_Pradesh,Amaravati,"Secretariat, Amaravati - APPCB",13-01-2026 08:00:00,16.5150833,80.5181667,CO,3,19,13
India,Andhra_Pradesh,Anantapur,"Gulzarpet, Anantapur - APPCB",13-01-2026 08:00:00,14.675886,77.593027,PM10,81,93,86
India,Andhra_Pradesh,Anantapur,"Gulzarpet, Anantapur - APPCB",13-01-2026 08:00:00,14.675886,77.593027,SO2,7,17,10
India,Andhra_Pradesh,Chittoor,"Gangineni Cheruvu, Chittoor - APPCB",13-01-2026 08:00:00,13.204880,79.097889,PM10,53,89,68
India,Assam,Nalbari,"Bata Chowk, Nalbari - PCBA",13-01-2026 08:00:00,26.446912,91.439057,CO,20,22,20
India,Assam,Silchar,"Tarapur, Silchar - PCBA",13-01-2026 08:00:00,24.82827,92.79525,PM2.5,23,81,46
India,Assam,Silchar,"Tarapur, Silchar - PCBA",13-01-2026 08:00:00,24.82827,92.79525,PM10,53,66,57
India,Assam,Silchar,"Tarapur, Silchar - PCBA",13-01-2026 08:00:00,24.82827,92.79525,NH3,1,2,1
India,Bihar,Bhagalpur,"Mayaganj, Bhagalpur - BSPCB",13-01-2026 08:00:00,25.265194,87.012947,PM10,80,160,111
India,Bihar,Bhagalpur,"Mayaganj, Bhagalpur - BSPCB",13-01-2026 08:00:00,25.265194,87.012947,OZONE,27,75,36
India,Bihar,Buxar,"Charitra Van, Buxar - BSPCB",13-01-2026 08:00:00,25.567520,83.966379,NH3,3,3,3
India,Bihar,Buxar,"Charitra Van, Buxar - BSPCB",13-01-2026 08:00:00,25.567520,83.966379,CO,21,29,24
India,Bihar,Gaya,"SFTI Kusdihra, Gaya - BSPCB",13-01-2026 08:00:00,24.762518,84.982348,NO2,19,23,21
India,Bihar,Gaya,"SFTI Kusdihra, Gaya - BSPCB",13-01-2026 08:00:00,24.762518,84.982348,NH3,3,5,3
India,Bihar,Katihar,"Mirchaibari, Katihar - BSPCB",13-01-2026 08:00:00,25.560083,87.553265,PM10,48,131,100
India,Assam,Guwahati,"LGBI Airport, Guwahati - PCBA",13-01-2026 08:00:00,26.10887,91.589544,SO2,1,17,12
India,Assam,Nagaon,"Christianpatty, Nagaon - PCBA",13-01-2026 08:00:00,26.349082,92.68449,PM10,83,133,108
India,Bihar,Araria,"Kharahiya Basti, Araria - BSPCB",13-01-2026 08:00:00,26.146529,87.454184,NO2,1,15,5
India,Bihar,Araria,"Kharahiya Basti, Araria - BSPCB",13-01-2026 08:00:00,26.146529,87.454184,SO2,1,21,11
India,Bihar,Motihari,"Gandak Colony, Motihari - BSPCB",13-01-2026 08:00:00,26.63086,84.90051,NO2,3,6,5
India,Bihar,Motihari,"Gandak Colony, Motihari - BSPCB",13-01-2026 08:00:00,26.63086,84.90051,NH3,3,3,3
India,Chhattisgarh,Bhilai,"Civic Center, Bhilai - Bhilai Steel Plant",13-01-2026 08:00:00,21.185571,81.343175,PM10,25,118,58
India,Chhattisgarh,Bhilai,"Civic Center, Bhilai - Bhilai Steel Plant",13-01-2026 08:00:00,21.185571,81.343175,NO2,18,18,18
India,Chhattisgarh,Bhilai,"Civic Center, Bhilai - Bhilai Steel Plant",13-01-2026 08:00:00,21.185571,81.343175,SO2,7,13,9
India,Chhattisgarh,Bhilai,"Hathkhoj, Bhilai - CECB",13-01-2026 08:00:00,21.224231,81.408350,OZONE,2,23,11
India,Chhattisgarh,Bilaspur,"Mangala, Bilaspur - NTPC",13-01-2026 08:00:00,22.08815,82.13737,PM2.5,26,105,64
India,Chhattisgarh,Chhal,"Nawapara SECL Colony, Chhal - CECB",13-01-2026 08:00:00,22.118125,83.140608,CO,20,69,35
India,Chhattisgarh,Korba,"Rampur, Korba - CECB",13-01-2026 08:00:00,22.368195,82.746431,PM2.5,35,95,62
India,Chhattisgarh,Korba,"Rampur, Korba - CECB",13-01-2026 08:00:00,22.368195,82.746431,SO2,10,91,21
India,Chhattisgarh,Korba,"Urja Nagar, Korba - CECB",13-01-2026 08:00:00,22.348441,82.549611,OZONE,NA,NA,NA
India,Chhattisgarh,Kunjemura,"OP Jindal School, Kunjemura - CECB",13-01-2026 08:00:00,22.126650,83.483212,NH3,2,2,2
India,Chhattisgarh,Kunjemura,"OP Jindal School, Kunjemura - CECB",13-01-2026 08:00:00,22.126650,83.483212,SO2,1,47,18
India,Chhattisgarh,Milupara,"Govt. Higher Secondary School, Milupara - CECB",13-01-2026 08:00:00,22.1910172,83.5197009,PM2.5,43,65,54
India,Chhattisgarh,Milupara,"Govt. Higher Secondary School, Milupara - CECB",13-01-2026 08:00:00,22.1910172,83.5197009,NH3,1,2,2
India,Chhattisgarh,Milupara,"Govt. Higher Secondary School, Milupara - CECB",13-01-2026 08:00:00,22.1910172,83.5197009,SO2,13,18,15
India,Chhattisgarh,Milupara,"Govt. Higher Secondary School, Milupara - CECB",13-01-2026 08:00:00,22.1910172,83.5197009,OZONE,5,142,16
India,Chhattisgarh,Raipur,"AIIMS, Raipur - CECB",13-01-2026 08:00:00,21.258815,81.578979,PM10,35,144,88
India,Chhattisgarh,Raipur,"AIIMS, Raipur - CECB",13-01-2026 08:00:00,21.258815,81.578979,NH3,4,4,4
India,Delhi,Delhi,"Anand Vihar, Delhi - DPCC",13-01-2026 08:00:00,28.647622,77.3158090,PM2.5,230,500,411
India,Delhi,Delhi,"Anand Vihar, Delhi - DPCC",13-01-2026 08:00:00,28.647622,77.3158090,OZONE,1,13,11
India,Delhi,Delhi,"Ashok Vihar, Delhi - DPCC",13-01-2026 08:00:00,28.695381,77.181665,PM2.5,110,496,366
India,Delhi,Delhi,"Ashok Vihar, Delhi - DPCC",13-01-2026 08:00:00,28.695381,77.181665,NO2,34,126,73
India,Delhi,Delhi,"Aya Nagar, Delhi - IMD",13-01-2026 08:00:00,28.4706914,77.1099364,CO,37,120,112
India,Delhi,Delhi,"Bawana, Delhi - DPCC",13-01-2026 08:00:00,28.776200,77.051074,PM2.5,237,500,378
India,Delhi,Delhi,"Bawana, Delhi - DPCC",13-01-2026 08:00:00,28.776200,77.051074,OZONE,6,82,7
India,Delhi,Delhi,"Burari Crossing, Delhi - IMD",13-01-2026 08:00:00,28.7256504,77.2011573,CO,12,106,85
India,Chhattisgarh,Raipur,"Bhatagaon New ISBT, Raipur - CECB",13-01-2026 08:00:00,21.219665,81.630094,SO2,7,22,11
India,Chhattisgarh,Raipur,"Krishak Nagar, Raipur - CECB",13-01-2026 08:00:00,21.237755,81.705301,PM2.5,25,63,48
India,Chhattisgarh,Raipur,"Krishak Nagar, Raipur - CECB",13-01-2026 08:00:00,21.237755,81.705301,SO2,3,17,5
India,Chhattisgarh,Raipur,"Krishak Nagar, Raipur - CECB",13-01-2026 08:00:00,21.237755,81.705301,CO,15,42,40
India,Chhattisgarh,Tumidih,"OP Jindal Industrial Park, Tumidih - CECB",13-01-2026 08:00:00,22.06631475,83.33820077,PM10,30,160,73
India,Delhi,Delhi,"Alipur, Delhi - DPCC",13-01-2026 08:00:00,28.815329,77.153010,SO2,4,8,6
India,Bihar,Munger,"Town Hall, Munger - BSPCB",13-01-2026 08:00:00,25.376776,86.471523,NO2,4,5,5
India,Bihar,Munger,"Town Hall, Munger - BSPCB",13-01-2026 08:00:00,25.376776,86.471523,CO,24,157,27
India,Bihar,Munger,"Town Hall, Munger - BSPCB",13-01-2026 08:00:00,25.376776,86.471523,OZONE,13,36,18
India,Bihar,Muzaffarpur,"Buddha Colony, Muzaffarpur - BSPCB",13-01-2026 08:00:00,26.11442,85.39813,PM10,68,197,109
India,Bihar,Muzaffarpur,"MIT-Daudpur Kothi, Muzaffarpur - BSPCB",13-01-2026 08:00:00,26.1403345,85.3650192,NO2,1,4,2
India,Bihar,Muzaffarpur,"Muzaffarpur Collectorate, Muzaffarpur - BSPCB",13-01-2026 08:00:00,26.1209,85.3647,CO,8,70,28
India,Bihar,Patna,"Samanpura, Patna - BSPCB",13-01-2026 08:00:00,25.596727,85.085624,OZONE,3,135,12
India,Bihar,Purnia,"Mariam Nagar, Purnia - BSPCB",13-01-2026 08:00:00,25.366336,87.117468,NH3,3,3,3
India,Bihar,Purnia,"Mariam Nagar, Purnia - BSPCB",13-01-2026 08:00:00,25.366336,87.117468,SO2,12,17,16
India,Bihar,Rajgir,"Dangi Tola, Rajgir - BSPCB",13-01-2026 08:00:00,25.03280,85.41948,PM2.5,8,283,111
India,Bihar,Rajgir,"Dangi Tola, Rajgir - BSPCB",13-01-2026 08:00:00,25.03280,85.41948,SO2,18,25,21
India,Bihar,Saharsa,"Police Line, Saharsa - BSPCB",13-01-2026 08:00:00,25.892357,86.590325,CO,39,45,41
India,Bihar,Sasaram,"Dada Peer, Sasaram - BSPCB",13-01-2026 08:00:00,24.952822,84.002396,NO2,2,6,2
India,Bihar,Sasaram,"Dada Peer, Sasaram - BSPCB",13-01-2026 08:00:00,24.952822,84.002396,SO2,2,5,3
India,Bihar,Sasaram,"Dada Peer, Sasaram - BSPCB",13-01-2026 08:00:00,24.952822,84.002396,OZONE,16,18,17
India,Bihar,Siwan,"Chitragupta Nagar, Siwan - BSPCB",13-01-2026 08:00:00,26.2271665,84.3570427,CO,72,119,79
India,Chandigarh,Chandigarh,"Sector-25, Chandigarh - CPCC",13-01-2026 08:00:00,30.751462,76.762879,PM2.5,83,317,250
India,Bihar,Patna,"Govt. High School Shikarpur, Patna - BSPCB",13-01-2026 08:00:00,25.592539,85.227158,NO2,13,19,16
India,Bihar,Patna,"Govt. High School Shikarpur, Patna - BSPCB",13-01-2026 08:00:00,25.592539,85.227158,SO2,12,17,13
India,Bihar,Patna,"Govt. High School Shikarpur, Patna - BSPCB",13-01-2026 08:00:00,25.592539,85.227158,OZONE,8,13,10
India,Bihar,Patna,"IGSC Planetarium Complex, Patna - BSPCB",13-01-2026 08:00:00,25.610369,85.132568,CO,34,78,77
India,Bihar,Patna,"IGSC Planetarium Complex, Patna - BSPCB",13-01-2026 08:00:00,25.610369,85.132568,OZONE,28,29,29
India,Bihar,Patna,"Muradpur, Patna - BSPCB",13-01-2026 08:00:00,25.619651,85.147382,NO2,6,9,7
India,Delhi,Delhi,"Chandni Chowk, Delhi - IITM",13-01-2026 08:00:00,28.656756,77.227234,PM10,179,500,380
India,Delhi,Delhi,"Chandni Chowk, Delhi - IITM",13-01-2026 08:00:00,28.656756,77.227234,NO2,43,258,103
India,Delhi,Delhi,"DTU, Delhi - CPCB",13-01-2026 08:00:00,28.7500499,77.1112615,SO2,29,35,33
India,Delhi,Delhi,"Dr. Karni Singh Shooting Range, Delhi - DPCC",13-01-2026 08:00:00,28.498571,77.264840,SO2,8,20,14
India,Delhi,Delhi,"Nehru Nagar, Delhi - DPCC",13-01-2026 08:00:00,28.567890,77.250515,CO,113,194,146
India,Delhi,Delhi,"North Campus, DU, Delhi - IMD",13-01-2026 08:00:00,28.6573814,77.1585447,PM10,144,343,247
India,Delhi,Delhi,"North Campus, DU, Delhi - IMD",13-01-2026 08:00:00,28.6573814,77.1585447,CO,22,125,114
India,Delhi,Delhi,"North Campus, DU, Delhi - IMD",13-01-2026 08:00:00,28.6573814,77.1585447,OZONE,8,292,9
India,Delhi,Delhi,"Okhla Phase-2, Delhi - DPCC",13-01-2026 08:00:00,28.530785,77.271255,PM2.5,NA,NA,NA
India,Delhi,Delhi,"Punjabi Bagh, Delhi - DPCC",13-01-2026 08:00:00,28.674045,77.131023,OZONE,6,69,7
India,Delhi,Delhi,"Pusa, Delhi - DPCC",13-01-2026 08:00:00,28.639652,77.146275,PM2.5,143,430,349
India,Delhi,Delhi,"NSIT Dwarka, Delhi - CPCB",13-01-2026 08:00:00,28.60909,77.0325413,PM10,195,500,353
India,Delhi,Delhi,"Najafgarh, Delhi - DPCC",13-01-2026 08:00:00,28.570173,76.933762,PM2.5,123,426,295
India,Delhi,Delhi,"Najafgarh, Delhi - DPCC",13-01-2026 08:00:00,28.570173,76.933762,SO2,11,45,18
India,Delhi,Delhi,"Narela, Delhi - DPCC",13-01-2026 08:00:00,28.822836,77.101981,PM2.5,97,494,367
India,Delhi,Delhi,"Narela, Delhi - DPCC",13-01-2026 08:00:00,28.822836,77.101981,SO2,7,41,16
India,Delhi,Delhi,"Narela, Delhi - DPCC",13-01-2026 08:00:00,28.822836,77.101981,CO,20,110,50
India,Delhi,Delhi,"Nehru Nagar, Delhi - DPCC",13-01-2026 08:00:00,28.567890,77.250515,PM2.5,133,500,382
India,Delhi,Delhi,"Nehru Nagar, Delhi - DPCC",13-01-2026 08:00:00,28.567890,77.250515,PM10,124,500,323
India,Delhi,Delhi,"Pusa, Delhi - DPCC",13-01-2026 08:00:00,28.639652,77.146275,CO,60,106,94
India,Delhi,Delhi,"Pusa, Delhi - IMD",13-01-2026 08:00:00,28.636110,77.173332,PM10,71,466,294
India,Delhi,Delhi,"R K Puram, Delhi - DPCC",13-01-2026 08:00:00,28.563262,77.186937,PM2.5,93,500,365
India,Delhi,Delhi,"R K Puram, Delhi - DPCC",13-01-2026 08:00:00,28.563262,77.186937,PM10,123,500,298
India,Delhi,Delhi,"Rohini, Delhi - DPCC",13-01-2026 08:00:00,28.732528,77.119920,NH3,8,17,12
India,Delhi,Delhi,"Shadipur, Delhi - CPCB",13-01-2026 08:00:00,28.6514781,77.1473105,PM2.5,220,358,309
India,Delhi,Delhi,"Shadipur, Delhi - CPCB",13-01-2026 08:00:00,28.6514781,77.1473105,NO2,31,91,57
India,Delhi,Delhi,"Sirifort, Delhi - CPCB",13-01-2026 08:00:00,28.5504249,77.2159377,PM2.5,97,490,342
India,Delhi,Delhi,"Sirifort, Delhi - CPCB",13-01-2026 08:00:00,28.5504249,77.2159377,OZONE,10,22,15
India,Delhi,Delhi,"Sonia Vihar, Delhi - DPCC",13-01-2026 08:00:00,28.710508,77.249485,CO,66,118,109
India,Delhi,Delhi,"Sri Aurobindo Marg, Delhi - DPCC",13-01-2026 08:00:00,28.531346,77.190156,PM2.5,92,426,274
India,Delhi,Delhi,"Sri Aurobindo Marg, Delhi - DPCC",13-01-2026 08:00:00,28.531346,77.190156,NO2,13,62,40
India,Delhi,Delhi,"Sri Aurobindo Marg, Delhi - DPCC",13-01-2026 08:00:00,28.531346,77.190156,OZONE,2,125,2
India,Delhi,Delhi,"Vivek Vihar, Delhi - DPCC",13-01-2026 08:00:00,28.672342,77.315260,PM2.5,163,500,366
India,Delhi,Delhi,"IGI Airport (T3), Delhi - IMD",13-01-2026 08:00:00,28.5627763,77.1180053,CO,12,151,151
India,Delhi,Delhi,"IGI Airport (T3), Delhi - IMD",13-01-2026 08:00:00,28.5627763,77.1180053,OZONE,10,62,11
India,Delhi,Delhi,"IHBAS, Dilshad Garden, Delhi - CPCB",13-01-2026 08:00:00,28.6811736,77.3025234,SO2,2,25,14
India,Delhi,Delhi,"IIT Delhi, Delhi - IITM",13-01-2026 08:00:00,28.542460,77.191651,NO2,18,113,46
India,Delhi,Delhi,"ITO, Delhi - CPCB",13-01-2026 08:00:00,28.628624,77.241060,NO2,25,257,137
India,Delhi,Delhi,"Jahangirpuri, Delhi - DPCC",13-01-2026 08:00:00,28.732820,77.170633,SO2,2,21,13
India,Gujarat,Ahmedabad,"Rakhial, Ahmedabad - IITM",13-01-2026 08:00:00,23.016834,72.625775,PM10,91,172,133
India,Gujarat,Ahmedabad,"Rakhial, Ahmedabad - IITM",13-01-2026 08:00:00,23.016834,72.625775,SO2,21,56,32
India,Gujarat,Ahmedabad,"SAC ISRO Bopal, Ahmedabad - IITM",13-01-2026 08:00:00,23.041137,72.456691,PM2.5,NA,NA,NA
India,Gujarat,Ahmedabad,"SAC ISRO Bopal, Ahmedabad - IITM",13-01-2026 08:00:00,23.041137,72.456691,PM10,130,194,161
India,Gujarat,Ahmedabad,"SVPI Airport Hansol, Ahmedabad - IITM",13-01-2026 08:00:00,23.076793,72.627874,OZONE,7,80,28
India,Gujarat,Ankleshwar,"GIDC, Ankleshwar - GPCB",13-01-2026 08:00:00,21.613267,73.010555,PM10,76,464,196
India,Gujarat,Ahmedabad,"Chandkheda, Ahmedabad - IITM",13-01-2026 08:00:00,23.107969,72.574648,SO2,10,22,15
India,Gujarat,Ahmedabad,"Chandkheda, Ahmedabad - IITM",13-01-2026 08:00:00,23.107969,72.574648,CO,20,81,30
India,Gujarat,Ahmedabad,"Gyaspur, Ahmedabad - IITM",13-01-2026 08:00:00,22.977134,72.553024,CO,35,108,71
India,Gujarat,Ahmedabad,"Maninagar, Ahmedabad - GPCB",13-01-2026 08:00:00,23.002657,72.591912,OZONE,33,84,48
India,Gujarat,Ahmedabad,"Raikhad, Ahmedabad - IITM",13-01-2026 08:00:00,23.020509,72.579261,PM2.5,NA,NA,NA
India,Gujarat,Ahmedabad,"Raikhad, Ahmedabad - IITM",13-01-2026 08:00:00,23.020509,72.579261,NO2,15,80,34
India,Gujarat,Ahmedabad,"Raikhad, Ahmedabad - IITM",13-01-2026 08:00:00,23.020509,72.579261,SO2,13,24,16
India,Gujarat,Gandhinagar,"GIFT City, Gandhinagar - IITM",13-01-2026 08:00:00,23.163798,72.677768,NO2,21,87,37
India,Gujarat,Gandhinagar,"GIFT City, Gandhinagar - IITM",13-01-2026 08:00:00,23.163798,72.677768,SO2,1,9,5
India,Gujarat,Surat,"Science Center, Surat - SMC",13-01-2026 08:00:00,21.170046,72.795405,PM10,NA,NA,NA
India,Gujarat,Surat,"Science Center, Surat - SMC",13-01-2026 08:00:00,21.170046,72.795405,SO2,22,29,25
India,Delhi,Delhi,"Major Dhyan Chand National Stadium, Delhi - DPCC",13-01-2026 08:00:00,28.611281,77.237738,OZONE,3,191,3
India,Delhi,Delhi,"Mandir Marg, Delhi - DPCC",13-01-2026 08:00:00,28.636429,77.201067,NH3,14,32,24
India,Delhi,Delhi,"Mundka, Delhi - DPCC",13-01-2026 08:00:00,28.684678,77.076574,NO2,36,118,73
India,Haryana,Faridabad,"Sector 11, Faridabad - HSPCB",13-01-2026 08:00:00,28.376058,77.315741,PM10,175,420,302
India,Haryana,Faridabad,"Sector 11, Faridabad - HSPCB",13-01-2026 08:00:00,28.376058,77.315741,OZONE,14,15,15
India,Haryana,Faridabad,"Sector 30, Faridabad - HSPCB",13-01-2026 08:00:00,28.4417,77.3217,NO2,37,39,38
India,Haryana,Faridabad,"Sector 30, Faridabad - HSPCB",13-01-2026 08:00:00,28.4417,77.3217,NH3,11,12,11
India,Haryana,Faridabad,"Sector 30, Faridabad - HSPCB",13-01-2026 08:00:00,28.4417,77.3217,SO2,6,6,6
India,Haryana,Fatehabad,"Huda Sector, Fatehabad - HSPCB",13-01-2026 08:00:00,29.503664,75.467934,NO2,18,20,19
India,Haryana,Fatehabad,"Huda Sector, Fatehabad - HSPCB",13-01-2026 08:00:00,29.503664,75.467934,OZONE,42,53,51
India,Haryana,Gurugram,"NISE Gwal Pahari, Gurugram - IMD",13-01-2026 08:00:00,28.422681,77.148944,PM2.5,75,473,312
India,Haryana,Gurugram,"Sector-51, Gurugram - HSPCB",13-01-2026 08:00:00,28.4227,77.0667,NO2,6,15,9
India,Gujarat,Vapi,"Phase-1 GIDC, Vapi - GPCB",13-01-2026 08:00:00,20.362421,72.918013,NH3,NA,NA,NA
India,Gujarat,Vapi,"Phase-1 GIDC, Vapi - GPCB",13-01-2026 08:00:00,20.362421,72.918013,OZONE,NA,NA,NA
India,Gujarat,Vatva,"Phase-4 GIDC, Vatva - GPCB",13-01-2026 08:00:00,22.969611,72.643500,PM10,102,171,129
India,Gujarat,Vatva,"Phase-4 GIDC, Vatva - GPCB",13-01-2026 08:00:00,22.969611,72.643500,NO2,34,85,67
India,Gujarat,Vatva,"Phase-4 GIDC, Vatva - GPCB",13-01-2026 08:00:00,22.969611,72.643500,OZONE,18,42,18
India,Haryana,Ambala,"Patti Mehar, Ambala - HSPCB",13-01-2026 08:00:00,30.379589,76.778328,PM10,63,127,94
India,Haryana,Ballabgarh,"Nathu Colony, Ballabgarh - HSPCB",13-01-2026 08:00:00,28.3419248,77.319699,PM10,NA,NA,NA
India,Haryana,Ballabgarh,"Nathu Colony, Ballabgarh - HSPCB",13-01-2026 08:00:00,28.3419248,77.319699,SO2,1,7,4
India,Haryana,Sonipat,"Murthal, Sonipat - HSPCB",13-01-2026 08:00:00,29.027200,77.062100,PM10,51,110,83
India,Haryana,Yamuna Nagar,"Gobind Pura, Yamuna Nagar - HSPCB",13-01-2026 08:00:00,30.1480566,77.2893471,PM2.5,17,427,259
India,Haryana,Yamuna Nagar,"Gobind Pura, Yamuna Nagar - HSPCB",13-01-2026 08:00:00,30.1480566,77.2893471,NH3,1,6,4
India,Himachal Pradesh,Baddi,"HIMUDA Complex Phase-1, Baddi - HPPCB",13-01-2026 08:00:00,30.943887,76.801991,NO2,17,43,28
India,Himachal Pradesh,Baddi,"HIMUDA Complex Phase-1, Baddi - HPPCB",13-01-2026 08:00:00,30.943887,76.801991,NH3,3,5,4
India,Jammu_and_Kashmir,Pampore,"Khrew, Pampore - JKPCC",13-01-2026 08:00:00,34.031606,75.009712,NO2,NA,NA,NA
India,Jammu_and_Kashmir,Srinagar,"Khunmoh, Srinagar - JKPCC",13-01-2026 08:00:00,34.06313,74.96017,SO2,2,4,3
India,Jammu_and_Kashmir,Srinagar,"Rajbagh, Srinagar - JKPCC",13-01-2026 08:00:00,34.066206,74.819820,PM2.5,13,30,21
India,Jharkhand,Dhanbad,"Sardar Patel Nagar, Dhanbad - JSPCB",13-01-2026 08:00:00,23.80569,86.44268,OZONE,1,31,1
India,Karnataka,Belgaum,"Ramteerth Nagar, Belgaum - KSPCB",13-01-2026 08:00:00,15.888653,74.541751,PM10,36,123,61
India,Karnataka,Belgaum,"Ramteerth Nagar, Belgaum - KSPCB",13-01-2026 08:00:00,15.888653,74.541751,CO,4,8,4
India,Haryana,Bhiwani,"H.B. Colony, Bhiwani - HSPCB",13-01-2026 08:00:00,28.806223,76.141105,CO,10,14,12
India,Haryana,Charkhi Dadri,"Mini Secretariat, Charkhi Dadri - HSPCB",13-01-2026 08:00:00,28.593883,76.270653,PM10,74,302,164
India,Haryana,Charkhi Dadri,"Mini Secretariat, Charkhi Dadri - HSPCB",13-01-2026 08:00:00,28.593883,76.270653,OZONE,13,17,15
India,Haryana,Dharuhera,"Municipal Corporation Office, Dharuhera -  HSPCB",13-01-2026 08:00:00,28.206800,76.799700,PM2.5,132,440,330
India,Haryana,Dharuhera,"Municipal Corporation Office, Dharuhera -  HSPCB",13-01-2026 08:00:00,28.206800,76.799700,PM10,115,444,291
