country,state,city,station,last_update,latitude,longitude,pollutant_id,min_value,max_value,avg_value
India,Andaman and Nicobar,Sri Vijaya Puram,"Police Line, Sri Vijaya Puram - ANPCC",12-12-2025 08:00:00,11.654054,92.734055,PM10,31,344,86
India,Andaman and Nicobar,Sri Vijaya Puram,"Police Line, Sri Vijaya Puram - ANPCC",12-12-2025 08:00:00,11.654054,92.734055,OZONE,1,8,1
India,Andhra_Pradesh,Amaravati,"Secretariat, Amaravati - APPCB",12-12-2025 08:00:00,16.5150833,80.5181667,PM10,100,271,139
India,Andhra_Pradesh,Amaravati,"Secretariat, Amaravati - APPCB",12-12-2025 08:00:00,16.5150833,80.5181667,NH3,1,4,2
India,Andhra_Pradesh,Anantapur,"Gulzarpet, Anantapur - APPCB",12-12-2025 08:00:00,14.675886,77.593027,CO,24,42,35
India,Andhra_Pradesh,Anantapur,"Gulzarpet, Anantapur - APPCB",12-12-2025 08:00:00,14.675886,77.593027,OZONE,16,81,29
India,Andhra_Pradesh,Chittoor,"Gangineni Cheruvu, Chittoor - APPCB",12-12-2025 08:00:00,13.204880,79.097889,PM2.5,74,92,83
India,Andhra_Pradesh,Chittoor,"Gangineni Cheruvu, Chittoor - APPCB",12-12-2025 08:00:00,13.204880,79.097889,PM10,79,98,89
India,Andhra_Pradesh,Chittoor,"Gangineni Cheruvu, Chittoor - APPCB",12-12-2025 08:00:00,13.204880,79.097889,OZONE,50,58,54
India,Andhra_Pradesh,Kadapa,"Yerramukkapalli, Kadapa - APPCB",12-12-2025 08:00:00,14.465052,78.824187,PM10,37,106,72
India,Andhra_Pradesh,Kadapa,"Yerramukkapalli, Kadapa - APPCB",12-12-2025 08:00:00,14.465052,78.824187,SO2,10,10,10
India,Andhra_Pradesh,Kadapa,"Yerramukkapalli, Kadapa - APPCB",12-12-2025 08:00:00,14.465052,78.824187,CO,32,46,37
India,Andhra_Pradesh,Rajamahendravaram,"Anand Kala Kshetram, Rajamahendravaram - APPCB",12-12-2025 08:00:00,16.9872867,81.7363176,NO2,19,54,38
India,Andhra_Pradesh,Tirumala,"Toll Gate, Tirumala - APPCB",12-12-2025 08:00:00,13.67,79.35,PM10,107,130,113
India,Andhra_Pradesh,Tirupati,"Vaikuntapuram, Tirupati - APPCB",12-12-2025 08:00:00,13.615387,79.409230,NO2,14,17,15
India,Andhra_Pradesh,Vijayawada,"HB Colony, Vijayawada - APPCB",12-12-2025 08:00:00,16.536107,80.594233,PM2.5,61,76,69
India,Andhra_Pradesh,Vijayawada,"HB Colony, Vijayawada - APPCB",12-12-2025 08:00:00,16.536107,80.594233,NO2,23,23,23
India,Andhra_Pradesh,Vijayawada,"HB Colony, Vijayawada - APPCB",12-12-2025 08:00:00,16.536107,80.594233,NH3,5,5,5
India,Andhra_Pradesh,Vijayawada,"Kanuru, Vijayawada - APPCB",12-12-2025 08:00:00,16.486692,80.699436,PM10,NA,NA,NA
India,Andhra_Pradesh,Vijayawada,"Rajiv Gandhi Park, Vijayawada - APPCB",12-12-2025 08:00:00,16.509717,80.612222,PM2.5,73,136,94
India,Andhra_Pradesh,Vijayawada,"Rajiv Gandhi Park, Vijayawada - APPCB",12-12-2025 08:00:00,16.509717,80.612222,OZONE,5,73,7
India,Bihar,Gaya,"SFTI Kusdihra, Gaya - BSPCB",12-12-2025 08:00:00,24.762518,84.982348,CO,28,60,48
India,Bihar,Hajipur,"Industrial Area, Hajipur - BSPCB",12-12-2025 08:00:00,25.697189,85.245900,PM10,37,500,138
India,Bihar,Hajipur,"Industrial Area, Hajipur - BSPCB",12-12-2025 08:00:00,25.697189,85.245900,OZONE,5,95,18
India,Bihar,Katihar,"Mirchaibari, Katihar - BSPCB",12-12-2025 08:00:00,25.560083,87.553265,NO2,14,18,16
India,Bihar,Katihar,"Mirchaibari, Katihar - BSPCB",12-12-2025 08:00:00,25.560083,87.553265,SO2,14,21,18
India,Bihar,Bhagalpur,"Mayaganj, Bhagalpur - BSPCB",12-12-2025 08:00:00,25.265194,87.012947,PM10,105,151,132
India,Bihar,Buxar,"Charitra Van, Buxar - BSPCB",12-12-2025 08:00:00,25.567520,83.966379,PM2.5,113,277,203
India,Bihar,Buxar,"Charitra Van, Buxar - BSPCB",12-12-2025 08:00:00,25.567520,83.966379,NH3,3,3,3
India,Bihar,Chhapra,"Darshan Nagar, Chhapra - BSPCB",12-12-2025 08:00:00,25.7808257,84.7446768,NH3,NA,NA,NA
India,Bihar,Begusarai,"Lohiyanagar, Begusarai - BSPCB",12-12-2025 08:00:00,25.42742023,86.13886079,OZONE,10,75,12
India,Bihar,Bettiah,"Kamalnath Nagar, Bettiah - BSPCB",12-12-2025 08:00:00,26.80365,84.51954,PM2.5,53,233,149
India,Bihar,Bettiah,"Kamalnath Nagar, Bettiah - BSPCB",12-12-2025 08:00:00,26.80365,84.51954,SO2,5,13,8
India,Bihar,Bettiah,"Kamalnath Nagar, Bettiah - BSPCB",12-12-2025 08:00:00,26.80365,84.51954,OZONE,22,23,22
India,Assam,Guwahati,"Railway Colony, Guwahati - PCBA",12-12-2025 08:00:00,26.181742,91.78063,PM10,37,250,129
India,Assam,Nalbari,"Bata Chowk, Nalbari - PCBA",12-12-2025 08:00:00,26.446912,91.439057,NO2,8,15,14
India,Assam,Silchar,"Tarapur, Silchar - PCBA",12-12-2025 08:00:00,24.82827,92.79525,NO2,20,25,22
India,Andhra_Pradesh,Visakhapatnam,"GVM Corporation, Visakhapatnam - APPCB",12-12-2025 08:00:00,17.72,83.3,NO2,20,195,109
India,Arunachal_Pradesh,Naharlagun,"Naharlagun, Naharlagun - APSPCB",12-12-2025 08:00:00,27.103358,93.679645,PM10,NA,NA,NA
India,Bihar,Araria,"Kharahiya Basti, Araria - BSPCB",12-12-2025 08:00:00,26.146529,87.454184,OZONE,9,11,10
India,Bihar,Aurangabad,"Gurdeo Nagar, Aurangabad - BSPCB",12-12-2025 08:00:00,24.75746,84.366208,NH3,1,2,2
India,Assam,Guwahati,"LGBI Airport, Guwahati - PCBA",12-12-2025 08:00:00,26.10887,91.589544,NO2,12,153,21
India,Assam,Guwahati,"Pan Bazaar, Guwahati - PCBA",12-12-2025 08:00:00,26.187500,91.744194,PM2.5,31,208,95
India,Bihar,Muzaffarpur,"Buddha Colony, Muzaffarpur - BSPCB",12-12-2025 08:00:00,26.11442,85.39813,PM2.5,92,273,183
India,Bihar,Muzaffarpur,"Buddha Colony, Muzaffarpur - BSPCB",12-12-2025 08:00:00,26.11442,85.39813,PM10,70,129,103
India,Bihar,Muzaffarpur,"Buddha Colony, Muzaffarpur - BSPCB",12-12-2025 08:00:00,26.11442,85.39813,NO2,12,63,36
India,Bihar,Muzaffarpur,"MIT-Daudpur Kothi, Muzaffarpur - BSPCB",12-12-2025 08:00:00,26.1403345,85.3650192,PM10,60,83,76
India,Bihar,Muzaffarpur,"MIT-Daudpur Kothi, Muzaffarpur - BSPCB",12-12-2025 08:00:00,26.1403345,85.3650192,NO2,2,5,3
India,Bihar,Muzaffarpur,"MIT-Daudpur Kothi, Muzaffarpur - BSPCB",12-12-2025 08:00:00,26.1403345,85.3650192,SO2,9,20,12
India,Bihar,Muzaffarpur,"MIT-Daudpur Kothi, Muzaffarpur - BSPCB",12-12-2025 08:00:00,26.1403345,85.3650192,OZONE,17,53,18
India,Bihar,Muzaffarpur,"Muzaffarpur Collectorate, Muzaffarpur - BSPCB",12-12-2025 08:00:00,26.1209,85.3647,PM2.5,97,140,125
India,Bihar,Patna,"DRM Office Danapur, Patna - BSPCB",12-12-2025 08:00:00,25.586562,85.043586,PM10,98,338,190
India,Chandigarh,Chandigarh,"Sector-53, Chandigarh - CPCC",12-12-2025 08:00:00,30.719859,76.738637,NH3,8,13,10
India,Chhattisgarh,Bhilai,"32Bungalows, Bhilai - CECB",12-12-2025 08:00:00,21.194815,81.314770,PM2.5,10,35,25
India,Chhattisgarh,Bhilai,"Civic Center, Bhilai - Bhilai Steel Plant",12-12-2025 08:00:00,21.185571,81.343175,SO2,7,12,9
India,Chhattisgarh,Bhilai,"Civic Center, Bhilai - Bhilai Steel Plant",12-12-2025 08:00:00,21.185571,81.343175,OZONE,5,14,9
India,Chhattisgarh,Bhilai,"Hathkhoj, Bhilai - CECB",12-12-2025 08:00:00,21.224231,81.408350,PM10,20,168,71
India,Chhattisgarh,Bilaspur,"Mangala, Bilaspur - NTPC",12-12-2025 08:00:00,22.08815,82.13737,SO2,11,19,15
India,Bihar,Patna,"Rajbansi Nagar, Patna - BSPCB",12-12-2025 08:00:00,25.599486,85.113666,PM10,129,262,153
India,Bihar,Patna,"Rajbansi Nagar, Patna - BSPCB",12-12-2025 08:00:00,25.599486,85.113666,NO2,45,144,98
India,Bihar,Patna,"Rajbansi Nagar, Patna - BSPCB",12-12-2025 08:00:00,25.599486,85.113666,OZONE,22,28,25
India,Bihar,Patna,"Samanpura, Patna - BSPCB",12-12-2025 08:00:00,25.596727,85.085624,PM2.5,247,371,320
India,Bihar,Purnia,"Mariam Nagar, Purnia - BSPCB",12-12-2025 08:00:00,25.366336,87.117468,PM2.5,55,233,133
India,Bihar,Rajgir,"Dangi Tola, Rajgir - BSPCB",12-12-2025 08:00:00,25.03280,85.41948,PM2.5,48,410,252
India,Bihar,Rajgir,"Dangi Tola, Rajgir - BSPCB",12-12-2025 08:00:00,25.03280,85.41948,NH3,6,8,6
India,Chhattisgarh,Chhal,"Nawapara SECL Colony, Chhal - CECB",12-12-2025 08:00:00,22.118125,83.140608,OZONE,3,135,7
India,Chhattisgarh,Korba,"Rampur, Korba - CECB",12-12-2025 08:00:00,22.368195,82.746431,PM10,72,86,85
India,Chhattisgarh,Korba,"Rampur, Korba - CECB",12-12-2025 08:00:00,22.368195,82.746431,CO,14,48,30
India,Chhattisgarh,Korba,"Urja Nagar, Korba - CECB",12-12-2025 08:00:00,22.348441,82.549611,NO2,14,74,32
India,Chhattisgarh,Kunjemura,"OP Jindal School, Kunjemura - CECB",12-12-2025 08:00:00,22.126650,83.483212,PM10,32,131,69
India,Bihar,Rajgir,"Dangi Tola, Rajgir - BSPCB",12-12-2025 08:00:00,25.03280,85.41948,OZONE,30,34,32
India,Bihar,Saharsa,"Police Line, Saharsa - BSPCB",12-12-2025 08:00:00,25.892357,86.590325,NO2,NA,NA,NA
India,Bihar,Samastipur,"DM Office_Kasipur, Samastipur - BSPCB",12-12-2025 08:00:00,25.859655,85.77944,PM2.5,97,363,256
India,Bihar,Samastipur,"DM Office_Kasipur, Samastipur - BSPCB",12-12-2025 08:00:00,25.859655,85.77944,NO2,6,10,8
India,Bihar,Katihar,"Mirchaibari, Katihar - BSPCB",12-12-2025 08:00:00,25.560083,87.553265,CO,58,86,70
India,Bihar,Manguraha,"Forest Rest House, Manguraha - BSPCB",12-12-2025 08:00:00,27.308328,84.531742,NO2,4,12,7
India,Bihar,Manguraha,"Forest Rest House, Manguraha - BSPCB",12-12-2025 08:00:00,27.308328,84.531742,CO,32,34,32
India,Bihar,Motihari,"Gandak Colony, Motihari - BSPCB",12-12-2025 08:00:00,26.63086,84.90051,CO,38,59,42
India,Bihar,Patna,"Govt. High School Shikarpur, Patna - BSPCB",12-12-2025 08:00:00,25.592539,85.227158,PM10,60,140,93
India,Bihar,Patna,"Muradpur, Patna - BSPCB",12-12-2025 08:00:00,25.619651,85.147382,NH3,4,5,5
India,Chandigarh,Chandigarh,"Sector 22, Chandigarh - CPCC",12-12-2025 08:00:00,30.735567,76.775714,PM10,86,217,132
India,Chandigarh,Chandigarh,"Sector 22, Chandigarh - CPCC",12-12-2025 08:00:00,30.735567,76.775714,OZONE,2,107,5
India,Chhattisgarh,Raipur,"AIIMS, Raipur - CECB",12-12-2025 08:00:00,21.258815,81.578979,NH3,NA,NA,NA
India,Delhi,Delhi,"Lodhi Road, Delhi - IITM",12-12-2025 08:00:00,28.588333,77.221667,PM2.5,NA,NA,NA
India,Delhi,Delhi,"Lodhi Road, Delhi - IMD",12-12-2025 08:00:00,28.5918245,77.2273074,PM2.5,145,357,278
India,Delhi,Delhi,"Major Dhyan Chand National Stadium, Delhi - DPCC",12-12-2025 08:00:00,28.611281,77.237738,PM2.5,92,375,268
India,Delhi,Delhi,"Mandir Marg, Delhi - DPCC",12-12-2025 08:00:00,28.636429,77.201067,PM10,81,414,247
India,Delhi,Delhi,"Mundka, Delhi - DPCC",12-12-2025 08:00:00,28.684678,77.076574,PM2.5,167,500,372
India,Delhi,Delhi,"Mundka, Delhi - DPCC",12-12-2025 08:00:00,28.684678,77.076574,PM10,137,500,340
India,Delhi,Delhi,"North Campus, DU, Delhi - IMD",12-12-2025 08:00:00,28.6573814,77.1585447,PM10,139,406,269
India,Delhi,Delhi,"Okhla Phase-2, Delhi - DPCC",12-12-2025 08:00:00,28.530785,77.271255,NO2,155,241,192
India,Delhi,Delhi,"Okhla Phase-2, Delhi - DPCC",12-12-2025 08:00:00,28.530785,77.271255,CO,20,131,118
India,Delhi,Delhi,"Patparganj, Delhi - DPCC",12-12-2025 08:00:00,28.623763,77.287209,NH3,12,17,16
India,Delhi,Delhi,"Patparganj, Delhi - DPCC",12-12-2025 08:00:00,28.623763,77.287209,SO2,1,11,4
India,Delhi,Delhi,"Bawana, Delhi - DPCC",12-12-2025 08:00:00,28.776200,77.051074,OZONE,3,106,4
India,Delhi,Delhi,"Burari Crossing, Delhi - IMD",12-12-2025 08:00:00,28.7256504,77.2011573,NO2,NA,NA,NA
India,Delhi,Delhi,"Chandni Chowk, Delhi - IITM",12-12-2025 08:00:00,28.656756,77.227234,NH3,8,16,12
India,Delhi,Delhi,"DTU, Delhi - CPCB",12-12-2025 08:00:00,28.7500499,77.1112615,PM2.5,160,500,366
India,Chhattisgarh,Raipur,"Krishak Nagar, Raipur - CECB",12-12-2025 08:00:00,21.237755,81.705301,NH3,2,2,2
India,Chhattisgarh,Raipur,"Krishak Nagar, Raipur - CECB",12-12-2025 08:00:00,21.237755,81.705301,SO2,5,8,6
India,Chhattisgarh,Raipur,"Siltara Phase-II, Raipur - CECB",12-12-2025 08:00:00,21.371751,81.664929,PM10,78,159,113
India,Chhattisgarh,Raipur,"Siltara Phase-II, Raipur - CECB",12-12-2025 08:00:00,21.371751,81.664929,OZONE,3,6,3
India,Delhi,Delhi,"IHBAS, Dilshad Garden, Delhi - CPCB",12-12-2025 08:00:00,28.6811736,77.3025234,PM10,177,438,258
India,Delhi,Delhi,"IHBAS, Dilshad Garden, Delhi - CPCB",12-12-2025 08:00:00,28.6811736,77.3025234,SO2,11,29,18
India,Delhi,Delhi,"IIT Delhi, Delhi - IITM",12-12-2025 08:00:00,28.542460,77.191651,CO,8,88,73
India,Delhi,Delhi,"ITO, Delhi - CPCB",12-12-2025 08:00:00,28.628624,77.241060,NH3,3,7,5
India,Delhi,Delhi,"Jawaharlal Nehru Stadium, Delhi - DPCC",12-12-2025 08:00:00,28.580280,77.233829,PM10,153,438,275
India,Delhi,Delhi,"Jawaharlal Nehru Stadium, Delhi - DPCC",12-12-2025 08:00:00,28.580280,77.233829,NO2,45,146,94
India,Delhi,Delhi,"Najafgarh, Delhi - DPCC",12-12-2025 08:00:00,28.570173,76.933762,NH3,9,15,11
India,Delhi,Delhi,"Nehru Nagar, Delhi - DPCC",12-12-2025 08:00:00,28.567890,77.250515,NO2,39,120,64
India,Chhattisgarh,Tumidih,"OP Jindal Industrial Park, Tumidih - CECB",12-12-2025 08:00:00,22.06631475,83.33820077,NH3,1,2,2
India,Delhi,Delhi,"IGI Airport (T3), Delhi - IMD",12-12-2025 08:00:00,28.5627763,77.1180053,PM10,119,415,247
India,Haryana,Ballabgarh,"Nathu Colony, Ballabgarh - HSPCB",12-12-2025 08:00:00,28.3419248,77.319699,SO2,3,11,7
India,Haryana,Bhiwani,"H.B. Colony, Bhiwani - HSPCB",12-12-2025 08:00:00,28.806223,76.141105,PM10,84,358,118
India,Haryana,Charkhi Dadri,"Mini Secretariat, Charkhi Dadri - HSPCB",12-12-2025 08:00:00,28.593883,76.270653,PM2.5,80,351,245
India,Haryana,Charkhi Dadri,"Mini Secretariat, Charkhi Dadri - HSPCB",12-12-2025 08:00:00,28.593883,76.270653,NO2,9,25,15
India,Haryana,Charkhi Dadri,"Mini Secretariat, Charkhi Dadri - HSPCB",12-12-2025 08:00:00,28.593883,76.270653,CO,8,25,15
India,Haryana,Dharuhera,"Municipal Corporation Office, Dharuhera -  HSPCB",12-12-2025 08:00:00,28.206800,76.799700,PM2.5,97,368,276
India,Haryana,Faridabad,"New Industrial Town, Faridabad - HSPCB",12-12-2025 08:00:00,28.39072,77.30059,NO2,24,26,25
India,Delhi,Delhi,"Pusa, Delhi - DPCC",12-12-2025 08:00:00,28.639652,77.146275,PM2.5,200,382,318
India,Delhi,Delhi,"Pusa, Delhi - IMD",12-12-2025 08:00:00,28.636110,77.173332,PM10,112,416,262
India,Delhi,Delhi,"R K Puram, Delhi - DPCC",12-12-2025 08:00:00,28.563262,77.186937,PM2.5,197,500,339
India,Delhi,Delhi,"R K Puram, Delhi - DPCC",12-12-2025 08:00:00,28.563262,77.186937,PM10,131,500,276
India,Delhi,Delhi,"R K Puram, Delhi - DPCC",12-12-2025 08:00:00,28.563262,77.186937,NH3,7,12,8
India,Delhi,Delhi,"R K Puram, Delhi - DPCC",12-12-2025 08:00:00,28.563262,77.186937,SO2,5,19,11
India,Delhi,Delhi,"R K Puram, Delhi - DPCC",12-12-2025 08:00:00,28.563262,77.186937,CO,28,168,114
India,Delhi,Delhi,"Rohini, Delhi - DPCC",12-12-2025 08:00:00,28.732528,77.119920,PM2.5,177,500,385
India,Delhi,Delhi,"Rohini, Delhi - DPCC",12-12-2025 08:00:00,28.732528,77.119920,SO2,3,14,10
India,Gujarat,Ahmedabad,"SAC ISRO Satellite, Ahmedabad - IITM",12-12-2025 08:00:00,23.023389,72.515201,NH3,7,30,17
India,Gujarat,Ahmedabad,"SVPI Airport Hansol, Ahmedabad - IITM",12-12-2025 08:00:00,23.076793,72.627874,PM2.5,29,98,69
India,Gujarat,Ahmedabad,"SVPI Airport Hansol, Ahmedabad - IITM",12-12-2025 08:00:00,23.076793,72.627874,NH3,3,3,3
India,Gujarat,Ankleshwar,"GIDC, Ankleshwar - GPCB",12-12-2025 08:00:00,21.613267,73.010555,CO,27,97,65
India,Gujarat,Gandhinagar,"IIPHG Lekawada, Gandhinagar - IITM",12-12-2025 08:00:00,23.243639,72.68994,NO2,7,8,7
India,Gujarat,Gandhinagar,"IIPHG Lekawada, Gandhinagar - IITM",12-12-2025 08:00:00,23.243639,72.68994,NH3,2,3,2
India,Delhi,Delhi,"Sirifort, Delhi - CPCB",12-12-2025 08:00:00,28.5504249,77.2159377,PM10,148,351,236
India,Delhi,Delhi,"Sirifort, Delhi - CPCB",12-12-2025 08:00:00,28.5504249,77.2159377,OZONE,10,27,14
India,Delhi,Delhi,"Sonia Vihar, Delhi - DPCC",12-12-2025 08:00:00,28.710508,77.249485,SO2,3,19,10
India,Delhi,Delhi,"Sonia Vihar, Delhi - DPCC",12-12-2025 08:00:00,28.710508,77.249485,CO,83,166,166
India,Delhi,Delhi,"Sri Aurobindo Marg, Delhi - DPCC",12-12-2025 08:00:00,28.531346,77.190156,NH3,5,8,7
India,Delhi,Delhi,"Vivek Vihar, Delhi - DPCC",12-12-2025 08:00:00,28.672342,77.315260,SO2,4,22,14
India,Delhi,Delhi,"Wazirpur, Delhi - DPCC",12-12-2025 08:00:00,28.699793,77.165453,PM10,184,500,389
India,Delhi,Delhi,"Wazirpur, Delhi - DPCC",12-12-2025 08:00:00,28.699793,77.165453,NO2,60,114,83
India,Gujarat,Ahmedabad,"Gyaspur, Ahmedabad - IITM",12-12-2025 08:00:00,22.977134,72.553024,PM2.5,130,194,136
India,Gujarat,Gandhinagar,"Sector-10, Gandhinagar - GPCB",12-12-2025 08:00:00,23.221714,72.654328,NH3,2,5,3
India,Gujarat,Vapi,"Phase-1 GIDC, Vapi - GPCB",12-12-2025 08:00:00,20.362421,72.918013,PM10,19,120,77
India,Gujarat,Vapi,"Phase-1 GIDC, Vapi - GPCB",12-12-2025 08:00:00,20.362421,72.918013,NO2,3,14,9
India,Gujarat,Vatva,"Phase-4 GIDC, Vatva - GPCB",12-12-2025 08:00:00,22.969611,72.643500,SO2,4,13,9
India,Haryana,Ambala,"Patti Mehar, Ambala - HSPCB",12-12-2025 08:00:00,30.379589,76.778328,PM2.5,78,196,140
India,Haryana,Ambala,"Patti Mehar, Ambala - HSPCB",12-12-2025 08:00:00,30.379589,76.778328,NO2,21,25,23
India,Haryana,Ambala,"Patti Mehar, Ambala - HSPCB",12-12-2025 08:00:00,30.379589,76.778328,SO2,31,32,31
India,Haryana,Bahadurgarh,"Arya Nagar, Bahadurgarh - HSPCB",12-12-2025 08:00:00,28.6701,76.9254,NH3,12,13,13
India,Gujarat,Ahmedabad,"Raikhad, Ahmedabad - IITM",12-12-2025 08:00:00,23.020509,72.579261,OZONE,4,68,5
India,Gujarat,Ahmedabad,"Rakhial, Ahmedabad - IITM",12-12-2025 08:00:00,23.016834,72.625775,NO2,13,112,64
India,Gujarat,Ahmedabad,"SAC ISRO Bopal, Ahmedabad - IITM",12-12-2025 08:00:00,23.041137,72.456691,NH3,11,19,14
India,Delhi,Delhi,"Punjabi Bagh, Delhi - DPCC",12-12-2025 08:00:00,28.674045,77.131023,NO2,29,73,49
India,Haryana,Faridabad,"Sector 11, Faridabad - HSPCB",12-12-2025 08:00:00,28.376058,77.315741,PM10,60,459,229
India,Haryana,Faridabad,"Sector 11, Faridabad - HSPCB",12-12-2025 08:00:00,28.376058,77.315741,SO2,4,7,5
India,Haryana,Faridabad,"Sector 11, Faridabad - HSPCB",12-12-2025 08:00:00,28.376058,77.315741,OZONE,14,15,15
India,Haryana,Faridabad,"Sector 30, Faridabad - HSPCB",12-12-2025 08:00:00,28.4417,77.3217,CO,60,64,62
India,Haryana,Fatehabad,"Huda Sector, Fatehabad - HSPCB",12-12-2025 08:00:00,29.503664,75.467934,CO,25,40,29
India,Haryana,Gurugram,"NISE Gwal Pahari, Gurugram - IMD",12-12-2025 08:00:00,28.422681,77.148944,PM2.5,83,366,251
India,Haryana,Gurugram,"NISE Gwal Pahari, Gurugram - IMD",12-12-2025 08:00:00,28.422681,77.148944,PM10,142,334,202
India,Haryana,Gurugram,"Sector-51, Gurugram - HSPCB",12-12-2025 08:00:00,28.4227,77.0667,PM10,119,490,223
India,Haryana,Rohtak,"MD University, Rohtak - HSPCB",12-12-2025 08:00:00,28.52123,76.37138,PM10,39,192,128
India,Haryana,Rohtak,"MD University, Rohtak - HSPCB",12-12-2025 08:00:00,28.52123,76.37138,OZONE,25,26,25
India,Haryana,Sonipat,"Murthal, Sonipat - HSPCB",12-12-2025 08:00:00,29.027200,77.062100,NO2,7,55,42
India,Haryana,Sonipat,"Murthal, Sonipat - HSPCB",12-12-2025 08:00:00,29.027200,77.062100,SO2,6,12,8
India,Haryana,Sonipat,"Murthal, Sonipat - HSPCB",12-12-2025 08:00:00,29.027200,77.062100,CO,30,54,48
India,Himachal Pradesh,Baddi,"HIMUDA Complex Phase-1, Baddi - HPPCB",12-12-2025 08:00:00,30.943887,76.801991,PM2.5,62,435,260
India,Haryana,Gurugram,"Sector-51, Gurugram - HSPCB",12-12-2025 08:00:00,28.4227,77.0667,NO2,2,5,3
India,Haryana,Gurugram,"Vikas Sadan, Gurugram - HSPCB",12-12-2025 08:00:00,28.4501238,77.0263051,PM10,144,154,147
India,Haryana,Gurugram,"Vikas Sadan, Gurugram - HSPCB",12-12-2025 08:00:00,28.4501238,77.0263051,OZONE,8,55,18
India,Haryana,Hisar,"Urban Estate-II, Hisar - HSPCB",12-12-2025 08:00:00,29.140560,75.744941,NH3,7,8,8
India,Haryana,Jind,"Police Lines, Jind - HSPCB",12-12-2025 08:00:00,29.307814,76.337619,SO2,1,57,10
India,Karnataka,Bengaluru,"BTM Layout, Bengaluru - CPCB",12-12-2025 08:00:00,12.9135218,77.5950804,OZONE,21,22,21
India,Karnataka,Bengaluru,"BWSSB Kadabesanahalli, Bengaluru - CPCB",12-12-2025 08:00:00,12.9352049,77.6814488,NH3,NA,NA,NA
India,Karnataka,Bengaluru,"Hebbal, Bengaluru - KSPCB",12-12-2025 08:00:00,13.029152,77.585901,PM10,68,144,112
India,Karnataka,Bengaluru,"Hebbal, Bengaluru - KSPCB",12-12-2025 08:00:00,13.029152,77.585901,SO2,4,10,8
India,Karnataka,Bengaluru,"Hombegowda Nagar, Bengaluru - KSPCB",12-12-2025 08:00:00,12.938539,77.590100,NO2,14,75,31
India,Karnataka,Bengaluru,"Jayanagar 5th Block, Bengaluru - KSPCB",12-12-2025 08:00:00,12.920984,77.584908,PM10,82,143,116
India,Karnataka,Bengaluru,"Jayanagar 5th Block, Bengaluru - KSPCB",12-12-2025 08:00:00,12.920984,77.584908,CO,12,76,20
India,Karnataka,Bengaluru,"Jigani, Bengaluru - KSPCB",12-12-2025 08:00:00,12.7816279,77.6299145,NH3,4,4,4
India,Karnataka,Bengaluru,"Jigani, Bengaluru - KSPCB",12-12-2025 08:00:00,12.7816279,77.6299145,SO2,17,22,18
India,Karnataka,Bengaluru,"Kasturi Nagar, Bengaluru - KSPCB",12-12-2025 08:00:00,13.003872,77.664217,NH3,2,3,2
India,Karnataka,Bengaluru,"Kasturi Nagar, Bengaluru - KSPCB",12-12-2025 08:00:00,13.003872,77.664217,SO2,11,14,12
India,Haryana,Kaithal,"Rishi Nagar, Kaithal - HSPCB",12-12-2025 08:00:00,29.8006,76.4155,NO2,28,33,31
India,Haryana,Kaithal,"Rishi Nagar, Kaithal - HSPCB",12-12-2025 08:00:00,29.8006,76.4155,SO2,29,34,32
India,Haryana,Karnal,"Sector-12, Karnal - HSPCB",12-12-2025 08:00:00,29.695300,77.002700,NO2,6,7,6
India,Haryana,Karnal,"Sector-12, Karnal - HSPCB",12-12-2025 08:00:00,29.695300,77.002700,OZONE,36,36,36
India,Haryana,Mandikhera,"General Hospital, Mandikhera(Nuh) - HSPCB",12-12-2025 08:00:00,27.9002,76.9938,NO2,20,23,22
India,Jammu_and_Kashmir,Srinagar,"Rajbagh, Srinagar - JKSPCB",12-12-2025 08:00:00,34.066206,74.819820,PM10,65,147,105
India,Jharkhand,Dhanbad,"Sardar Patel Nagar, Dhanbad - JSPCB",12-12-2025 08:00:00,23.80569,86.44268,PM10,112,317,187
India,Jharkhand,Dhanbad,"Sardar Patel Nagar, Dhanbad - JSPCB",12-12-2025 08:00:00,23.80569,86.44268,NO2,74,80,76
India,Haryana,Manesar,"Sector-2 IMT, Manesar - HSPCB",12-12-2025 08:00:00,28.360699,76.936090,OZONE,6,32,9
India,Karnataka,Bengaluru,"Peenya, Bengaluru - CPCB",12-12-2025 08:00:00,13.0270199,77.494094,PM2.5,20,83,37
India,Madhya Pradesh,Gwalior,"Maharaj Bada, Gwalior - MPPCB",12-12-2025 08:00:00,26.200388,78.147714,OZONE,2,37,23
India,Madhya Pradesh,Indore,"Airport Area, Indore - IMC",12-12-2025 08:00:00,22.7289,75.8076,PM10,31,427,107
India,Madhya Pradesh,Indore,"Airport Area, Indore - IMC",12-12-2025 08:00:00,22.7289,75.8076,CO,6,14,12
India,Madhya Pradesh,Indore,"Chhoti Gwaltoli, Indore - MPPCB",12-12-2025 08:00:00,22.4310,75.5213,PM10,40,343,163
India,Madhya Pradesh,Indore,"Chhoti Gwaltoli, Indore - MPPCB",12-12-2025 08:00:00,22.4310,75.5213,NO2,71,188,132
India,Madhya Pradesh,Indore,"Maguda Nagar, Indore - IMC",12-12-2025 08:00:00,22.7524,75.8872,NH3,NA,NA,NA
India,Madhya Pradesh,Indore,"Regional Park, Indore - IMC",12-12-2025 08:00:00,22.6780,75.8559,CO,23,50,46
India,Madhya Pradesh,Indore,"Regional Park, Indore - IMC",12-12-2025 08:00:00,22.6780,75.8559,OZONE,10,20,17
India,Madhya Pradesh,Jabalpur,"Govindh Bhavan Colony, Jabalpur - JMC",12-12-2025 08:00:00,23.163174,79.973061,SO2,12,16,15
India,Madhya Pradesh,Jabalpur,"Govindh Bhavan Colony, Jabalpur - JMC",12-12-2025 08:00:00,23.163174,79.973061,OZONE,23,24,24
India,Madhya Pradesh,Jabalpur,"Gupteshwar, Jabalpur - JMC",12-12-2025 08:00:00,23.142888,79.916147,PM10,47,127,73
India,Madhya Pradesh,Jabalpur,"Gupteshwar, Jabalpur - JMC",12-12-2025 08:00:00,23.142888,79.916147,NO2,19,94,41
India,Madhya Pradesh,Jabalpur,"Marhatal, Jabalpur - MPPCB",12-12-2025 08:00:00,23.168606,79.932247,PM2.5,46,348,123
India,Madhya Pradesh,Jabalpur,"Marhatal, Jabalpur - MPPCB",12-12-2025 08:00:00,23.168606,79.932247,SO2,10,26,15
India,Madhya Pradesh,Jabalpur,"Suhagi, Jabalpur - JMC",12-12-2025 08:00:00,23.218135,79.957770,PM10,44,256,113
India,Madhya Pradesh,Jabalpur,"Suhagi, Jabalpur - JMC",12-12-2025 08:00:00,23.218135,79.957770,NO2,22,134,50
India,Karnataka,Dharwad,"Kalabhavan, Dharwad - KSPCB",12-12-2025 08:00:00,15.459706,75.008381,OZONE,24,32,32
India,Karnataka,Hubballi,"Lingaraj Nagar, Hubballi - KSPCB",12-12-2025 08:00:00,15.3714823,75.1160168,NO2,9,13,10
India,Karnataka,Madikeri,"Stuart Hill, Madikeri - KSPCB",12-12-2025 08:00:00,12.415911,75.735050,PM2.5,36,72,50
India,Karnataka,Mangalore,"Kadri, Mangalore - KSPCB",12-12-2025 08:00:00,12.889250,74.853000,PM2.5,NA,NA,NA
India,Karnataka,Mangalore,"Kadri, Mangalore - KSPCB",12-12-2025 08:00:00,12.889250,74.853000,PM10,NA,NA,NA
India,Karnataka,Mangalore,"Kadri, Mangalore - KSPCB",12-12-2025 08:00:00,12.889250,74.853000,NO2,NA,NA,NA
India,Karnataka,Mangalore,"Kadri, Mangalore - KSPCB",12-12-2025 08:00:00,12.889250,74.853000,SO2,NA,NA,NA
India,Kerala,Thiruvananthapuram,"Kariavattom, Thiruvananthapuram - Kerala PCB",12-12-2025 08:00:00,8.563700,76.886500,SO2,1,17,6
India,Kerala,Thrissur,"Corporation Ground, Thrissur - Kerala PCB",12-12-2025 08:00:00,10.532400,76.215900,PM10,53,64,57
India,Kerala,Thrissur,"Corporation Ground, Thrissur - Kerala PCB",12-12-2025 08:00:00,10.532400,76.215900,SO2,1,1,1
India,Madhya Pradesh,Bhopal,"Idgah Hills, Bhopal - MPPCB",12-12-2025 08:00:00,23.264759,77.381568,PM2.5,48,311,111
India,Madhya Pradesh,Gwalior,"City Center, Gwalior - MPPCB",12-12-2025 08:00:00,26.203442,78.193251,NH3,2,4,3
India,Madhya Pradesh,Gwalior,"Deen Dayal Nagar, Gwalior - MPPCB",12-12-2025 08:00:00,26.259242,78.216432,NO2,13,123,62
India,Madhya Pradesh,Gwalior,"Deen Dayal Nagar, Gwalior - MPPCB",12-12-2025 08:00:00,26.259242,78.216432,NH3,6,10,8
India,Madhya Pradesh,Gwalior,"Deen Dayal Nagar, Gwalior - MPPCB",12-12-2025 08:00:00,26.259242,78.216432,CO,6,187,48
India,Madhya Pradesh,Gwalior,"Maharaj Bada, Gwalior - MPPCB",12-12-2025 08:00:00,26.200388,78.147714,PM2.5,20,317,101
India,Madhya Pradesh,Bhopal,"Paryavaran Parisar, Bhopal - MPPCB",12-12-2025 08:00:00,23.210494,77.425409,CO,12,75,40
India,Madhya Pradesh,Bhopal,"T T Nagar, Bhopal - MPPCB",12-12-2025 08:00:00,23.233584,77.400574,NO2,47,76,58
India,Madhya Pradesh,Bhopal,"T T Nagar, Bhopal - MPPCB",12-12-2025 08:00:00,23.233584,77.400574,CO,29,82,43
India,Madhya Pradesh,Damoh,"Shrivastav Colony, Damoh - MPPCB",12-12-2025 08:00:00,23.81748678,79.446246,SO2,2,16,7
India,Karnataka,Chamarajanagar,"Urban, Chamarajanagar - KSPCB",12-12-2025 08:00:00,11.55358,76.55521,PM10,29,50,43
India,Karnataka,Chamarajanagar,"Urban, Chamarajanagar - KSPCB",12-12-2025 08:00:00,11.55358,76.55521,SO2,2,5,4
India,Karnataka,Chikkamagaluru,"Kalyana Nagara, Chikkamagaluru - KSPCB",12-12-2025 08:00:00,13.328028,75.797056,NH3,2,3,2
India,Karnataka,Chikkamagaluru,"Kalyana Nagara, Chikkamagaluru - KSPCB",12-12-2025 08:00:00,13.328028,75.797056,OZONE,15,40,40
India,Kerala,Kannur,"Thavakkara, Kannur - Kerala PCB",12-12-2025 08:00:00,11.875000,75.373200,PM2.5,51,62,59
India,Kerala,Kannur,"Thavakkara, Kannur - Kerala PCB",12-12-2025 08:00:00,11.875000,75.373200,PM10,57,71,66
India,Kerala,Kannur,"Thavakkara, Kannur - Kerala PCB",12-12-2025 08:00:00,11.875000,75.373200,OZONE,28,32,28
India,Kerala,Eloor,"Udyogamandal, Eloor - Kerala PCB",12-12-2025 08:00:00,10.073232,76.302765,PM10,50,107,71
India,Kerala,Eloor,"Udyogamandal, Eloor - Kerala PCB",12-12-2025 08:00:00,10.073232,76.302765,NO2,6,7,6
India,Maharashtra,Belapur,"CBD Belapur, Belapur - MPCB",12-12-2025 08:00:00,19.0243902,73.0406721,NH3,1,2,1
India,Maharashtra,Bhiwandi,"Gokul Nagar, Bhiwandi - MPCB",12-12-2025 08:00:00,19.309073,73.057223,PM2.5,45,215,138
India,Maharashtra,Boisar,"Khaira, Boisar - MPCB",12-12-2025 08:00:00,19.786089,72.757971,NO2,11,70,34
India,Maharashtra,Boisar,"Khaira, Boisar - MPCB",12-12-2025 08:00:00,19.786089,72.757971,NH3,5,10,6
India,Maharashtra,Chandrapur,"MIDC Khutala, Chandrapur - MPCB",12-12-2025 08:00:00,19.9775302,79.2337086,PM2.5,68,305,160
India,Maharashtra,Chandrapur,"MIDC Khutala, Chandrapur - MPCB",12-12-2025 08:00:00,19.9775302,79.2337086,PM10,80,249,143
India,Maharashtra,Chandrapur,"MIDC Khutala, Chandrapur - MPCB",12-12-2025 08:00:00,19.9775302,79.2337086,SO2,8,9,9
India,Madhya Pradesh,Sagar,"Civil Lines, Sagar - MPPCB",12-12-2025 08:00:00,23.838586,78.759431,NO2,6,59,19
India,Madhya Pradesh,Sagar,"Civil Lines, Sagar - MPPCB",12-12-2025 08:00:00,23.838586,78.759431,SO2,5,11,8
India,Madhya Pradesh,Sagar,"Civil Lines, Sagar - MPPCB",12-12-2025 08:00:00,23.838586,78.759431,OZONE,40,65,54
India,Madhya Pradesh,Sagar,"Deen Dayal Nagar, Sagar - MPPCB",12-12-2025 08:00:00,23.8640158,78.80289321,PM10,37,193,97
India,Madhya Pradesh,Satna,"Bandhavgar Colony, Satna - Birla Cement",12-12-2025 08:00:00,24.58434363,80.8549414,PM2.5,44,48,46
India,Madhya Pradesh,Satna,"Bandhavgar Colony, Satna - Birla Cement",12-12-2025 08:00:00,24.58434363,80.8549414,CO,20,81,34
India,Madhya Pradesh,Singrauli,"Suryakiran Bhawan NCL, Singrauli - MPPCB",12-12-2025 08:00:00,24.108970,82.645580,SO2,25,31,28
India,Maharashtra,Ahmednagar,"Tarakpur, Ahmednagar - MPCB",12-12-2025 08:00:00,19.10122,74.73339,SO2,4,8,6
India,Maharashtra,Akola,"Ramdaspeth, Akola - MPCB",12-12-2025 08:00:00,20.719516,77.000253,NO2,13,92,36
India,Maharashtra,Amravati,"Shivneri Colony, Amravati - MPCB",12-12-2025 08:00:00,20.9402359,77.7895248,NO2,9,49,24
India,Madhya Pradesh,Jabalpur,"Suhagi, Jabalpur - JMC",12-12-2025 08:00:00,23.218135,79.957770,CO,2,117,39
India,Madhya Pradesh,Katni,"Gole Bazar, Katni - MPPCB",12-12-2025 08:00:00,23.50016,80.23284,PM10,37,323,144
India,Madhya Pradesh,Maihar,"Sahilara, Maihar - KJS Cements",12-12-2025 08:00:00,24.2613009,80.7231783,CO,24,27,24
India,Madhya Pradesh,Mandideep,"Sector-D Industrial Area, Mandideep - MPPCB",12-12-2025 08:00:00,23.108440,77.511428,PM2.5,NA,NA,NA
India,Maharashtra,Chandrapur,"MIDC Khutala, Chandrapur - MPCB",12-12-2025 08:00:00,19.9775302,79.2337086,CO,36,42,40
India,Maharashtra,Dhule,"Deopur, Dhule - MPCB",12-12-2025 08:00:00,20.918946,74.776388,CO,8,64,26
India,Maharashtra,Jalgaon,"Prabhat Colony, Jalgaon - MPCB",12-12-2025 08:00:00,21.001264,75.565602,NO2,3,36,13
India,Maharashtra,Jalna,"Old MIDC, Jalna - MPCB",12-12-2025 08:00:00,19.854616,75.905894,PM2.5,24,266,77
India,Maharashtra,Kolhapur,"Shivaji University, Kolhapur - MPCB",12-12-2025 08:00:00,16.6870449,74.2505872,NO2,16,124,56
India,Maharashtra,Kolhapur,"Shivaji University, Kolhapur - MPCB",12-12-2025 08:00:00,16.6870449,74.2505872,NH3,2,5,4
India,Maharashtra,Kolhapur,"Sinchan Bhavan, Kolhapur - MPCB",12-12-2025 08:00:00,16.7143745,74.2426398,NH3,5,13,10
India,Maharashtra,Latur,"Sawe Wadi, Latur - MPCB",12-12-2025 08:00:00,18.39963,76.57452,PM2.5,1,100,66
India,Maharashtra,Latur,"Sawe Wadi, Latur - MPCB",12-12-2025 08:00:00,18.39963,76.57452,OZONE,10,113,42
India,Maharashtra,Malegaon,"Mahesh Nagar, Malegaon - MPCB",12-12-2025 08:00:00,20.555712,74.529236,PM2.5,49,103,70
India,Maharashtra,Malegaon,"Mahesh Nagar, Malegaon - MPCB",12-12-2025 08:00:00,20.555712,74.529236,CO,16,106,28
India,Maharashtra,Malegaon,"Mahesh Nagar, Malegaon - MPCB",12-12-2025 08:00:00,20.555712,74.529236,OZONE,13,78,18
India,Maharashtra,Aurangabad,"MIDC Chilkalthana, Aurangabad - MPCB",12-12-2025 08:00:00,19.875620,75.387310,PM10,5,144,88
India,Maharashtra,Belapur,"CBD Belapur, Belapur - MPCB",12-12-2025 08:00:00,19.0243902,73.0406721,PM10,52,169,100
India,Maharashtra,Mumbai,"Mazgaon, Mumbai - IITM",12-12-2025 08:00:00,18.96702,72.84214,CO,17,84,46
India,Maharashtra,Mumbai,"Mindspace-Malad West, Mumbai - MPCB",12-12-2025 08:00:00,19.1878657,72.8304069,SO2,6,34,16
India,Maharashtra,Mumbai,"Mulund West, Mumbai - MPCB",12-12-2025 08:00:00,19.1750,72.9419,NO2,15,19,18
India,Maharashtra,Mumbai,"Navy Nagar-Colaba, Mumbai - IITM",12-12-2025 08:00:00,18.897756,72.813320,PM2.5,40,148,106
India,Maharashtra,Mumbai,"Navy Nagar-Colaba, Mumbai - IITM",12-12-2025 08:00:00,18.897756,72.813320,NH3,7,33,17
India,Maharashtra,Mumbai,"Navy Nagar-Colaba, Mumbai - IITM",12-12-2025 08:00:00,18.897756,72.813320,SO2,13,57,28
India,Maharashtra,Mumbai,"Navy Nagar-Colaba, Mumbai - IITM",12-12-2025 08:00:00,18.897756,72.813320,CO,7,60,50
India,Maharashtra,Mumbai,"Powai, Mumbai - MPCB",12-12-2025 08:00:00,19.137500,72.915056,PM10,NA,NA,NA
India,Maharashtra,Mumbai,"Kandivali West, Mumbai - BMC",12-12-2025 08:00:00,19.215859,72.831718,SO2,4,12,8
India,Maharashtra,Mumbai,"Kherwadi_Bandra East, Mumbai - MPCB",12-12-2025 08:00:00,19.0632143,72.8456324,CO,4,42,27
India,Maharashtra,Mumbai,"Kherwadi_Bandra East, Mumbai - MPCB",12-12-2025 08:00:00,19.0632143,72.8456324,OZONE,1,71,1
India,Maharashtra,Mumbai,"Khindipada-Bhandup West, Mumbai - IITM",12-12-2025 08:00:00,19.1653323,72.922099,PM10,36,142,70
India,Maharashtra,Mumbai,"Kurla, Mumbai - MPCB",12-12-2025 08:00:00,19.0863,72.8888,SO2,36,37,37
India,Maharashtra,Mumbai,"Kurla, Mumbai - MPCB",12-12-2025 08:00:00,19.0863,72.8888,OZONE,28,29,28
India,Maharashtra,Mumbai,"Malad West, Mumbai - IITM",12-12-2025 08:00:00,19.19709,72.82204,OZONE,3,86,14
India,Maharashtra,Mumbai,"Vile Parle West, Mumbai - MPCB",12-12-2025 08:00:00,19.10861,72.83622,NH3,6,6,6
India,Maharashtra,Mumbai,"Vile Parle West, Mumbai - MPCB",12-12-2025 08:00:00,19.10861,72.83622,CO,32,44,39
India,Maharashtra,Mumbai,"Worli, Mumbai - MPCB",12-12-2025 08:00:00,18.9936162,72.8128113,NO2,3,16,9
India,Maharashtra,Mumbai,"Worli, Mumbai - MPCB",12-12-2025 08:00:00,18.9936162,72.8128113,CO,4,22,8
India,Maharashtra,Nagpur,"Ambazari, Nagpur - MPCB",12-12-2025 08:00:00,21.121801,79.04952,NO2,17,98,47
India,Maharashtra,Nagpur,"Ambazari, Nagpur - MPCB",12-12-2025 08:00:00,21.121801,79.04952,SO2,22,81,41
India,Maharashtra,Mumbai,"Borivali East, Mumbai - IITM",12-12-2025 08:00:00,19.23241,72.86895,OZONE,16,57,37
India,Maharashtra,Mumbai,"Borivali East, Mumbai - MPCB",12-12-2025 08:00:00,19.2243333,72.8658113,CO,18,21,20
India,Maharashtra,Mumbai,"Byculla, Mumbai - BMC",12-12-2025 08:00:00,18.9767,72.8380,SO2,18,24,21
India,Maharashtra,Mumbai,"Byculla, Mumbai - BMC",12-12-2025 08:00:00,18.9767,72.8380,CO,12,105,44
India,Maharashtra,Mumbai,"Chakala-Andheri East, Mumbai - IITM",12-12-2025 08:00:00,19.11074,72.86084,NO2,47,104,74
India,Maharashtra,Mumbai,"Chhatrapati Shivaji Intl. Airport (T2), Mumbai - MPCB",12-12-2025 08:00:00,19.10078,72.87462,PM10,86,177,126
India,Maharashtra,Mumbai,"Chhatrapati Shivaji Intl. Airport (T2), Mumbai - MPCB",12-12-2025 08:00:00,19.10078,72.87462,NO2,1,1,1
India,Maharashtra,Mumbai,"Colaba, Mumbai - MPCB",12-12-2025 08:00:00,18.910000,72.820000,PM10,75,121,101
India,Maharashtra,Mumbai,"Colaba, Mumbai - MPCB",12-12-2025 08:00:00,18.910000,72.820000,CO,54,61,59
India,Maharashtra,Mumbai,"Ghatkopar, Mumbai - BMC",12-12-2025 08:00:00,19.083694,72.920967,PM10,NA,NA,NA
India,Maharashtra,Mumbai,"Bandra Kurla Complex, Mumbai - MPCB",12-12-2025 08:00:00,19.065931,72.862131,OZONE,1,68,6
India,Maharashtra,Mumbai,"Borivali East, Mumbai - IITM",12-12-2025 08:00:00,19.23241,72.86895,PM10,45,109,79
India,Maharashtra,Mumbai,"Shivaji Nagar, Mumbai - BMC",12-12-2025 08:00:00,19.060498,72.923356,CO,1,101,17
India,Maharashtra,Mumbai,"Sion, Mumbai - MPCB",12-12-2025 08:00:00,19.047000,72.874600,NO2,55,139,92
India,Maharashtra,Nagpur,"Ram Nagar, Nagpur - MPCB",12-12-2025 08:00:00,21.143383,79.048912,NO2,17,70,36
India,Maharashtra,Nagpur,"Mahal, Nagpur - MPCB",12-12-2025 08:00:00,21.14472,79.107595,SO2,6,105,53
India,Maharashtra,Virar,"Bolinj, Virar - MPCB",12-12-2025 08:00:00,19.4458210,72.7988231,NH3,9,9,9
India,Meghalaya,Shillong,"JN Stadium, Shillong - Meghalaya PCB",12-12-2025 08:00:00,25.5803419,91.8942571,NH3,7,11,8
India,Meghalaya,Shillong,"Lumpyngngad, Shillong - Meghalaya PCB",12-12-2025 08:00:00,25.5586,91.8985,PM10,1,28,8
India,Mizoram,Aizawl,"Sikulpuikawn, Aizawl - Mizoram PCB",12-12-2025 08:00:00,23.7176342,92.7192841,PM10,35,38,37
India,Nagaland,Kohima,"PWD Junction, Kohima - NPCB",12-12-2025 08:00:00,25.6635413,94.0989878,SO2,73,75,74
India,Maharashtra,Nashik,"Hirawadi, Nashik - MPCB",12-12-2025 08:00:00,20.021503,73.813844,NO2,4,43,17
India,Maharashtra,Nashik,"Hirawadi, Nashik - MPCB",12-12-2025 08:00:00,20.021503,73.813844,SO2,1,20,4
India,Maharashtra,Nashik,"Hirawadi, Nashik - MPCB",12-12-2025 08:00:00,20.021503,73.813844,OZONE,4,73,20
India,Maharashtra,Nashik,"MIDC Ambad, Nashik - MPCB",12-12-2025 08:00:00,19.950220,73.731480,PM2.5,78,126,96
India,Maharashtra,Nashik,"MIDC Ambad, Nashik - MPCB",12-12-2025 08:00:00,19.950220,73.731480,NO2,17,109,41
India,Maharashtra,Nashik,"MIDC Ambad, Nashik - MPCB",12-12-2025 08:00:00,19.950220,73.731480,OZONE,19,94,32
India,Maharashtra,Nashik,"Pandav Nagari, Nashik - MPCB",12-12-2025 08:00:00,19.9591346,73.7788008,NO2,7,53,23
India,Maharashtra,Navi Mumbai,"Tondare-Taloja, Navi Mumbai - MPCB",12-12-2025 08:00:00,19.0630,73.1209,NO2,8,20,14
India,Maharashtra,Navi Mumbai,"Tondare-Taloja, Navi Mumbai - MPCB",12-12-2025 08:00:00,19.0630,73.1209,NH3,8,14,11
India,Maharashtra,Navi Mumbai,"Tondare-Taloja, Navi Mumbai - MPCB",12-12-2025 08:00:00,19.0630,73.1209,SO2,2,4,4
India,Maharashtra,Parbhani,"Masoom Colony, Parbhani - MPCB",12-12-2025 08:00:00,19.265594,76.761463,PM2.5,31,184,103
India,Maharashtra,Parbhani,"Masoom Colony, Parbhani - MPCB",12-12-2025 08:00:00,19.265594,76.761463,PM10,56,244,110
India,Maharashtra,Parbhani,"Masoom Colony, Parbhani - MPCB",12-12-2025 08:00:00,19.265594,76.761463,NH3,3,5,4
India,Maharashtra,Pune,"Bhumkar Nagar, Pune - IITM",12-12-2025 08:00:00,18.605770,73.749976,NO2,9,65,39
India,Maharashtra,Pune,"Hadapsar, Pune - IITM",12-12-2025 08:00:00,18.501793,73.927532,NO2,11,11,11
India,Maharashtra,Pune,"Hadapsar, Pune - IITM",12-12-2025 08:00:00,18.501793,73.927532,CO,88,108,107
India,Maharashtra,Pune,"Hadapsar, Pune - IITM",12-12-2025 08:00:00,18.501793,73.927532,OZONE,2,36,3
India,Maharashtra,Pune,"Panchawati_Pashan, Pune - IITM",12-12-2025 08:00:00,18.536457,73.805454,PM10,55,139,96
India,Maharashtra,Thane,"Kasarvadavali, Thane - MPCB",12-12-2025 08:00:00,19.26777,72.97182,SO2,2,19,8
India,Maharashtra,Thane,"Kasarvadavali, Thane - MPCB",12-12-2025 08:00:00,19.26777,72.97182,CO,4,52,34
India,Maharashtra,Ulhasnagar,"Sidhi Vinayak Nagar, Ulhasnagar - MPCB",12-12-2025 08:00:00,19.235581,73.159121,SO2,2,47,17
India,Maharashtra,Virar,"Bolinj, Virar - MPCB",12-12-2025 08:00:00,19.4458210,72.7988231,PM2.5,22,102,40
India,Maharashtra,Navi Mumbai,"Kopripada-Vashi, Navi Mumbai - MPCB",12-12-2025 08:00:00,19.090337,73.014232,PM10,41,369,142
India,Maharashtra,Navi Mumbai,"Mahape, Navi Mumbai - MPCB",12-12-2025 08:00:00,19.1135051,73.008978,PM10,84,149,110
India,Maharashtra,Navi Mumbai,"Mahape, Navi Mumbai - MPCB",12-12-2025 08:00:00,19.1135051,73.008978,OZONE,8,12,10
India,Maharashtra,Navi Mumbai,"Nerul, Navi Mumbai - MPCB",12-12-2025 08:00:00,19.008751,73.016620,NO2,35,38,37
India,Maharashtra,Pimpri-Chinchwad,"Gavalinagar, Pimpri Chinchwad - MPCB",12-12-2025 08:00:00,18.63673,73.82487,CO,74,119,92
India,Maharashtra,Pimpri-Chinchwad,"Gavalinagar, Pimpri Chinchwad - MPCB",12-12-2025 08:00:00,18.63673,73.82487,OZONE,1,4,2
India,Maharashtra,Pimpri-Chinchwad,"Park Street Wakad, Pimpri Chinchwad - MPCB",12-12-2025 08:00:00,18.59051,73.77946,PM2.5,48,335,211
India,Maharashtra,Pimpri-Chinchwad,"Park Street Wakad, Pimpri Chinchwad - MPCB",12-12-2025 08:00:00,18.59051,73.77946,PM10,31,266,176
India,Maharashtra,Sangli,"Vijay Nagar, Sangli - MPCB",12-12-2025 08:00:00, 16.5038,74.3623,CO,29,55,42
India,Maharashtra,Solapur,"Dnyaneshwar Nagar, Solapur - MPCB",12-12-2025 08:00:00,17.6336264,75.9132495,PM10,55,160,95
India,Maharashtra,Solapur,"Dnyaneshwar Nagar, Solapur - MPCB",12-12-2025 08:00:00,17.6336264,75.9132495,CO,7,80,25
India,Maharashtra,Pune,"Revenue Colony-Shivajinagar, Pune - IITM",12-12-2025 08:00:00,18.530085,73.849598,CO,50,157,87
India,Maharashtra,Pune,"Transport Nagar-Nigdi, Pune - IITM",12-12-2025 08:00:00,18.664282,73.763966,CO,27,109,92
India,Odisha,Brajrajnagar,"GM Office, Brajrajnagar - OSPCB",12-12-2025 08:00:00,21.8004996,83.8396977,NH3,12,12,12
India,Odisha,Brajrajnagar,"GM Office, Brajrajnagar - OSPCB",12-12-2025 08:00:00,21.8004996,83.8396977,SO2,18,21,19
India,Odisha,Brajrajnagar,"GM Office, Brajrajnagar - OSPCB",12-12-2025 08:00:00,21.8004996,83.8396977,OZONE,26,33,29
India,Odisha,Byasanagar,"Ferro Chrome Colony, Byasanagar - OSPCB",12-12-2025 08:00:00,20.94185,86.11510,PM10,68,205,127
India,Odisha,Byasanagar,"Ferro Chrome Colony, Byasanagar - OSPCB",12-12-2025 08:00:00,20.94185,86.11510,NO2,15,61,27
India,Odisha,Byasanagar,"Ferro Chrome Colony, Byasanagar - OSPCB",12-12-2025 08:00:00,20.94185,86.11510,NH3,1,3,2
India,Odisha,Keonjhar,"Jagamohanpur, Keonjhar - OSPCB",12-12-2025 08:00:00,21.643900,85.599355,PM10,71,157,110
India,Odisha,Keonjhar,"Jagamohanpur, Keonjhar - OSPCB",12-12-2025 08:00:00,21.643900,85.599355,NO2,25,64,44
India,Odisha,Keonjhar,"Jagamohanpur, Keonjhar - OSPCB",12-12-2025 08:00:00,21.643900,85.599355,SO2,1,21,6
India,Odisha,Nayagarh,"Dabuna, Nayagarh - OSPCB",12-12-2025 08:00:00,21.847279,85.416905,PM2.5,NA,NA,NA
India,Odisha,Nayagarh,"Dabuna, Nayagarh - OSPCB",12-12-2025 08:00:00,21.847279,85.416905,OZONE,NA,NA,NA
India,Odisha,Rairangpur,"Divisional Forest Office, Rairangpur - OSPCB",12-12-2025 08:00:00,22.265816,86.174829,PM2.5,15,20,18
India,Odisha,Rourkela,"Fertilizer Township, Rourkela - OSPCB",12-12-2025 08:00:00,22.18972222,84.86277778,PM10,101,111,104
India,Odisha,Rourkela,"Fertilizer Township, Rourkela - OSPCB",12-12-2025 08:00:00,22.18972222,84.86277778,NO2,11,11,11
India,Punjab,Jalandhar,"Civil Line, Jalandhar - PPCB",12-12-2025 08:00:00,31.321907,75.578914,NH3,2,4,4
India,Punjab,Khanna,"Kalal Majra, Khanna - PPCB",12-12-2025 08:00:00,30.736056 ,76.209694,NO2,27,30,28
India,Punjab,Khanna,"Kalal Majra, Khanna - PPCB",12-12-2025 08:00:00,30.736056 ,76.209694,OZONE,24,26,25
India,Punjab,Mandi Gobindgarh,"RIMT University, Mandi Gobindgarh - PPCB",12-12-2025 08:00:00,30.649961,76.331442,PM10,89,278,167
India,Punjab,Mandi Gobindgarh,"RIMT University, Mandi Gobindgarh - PPCB",12-12-2025 08:00:00,30.649961,76.331442,CO,19,111,46
India,Puducherry,Puducherry,"Jawahar Nagar, Puducherry - PPCC",12-12-2025 08:00:00,11.9309,79.8027,NH3,3,3,3
India,Puducherry,Puducherry,"Jawahar Nagar, Puducherry - PPCC",12-12-2025 08:00:00,11.9309,79.8027,CO,30,44,35
India,Punjab,Amritsar,"Golden Temple, Amritsar - PPCB",12-12-2025 08:00:00,31.620000,74.876512,PM2.5,64,305,152
India,Punjab,Amritsar,"Golden Temple, Amritsar - PPCB",12-12-2025 08:00:00,31.620000,74.876512,PM10,59,162,107
India,Punjab,Patiala,"Model Town, Patiala - PPCB",12-12-2025 08:00:00,30.349388,76.366642,CO,38,101,53
India,Punjab,Patiala,"Model Town, Patiala - PPCB",12-12-2025 08:00:00,30.349388,76.366642,OZONE,11,42,11
India,Rajasthan,Ajmer,"Civil Lines,  Ajmer - RSPCB",12-12-2025 08:00:00,26.470859,74.646594,NO2,14,40,19
India,Rajasthan,Ajmer,"Civil Lines,  Ajmer - RSPCB",12-12-2025 08:00:00,26.470859,74.646594,CO,5,22,7
India,Odisha,Bhubaneswar,"Lingraj Mandir, Bhubaneswar - OSPCB",12-12-2025 08:00:00,20.240790,85.836784,PM10,105,336,188
India,Odisha,Bileipada,"Tata Township, Bileipada - OSPCB",12-12-2025 08:00:00,22.06156703,85.47409613,PM10,NA,NA,NA
India,Odisha,Bileipada,"Tata Township, Bileipada - OSPCB",12-12-2025 08:00:00,22.06156703,85.47409613,NH3,4,4,4
India,Odisha,Barbil,"Forest Office, Barbil - OSPCB",12-12-2025 08:00:00,22.1166054,85.3945546,NH3,1,2,2
India,Odisha,Baripada,"Meher Colony, Baripada - OSPCB",12-12-2025 08:00:00,21.941841,86.728318,PM10,94,142,122
India,Odisha,Baripada,"Meher Colony, Baripada - OSPCB",12-12-2025 08:00:00,21.941841,86.728318,CO,88,108,94
India,Odisha,Suakati,"OMC Colony, Suakati - OSPCB",12-12-2025 08:00:00,21.606865,85.510538,PM2.5,36,158,58
India,Odisha,Suakati,"OMC Colony, Suakati - OSPCB",12-12-2025 08:00:00,21.606865,85.510538,CO,12,20,15
India,Odisha,Talcher,"Talcher Coalfields,Talcher - OSPCB",12-12-2025 08:00:00,20.9360711,85.1707021,OZONE,9,21,12
India,Punjab,Bathinda,"Hardev Nagar, Bathinda - PPCB",12-12-2025 08:00:00,30.233011,74.907758,SO2,12,24,17
India,Rajasthan,Bhilwara,"Pratap Nagar, Bhilwara - RSPCB",12-12-2025 08:00:00,25.339605,74.618883,CO,14,136,47
India,Rajasthan,Bhiwadi,"RIICO Ind. Area III, Bhiwadi - RSPCB",12-12-2025 08:00:00,28.194909,76.862296,PM2.5,108,364,260
India,Rajasthan,Bhiwadi,"RIICO Ind. Area III, Bhiwadi - RSPCB",12-12-2025 08:00:00,28.194909,76.862296,PM10,112,336,177
India,Rajasthan,Bhiwadi,"RIICO Ind. Area III, Bhiwadi - RSPCB",12-12-2025 08:00:00,28.194909,76.862296,SO2,15,22,18
India,Rajasthan,Bhiwadi,"RIICO Ind. Area III, Bhiwadi - RSPCB",12-12-2025 08:00:00,28.194909,76.862296,CO,29,102,79
India,Rajasthan,Bhiwadi,"RIICO Ind. Area III, Bhiwadi - RSPCB",12-12-2025 08:00:00,28.194909,76.862296,OZONE,5,45,8
India,Rajasthan,Bhiwadi,"Vasundhara Nagar_UIT, Bhiwadi - RSPCB",12-12-2025 08:00:00,28.207266,76.829265,NO2,27,132,68
India,Rajasthan,Bhiwadi,"Vasundhara Nagar_UIT, Bhiwadi - RSPCB",12-12-2025 08:00:00,28.207266,76.829265,NH3,1,6,4
India,Rajasthan,Bhiwadi,"Vasundhara Nagar_UIT, Bhiwadi - RSPCB",12-12-2025 08:00:00,28.207266,76.829265,SO2,4,51,14
India,Rajasthan,Bikaner,"MM Ground, Bikaner - RSPCB",12-12-2025 08:00:00,28.018792,73.292658,PM10,58,497,213
India,Rajasthan,Bikaner,"MM Ground, Bikaner - RSPCB",12-12-2025 08:00:00,28.018792,73.292658,SO2,2,31,15
India,Rajasthan,Bundi,"New Colony, Bundi - RSPCB",12-12-2025 08:00:00,25.435774,75.644272,NH3,3,6,4
India,Rajasthan,Bundi,"New Colony, Bundi - RSPCB",12-12-2025 08:00:00,25.435774,75.644272,SO2,5,19,9
India,Rajasthan,Jaipur,"Sector-2 Murlipura, Jaipur - RSPCB",12-12-2025 08:00:00,26.960669,75.771817,OZONE,3,68,13
India,Rajasthan,Jaipur,"Shastri Nagar, Jaipur - RSPCB",12-12-2025 08:00:00,26.9502929,75.730943,PM2.5,45,339,167
India,Rajasthan,Jaipur,"Shastri Nagar, Jaipur - RSPCB",12-12-2025 08:00:00,26.9502929,75.730943,SO2,2,90,29
India,Rajasthan,Jaipur,"Shastri Nagar, Jaipur - RSPCB",12-12-2025 08:00:00,26.9502929,75.730943,CO,12,105,56
India,Rajasthan,Jaipur,"Shastri Nagar, Jaipur - RSPCB",12-12-2025 08:00:00,26.9502929,75.730943,OZONE,16,61,16
India,Rajasthan,Jaisalmer,"Sadar Bazar, Jaisalmer - RSPCB",12-12-2025 08:00:00,26.912329,70.909168,PM2.5,20,318,99
India,Rajasthan,Jaisalmer,"Sadar Bazar, Jaisalmer - RSPCB",12-12-2025 08:00:00,26.912329,70.909168,NH3,8,24,14
India,Rajasthan,Jaisalmer,"Sadar Bazar, Jaisalmer - RSPCB",12-12-2025 08:00:00,26.912329,70.909168,SO2,4,13,7
India,Rajasthan,Jaisalmer,"Sadar Bazar, Jaisalmer - RSPCB",12-12-2025 08:00:00,26.912329,70.909168,CO,14,108,37
India,Rajasthan,Jalore,"Mudtra Sili, Jalore - RSPCB",12-12-2025 08:00:00,25.344694,72.626208,OZONE,3,102,4
India,Rajasthan,Jhalawar,"Rajlaxmi Nagar, Jhalawar - RSPCB",12-12-2025 08:00:00,24.588397,76.172782,PM2.5,47,357,149
India,Rajasthan,Jhalawar,"Rajlaxmi Nagar, Jhalawar - RSPCB",12-12-2025 08:00:00,24.588397,76.172782,NH3,1,2,2
India,Rajasthan,Karauli,"Satyawati Vihar, Karauli - RSPCB",12-12-2025 08:00:00,26.506177,77.025989,OZONE,1,77,4
India,Rajasthan,Kota,"Dhanmandi, Kota - RSPCB",12-12-2025 08:00:00,25.164090,75.858137,PM10,64,380,148
India,Rajasthan,Kota,"Dhanmandi, Kota - RSPCB",12-12-2025 08:00:00,25.164090,75.858137,NO2,26,110,62
India,Rajasthan,Kota,"Nayapura, Kota - RSPCB",12-12-2025 08:00:00,25.196024,75.855668,NO2,24,112,64
India,Rajasthan,Kota,"Nayapura, Kota - RSPCB",12-12-2025 08:00:00,25.196024,75.855668,CO,14,121,48
India,Rajasthan,Kota,"Nayapura, Kota - RSPCB",12-12-2025 08:00:00,25.196024,75.855668,OZONE,4,143,6
India,Rajasthan,Kota,"Shrinath Puram, Kota - RSPCB",12-12-2025 08:00:00,25.14389,75.821256,PM2.5,84,301,136
India,Rajasthan,Nagaur,"Karni Colony, Nagaur - RSPCB",12-12-2025 08:00:00,27.213494,73.734444,PM2.5,17,372,197
India,Rajasthan,Pali,"Indira Colony Vistar, Pali - RSPCB",12-12-2025 08:00:00,25.771061, 73.340227,PM2.5,19,338,142
India,Rajasthan,Jodhpur,"Jhalamand, Jodhpur - RSPCB",12-12-2025 08:00:00,26.215415,73.070156,SO2,3,8,5
India,Rajasthan,Jodhpur,"Mandor, Jodhpur - RSPCB",12-12-2025 08:00:00,26.358805,73.047444,PM10,65,181,110
India,Rajasthan,Jodhpur,"Mandor, Jodhpur - RSPCB",12-12-2025 08:00:00,26.358805,73.047444,NO2,10,103,57
India,Rajasthan,Jodhpur,"Mandor, Jodhpur - RSPCB",12-12-2025 08:00:00,26.358805,73.047444,OZONE,6,132,16
India,Rajasthan,Jodhpur,"Samrat Ashok Udhyan, Jodhpur - RSPCB",12-12-2025 08:00:00,26.253384,72.976571,NH3,1,14,5
India,Rajasthan,Jodhpur,"Samrat Ashok Udhyan, Jodhpur - RSPCB",12-12-2025 08:00:00,26.253384,72.976571,CO,34,134,105
India,Rajasthan,Karauli,"Satyawati Vihar, Karauli - RSPCB",12-12-2025 08:00:00,26.506177,77.025989,SO2,5,10,9
India,Rajasthan,Banswara,"Rati Talai, Banswara - RSPCB",12-12-2025 08:00:00,23.555190,74.440010,CO,4,76,15
India,Rajasthan,Barmer,"Railway Colony, Barmer - RSPCB",12-12-2025 08:00:00,25.747299,71.393989,PM2.5,17,247,53
India,Rajasthan,Barmer,"Railway Colony, Barmer - RSPCB",12-12-2025 08:00:00,25.747299,71.393989,PM10,60,339,115
India,Rajasthan,Barmer,"Railway Colony, Barmer - RSPCB",12-12-2025 08:00:00,25.747299,71.393989,NO2,12,119,45
India,Rajasthan,Bharatpur,"Krishna Nagar, Bharatpur - RSPCB",12-12-2025 08:00:00,27.215415,77.50873,SO2,2,11,6
India,Rajasthan,Churu,"Subash Chowk, Churu - RSPCB",12-12-2025 08:00:00,28.296139,74.961696,NH3,5,7,6
India,Rajasthan,Churu,"Subash Chowk, Churu - RSPCB",12-12-2025 08:00:00,28.296139,74.961696,CO,4,80,30
India,Rajasthan,Dholpur,"Raja Ganj, Dholpur - RSPCB",12-12-2025 08:00:00,26.699557,77.898881,PM2.5,28,167,66
India,Rajasthan,Dholpur,"Raja Ganj, Dholpur - RSPCB",12-12-2025 08:00:00,26.699557,77.898881,NO2,28,114,57
India,Rajasthan,Dholpur,"Raja Ganj, Dholpur - RSPCB",12-12-2025 08:00:00,26.699557,77.898881,NH3,4,36,10
India,Rajasthan,Dholpur,"Raja Ganj, Dholpur - RSPCB",12-12-2025 08:00:00,26.699557,77.898881,OZONE,17,41,30
India,Rajasthan,Jhalawar,"Rajlaxmi Nagar, Jhalawar - RSPCB",12-12-2025 08:00:00,24.588397,76.172782,OZONE,2,135,3
India,Rajasthan,Jhunjhunu,"Indra Nagar, Jhunjhunu - RSPCB",12-12-2025 08:00:00,28.108988,75.386577,PM2.5,17,183,76
India,Rajasthan,Jhunjhunu,"Indra Nagar, Jhunjhunu - RSPCB",12-12-2025 08:00:00,28.108988,75.386577,CO,16,92,49
India,Rajasthan,Jodhpur,"Digari Kalan, Jodhpur - RSPCB",12-12-2025 08:00:00,26.295810,73.082283,SO2,3,8,6
India,Rajasthan,Dungarpur,"Bhoiwada, Dungarpur - RSPCB",12-12-2025 08:00:00,23.837789,73.714926,NO2,10,42,22
India,Rajasthan,Hanumangarh,"Housing Board, Hanumangarh - RSPCB",12-12-2025 08:00:00,29.610750,74.283608,NH3,12,16,14
India,Rajasthan,Jaipur,"Mansarovar Sector-12, Jaipur - RSPCB",12-12-2025 08:00:00,26.843698,75.766894,PM2.5,20,357,184
India,Rajasthan,Jaipur,"Mansarovar Sector-12, Jaipur - RSPCB",12-12-2025 08:00:00,26.843698,75.766894,PM10,79,440,239
India,TamilNadu,Pudukottai,"SIPCOT Nathampannai, Pudukottai - TNPCB",12-12-2025 08:00:00,10.423417,78.784889,NH3,NA,NA,NA
India,TamilNadu,Ramanathapuram,"Chalai Bazaar, Ramanathapuram - TNPCB",12-12-2025 08:00:00,9.36399,78.831977,NO2,1,4,3
India,TamilNadu,Ramanathapuram,"Chalai Bazaar, Ramanathapuram - TNPCB",12-12-2025 08:00:00,9.36399,78.831977,NH3,1,1,1
India,TamilNadu,Salem,"Sona College of Technology, Salem - TNPCB",12-12-2025 08:00:00,11.679111,78.125052,PM2.5,NA,NA,NA
India,TamilNadu,Thoothukudi,"Meelavittan, Thoothukudi - TNPCB",12-12-2025 08:00:00,8.816428 ,78.099039,NO2,8,14,11
India,TamilNadu,Thoothukudi,"Meelavittan, Thoothukudi - TNPCB",12-12-2025 08:00:00,8.816428 ,78.099039,SO2,5,8,6
India,TamilNadu,Tirunelveli,"Municipal Corporation Office, Tirunelveli - TNPCB",12-12-2025 08:00:00,8.728442,77.6962,OZONE,6,7,6
India,Rajasthan,Pali,"Indira Colony Vistar, Pali - RSPCB",12-12-2025 08:00:00,25.771061, 73.340227,NH3,NA,NA,NA
India,Rajasthan,Pali,"Indira Colony Vistar, Pali - RSPCB",12-12-2025 08:00:00,25.771061, 73.340227,CO,18,105,72
India,Rajasthan,Pratapgarh,"Pragati Nagar, Pratapgarh - RSPCB",12-12-2025 08:00:00,24.041198,74.780702,PM2.5,NA,NA,NA
India,Rajasthan,Pratapgarh,"Pragati Nagar, Pratapgarh - RSPCB",12-12-2025 08:00:00,24.041198,74.780702,NO2,NA,NA,NA
India,Rajasthan,Sawai Madhopur,"Sahu Nagar, Sawai Madhopur - RSPCB",12-12-2025 08:00:00,26.031443,76.359327,PM10,59,435,158
India,Rajasthan,Sawai Madhopur,"Sahu Nagar, Sawai Madhopur - RSPCB",12-12-2025 08:00:00,26.031443,76.359327,CO,5,127,39
India,Rajasthan,Sawai Madhopur,"Sahu Nagar, Sawai Madhopur - RSPCB",12-12-2025 08:00:00,26.031443,76.359327,OZONE,1,82,4
India,Rajasthan,Sikar,"Radhakishan Pura, Sikar - RSPCB",12-12-2025 08:00:00,27.608912,75.153302,PM10,79,500,255
India,TamilNadu,Virudhunagar,"Collectorate Office, Virudhunagar - TNPCB",12-12-2025 08:00:00,9.559382,77.948828,SO2,26,27,26
India,TamilNadu,Virudhunagar,"Collectorate Office, Virudhunagar - TNPCB",12-12-2025 08:00:00,9.559382,77.948828,CO,22,24,23
India,Telangana,Hyderabad,"Bollaram Industrial Area, Hyderabad - TSPCB",12-12-2025 08:00:00,17.540891,78.358528,NH3,NA,NA,NA
India,Telangana,Hyderabad,"Bollaram Industrial Area, Hyderabad - TSPCB",12-12-2025 08:00:00,17.540891,78.358528,SO2,NA,NA,NA
India,Telangana,Hyderabad,"Central University, Hyderabad - TSPCB",12-12-2025 08:00:00,17.460103,78.334361,PM2.5,21,190,80
India,Telangana,Hyderabad,"ICRISAT Patancheru, Hyderabad - TSPCB",12-12-2025 08:00:00,17.518400,78.278777,NO2,1,25,14
India,Telangana,Hyderabad,"ICRISAT Patancheru, Hyderabad - TSPCB",12-12-2025 08:00:00,17.518400,78.278777,NH3,1,6,3
India,Rajasthan,Sikar,"Radhakishan Pura, Sikar - RSPCB",12-12-2025 08:00:00,27.608912,75.153302,OZONE,6,77,8
India,Rajasthan,Sirohi,"Vedhaynath Colony, Sirohi - RSPCB",12-12-2025 08:00:00,24.885261,72.857549,SO2,4,11,7
India,Rajasthan,Sirohi,"Vedhaynath Colony, Sirohi - RSPCB",12-12-2025 08:00:00,24.885261,72.857549,CO,13,50,27
India,Rajasthan,Sri Ganganagar,"Old City, Sri Ganganagar - RSPCB",12-12-2025 08:00:00,29.931624,73.864511,PM2.5,33,177,78
India,Rajasthan,Tonk,"Shastri Nagar, Tonk - RSPCB",12-12-2025 08:00:00,26.159933,75.780517,PM10,35,500,190
India,Rajasthan,Tonk,"Shastri Nagar, Tonk - RSPCB",12-12-2025 08:00:00,26.159933,75.780517,SO2,2,5,2
India,TamilNadu,Dindigul,"Mendonsa Colony, Dindigul - TNPCB",12-12-2025 08:00:00,10.358535,77.984321,PM10,74,101,85
India,TamilNadu,Dindigul,"Mendonsa Colony, Dindigul - TNPCB",12-12-2025 08:00:00,10.358535,77.984321,NH3,2,2,2
India,TamilNadu,Dindigul,"Mendonsa Colony, Dindigul - TNPCB",12-12-2025 08:00:00,10.358535,77.984321,CO,21,32,27
India,TamilNadu,Gummidipoondi,"Anthoni Pillai Nagar, Gummidipoondi - TNPCB",12-12-2025 08:00:00,13.4127,80.1081,PM10,NA,NA,NA
India,TamilNadu,Gummidipoondi,"Anthoni Pillai Nagar, Gummidipoondi - TNPCB",12-12-2025 08:00:00,13.4127,80.1081,NH3,2,4,4
India,TamilNadu,Karur,"Kamadenu Nagar, Karur - TNPCB",12-12-2025 08:00:00,10.967820,78.080882,PM2.5,114,213,161
India,TamilNadu,Chennai,"Velachery Res. Area, Chennai - CPCB",12-12-2025 08:00:00,13.0052189,80.2398125,SO2,14,18,16
India,TamilNadu,Coimbatore,"PSG College of Arts and Science, Coimbatore - TNPCB",12-12-2025 08:00:00,11.0328,77.0349,SO2,3,14,5
India,TamilNadu,Coimbatore,"SIDCO Kurichi, Coimbatore - TNPCB",12-12-2025 08:00:00,10.942451,76.978996,NH3,1,1,1
India,TamilNadu,Coimbatore,"SIDCO Kurichi, Coimbatore - TNPCB",12-12-2025 08:00:00,10.942451,76.978996,SO2,14,24,23
India,TamilNadu,Nagapattinam,"Velippalayam, Nagapattinam - TNPCB",12-12-2025 08:00:00,10.798548,79.838212,NO2,6,7,6
India,TamilNadu,Ooty,"Bombay Castel, Ooty - TNPCB",12-12-2025 08:00:00,11.4068288,76.7138973,OZONE,5,6,6
India,TamilNadu,Pudukottai,"SIPCOT Nathampannai, Pudukottai - TNPCB",12-12-2025 08:00:00,10.423417,78.784889,PM2.5,98,200,150
India,TamilNadu,Ariyalur,"Keelapalur, Ariyalur - TNPCB",12-12-2025 08:00:00,11.06825,79.07033,PM2.5,92,143,103
India,TamilNadu,Chennai,"Arumbakkam, Chennai - TNPCB",12-12-2025 08:00:00,13.0664,80.2112 ,PM2.5,152,310,243
India,TamilNadu,Chennai,"Manali Village, Chennai - TNPCB",12-12-2025 08:00:00,13.1662,80.2584,SO2,10,31,13
India,TamilNadu,Chennai,"Perungudi, Chennai - TNPCB",12-12-2025 08:00:00,12.9533,80.2357,PM2.5,89,313,205
India,Uttar_Pradesh,Ghaziabad,"Sanjay Nagar, Ghaziabad - UPPCB",12-12-2025 08:00:00,28.685382,77.453839,PM10,183,419,306
India,Uttar_Pradesh,Ghaziabad,"Vasundhara, Ghaziabad - UPPCB",12-12-2025 08:00:00,28.6603346,77.3572563,NO2,71,146,105
India,Uttar_Pradesh,Gorakhpur,"Madan Mohan Malaviya University of Technology, Gorakhpur - UPPCB",12-12-2025 08:00:00,26.730136,83.433859,NO2,11,12,11
India,Uttar_Pradesh,Gorakhpur,"Madan Mohan Malaviya University of Technology, Gorakhpur - UPPCB",12-12-2025 08:00:00,26.730136,83.433859,NH3,1,1,1
India,Uttar_Pradesh,Greater Noida,"Knowledge Park - III, Greater Noida - UPPCB",12-12-2025 08:00:00,28.47272,77.482000,NO2,38,127,85
India,Uttar_Pradesh,Greater Noida,"Knowledge Park - V, Greater Noida - UPPCB",12-12-2025 08:00:00,28.557054,77.453663,PM2.5,237,466,373
India,Uttar_Pradesh,Greater Noida,"Knowledge Park - V, Greater Noida - UPPCB",12-12-2025 08:00:00,28.557054,77.453663,PM10,195,500,368
India,Telangana,Hyderabad,"ICRISAT Patancheru, Hyderabad - TSPCB",12-12-2025 08:00:00,17.518400,78.278777,CO,2,67,39
India,Telangana,Hyderabad,"IITH Kandi, Hyderabad - TSPCB",12-12-2025 08:00:00,17.585705,78.126199,PM10,51,91,69
India,Telangana,Hyderabad,"IITH Kandi, Hyderabad - TSPCB",12-12-2025 08:00:00,17.585705,78.126199,CO,14,36,31
India,Telangana,Hyderabad,"Kokapet, Hyderabad - TSPCB",12-12-2025 08:00:00,17.393559,78.339194,NH3,2,3,3
India,Telangana,Hyderabad,"Kompally Municipal Office, Hyderabad - TSPCB",12-12-2025 08:00:00,17.544899,78.486949,CO,14,20,18
India,Telangana,Hyderabad,"Nacharam_TSIIC IALA, Hyderabad - TSPCB",12-12-2025 08:00:00,17.429398,78.569354,PM10,NA,NA,NA
India,Telangana,Hyderabad,"Somajiguda, Hyderabad - TSPCB",12-12-2025 08:00:00,17.417094,78.457437,NH3,3,5,4
India,Telangana,Hyderabad,"Somajiguda, Hyderabad - TSPCB",12-12-2025 08:00:00,17.417094,78.457437,CO,21,68,48
India,Telangana,Hyderabad,"Zoo Park, Hyderabad - TSPCB",12-12-2025 08:00:00,17.349694,78.451437,PM2.5,36,160,87
India,Telangana,Hyderabad,"Zoo Park, Hyderabad - TSPCB",12-12-2025 08:00:00,17.349694,78.451437,SO2,4,24,13
India,Tripura,Agartala,"Bardowali, Agartala - Tripura SPCB",12-12-2025 08:00:00,23.8175497,91.2726974,SO2,NA,NA,NA
India,Telangana,Hyderabad,"Nacharam_TSIIC IALA, Hyderabad - TSPCB",12-12-2025 08:00:00,17.429398,78.569354,CO,NA,NA,NA
India,Telangana,Hyderabad,"New Malakpet, Hyderabad - TSPCB",12-12-2025 08:00:00,17.37206,78.50864,NO2,9,11,10
India,Telangana,Hyderabad,"New Malakpet, Hyderabad - TSPCB",12-12-2025 08:00:00,17.37206,78.50864,SO2,13,18,15
India,Telangana,Hyderabad,"New Malakpet, Hyderabad - TSPCB",12-12-2025 08:00:00,17.37206,78.50864,OZONE,10,45,12
India,Telangana,Hyderabad,"Ramachandrapuram, Hyderabad - TSPCB",12-12-2025 08:00:00,17.528544,78.286195,NO2,8,13,12
India,Telangana,Hyderabad,"Ramachandrapuram, Hyderabad - TSPCB",12-12-2025 08:00:00,17.528544,78.286195,CO,42,83,73
India,Uttar_Pradesh,Agra,"Shastripuram, Agra - UPPCB",12-12-2025 08:00:00,27.19862,77.92066,PM2.5,33,113,70
India,Uttar_Pradesh,Baghpat,"Sardar Patel Inter College, Baghpat - UPPCB",12-12-2025 08:00:00,28.964949,77.278761,PM2.5,226,438,367
India,Uttar_Pradesh,Baghpat,"Sardar Patel Inter College, Baghpat - UPPCB",12-12-2025 08:00:00,28.964949,77.278761,PM10,145,373,258
India,Uttar_Pradesh,Bareilly,"Civil Lines, Bareilly - UPPCB",12-12-2025 08:00:00,28.359581,79.414455,CO,82,134,112
India,Uttar_Pradesh,Agra,"Sanjay Palace, Agra - UPPCB",12-12-2025 08:00:00,27.19865833,78.00598056,CO,32,105,98
India,Uttar_Pradesh,Agra,"Sector-3B Avas Vikas Colony, Agra - UPPCB",12-12-2025 08:00:00,27.19412,77.96237,PM10,NA,NA,NA
India,Uttar_Pradesh,Agra,"Sector-3B Avas Vikas Colony, Agra - UPPCB",12-12-2025 08:00:00,27.19412,77.96237,NH3,6,7,7
India,Uttar_Pradesh,Agra,"Shahjahan Garden, Agra - UPPCB",12-12-2025 08:00:00,27.169338,78.03582,PM2.5,27,217,96
India,Uttar_Pradesh,Agra,"Manoharpur, Agra - UPPCB",12-12-2025 08:00:00,27.23711,78.01936,PM10,66,128,102
India,Uttar_Pradesh,Agra,"Manoharpur, Agra - UPPCB",12-12-2025 08:00:00,27.23711,78.01936,NO2,29,34,29
India,Uttar_Pradesh,Agra,"Manoharpur, Agra - UPPCB",12-12-2025 08:00:00,27.23711,78.01936,OZONE,7,33,7
India,Uttar_Pradesh,Agra,"Rohta, Agra - UPPCB",12-12-2025 08:00:00,27.106972,78.000111,PM2.5,32,290,104
India,Uttar_Pradesh,Ghaziabad,"Indirapuram, Ghaziabad - UPPCB",12-12-2025 08:00:00,28.646233,77.358075,NH3,7,16,13
India,Uttar_Pradesh,Ghaziabad,"Loni, Ghaziabad - UPPCB",12-12-2025 08:00:00,28.757294,77.278792,PM2.5,302,500,427
India,Uttar_Pradesh,Firozabad,"Nagla Bhau, Firozabad - UPPCB",12-12-2025 08:00:00,27.168897,78.376960,OZONE,3,5,5
India,Uttar_Pradesh,Greater Noida,"Knowledge Park - V, Greater Noida - UPPCB",12-12-2025 08:00:00,28.557054,77.453663,NO2,86,175,125
India,Uttar_Pradesh,Hapur,"Anand Vihar, Hapur - UPPCB",12-12-2025 08:00:00,28.725645,77.749675,PM2.5,79,355,265
India,Uttar_Pradesh,Jhansi,"Shivaji Nagar, Jhansi - UPPCB",12-12-2025 08:00:00,25.4547,78.6039,PM2.5,NA,NA,NA
India,Uttar_Pradesh,Jhansi,"Shivaji Nagar, Jhansi - UPPCB",12-12-2025 08:00:00,25.4547,78.6039,NO2,NA,NA,NA
India,Uttar_Pradesh,Kanpur,"FTI Kidwai Nagar, Kanpur - UPPCB",12-12-2025 08:00:00,26.428282,80.327067,NH3,2,2,2
India,Uttar_Pradesh,Kanpur,"NSI Kalyanpur, Kanpur - UPPCB",12-12-2025 08:00:00,26.509954,80.249612,PM10,77,217,117
India,Uttar_Pradesh,Kanpur,"NSI Kalyanpur, Kanpur - UPPCB",12-12-2025 08:00:00,26.509954,80.249612,NH3,3,3,3
India,Uttar_Pradesh,Prayagraj,"Motilal Nehru NIT, Prayagraj - UPPCB",12-12-2025 08:00:00,25.494,81.863,SO2,26,30,28
India,Uttar_Pradesh,Prayagraj,"Nagar Nigam, Prayagraj - UPPCB",12-12-2025 08:00:00,25.44919916 ,81.82735986 ,CO,27,89,63
India,Uttar_Pradesh,Prayagraj,"Nagar Nigam, Prayagraj - UPPCB",12-12-2025 08:00:00,25.44919916 ,81.82735986 ,OZONE,11,19,15
India,Uttar_Pradesh,Varanasi,"Ardhali Bazar, Varanasi - UPPCB",12-12-2025 08:00:00,25.3505986,82.9083074,NO2,81,103,91
India,Uttar_Pradesh,Varanasi,"Bhelupur, Varanasi - UPPCB",12-12-2025 08:00:00,25.301778,82.996789,PM10,62,152,94
India,Uttar_Pradesh,Varanasi,"IESD Banaras Hindu University, Varanasi - UPPCB",12-12-2025 08:00:00,25.262326,82.995408,SO2,25,32,29
India,Uttar_Pradesh,Moradabad,"Kashiram Nagar, Moradabad - UPPCB",12-12-2025 08:00:00,28.849399,78.742362,SO2,20,126,79
India,Uttar_Pradesh,Moradabad,"Transport Nagar, Moradabad - UPPCB",12-12-2025 08:00:00,28.802625,78.753728,NO2,29,30,29
India,Uttar_Pradesh,Moradabad,"Transport Nagar, Moradabad - UPPCB",12-12-2025 08:00:00,28.802625,78.753728,OZONE,25,36,27
India,Uttar_Pradesh,Muzaffarnagar,"New Mandi, Muzaffarnagar - UPPCB",12-12-2025 08:00:00,29.4723508,77.7194031,PM2.5,237,478,367
India,Uttar_Pradesh,Muzaffarnagar,"New Mandi, Muzaffarnagar - UPPCB",12-12-2025 08:00:00,29.4723508,77.7194031,NH3,14,26,21
India,Uttar_Pradesh,Lucknow,"Lalbagh, Lucknow - CPCB",12-12-2025 08:00:00,26.8458805,80.9365541,NH3,15,21,19
India,Uttar_Pradesh,Lucknow,"Talkatora District Industries Center, Lucknow - CPCB",12-12-2025 08:00:00,26.83399722,80.8917361,PM2.5,10,351,278
India,Uttar_Pradesh,Lucknow,"Talkatora District Industries Center, Lucknow - CPCB",12-12-2025 08:00:00,26.83399722,80.8917361,SO2,3,50,12
India,Uttar_Pradesh,Lucknow,"Talkatora District Industries Center, Lucknow - CPCB",12-12-2025 08:00:00,26.83399722,80.8917361,CO,9,56,17
India,Uttar_Pradesh,Meerut,"Jai Bhim Nagar, Meerut - UPPCB",12-12-2025 08:00:00,28.9535882,77.7622941,NH3,34,50,41
India,Uttar_Pradesh,Varanasi,"IESD Banaras Hindu University, Varanasi - UPPCB",12-12-2025 08:00:00,25.262326,82.995408,OZONE,12,54,33
India,Uttar_Pradesh,Vrindavan,"Omex Eternity, Vrindavan - UPPCB",12-12-2025 08:00:00,27.5714090,77.6557570,SO2,10,15,12
India,Uttarakhand,Dehradun,"Doon University, Dehradun - UKPCB",12-12-2025 08:00:00,30.269444,78.044167,CO,38,42,39
India,Uttar_Pradesh,Kanpur,"Nehru Nagar, Kanpur - UPPCB",12-12-2025 08:00:00,26.4703136,80.3229863,SO2,4,15,12
India,Uttar_Pradesh,Lucknow,"B R Ambedkar University, Lucknow - UPPCB",12-12-2025 08:00:00,26.766433,80.927299,PM10,109,249,165
India,Uttar_Pradesh,Lucknow,"B R Ambedkar University, Lucknow - UPPCB",12-12-2025 08:00:00,26.766433,80.927299,NO2,21,22,22
India,Uttar_Pradesh,Noida,"Sector - 125, Noida - UPPCB",12-12-2025 08:00:00,28.5447608,77.3231257,NO2,24,163,82
India,Uttar_Pradesh,Noida,"Sector - 125, Noida - UPPCB",12-12-2025 08:00:00,28.5447608,77.3231257,CO,18,162,128
India,Uttar_Pradesh,Noida,"Sector - 62, Noida - IMD",12-12-2025 08:00:00,28.6245479,77.3577104,PM10,157,434,278
India,Uttar_Pradesh,Noida,"Sector - 62, Noida - IMD",12-12-2025 08:00:00,28.6245479,77.3577104,CO,38,120,112
India,Uttar_Pradesh,Moradabad,"Buddhi Vihar, Moradabad - UPPCB",12-12-2025 08:00:00,28.83526,78.74460,NO2,29,29,29
India,Uttar_Pradesh,Moradabad,"Buddhi Vihar, Moradabad - UPPCB",12-12-2025 08:00:00,28.83526,78.74460,NH3,5,5,5
India,Uttar_Pradesh,Lucknow,"Kendriya Vidyalaya, Lucknow - CPCB",12-12-2025 08:00:00,26.906111,80.948222,CO,26,96,60
India,Uttarakhand,Kashipur,"Govt. Girls Inter College, Kashipur - UKPCB",12-12-2025 08:00:00,29.2124114,78.9611753,NH3,2,14,5
India,Uttarakhand,Rishikesh,"Shivaji Nagar, Rishikesh - UKPCB",12-12-2025 08:00:00,30.075911,78.2859547,PM2.5,46,355,90
India,West_Bengal,Asansol,"Asansol Court Area, Asansol - WBPCB",12-12-2025 08:00:00,23.685297,86.945968,NO2,15,28,22
India,West_Bengal,Asansol,"Mahabir Colliery, Asansol - WBPCB",12-12-2025 08:00:00,23.6181830,87.1057180,NO2,5,91,30
India,West_Bengal,Barrackpore,"SVSPA Campus, Barrackpore - WBPCB",12-12-2025 08:00:00,22.7605581,88.3617589,NO2,18,51,31
India,West_Bengal,Durgapur,"Mahishkapur Road_B-Zone, Durgapur - WBPCB",12-12-2025 08:00:00,23.567923,87.306843,CO,43,103,90
India,West_Bengal,Durgapur,"PCBL Residential Complex, Durgapur - WBPCB",12-12-2025 08:00:00,23.5087640,87.3544400,SO2,1,8,3
India,West_Bengal,Durgapur,"PCBL Residential Complex, Durgapur - WBPCB",12-12-2025 08:00:00,23.5087640,87.3544400,CO,64,113,86
India,West_Bengal,Durgapur,"PCBL Residential Complex, Durgapur - WBPCB",12-12-2025 08:00:00,23.5087640,87.3544400,OZONE,5,15,8
India,West_Bengal,Haldia,"Priyambada Housing Estate, Haldia - WBPCB",12-12-2025 08:00:00,22.06047,88.109737,OZONE,18,25,19
India,West_Bengal,Howrah,"Botanical Garden, Howrah - WBPCB",12-12-2025 08:00:00,22.554954,88.292568,PM10,96,201,148
India,West_Bengal,Kolkata,"Ballygunge, Kolkata - WBPCB",12-12-2025 08:00:00,22.5367507,88.3638022,CO,30,137,110
India,West_Bengal,Kolkata,"Fort William, Kolkata - WBPCB",12-12-2025 08:00:00,22.556640,88.342674,PM10,143,356,217
India,West_Bengal,Kolkata,"Fort William, Kolkata - WBPCB",12-12-2025 08:00:00,22.556640,88.342674,NO2,16,21,18
India,West_Bengal,Kolkata,"Fort William, Kolkata - WBPCB",12-12-2025 08:00:00,22.556640,88.342674,SO2,9,29,16
India,West_Bengal,Kolkata,"Jadavpur, Kolkata - WBPCB",12-12-2025 08:00:00,22.49929,88.36917,PM10,159,404,277
India,West_Bengal,Kolkata,"Jadavpur, Kolkata - WBPCB",12-12-2025 08:00:00,22.49929,88.36917,NO2,50,166,107
India,West_Bengal,Kolkata,"Jadavpur, Kolkata - WBPCB",12-12-2025 08:00:00,22.49929,88.36917,NH3,6,20,13
India,West_Bengal,Kolkata,"Rabindra Bharati University, Kolkata - WBPCB",12-12-2025 08:00:00,22.627847,88.380669,CO,47,121,89
India,West_Bengal,Siliguri,"Ward-32 Bapupara, Siliguri - WBPCB",12-12-2025 08:00:00,26.6879226,88.4152495,PM10,45,210,86
India,Bihar,Bettiah,"Kamalnath Nagar, Bettiah - BSPCB",12-12-2025 08:00:00,26.80365,84.51954,NH3,1,1,1
India,Bihar,Bettiah,"Kamalnath Nagar, Bettiah - BSPCB",12-12-2025 08:00:00,26.80365,84.51954,CO,75,131,112
India,Bihar,Bhagalpur,"DM Office_Kachari Chowk, Bhagalpur - BSPCB",12-12-2025 08:00:00,25.251013,86.989001,NO2,7,13,9
India,Bihar,Bhagalpur,"Mayaganj, Bhagalpur - BSPCB",12-12-2025 08:00:00,25.265194,87.012947,NH3,8,16,12
India,Bihar,Bhagalpur,"Mayaganj, Bhagalpur - BSPCB",12-12-2025 08:00:00,25.265194,87.012947,SO2,42,77,57
India,Bihar,Bihar Sharif,"D M Colony, Bihar Sharif - BSPCB",12-12-2025 08:00:00,25.204762,85.514960,PM2.5,83,342,205
India,Bihar,Bihar Sharif,"D M Colony, Bihar Sharif - BSPCB",12-12-2025 08:00:00,25.204762,85.514960,PM10,67,190,118
India,Bihar,Bihar Sharif,"D M Colony, Bihar Sharif - BSPCB",12-12-2025 08:00:00,25.204762,85.514960,SO2,10,10,10
India,Assam,Nagaon,"Christianpatty, Nagaon - PCBA",12-12-2025 08:00:00,26.349082,92.68449,SO2,9,14,12
India,Assam,Nalbari,"Bata Chowk, Nalbari - PCBA",12-12-2025 08:00:00,26.446912,91.439057,SO2,5,8,8
India,Assam,Nalbari,"Bata Chowk, Nalbari - PCBA",12-12-2025 08:00:00,26.446912,91.439057,CO,8,22,21
India,Assam,Silchar,"Tarapur, Silchar - PCBA",12-12-2025 08:00:00,24.82827,92.79525,SO2,4,7,6
India,Assam,Silchar,"Tarapur, Silchar - PCBA",12-12-2025 08:00:00,24.82827,92.79525,CO,31,72,41
India,Assam,Sivasagar,"Girls College, Sivasagar - PCBA",12-12-2025 08:00:00,26.987634,94.636574,PM2.5,23,99,66
India,Assam,Sivasagar,"Girls College, Sivasagar - PCBA",12-12-2025 08:00:00,26.987634,94.636574,NH3,3,17,10
India,Assam,Sivasagar,"Girls College, Sivasagar - PCBA",12-12-2025 08:00:00,26.987634,94.636574,OZONE,4,69,5
India,Andhra_Pradesh,Amaravati,"Secretariat, Amaravati - APPCB",12-12-2025 08:00:00,16.5150833,80.5181667,NO2,25,121,53
India,Andhra_Pradesh,Amaravati,"Secretariat, Amaravati - APPCB",12-12-2025 08:00:00,16.5150833,80.5181667,CO,21,52,31
India,Andhra_Pradesh,Anantapur,"Gulzarpet, Anantapur - APPCB",12-12-2025 08:00:00,14.675886,77.593027,PM2.5,65,185,106
India,Andhra_Pradesh,Chittoor,"Gangineni Cheruvu, Chittoor - APPCB",12-12-2025 08:00:00,13.204880,79.097889,NH3,NA,NA,NA
India,Andhra_Pradesh,Chittoor,"Gangineni Cheruvu, Chittoor - APPCB",12-12-2025 08:00:00,13.204880,79.097889,CO,24,57,33
India,Andhra_Pradesh,Rajamahendravaram,"Anand Kala Kshetram, Rajamahendravaram - APPCB",12-12-2025 08:00:00,16.9872867,81.7363176,PM2.5,93,298,184
India,Arunachal_Pradesh,Naharlagun,"Naharlagun, Naharlagun - APSPCB",12-12-2025 08:00:00,27.103358,93.679645,NO2,NA,NA,NA
India,Arunachal_Pradesh,Naharlagun,"Naharlagun, Naharlagun - APSPCB",12-12-2025 08:00:00,27.103358,93.679645,OZONE,5,6,5
India,Assam,Byrnihat,"Central Academy for SFS, Byrnihat - PCBA",12-12-2025 08:00:00,26.071318,91.87488,PM10,76,151,93
India,Assam,Byrnihat,"Central Academy for SFS, Byrnihat - PCBA",12-12-2025 08:00:00,26.071318,91.87488,SO2,5,12,6
India,Assam,Guwahati,"LGBI Airport, Guwahati - PCBA",12-12-2025 08:00:00,26.10887,91.589544,PM2.5,47,143,97
India,Assam,Guwahati,"LGBI Airport, Guwahati - PCBA",12-12-2025 08:00:00,26.10887,91.589544,PM10,63,148,119
India,Bihar,Buxar,"Charitra Van, Buxar - BSPCB",12-12-2025 08:00:00,25.567520,83.966379,PM10,107,167,140
India,Bihar,Chhapra,"Darshan Nagar, Chhapra - BSPCB",12-12-2025 08:00:00,25.7808257,84.7446768,PM10,NA,NA,NA
India,Bihar,Gaya,"Collectorate, Gaya - BSPCB",12-12-2025 08:00:00,24.7955,84.9994,PM2.5,78,322,190
India,Bihar,Gaya,"Collectorate, Gaya - BSPCB",12-12-2025 08:00:00,24.7955,84.9994,NO2,9,9,9
India,Bihar,Gaya,"Kareemganj, Gaya - BSPCB",12-12-2025 08:00:00,24.792403,84.992416,NH3,4,6,5
India,Bihar,Gaya,"Kareemganj, Gaya - BSPCB",12-12-2025 08:00:00,24.792403,84.992416,CO,38,44,42
India,Andhra_Pradesh,Rajamahendravaram,"Anand Kala Kshetram, Rajamahendravaram - APPCB",12-12-2025 08:00:00,16.9872867,81.7363176,SO2,2,41,20
India,Andhra_Pradesh,Tirumala,"Toll Gate, Tirumala - APPCB",12-12-2025 08:00:00,13.67,79.35,NH3,1,3,2
India,Andhra_Pradesh,Tirupati,"Vaikuntapuram, Tirupati - APPCB",12-12-2025 08:00:00,13.615387,79.409230,CO,22,30,26
India,Andhra_Pradesh,Vijayawada,"HB Colony, Vijayawada - APPCB",12-12-2025 08:00:00,16.536107,80.594233,CO,16,18,16
India,Assam,Guwahati,"Pan Bazaar, Guwahati - PCBA",12-12-2025 08:00:00,26.187500,91.744194,SO2,17,36,26
India,Assam,Guwahati,"Pan Bazaar, Guwahati - PCBA",12-12-2025 08:00:00,26.187500,91.744194,OZONE,17,18,17
India,Assam,Guwahati,"Railway Colony, Guwahati - PCBA",12-12-2025 08:00:00,26.181742,91.78063,SO2,32,35,34
India,Assam,Nagaon,"Christianpatty, Nagaon - PCBA",12-12-2025 08:00:00,26.349082,92.68449,PM10,NA,NA,NA
India,Assam,Nagaon,"Christianpatty, Nagaon - PCBA",12-12-2025 08:00:00,26.349082,92.68449,NO2,1,1,1
India,Bihar,Arrah,"New DM Office, Arrah - BSPCB",12-12-2025 08:00:00,25.5626095,84.663264,PM2.5,133,324,231
India,Bihar,Begusarai,"Lohiyanagar, Begusarai - BSPCB",12-12-2025 08:00:00,25.42742023,86.13886079,PM10,22,134,63
India,Bihar,Begusarai,"Lohiyanagar, Begusarai - BSPCB",12-12-2025 08:00:00,25.42742023,86.13886079,CO,38,68,56
India,Bihar,Bettiah,"Kamalnath Nagar, Bettiah - BSPCB",12-12-2025 08:00:00,26.80365,84.51954,PM10,62,163,127
India,Andhra_Pradesh,Vijayawada,"Kanuru, Vijayawada - APPCB",12-12-2025 08:00:00,16.486692,80.699436,PM2.5,NA,NA,NA
India,Andhra_Pradesh,Vijayawada,"Kanuru, Vijayawada - APPCB",12-12-2025 08:00:00,16.486692,80.699436,NO2,NA,NA,NA
India,Andhra_Pradesh,Vijayawada,"Kanuru, Vijayawada - APPCB",12-12-2025 08:00:00,16.486692,80.699436,NH3,NA,NA,NA
India,Andhra_Pradesh,Vijayawada,"Rajiv Gandhi Park, Vijayawada - APPCB",12-12-2025 08:00:00,16.509717,80.612222,NH3,3,8,6
India,Andhra_Pradesh,Vijayawada,"Rajiv Nagar, Vijayawada - APPCB",12-12-2025 08:00:00,16.554731,80.649110,CO,18,43,41
India,Andaman and Nicobar,Sri Vijaya Puram,"Police Line, Sri Vijaya Puram - ANPCC",12-12-2025 08:00:00,11.654054,92.734055,NO2,13,36,21
India,Andaman and Nicobar,Sri Vijaya Puram,"Police Line, Sri Vijaya Puram - ANPCC",12-12-2025 08:00:00,11.654054,92.734055,SO2,1,34,9
India,Andaman and Nicobar,Sri Vijaya Puram,"Police Line, Sri Vijaya Puram - ANPCC",12-12-2025 08:00:00,11.654054,92.734055,CO,10,24,17
India,Chandigarh,Chandigarh,"Sector 22, Chandigarh - CPCC",12-12-2025 08:00:00,30.735567,76.775714,NH3,1,31,17
India,Chandigarh,Chandigarh,"Sector-25, Chandigarh - CPCC",12-12-2025 08:00:00,30.751462,76.762879,PM10,88,184,138
India,Chandigarh,Chandigarh,"Sector-25, Chandigarh - CPCC",12-12-2025 08:00:00,30.751462,76.762879,SO2,3,16,9
India,Chandigarh,Chandigarh,"Sector-53, Chandigarh - CPCC",12-12-2025 08:00:00,30.719859,76.738637,PM10,96,204,135
India,Chhattisgarh,Bhilai,"32Bungalows, Bhilai - CECB",12-12-2025 08:00:00,21.194815,81.314770,PM10,28,75,56
India,Chhattisgarh,Bhilai,"32Bungalows, Bhilai - CECB",12-12-2025 08:00:00,21.194815,81.314770,NO2,25,85,51
India,Chhattisgarh,Bhilai,"32Bungalows, Bhilai - CECB",12-12-2025 08:00:00,21.194815,81.314770,OZONE,2,64,3
India,Chhattisgarh,Bhilai,"Civic Center, Bhilai - Bhilai Steel Plant",12-12-2025 08:00:00,21.185571,81.343175,PM2.5,14,72,52
India,Chhattisgarh,Bhilai,"Civic Center, Bhilai - Bhilai Steel Plant",12-12-2025 08:00:00,21.185571,81.343175,NH3,5,8,6
India,Bihar,Muzaffarpur,"Muzaffarpur Collectorate, Muzaffarpur - BSPCB",12-12-2025 08:00:00,26.1209,85.3647,CO,18,56,19
India,Bihar,Muzaffarpur,"Muzaffarpur Collectorate, Muzaffarpur - BSPCB",12-12-2025 08:00:00,26.1209,85.3647,OZONE,8,33,9
India,Bihar,Patna,"DRM Office Danapur, Patna - BSPCB",12-12-2025 08:00:00,25.586562,85.043586,PM2.5,23,249,129
India,Bihar,Patna,"DRM Office Danapur, Patna - BSPCB",12-12-2025 08:00:00,25.586562,85.043586,NO2,39,124,68
India,Bihar,Patna,"Govt. High School Shikarpur, Patna - BSPCB",12-12-2025 08:00:00,25.592539,85.227158,NO2,2,46,19
India,Bihar,Patna,"Govt. High School Shikarpur, Patna - BSPCB",12-12-2025 08:00:00,25.592539,85.227158,OZONE,9,12,10
India,Bihar,Patna,"IGSC Planetarium Complex, Patna - BSPCB",12-12-2025 08:00:00,25.610369,85.132568,SO2,19,26,21
India,Bihar,Patna,"Muradpur, Patna - BSPCB",12-12-2025 08:00:00,25.619651,85.147382,OZONE,5,22,5
India,Bihar,Patna,"Samanpura, Patna - BSPCB",12-12-2025 08:00:00,25.596727,85.085624,NH3,5,5,5
India,Bihar,Gaya,"SFTI Kusdihra, Gaya - BSPCB",12-12-2025 08:00:00,24.762518,84.982348,NO2,19,21,20
India,Bihar,Gaya,"SFTI Kusdihra, Gaya - BSPCB",12-12-2025 08:00:00,24.762518,84.982348,SO2,8,9,8
India,Bihar,Hajipur,"Industrial Area, Hajipur - BSPCB",12-12-2025 08:00:00,25.697189,85.245900,PM2.5,50,500,211
India,Bihar,Manguraha,"Forest Rest House, Manguraha - BSPCB",12-12-2025 08:00:00,27.308328,84.531742,PM2.5,43,250,66
India,Chhattisgarh,Bhilai,"Hathkhoj, Bhilai - CECB",12-12-2025 08:00:00,21.224231,81.408350,SO2,5,85,22
India,Chhattisgarh,Bhilai,"Hathkhoj, Bhilai - CECB",12-12-2025 08:00:00,21.224231,81.408350,OZONE,2,14,3
India,Chhattisgarh,Chhal,"Nawapara SECL Colony, Chhal - CECB",12-12-2025 08:00:00,22.118125,83.140608,PM2.5,33,88,60
India,Chhattisgarh,Korba,"Rampur, Korba - CECB",12-12-2025 08:00:00,22.368195,82.746431,NH3,1,1,1
India,Bihar,Samastipur,"DM Office_Kasipur, Samastipur - BSPCB",12-12-2025 08:00:00,25.859655,85.77944,PM10,72,203,132
India,Bihar,Samastipur,"DM Office_Kasipur, Samastipur - BSPCB",12-12-2025 08:00:00,25.859655,85.77944,NH3,1,2,1
India,Bihar,Sasaram,"Dada Peer, Sasaram - BSPCB",12-12-2025 08:00:00,24.952822,84.002396,PM2.5,46,341,179
India,Bihar,Sasaram,"Dada Peer, Sasaram - BSPCB",12-12-2025 08:00:00,24.952822,84.002396,CO,50,60,53
India,Chhattisgarh,Kunjemura,"OP Jindal School, Kunjemura - CECB",12-12-2025 08:00:00,22.126650,83.483212,OZONE,1,58,2
India,Chhattisgarh,Milupara,"Govt. Higher Secondary School, Milupara - CECB",12-12-2025 08:00:00,22.1910172,83.5197009,NO2,19,82,41
India,Bihar,Motihari,"Gandak Colony, Motihari - BSPCB",12-12-2025 08:00:00,26.63086,84.90051,PM10,96,166,138
India,Bihar,Muzaffarpur,"Buddha Colony, Muzaffarpur - BSPCB",12-12-2025 08:00:00,26.11442,85.39813,OZONE,5,217,8
India,Bihar,Patna,"Samanpura, Patna - BSPCB",12-12-2025 08:00:00,25.596727,85.085624,CO,32,122,65
India,Bihar,Purnia,"Mariam Nagar, Purnia - BSPCB",12-12-2025 08:00:00,25.366336,87.117468,NO2,5,7,6
India,Delhi,Delhi,"Jahangirpuri, Delhi - DPCC",12-12-2025 08:00:00,28.732820,77.170633,PM2.5,207,500,405
India,Delhi,Delhi,"Jahangirpuri, Delhi - DPCC",12-12-2025 08:00:00,28.732820,77.170633,NH3,1,10,6
India,Delhi,Delhi,"Jahangirpuri, Delhi - DPCC",12-12-2025 08:00:00,28.732820,77.170633,SO2,2,66,19
India,Delhi,Delhi,"Jahangirpuri, Delhi - DPCC",12-12-2025 08:00:00,28.732820,77.170633,OZONE,7,133,8
India,Delhi,Delhi,"Jawaharlal Nehru Stadium, Delhi - DPCC",12-12-2025 08:00:00,28.580280,77.233829,OZONE,1,256,2
India,Delhi,Delhi,"Lodhi Road, Delhi - IMD",12-12-2025 08:00:00,28.5918245,77.2273074,NO2,3,45,20
India,Delhi,Delhi,"Major Dhyan Chand National Stadium, Delhi - DPCC",12-12-2025 08:00:00,28.611281,77.237738,CO,34,144,132
India,Delhi,Delhi,"Major Dhyan Chand National Stadium, Delhi - DPCC",12-12-2025 08:00:00,28.611281,77.237738,OZONE,1,112,1
India,Delhi,Delhi,"Mandir Marg, Delhi - DPCC",12-12-2025 08:00:00,28.636429,77.201067,PM2.5,5,428,248
India,Delhi,Delhi,"Anand Vihar, Delhi - DPCC",12-12-2025 08:00:00,28.647622,77.3158090,PM2.5,190,500,391
India,Delhi,Delhi,"Anand Vihar, Delhi - DPCC",12-12-2025 08:00:00,28.647622,77.3158090,PM10,170,500,355
India,Delhi,Delhi,"Anand Vihar, Delhi - DPCC",12-12-2025 08:00:00,28.647622,77.3158090,OZONE,11,22,18
India,Delhi,Delhi,"Ashok Vihar, Delhi - DPCC",12-12-2025 08:00:00,28.695381,77.181665,CO,16,164,98
India,Delhi,Delhi,"Ashok Vihar, Delhi - DPCC",12-12-2025 08:00:00,28.695381,77.181665,OZONE,4,118,4
India,Delhi,Delhi,"Aya Nagar, Delhi - IMD",12-12-2025 08:00:00,28.4706914,77.1099364,PM2.5,91,387,246
India,Delhi,Delhi,"Bawana, Delhi - DPCC",12-12-2025 08:00:00,28.776200,77.051074,PM2.5,203,500,368
India,Delhi,Delhi,"Burari Crossing, Delhi - IMD",12-12-2025 08:00:00,28.7256504,77.2011573,PM2.5,182,451,354
India,Delhi,Delhi,"Burari Crossing, Delhi - IMD",12-12-2025 08:00:00,28.7256504,77.2011573,PM10,175,471,316
India,Delhi,Delhi,"Burari Crossing, Delhi - IMD",12-12-2025 08:00:00,28.7256504,77.2011573,CO,20,145,128
India,Delhi,Delhi,"CRRI Mathura Road, Delhi - IMD",12-12-2025 08:00:00,28.5512005,77.2735737,OZONE,10,61,12
India,Delhi,Delhi,"Chandni Chowk, Delhi - IITM",12-12-2025 08:00:00,28.656756,77.227234,PM10,221,500,360
India,Delhi,Delhi,"Chandni Chowk, Delhi - IITM",12-12-2025 08:00:00,28.656756,77.227234,NO2,50,111,80
India,Delhi,Delhi,"DTU, Delhi - CPCB",12-12-2025 08:00:00,28.7500499,77.1112615,CO,25,106,101
India,Delhi,Delhi,"Dr. Karni Singh Shooting Range, Delhi - DPCC",12-12-2025 08:00:00,28.498571,77.264840,SO2,12,21,16
India,Chhattisgarh,Raipur,"Krishak Nagar, Raipur - CECB",12-12-2025 08:00:00,21.237755,81.705301,PM2.5,4,95,58
India,Chhattisgarh,Raipur,"Krishak Nagar, Raipur - CECB",12-12-2025 08:00:00,21.237755,81.705301,CO,23,64,41
India,Chhattisgarh,Raipur,"Siltara Phase-II, Raipur - CECB",12-12-2025 08:00:00,21.371751,81.664929,NO2,12,34,20
India,Chhattisgarh,Raipur,"Siltara Phase-II, Raipur - CECB",12-12-2025 08:00:00,21.371751,81.664929,NH3,3,3,3
India,Chhattisgarh,Raipur,"Siltara Phase-II, Raipur - CECB",12-12-2025 08:00:00,21.371751,81.664929,CO,34,36,35
India,Chhattisgarh,Tumidih,"OP Jindal Industrial Park, Tumidih - CECB",12-12-2025 08:00:00,22.06631475,83.33820077,CO,14,80,34
India,Delhi,Delhi,"Dwarka-Sector 8, Delhi - DPCC ",12-12-2025 08:00:00,28.5710274,77.0719006,NO2,59,142,94
India,Delhi,Delhi,"Dwarka-Sector 8, Delhi - DPCC ",12-12-2025 08:00:00,28.5710274,77.0719006,NH3,18,23,21
India,Delhi,Delhi,"IGI Airport (T3), Delhi - IMD",12-12-2025 08:00:00,28.5627763,77.1180053,PM2.5,86,372,243
India,Delhi,Delhi,"IHBAS, Dilshad Garden, Delhi - CPCB",12-12-2025 08:00:00,28.6811736,77.3025234,PM2.5,192,500,342
India,Delhi,Delhi,"IIT Delhi, Delhi - IITM",12-12-2025 08:00:00,28.542460,77.191651,PM10,150,294,192
India,Delhi,Delhi,"Mandir Marg, Delhi - DPCC",12-12-2025 08:00:00,28.636429,77.201067,NO2,67,129,98
India,Delhi,Delhi,"Mandir Marg, Delhi - DPCC",12-12-2025 08:00:00,28.636429,77.201067,NH3,6,11,8
India,Delhi,Delhi,"Mundka, Delhi - DPCC",12-12-2025 08:00:00,28.684678,77.076574,SO2,8,43,21
India,Delhi,Delhi,"NSIT Dwarka, Delhi - CPCB",12-12-2025 08:00:00,28.60909,77.0325413,NH3,13,70,23
India,Delhi,Delhi,"Najafgarh, Delhi - DPCC",12-12-2025 08:00:00,28.570173,76.933762,SO2,18,39,25
India,Delhi,Delhi,"Narela, Delhi - DPCC",12-12-2025 08:00:00,28.822836,77.101981,CO,28,105,64
India,Delhi,Delhi,"North Campus, DU, Delhi - IMD",12-12-2025 08:00:00,28.6573814,77.1585447,PM2.5,124,424,317
India,Delhi,Delhi,"North Campus, DU, Delhi - IMD",12-12-2025 08:00:00,28.6573814,77.1585447,CO,7,188,155
India,Delhi,Delhi,"North Campus, DU, Delhi - IMD",12-12-2025 08:00:00,28.6573814,77.1585447,OZONE,15,315,25
India,Delhi,Delhi,"Patparganj, Delhi - DPCC",12-12-2025 08:00:00,28.623763,77.287209,NO2,42,155,98
India,Chhattisgarh,Milupara,"Govt. Higher Secondary School, Milupara - CECB",12-12-2025 08:00:00,22.1910172,83.5197009,CO,17,52,31
India,Chhattisgarh,Raipur,"AIIMS, Raipur - CECB",12-12-2025 08:00:00,21.258815,81.578979,PM10,45,174,102
India,Chhattisgarh,Raipur,"AIIMS, Raipur - CECB",12-12-2025 08:00:00,21.258815,81.578979,NO2,71,85,79
India,Chhattisgarh,Raipur,"Bhatagaon New ISBT, Raipur - CECB",12-12-2025 08:00:00,21.219665,81.630094,SO2,NA,NA,NA
India,Delhi,Delhi,"IIT Delhi, Delhi - IITM",12-12-2025 08:00:00,28.542460,77.191651,NO2,41,99,59
India,Delhi,Delhi,"ITO, Delhi - CPCB",12-12-2025 08:00:00,28.628624,77.241060,PM10,144,412,277
India,Haryana,Bahadurgarh,"Arya Nagar, Bahadurgarh - HSPCB",12-12-2025 08:00:00,28.6701,76.9254,PM2.5,3,496,271
India,Haryana,Bahadurgarh,"Arya Nagar, Bahadurgarh - HSPCB",12-12-2025 08:00:00,28.6701,76.9254,CO,42,52,48
India,Haryana,Bahadurgarh,"Arya Nagar, Bahadurgarh - HSPCB",12-12-2025 08:00:00,28.6701,76.9254,OZONE,16,20,17
India,Haryana,Ballabgarh,"Nathu Colony, Ballabgarh - HSPCB",12-12-2025 08:00:00,28.3419248,77.319699,PM2.5,188,427,347
India,Haryana,Ballabgarh,"Nathu Colony, Ballabgarh - HSPCB",12-12-2025 08:00:00,28.3419248,77.319699,PM10,NA,NA,NA
India,Haryana,Bhiwani,"H.B. Colony, Bhiwani - HSPCB",12-12-2025 08:00:00,28.806223,76.141105,NH3,1,9,8
India,Haryana,Bhiwani,"H.B. Colony, Bhiwani - HSPCB",12-12-2025 08:00:00,28.806223,76.141105,OZONE,5,21,14
India,Haryana,Charkhi Dadri,"Mini Secretariat, Charkhi Dadri - HSPCB",12-12-2025 08:00:00,28.593883,76.270653,PM10,84,277,163
India,Haryana,Charkhi Dadri,"Mini Secretariat, Charkhi Dadri - HSPCB",12-12-2025 08:00:00,28.593883,76.270653,OZONE,14,18,16
India,Haryana,Dharuhera,"Municipal Corporation Office, Dharuhera -  HSPCB",12-12-2025 08:00:00,28.206800,76.799700,NO2,15,53,38
India,Haryana,Faridabad,"New Industrial Town, Faridabad - HSPCB",12-12-2025 08:00:00,28.39072,77.30059,NH3,11,12,11
India,Haryana,Faridabad,"New Industrial Town, Faridabad - HSPCB",12-12-2025 08:00:00,28.39072,77.30059,OZONE,27,33,30
India,Haryana,Faridabad,"Sector 30, Faridabad - HSPCB",12-12-2025 08:00:00,28.4417,77.3217,PM2.5,68,254,134
India,Delhi,Delhi,"Sonia Vihar, Delhi - DPCC",12-12-2025 08:00:00,28.710508,77.249485,OZONE,4,167,6
India,Delhi,Delhi,"Sri Aurobindo Marg, Delhi - DPCC",12-12-2025 08:00:00,28.531346,77.190156,CO,56,109,99
India,Delhi,Delhi,"Vivek Vihar, Delhi - DPCC",12-12-2025 08:00:00,28.672342,77.315260,PM2.5,266,500,388
India,Delhi,Delhi,"Vivek Vihar, Delhi - DPCC",12-12-2025 08:00:00,28.672342,77.315260,PM10,185,500,345
India,Delhi,Delhi,"Vivek Vihar, Delhi - DPCC",12-12-2025 08:00:00,28.672342,77.315260,CO,4,153,104
India,Delhi,Delhi,"Wazirpur, Delhi - DPCC",12-12-2025 08:00:00,28.699793,77.165453,NH3,10,18,13
India,Delhi,Delhi,"Punjabi Bagh, Delhi - DPCC",12-12-2025 08:00:00,28.674045,77.131023,PM2.5,133,494,364
India,Delhi,Delhi,"Punjabi Bagh, Delhi - DPCC",12-12-2025 08:00:00,28.674045,77.131023,OZONE,6,92,8
India,Delhi,Delhi,"Pusa, Delhi - DPCC",12-12-2025 08:00:00,28.639652,77.146275,NO2,2,168,104
India,Delhi,Delhi,"Pusa, Delhi - DPCC",12-12-2025 08:00:00,28.639652,77.146275,SO2,2,11,7
India,Delhi,Delhi,"Pusa, Delhi - DPCC",12-12-2025 08:00:00,28.639652,77.146275,OZONE,12,19,17
India,Delhi,Delhi,"Pusa, Delhi - IMD",12-12-2025 08:00:00,28.636110,77.173332,NO2,6,118,59
India,Delhi,Delhi,"Pusa, Delhi - IMD",12-12-2025 08:00:00,28.636110,77.173332,CO,17,166,135
India,Gujarat,Ahmedabad,"Chandkheda, Ahmedabad - IITM",12-12-2025 08:00:00,23.107969,72.574648,OZONE,1,57,3
India,Gujarat,Ahmedabad,"Gyaspur, Ahmedabad - IITM",12-12-2025 08:00:00,22.977134,72.553024,PM10,179,184,184
India,Gujarat,Ahmedabad,"Maninagar, Ahmedabad - GPCB",12-12-2025 08:00:00,23.002657,72.591912,PM10,69,357,151
India,Gujarat,Ahmedabad,"Raikhad, Ahmedabad - IITM",12-12-2025 08:00:00,23.020509,72.579261,CO,14,67,43
India,Gujarat,Ahmedabad,"Rakhial, Ahmedabad - IITM",12-12-2025 08:00:00,23.016834,72.625775,OZONE,1,76,2
India,Gujarat,Ahmedabad,"SAC ISRO Bopal, Ahmedabad - IITM",12-12-2025 08:00:00,23.041137,72.456691,CO,2,13,10
India,Gujarat,Ahmedabad,"SAC ISRO Satellite, Ahmedabad - IITM",12-12-2025 08:00:00,23.023389,72.515201,PM2.5,48,141,80
India,Gujarat,Ahmedabad,"SVPI Airport Hansol, Ahmedabad - IITM",12-12-2025 08:00:00,23.076793,72.627874,OZONE,1,46,1
India,Gujarat,Ankleshwar,"GIDC, Ankleshwar - GPCB",12-12-2025 08:00:00,21.613267,73.010555,NO2,28,29,29
India,Delhi,Delhi,"Rohini, Delhi - DPCC",12-12-2025 08:00:00,28.732528,77.119920,NH3,15,26,21
India,Delhi,Delhi,"Shadipur, Delhi - CPCB",12-12-2025 08:00:00,28.6514781,77.1473105,PM10,162,427,306
India,Delhi,Delhi,"Shadipur, Delhi - CPCB",12-12-2025 08:00:00,28.6514781,77.1473105,NO2,57,216,115
India,Delhi,Delhi,"Shadipur, Delhi - CPCB",12-12-2025 08:00:00,28.6514781,77.1473105,NH3,10,26,15
India,Gujarat,Vapi,"Phase-1 GIDC, Vapi - GPCB",12-12-2025 08:00:00,20.362421,72.918013,OZONE,7,9,7
India,Gujarat,Vatva,"Phase-4 GIDC, Vatva - GPCB",12-12-2025 08:00:00,22.969611,72.643500,CO,8,52,20
India,Gujarat,Gandhinagar,"Sector-10, Gandhinagar - GPCB",12-12-2025 08:00:00,23.221714,72.654328,PM2.5,54,272,98
India,Gujarat,Vapi,"Phase-1 GIDC, Vapi - GPCB",12-12-2025 08:00:00,20.362421,72.918013,PM2.5,11,168,83
India,Haryana,Karnal,"Sector-12, Karnal - HSPCB",12-12-2025 08:00:00,29.695300,77.002700,CO,34,60,49
India,Haryana,Kurukshetra,"Sector-7, Kurukshetra - HSPCB",12-12-2025 08:00:00,29.966942,76.875879,PM2.5,248,315,294
India,Haryana,Kurukshetra,"Sector-7, Kurukshetra - HSPCB",12-12-2025 08:00:00,29.966942,76.875879,OZONE,2,86,3
India,Haryana,Mandikhera,"General Hospital, Mandikhera(Nuh) - HSPCB",12-12-2025 08:00:00,27.9002,76.9938,NH3,13,14,13
India,Haryana,Mandikhera,"General Hospital, Mandikhera(Nuh) - HSPCB",12-12-2025 08:00:00,27.9002,76.9938,OZONE,23,30,27
India,Haryana,Manesar,"Sector-2 IMT, Manesar - HSPCB",12-12-2025 08:00:00,28.360699,76.936090,PM2.5,102,493,308
India,Haryana,Manesar,"Sector-2 IMT, Manesar - HSPCB",12-12-2025 08:00:00,28.360699,76.936090,SO2,8,19,13
India,Haryana,Narnaul,"Shastri Nagar, Narnaul - HSPCB",12-12-2025 08:00:00,28.060249,76.113115,CO,17,54,27
India,Haryana,Palwal,"Shyam Nagar, Palwal - HSPCB",12-12-2025 08:00:00,28.1485564,77.3320667,NH3,8,9,9
India,Haryana,Palwal,"Shyam Nagar, Palwal - HSPCB",12-12-2025 08:00:00,28.1485564,77.3320667,CO,18,68,43
India,Haryana,Panchkula,"Sector-6, Panchkula - HSPCB ",12-12-2025 08:00:00,30.7057778,76.8531805555555,NO2,24,26,25
India,Haryana,Panipat,"Sector-18, Panipat - HSPCB",12-12-2025 08:00:00,29.432304,76.972765,PM2.5,180,339,293
India,Haryana,Panipat,"Sector-18, Panipat - HSPCB",12-12-2025 08:00:00,29.432304,76.972765,NH3,2,3,2
India,Haryana,Panipat,"Sector-18, Panipat - HSPCB",12-12-2025 08:00:00,29.432304,76.972765,SO2,11,11,11
India,Haryana,Panipat,"Sector-18, Panipat - HSPCB",12-12-2025 08:00:00,29.432304,76.972765,CO,47,48,48
India,Haryana,Rohtak,"MD University, Rohtak - HSPCB",12-12-2025 08:00:00,28.52123,76.37138,CO,54,58,56
India,Karnataka,Bengaluru,"BWSSB Kadabesanahalli, Bengaluru - CPCB",12-12-2025 08:00:00,12.9352049,77.6814488,SO2,2,9,5
India,Karnataka,Bengaluru,"Hebbal, Bengaluru - KSPCB",12-12-2025 08:00:00,13.029152,77.585901,CO,4,63,18
India,Karnataka,Bengaluru,"Hebbal, Bengaluru - KSPCB",12-12-2025 08:00:00,13.029152,77.585901,OZONE,7,15,11
India,Karnataka,Bengaluru,"Hombegowda Nagar, Bengaluru - KSPCB",12-12-2025 08:00:00,12.938539,77.590100,PM2.5,41,95,70
India,Karnataka,Bengaluru,"Hombegowda Nagar, Bengaluru - KSPCB",12-12-2025 08:00:00,12.938539,77.590100,PM10,71,134,108
India,Karnataka,Bengaluru,"Hombegowda Nagar, Bengaluru - KSPCB",12-12-2025 08:00:00,12.938539,77.590100,SO2,8,39,17
India,Karnataka,Bengaluru,"Jayanagar 5th Block, Bengaluru - KSPCB",12-12-2025 08:00:00,12.920984,77.584908,PM2.5,56,123,86
India,Karnataka,Bengaluru,"Jayanagar 5th Block, Bengaluru - KSPCB",12-12-2025 08:00:00,12.920984,77.584908,OZONE,8,68,58
India,Karnataka,Bengaluru,"Jigani, Bengaluru - KSPCB",12-12-2025 08:00:00,12.7816279,77.6299145,PM2.5,54,87,72
India,Karnataka,Bengaluru,"Jigani, Bengaluru - KSPCB",12-12-2025 08:00:00,12.7816279,77.6299145,CO,32,44,43
India,Karnataka,Bengaluru,"Kasturi Nagar, Bengaluru - KSPCB",12-12-2025 08:00:00,13.003872,77.664217,PM2.5,65,76,74
India,Karnataka,Bengaluru,"Kasturi Nagar, Bengaluru - KSPCB",12-12-2025 08:00:00,13.003872,77.664217,CO,35,59,51
India,Karnataka,Bengaluru,"Peenya, Bengaluru - CPCB",12-12-2025 08:00:00,13.0270199,77.494094,NO2,20,27,24
India,Karnataka,Bengaluru,"Peenya, Bengaluru - CPCB",12-12-2025 08:00:00,13.0270199,77.494094,SO2,5,18,8
India,Haryana,Fatehabad,"Huda Sector, Fatehabad - HSPCB",12-12-2025 08:00:00,29.503664,75.467934,SO2,10,11,10
India,Haryana,Gurugram,"NISE Gwal Pahari, Gurugram - IMD",12-12-2025 08:00:00,28.422681,77.148944,NO2,11,71,38
India,Haryana,Gurugram,"Sector-51, Gurugram - HSPCB",12-12-2025 08:00:00,28.4227,77.0667,PM2.5,157,500,337
India,Haryana,Gurugram,"Teri Gram, Gurugram - HSPCB",12-12-2025 08:00:00,28.4275,77.1465,CO,26,72,54
India,Haryana,Gurugram,"Vikas Sadan, Gurugram - HSPCB",12-12-2025 08:00:00,28.4501238,77.0263051,PM2.5,287,305,295
India,Haryana,Gurugram,"Vikas Sadan, Gurugram - HSPCB",12-12-2025 08:00:00,28.4501238,77.0263051,SO2,3,8,5
India,Haryana,Jind,"Police Lines, Jind - HSPCB",12-12-2025 08:00:00,29.307814,76.337619,NH3,2,3,2
India,Haryana,Jind,"Police Lines, Jind - HSPCB",12-12-2025 08:00:00,29.307814,76.337619,OZONE,5,52,6
India,Haryana,Kaithal,"Rishi Nagar, Kaithal - HSPCB",12-12-2025 08:00:00,29.8006,76.4155,CO,6,114,54
India,Haryana,Karnal,"Sector-12, Karnal - HSPCB",12-12-2025 08:00:00,29.695300,77.002700,SO2,14,47,31
India,Haryana,Sirsa,"F-Block, Sirsa - HSPCB",12-12-2025 08:00:00,29.536400,75.015800,SO2,11,17,13
India,Haryana,Sirsa,"F-Block, Sirsa - HSPCB",12-12-2025 08:00:00,29.536400,75.015800,CO,32,70,66
India,Haryana,Sonipat,"Murthal, Sonipat - HSPCB",12-12-2025 08:00:00,29.027200,77.062100,PM2.5,126,401,287
India,Haryana,Sonipat,"Murthal, Sonipat - HSPCB",12-12-2025 08:00:00,29.027200,77.062100,NH3,19,57,28
India,Jammu_and_Kashmir,Srinagar,"Rajbagh, Srinagar - JKSPCB",12-12-2025 08:00:00,34.066206,74.819820,OZONE,NA,NA,NA
India,Karnataka,Bengaluru,"RVCE-Mailasandra, Bengaluru - KSPCB",12-12-2025 08:00:00,12.921418,77.502466,OZONE,16,20,16
India,Karnataka,Bengaluru,"Sanegurava Halli, Bengaluru - KSPCB",12-12-2025 08:00:00,12.990328,77.5431385,PM10,48,56,51
India,Karnataka,Bengaluru,"Shivapura_Peenya, Bengaluru - KSPCB",12-12-2025 08:00:00,13.0246342,77.5080115,PM2.5,89,162,127
India,Karnataka,Bengaluru,"Shivapura_Peenya, Bengaluru - KSPCB",12-12-2025 08:00:00,13.0246342,77.5080115,NH3,4,4,4
India,Jharkhand,Dhanbad,"Sardar Patel Nagar, Dhanbad - JSPCB",12-12-2025 08:00:00,23.80569,86.44268,CO,2,149,2
India,Jharkhand,Jorapokhar,"Tata Stadium, Jorapokhar - JSPCB",12-12-2025 08:00:00,23.707909,86.414670,PM2.5,NA,NA,NA
India,Karnataka,Shivamogga,"Vinoba Nagara, Shivamogga - KSPCB",12-12-2025 08:00:00,13.940000,75.555917,OZONE,10,82,26
India,Karnataka,Yadgir,"Collector Office, Yadgir - KSPCB",12-12-2025 08:00:00,16.7602,77.1428,PM2.5,26,146,60
India,Karnataka,Yadgir,"Collector Office, Yadgir - KSPCB",12-12-2025 08:00:00,16.7602,77.1428,PM10,31,159,67
India,Karnataka,Yadgir,"Collector Office, Yadgir - KSPCB",12-12-2025 08:00:00,16.7602,77.1428,CO,10,35,21
India,Kerala,Eloor,"Udyogamandal, Eloor - Kerala PCB",12-12-2025 08:00:00,10.073232,76.302765,SO2,1,1,1
India,Kerala,Eloor,"Udyogamandal, Eloor - Kerala PCB",12-12-2025 08:00:00,10.073232,76.302765,CO,7,104,16
India,Kerala,Kannur,"Thavakkara, Kannur - Kerala PCB",12-12-2025 08:00:00,11.875000,75.373200,NO2,15,17,16
India,Kerala,Kannur,"Thavakkara, Kannur - Kerala PCB",12-12-2025 08:00:00,11.875000,75.373200,CO,14,17,16
India,Kerala,Kollam,"Polayathode, Kollam - Kerala PCB",12-12-2025 08:00:00,8.8787,76.6073,NO2,NA,NA,NA
India,Karnataka,Chamarajanagar,"Urban, Chamarajanagar - KSPCB",12-12-2025 08:00:00,11.55358,76.55521,PM2.5,17,39,31
India,Karnataka,Chamarajanagar,"Urban, Chamarajanagar - KSPCB",12-12-2025 08:00:00,11.55358,76.55521,NH3,1,2,2
India,Karnataka,Chamarajanagar,"Urban, Chamarajanagar - KSPCB",12-12-2025 08:00:00,11.55358,76.55521,OZONE,15,30,22
India,Karnataka,Chikkamagaluru,"Kalyana Nagara, Chikkamagaluru - KSPCB",12-12-2025 08:00:00,13.328028,75.797056,NO2,19,27,26
India,Karnataka,Dharwad,"Kalabhavan, Dharwad - KSPCB",12-12-2025 08:00:00,15.459706,75.008381,CO,54,103,72
India,Karnataka,Hubballi,"Lingaraj Nagar, Hubballi - KSPCB",12-12-2025 08:00:00,15.3714823,75.1160168,NH3,2,3,2
India,Karnataka,Hubballi,"Lingaraj Nagar, Hubballi - KSPCB",12-12-2025 08:00:00,15.3714823,75.1160168,SO2,1,6,3
India,Karnataka,Kalaburagi,"Mahatma Basaveswar Colony, Kalaburgi - KSPCB",12-12-2025 08:00:00,17.336318,76.847397,NO2,12,19,16
India,Madhya Pradesh,Indore,"Maguda Nagar, Indore - IMC",12-12-2025 08:00:00,22.7524,75.8872,NO2,2,2,2
India,Madhya Pradesh,Indore,"Maguda Nagar, Indore - IMC",12-12-2025 08:00:00,22.7524,75.8872,CO,28,61,54
India,Madhya Pradesh,Indore,"Regional Park, Indore - IMC",12-12-2025 08:00:00,22.6780,75.8559,PM10,18,110,61
India,Madhya Pradesh,Indore,"Regional Park, Indore - IMC",12-12-2025 08:00:00,22.6780,75.8559,NO2,11,16,13
India,Madhya Pradesh,Indore,"Regional Park, Indore - IMC",12-12-2025 08:00:00,22.6780,75.8559,NH3,NA,NA,NA
India,Madhya Pradesh,Indore,"Residency Area, Indore - IMC",12-12-2025 08:00:00,22.7084,75.8815,PM2.5,21,281,102
India,Madhya Pradesh,Indore,"Residency Area, Indore - IMC",12-12-2025 08:00:00,22.7084,75.8815,PM10,21,169,88
India,Madhya Pradesh,Indore,"Residency Area, Indore - IMC",12-12-2025 08:00:00,22.7084,75.8815,CO,16,33,29
India,Madhya Pradesh,Jabalpur,"Govindh Bhavan Colony, Jabalpur - JMC",12-12-2025 08:00:00,23.163174,79.973061,NO2,19,22,20
India,Madhya Pradesh,Jabalpur,"Gupteshwar, Jabalpur - JMC",12-12-2025 08:00:00,23.142888,79.916147,SO2,6,10,8
India,Madhya Pradesh,Jabalpur,"Marhatal, Jabalpur - MPPCB",12-12-2025 08:00:00,23.168606,79.932247,PM10,52,315,116
India,Madhya Pradesh,Jabalpur,"Marhatal, Jabalpur - MPPCB",12-12-2025 08:00:00,23.168606,79.932247,NH3,1,2,2
India,Madhya Pradesh,Jabalpur,"Suhagi, Jabalpur - JMC",12-12-2025 08:00:00,23.218135,79.957770,PM2.5,35,369,150
India,Madhya Pradesh,Jabalpur,"Suhagi, Jabalpur - JMC",12-12-2025 08:00:00,23.218135,79.957770,NH3,1,6,3
India,Madhya Pradesh,Jabalpur,"Suhagi, Jabalpur - JMC",12-12-2025 08:00:00,23.218135,79.957770,SO2,7,8,7
India,Madhya Pradesh,Maihar,"Sahilara, Maihar - KJS Cements",12-12-2025 08:00:00,24.2613009,80.7231783,PM10,24,39,33
India,Madhya Pradesh,Bhopal,"Idgah Hills, Bhopal - MPPCB",12-12-2025 08:00:00,23.264759,77.381568,NH3,4,7,5
India,Madhya Pradesh,Bhopal,"Idgah Hills, Bhopal - MPPCB",12-12-2025 08:00:00,23.264759,77.381568,CO,20,61,24
India,Madhya Pradesh,Bhopal,"Idgah Hills, Bhopal - MPPCB",12-12-2025 08:00:00,23.264759,77.381568,OZONE,46,85,72
India,Madhya Pradesh,Bhopal,"Paryavaran Parisar, Bhopal - MPPCB",12-12-2025 08:00:00,23.210494,77.425409,PM10,41,215,130
India,Madhya Pradesh,Bhopal,"Paryavaran Parisar, Bhopal - MPPCB",12-12-2025 08:00:00,23.210494,77.425409,NH3,NA,NA,NA
India,Madhya Pradesh,Bhopal,"Paryavaran Parisar, Bhopal - MPPCB",12-12-2025 08:00:00,23.210494,77.425409,SO2,3,34,12
India,Madhya Pradesh,Bhopal,"T T Nagar, Bhopal - MPPCB",12-12-2025 08:00:00,23.233584,77.400574,PM10,90,140,115
India,Madhya Pradesh,Bhopal,"T T Nagar, Bhopal - MPPCB",12-12-2025 08:00:00,23.233584,77.400574,NH3,7,7,7
India,Karnataka,Kalaburagi,"Mahatma Basaveswar Colony, Kalaburgi - KSPCB",12-12-2025 08:00:00,17.336318,76.847397,OZONE,13,22,15
India,Karnataka,Koppal,"Diwator Nagar, Koppal - KSPCB",12-12-2025 08:00:00,15.347630,76.181767,NH3,7,8,7
India,Karnataka,Mysuru,"Hebbal 1st Stage, Mysuru - KSPCB",12-12-2025 08:00:00,12.21041,76.37376,PM10,83,123,106
India,Madhya Pradesh,Dewas,"Bhopal Chauraha, Dewas - MPPCB",12-12-2025 08:00:00,22.9682591,76.064118,PM10,53,170,86
India,Madhya Pradesh,Dewas,"Bhopal Chauraha, Dewas - MPPCB",12-12-2025 08:00:00,22.9682591,76.064118,NO2,6,8,7
India,Madhya Pradesh,Gwalior,"City Center, Gwalior - MPPCB",12-12-2025 08:00:00,26.203442,78.193251,NO2,16,175,70
India,Madhya Pradesh,Gwalior,"Deen Dayal Nagar, Gwalior - MPPCB",12-12-2025 08:00:00,26.259242,78.216432,OZONE,3,137,3
India,Madhya Pradesh,Indore,"Chhoti Gwaltoli, Indore - MPPCB",12-12-2025 08:00:00,22.4310,75.5213,PM2.5,34,400,226
India,Kerala,Kollam,"Polayathode, Kollam - Kerala PCB",12-12-2025 08:00:00,8.8787,76.6073,OZONE,NA,NA,NA
India,Maharashtra,Jalgaon,"Prabhat Colony, Jalgaon - MPCB",12-12-2025 08:00:00,21.001264,75.565602,NH3,2,3,3
India,Maharashtra,Jalgaon,"Prabhat Colony, Jalgaon - MPCB",12-12-2025 08:00:00,21.001264,75.565602,CO,18,80,21
India,Maharashtra,Jalna,"Old MIDC, Jalna - MPCB",12-12-2025 08:00:00,19.854616,75.905894,NH3,3,5,4
India,Maharashtra,Jalna,"Old MIDC, Jalna - MPCB",12-12-2025 08:00:00,19.854616,75.905894,OZONE,23,74,31
India,Maharashtra,Kalyan,"Khadakpada, Kalyan - MPCB",12-12-2025 08:00:00,19.25292,73.142019,PM2.5,29,300,89
India,Maharashtra,Kalyan,"Khadakpada, Kalyan - MPCB",12-12-2025 08:00:00,19.25292,73.142019,NH3,1,1,1
India,Maharashtra,Kalyan,"Pimpleshwar Mandir, Kalyan - MPCB",12-12-2025 08:00:00,19.192056,72.9585188,NO2,16,33,23
India,Maharashtra,Kalyan,"Pimpleshwar Mandir, Kalyan - MPCB",12-12-2025 08:00:00,19.192056,72.9585188,SO2,13,75,33
India,Maharashtra,Kolhapur,"Shivaji University, Kolhapur - MPCB",12-12-2025 08:00:00,16.6870449,74.2505872,PM2.5,97,303,212
India,Maharashtra,Kolhapur,"Shivaji University, Kolhapur - MPCB",12-12-2025 08:00:00,16.6870449,74.2505872,SO2,2,4,3
India,Maharashtra,Kolhapur,"Shivaji University, Kolhapur - MPCB",12-12-2025 08:00:00,16.6870449,74.2505872,CO,12,56,40
India,Maharashtra,Kolhapur,"Sinchan Bhavan, Kolhapur - MPCB",12-12-2025 08:00:00,16.7143745,74.2426398,SO2,1,10,4
India,Maharashtra,Latur,"Sawe Wadi, Latur - MPCB",12-12-2025 08:00:00,18.39963,76.57452,NO2,19,78,39
India,Maharashtra,Latur,"Sawe Wadi, Latur - MPCB",12-12-2025 08:00:00,18.39963,76.57452,NH3,6,23,12
India,Maharashtra,Latur,"Sawe Wadi, Latur - MPCB",12-12-2025 08:00:00,18.39963,76.57452,SO2,2,25,10
India,Maharashtra,Mira-Bhayandar,"Bhayandar West, Mira-Bhayandar - MPCB",12-12-2025 08:00:00,19.296481,72.840923,PM2.5,42,88,67
India,Maharashtra,Mira-Bhayandar,"Bhayandar West, Mira-Bhayandar - MPCB",12-12-2025 08:00:00,19.296481,72.840923,PM10,74,120,104
India,Maharashtra,Chandrapur,"Chauhan Colony, Chandrapur - MPCB",12-12-2025 08:00:00,19.962900,79.298714,SO2,37,37,37
India,Maharashtra,Chandrapur,"Chauhan Colony, Chandrapur - MPCB",12-12-2025 08:00:00,19.962900,79.298714,OZONE,24,24,24
India,Maharashtra,Dhule,"Deopur, Dhule - MPCB",12-12-2025 08:00:00,20.918946,74.776388,NH3,1,24,2
India,Maharashtra,Dhule,"Deopur, Dhule - MPCB",12-12-2025 08:00:00,20.918946,74.776388,SO2,4,15,11
India,Maharashtra,Dhule,"Deopur, Dhule - MPCB",12-12-2025 08:00:00,20.918946,74.776388,OZONE,17,74,19
India,Maharashtra,Jalgaon,"Prabhat Colony, Jalgaon - MPCB",12-12-2025 08:00:00,21.001264,75.565602,PM10,62,271,126
