country,state,city,station,last_update,latitude,longitude,pollutant_id,min_value,max_value,avg_value
India,Bihar,Bettiah,"Kamalnath Nagar, Bettiah - BSPCB",20-04-2026 09:00:00,26.80365,84.51954,NO2,3,11,8
India,Bihar,Bettiah,"Kamalnath Nagar, Bettiah - BSPCB",20-04-2026 09:00:00,26.80365,84.51954,SO2,17,25,21
India,Bihar,Bhagalpur,"DM Office_Kachari Chowk, Bhagalpur - BSPCB",20-04-2026 09:00:00,25.251013,86.989001,PM2.5,35,95,54
India,Bihar,Bhagalpur,"DM Office_Kachari Chowk, Bhagalpur - BSPCB",20-04-2026 09:00:00,25.251013,86.989001,NO2,9,14,12
India,Bihar,Bhagalpur,"Mayaganj, Bhagalpur - BSPCB",20-04-2026 09:00:00,25.265194,87.012947,PM2.5,8,260,123
India,Bihar,Bhagalpur,"Mayaganj, Bhagalpur - BSPCB",20-04-2026 09:00:00,25.265194,87.012947,NO2,7,10,7
India,Bihar,Bhagalpur,"Mayaganj, Bhagalpur - BSPCB",20-04-2026 09:00:00,25.265194,87.012947,NH3,6,8,7
India,Bihar,Bhagalpur,"Mayaganj, Bhagalpur - BSPCB",20-04-2026 09:00:00,25.265194,87.012947,CO,80,98,90
India,Bihar,Bihar Sharif,"D M Colony, Bihar Sharif - BSPCB",20-04-2026 09:00:00,25.204762,85.514960,PM10,24,50,40
India,Bihar,Bihar Sharif,"D M Colony, Bihar Sharif - BSPCB",20-04-2026 09:00:00,25.204762,85.514960,NH3,3,3,3
India,Bihar,Buxar,"Charitra Van, Buxar - BSPCB",20-04-2026 09:00:00,25.567520,83.966379,PM2.5,37,160,68
India,Bihar,Gaya,"Kareemganj, Gaya - BSPCB",20-04-2026 09:00:00,24.792403,84.992416,PM10,121,275,192
India,Bihar,Gaya,"Kareemganj, Gaya - BSPCB",20-04-2026 09:00:00,24.792403,84.992416,SO2,4,44,32
India,Assam,Byrnihat,"Central Academy for SFS, Byrnihat - PCBA",20-04-2026 09:00:00,26.071318,91.87488,PM10,NA,NA,NA
India,Assam,Byrnihat,"Central Academy for SFS, Byrnihat - PCBA",20-04-2026 09:00:00,26.071318,91.87488,OZONE,NA,NA,NA
India,Assam,Guwahati,"LGBI Airport, Guwahati - PCBA",20-04-2026 09:00:00,26.10887,91.589544,PM2.5,14,59,40
India,Assam,Guwahati,"LGBI Airport, Guwahati - PCBA",20-04-2026 09:00:00,26.10887,91.589544,PM10,13,51,34
India,Assam,Guwahati,"LGBI Airport, Guwahati - PCBA",20-04-2026 09:00:00,26.10887,91.589544,NH3,1,41,6
India,Assam,Guwahati,"LGBI Airport, Guwahati - PCBA",20-04-2026 09:00:00,26.10887,91.589544,SO2,5,13,11
India,Assam,Guwahati,"Railway Colony, Guwahati - PCBA",20-04-2026 09:00:00,26.181742,91.78063,PM2.5,13,182,63
India,Assam,Guwahati,"Railway Colony, Guwahati - PCBA",20-04-2026 09:00:00,26.181742,91.78063,SO2,2,6,3
India,Assam,Nagaon,"Christianpatty, Nagaon - PCBA",20-04-2026 09:00:00,26.349082,92.68449,PM10,NA,NA,NA
India,Assam,Nagaon,"Christianpatty, Nagaon - PCBA",20-04-2026 09:00:00,26.349082,92.68449,NH3,NA,NA,NA
India,Assam,Nalbari,"Bata Chowk, Nalbari - PCBA",20-04-2026 09:00:00,26.446912,91.439057,PM2.5,NA,NA,NA
India,Assam,Nalbari,"Bata Chowk, Nalbari - PCBA",20-04-2026 09:00:00,26.446912,91.439057,PM10,NA,NA,NA
India,Andhra_Pradesh,Vijayawada,"Kanuru, Vijayawada - APPCB",20-04-2026 09:00:00,16.486692,80.699436,SO2,11,16,13
India,Andhra_Pradesh,Vijayawada,"Rajiv Gandhi Park, Vijayawada - APPCB",20-04-2026 09:00:00,16.509717,80.612222,NO2,14,29,19
India,Andhra_Pradesh,Vijayawada,"Rajiv Gandhi Park, Vijayawada - APPCB",20-04-2026 09:00:00,16.509717,80.612222,SO2,18,22,19
India,Andhra_Pradesh,Vijayawada,"Rajiv Gandhi Park, Vijayawada - APPCB",20-04-2026 09:00:00,16.509717,80.612222,OZONE,26,26,26
India,Andhra_Pradesh,Vijayawada,"Rajiv Nagar, Vijayawada - APPCB",20-04-2026 09:00:00,16.554731,80.649110,NO2,12,24,21
India,Andhra_Pradesh,Vijayawada,"Rajiv Nagar, Vijayawada - APPCB",20-04-2026 09:00:00,16.554731,80.649110,OZONE,26,32,27
India,Andhra_Pradesh,Visakhapatnam,"GVM Corporation, Visakhapatnam - APPCB",20-04-2026 09:00:00,17.72,83.3,PM10,40,299,93
India,Andhra_Pradesh,Visakhapatnam,"GVM Corporation, Visakhapatnam - APPCB",20-04-2026 09:00:00,17.72,83.3,NO2,16,75,52
India,Andhra_Pradesh,Visakhapatnam,"GVM Corporation, Visakhapatnam - APPCB",20-04-2026 09:00:00,17.72,83.3,OZONE,4,21,6
India,Arunachal_Pradesh,Naharlagun,"Naharlagun, Naharlagun - APSPCB",20-04-2026 09:00:00,27.103358,93.679645,PM10,37,246,88
India,Bihar,Motihari,"Gandak Colony, Motihari - BSPCB",20-04-2026 09:00:00,26.63086,84.90051,NH3,3,3,3
India,Bihar,Motihari,"Gandak Colony, Motihari - BSPCB",20-04-2026 09:00:00,26.63086,84.90051,CO,12,16,14
India,Bihar,Motihari,"Gandak Colony, Motihari - BSPCB",20-04-2026 09:00:00,26.63086,84.90051,OZONE,3,6,3
India,Bihar,Munger,"Town Hall, Munger - BSPCB",20-04-2026 09:00:00,25.376776,86.471523,SO2,4,103,75
India,Bihar,Munger,"Town Hall, Munger - BSPCB",20-04-2026 09:00:00,25.376776,86.471523,CO,26,30,28
India,Bihar,Muzaffarpur,"Buddha Colony, Muzaffarpur - BSPCB",20-04-2026 09:00:00,26.11442,85.39813,NO2,12,26,15
India,Bihar,Muzaffarpur,"MIT-Daudpur Kothi, Muzaffarpur - BSPCB",20-04-2026 09:00:00,26.1403345,85.3650192,PM10,58,73,62
India,Bihar,Patna,"DRM Office Danapur, Patna - BSPCB",20-04-2026 09:00:00,25.586562,85.043586,NO2,35,42,38
India,Bihar,Patna,"DRM Office Danapur, Patna - BSPCB",20-04-2026 09:00:00,25.586562,85.043586,CO,34,52,43
India,Andhra_Pradesh,Anantapur,"Gulzarpet, Anantapur - APPCB",20-04-2026 09:00:00,14.675886,77.593027,SO2,3,12,5
India,Andhra_Pradesh,Anantapur,"Gulzarpet, Anantapur - APPCB",20-04-2026 09:00:00,14.675886,77.593027,OZONE,30,47,37
India,Andhra_Pradesh,Chittoor,"Gangineni Cheruvu, Chittoor - APPCB",20-04-2026 09:00:00,13.204880,79.097889,PM2.5,47,64,57
India,Andhra_Pradesh,Chittoor,"Gangineni Cheruvu, Chittoor - APPCB",20-04-2026 09:00:00,13.204880,79.097889,CO,12,20,14
India,Andhra_Pradesh,Eluru,"District Court, Eluru - APPCB",20-04-2026 09:00:00,16.711754,81.092095,NH3,1,4,2
India,Andhra_Pradesh,Kadapa,"Yerramukkapalli, Kadapa - APPCB",20-04-2026 09:00:00,14.465052,78.824187,NO2,17,24,18
India,Andhra_Pradesh,Machilipatnam,"Srinivas Nagar Colony, Machilipatnam - APPCB",20-04-2026 09:00:00,16.186555,81.13219,CO,6,44,11
India,Andhra_Pradesh,Nellore,"Ambedkar Nagar, Nellore - APPCB ",20-04-2026 09:00:00,14.438164 ,79.966814 ,PM10,16,74,40
India,Andhra_Pradesh,Nellore,"Ambedkar Nagar, Nellore - APPCB ",20-04-2026 09:00:00,14.438164 ,79.966814 ,OZONE,4,36,6
India,Andhra_Pradesh,Tirumala,"Toll Gate, Tirumala - APPCB",20-04-2026 09:00:00,13.67,79.35,PM10,24,74,50
India,Andhra_Pradesh,Tirumala,"Toll Gate, Tirumala - APPCB",20-04-2026 09:00:00,13.67,79.35,SO2,2,34,14
India,Andhra_Pradesh,Tirupati,"Vaikuntapuram, Tirupati - APPCB",20-04-2026 09:00:00,13.615387,79.409230,PM10,49,72,53
India,Andhra_Pradesh,Tirupati,"Vaikuntapuram, Tirupati - APPCB",20-04-2026 09:00:00,13.615387,79.409230,CO,19,28,20
India,Assam,Silchar,"Tarapur, Silchar - PCBA",20-04-2026 09:00:00,24.82827,92.79525,PM2.5,16,33,22
India,Assam,Sivasagar,"Girls College, Sivasagar - PCBA",20-04-2026 09:00:00,26.987634,94.636574,SO2,7,10,9
India,Bihar,Araria,"Kharahiya Basti, Araria - BSPCB",20-04-2026 09:00:00,26.146529,87.454184,SO2,38,63,50
India,Bihar,Begusarai,"Lohiyanagar, Begusarai - BSPCB",20-04-2026 09:00:00,25.42742023,86.13886079,NO2,9,18,13
India,Bihar,Gaya,"SFTI Kusdihra, Gaya - BSPCB",20-04-2026 09:00:00,24.762518,84.982348,CO,5,64,45
India,Bihar,Hajipur,"Industrial Area, Hajipur - BSPCB",20-04-2026 09:00:00,25.697189,85.245900,PM10,72,143,107
India,Bihar,Hajipur,"Industrial Area, Hajipur - BSPCB",20-04-2026 09:00:00,25.697189,85.245900,CO,16,22,21
India,Bihar,Hajipur,"Industrial Area, Hajipur - BSPCB",20-04-2026 09:00:00,25.697189,85.245900,OZONE,13,171,23
India,Bihar,Katihar,"Mirchaibari, Katihar - BSPCB",20-04-2026 09:00:00,25.560083,87.553265,PM2.5,12,37,27
India,Andhra_Pradesh,Amaravati,"Secretariat, Amaravati - APPCB",20-04-2026 09:00:00,16.5150833,80.5181667,PM10,14,62,36
India,Andhra_Pradesh,Amaravati,"Secretariat, Amaravati - APPCB",20-04-2026 09:00:00,16.5150833,80.5181667,CO,6,16,14
India,Andhra_Pradesh,Anantapur,"Gulzarpet, Anantapur - APPCB",20-04-2026 09:00:00,14.675886,77.593027,PM10,52,112,66
India,Bihar,Gaya,"Kareemganj, Gaya - BSPCB",20-04-2026 09:00:00,24.792403,84.992416,OZONE,23,119,40
India,Bihar,Gaya,"SFTI Kusdihra, Gaya - BSPCB",20-04-2026 09:00:00,24.762518,84.982348,PM2.5,51,91,64
India,Chhattisgarh,Raipur,"Siltara Phase-II, Raipur - CECB",20-04-2026 09:00:00,21.371751,81.664929,CO,17,19,18
India,Chhattisgarh,Tumidih,"OP Jindal Industrial Park, Tumidih - CECB",20-04-2026 09:00:00,22.06631475,83.33820077,PM10,41,171,97
India,Chhattisgarh,Tumidih,"OP Jindal Industrial Park, Tumidih - CECB",20-04-2026 09:00:00,22.06631475,83.33820077,SO2,7,29,12
India,Delhi,Delhi,"Alipur, Delhi - DPCC",20-04-2026 09:00:00,28.815329,77.153010,PM2.5,32,408,121
India,Delhi,Delhi,"Ashok Vihar, Delhi - DPCC",20-04-2026 09:00:00,28.695381,77.181665,NH3,6,7,7
India,Delhi,Delhi,"Aya Nagar, Delhi - IMD",20-04-2026 09:00:00,28.4706914,77.1099364,OZONE,5,104,18
India,Delhi,Delhi,"Bawana, Delhi - DPCC",20-04-2026 09:00:00,28.776200,77.051074,PM2.5,18,395,173
India,Chhattisgarh,Korba,"Urja Nagar, Korba - CECB",20-04-2026 09:00:00,22.348441,82.549611,PM10,33,250,115
India,Chhattisgarh,Korba,"Urja Nagar, Korba - CECB",20-04-2026 09:00:00,22.348441,82.549611,NH3,1,1,1
India,Chhattisgarh,Kunjemura,"OP Jindal School, Kunjemura - CECB",20-04-2026 09:00:00,22.126650,83.483212,PM2.5,34,68,49
India,Chhattisgarh,Kunjemura,"OP Jindal School, Kunjemura - CECB",20-04-2026 09:00:00,22.126650,83.483212,CO,27,71,35
India,Chhattisgarh,Raipur,"AIIMS, Raipur - CECB",20-04-2026 09:00:00,21.258815,81.578979,PM2.5,22,46,33
India,Chhattisgarh,Raipur,"AIIMS, Raipur - CECB",20-04-2026 09:00:00,21.258815,81.578979,CO,20,44,32
India,Chhattisgarh,Raipur,"Bhatagaon New ISBT, Raipur - CECB",20-04-2026 09:00:00,21.219665,81.630094,NH3,2,2,2
India,Chhattisgarh,Raipur,"Bhatagaon New ISBT, Raipur - CECB",20-04-2026 09:00:00,21.219665,81.630094,OZONE,2,10,3
India,Bihar,Rajgir,"Dangi Tola, Rajgir - BSPCB",20-04-2026 09:00:00,25.03280,85.41948,PM2.5,45,193,75
India,Bihar,Saharsa,"Police Line, Saharsa - BSPCB",20-04-2026 09:00:00,25.892357,86.590325,NO2,3,11,7
India,Bihar,Saharsa,"Police Line, Saharsa - BSPCB",20-04-2026 09:00:00,25.892357,86.590325,SO2,15,17,16
India,Bihar,Saharsa,"Police Line, Saharsa - BSPCB",20-04-2026 09:00:00,25.892357,86.590325,OZONE,6,54,23
India,Bihar,Samastipur,"DM Office_Kasipur, Samastipur - BSPCB",20-04-2026 09:00:00,25.859655,85.77944,PM2.5,35,167,60
India,Bihar,Samastipur,"DM Office_Kasipur, Samastipur - BSPCB",20-04-2026 09:00:00,25.859655,85.77944,NO2,8,8,8
India,Bihar,Sasaram,"Dada Peer, Sasaram - BSPCB",20-04-2026 09:00:00,24.952822,84.002396,CO,40,82,50
India,Bihar,Siwan,"Chitragupta Nagar, Siwan - BSPCB",20-04-2026 09:00:00,26.2271665,84.3570427,SO2,1,9,3
India,Bihar,Siwan,"Chitragupta Nagar, Siwan - BSPCB",20-04-2026 09:00:00,26.2271665,84.3570427,OZONE,2,16,7
India,Chandigarh,Chandigarh,"Sector 22, Chandigarh - CPCC",20-04-2026 09:00:00,30.735567,76.775714,PM2.5,27,103,65
India,Chandigarh,Chandigarh,"Sector 22, Chandigarh - CPCC",20-04-2026 09:00:00,30.735567,76.775714,PM10,64,139,102
India,Chandigarh,Chandigarh,"Sector 22, Chandigarh - CPCC",20-04-2026 09:00:00,30.735567,76.775714,CO,57,84,70
India,Chandigarh,Chandigarh,"Sector-25, Chandigarh - CPCC",20-04-2026 09:00:00,30.751462,76.762879,PM10,NA,NA,NA
India,Chandigarh,Chandigarh,"Sector-25, Chandigarh - CPCC",20-04-2026 09:00:00,30.751462,76.762879,NH3,NA,NA,NA
India,Chhattisgarh,Bilaspur,"Mangala, Bilaspur - NTPC",20-04-2026 09:00:00,22.08815,82.13737,PM2.5,61,186,116
India,Chhattisgarh,Bilaspur,"Mangala, Bilaspur - NTPC",20-04-2026 09:00:00,22.08815,82.13737,PM10,48,123,88
India,Chhattisgarh,Bilaspur,"Mangala, Bilaspur - NTPC",20-04-2026 09:00:00,22.08815,82.13737,CO,2,110,48
India,Chhattisgarh,Chhal,"Nawapara SECL Colony, Chhal - CECB",20-04-2026 09:00:00,22.118125,83.140608,SO2,NA,NA,NA
India,Chhattisgarh,Korba,"Rampur, Korba - CECB",20-04-2026 09:00:00,22.368195,82.746431,PM10,NA,NA,NA
India,Bihar,Patna,"Muradpur, Patna - BSPCB",20-04-2026 09:00:00,25.619651,85.147382,NH3,4,5,4
India,Bihar,Patna,"Muradpur, Patna - BSPCB",20-04-2026 09:00:00,25.619651,85.147382,SO2,6,13,10
India,Bihar,Patna,"Rajbansi Nagar, Patna - BSPCB",20-04-2026 09:00:00,25.599486,85.113666,NH3,2,3,2
India,Bihar,Patna,"Samanpura, Patna - BSPCB",20-04-2026 09:00:00,25.596727,85.085624,PM10,61,109,88
India,Bihar,Patna,"Samanpura, Patna - BSPCB",20-04-2026 09:00:00,25.596727,85.085624,NH3,4,6,5
India,Bihar,Patna,"Samanpura, Patna - BSPCB",20-04-2026 09:00:00,25.596727,85.085624,OZONE,2,58,2
India,Delhi,Delhi,"Bawana, Delhi - DPCC",20-04-2026 09:00:00,28.776200,77.051074,OZONE,6,62,13
India,Delhi,Delhi,"Cantonment Area, Delhi - DPCC ",20-04-2026 09:00:00,28.594169 ,77.125100 ,NH3,1,5,3
India,Delhi,Delhi,"Cantonment Area, Delhi - DPCC ",20-04-2026 09:00:00,28.594169 ,77.125100 ,OZONE,3,44,5
India,Delhi,Delhi,"Chandni Chowk, Delhi - IITM",20-04-2026 09:00:00,28.656756,77.227234,SO2,17,42,24
India,Delhi,Delhi,"DTU, Delhi - CPCB",20-04-2026 09:00:00,28.7500499,77.1112615,NO2,34,36,35
India,Delhi,Delhi,"Dr. Karni Singh Shooting Range, Delhi - DPCC",20-04-2026 09:00:00,28.498571,77.264840,PM2.5,20,315,128
India,Chhattisgarh,Bhilai,"Civic Center, Bhilai - Bhilai Steel Plant",20-04-2026 09:00:00,21.185571,81.343175,SO2,6,11,8
India,Chhattisgarh,Bhilai,"Hathkhoj, Bhilai - CECB",20-04-2026 09:00:00,21.224231,81.408350,PM10,27,56,43
India,Delhi,Delhi,"R K Puram, Delhi - DPCC",20-04-2026 09:00:00,28.563262,77.186937,SO2,31,54,38
India,Delhi,Delhi,"Rohini, Delhi - DPCC",20-04-2026 09:00:00,28.732528,77.119920,PM2.5,28,459,188
India,Delhi,Delhi,"Rohini, Delhi - DPCC",20-04-2026 09:00:00,28.732528,77.119920,NO2,12,81,38
India,Delhi,Delhi,"Shadipur, Delhi - CPCB",20-04-2026 09:00:00,28.6514781,77.1473105,PM2.5,57,321,103
India,Delhi,Delhi,"Shadipur, Delhi - CPCB",20-04-2026 09:00:00,28.6514781,77.1473105,PM10,43,185,99
India,Delhi,Delhi,"Shadipur, Delhi - CPCB",20-04-2026 09:00:00,28.6514781,77.1473105,NO2,47,89,63
India,Delhi,Delhi,"Sirifort, Delhi - CPCB",20-04-2026 09:00:00,28.5504249,77.2159377,NO2,21,37,28
India,Delhi,Delhi,"Sonia Vihar, Delhi - DPCC",20-04-2026 09:00:00,28.710508,77.249485,PM10,48,294,135
India,Delhi,Delhi,"Sri Aurobindo Marg, Delhi - DPCC",20-04-2026 09:00:00,28.531346,77.190156,PM2.5,32,336,114
India,Delhi,Delhi,"Okhla Phase-2, Delhi - DPCC",20-04-2026 09:00:00,28.530785,77.271255,OZONE,4,67,5
India,Delhi,Delhi,"Patparganj, Delhi - DPCC",20-04-2026 09:00:00,28.623763,77.287209,NO2,25,162,75
India,Delhi,Delhi,"Punjabi Bagh, Delhi - DPCC",20-04-2026 09:00:00,28.674045,77.131023,NH3,5,9,6
India,Delhi,Delhi,"Pusa, Delhi - DPCC",20-04-2026 09:00:00,28.639652,77.146275,PM2.5,38,443,159
India,Delhi,Delhi,"Pusa, Delhi - DPCC",20-04-2026 09:00:00,28.639652,77.146275,NH3,5,29,16
India,Delhi,Delhi,"Pusa, Delhi - DPCC",20-04-2026 09:00:00,28.639652,77.146275,OZONE,3,30,5
India,Delhi,Delhi,"Pusa, Delhi - IMD",20-04-2026 09:00:00,28.636110,77.173332,NO2,5,94,35
India,Delhi,Delhi,"R K Puram, Delhi - DPCC",20-04-2026 09:00:00,28.563262,77.186937,PM10,78,425,200
India,Delhi,Delhi,"R K Puram, Delhi - DPCC",20-04-2026 09:00:00,28.563262,77.186937,NO2,10,122,67
India,Delhi,Delhi,"NSIT Dwarka, Delhi - CPCB",20-04-2026 09:00:00,28.60909,77.0325413,SO2,1,29,8
India,Delhi,Delhi,"NSIT Dwarka, Delhi - CPCB",20-04-2026 09:00:00,28.60909,77.0325413,CO,41,101,51
India,Delhi,Delhi,"NSUT Jaffarpur, Delhi - DPCC",20-04-2026 09:00:00,28.594004 ,76.909423 ,SO2,30,69,45
India,Delhi,Delhi,"Najafgarh, Delhi - DPCC",20-04-2026 09:00:00,28.570173,76.933762,NO2,14,62,38
India,Delhi,Delhi,"Narela, Delhi - DPCC",20-04-2026 09:00:00,28.822836,77.101981,NO2,7,59,26
India,Delhi,Delhi,"Narela, Delhi - DPCC",20-04-2026 09:00:00,28.822836,77.101981,OZONE,20,91,25
India,Delhi,Delhi,"New Moti Bagh, Delhi - MHUA",20-04-2026 09:00:00,28.57834,77.18400,NO2,8,9,9
India,Delhi,Delhi,"North Campus, DU, Delhi - IMD",20-04-2026 09:00:00,28.6573814,77.1585447,CO,24,105,43
India,Delhi,Delhi,"Sri Aurobindo Marg, Delhi - DPCC",20-04-2026 09:00:00,28.531346,77.190156,SO2,14,52,24
India,Delhi,Delhi,"Sri Aurobindo Marg, Delhi - DPCC",20-04-2026 09:00:00,28.531346,77.190156,CO,1,53,36
India,Delhi,Delhi,"Talkatora Garden, Delhi - DPCC",20-04-2026 09:00:00,28.621810,77.1944633,CO,50,100,57
India,Delhi,Delhi,"Wazirpur, Delhi - DPCC",20-04-2026 09:00:00,28.699793,77.165453,PM2.5,57,454,183
India,Gujarat,Ahmedabad,"Chandkheda, Ahmedabad - IITM",20-04-2026 09:00:00,23.107969,72.574648,PM2.5,33,75,58
India,Delhi,Delhi,"Jawaharlal Nehru Stadium, Delhi - DPCC",20-04-2026 09:00:00,28.580280,77.233829,NO2,32,136,75
India,Delhi,Delhi,"Jawaharlal Nehru Stadium, Delhi - DPCC",20-04-2026 09:00:00,28.580280,77.233829,CO,12,101,48
India,Delhi,Delhi,"Lodhi Road, Delhi - IMD",20-04-2026 09:00:00,28.5918245,77.2273074,PM2.5,34,348,156
India,Delhi,Delhi,"Major Dhyan Chand National Stadium, Delhi - DPCC",20-04-2026 09:00:00,28.611281,77.237738,NH3,15,24,17
India,Delhi,Delhi,"Mundka, Delhi - DPCC",20-04-2026 09:00:00,28.684678,77.076574,SO2,14,79,36
India,Delhi,Delhi,"IGI Airport (T3), Delhi - IMD",20-04-2026 09:00:00,28.5627763,77.1180053,OZONE,14,81,18
India,Delhi,Delhi,"IGNOU_Maidan Garhi, Delhi - DPCC",20-04-2026 09:00:00,28.493624 ,77.201159 ,PM10,35,299,164
India,Delhi,Delhi,"IGNOU_Maidan Garhi, Delhi - DPCC",20-04-2026 09:00:00,28.493624 ,77.201159 ,CO,35,67,54
India,Delhi,Delhi,"IHBAS, Dilshad Garden, Delhi - CPCB",20-04-2026 09:00:00,28.6811736,77.3025234,NO2,40,122,66
India,Delhi,Delhi,"IIT Delhi, Delhi - IITM",20-04-2026 09:00:00,28.542460,77.191651,OZONE,12,73,16
India,Gujarat,Ahmedabad,"SAC ISRO Bopal, Ahmedabad - IITM",20-04-2026 09:00:00,23.041137,72.456691,NO2,4,35,16
India,Gujarat,Ahmedabad,"SAC ISRO Bopal, Ahmedabad - IITM",20-04-2026 09:00:00,23.041137,72.456691,NH3,2,7,4
India,Gujarat,Ahmedabad,"SAC ISRO Bopal, Ahmedabad - IITM",20-04-2026 09:00:00,23.041137,72.456691,SO2,5,13,8
India,Gujarat,Ahmedabad,"SAC ISRO Satellite, Ahmedabad - IITM",20-04-2026 09:00:00,23.023389,72.515201,NO2,6,23,11
India,Gujarat,Ahmedabad,"SAC ISRO Satellite, Ahmedabad - IITM",20-04-2026 09:00:00,23.023389,72.515201,SO2,6,25,12
India,Gujarat,Ahmedabad,"Raikhad, Ahmedabad - IITM",20-04-2026 09:00:00,23.020509,72.579261,OZONE,1,38,10
India,Gujarat,Ahmedabad,"Rakhial, Ahmedabad - IITM",20-04-2026 09:00:00,23.016834,72.625775,PM2.5,23,68,43
India,Gujarat,Ahmedabad,"Rakhial, Ahmedabad - IITM",20-04-2026 09:00:00,23.016834,72.625775,NO2,2,10,5
India,Gujarat,Ahmedabad,"Rakhial, Ahmedabad - IITM",20-04-2026 09:00:00,23.016834,72.625775,OZONE,1,66,7
India,Gujarat,Ahmedabad,"Maninagar, Ahmedabad - GPCB",20-04-2026 09:00:00,23.002657,72.591912,NO2,83,90,86
India,Haryana,Karnal,"Sector-12, Karnal - HSPCB",20-04-2026 09:00:00,29.695300,77.002700,CO,12,16,14
India,Haryana,Karnal,"Sector-12, Karnal - HSPCB",20-04-2026 09:00:00,29.695300,77.002700,OZONE,16,60,19
India,Haryana,Kurukshetra,"Sector-7, Kurukshetra - HSPCB",20-04-2026 09:00:00,29.966942,76.875879,PM2.5,90,168,121
India,Haryana,Kurukshetra,"Sector-7, Kurukshetra - HSPCB",20-04-2026 09:00:00,29.966942,76.875879,PM10,151,265,187
India,Haryana,Kurukshetra,"Sector-7, Kurukshetra - HSPCB",20-04-2026 09:00:00,29.966942,76.875879,NO2,4,4,4
India,Haryana,Mandikhera,"General Hospital, Mandikhera(Nuh) - HSPCB",20-04-2026 09:00:00,27.9002,76.9938,PM10,45,137,82
India,Haryana,Mandikhera,"General Hospital, Mandikhera(Nuh) - HSPCB",20-04-2026 09:00:00,27.9002,76.9938,NH3,9,11,10
India,Haryana,Narnaul,"Shastri Nagar, Narnaul - HSPCB",20-04-2026 09:00:00,28.060249,76.113115,NO2,23,29,25
India,Haryana,Palwal,"Shyam Nagar, Palwal - HSPCB",20-04-2026 09:00:00,28.1485564,77.3320667,CO,28,29,28
India,Haryana,Palwal,"Shyam Nagar, Palwal - HSPCB",20-04-2026 09:00:00,28.1485564,77.3320667,OZONE,23,25,24
India,Haryana,Panchgaon,"Amity University, Panchgaon - IITM",20-04-2026 09:00:00,28.3153,76.9143,NH3,2,4,3
India,Haryana,Gurugram,"Teri Gram, Gurugram - HSPCB",20-04-2026 09:00:00,28.4275,77.1465,PM10,109,137,119
India,Haryana,Gurugram,"Teri Gram, Gurugram - HSPCB",20-04-2026 09:00:00,28.4275,77.1465,NH3,11,20,15
India,Haryana,Gurugram,"Vikas Sadan, Gurugram - HSPCB",20-04-2026 09:00:00,28.4501238,77.0263051,NO2,9,45,26
India,Haryana,Gurugram,"Vikas Sadan, Gurugram - HSPCB",20-04-2026 09:00:00,28.4501238,77.0263051,SO2,2,8,5
India,Haryana,Gurugram,"Vikas Sadan, Gurugram - HSPCB",20-04-2026 09:00:00,28.4501238,77.0263051,CO,65,114,97
India,Haryana,Hisar,"Urban Estate-II, Hisar - HSPCB",20-04-2026 09:00:00,29.140560,75.744941,NO2,32,33,32
India,Haryana,Jind,"Police Lines, Jind - HSPCB",20-04-2026 09:00:00,29.307814,76.337619,PM2.5,71,304,184
India,Haryana,Jind,"Police Lines, Jind - HSPCB",20-04-2026 09:00:00,29.307814,76.337619,PM10,61,153,111
India,Haryana,Kaithal,"Rishi Nagar, Kaithal - HSPCB",20-04-2026 09:00:00,29.8006,76.4155,SO2,1,101,31
India,Haryana,Kaithal,"Rishi Nagar, Kaithal - HSPCB",20-04-2026 09:00:00,29.8006,76.4155,CO,2,64,28
India,Haryana,Karnal,"Sector-12, Karnal - HSPCB",20-04-2026 09:00:00,29.695300,77.002700,SO2,6,9,8
India,Haryana,Panchkula,"Sector-6, Panchkula - HSPCB ",20-04-2026 09:00:00,30.7057778,76.8531805555555,PM2.5,33,124,82
India,Haryana,Panipat,"Sector-18, Panipat - HSPCB",20-04-2026 09:00:00,29.432304,76.972765,CO,NA,NA,NA
India,Haryana,Panipat,"Sector-18, Panipat - HSPCB",20-04-2026 09:00:00,29.432304,76.972765,OZONE,NA,NA,NA
India,Haryana,Rohtak,"MD University, Rohtak - HSPCB",20-04-2026 09:00:00,28.52123,76.37138,PM2.5,113,313,234
India,Haryana,Sirsa,"F-Block, Sirsa - HSPCB",20-04-2026 09:00:00,29.536400,75.015800,PM2.5,37,74,58
India,Haryana,Sonipat,"Murthal, Sonipat - HSPCB",20-04-2026 09:00:00,29.027200,77.062100,NH3,21,21,21
India,Gujarat,Nandesari,"GIDC, Nandesari - Nandesari Ind. Association",20-04-2026 09:00:00,22.410802,73.097923,PM2.5,43,308,120
India,Gujarat,Nandesari,"GIDC, Nandesari - Nandesari Ind. Association",20-04-2026 09:00:00,22.410802,73.097923,NO2,5,155,54
India,Gujarat,Rajkot,"Mavdi, Rajkot - Nexteng Enviro ",20-04-2026 09:00:00,22.248853,70.776774,NO2,7,42,16
India,Gujarat,Rajkot,"Mavdi, Rajkot - Nexteng Enviro ",20-04-2026 09:00:00,22.248853,70.776774,SO2,12,97,31
India,Gujarat,Surat,"Katargam, Surat - Nexteng Enviro",20-04-2026 09:00:00,21.217779 ,72.834787 ,NH3,1,1,1
India,Gujarat,Vadodara,"Bapunagar, Vadodara - Nexteng Enviro",20-04-2026 09:00:00,22.320153,73.216285,NO2,11,18,14
India,Gujarat,Vapi,"Phase-1 GIDC, Vapi - GPCB",20-04-2026 09:00:00,20.362421,72.918013,NO2,NA,NA,NA
India,Haryana,Ambala,"Patti Mehar, Ambala - HSPCB",20-04-2026 09:00:00,30.379589,76.778328,PM10,4,44,16
India,Haryana,Ambala,"Patti Mehar, Ambala - HSPCB",20-04-2026 09:00:00,30.379589,76.778328,CO,20,48,22
India,Haryana,Bahadurgarh,"Arya Nagar, Bahadurgarh - HSPCB",20-04-2026 09:00:00,28.6701,76.9254,OZONE,21,27,25
India,Haryana,Faridabad,"New Industrial Town, Faridabad - HSPCB",20-04-2026 09:00:00,28.39072,77.30059,NO2,23,27,25
India,Haryana,Gurugram,"NISE Gwal Pahari, Gurugram - IMD",20-04-2026 09:00:00,28.422681,77.148944,PM10,108,408,198
India,Haryana,Gurugram,"NISE Gwal Pahari, Gurugram - IMD",20-04-2026 09:00:00,28.422681,77.148944,CO,47,84,65
India,Haryana,Gurugram,"NISE Gwal Pahari, Gurugram - IMD",20-04-2026 09:00:00,28.422681,77.148944,OZONE,11,103,19
India,Haryana,Bhiwani,"H.B. Colony, Bhiwani - HSPCB",20-04-2026 09:00:00,28.806223,76.141105,SO2,NA,NA,NA
India,Haryana,Charkhi Dadri,"Mini Secretariat, Charkhi Dadri - HSPCB",20-04-2026 09:00:00,28.593883,76.270653,PM10,68,235,169
India,Haryana,Dharuhera,"Municipal Corporation Office, Dharuhera -  HSPCB",20-04-2026 09:00:00,28.206800,76.799700,PM10,62,148,103
India,Gujarat,Gandhinagar,"IIPHG Lekawada, Gandhinagar - IITM",20-04-2026 09:00:00,23.243639,72.68994,NO2,7,28,15
India,Gujarat,Gandhinagar,"Sector-10, Gandhinagar - GPCB",20-04-2026 09:00:00,23.221714,72.654328,NO2,8,35,17
India,Gujarat,Gandhinagar,"Sector-10, Gandhinagar - GPCB",20-04-2026 09:00:00,23.221714,72.654328,SO2,7,26,13
India,Haryana,Ballabgarh,"Nathu Colony, Ballabgarh - HSPCB",20-04-2026 09:00:00,28.3419248,77.319699,NH3,3,3,3
India,Haryana,Ballabgarh,"Nathu Colony, Ballabgarh - HSPCB",20-04-2026 09:00:00,28.3419248,77.319699,SO2,1,9,6
India,Haryana,Ballabgarh,"Nathu Colony, Ballabgarh - HSPCB",20-04-2026 09:00:00,28.3419248,77.319699,CO,12,112,50
India,Madhya Pradesh,Damoh,"Shrivastav Colony, Damoh - MPPCB",20-04-2026 09:00:00,23.81748678,79.446246,CO,17,21,19
India,Madhya Pradesh,Dewas,"Bhopal Chauraha, Dewas - MPPCB",20-04-2026 09:00:00,22.9682591,76.064118,PM2.5,29,164,65
India,Madhya Pradesh,Dewas,"Bhopal Chauraha, Dewas - MPPCB",20-04-2026 09:00:00,22.9682591,76.064118,NO2,78,114,97
India,Madhya Pradesh,Gwalior,"City Center, Gwalior - MPPCB",20-04-2026 09:00:00,26.203442,78.193251,NH3,2,6,4
India,Madhya Pradesh,Gwalior,"City Center, Gwalior - MPPCB",20-04-2026 09:00:00,26.203442,78.193251,SO2,2,35,21
India,Madhya Pradesh,Gwalior,"City Center, Gwalior - MPPCB",20-04-2026 09:00:00,26.203442,78.193251,CO,7,103,21
India,Madhya Pradesh,Gwalior,"Deen Dayal Nagar, Gwalior - MPPCB",20-04-2026 09:00:00,26.259242,78.216432,NO2,16,82,53
India,Madhya Pradesh,Gwalior,"Deen Dayal Nagar, Gwalior - MPPCB",20-04-2026 09:00:00,26.259242,78.216432,SO2,6,24,13
India,Madhya Pradesh,Gwalior,"Maharaj Bada, Gwalior - MPPCB",20-04-2026 09:00:00,26.200388,78.147714,PM10,63,182,112
India,Madhya Pradesh,Indore,"Airport Area, Indore - IMC",20-04-2026 09:00:00,22.7289,75.8076,PM2.5,57,220,100
India,Madhya Pradesh,Indore,"Airport Area, Indore - IMC",20-04-2026 09:00:00,22.7289,75.8076,OZONE,7,22,9
India,Haryana,Yamuna Nagar,"Gobind Pura, Yamuna Nagar - HSPCB",20-04-2026 09:00:00,30.1480566,77.2893471,NO2,11,21,16
India,Haryana,Yamuna Nagar,"Gobind Pura, Yamuna Nagar - HSPCB",20-04-2026 09:00:00,30.1480566,77.2893471,OZONE,8,33,14
India,Himachal Pradesh,Baddi,"HIMUDA Complex Phase-1, Baddi - HPPCB",20-04-2026 09:00:00,30.943887,76.801991,SO2,19,24,22
India,Himachal Pradesh,Baddi,"HIMUDA Complex Phase-1, Baddi - HPPCB",20-04-2026 09:00:00,30.943887,76.801991,OZONE,31,136,54
India,Jammu_and_Kashmir,Srinagar,"Khunmoh, Srinagar - JKPCC",20-04-2026 09:00:00,34.06313,74.96017,PM10,17,55,36
India,Jharkhand,Dhanbad,"Sardar Patel Nagar, Dhanbad - JSPCB",20-04-2026 09:00:00,23.80569,86.44268,CO,2,18,14
India,Jharkhand,Jorapokhar,"Tata Stadium, Jorapokhar - JSPCB",20-04-2026 09:00:00,23.707909,86.414670,PM2.5,40,72,52
India,Karnataka,Shivamogga,"Vinoba Nagara, Shivamogga - KSPCB",20-04-2026 09:00:00,13.940000,75.555917,CO,9,13,11
India,Karnataka,Tumakuru,"Thimmalapura, Tumakuru - KSPCB",20-04-2026 09:00:00,13.377516,77.099072,NH3,NA,NA,NA
India,Karnataka,Vijayapura,"Ibrahimpur, Vijayapura - KSPCB",20-04-2026 09:00:00,16.802639,75.722694,PM2.5,29,31,30
India,Karnataka,Vijayapura,"Ibrahimpur, Vijayapura - KSPCB",20-04-2026 09:00:00,16.802639,75.722694,SO2,3,6,3
India,Karnataka,Yadgir,"Collector Office, Yadgir - KSPCB",20-04-2026 09:00:00,16.7602,77.1428,NO2,NA,NA,NA
India,Karnataka,Yadgir,"Collector Office, Yadgir - KSPCB",20-04-2026 09:00:00,16.7602,77.1428,CO,NA,NA,NA
India,Kerala,Kannur,"Thavakkara, Kannur - Kerala PCB",20-04-2026 09:00:00,11.875000,75.373200,SO2,1,9,2
India,Karnataka,Kalaburagi,"Mahatma Basaveswar Colony, Kalaburgi - KSPCB",20-04-2026 09:00:00,17.336318,76.847397,PM10,21,68,43
India,Karnataka,Kalaburagi,"Mahatma Basaveswar Colony, Kalaburgi - KSPCB",20-04-2026 09:00:00,17.336318,76.847397,CO,34,52,36
India,Karnataka,Koppal,"Diwator Nagar, Koppal - KSPCB",20-04-2026 09:00:00,15.347630,76.181767,NH3,NA,NA,NA
India,Karnataka,Mangalore,"Kadri, Mangalore - KSPCB",20-04-2026 09:00:00,12.889250,74.853000,PM10,30,59,45
India,Karnataka,Mangalore,"Kadri, Mangalore - KSPCB",20-04-2026 09:00:00,12.889250,74.853000,NO2,6,9,8
India,Karnataka,Mangalore,"Kadri, Mangalore - KSPCB",20-04-2026 09:00:00,12.889250,74.853000,NH3,1,2,2
India,Karnataka,Mysuru,"Hebbal 1st Stage, Mysuru - KSPCB",20-04-2026 09:00:00,12.21041,76.37376,NH3,4,5,4
India,Kerala,Kollam,"Polayathode, Kollam - Kerala PCB",20-04-2026 09:00:00,8.8787,76.6073,SO2,2,3,2
India,Kerala,Kollam,"Polayathode, Kollam - Kerala PCB",20-04-2026 09:00:00,8.8787,76.6073,CO,12,18,16
India,Kerala,Thrissur,"Corporation Ground, Thrissur - Kerala PCB",20-04-2026 09:00:00,10.532400,76.215900,SO2,NA,NA,NA
India,Madhya Pradesh,Bhopal,"Paryavaran Parisar, Bhopal - MPPCB",20-04-2026 09:00:00,23.210494,77.425409,OZONE,32,68,52
India,Madhya Pradesh,Bhopal,"T T Nagar, Bhopal - MPPCB",20-04-2026 09:00:00,23.233584,77.400574,PM2.5,32,112,57
India,Madhya Pradesh,Bhopal,"T T Nagar, Bhopal - MPPCB",20-04-2026 09:00:00,23.233584,77.400574,NH3,5,6,6
India,Karnataka,Bengaluru,"Hombegowda Nagar, Bengaluru - KSPCB",20-04-2026 09:00:00,12.938539,77.590100,SO2,4,14,8
India,Karnataka,Bengaluru,"Jayanagar 5th Block, Bengaluru - KSPCB",20-04-2026 09:00:00,12.920984,77.584908,SO2,4,28,16
India,Karnataka,Bengaluru,"Jayanagar 5th Block, Bengaluru - KSPCB",20-04-2026 09:00:00,12.920984,77.584908,OZONE,9,84,16
India,Karnataka,Bengaluru,"Kasturi Nagar, Bengaluru - KSPCB",20-04-2026 09:00:00,13.003872,77.664217,CO,40,52,46
India,Karnataka,Bengaluru,"RVCE-Mailasandra, Bengaluru - KSPCB",20-04-2026 09:00:00,12.921418,77.502466,NO2,20,26,26
India,Karnataka,Bengaluru,"Shivapura_Peenya, Bengaluru - KSPCB",20-04-2026 09:00:00,13.0246342,77.5080115,NO2,23,24,23
India,Karnataka,Belgaum,"Ramteerth Nagar, Belgaum - KSPCB",20-04-2026 09:00:00,15.888653,74.541751,CO,NA,NA,NA
India,Karnataka,Bengaluru,"BTM Layout, Bengaluru - CPCB",20-04-2026 09:00:00,12.9135218,77.5950804,PM10,93,95,94
India,Karnataka,Bengaluru,"BTM Layout, Bengaluru - CPCB",20-04-2026 09:00:00,12.9135218,77.5950804,NO2,23,24,23
India,Karnataka,Bengaluru,"BWSSB Kadabesanahalli, Bengaluru - CPCB",20-04-2026 09:00:00,12.9352049,77.6814488,NH3,1,2,1
India,Karnataka,Bengaluru,"BWSSB Kadabesanahalli, Bengaluru - CPCB",20-04-2026 09:00:00,12.9352049,77.6814488,SO2,3,18,5
India,Karnataka,Bengaluru,"Hebbal, Bengaluru - KSPCB",20-04-2026 09:00:00,13.029152,77.585901,SO2,7,16,12
India,Karnataka,Bengaluru,"Silk Board, Bengaluru - KSPCB",20-04-2026 09:00:00,12.917348,77.622813,PM2.5,60,89,74
India,Karnataka,Chikkamagaluru,"Kalyana Nagara, Chikkamagaluru - KSPCB",20-04-2026 09:00:00,13.328028,75.797056,SO2,4,4,4
India,Karnataka,Chikkamagaluru,"Kalyana Nagara, Chikkamagaluru - KSPCB",20-04-2026 09:00:00,13.328028,75.797056,CO,11,137,11
India,Karnataka,Dharwad,"Kalabhavan, Dharwad - KSPCB",20-04-2026 09:00:00,15.459706,75.008381,PM2.5,47,112,70
India,Karnataka,Dharwad,"Kalabhavan, Dharwad - KSPCB",20-04-2026 09:00:00,15.459706,75.008381,SO2,4,8,7
India,Madhya Pradesh,Indore,"Maguda Nagar, Indore - IMC",20-04-2026 09:00:00,22.7524,75.8872,OZONE,12,17,12
India,Madhya Pradesh,Indore,"Residency Area, Indore - IMC",20-04-2026 09:00:00,22.7084,75.8815,SO2,6,10,8
India,Madhya Pradesh,Jabalpur,"Govindh Bhavan Colony, Jabalpur - JMC",20-04-2026 09:00:00,23.163174,79.973061,NH3,2,2,2
India,Madhya Pradesh,Mandideep,"Sector-D Industrial Area, Mandideep - MPPCB",20-04-2026 09:00:00,23.108440,77.511428,CO,14,40,19
India,Madhya Pradesh,Mandideep,"Sector-D Industrial Area, Mandideep - MPPCB",20-04-2026 09:00:00,23.108440,77.511428,OZONE,16,96,80
India,Madhya Pradesh,Pithampur,"Sector-2 Industrial Area, Pithampur - MPPCB",20-04-2026 09:00:00,22.624758,75.675238,NO2,11,48,22
India,Madhya Pradesh,Pithampur,"Sector-2 Industrial Area, Pithampur - MPPCB",20-04-2026 09:00:00,22.624758,75.675238,SO2,6,52,16
India,Madhya Pradesh,Sagar,"Civil Lines, Sagar - MPPCB",20-04-2026 09:00:00,23.838586,78.759431,PM2.5,28,220,85
India,Madhya Pradesh,Sagar,"Civil Lines, Sagar - MPPCB",20-04-2026 09:00:00,23.838586,78.759431,NO2,8,68,23
India,Madhya Pradesh,Sagar,"Civil Lines, Sagar - MPPCB",20-04-2026 09:00:00,23.838586,78.759431,NH3,1,4,2
India,Madhya Pradesh,Sagar,"Civil Lines, Sagar - MPPCB",20-04-2026 09:00:00,23.838586,78.759431,CO,14,70,37
India,Madhya Pradesh,Sagar,"Deen Dayal Nagar, Sagar - MPPCB",20-04-2026 09:00:00,23.8640158,78.80289321,SO2,4,9,6
India,Madhya Pradesh,Singrauli,"Suryakiran Bhawan NCL, Singrauli - MPPCB",20-04-2026 09:00:00,24.108970,82.645580,SO2,44,81,57
India,Maharashtra,Chandrapur,"MIDC Khutala, Chandrapur - MPCB",20-04-2026 09:00:00,19.9775302,79.2337086,OZONE,34,206,75
India,Maharashtra,Dhule,"Deopur, Dhule - MPCB",20-04-2026 09:00:00,20.918946,74.776388,PM2.5,59,111,77
India,Maharashtra,Dhule,"Deopur, Dhule - MPCB",20-04-2026 09:00:00,20.918946,74.776388,PM10,72,138,108
India,Maharashtra,Dhule,"Deopur, Dhule - MPCB",20-04-2026 09:00:00,20.918946,74.776388,NH3,1,2,1
India,Maharashtra,Dombivli,"Kalu Nagar, Dombivli - MPCB",20-04-2026 09:00:00,19.2268427 ,73.0788456 ,NO2,13,57,27
India,Maharashtra,Hingoli,"Ashta Vinayak Nagar, Hingoli - MPCB",20-04-2026 09:00:00,19.710842,77.151824,SO2,1,19,6
India,Maharashtra,Jalgaon,"Prabhat Colony, Jalgaon - MPCB",20-04-2026 09:00:00,21.001264,75.565602,PM2.5,37,326,108
India,Maharashtra,Jalgaon,"Prabhat Colony, Jalgaon - MPCB",20-04-2026 09:00:00,21.001264,75.565602,NO2,5,38,12
India,Maharashtra,Jalgaon,"Prabhat Colony, Jalgaon - MPCB",20-04-2026 09:00:00,21.001264,75.565602,SO2,1,27,9
India,Maharashtra,Beed,"Bir, Beed - MPCB",20-04-2026 09:00:00,18.988474,75.753873,CO,NA,NA,NA
India,Maharashtra,Belapur,"CBD Belapur, Belapur - MPCB",20-04-2026 09:00:00,19.0243902,73.0406721,PM2.5,57,105,87
India,Maharashtra,Belapur,"CBD Belapur, Belapur - MPCB",20-04-2026 09:00:00,19.0243902,73.0406721,NO2,21,94,58
India,Maharashtra,Bhiwandi,"Gokul Nagar, Bhiwandi - MPCB",20-04-2026 09:00:00,19.309073,73.057223,NH3,3,8,5
India,Maharashtra,Bhiwandi,"Gokul Nagar, Bhiwandi - MPCB",20-04-2026 09:00:00,19.309073,73.057223,OZONE,12,85,15
India,Maharashtra,Chandrapur,"Chauhan Colony, Chandrapur - MPCB",20-04-2026 09:00:00,19.962900,79.298714,OZONE,14,22,17
India,Madhya Pradesh,Ujjain,"Mahashweta Nagar, Ujjain - MPPCB",20-04-2026 09:00:00,23.1633321,75.800225,NH3,8,11,9
India,Madhya Pradesh,Ujjain,"Mahashweta Nagar, Ujjain - MPPCB",20-04-2026 09:00:00,23.1633321,75.800225,OZONE,39,82,57
India,Maharashtra,Akola,"Ramdaspeth, Akola - MPCB",20-04-2026 09:00:00,20.719516,77.000253,PM2.5,34,96,51
India,Maharashtra,Akola,"Ramdaspeth, Akola - MPCB",20-04-2026 09:00:00,20.719516,77.000253,NH3,4,7,4
India,Maharashtra,Ambernath,"Chinchpada, Ambernath - MPCB",20-04-2026 09:00:00,19.2157840,73.1997810,PM10,41,94,67
India,Maharashtra,Ambernath,"Chinchpada, Ambernath - MPCB",20-04-2026 09:00:00,19.2157840,73.1997810,NO2,24,90,46
India,Madhya Pradesh,Jabalpur,"Gupteshwar, Jabalpur - JMC",20-04-2026 09:00:00,23.142888,79.916147,SO2,10,18,13
India,Madhya Pradesh,Jabalpur,"Gupteshwar, Jabalpur - JMC",20-04-2026 09:00:00,23.142888,79.916147,CO,28,44,33
India,Madhya Pradesh,Jabalpur,"Marhatal, Jabalpur - MPPCB",20-04-2026 09:00:00,23.168606,79.932247,PM10,68,152,109
India,Madhya Pradesh,Jabalpur,"Suhagi, Jabalpur - JMC",20-04-2026 09:00:00,23.218135,79.957770,NO2,46,52,51
India,Madhya Pradesh,Katni,"Gole Bazar, Katni - MPPCB",20-04-2026 09:00:00,23.50016,80.23284,NH3,3,12,6
India,Madhya Pradesh,Katni,"Gole Bazar, Katni - MPPCB",20-04-2026 09:00:00,23.50016,80.23284,OZONE,14,153,29
India,Maharashtra,Kolhapur,"Shivaji University, Kolhapur - MPCB",20-04-2026 09:00:00,16.6870449,74.2505872,SO2,NA,NA,NA
India,Maharashtra,Kolhapur,"Sinchan Bhavan, Kolhapur - MPCB",20-04-2026 09:00:00,16.7143745,74.2426398,PM10,45,76,61
India,Maharashtra,Latur,"Sawe Wadi, Latur - MPCB",20-04-2026 09:00:00,18.39963,76.57452,SO2,3,38,14
India,Maharashtra,Latur,"Sawe Wadi, Latur - MPCB",20-04-2026 09:00:00,18.39963,76.57452,CO,7,38,20
India,Maharashtra,Mahad,"Kamble Tarf Birwadi, Mahad - MPCB",20-04-2026 09:00:00,18.1023399,73.4783687,CO,16,55,39
India,Maharashtra,Malegaon,"Mahesh Nagar, Malegaon - MPCB",20-04-2026 09:00:00,20.555712,74.529236,PM10,NA,NA,NA
India,Maharashtra,Mumbai,"Bandra Kurla Complex, Mumbai - IITM",20-04-2026 09:00:00,19.053536,72.84643,PM2.5,35,98,61
India,Maharashtra,Mumbai,"Bandra Kurla Complex, Mumbai - IITM",20-04-2026 09:00:00,19.053536,72.84643,NO2,12,35,25
India,Maharashtra,Mumbai,"Bandra Kurla Complex, Mumbai - IITM",20-04-2026 09:00:00,19.053536,72.84643,CO,6,56,19
India,Maharashtra,Mumbai,"Byculla, Mumbai - BMC",20-04-2026 09:00:00,18.9767,72.8380,CO,46,73,49
India,Maharashtra,Amravati,"Shri Shivaji Science College, Amravati - MPCB",20-04-2026 09:00:00,20.939198,77.765701,PM2.5,51,99,67
India,Maharashtra,Aurangabad,"More Chowk Waluj, Aurangabad - MPCB",20-04-2026 09:00:00,19.8389439,75.244448,PM2.5,35,500,138
India,Maharashtra,Aurangabad,"More Chowk Waluj, Aurangabad - MPCB",20-04-2026 09:00:00,19.8389439,75.244448,NO2,14,22,18
India,Maharashtra,Aurangabad,"Rachnakar Colony, Aurangabad - MPCB",20-04-2026 09:00:00,19.863756,75.321188,PM2.5,35,98,58
India,Maharashtra,Aurangabad,"Rachnakar Colony, Aurangabad - MPCB",20-04-2026 09:00:00,19.863756,75.321188,NO2,10,49,23
India,Maharashtra,Badlapur,"Katrap, Badlapur - MPCB",20-04-2026 09:00:00,19.16485,73.23409,NO2,9,38,22
India,Maharashtra,Navi Mumbai,"Sanpada, Navi Mumbai - MPCB",20-04-2026 09:00:00,19.0575752,73.0151367,SO2,15,25,19
India,Maharashtra,Navi Mumbai,"Tondare-Taloja, Navi Mumbai - MPCB",20-04-2026 09:00:00,19.0630,73.1209,NH3,2,3,2
India,Maharashtra,Navi Mumbai,"Tondare-Taloja, Navi Mumbai - MPCB",20-04-2026 09:00:00,19.0630,73.1209,CO,9,31,18
India,Maharashtra,Navi Mumbai,"Tondare-Taloja, Navi Mumbai - MPCB",20-04-2026 09:00:00,19.0630,73.1209,OZONE,4,35,5
India,Maharashtra,Parbhani,"Masoom Colony, Parbhani - MPCB",20-04-2026 09:00:00,19.265594,76.761463,NH3,3,5,4
India,Maharashtra,Parbhani,"Masoom Colony, Parbhani - MPCB",20-04-2026 09:00:00,19.265594,76.761463,CO,6,14,11
India,Maharashtra,Pimpri-Chinchwad,"Bhosari,Pimpri-Chinchwad - IITM",20-04-2026 09:00:00,18.640051,73.848956,NO2,17,26,22
India,Maharashtra,Pimpri-Chinchwad,"Bhumkar Nagar, Pimpri-Chinchwad - IITM",20-04-2026 09:00:00,18.605770,73.749976,PM10,84,181,133
India,Maharashtra,Pimpri-Chinchwad,"Bhumkar Nagar, Pimpri-Chinchwad - IITM",20-04-2026 09:00:00,18.605770,73.749976,NO2,6,34,15
India,Maharashtra,Pimpri-Chinchwad,"Bhumkar Nagar, Pimpri-Chinchwad - IITM",20-04-2026 09:00:00,18.605770,73.749976,OZONE,9,160,27
India,Maharashtra,Pimpri-Chinchwad,"Gavalinagar, Pimpri Chinchwad - MPCB",20-04-2026 09:00:00,18.63673,73.82487,PM10,67,114,95
India,Maharashtra,Pimpri-Chinchwad,"Gavalinagar, Pimpri Chinchwad - MPCB",20-04-2026 09:00:00,18.63673,73.82487,NO2,NA,NA,NA
India,Maharashtra,Nashik,"MIDC Ambad, Nashik - MPCB",20-04-2026 09:00:00,19.950220,73.731480,NO2,6,27,12
India,Maharashtra,Nashik,"Pandav Nagari, Nashik - MPCB",20-04-2026 09:00:00,19.9591346,73.7788008,PM10,50,101,74
India,Maharashtra,Nashik,"Pandav Nagari, Nashik - MPCB",20-04-2026 09:00:00,19.9591346,73.7788008,NO2,6,22,10
India,Maharashtra,Navi Mumbai,"Kopripada-Vashi, Navi Mumbai - MPCB",20-04-2026 09:00:00,19.090337,73.014232,PM10,49,163,105
India,Maharashtra,Navi Mumbai,"Kopripada-Vashi, Navi Mumbai - MPCB",20-04-2026 09:00:00,19.090337,73.014232,NH3,7,7,7
India,Maharashtra,Navi Mumbai,"Kopripada-Vashi, Navi Mumbai - MPCB",20-04-2026 09:00:00,19.090337,73.014232,CO,15,56,22
India,Maharashtra,Navi Mumbai,"Mahape, Navi Mumbai - MPCB",20-04-2026 09:00:00,19.1135051,73.008978,PM2.5,NA,NA,NA
India,Maharashtra,Navi Mumbai,"Mahape, Navi Mumbai - MPCB",20-04-2026 09:00:00,19.1135051,73.008978,PM10,NA,NA,NA
India,Maharashtra,Navi Mumbai,"Mahape, Navi Mumbai - MPCB",20-04-2026 09:00:00,19.1135051,73.008978,SO2,NA,NA,NA
India,Maharashtra,Navi Mumbai,"Nerul, Navi Mumbai - MPCB",20-04-2026 09:00:00,19.008751,73.016620,NO2,56,56,56
India,Maharashtra,Navi Mumbai,"Sanpada, Navi Mumbai - MPCB",20-04-2026 09:00:00,19.0575752,73.0151367,PM10,32,152,77
India,Maharashtra,Navi Mumbai,"Sanpada, Navi Mumbai - MPCB",20-04-2026 09:00:00,19.0575752,73.0151367,NO2,4,24,13
India,Maharashtra,Mumbai,"Byculla, Mumbai - BMC",20-04-2026 09:00:00,18.9767,72.8380,OZONE,21,36,25
India,Maharashtra,Mumbai,"Chakala-Andheri East, Mumbai - IITM",20-04-2026 09:00:00,19.11074,72.86084,PM10,68,155,118
India,Maharashtra,Mumbai,"Chakala-Andheri East, Mumbai - IITM",20-04-2026 09:00:00,19.11074,72.86084,NO2,9,25,15
India,Maharashtra,Mumbai,"Chakala-Andheri East, Mumbai - IITM",20-04-2026 09:00:00,19.11074,72.86084,NH3,3,5,3
India,Maharashtra,Mumbai,"Chakala-Andheri East, Mumbai - IITM",20-04-2026 09:00:00,19.11074,72.86084,SO2,1,8,3
India,Maharashtra,Mumbai,"Chembur, Mumbai - MPCB",20-04-2026 09:00:00,19.0364585,72.8954371,PM2.5,32,56,40
India,Maharashtra,Mumbai,"Colaba, Mumbai - MPCB",20-04-2026 09:00:00,18.910000,72.820000,PM2.5,6,32,19
India,Maharashtra,Mumbai,"Colaba, Mumbai - MPCB",20-04-2026 09:00:00,18.910000,72.820000,PM10,7,39,23
India,Maharashtra,Mumbai,"Colaba, Mumbai - MPCB",20-04-2026 09:00:00,18.910000,72.820000,CO,69,84,72
India,Maharashtra,Mumbai,"Deonar, Mumbai - IITM",20-04-2026 09:00:00,19.04946,72.9230,NO2,7,38,17
India,Maharashtra,Mumbai,"Deonar, Mumbai - IITM",20-04-2026 09:00:00,19.04946,72.9230,CO,44,95,55
India,Maharashtra,Mumbai,"Deonar, Mumbai - IITM",20-04-2026 09:00:00,19.04946,72.9230,OZONE,3,61,18
India,Maharashtra,Mumbai,"Ghatkopar, Mumbai - BMC",20-04-2026 09:00:00,19.083694,72.920967,OZONE,7,52,15
India,Maharashtra,Mumbai,"Kherwadi_Bandra East, Mumbai - MPCB",20-04-2026 09:00:00,19.0632143,72.8456324,CO,15,24,17
India,Maharashtra,Mumbai,"Khindipada-Bhandup West, Mumbai - IITM",20-04-2026 09:00:00,19.1653323,72.922099,NH3,4,5,5
India,Maharashtra,Mumbai,"Kurla, Mumbai - MPCB",20-04-2026 09:00:00,19.0863,72.8888,NO2,NA,NA,NA
India,Maharashtra,Mumbai,"Malad West, Mumbai - IITM",20-04-2026 09:00:00,19.19709,72.82204,SO2,2,12,5
India,Maharashtra,Mumbai,"Mazgaon, Mumbai - IITM",20-04-2026 09:00:00,18.96702,72.84214,NH3,6,7,6
India,Maharashtra,Mumbai,"Mazgaon, Mumbai - IITM",20-04-2026 09:00:00,18.96702,72.84214,CO,20,44,29
India,Maharashtra,Mumbai,"Mindspace-Malad West, Mumbai - MPCB",20-04-2026 09:00:00,19.1878657,72.8304069,CO,2,15,9
India,Maharashtra,Mumbai,"Navy Nagar-Colaba, Mumbai - IITM",20-04-2026 09:00:00,18.897756,72.813320,PM2.5,28,73,49
India,Maharashtra,Mumbai,"Powai, Mumbai - MPCB",20-04-2026 09:00:00,19.137500,72.915056,PM2.5,30,69,44
India,Maharashtra,Mumbai,"Sewri, Mumbai - BMC",20-04-2026 09:00:00,19.000084,72.856730,SO2,1,10,4
India,Maharashtra,Mumbai,"Sewri, Mumbai - BMC",20-04-2026 09:00:00,19.000084,72.856730,CO,7,51,21
India,Maharashtra,Mumbai,"Sewri, Mumbai - BMC",20-04-2026 09:00:00,19.000084,72.856730,OZONE,7,26,14
India,Maharashtra,Mumbai,"Siddharth Nagar-Worli, Mumbai - IITM",20-04-2026 09:00:00,19.000083,72.813993,PM10,NA,NA,NA
India,Maharashtra,Pune,"Dhankawadi, Pune - IITM",20-04-2026 09:00:00,18.459883,73.852193,OZONE,12,80,23
India,Maharashtra,Pune,"Savitribai Phule Pune University, Pune - MPCB",20-04-2026 09:00:00,18.547056,73.826908,PM2.5,37,63,50
India,Maharashtra,Pune,"Savitribai Phule Pune University, Pune - MPCB",20-04-2026 09:00:00,18.547056,73.826908,PM10,52,92,71
India,Maharashtra,Sangli,"Vijay Nagar, Sangli - MPCB",20-04-2026 09:00:00, 16.5038,74.3623,PM2.5,NA,NA,NA
India,Maharashtra,Sangli,"Vijay Nagar, Sangli - MPCB",20-04-2026 09:00:00, 16.5038,74.3623,CO,NA,NA,NA
India,Maharashtra,Sangli,"Vijay Nagar, Sangli - MPCB",20-04-2026 09:00:00, 16.5038,74.3623,OZONE,NA,NA,NA
India,Maharashtra,Solapur,"Dnyaneshwar Nagar, Solapur - MPCB",20-04-2026 09:00:00,17.6336264,75.9132495,PM10,NA,NA,NA
India,Maharashtra,Mumbai,"Siddharth Nagar-Worli, Mumbai - IITM",20-04-2026 09:00:00,19.000083,72.813993,OZONE,NA,NA,NA
India,Maharashtra,Mumbai,"Sion, Mumbai - MPCB",20-04-2026 09:00:00,19.047000,72.874600,PM2.5,27,305,67
India,Maharashtra,Mumbai,"Sion, Mumbai - MPCB",20-04-2026 09:00:00,19.047000,72.874600,SO2,NA,NA,NA
India,Maharashtra,Mumbai,"Worli, Mumbai -MPCB",20-04-2026 09:00:00,18.9942180,72.8158167,SO2,24,27,26
India,Maharashtra,Nagpur,"Mahal, Nagpur - MPCB",20-04-2026 09:00:00,21.14472,79.107595,PM10,62,124,92
India,Maharashtra,Nagpur,"Mahal, Nagpur - MPCB",20-04-2026 09:00:00,21.14472,79.107595,NO2,15,137,48
India,Maharashtra,Nagpur,"Mahal, Nagpur - MPCB",20-04-2026 09:00:00,21.14472,79.107595,SO2,4,113,57
India,Maharashtra,Nagpur,"Ram Nagar, Nagpur - MPCB",20-04-2026 09:00:00,21.143383,79.048912,PM2.5,39,127,60
India,Maharashtra,Nagpur,"Ram Nagar, Nagpur - MPCB",20-04-2026 09:00:00,21.143383,79.048912,NH3,4,4,4
India,Maharashtra,Nanded,"Sneh Nagar, Nanded - MPCB",20-04-2026 09:00:00,19.173852,77.296291,NH3,3,5,4
India,Maharashtra,Nashik,"Gangapur Road, Nashik - MPCB",20-04-2026 09:00:00,20.0073285,73.7762427,OZONE,11,48,30
India,Maharashtra,Pimpri-Chinchwad,"Thergaon, Pimpri Chinchwad - MPCB",20-04-2026 09:00:00,18.616318,73.765797,PM2.5,4,67,23
India,Maharashtra,Ulhasnagar,"Vithalwadi, Ulhasnagar - MPCB",20-04-2026 09:00:00,19.2307571 ,73.1551920,NO2,11,34,22
India,Maharashtra,Virar,"Bolinj, Virar - MPCB",20-04-2026 09:00:00,19.4458210,72.7988231,SO2,1,3,2
India,Meghalaya,Shillong,"JN Stadium, Shillong - Meghalaya PCB",20-04-2026 09:00:00,25.5803419,91.8942571,PM10,11,149,39
India,Meghalaya,Shillong,"Lumpyngngad, Shillong - Meghalaya PCB",20-04-2026 09:00:00,25.5586,91.8985,CO,5,12,6
India,Meghalaya,Shillong,"Lumpyngngad, Shillong - Meghalaya PCB",20-04-2026 09:00:00,25.5586,91.8985,OZONE,30,65,46
India,Mizoram,Aizawl,"Sikulpuikawn, Aizawl - Mizoram PCB",20-04-2026 09:00:00,23.7176342,92.7192841,NO2,1,1,1
India,Mizoram,Aizawl,"Sikulpuikawn, Aizawl - Mizoram PCB",20-04-2026 09:00:00,23.7176342,92.7192841,SO2,15,15,15
India,Nagaland,Kohima,"PWD Junction, Kohima - NPCB",20-04-2026 09:00:00,25.6635413,94.0989878,PM2.5,27,53,39
India,Odisha,Talcher,"Talcher Coalfields,Talcher - OSPCB",20-04-2026 09:00:00,20.9360711,85.1707021,CO,76,92,85
India,Puducherry,Puducherry,"Jawahar Nagar, Puducherry - PPCC",20-04-2026 09:00:00,11.9309,79.8027,NH3,1,5,2
India,Puducherry,Puducherry,"Jawahar Nagar, Puducherry - PPCC",20-04-2026 09:00:00,11.9309,79.8027,OZONE,6,40,12
India,Punjab,Amritsar,"Golden Temple, Amritsar - PPCB",20-04-2026 09:00:00,31.620000,74.876512,NH3,7,19,12
India,Punjab,Amritsar,"Golden Temple, Amritsar - PPCB",20-04-2026 09:00:00,31.620000,74.876512,CO,22,64,40
India,Punjab,Bathinda,"Hardev Nagar, Bathinda - PPCB",20-04-2026 09:00:00,30.233011,74.907758,CO,46,80,75
India,Punjab,Jalandhar,"Civil Line, Jalandhar - PPCB",20-04-2026 09:00:00,31.321907,75.578914,PM2.5,68,100,82
India,Punjab,Jalandhar,"Civil Line, Jalandhar - PPCB",20-04-2026 09:00:00,31.321907,75.578914,NO2,34,40,37
India,Odisha,Bhubaneswar,"Lingraj Mandir, Bhubaneswar - OSPCB",20-04-2026 09:00:00,20.240790,85.836784,CO,18,48,30
India,Odisha,Bhubaneswar,"Lingraj Mandir, Bhubaneswar - OSPCB",20-04-2026 09:00:00,20.240790,85.836784,OZONE,16,53,21
India,Odisha,Bhubaneswar,"Patia, Bhubaneswar - OSPCB",20-04-2026 09:00:00,20.34652,85.81630,SO2,1,7,4
India,Odisha,Bileipada,"Tata Township, Bileipada - OSPCB",20-04-2026 09:00:00,22.06156703,85.47409613,PM2.5,101,307,194
India,Odisha,Bileipada,"Tata Township, Bileipada - OSPCB",20-04-2026 09:00:00,22.06156703,85.47409613,PM10,104,269,158
India,Odisha,Brajrajnagar,"GM Office, Brajrajnagar - OSPCB",20-04-2026 09:00:00,21.8004996,83.8396977,CO,2,41,30
India,Odisha,Cuttack,"CDA Area, Cuttack - OSPCB",20-04-2026 09:00:00,20.48891     ,85.84768     ,NO2,3,10,6
India,Odisha,Cuttack,"CDA Area, Cuttack - OSPCB",20-04-2026 09:00:00,20.48891     ,85.84768     ,OZONE,2,80,17
India,Odisha,Keonjhar,"Jagamohanpur, Keonjhar - OSPCB",20-04-2026 09:00:00,21.643900,85.599355,NH3,2,3,3
India,Odisha,Nayagarh,"Dabuna, Nayagarh - OSPCB",20-04-2026 09:00:00,21.847279,85.416905,PM2.5,45,92,70
India,Odisha,Nayagarh,"Dabuna, Nayagarh - OSPCB",20-04-2026 09:00:00,21.847279,85.416905,NO2,1,5,3
India,Odisha,Nayagarh,"Dabuna, Nayagarh - OSPCB",20-04-2026 09:00:00,21.847279,85.416905,CO,13,28,16
India,Odisha,Rairangpur,"Divisional Forest Office, Rairangpur - OSPCB",20-04-2026 09:00:00,22.265816,86.174829,NO2,10,12,11
India,Odisha,Rourkela,"Raghunathpali, Rourkela - OSPCB",20-04-2026 09:00:00,22.220833,84.809444,PM10,77,157,100
India,Odisha,Rourkela,"Raghunathpali, Rourkela - OSPCB",20-04-2026 09:00:00,22.220833,84.809444,SO2,5,6,6
India,Odisha,Rourkela,"Sector-2, Rourkela - OSPCB",20-04-2026 09:00:00,22.24500000,84.88111111,PM2.5,48,48,48
India,Maharashtra,Solapur,"Ratandeep Housing Society, Solapur - MPCB",20-04-2026 09:00:00,17.65439,75.90649,PM2.5,25,333,99
India,Maharashtra,Solapur,"Ratandeep Housing Society, Solapur - MPCB",20-04-2026 09:00:00,17.65439,75.90649,NO2,16,80,37
India,Maharashtra,Solapur,"Ratandeep Housing Society, Solapur - MPCB",20-04-2026 09:00:00,17.65439,75.90649,NH3,3,8,4
India,Maharashtra,Solapur,"Ratandeep Housing Society, Solapur - MPCB",20-04-2026 09:00:00,17.65439,75.90649,SO2,1,17,7
India,Maharashtra,Thane,"Upvan Fort, Thane - MPCB",20-04-2026 09:00:00,19.222279,72.957979,PM2.5,1,30,13
India,Maharashtra,Thane,"Upvan Fort, Thane - MPCB",20-04-2026 09:00:00,19.222279,72.957979,PM10,21,433,108
India,Maharashtra,Ulhasnagar,"Sidhi Vinayak Nagar, Ulhasnagar - MPCB",20-04-2026 09:00:00,19.235581,73.159121,PM2.5,50,99,81
India,Maharashtra,Ulhasnagar,"Sidhi Vinayak Nagar, Ulhasnagar - MPCB",20-04-2026 09:00:00,19.235581,73.159121,NO2,12,33,22
India,Maharashtra,Ulhasnagar,"Sidhi Vinayak Nagar, Ulhasnagar - MPCB",20-04-2026 09:00:00,19.235581,73.159121,OZONE,7,89,11
India,Rajasthan,Ajmer,"Civil Lines,  Ajmer - RSPCB",20-04-2026 09:00:00,26.470859,74.646594,NO2,17,45,29
India,Rajasthan,Banswara,"Rati Talai, Banswara - RSPCB",20-04-2026 09:00:00,23.555190,74.440010,PM10,54,180,85
India,Rajasthan,Banswara,"Rati Talai, Banswara - RSPCB",20-04-2026 09:00:00,23.555190,74.440010,SO2,3,19,7
India,Rajasthan,Banswara,"Rati Talai, Banswara - RSPCB",20-04-2026 09:00:00,23.555190,74.440010,CO,21,36,30
India,Rajasthan,Barmer,"Railway Colony, Barmer - RSPCB",20-04-2026 09:00:00,25.747299,71.393989,PM10,37,166,88
India,Rajasthan,Bharatpur,"Krishna Nagar, Bharatpur - RSPCB",20-04-2026 09:00:00,27.215415,77.50873,PM2.5,13,67,35
India,Nagaland,Kohima,"PWD Junction, Kohima - NPCB",20-04-2026 09:00:00,25.6635413,94.0989878,SO2,23,35,28
India,Nagaland,Kohima,"PWD Junction, Kohima - NPCB",20-04-2026 09:00:00,25.6635413,94.0989878,OZONE,1,10,3
India,Odisha,Balasore,"Kalidaspur, Balasore - OSPCB",20-04-2026 09:00:00,21.51161,86.89088,PM2.5,14,57,36
India,Odisha,Baripada,"Meher Colony, Baripada - OSPCB",20-04-2026 09:00:00,21.941841,86.728318,OZONE,13,73,24
India,Odisha,Bhubaneswar,"Lingraj Mandir, Bhubaneswar - OSPCB",20-04-2026 09:00:00,20.240790,85.836784,PM10,17,69,47
India,Punjab,Mandi Gobindgarh,"RIMT University, Mandi Gobindgarh - PPCB",20-04-2026 09:00:00,30.649961,76.331442,NO2,23,24,24
India,Punjab,Mandi Gobindgarh,"RIMT University, Mandi Gobindgarh - PPCB",20-04-2026 09:00:00,30.649961,76.331442,CO,8,77,29
India,Odisha,Suakati,"OMC Colony, Suakati - OSPCB",20-04-2026 09:00:00,21.606865,85.510538,NH3,4,4,4
India,Rajasthan,Tonk,"Shastri Nagar, Tonk - RSPCB",20-04-2026 09:00:00,26.159933,75.780517,PM10,81,238,128
India,Rajasthan,Tonk,"Shastri Nagar, Tonk - RSPCB",20-04-2026 09:00:00,26.159933,75.780517,CO,20,68,38
India,Rajasthan,Udaipur,"Ashok Nagar, Udaipur - RSPCB",20-04-2026 09:00:00,24.5886166,73.6321397,PM2.5,52,141,77
India,Sikkim,Gangtok,"Zero Point GICI, Gangtok - SSPCB",20-04-2026 09:00:00,27.338530,88.614099,PM2.5,27,53,40
India,Sikkim,Gangtok,"Zero Point GICI, Gangtok - SSPCB",20-04-2026 09:00:00,27.338530,88.614099,NO2,6,6,6
India,Sikkim,Gangtok,"Zero Point GICI, Gangtok - SSPCB",20-04-2026 09:00:00,27.338530,88.614099,SO2,1,1,1
India,Sikkim,Gangtok,"Zero Point GICI, Gangtok - SSPCB",20-04-2026 09:00:00,27.338530,88.614099,CO,3,12,6
India,Sikkim,Gangtok,"Zero Point GICI, Gangtok - SSPCB",20-04-2026 09:00:00,27.338530,88.614099,OZONE,7,23,16
India,TamilNadu,Chennai,"Arumbakkam, Chennai - TNPCB",20-04-2026 09:00:00,13.0664,80.2112 ,PM2.5,3,24,12
India,TamilNadu,Chennai,"Arumbakkam, Chennai - TNPCB",20-04-2026 09:00:00,13.0664,80.2112 ,NH3,2,2,2
India,TamilNadu,Chennai,"Kodungaiyur, Chennai - TNPCB",20-04-2026 09:00:00,13.1278,80.2642,PM2.5,4,30,17
India,TamilNadu,Chennai,"Kodungaiyur, Chennai - TNPCB",20-04-2026 09:00:00,13.1278,80.2642,NO2,12,16,13
India,TamilNadu,Chennai,"Kodungaiyur, Chennai - TNPCB",20-04-2026 09:00:00,13.1278,80.2642,NH3,4,5,4
India,Rajasthan,Chittorgarh,"Shastri Nagar, Chittorgarh - RSPCB",20-04-2026 09:00:00,24.892047,74.623527,SO2,5,9,6
India,Rajasthan,Churu,"Subash Chowk, Churu - RSPCB",20-04-2026 09:00:00,28.296139,74.961696,NO2,8,57,18
India,Rajasthan,Churu,"Subash Chowk, Churu - RSPCB",20-04-2026 09:00:00,28.296139,74.961696,CO,10,39,26
India,Rajasthan,Dausa,"Khatikan Mohalla, Dausa - RSPCB",20-04-2026 09:00:00,26.895552,76.334753,NO2,21,91,47
India,Rajasthan,Dausa,"Khatikan Mohalla, Dausa - RSPCB",20-04-2026 09:00:00,26.895552,76.334753,OZONE,34,141,54
India,Rajasthan,Dholpur,"Raja Ganj, Dholpur - RSPCB",20-04-2026 09:00:00,26.699557,77.898881,PM2.5,15,72,32
India,Rajasthan,Dholpur,"Raja Ganj, Dholpur - RSPCB",20-04-2026 09:00:00,26.699557,77.898881,PM10,45,105,75
India,Rajasthan,Dholpur,"Raja Ganj, Dholpur - RSPCB",20-04-2026 09:00:00,26.699557,77.898881,NH3,10,19,13
India,Rajasthan,Dholpur,"Raja Ganj, Dholpur - RSPCB",20-04-2026 09:00:00,26.699557,77.898881,OZONE,44,79,50
India,Rajasthan,Dungarpur,"Bhoiwada, Dungarpur - RSPCB",20-04-2026 09:00:00,23.837789,73.714926,CO,NA,NA,NA
India,Rajasthan,Hanumangarh,"Housing Board, Hanumangarh - RSPCB",20-04-2026 09:00:00,29.610750,74.283608,NH3,4,7,6
India,Rajasthan,Karauli,"Satyawati Vihar, Karauli - RSPCB",20-04-2026 09:00:00,26.506177,77.025989,PM2.5,17,179,62
India,Rajasthan,Kota,"Dhanmandi, Kota - RSPCB",20-04-2026 09:00:00,25.164090,75.858137,PM10,50,167,91
India,Rajasthan,Kota,"Dhanmandi, Kota - RSPCB",20-04-2026 09:00:00,25.164090,75.858137,NH3,9,28,13
India,Rajasthan,Kota,"Dhanmandi, Kota - RSPCB",20-04-2026 09:00:00,25.164090,75.858137,CO,24,130,61
India,Rajasthan,Kota,"Dhanmandi, Kota - RSPCB",20-04-2026 09:00:00,25.164090,75.858137,OZONE,2,106,50
India,Rajasthan,Nagaur,"Karni Colony, Nagaur - RSPCB",20-04-2026 09:00:00,27.213494,73.734444,PM10,55,212,105
India,Rajasthan,Nagaur,"Karni Colony, Nagaur - RSPCB",20-04-2026 09:00:00,27.213494,73.734444,NO2,6,50,22
India,Rajasthan,Nagaur,"Karni Colony, Nagaur - RSPCB",20-04-2026 09:00:00,27.213494,73.734444,OZONE,21,104,44
India,Rajasthan,Pali,"Indira Colony Vistar, Pali - RSPCB",20-04-2026 09:00:00,25.771061, 73.340227,PM10,75,135,100
India,Rajasthan,Hanumangarh,"Housing Board, Hanumangarh - RSPCB",20-04-2026 09:00:00,29.610750,74.283608,OZONE,22,83,32
India,Rajasthan,Jaipur,"Adarsh Nagar, Jaipur - RSPCB",20-04-2026 09:00:00,26.902909,75.836858,PM2.5,69,240,127
India,Rajasthan,Jaipur,"Mansarovar Sector-12, Jaipur - RSPCB",20-04-2026 09:00:00,26.843698,75.766894,OZONE,10,166,74
India,Rajasthan,Jaipur,"Police Commissionerate, Jaipur - RSPCB",20-04-2026 09:00:00,26.9164092,75.7994901,PM10,54,126,96
India,Rajasthan,Jaipur,"RIICO Sitapura, Jaipur - RSPCB",20-04-2026 09:00:00,26.786682,75.827928,CO,54,115,62
India,Rajasthan,Jaipur,"Sector-2 Murlipura, Jaipur - RSPCB",20-04-2026 09:00:00,26.960669,75.771817,SO2,3,68,22
India,Rajasthan,Jaipur,"Sector-2 Murlipura, Jaipur - RSPCB",20-04-2026 09:00:00,26.960669,75.771817,CO,37,85,44
India,Rajasthan,Jodhpur,"Collectorate, Jodhpur - RSPCB",20-04-2026 09:00:00,26.268249,73.0193853,SO2,1,12,6
India,Rajasthan,Jodhpur,"Collectorate, Jodhpur - RSPCB",20-04-2026 09:00:00,26.268249,73.0193853,OZONE,11,97,33
India,Rajasthan,Jodhpur,"Digari Kalan, Jodhpur - RSPCB",20-04-2026 09:00:00,26.295810,73.082283,NO2,13,48,27
India,Rajasthan,Jodhpur,"Jhalamand, Jodhpur - RSPCB",20-04-2026 09:00:00,26.215415,73.070156,NO2,3,40,17
India,Rajasthan,Jodhpur,"Jhalamand, Jodhpur - RSPCB",20-04-2026 09:00:00,26.215415,73.070156,CO,4,28,14
India,Rajasthan,Jodhpur,"Jhalamand, Jodhpur - RSPCB",20-04-2026 09:00:00,26.215415,73.070156,OZONE,36,126,46
India,Rajasthan,Jodhpur,"Mandor, Jodhpur - RSPCB",20-04-2026 09:00:00,26.358805,73.047444,NO2,5,32,11
India,Rajasthan,Jodhpur,"Mandor, Jodhpur - RSPCB",20-04-2026 09:00:00,26.358805,73.047444,OZONE,23,110,44
India,Rajasthan,Jodhpur,"Samrat Ashok Udhyan, Jodhpur - RSPCB",20-04-2026 09:00:00,26.253384,72.976571,PM10,48,197,84
India,Rajasthan,Bhilwara,"Pratap Nagar, Bhilwara - RSPCB",20-04-2026 09:00:00,25.339605,74.618883,SO2,NA,NA,NA
India,Rajasthan,Bhiwadi,"RIICO Ind. Area III, Bhiwadi - RSPCB",20-04-2026 09:00:00,28.194909,76.862296,PM2.5,49,433,159
India,Rajasthan,Bhiwadi,"RIICO Ind. Area III, Bhiwadi - RSPCB",20-04-2026 09:00:00,28.194909,76.862296,SO2,NA,NA,NA
India,Rajasthan,Bhiwadi,"Vasundhara Nagar_UIT, Bhiwadi - RSPCB",20-04-2026 09:00:00,28.207266,76.829265,PM10,100,312,163
India,Rajasthan,Bikaner,"MM Ground, Bikaner - RSPCB",20-04-2026 09:00:00,28.018792,73.292658,NH3,4,9,7
India,Rajasthan,Bikaner,"MM Ground, Bikaner - RSPCB",20-04-2026 09:00:00,28.018792,73.292658,CO,10,50,24
India,Rajasthan,Bundi,"New Colony, Bundi - RSPCB",20-04-2026 09:00:00,25.435774,75.644272,PM10,28,126,74
India,Rajasthan,Bundi,"New Colony, Bundi - RSPCB",20-04-2026 09:00:00,25.435774,75.644272,NO2,29,69,45
India,Rajasthan,Sawai Madhopur,"Sahu Nagar, Sawai Madhopur - RSPCB",20-04-2026 09:00:00,26.031443,76.359327,NO2,6,71,29
India,Rajasthan,Sawai Madhopur,"Sahu Nagar, Sawai Madhopur - RSPCB",20-04-2026 09:00:00,26.031443,76.359327,SO2,1,7,3
India,Rajasthan,Sawai Madhopur,"Sahu Nagar, Sawai Madhopur - RSPCB",20-04-2026 09:00:00,26.031443,76.359327,CO,16,72,44
India,Rajasthan,Sawai Madhopur,"Sahu Nagar, Sawai Madhopur - RSPCB",20-04-2026 09:00:00,26.031443,76.359327,OZONE,18,168,59
India,Rajasthan,Sikar,"Radhakishan Pura, Sikar - RSPCB",20-04-2026 09:00:00,27.608912,75.153302,NO2,8,68,23
India,Rajasthan,Sikar,"Radhakishan Pura, Sikar - RSPCB",20-04-2026 09:00:00,27.608912,75.153302,OZONE,47,110,76
India,Rajasthan,Sirohi,"Vedhaynath Colony, Sirohi - RSPCB",20-04-2026 09:00:00,24.885261,72.857549,PM10,49,107,69
India,Rajasthan,Sirohi,"Vedhaynath Colony, Sirohi - RSPCB",20-04-2026 09:00:00,24.885261,72.857549,SO2,5,12,6
India,Rajasthan,Jaipur,"Shastri Nagar, Jaipur - RSPCB",20-04-2026 09:00:00,26.9502929,75.730943,PM10,83,157,115
India,Rajasthan,Jaipur,"Shastri Nagar, Jaipur - RSPCB",20-04-2026 09:00:00,26.9502929,75.730943,NO2,31,123,57
India,Rajasthan,Jaisalmer,"Sadar Bazar, Jaisalmer - RSPCB",20-04-2026 09:00:00,26.912329,70.909168,PM2.5,15,67,38
India,Rajasthan,Jaisalmer,"Sadar Bazar, Jaisalmer - RSPCB",20-04-2026 09:00:00,26.912329,70.909168,OZONE,7,88,79
India,Rajasthan,Jalore,"Mudtra Sili, Jalore - RSPCB",20-04-2026 09:00:00,25.344694,72.626208,NO2,5,32,14
India,Rajasthan,Jalore,"Mudtra Sili, Jalore - RSPCB",20-04-2026 09:00:00,25.344694,72.626208,SO2,2,8,5
India,Rajasthan,Rajsamand,"Dhoinda, Rajsamand - RSPCB",20-04-2026 09:00:00,25.036360,73.883502,PM2.5,7,60,19
India,Uttar_Pradesh,Agra,"Manoharpur, Agra - UPPCB",20-04-2026 09:00:00,27.23711,78.01936,CO,19,22,20
India,Uttar_Pradesh,Agra,"Rohta, Agra - UPPCB",20-04-2026 09:00:00,27.106972,78.000111,PM2.5,25,191,89
India,Uttar_Pradesh,Agra,"Rohta, Agra - UPPCB",20-04-2026 09:00:00,27.106972,78.000111,NO2,13,13,13
India,Uttar_Pradesh,Agra,"Rohta, Agra - UPPCB",20-04-2026 09:00:00,27.106972,78.000111,SO2,5,23,13
India,Uttar_Pradesh,Agra,"Rohta, Agra - UPPCB",20-04-2026 09:00:00,27.106972,78.000111,OZONE,12,14,14
India,Uttar_Pradesh,Agra,"Sanjay Palace, Agra - UPPCB",20-04-2026 09:00:00,27.19865833,78.00598056,PM2.5,37,295,162
India,Uttar_Pradesh,Agra,"Sanjay Palace, Agra - UPPCB",20-04-2026 09:00:00,27.19865833,78.00598056,OZONE,10,189,27
India,Uttar_Pradesh,Agra,"Sector-3B Avas Vikas Colony, Agra - UPPCB",20-04-2026 09:00:00,27.19412,77.96237,CO,27,82,53
India,Uttar_Pradesh,Agra,"Shahjahan Garden, Agra - UPPCB",20-04-2026 09:00:00,27.169338,78.03582,PM2.5,3,104,41
India,Uttar_Pradesh,Agra,"Shahjahan Garden, Agra - UPPCB",20-04-2026 09:00:00,27.169338,78.03582,SO2,90,108,101
India,Uttar_Pradesh,Agra,"Shastripuram, Agra - UPPCB",20-04-2026 09:00:00,27.19862,77.92066,PM10,57,160,114
India,Uttar_Pradesh,Agra,"Shastripuram, Agra - UPPCB",20-04-2026 09:00:00,27.19862,77.92066,CO,12,20,14
India,Uttar_Pradesh,Baghpat,"Sardar Patel Inter College, Baghpat - UPPCB",20-04-2026 09:00:00,28.964949,77.278761,PM2.5,49,311,137
India,Uttar_Pradesh,Baghpat,"Sardar Patel Inter College, Baghpat - UPPCB",20-04-2026 09:00:00,28.964949,77.278761,CO,26,104,79
India,Uttar_Pradesh,Baghpat,"Sardar Patel Inter College, Baghpat - UPPCB",20-04-2026 09:00:00,28.964949,77.278761,OZONE,10,98,18
India,Uttar_Pradesh,Bareilly,"Civil Lines, Bareilly - UPPCB",20-04-2026 09:00:00,28.359581,79.414455,PM2.5,39,71,50
India,Uttar_Pradesh,Bareilly,"Civil Lines, Bareilly - UPPCB",20-04-2026 09:00:00,28.359581,79.414455,SO2,39,90,62
India,Uttar_Pradesh,Bareilly,"Rajendra Nagar, Bareilly - UPPCB",20-04-2026 09:00:00,28.38910936,79.42963708,NH3,1,1,1
India,Uttar_Pradesh,Bareilly,"Rajendra Nagar, Bareilly - UPPCB",20-04-2026 09:00:00,28.38910936,79.42963708,CO,28,44,38
India,Uttar_Pradesh,Firozabad,"Nagla Bhau, Firozabad - UPPCB",20-04-2026 09:00:00,27.168897,78.376960,PM10,42,138,85
India,Uttar_Pradesh,Firozabad,"Nagla Bhau, Firozabad - UPPCB",20-04-2026 09:00:00,27.168897,78.376960,SO2,13,91,34
India,Uttar_Pradesh,Firozabad,"Nagla Bhau, Firozabad - UPPCB",20-04-2026 09:00:00,27.168897,78.376960,OZONE,5,34,9
India,Uttar_Pradesh,Firozabad,"Vibhab Nagar, Firozabad - UPPCB",20-04-2026 09:00:00,27.1594,78.3953,PM2.5,51,235,113
India,Uttar_Pradesh,Jhansi,"Shivaji Nagar, Jhansi - UPPCB",20-04-2026 09:00:00,25.4547,78.6039,SO2,14,22,16
India,Uttar_Pradesh,Kanpur,"FTI Kidwai Nagar, Kanpur - UPPCB",20-04-2026 09:00:00,26.428282,80.327067,NH3,3,3,3
India,Uttar_Pradesh,Kanpur,"NSI Kalyanpur, Kanpur - UPPCB",20-04-2026 09:00:00,26.509954,80.249612,NO2,28,29,28
India,Uttar_Pradesh,Kanpur,"NSI Kalyanpur, Kanpur - UPPCB",20-04-2026 09:00:00,26.509954,80.249612,NH3,2,2,2
India,Uttar_Pradesh,Kanpur,"Nehru Nagar, Kanpur - UPPCB",20-04-2026 09:00:00,26.4703136,80.3229863,PM10,38,151,81
India,Uttar_Pradesh,Kanpur,"Nehru Nagar, Kanpur - UPPCB",20-04-2026 09:00:00,26.4703136,80.3229863,CO,1,86,47
India,Uttar_Pradesh,Khurja,"Kalindi Kunj, Khurja - UPPCB",20-04-2026 09:00:00,28.2348927,77.8683002,NH3,1,1,1
India,Uttar_Pradesh,Lucknow,"B R Ambedkar University, Lucknow - UPPCB",20-04-2026 09:00:00,26.766433,80.927299,PM10,74,218,141
India,Uttar_Pradesh,Lucknow,"B R Ambedkar University, Lucknow - UPPCB",20-04-2026 09:00:00,26.766433,80.927299,NH3,4,6,4
India,TamilNadu,Coimbatore,"SIDCO Kurichi, Coimbatore - TNPCB",20-04-2026 09:00:00,10.942451,76.978996,NH3,1,1,1
India,TamilNadu,Gummidipoondi,"Anthoni Pillai Nagar, Gummidipoondi - TNPCB",20-04-2026 09:00:00,13.4127,80.1081,PM2.5,26,430,86
India,TamilNadu,Perundurai,"SIPCOT Industrial Park, Perundurai - TNPCB",20-04-2026 09:00:00,11.258242,77.552761,CO,42,46,43
India,TamilNadu,Perundurai,"SIPCOT Industrial Park, Perundurai - TNPCB",20-04-2026 09:00:00,11.258242,77.552761,OZONE,25,31,30
India,TamilNadu,Thoothukudi,"Meelavittan, Thoothukudi - TNPCB",20-04-2026 09:00:00,8.816428 ,78.099039,CO,5,48,21
India,Telangana,Hyderabad,"ECIL Kapra, Hyderabad - TSPCB",20-04-2026 09:00:00,17.470431,78.566959,PM10,65,72,67
India,Telangana,Hyderabad,"ECIL Kapra, Hyderabad - TSPCB",20-04-2026 09:00:00,17.470431,78.566959,NH3,3,6,5
India,Telangana,Hyderabad,"ECIL Kapra, Hyderabad - TSPCB",20-04-2026 09:00:00,17.470431,78.566959,SO2,4,27,18
India,Uttar_Pradesh,Ghaziabad,"Govindpuram, Ghaziabad - UPPCB",20-04-2026 09:00:00,28.694528 ,77.494705 ,PM10,77,491,186
India,Uttar_Pradesh,Ghaziabad,"Govindpuram, Ghaziabad - UPPCB",20-04-2026 09:00:00,28.694528 ,77.494705 ,NH3,5,11,9
India,Uttar_Pradesh,Ghaziabad,"Govindpuram, Ghaziabad - UPPCB",20-04-2026 09:00:00,28.694528 ,77.494705 ,SO2,7,71,34
India,Uttar_Pradesh,Ghaziabad,"Indirapuram, Ghaziabad - UPPCB",20-04-2026 09:00:00,28.646233,77.358075,SO2,19,31,24
India,Uttar_Pradesh,Ghaziabad,"Loni, Ghaziabad - UPPCB",20-04-2026 09:00:00,28.757294,77.278792,PM2.5,45,496,188
India,Uttar_Pradesh,Ghaziabad,"Loni, Ghaziabad - UPPCB",20-04-2026 09:00:00,28.757294,77.278792,NH3,1,5,3
India,Uttar_Pradesh,Ghaziabad,"Loni, Ghaziabad - UPPCB",20-04-2026 09:00:00,28.757294,77.278792,OZONE,9,160,17
India,Uttar_Pradesh,Ghaziabad,"Sanjay Nagar, Ghaziabad - UPPCB",20-04-2026 09:00:00,28.685382,77.453839,PM2.5,22,377,128
India,Uttar_Pradesh,Ghaziabad,"Sanjay Nagar, Ghaziabad - UPPCB",20-04-2026 09:00:00,28.685382,77.453839,NO2,27,145,55
India,Telangana,Hyderabad,"New Malakpet, Hyderabad - TSPCB",20-04-2026 09:00:00,17.37206,78.50864,OZONE,19,46,28
India,Telangana,Hyderabad,"Ramachandrapuram, Hyderabad - TSPCB",20-04-2026 09:00:00,17.528544,78.286195,CO,27,38,34
India,Telangana,Hyderabad,"Somajiguda, Hyderabad - TSPCB",20-04-2026 09:00:00,17.417094,78.457437,PM10,76,91,82
India,Telangana,Hyderabad,"Zoo Park, Hyderabad - TSPCB",20-04-2026 09:00:00,17.349694,78.451437,PM2.5,17,167,53
India,Telangana,Hyderabad,"Zoo Park, Hyderabad - TSPCB",20-04-2026 09:00:00,17.349694,78.451437,PM10,23,148,68
India,Telangana,Hyderabad,"Zoo Park, Hyderabad - TSPCB",20-04-2026 09:00:00,17.349694,78.451437,NO2,4,9,6
India,Uttar_Pradesh,Gorakhpur,"Madan Mohan Malaviya University of Technology, Gorakhpur - UPPCB",20-04-2026 09:00:00,26.730136,83.433859,NO2,11,12,11
India,Uttar_Pradesh,Gorakhpur,"Madan Mohan Malaviya University of Technology, Gorakhpur - UPPCB",20-04-2026 09:00:00,26.730136,83.433859,SO2,47,48,48
India,Uttar_Pradesh,Greater Noida,"Knowledge Park - V, Greater Noida - UPPCB",20-04-2026 09:00:00,28.557054,77.453663,PM2.5,35,430,140
India,Uttar_Pradesh,Greater Noida,"Knowledge Park - V, Greater Noida - UPPCB",20-04-2026 09:00:00,28.557054,77.453663,SO2,9,31,21
India,Uttar_Pradesh,Hapur,"Anand Vihar, Hapur - UPPCB",20-04-2026 09:00:00,28.725645,77.749675,SO2,22,94,42
India,TamilNadu,Chennai,"Manali Village, Chennai - TNPCB",20-04-2026 09:00:00,13.1662,80.2584,NH3,2,8,2
India,TamilNadu,Chennai,"Manali Village, Chennai - TNPCB",20-04-2026 09:00:00,13.1662,80.2584,CO,38,46,42
India,TamilNadu,Chennai,"Manali, Chennai - CPCB",20-04-2026 09:00:00,13.164544,80.26285,SO2,NA,NA,NA
India,TamilNadu,Chennai,"Manali, Chennai - CPCB",20-04-2026 09:00:00,13.164544,80.26285,OZONE,10,11,10
India,TamilNadu,Chennai,"Perungudi, Chennai - TNPCB",20-04-2026 09:00:00,12.9533,80.2357,NO2,2,6,4
India,TamilNadu,Chennai,"Velachery Res. Area, Chennai - CPCB",20-04-2026 09:00:00,13.0052189,80.2398125,NO2,11,13,12
India,Telangana,Hyderabad,"ICRISAT Patancheru, Hyderabad - TSPCB",20-04-2026 09:00:00,17.518400,78.278777,CO,2,75,41
India,Telangana,Hyderabad,"ICRISAT Patancheru, Hyderabad - TSPCB",20-04-2026 09:00:00,17.518400,78.278777,OZONE,36,73,52
India,Telangana,Hyderabad,"IDA Pashamylaram, Hyderabad - TSPCB",20-04-2026 09:00:00,17.5316895,78.218939,CO,2,84,41
India,Telangana,Hyderabad,"IITH Kandi, Hyderabad - TSPCB",20-04-2026 09:00:00,17.585705,78.126199,NO2,NA,NA,NA
India,Telangana,Hyderabad,"Nacharam_TSIIC IALA, Hyderabad - TSPCB",20-04-2026 09:00:00,17.429398,78.569354,CO,20,32,22
India,Uttar_Pradesh,Prayagraj,"Jhunsi, Prayagraj - UPPCB",20-04-2026 09:00:00,25.425602,81.917152,CO,10,68,43
India,Uttar_Pradesh,Prayagraj,"Motilal Nehru NIT, Prayagraj - UPPCB",20-04-2026 09:00:00,25.494,81.863,PM2.5,23,68,45
India,Uttar_Pradesh,Prayagraj,"Motilal Nehru NIT, Prayagraj - UPPCB",20-04-2026 09:00:00,25.494,81.863,NH3,7,9,8
India,Uttar_Pradesh,Prayagraj,"Nagar Nigam, Prayagraj - UPPCB",20-04-2026 09:00:00,25.44919916 ,81.82735986 ,PM2.5,20,66,40
India,Uttar_Pradesh,Raebareli," Indira Nagar, Raebareli - NTPC Unchahar",20-04-2026 09:00:00,26.207781,81.245571,OZONE,10,170,30
India,Uttar_Pradesh,Varanasi,"Ardhali Bazar, Varanasi - UPPCB",20-04-2026 09:00:00,25.3505986,82.9083074,SO2,NA,NA,NA
India,Uttar_Pradesh,Varanasi,"Bhelupur, Varanasi - UPPCB",20-04-2026 09:00:00,25.301778,82.996789,SO2,57,90,72
India,Uttar_Pradesh,Varanasi,"Bhelupur, Varanasi - UPPCB",20-04-2026 09:00:00,25.301778,82.996789,CO,10,81,46
India,West_Bengal,Haldia,"Priyambada Housing Estate, Haldia - WBPCB",20-04-2026 09:00:00,22.06047,88.109737,PM10,43,90,59
India,West_Bengal,Haldia,"Priyambada Housing Estate, Haldia - WBPCB",20-04-2026 09:00:00,22.06047,88.109737,NH3,4,4,4
India,West_Bengal,Haldia,"Priyambada Housing Estate, Haldia - WBPCB",20-04-2026 09:00:00,22.06047,88.109737,OZONE,12,45,15
India,West_Bengal,Howrah,"Belur Math, Howrah - WBPCB",20-04-2026 09:00:00,22.629801,88.352017,NO2,21,81,40
India,West_Bengal,Howrah,"Belur Math, Howrah - WBPCB",20-04-2026 09:00:00,22.629801,88.352017,SO2,7,47,16
India,West_Bengal,Howrah,"Botanical Garden, Howrah - WBPCB",20-04-2026 09:00:00,22.554954,88.292568,PM2.5,23,42,33
India,West_Bengal,Howrah,"Botanical Garden, Howrah - WBPCB",20-04-2026 09:00:00,22.554954,88.292568,PM10,32,62,48
India,West_Bengal,Howrah,"Botanical Garden, Howrah - WBPCB",20-04-2026 09:00:00,22.554954,88.292568,SO2,2,4,3
India,West_Bengal,Howrah,"Botanical Garden, Howrah - WBPCB",20-04-2026 09:00:00,22.554954,88.292568,CO,7,17,11
India,West_Bengal,Howrah,"Dasnagar, Howrah - WBPCB",20-04-2026 09:00:00,22.6025571,88.3105664,CO,14,26,19
India,Uttar_Pradesh,Vrindavan,"Omex Eternity, Vrindavan - UPPCB",20-04-2026 09:00:00,27.5714090,77.6557570,PM10,20,167,105
India,Uttar_Pradesh,Vrindavan,"Omex Eternity, Vrindavan - UPPCB",20-04-2026 09:00:00,27.5714090,77.6557570,CO,14,49,33
India,Uttarakhand,Dehradun,"Doon University, Dehradun - UKPCB",20-04-2026 09:00:00,30.269444,78.044167,PM10,20,69,46
India,Uttarakhand,Kashipur,"Govt. Girls Inter College, Kashipur - UKPCB",20-04-2026 09:00:00,29.2124114,78.9611753,PM10,NA,NA,NA
India,Uttarakhand,Rishikesh,"Shivaji Nagar, Rishikesh - UKPCB",20-04-2026 09:00:00,30.075911,78.2859547,PM2.5,2,2,2
India,Uttarakhand,Rishikesh,"Shivaji Nagar, Rishikesh - UKPCB",20-04-2026 09:00:00,30.075911,78.2859547,NH3,11,11,11
India,West_Bengal,Asansol,"Asansol Court Area, Asansol - WBPCB",20-04-2026 09:00:00,23.685297,86.945968,PM2.5,46,178,91
India,West_Bengal,Asansol,"Mahabir Colliery, Asansol - WBPCB",20-04-2026 09:00:00,23.6181830,87.1057180,PM10,NA,NA,NA
India,West_Bengal,Asansol,"Mahabir Colliery, Asansol - WBPCB",20-04-2026 09:00:00,23.6181830,87.1057180,NH3,NA,NA,NA
India,West_Bengal,Barrackpore,"SVSPA Campus, Barrackpore - WBPCB",20-04-2026 09:00:00,22.7605581,88.3617589,PM2.5,25,70,45
India,West_Bengal,Durgapur,"Mahishkapur Road_B-Zone, Durgapur - WBPCB",20-04-2026 09:00:00,23.567923,87.306843,PM10,52,102,74
India,West_Bengal,Durgapur,"Mahishkapur Road_B-Zone, Durgapur - WBPCB",20-04-2026 09:00:00,23.567923,87.306843,SO2,4,5,5
India,West_Bengal,Durgapur,"PCBL Residential Complex, Durgapur - WBPCB",20-04-2026 09:00:00,23.5087640,87.3544400,PM2.5,41,76,53
India,Uttar_Pradesh,Lucknow,"Kendriya Vidyalaya, Lucknow - CPCB",20-04-2026 09:00:00,26.906111,80.948222,CO,22,64,36
India,Uttar_Pradesh,Lucknow,"Lalbagh, Lucknow - CPCB",20-04-2026 09:00:00,26.8458805,80.9365541,SO2,1,25,10
India,Uttar_Pradesh,Lucknow,"Talkatora District Industries Center, Lucknow - CPCB",20-04-2026 09:00:00,26.83399722,80.8917361,SO2,3,46,10
India,Uttar_Pradesh,Lucknow,"Talkatora District Industries Center, Lucknow - CPCB",20-04-2026 09:00:00,26.83399722,80.8917361,CO,25,116,46
India,Uttar_Pradesh,Meerut,"Ganga Nagar, Meerut - UPPCB",20-04-2026 09:00:00,28.999264,77.7590354,PM2.5,22,322,100
India,Uttar_Pradesh,Meerut,"Ganga Nagar, Meerut - UPPCB",20-04-2026 09:00:00,28.999264,77.7590354,NO2,106,144,119
India,Uttar_Pradesh,Muzaffarnagar,"New Mandi, Muzaffarnagar - UPPCB",20-04-2026 09:00:00,29.4723508,77.7194031,CO,10,104,37
India,Uttar_Pradesh,Noida,"Sector - 62, Noida - IMD",20-04-2026 09:00:00,28.6245479,77.3577104,PM10,87,320,173
India,Uttar_Pradesh,Noida,"Sector-1, Noida - UPPCB",20-04-2026 09:00:00,28.5898,77.3101,PM2.5,28,402,151
India,Uttar_Pradesh,Noida,"Sector-1, Noida - UPPCB",20-04-2026 09:00:00,28.5898,77.3101,NO2,10,135,59
India,Uttar_Pradesh,Noida,"Sector-116, Noida - UPPCB",20-04-2026 09:00:00,28.569230,77.393848,NO2,NA,NA,NA
India,Uttar_Pradesh,Meerut,"Jai Bhim Nagar, Meerut - UPPCB",20-04-2026 09:00:00,28.9535882,77.7622941,NH3,8,15,10
India,Uttar_Pradesh,Meerut,"MIET College, Meerut - UPPCB",20-04-2026 09:00:00,28.972677 ,77.641018 ,PM2.5,203,456,346
India,Uttar_Pradesh,Meerut,"MIET College, Meerut - UPPCB",20-04-2026 09:00:00,28.972677 ,77.641018 ,NO2,18,103,42
India,Uttar_Pradesh,Meerut,"Pallavpuram Phase 2, Meerut - UPPCB",20-04-2026 09:00:00,29.063510,77.709723,PM2.5,27,359,129
India,Uttar_Pradesh,Meerut,"Pallavpuram Phase 2, Meerut - UPPCB",20-04-2026 09:00:00,29.063510,77.709723,CO,5,164,17
India,Uttar_Pradesh,Moradabad,"Eco Herbal Park, Moradabad - UPPCB",20-04-2026 09:00:00,28.840739,78.697531,PM10,94,204,150
India,Uttar_Pradesh,Moradabad,"Eco Herbal Park, Moradabad - UPPCB",20-04-2026 09:00:00,28.840739,78.697531,NO2,12,79,41
India,Uttar_Pradesh,Moradabad,"Employment Office, Moradabad - UPPCB",20-04-2026 09:00:00,28.88528,78.73880,NH3,4,4,4
India,Uttar_Pradesh,Moradabad,"Transport Nagar, Moradabad - UPPCB",20-04-2026 09:00:00,28.802625,78.753728,PM2.5,15,123,52
India,Uttar_Pradesh,Moradabad,"Transport Nagar, Moradabad - UPPCB",20-04-2026 09:00:00,28.802625,78.753728,PM10,45,120,90
India,Uttar_Pradesh,Lucknow,"Gomti Nagar, Lucknow - UPPCB",20-04-2026 09:00:00,26.868120,81.005119,CO,39,47,40
India,Uttar_Pradesh,Lucknow,"Gomti Nagar, Lucknow - UPPCB",20-04-2026 09:00:00,26.868120,81.005119,OZONE,42,55,44
India,West_Bengal,Howrah,"Padmapukur, Howrah - WBPCB",20-04-2026 09:00:00,22.5687319,88.2797276,NO2,12,12,12
India,West_Bengal,Kolkata,"Bidhannagar, Kolkata - WBPCB",20-04-2026 09:00:00,22.58157048,88.41002457,OZONE,19,43,28
India,West_Bengal,Kolkata,"Jadavpur, Kolkata - WBPCB",20-04-2026 09:00:00,22.49929,88.36917,NO2,8,13,10
India,West_Bengal,Kolkata,"Rabindra Bharati University, Kolkata - WBPCB",20-04-2026 09:00:00,22.627847,88.380669,PM10,33,76,57
India,West_Bengal,Kolkata,"Rabindra Sarobar, Kolkata - WBPCB",20-04-2026 09:00:00,22.51106,88.35142,OZONE,14,26,17
India,West_Bengal,Kolkata,"Victoria, Kolkata - WBPCB",20-04-2026 09:00:00,22.5448082,88.3403691,CO,9,24,16
India,West_Bengal,Siliguri,"Ward-32 Bapupara, Siliguri - WBPCB",20-04-2026 09:00:00,26.6879226,88.4152495,NO2,47,125,77
India,West_Bengal,Siliguri,"Ward-32 Bapupara, Siliguri - WBPCB",20-04-2026 09:00:00,26.6879226,88.4152495,SO2,12,19,15
India,West_Bengal,Siliguri,"Ward-32 Bapupara, Siliguri - WBPCB",20-04-2026 09:00:00,26.6879226,88.4152495,CO,19,64,38
India,West_Bengal,Siliguri,"Ward-32 Bapupara, Siliguri - WBPCB",20-04-2026 09:00:00,26.6879226,88.4152495,OZONE,13,69,20
India,Andhra_Pradesh,Eluru,"District Court, Eluru - APPCB",20-04-2026 09:00:00,16.711754,81.092095,PM10,28,62,41
India,Andhra_Pradesh,Eluru,"District Court, Eluru - APPCB",20-04-2026 09:00:00,16.711754,81.092095,SO2,6,10,6
India,Andhra_Pradesh,Eluru,"District Court, Eluru - APPCB",20-04-2026 09:00:00,16.711754,81.092095,OZONE,1,35,10
India,Andhra_Pradesh,Guntur,"Rajendra Nagar North, Guntur - APPCB",20-04-2026 09:00:00,16.316553,80.413302,CO,3,20,10
India,Andhra_Pradesh,Machilipatnam,"Srinivas Nagar Colony, Machilipatnam - APPCB",20-04-2026 09:00:00,16.186555,81.13219,SO2,12,14,13
India,Andhra_Pradesh,Machilipatnam,"Srinivas Nagar Colony, Machilipatnam - APPCB",20-04-2026 09:00:00,16.186555,81.13219,OZONE,20,37,37
India,Andhra_Pradesh,Nellore,"Ambedkar Nagar, Nellore - APPCB ",20-04-2026 09:00:00,14.438164 ,79.966814 ,PM2.5,22,50,33
India,Andhra_Pradesh,Nellore,"Ambedkar Nagar, Nellore - APPCB ",20-04-2026 09:00:00,14.438164 ,79.966814 ,NO2,19,29,26
India,Andhra_Pradesh,Nellore,"Ambedkar Nagar, Nellore - APPCB ",20-04-2026 09:00:00,14.438164 ,79.966814 ,NH3,3,5,5
India,Andhra_Pradesh,Tirumala,"Toll Gate, Tirumala - APPCB",20-04-2026 09:00:00,13.67,79.35,PM2.5,18,56,37
India,Andhra_Pradesh,Tirumala,"Toll Gate, Tirumala - APPCB",20-04-2026 09:00:00,13.67,79.35,OZONE,14,71,25
India,Andhra_Pradesh,Tirupati,"Vaikuntapuram, Tirupati - APPCB",20-04-2026 09:00:00,13.615387,79.409230,NO2,21,37,33
India,Andhra_Pradesh,Tirupati,"Vaikuntapuram, Tirupati - APPCB",20-04-2026 09:00:00,13.615387,79.409230,SO2,8,19,16
India,Andhra_Pradesh,Tirupati,"Vaikuntapuram, Tirupati - APPCB",20-04-2026 09:00:00,13.615387,79.409230,OZONE,10,36,35
India,Andhra_Pradesh,Vijayawada,"HB Colony, Vijayawada - APPCB",20-04-2026 09:00:00,16.536107,80.594233,NH3,3,6,4
India,Andhra_Pradesh,Vijayawada,"HB Colony, Vijayawada - APPCB",20-04-2026 09:00:00,16.536107,80.594233,CO,30,44,30
India,Andhra_Pradesh,Vijayawada,"Kanuru, Vijayawada - APPCB",20-04-2026 09:00:00,16.486692,80.699436,CO,34,50,50
India,Andhra_Pradesh,Vijayawada,"Rajiv Nagar, Vijayawada - APPCB",20-04-2026 09:00:00,16.554731,80.649110,PM10,59,77,65
India,Andhra_Pradesh,Vijayawada,"Rajiv Nagar, Vijayawada - APPCB",20-04-2026 09:00:00,16.554731,80.649110,SO2,13,20,16
India,Andhra_Pradesh,Vijayawada,"Rajiv Nagar, Vijayawada - APPCB",20-04-2026 09:00:00,16.554731,80.649110,CO,26,34,31
India,Arunachal_Pradesh,Naharlagun,"Naharlagun, Naharlagun - APSPCB",20-04-2026 09:00:00,27.103358,93.679645,NH3,1,1,1
India,Assam,Byrnihat,"Central Academy for SFS, Byrnihat - PCBA",20-04-2026 09:00:00,26.071318,91.87488,PM2.5,NA,NA,NA
India,Assam,Byrnihat,"Central Academy for SFS, Byrnihat - PCBA",20-04-2026 09:00:00,26.071318,91.87488,NH3,NA,NA,NA
India,Assam,Byrnihat,"Central Academy for SFS, Byrnihat - PCBA",20-04-2026 09:00:00,26.071318,91.87488,CO,NA,NA,NA
India,Bihar,Araria,"Kharahiya Basti, Araria - BSPCB",20-04-2026 09:00:00,26.146529,87.454184,PM2.5,15,123,42
India,Bihar,Araria,"Kharahiya Basti, Araria - BSPCB",20-04-2026 09:00:00,26.146529,87.454184,PM10,37,89,67
India,Bihar,Araria,"Kharahiya Basti, Araria - BSPCB",20-04-2026 09:00:00,26.146529,87.454184,NO2,9,18,14
India,Bihar,Bettiah,"Kamalnath Nagar, Bettiah - BSPCB",20-04-2026 09:00:00,26.80365,84.51954,PM2.5,7,22,13
India,Bihar,Bettiah,"Kamalnath Nagar, Bettiah - BSPCB",20-04-2026 09:00:00,26.80365,84.51954,NH3,1,1,1
India,Bihar,Bettiah,"Kamalnath Nagar, Bettiah - BSPCB",20-04-2026 09:00:00,26.80365,84.51954,CO,28,43,38
India,Bihar,Bhagalpur,"DM Office_Kachari Chowk, Bhagalpur - BSPCB",20-04-2026 09:00:00,25.251013,86.989001,NH3,1,1,1
India,Bihar,Katihar,"Mirchaibari, Katihar - BSPCB",20-04-2026 09:00:00,25.560083,87.553265,SO2,16,28,20
India,Bihar,Kishanganj,"SDM Office_Khagra, Kishanganj - BSPCB",20-04-2026 09:00:00,26.0881305,87.93840336,PM10,5,41,31
India,Bihar,Manguraha,"Forest Rest House, Manguraha - BSPCB",20-04-2026 09:00:00,27.308328,84.531742,PM10,NA,NA,NA
India,Bihar,Manguraha,"Forest Rest House, Manguraha - BSPCB",20-04-2026 09:00:00,27.308328,84.531742,NO2,2,100,14
India,Bihar,Manguraha,"Forest Rest House, Manguraha - BSPCB",20-04-2026 09:00:00,27.308328,84.531742,SO2,15,17,16
India,Bihar,Munger,"Town Hall, Munger - BSPCB",20-04-2026 09:00:00,25.376776,86.471523,NH3,3,3,3
India,Assam,Guwahati,"LGBI Airport, Guwahati - PCBA",20-04-2026 09:00:00,26.10887,91.589544,NO2,11,33,17
India,Assam,Nagaon,"Christianpatty, Nagaon - PCBA",20-04-2026 09:00:00,26.349082,92.68449,PM2.5,NA,NA,NA
India,Assam,Nagaon,"Christianpatty, Nagaon - PCBA",20-04-2026 09:00:00,26.349082,92.68449,OZONE,NA,NA,NA
India,Assam,Nalbari,"Bata Chowk, Nalbari - PCBA",20-04-2026 09:00:00,26.446912,91.439057,NH3,NA,NA,NA
India,Assam,Nalbari,"Bata Chowk, Nalbari - PCBA",20-04-2026 09:00:00,26.446912,91.439057,SO2,NA,NA,NA
India,Assam,Silchar,"Tarapur, Silchar - PCBA",20-04-2026 09:00:00,24.82827,92.79525,NH3,1,1,1
India,Assam,Silchar,"Tarapur, Silchar - PCBA",20-04-2026 09:00:00,24.82827,92.79525,SO2,5,6,6
India,Andhra_Pradesh,Amaravati,"Secretariat, Amaravati - APPCB",20-04-2026 09:00:00,16.5150833,80.5181667,SO2,7,16,10
India,Andhra_Pradesh,Amaravati,"Secretariat, Amaravati - APPCB",20-04-2026 09:00:00,16.5150833,80.5181667,OZONE,11,68,16
India,Andhra_Pradesh,Anantapur,"Gulzarpet, Anantapur - APPCB",20-04-2026 09:00:00,14.675886,77.593027,PM2.5,49,124,64
India,Andhra_Pradesh,Anantapur,"Gulzarpet, Anantapur - APPCB",20-04-2026 09:00:00,14.675886,77.593027,CO,29,70,45
India,Andhra_Pradesh,Chittoor,"Gangineni Cheruvu, Chittoor - APPCB",20-04-2026 09:00:00,13.204880,79.097889,PM10,45,59,53
India,Bihar,Muzaffarpur,"Buddha Colony, Muzaffarpur - BSPCB",20-04-2026 09:00:00,26.11442,85.39813,OZONE,21,321,29
India,Bihar,Muzaffarpur,"MIT-Daudpur Kothi, Muzaffarpur - BSPCB",20-04-2026 09:00:00,26.1403345,85.3650192,SO2,9,25,15
India,Bihar,Muzaffarpur,"Muzaffarpur Collectorate, Muzaffarpur - BSPCB",20-04-2026 09:00:00,26.1209,85.3647,SO2,2,5,3
India,Bihar,Patna,"Govt. High School Shikarpur, Patna - BSPCB",20-04-2026 09:00:00,25.592539,85.227158,OZONE,18,89,29
India,Bihar,Bhagalpur,"Mayaganj, Bhagalpur - BSPCB",20-04-2026 09:00:00,25.265194,87.012947,OZONE,7,25,13
India,Bihar,Bihar Sharif,"D M Colony, Bihar Sharif - BSPCB",20-04-2026 09:00:00,25.204762,85.514960,SO2,10,10,10
India,Bihar,Buxar,"Charitra Van, Buxar - BSPCB",20-04-2026 09:00:00,25.567520,83.966379,OZONE,2,31,5
India,Bihar,Gaya,"SFTI Kusdihra, Gaya - BSPCB",20-04-2026 09:00:00,24.762518,84.982348,SO2,7,8,8
India,Bihar,Gaya,"SFTI Kusdihra, Gaya - BSPCB",20-04-2026 09:00:00,24.762518,84.982348,OZONE,5,59,9
India,Bihar,Patna,"Muradpur, Patna - BSPCB",20-04-2026 09:00:00,25.619651,85.147382,NO2,10,11,11
India,Bihar,Patna,"Rajbansi Nagar, Patna - BSPCB",20-04-2026 09:00:00,25.599486,85.113666,PM2.5,41,78,57
India,Bihar,Patna,"Rajbansi Nagar, Patna - BSPCB",20-04-2026 09:00:00,25.599486,85.113666,PM10,54,89,75
India,Bihar,Patna,"Samanpura, Patna - BSPCB",20-04-2026 09:00:00,25.596727,85.085624,NO2,13,20,17
India,Bihar,Patna,"Samanpura, Patna - BSPCB",20-04-2026 09:00:00,25.596727,85.085624,SO2,4,6,5
India,Bihar,Patna,"Samanpura, Patna - BSPCB",20-04-2026 09:00:00,25.596727,85.085624,CO,82,103,98
India,Bihar,Purnia,"Mariam Nagar, Purnia - BSPCB",20-04-2026 09:00:00,25.366336,87.117468,PM10,45,57,51
India,Bihar,Purnia,"Mariam Nagar, Purnia - BSPCB",20-04-2026 09:00:00,25.366336,87.117468,SO2,17,17,17
India,Bihar,Rajgir,"Dangi Tola, Rajgir - BSPCB",20-04-2026 09:00:00,25.03280,85.41948,OZONE,23,35,27
India,Delhi,Delhi,"CRRI Mathura Road, Delhi - IMD",20-04-2026 09:00:00,28.5512005,77.2735737,PM10,92,287,177
India,Delhi,Delhi,"CRRI Mathura Road, Delhi - IMD",20-04-2026 09:00:00,28.5512005,77.2735737,NO2,30,63,47
India,Delhi,Delhi,"Cantonment Area, Delhi - DPCC ",20-04-2026 09:00:00,28.594169 ,77.125100 ,PM2.5,21,76,43
India,Delhi,Delhi,"Commonwealth Sports Complex, Delhi - DPCC",20-04-2026 09:00:00,28.615828 ,77.271992 ,PM10,94,347,190
India,Delhi,Delhi,"Commonwealth Sports Complex, Delhi - DPCC",20-04-2026 09:00:00,28.615828 ,77.271992 ,NO2,7,118,49
India,Delhi,Delhi,"DTU, Delhi - CPCB",20-04-2026 09:00:00,28.7500499,77.1112615,SO2,24,34,28
India,Delhi,Delhi,"Dr. Karni Singh Shooting Range, Delhi - DPCC",20-04-2026 09:00:00,28.498571,77.264840,PM10,91,369,192
India,Chhattisgarh,Kunjemura,"OP Jindal School, Kunjemura - CECB",20-04-2026 09:00:00,22.126650,83.483212,OZONE,7,40,14
India,Chhattisgarh,Raipur,"AIIMS, Raipur - CECB",20-04-2026 09:00:00,21.258815,81.578979,NO2,29,40,34
India,Chhattisgarh,Raipur,"Bhatagaon New ISBT, Raipur - CECB",20-04-2026 09:00:00,21.219665,81.630094,PM2.5,21,42,32
India,Chhattisgarh,Raipur,"Bhatagaon New ISBT, Raipur - CECB",20-04-2026 09:00:00,21.219665,81.630094,PM10,29,76,51
India,Chhattisgarh,Raipur,"Krishak Nagar, Raipur - CECB",20-04-2026 09:00:00,21.237755,81.705301,SO2,NA,NA,NA
India,Chhattisgarh,Raipur,"Krishak Nagar, Raipur - CECB",20-04-2026 09:00:00,21.237755,81.705301,CO,NA,NA,NA
India,Delhi,Delhi,"Anand Vihar, Delhi - DPCC",20-04-2026 09:00:00,28.647622,77.3158090,PM2.5,3,401,195
India,Delhi,Delhi,"Anand Vihar, Delhi - DPCC",20-04-2026 09:00:00,28.647622,77.3158090,NH3,7,30,14
India,Delhi,Delhi,"Ashok Vihar, Delhi - DPCC",20-04-2026 09:00:00,28.695381,77.181665,OZONE,13,101,28
India,Delhi,Delhi,"Aya Nagar, Delhi - IMD",20-04-2026 09:00:00,28.4706914,77.1099364,NO2,15,122,53
India,Delhi,Delhi,"Burari Crossing, Delhi - IMD",20-04-2026 09:00:00,28.7256504,77.2011573,CO,22,59,42
India,Bihar,Saharsa,"Police Line, Saharsa - BSPCB",20-04-2026 09:00:00,25.892357,86.590325,PM2.5,17,73,40
India,Bihar,Saharsa,"Police Line, Saharsa - BSPCB",20-04-2026 09:00:00,25.892357,86.590325,NH3,4,4,4
India,Bihar,Samastipur,"DM Office_Kasipur, Samastipur - BSPCB",20-04-2026 09:00:00,25.859655,85.77944,NH3,1,1,1
India,Bihar,Samastipur,"DM Office_Kasipur, Samastipur - BSPCB",20-04-2026 09:00:00,25.859655,85.77944,OZONE,7,8,8
India,Bihar,Siwan,"Chitragupta Nagar, Siwan - BSPCB",20-04-2026 09:00:00,26.2271665,84.3570427,PM2.5,15,75,32
India,Delhi,Delhi,"Dr. Karni Singh Shooting Range, Delhi - DPCC",20-04-2026 09:00:00,28.498571,77.264840,OZONE,4,80,13
India,Delhi,Delhi,"Dwarka-Sector 8, Delhi - DPCC ",20-04-2026 09:00:00,28.5710274,77.0719006,PM10,102,500,302
India,Delhi,Delhi,"Dwarka-Sector 8, Delhi - DPCC ",20-04-2026 09:00:00,28.5710274,77.0719006,NH3,3,8,4
India,Delhi,Delhi,"Dwarka-Sector 8, Delhi - DPCC ",20-04-2026 09:00:00,28.5710274,77.0719006,SO2,16,87,36
India,Chhattisgarh,Bhilai,"Civic Center, Bhilai - Bhilai Steel Plant",20-04-2026 09:00:00,21.185571,81.343175,OZONE,12,26,15
India,Chhattisgarh,Bilaspur,"Mangala, Bilaspur - NTPC",20-04-2026 09:00:00,22.08815,82.13737,SO2,7,21,13
India,Chhattisgarh,Bhilai,"Hathkhoj, Bhilai - CECB",20-04-2026 09:00:00,21.224231,81.408350,CO,10,81,27
India,Delhi,Delhi,"IHBAS, Dilshad Garden, Delhi - CPCB",20-04-2026 09:00:00,28.6811736,77.3025234,SO2,3,51,19
India,Delhi,Delhi,"ITO, Delhi - CPCB",20-04-2026 09:00:00,28.628624,77.241060,NO2,34,66,47
India,Delhi,Delhi,"ITO, Delhi - CPCB",20-04-2026 09:00:00,28.628624,77.241060,NH3,4,5,4
India,Delhi,Delhi,"ITO, Delhi - CPCB",20-04-2026 09:00:00,28.628624,77.241060,SO2,16,33,25
India,Delhi,Delhi,"ITO, Delhi - CPCB",20-04-2026 09:00:00,28.628624,77.241060,CO,22,88,40
India,Delhi,Delhi,"JNU, Delhi - DPCC",20-04-2026 09:00:00,28.540721 ,77.168544 ,PM2.5,29,352,148
India,Delhi,Delhi,"Jahangirpuri, Delhi - DPCC",20-04-2026 09:00:00,28.732820,77.170633,PM10,121,449,267
India,Delhi,Delhi,"Jawaharlal Nehru Stadium, Delhi - DPCC",20-04-2026 09:00:00,28.580280,77.233829,PM2.5,22,391,136
India,Delhi,Delhi,"Jawaharlal Nehru Stadium, Delhi - DPCC",20-04-2026 09:00:00,28.580280,77.233829,NH3,14,18,15
India,Delhi,Delhi,"Lodhi Road, Delhi - IMD",20-04-2026 09:00:00,28.5918245,77.2273074,NO2,11,44,26
India,Delhi,Delhi,"Mandir Marg, Delhi - DPCC",20-04-2026 09:00:00,28.636429,77.201067,PM10,74,391,170
India,Delhi,Delhi,"Mundka, Delhi - DPCC",20-04-2026 09:00:00,28.684678,77.076574,PM2.5,30,463,198
India,Delhi,Delhi,"Mundka, Delhi - DPCC",20-04-2026 09:00:00,28.684678,77.076574,PM10,123,455,263
India,Delhi,Delhi,"NSIT Dwarka, Delhi - CPCB",20-04-2026 09:00:00,28.60909,77.0325413,NO2,39,130,87
India,Delhi,Delhi,"NSIT Dwarka, Delhi - CPCB",20-04-2026 09:00:00,28.60909,77.0325413,OZONE,18,74,23
India,Delhi,Delhi,"NSUT Jaffarpur, Delhi - DPCC",20-04-2026 09:00:00,28.594004 ,76.909423 ,PM2.5,9,378,178
India,Delhi,Delhi,"NSUT Jaffarpur, Delhi - DPCC",20-04-2026 09:00:00,28.594004 ,76.909423 ,PM10,64,375,194
India,Delhi,Delhi,"NSUT Jaffarpur, Delhi - DPCC",20-04-2026 09:00:00,28.594004 ,76.909423 ,NH3,6,10,7
India,Delhi,Delhi,"Patparganj, Delhi - DPCC",20-04-2026 09:00:00,28.623763,77.287209,CO,1,94,52
India,Delhi,Delhi,"Patparganj, Delhi - DPCC",20-04-2026 09:00:00,28.623763,77.287209,OZONE,2,92,13
India,Delhi,Delhi,"Punjabi Bagh, Delhi - DPCC",20-04-2026 09:00:00,28.674045,77.131023,PM10,101,414,210
India,Delhi,Delhi,"Pusa, Delhi - DPCC",20-04-2026 09:00:00,28.639652,77.146275,SO2,17,96,35
India,Delhi,Delhi,"Pusa, Delhi - IMD",20-04-2026 09:00:00,28.636110,77.173332,PM2.5,29,363,114
India,Delhi,Delhi,"Pusa, Delhi - IMD",20-04-2026 09:00:00,28.636110,77.173332,CO,64,116,100
India,Delhi,Delhi,"R K Puram, Delhi - DPCC",20-04-2026 09:00:00,28.563262,77.186937,CO,8,118,36
India,Delhi,Delhi,"Rohini, Delhi - DPCC",20-04-2026 09:00:00,28.732528,77.119920,NH3,10,13,11
India,Delhi,Delhi,"Najafgarh, Delhi - DPCC",20-04-2026 09:00:00,28.570173,76.933762,PM10,63,299,180
India,Delhi,Delhi,"Narela, Delhi - DPCC",20-04-2026 09:00:00,28.822836,77.101981,PM2.5,33,438,177
India,Delhi,Delhi,"Narela, Delhi - DPCC",20-04-2026 09:00:00,28.822836,77.101981,NH3,7,10,9
India,Delhi,Delhi,"Nehru Nagar, Delhi - DPCC",20-04-2026 09:00:00,28.567890,77.250515,PM10,100,334,184
India,Delhi,Delhi,"Okhla Phase-2, Delhi - DPCC",20-04-2026 09:00:00,28.530785,77.271255,NH3,8,24,16
India,Delhi,Delhi,"Okhla Phase-2, Delhi - DPCC",20-04-2026 09:00:00,28.530785,77.271255,SO2,1,81,25
India,Delhi,Delhi,"Patparganj, Delhi - DPCC",20-04-2026 09:00:00,28.623763,77.287209,PM2.5,28,382,135
India,Delhi,Delhi,"Patparganj, Delhi - DPCC",20-04-2026 09:00:00,28.623763,77.287209,NH3,8,20,11
India,Delhi,Delhi,"Vivek Vihar, Delhi - DPCC",20-04-2026 09:00:00,28.672342,77.315260,PM2.5,25,398,159
India,Delhi,Delhi,"Vivek Vihar, Delhi - DPCC",20-04-2026 09:00:00,28.672342,77.315260,PM10,101,401,199
India,Delhi,Delhi,"Vivek Vihar, Delhi - DPCC",20-04-2026 09:00:00,28.672342,77.315260,SO2,16,62,30
India,Delhi,Delhi,"Wazirpur, Delhi - DPCC",20-04-2026 09:00:00,28.699793,77.165453,NO2,62,155,94
India,Delhi,Delhi,"Wazirpur, Delhi - DPCC",20-04-2026 09:00:00,28.699793,77.165453,CO,36,106,48
India,Gujarat,Ahmedabad,"Chandkheda, Ahmedabad - IITM",20-04-2026 09:00:00,23.107969,72.574648,PM10,86,357,131
India,Gujarat,Ahmedabad,"Chandkheda, Ahmedabad - IITM",20-04-2026 09:00:00,23.107969,72.574648,CO,2,38,21
India,Gujarat,Ahmedabad,"Chandkheda, Ahmedabad - IITM",20-04-2026 09:00:00,23.107969,72.574648,OZONE,6,77,17
India,Gujarat,Ahmedabad,"Rakhial, Ahmedabad - IITM",20-04-2026 09:00:00,23.016834,72.625775,PM10,79,181,117
India,Gujarat,Ahmedabad,"Rakhial, Ahmedabad - IITM",20-04-2026 09:00:00,23.016834,72.625775,SO2,1,59,20
India,Gujarat,Ahmedabad,"Raikhad, Ahmedabad - IITM",20-04-2026 09:00:00,23.020509,72.579261,PM2.5,39,100,63
India,Gujarat,Ahmedabad,"Raikhad, Ahmedabad - IITM",20-04-2026 09:00:00,23.020509,72.579261,PM10,78,500,178
India,Delhi,Delhi,"Dwarka-Sector 8, Delhi - DPCC ",20-04-2026 09:00:00,28.5710274,77.0719006,OZONE,12,60,16
India,Delhi,Delhi,"Sirifort, Delhi - CPCB",20-04-2026 09:00:00,28.5504249,77.2159377,OZONE,12,30,12
India,Haryana,Faridabad,"Sector 11, Faridabad - HSPCB",20-04-2026 09:00:00,28.376058,77.315741,NO2,30,33,31
India,Haryana,Faridabad,"Sector 11, Faridabad - HSPCB",20-04-2026 09:00:00,28.376058,77.315741,NH3,10,10,10
India,Haryana,Faridabad,"Sector 11, Faridabad - HSPCB",20-04-2026 09:00:00,28.376058,77.315741,SO2,1,4,3
India,Haryana,Faridabad,"Sector 30, Faridabad - HSPCB",20-04-2026 09:00:00,28.4417,77.3217,CO,NA,NA,NA
India,Haryana,Faridabad,"Sector 30, Faridabad - HSPCB",20-04-2026 09:00:00,28.4417,77.3217,OZONE,NA,NA,NA
India,Haryana,Gurugram,"NISE Gwal Pahari, Gurugram - IMD",20-04-2026 09:00:00,28.422681,77.148944,PM2.5,21,334,128
India,Haryana,Gurugram,"Sector-51, Gurugram - HSPCB",20-04-2026 09:00:00,28.4227,77.0667,PM2.5,112,431,308
India,Haryana,Gurugram,"Sector-51, Gurugram - HSPCB",20-04-2026 09:00:00,28.4227,77.0667,NO2,4,10,6
India,Haryana,Gurugram,"Sector-51, Gurugram - HSPCB",20-04-2026 09:00:00,28.4227,77.0667,NH3,6,10,8
India,Haryana,Gurugram,"Sector-51, Gurugram - HSPCB",20-04-2026 09:00:00,28.4227,77.0667,SO2,2,10,6
India,Haryana,Gurugram,"Sector-51, Gurugram - HSPCB",20-04-2026 09:00:00,28.4227,77.0667,OZONE,7,34,10
India,Haryana,Gurugram,"Teri Gram, Gurugram - HSPCB",20-04-2026 09:00:00,28.4275,77.1465,NO2,37,77,53
India,Haryana,Hisar,"Urban Estate-II, Hisar - HSPCB",20-04-2026 09:00:00,29.140560,75.744941,PM2.5,29,76,59
India,Gujarat,Bhavnagar,"Vidhyanagar, Bhavnagar - Nexteng Enviro",20-04-2026 09:00:00,21.755417,72.139056,PM10,79,178,123
India,Gujarat,Gandhinagar,"GIFT City, Gandhinagar - IITM",20-04-2026 09:00:00,23.163798,72.677768,NH3,4,9,6
India,Gujarat,Gandhinagar,"GIFT City, Gandhinagar - IITM",20-04-2026 09:00:00,23.163798,72.677768,OZONE,3,80,11
India,Gujarat,Gandhinagar,"IIPHG Lekawada, Gandhinagar - IITM",20-04-2026 09:00:00,23.243639,72.68994,SO2,3,23,7
India,Gujarat,Gandhinagar,"Sector-10, Gandhinagar - GPCB",20-04-2026 09:00:00,23.221714,72.654328,PM10,56,118,87
India,Gujarat,Gandhinagar,"Sector-10, Gandhinagar - GPCB",20-04-2026 09:00:00,23.221714,72.654328,OZONE,5,34,7
India,Gujarat,Mehsana,"Sadanand Nagar, Mehsana - Nexteng Enviro",20-04-2026 09:00:00,23.593150,72.372792,PM2.5,50,180,108
India,Gujarat,Mehsana,"Sadanand Nagar, Mehsana - Nexteng Enviro",20-04-2026 09:00:00,23.593150,72.372792,NH3,2,4,3
India,Gujarat,Mehsana,"Sadanand Nagar, Mehsana - Nexteng Enviro",20-04-2026 09:00:00,23.593150,72.372792,SO2,6,18,10
India,Gujarat,Surat,"Katargam, Surat - Nexteng Enviro",20-04-2026 09:00:00,21.217779 ,72.834787 ,NO2,6,29,14
India,Gujarat,Surat,"Katargam, Surat - Nexteng Enviro",20-04-2026 09:00:00,21.217779 ,72.834787 ,SO2,5,12,8
India,Gujarat,Vadodara,"Bapunagar, Vadodara - Nexteng Enviro",20-04-2026 09:00:00,22.320153,73.216285,PM2.5,54,168,116
India,Gujarat,Vadodara,"Bapunagar, Vadodara - Nexteng Enviro",20-04-2026 09:00:00,22.320153,73.216285,PM10,77,145,119
India,Gujarat,Vadodara,"Bapunagar, Vadodara - Nexteng Enviro",20-04-2026 09:00:00,22.320153,73.216285,CO,74,100,88
India,Gujarat,Vapi,"Phase-1 GIDC, Vapi - GPCB",20-04-2026 09:00:00,20.362421,72.918013,PM2.5,NA,NA,NA
India,Haryana,Ambala,"Patti Mehar, Ambala - HSPCB",20-04-2026 09:00:00,30.379589,76.778328,PM2.5,4,41,15
India,Haryana,Bhiwani,"H.B. Colony, Bhiwani - HSPCB",20-04-2026 09:00:00,28.806223,76.141105,NH3,NA,NA,NA
India,Haryana,Bhiwani,"H.B. Colony, Bhiwani - HSPCB",20-04-2026 09:00:00,28.806223,76.141105,CO,NA,NA,NA
India,Haryana,Charkhi Dadri,"Mini Secretariat, Charkhi Dadri - HSPCB",20-04-2026 09:00:00,28.593883,76.270653,NH3,5,8,6
India,Haryana,Charkhi Dadri,"Mini Secretariat, Charkhi Dadri - HSPCB",20-04-2026 09:00:00,28.593883,76.270653,SO2,10,12,11
India,Haryana,Charkhi Dadri,"Mini Secretariat, Charkhi Dadri - HSPCB",20-04-2026 09:00:00,28.593883,76.270653,OZONE,14,18,16
India,Haryana,Dharuhera,"Municipal Corporation Office, Dharuhera -  HSPCB",20-04-2026 09:00:00,28.206800,76.799700,PM2.5,63,248,125
India,Gujarat,Ahmedabad,"SAC ISRO Bopal, Ahmedabad - IITM",20-04-2026 09:00:00,23.041137,72.456691,PM10,41,99,64
India,Gujarat,Ahmedabad,"SVPI Airport Hansol, Ahmedabad - IITM",20-04-2026 09:00:00,23.076793,72.627874,PM2.5,28,91,51
India,Gujarat,Ahmedabad,"SVPI Airport Hansol, Ahmedabad - IITM",20-04-2026 09:00:00,23.076793,72.627874,NO2,9,87,36
India,Gujarat,Ahmedabad,"SVPI Airport Hansol, Ahmedabad - IITM",20-04-2026 09:00:00,23.076793,72.627874,SO2,5,56,17
India,Gujarat,Ankleshwar,"GIDC, Ankleshwar - GPCB",20-04-2026 09:00:00,21.613267,73.010555,NH3,5,5,5
India,Haryana,Ambala,"Patti Mehar, Ambala - HSPCB",20-04-2026 09:00:00,30.379589,76.778328,NO2,8,12,10
India,Haryana,Bahadurgarh,"Arya Nagar, Bahadurgarh - HSPCB",20-04-2026 09:00:00,28.6701,76.9254,PM2.5,120,168,151
India,Haryana,Bahadurgarh,"Arya Nagar, Bahadurgarh - HSPCB",20-04-2026 09:00:00,28.6701,76.9254,PM10,103,123,116
India,Haryana,Bahadurgarh,"Arya Nagar, Bahadurgarh - HSPCB",20-04-2026 09:00:00,28.6701,76.9254,SO2,6,7,6
India,Haryana,Dharuhera,"Municipal Corporation Office, Dharuhera -  HSPCB",20-04-2026 09:00:00,28.206800,76.799700,NO2,14,50,37
India,Haryana,Dharuhera,"Municipal Corporation Office, Dharuhera -  HSPCB",20-04-2026 09:00:00,28.206800,76.799700,NH3,9,26,19
India,Haryana,Faridabad,"New Industrial Town, Faridabad - HSPCB",20-04-2026 09:00:00,28.39072,77.30059,PM10,84,94,89
India,Haryana,Faridabad,"New Industrial Town, Faridabad - HSPCB",20-04-2026 09:00:00,28.39072,77.30059,NH3,11,12,11
India,Gujarat,Ahmedabad,"SAC ISRO Bopal, Ahmedabad - IITM",20-04-2026 09:00:00,23.041137,72.456691,PM2.5,35,90,58
India,Haryana,Rohtak,"MD University, Rohtak - HSPCB",20-04-2026 09:00:00,28.52123,76.37138,PM10,80,147,117
India,Haryana,Rohtak,"MD University, Rohtak - HSPCB",20-04-2026 09:00:00,28.52123,76.37138,CO,30,40,36
India,Haryana,Rohtak,"MD University, Rohtak - HSPCB",20-04-2026 09:00:00,28.52123,76.37138,OZONE,39,40,40
India,Haryana,Sirsa,"F-Block, Sirsa - HSPCB",20-04-2026 09:00:00,29.536400,75.015800,PM10,55,107,87
India,Haryana,Sonipat,"Murthal, Sonipat - HSPCB",20-04-2026 09:00:00,29.027200,77.062100,NO2,12,13,12
India,Haryana,Yamuna Nagar,"Gobind Pura, Yamuna Nagar - HSPCB",20-04-2026 09:00:00,30.1480566,77.2893471,NH3,1,6,4
India,Himachal Pradesh,Baddi,"HIMUDA Complex Phase-1, Baddi - HPPCB",20-04-2026 09:00:00,30.943887,76.801991,PM2.5,67,412,162
India,Himachal Pradesh,Baddi,"HIMUDA Complex Phase-1, Baddi - HPPCB",20-04-2026 09:00:00,30.943887,76.801991,PM10,113,500,199
India,Himachal Pradesh,Baddi,"HIMUDA Complex Phase-1, Baddi - HPPCB",20-04-2026 09:00:00,30.943887,76.801991,NH3,2,4,3
India,Jammu_and_Kashmir,Srinagar,"Khunmoh, Srinagar - JKPCC",20-04-2026 09:00:00,34.06313,74.96017,NO2,5,20,9
India,Jammu_and_Kashmir,Srinagar,"Rajbagh, Srinagar - JKPCC",20-04-2026 09:00:00,34.066206,74.819820,PM2.5,13,30,18
India,Jammu_and_Kashmir,Srinagar,"Rajbagh, Srinagar - JKPCC",20-04-2026 09:00:00,34.066206,74.819820,SO2,3,4,3
India,Jharkhand,Dhanbad,"Sardar Patel Nagar, Dhanbad - JSPCB",20-04-2026 09:00:00,23.80569,86.44268,NO2,NA,NA,NA
India,Jharkhand,Dhanbad,"Sardar Patel Nagar, Dhanbad - JSPCB",20-04-2026 09:00:00,23.80569,86.44268,OZONE,11,280,68
India,Jharkhand,Jorapokhar,"Tata Stadium, Jorapokhar - JSPCB",20-04-2026 09:00:00,23.707909,86.414670,PM10,32,150,91
India,Jharkhand,Jorapokhar,"Tata Stadium, Jorapokhar - JSPCB",20-04-2026 09:00:00,23.707909,86.414670,CO,38,40,39
India,Karnataka,Bagalkot,"Vidayagiri, Bagalkot - KSPCB",20-04-2026 09:00:00,16.172806,75.659694,PM2.5,34,36,35
India,Karnataka,Bagalkot,"Vidayagiri, Bagalkot - KSPCB",20-04-2026 09:00:00,16.172806,75.659694,OZONE,11,13,12
India,Karnataka,Bengaluru,"BTM Layout, Bengaluru - CPCB",20-04-2026 09:00:00,12.9135218,77.5950804,NH3,4,4,4
India,Karnataka,Bengaluru,"BWSSB Kadabesanahalli, Bengaluru - CPCB",20-04-2026 09:00:00,12.9352049,77.6814488,NO2,5,27,15
India,Haryana,Jind,"Police Lines, Jind - HSPCB",20-04-2026 09:00:00,29.307814,76.337619,NO2,33,45,37
India,Haryana,Jind,"Police Lines, Jind - HSPCB",20-04-2026 09:00:00,29.307814,76.337619,SO2,1,5,2
India,Haryana,Jind,"Police Lines, Jind - HSPCB",20-04-2026 09:00:00,29.307814,76.337619,OZONE,18,45,21
India,Haryana,Kaithal,"Rishi Nagar, Kaithal - HSPCB",20-04-2026 09:00:00,29.8006,76.4155,PM10,1,189,83
India,Haryana,Kaithal,"Rishi Nagar, Kaithal - HSPCB",20-04-2026 09:00:00,29.8006,76.4155,NH3,2,6,6
India,Haryana,Kurukshetra,"Sector-7, Kurukshetra - HSPCB",20-04-2026 09:00:00,29.966942,76.875879,CO,2,24,10
India,Haryana,Mandikhera,"General Hospital, Mandikhera(Nuh) - HSPCB",20-04-2026 09:00:00,27.9002,76.9938,PM2.5,38,165,74
India,Haryana,Mandikhera,"General Hospital, Mandikhera(Nuh) - HSPCB",20-04-2026 09:00:00,27.9002,76.9938,SO2,31,37,34
India,Haryana,Mandikhera,"General Hospital, Mandikhera(Nuh) - HSPCB",20-04-2026 09:00:00,27.9002,76.9938,CO,21,35,28
India,Karnataka,Madikeri,"Stuart Hill, Madikeri - KSPCB",20-04-2026 09:00:00,12.415911,75.735050,CO,8,24,15
India,Karnataka,Mysuru,"Hebbal 1st Stage, Mysuru - KSPCB",20-04-2026 09:00:00,12.21041,76.37376,NO2,15,21,17
India,Karnataka,Mysuru,"Hebbal 1st Stage, Mysuru - KSPCB",20-04-2026 09:00:00,12.21041,76.37376,SO2,2,5,3
India,Karnataka,Ramanagara,"Vijay Nagar, Ramanagara - KSPCB",20-04-2026 09:00:00,12.733409,77.298051,SO2,16,28,22
India,Karnataka,Ramanagara,"Vijay Nagar, Ramanagara - KSPCB",20-04-2026 09:00:00,12.733409,77.298051,CO,10,52,24
India,Karnataka,Ramanagara,"Vijay Nagar, Ramanagara - KSPCB",20-04-2026 09:00:00,12.733409,77.298051,OZONE,16,64,29
India,Karnataka,Tumakuru,"Thimmalapura, Tumakuru - KSPCB",20-04-2026 09:00:00,13.377516,77.099072,PM10,NA,NA,NA
India,Karnataka,Bengaluru,"Kasturi Nagar, Bengaluru - KSPCB",20-04-2026 09:00:00,13.003872,77.664217,PM2.5,62,64,63
India,Karnataka,Bengaluru,"Kasturi Nagar, Bengaluru - KSPCB",20-04-2026 09:00:00,13.003872,77.664217,PM10,92,94,93
India,Karnataka,Bengaluru,"Kasturi Nagar, Bengaluru - KSPCB",20-04-2026 09:00:00,13.003872,77.664217,NH3,4,4,4
India,Karnataka,Bengaluru,"RVCE-Mailasandra, Bengaluru - KSPCB",20-04-2026 09:00:00,12.921418,77.502466,PM10,13,129,96
India,Karnataka,Bengaluru,"Silk Board, Bengaluru - KSPCB",20-04-2026 09:00:00,12.917348,77.622813,SO2,8,13,10
India,Karnataka,Chamarajanagar,"Urban, Chamarajanagar - KSPCB",20-04-2026 09:00:00,11.55358,76.55521,NO2,14,30,16
India,Karnataka,Chamarajanagar,"Urban, Chamarajanagar - KSPCB",20-04-2026 09:00:00,11.55358,76.55521,CO,12,24,19
India,Karnataka,Chikkaballapur,"Chikkaballapur Rural, Chikkaballapur - KSPCB",20-04-2026 09:00:00,13.428828,77.731418,PM10,50,121,79
India,Karnataka,Chikkaballapur,"Chikkaballapur Rural, Chikkaballapur - KSPCB",20-04-2026 09:00:00,13.428828,77.731418,NO2,4,8,5
