country,state,city,station,last_update,latitude,longitude,pollutant_id,min_value,max_value,avg_value
India,Andhra_Pradesh,Tirupati,"Vaikuntapuram, Tirupati - APPCB",29-09-2025 07:00:00,13.615387,79.409230,CO,2,21,3
India,Andhra_Pradesh,Visakhapatnam,"GVM Corporation, Visakhapatnam - APPCB",29-09-2025 07:00:00,17.72,83.3,PM10,NA,NA,NA
India,Arunachal_Pradesh,Naharlagun,"Naharlagun, Naharlagun - APSPCB",29-09-2025 07:00:00,27.103358,93.679645,PM2.5,12,61,38
India,Arunachal_Pradesh,Naharlagun,"Naharlagun, Naharlagun - APSPCB",29-09-2025 07:00:00,27.103358,93.679645,OZONE,5,5,5
India,Assam,Guwahati,"Railway Colony, Guwahati - PCBA",29-09-2025 07:00:00,26.181742,91.78063,PM10,24,190,87
India,Assam,Nagaon,"Christianpatty, Nagaon - PCBA",29-09-2025 07:00:00,26.349082,92.68449,NO2,1,5,1
India,Assam,Nagaon,"Christianpatty, Nagaon - PCBA",29-09-2025 07:00:00,26.349082,92.68449,OZONE,5,14,10
India,Assam,Nalbari,"Bata Chowk, Nalbari - PCBA",29-09-2025 07:00:00,26.446912,91.439057,PM10,24,61,38
India,Assam,Guwahati,"IITG, Guwahati - PCBA",29-09-2025 07:00:00,26.2028636,91.70046436,SO2,22,26,24
India,Assam,Guwahati,"LGBI Airport, Guwahati - PCBA",29-09-2025 07:00:00,26.10887,91.589544,PM2.5,28,330,87
India,Andhra_Pradesh,Tirumala,"Toll Gate, Tirumala - APPCB",29-09-2025 07:00:00,13.67,79.35,NH3,1,2,1
India,Andhra_Pradesh,Tirumala,"Toll Gate, Tirumala - APPCB",29-09-2025 07:00:00,13.67,79.35,SO2,1,4,2
India,Andhra_Pradesh,Tirumala,"Toll Gate, Tirumala - APPCB",29-09-2025 07:00:00,13.67,79.35,CO,6,108,11
India,Andhra_Pradesh,Tirupati,"Vaikuntapuram, Tirupati - APPCB",29-09-2025 07:00:00,13.615387,79.409230,NO2,6,8,7
India,Andhra_Pradesh,Tirupati,"Vaikuntapuram, Tirupati - APPCB",29-09-2025 07:00:00,13.615387,79.409230,SO2,21,21,21
India,Andhra_Pradesh,Kadapa,"Yerramukkapalli, Kadapa - APPCB",29-09-2025 07:00:00,14.465052,78.824187,PM2.5,55,65,60
India,Andhra_Pradesh,Anantapur,"Gulzarpet, Anantapur - APPCB",29-09-2025 07:00:00,14.675886,77.593027,PM2.5,47,68,55
India,Andhra_Pradesh,Anantapur,"Gulzarpet, Anantapur - APPCB",29-09-2025 07:00:00,14.675886,77.593027,OZONE,8,15,10
India,Andhra_Pradesh,Tirumala,"Toll Gate, Tirumala - APPCB",29-09-2025 07:00:00,13.67,79.35,PM2.5,8,41,23
India,Assam,Nalbari,"Bata Chowk, Nalbari - PCBA",29-09-2025 07:00:00,26.446912,91.439057,OZONE,2,70,24
India,Assam,Silchar,"Tarapur, Silchar - PCBA",29-09-2025 07:00:00,24.82827,92.79525,NO2,16,20,18
India,Assam,Silchar,"Tarapur, Silchar - PCBA",29-09-2025 07:00:00,24.82827,92.79525,SO2,5,5,5
India,Assam,Sivasagar,"Girls College, Sivasagar - PCBA",29-09-2025 07:00:00,26.987634,94.636574,PM2.5,18,53,32
India,Assam,Sivasagar,"Girls College, Sivasagar - PCBA",29-09-2025 07:00:00,26.987634,94.636574,SO2,7,11,9
India,Bihar,Begusarai,"Lohiyanagar, Begusarai - BSPCB",29-09-2025 07:00:00,25.42742023,86.13886079,SO2,24,37,28
India,Bihar,Begusarai,"Lohiyanagar, Begusarai - BSPCB",29-09-2025 07:00:00,25.42742023,86.13886079,CO,35,70,45
India,Bihar,Bettiah,"Kamalnath Nagar, Bettiah - BSPCB",29-09-2025 07:00:00,26.80365,84.51954,PM10,NA,NA,NA
India,Bihar,Bettiah,"Kamalnath Nagar, Bettiah - BSPCB",29-09-2025 07:00:00,26.80365,84.51954,NO2,6,12,8
India,Bihar,Bettiah,"Kamalnath Nagar, Bettiah - BSPCB",29-09-2025 07:00:00,26.80365,84.51954,SO2,6,17,12
India,Bihar,Bhagalpur,"Mayaganj, Bhagalpur - BSPCB",29-09-2025 07:00:00,25.265194,87.012947,SO2,49,73,55
India,Bihar,Bihar Sharif,"D M Colony, Bihar Sharif - BSPCB",29-09-2025 07:00:00,25.204762,85.514960,PM2.5,48,80,57
India,Bihar,Gaya,"Kareemganj, Gaya - BSPCB",29-09-2025 07:00:00,24.792403,84.992416,PM10,64,143,98
India,Bihar,Gaya,"Kareemganj, Gaya - BSPCB",29-09-2025 07:00:00,24.792403,84.992416,OZONE,3,58,14
India,Bihar,Katihar,"Mirchaibari, Katihar - BSPCB",29-09-2025 07:00:00,25.560083,87.553265,NH3,1,1,1
India,Bihar,Buxar,"Charitra Van, Buxar - BSPCB",29-09-2025 07:00:00,25.567520,83.966379,SO2,1,12,6
India,Bihar,Chhapra,"Darshan Nagar, Chhapra - BSPCB",29-09-2025 07:00:00,25.7808257,84.7446768,PM2.5,28,340,129
India,Bihar,Kishanganj,"SDM Office_Khagra, Kishanganj - BSPCB",29-09-2025 07:00:00,26.0881305,87.93840336,NO2,6,8,7
India,Bihar,Manguraha,"Forest Rest House, Manguraha - BSPCB",29-09-2025 07:00:00,27.308328,84.531742,NO2,3,6,4
India,Bihar,Chhapra,"Darshan Nagar, Chhapra - BSPCB",29-09-2025 07:00:00,25.7808257,84.7446768,PM10,34,294,115
India,Bihar,Chhapra,"Darshan Nagar, Chhapra - BSPCB",29-09-2025 07:00:00,25.7808257,84.7446768,NH3,3,3,3
India,Bihar,Manguraha,"Forest Rest House, Manguraha - BSPCB",29-09-2025 07:00:00,27.308328,84.531742,SO2,16,17,17
India,Bihar,Buxar,"Charitra Van, Buxar - BSPCB",29-09-2025 07:00:00,25.567520,83.966379,NH3,3,3,3
India,Chhattisgarh,Chhal,"Nawapara SECL Colony, Chhal - CECB",29-09-2025 07:00:00,22.118125,83.140608,PM10,38,65,55
India,Chhattisgarh,Korba,"Rampur, Korba - CECB",29-09-2025 07:00:00,22.368195,82.746431,SO2,5,12,8
India,Chhattisgarh,Korba,"Rampur, Korba - CECB",29-09-2025 07:00:00,22.368195,82.746431,CO,11,16,15
India,Chhattisgarh,Korba,"Urja Nagar, Korba - CECB",29-09-2025 07:00:00,22.348441,82.549611,PM10,25,25,25
India,Chhattisgarh,Milupara,"Govt. Higher Secondary School, Milupara - CECB",29-09-2025 07:00:00,22.1910172,83.5197009,NO2,NA,NA,NA
India,Bihar,Rajgir,"Dangi Tola, Rajgir - BSPCB",29-09-2025 07:00:00,25.03280,85.41948,PM2.5,100,104,102
India,Bihar,Saharsa,"Police Line, Saharsa - BSPCB",29-09-2025 07:00:00,25.892357,86.590325,NO2,6,8,7
India,Bihar,Samastipur,"DM Office_Kasipur, Samastipur - BSPCB",29-09-2025 07:00:00,25.859655,85.77944,PM10,NA,NA,NA
India,Bihar,Siwan,"Chitragupta Nagar, Siwan - BSPCB",29-09-2025 07:00:00,26.2271665,84.3570427,NH3,1,1,1
India,Chandigarh,Chandigarh,"Sector 22, Chandigarh - CPCC",29-09-2025 07:00:00,30.735567,76.775714,PM10,25,119,83
India,Chandigarh,Chandigarh,"Sector 22, Chandigarh - CPCC",29-09-2025 07:00:00,30.735567,76.775714,NH3,40,62,48
India,Chandigarh,Chandigarh,"Sector-25, Chandigarh - CPCC",29-09-2025 07:00:00,30.751462,76.762879,NH3,5,7,6
India,Chandigarh,Chandigarh,"Sector-25, Chandigarh - CPCC",29-09-2025 07:00:00,30.751462,76.762879,CO,20,44,32
India,Chandigarh,Chandigarh,"Sector-53, Chandigarh - CPCC",29-09-2025 07:00:00,30.719859,76.738637,PM2.5,NA,NA,NA
India,Chandigarh,Chandigarh,"Sector-53, Chandigarh - CPCC",29-09-2025 07:00:00,30.719859,76.738637,NO2,14,152,70
India,Bihar,Patna,"DRM Office Danapur, Patna - BSPCB",29-09-2025 07:00:00,25.586562,85.043586,OZONE,NA,NA,NA
India,Bihar,Patna,"Govt. High School Shikarpur, Patna - BSPCB",29-09-2025 07:00:00,25.592539,85.227158,PM10,36,85,48
India,Bihar,Patna,"Govt. High School Shikarpur, Patna - BSPCB",29-09-2025 07:00:00,25.592539,85.227158,NO2,14,19,16
India,Bihar,Patna,"Govt. High School Shikarpur, Patna - BSPCB",29-09-2025 07:00:00,25.592539,85.227158,NH3,4,5,4
India,Chhattisgarh,Bhilai,"Civic Center, Bhilai - Bhilai Steel Plant",29-09-2025 07:00:00,21.185571,81.343175,CO,NA,NA,NA
India,Chhattisgarh,Bhilai,"Civic Center, Bhilai - Bhilai Steel Plant",29-09-2025 07:00:00,21.185571,81.343175,OZONE,NA,NA,NA
India,Chhattisgarh,Bhilai,"Hathkhoj, Bhilai - CECB",29-09-2025 07:00:00,21.224231,81.408350,PM10,8,39,19
India,Chhattisgarh,Bhilai,"Hathkhoj, Bhilai - CECB",29-09-2025 07:00:00,21.224231,81.408350,NO2,7,30,15
India,Chhattisgarh,Bhilai,"32Bungalows, Bhilai - CECB",29-09-2025 07:00:00,21.194815,81.314770,NO2,1,35,7
India,Chhattisgarh,Bhilai,"Civic Center, Bhilai - Bhilai Steel Plant",29-09-2025 07:00:00,21.185571,81.343175,PM2.5,NA,NA,NA
India,Chhattisgarh,Bhilai,"Civic Center, Bhilai - Bhilai Steel Plant",29-09-2025 07:00:00,21.185571,81.343175,NO2,NA,NA,NA
India,Bihar,Motihari,"Gandak Colony, Motihari - BSPCB",29-09-2025 07:00:00,26.63086,84.90051,SO2,2,3,3
India,Bihar,Motihari,"Gandak Colony, Motihari - BSPCB",29-09-2025 07:00:00,26.63086,84.90051,CO,26,32,27
India,Bihar,Muzaffarpur,"Buddha Colony, Muzaffarpur - BSPCB",29-09-2025 07:00:00,26.11442,85.39813,SO2,3,5,4
India,Bihar,Siwan,"Chitragupta Nagar, Siwan - BSPCB",29-09-2025 07:00:00,26.2271665,84.3570427,SO2,1,4,3
India,Delhi,Delhi,"Chandni Chowk, Delhi - IITM",29-09-2025 07:00:00,28.656756,77.227234,PM10,43,117,83
India,Delhi,Delhi,"Chandni Chowk, Delhi - IITM",29-09-2025 07:00:00,28.656756,77.227234,NH3,7,19,11
India,Delhi,Delhi,"Chandni Chowk, Delhi - IITM",29-09-2025 07:00:00,28.656756,77.227234,SO2,3,31,16
India,Delhi,Delhi,"Chandni Chowk, Delhi - IITM",29-09-2025 07:00:00,28.656756,77.227234,OZONE,9,62,15
India,Delhi,Delhi,"DTU, Delhi - CPCB",29-09-2025 07:00:00,28.7500499,77.1112615,PM2.5,20,70,37
India,Delhi,Delhi,"DTU, Delhi - CPCB",29-09-2025 07:00:00,28.7500499,77.1112615,PM10,52,117,76
India,Delhi,Delhi,"DTU, Delhi - CPCB",29-09-2025 07:00:00,28.7500499,77.1112615,CO,12,42,31
India,Delhi,Delhi,"DTU, Delhi - CPCB",29-09-2025 07:00:00,28.7500499,77.1112615,OZONE,13,33,21
India,Delhi,Delhi,"ITO, Delhi - CPCB",29-09-2025 07:00:00,28.628624,77.241060,PM2.5,27,88,57
India,Delhi,Delhi,"ITO, Delhi - CPCB",29-09-2025 07:00:00,28.628624,77.241060,PM10,46,103,74
India,Delhi,Delhi,"Jawaharlal Nehru Stadium, Delhi - DPCC",29-09-2025 07:00:00,28.580280,77.233829,OZONE,NA,NA,NA
India,Delhi,Delhi,"Lodhi Road, Delhi - IITM",29-09-2025 07:00:00,28.588333,77.221667,PM2.5,24,75,45
India,Delhi,Delhi,"Lodhi Road, Delhi - IITM",29-09-2025 07:00:00,28.588333,77.221667,PM10,50,108,75
India,Delhi,Delhi,"Lodhi Road, Delhi - IITM",29-09-2025 07:00:00,28.588333,77.221667,NO2,24,83,40
India,Chhattisgarh,Milupara,"Govt. Higher Secondary School, Milupara - CECB",29-09-2025 07:00:00,22.1910172,83.5197009,CO,NA,NA,NA
India,Chhattisgarh,Raipur,"AIIMS, Raipur - CECB",29-09-2025 07:00:00,21.258815,81.578979,PM10,8,37,18
India,Chhattisgarh,Raipur,"Bhatagaon New ISBT, Raipur - CECB",29-09-2025 07:00:00,21.219665,81.630094,NO2,7,24,12
India,Chhattisgarh,Raipur,"Bhatagaon New ISBT, Raipur - CECB",29-09-2025 07:00:00,21.219665,81.630094,SO2,5,6,5
India,Delhi,Delhi,"IGI Airport (T3), Delhi - IMD",29-09-2025 07:00:00,28.5627763,77.1180053,PM2.5,33,79,57
India,Delhi,Delhi,"IGI Airport (T3), Delhi - IMD",29-09-2025 07:00:00,28.5627763,77.1180053,NO2,30,140,70
India,Delhi,Delhi,"IGI Airport (T3), Delhi - IMD",29-09-2025 07:00:00,28.5627763,77.1180053,OZONE,1,2,2
India,Delhi,Delhi,"IHBAS, Dilshad Garden, Delhi - CPCB",29-09-2025 07:00:00,28.6811736,77.3025234,NO2,34,56,47
India,Chhattisgarh,Raipur,"Siltara Phase-II, Raipur - CECB",29-09-2025 07:00:00,21.371751,81.664929,OZONE,6,13,8
India,Chhattisgarh,Tumidih,"OP Jindal Industrial Park, Tumidih - CECB",29-09-2025 07:00:00,22.06631475,83.33820077,NH3,1,2,2
India,Chhattisgarh,Tumidih,"OP Jindal Industrial Park, Tumidih - CECB",29-09-2025 07:00:00,22.06631475,83.33820077,OZONE,4,29,5
India,Delhi,Delhi,"Ashok Vihar, Delhi - DPCC",29-09-2025 07:00:00,28.695381,77.181665,SO2,8,21,13
India,Delhi,Delhi,"Aya Nagar, Delhi - IMD",29-09-2025 07:00:00,28.4706914,77.1099364,PM10,45,128,96
India,Delhi,Delhi,"Aya Nagar, Delhi - IMD",29-09-2025 07:00:00,28.4706914,77.1099364,OZONE,16,75,20
India,Delhi,Delhi,"Lodhi Road, Delhi - IMD",29-09-2025 07:00:00,28.5918245,77.2273074,CO,13,42,33
India,Delhi,Delhi,"Major Dhyan Chand National Stadium, Delhi - DPCC",29-09-2025 07:00:00,28.611281,77.237738,NO2,11,80,42
India,Delhi,Delhi,"Alipur, Delhi - DPCC",29-09-2025 07:00:00,28.815329,77.153010,PM2.5,27,250,91
India,Delhi,Delhi,"Anand Vihar, Delhi - DPCC",29-09-2025 07:00:00,28.647622,77.3158090,PM2.5,2,147,60
India,Chhattisgarh,Raipur,"Krishak Nagar, Raipur - CECB",29-09-2025 07:00:00,21.237755,81.705301,PM2.5,4,23,14
India,Delhi,Delhi,"NSIT Dwarka, Delhi - CPCB",29-09-2025 07:00:00,28.60909,77.0325413,PM2.5,14,72,37
India,Delhi,Delhi,"Najafgarh, Delhi - DPCC",29-09-2025 07:00:00,28.570173,76.933762,PM10,57,119,89
India,Delhi,Delhi,"Najafgarh, Delhi - DPCC",29-09-2025 07:00:00,28.570173,76.933762,OZONE,4,30,7
India,Delhi,Delhi,"North Campus, DU, Delhi - IMD",29-09-2025 07:00:00,28.6573814,77.1585447,PM2.5,31,90,51
India,Delhi,Delhi,"North Campus, DU, Delhi - IMD",29-09-2025 07:00:00,28.6573814,77.1585447,PM10,52,104,76
India,Delhi,Delhi,"Okhla Phase-2, Delhi - DPCC",29-09-2025 07:00:00,28.530785,77.271255,PM2.5,13,110,54
India,Delhi,Delhi,"Nehru Nagar, Delhi - DPCC",29-09-2025 07:00:00,28.567890,77.250515,PM2.5,15,120,57
India,Delhi,Delhi,"Nehru Nagar, Delhi - DPCC",29-09-2025 07:00:00,28.567890,77.250515,PM10,51,174,93
India,Delhi,Delhi,"Mandir Marg, Delhi - DPCC",29-09-2025 07:00:00,28.636429,77.201067,SO2,1,30,15
India,Delhi,Delhi,"Mandir Marg, Delhi - DPCC",29-09-2025 07:00:00,28.636429,77.201067,CO,6,44,34
India,Delhi,Delhi,"Mandir Marg, Delhi - DPCC",29-09-2025 07:00:00,28.636429,77.201067,OZONE,9,93,16
India,Delhi,Delhi,"Nehru Nagar, Delhi - DPCC",29-09-2025 07:00:00,28.567890,77.250515,OZONE,2,89,8
India,Delhi,Delhi,"Patparganj, Delhi - DPCC",29-09-2025 07:00:00,28.623763,77.287209,NH3,6,8,6
India,Delhi,Delhi,"Mundka, Delhi - DPCC",29-09-2025 07:00:00,28.684678,77.076574,NO2,16,53,33
India,Delhi,Delhi,"Narela, Delhi - DPCC",29-09-2025 07:00:00,28.822836,77.101981,NH3,15,18,16
India,Delhi,Delhi,"Sonia Vihar, Delhi - DPCC",29-09-2025 07:00:00,28.710508,77.249485,SO2,23,41,28
India,Delhi,Delhi,"Sri Aurobindo Marg, Delhi - DPCC",29-09-2025 07:00:00,28.531346,77.190156,NH3,3,7,5
India,Delhi,Delhi,"Wazirpur, Delhi - DPCC",29-09-2025 07:00:00,28.699793,77.165453,CO,18,60,20
India,Gujarat,Ahmedabad,"Chandkheda, Ahmedabad - IITM",29-09-2025 07:00:00,23.107969,72.574648,SO2,3,12,6
India,Gujarat,Ahmedabad,"SAC ISRO Satellite, Ahmedabad - IITM",29-09-2025 07:00:00,23.023389,72.515201,SO2,2,9,5
India,Gujarat,Ahmedabad,"SAC ISRO Satellite, Ahmedabad - IITM",29-09-2025 07:00:00,23.023389,72.515201,OZONE,1,28,3
India,Gujarat,Ahmedabad,"SVPI Airport Hansol, Ahmedabad - IITM",29-09-2025 07:00:00,23.076793,72.627874,OZONE,7,46,10
India,Gujarat,Ankleshwar,"GIDC, Ankleshwar - GPCB",29-09-2025 07:00:00,21.613267,73.010555,PM2.5,31,68,53
India,Delhi,Delhi,"Shadipur, Delhi - CPCB",29-09-2025 07:00:00,28.6514781,77.1473105,PM10,47,102,76
India,Delhi,Delhi,"Sirifort, Delhi - CPCB",29-09-2025 07:00:00,28.5504249,77.2159377,NO2,10,57,36
India,Delhi,Delhi,"Sirifort, Delhi - CPCB",29-09-2025 07:00:00,28.5504249,77.2159377,NH3,9,12,11
India,Delhi,Delhi,"Sonia Vihar, Delhi - DPCC",29-09-2025 07:00:00,28.710508,77.249485,PM2.5,23,83,51
India,Gujarat,Ahmedabad,"Rakhial, Ahmedabad - IITM",29-09-2025 07:00:00,23.016834,72.625775,CO,24,28,26
India,Gujarat,Ahmedabad,"SAC ISRO Bopal, Ahmedabad - IITM",29-09-2025 07:00:00,23.041137,72.456691,PM2.5,10,68,38
India,Gujarat,Ahmedabad,"SAC ISRO Bopal, Ahmedabad - IITM",29-09-2025 07:00:00,23.041137,72.456691,SO2,1,2,1
India,Delhi,Delhi,"R K Puram, Delhi - DPCC",29-09-2025 07:00:00,28.563262,77.186937,OZONE,18,81,23
India,Delhi,Delhi,"Rohini, Delhi - DPCC",29-09-2025 07:00:00,28.732528,77.119920,PM10,75,274,133
India,Delhi,Delhi,"Rohini, Delhi - DPCC",29-09-2025 07:00:00,28.732528,77.119920,OZONE,4,46,6
India,Gujarat,Ahmedabad,"Gyaspur, Ahmedabad - IITM",29-09-2025 07:00:00,22.977134,72.553024,NO2,34,110,51
India,Gujarat,Ahmedabad,"Rakhial, Ahmedabad - IITM",29-09-2025 07:00:00,23.016834,72.625775,PM2.5,13,77,39
India,Gujarat,Ahmedabad,"Rakhial, Ahmedabad - IITM",29-09-2025 07:00:00,23.016834,72.625775,NO2,5,22,13
India,Delhi,Delhi,"Punjabi Bagh, Delhi - DPCC",29-09-2025 07:00:00,28.674045,77.131023,NO2,21,49,33
India,Delhi,Delhi,"Punjabi Bagh, Delhi - DPCC",29-09-2025 07:00:00,28.674045,77.131023,NH3,2,4,3
India,Delhi,Delhi,"R K Puram, Delhi - DPCC",29-09-2025 07:00:00,28.563262,77.186937,PM2.5,30,147,70
India,Delhi,Delhi,"R K Puram, Delhi - DPCC",29-09-2025 07:00:00,28.563262,77.186937,SO2,NA,NA,NA
India,Delhi,Delhi,"Pusa, Delhi - DPCC",29-09-2025 07:00:00,28.639652,77.146275,CO,28,55,43
India,Haryana,Faridabad,"Sector 30, Faridabad - HSPCB",29-09-2025 07:00:00,28.4417,77.3217,OZONE,17,19,18
India,Haryana,Narnaul,"Shastri Nagar, Narnaul - HSPCB",29-09-2025 07:00:00,28.060249,76.113115,NO2,24,87,47
India,Haryana,Narnaul,"Shastri Nagar, Narnaul - HSPCB",29-09-2025 07:00:00,28.060249,76.113115,CO,20,36,29
India,Haryana,Narnaul,"Shastri Nagar, Narnaul - HSPCB",29-09-2025 07:00:00,28.060249,76.113115,OZONE,12,22,13
India,Haryana,Panchgaon,"Amity University, Panchgaon - IITM",29-09-2025 07:00:00,28.3153,76.9143,PM2.5,19,61,40
India,Haryana,Panchgaon,"Amity University, Panchgaon - IITM",29-09-2025 07:00:00,28.3153,76.9143,NO2,2,10,6
India,Himachal Pradesh,Baddi,"HIMUDA Complex Phase-1, Baddi - HPPCB",29-09-2025 07:00:00,30.943887,76.801991,NH3,8,11,9
India,Himachal Pradesh,Baddi,"HIMUDA Complex Phase-1, Baddi - HPPCB",29-09-2025 07:00:00,30.943887,76.801991,CO,48,82,54
India,Jammu_and_Kashmir,Srinagar,"Rajbagh, Srinagar - JKSPCB",29-09-2025 07:00:00,34.066206,74.819820,SO2,3,4,3
India,Gujarat,Gandhinagar,"Sector-10, Gandhinagar - GPCB",29-09-2025 07:00:00,23.221714,72.654328,PM2.5,15,50,32
India,Gujarat,Vatva,"Phase-4 GIDC, Vatva - GPCB",29-09-2025 07:00:00,22.969611,72.643500,PM10,25,80,52
India,Gujarat,Vatva,"Phase-4 GIDC, Vatva - GPCB",29-09-2025 07:00:00,22.969611,72.643500,NO2,6,16,10
India,Haryana,Bahadurgarh,"Arya Nagar, Bahadurgarh - HSPCB",29-09-2025 07:00:00,28.6701,76.9254,NH3,NA,NA,NA
India,Haryana,Bhiwani,"H.B. Colony, Bhiwani - HSPCB",29-09-2025 07:00:00,28.806223,76.141105,PM2.5,8,51,34
India,Haryana,Bhiwani,"H.B. Colony, Bhiwani - HSPCB",29-09-2025 07:00:00,28.806223,76.141105,NO2,32,35,33
India,Haryana,Bhiwani,"H.B. Colony, Bhiwani - HSPCB",29-09-2025 07:00:00,28.806223,76.141105,NH3,8,8,8
India,Karnataka,Bengaluru,"City Railway Station, Bengaluru - KSPCB",29-09-2025 07:00:00,12.9756843,77.5660749,PM10,84,100,90
India,Karnataka,Bengaluru,"City Railway Station, Bengaluru - KSPCB",29-09-2025 07:00:00,12.9756843,77.5660749,CO,60,62,60
India,Karnataka,Bengaluru,"Hombegowda Nagar, Bengaluru - KSPCB",29-09-2025 07:00:00,12.938539,77.590100,SO2,1,16,9
India,Karnataka,Bengaluru,"Jayanagar 5th Block, Bengaluru - KSPCB",29-09-2025 07:00:00,12.920984,77.584908,PM2.5,NA,NA,NA
India,Haryana,Faridabad,"New Industrial Town, Faridabad - HSPCB",29-09-2025 07:00:00,28.39072,77.30059,OZONE,27,33,30
India,Haryana,Faridabad,"Sector 11, Faridabad - HSPCB",29-09-2025 07:00:00,28.376058,77.315741,PM2.5,6,37,25
India,Haryana,Faridabad,"Sector 11, Faridabad - HSPCB",29-09-2025 07:00:00,28.376058,77.315741,NH3,6,6,6
India,Karnataka,Bagalkot,"Vidayagiri, Bagalkot - KSPCB",29-09-2025 07:00:00,16.172806,75.659694,SO2,7,7,7
India,Karnataka,Bengaluru,"Bapuji Nagar, Bengaluru - KSPCB",29-09-2025 07:00:00,12.951913,77.539784,PM2.5,19,44,27
India,Karnataka,Bengaluru,"Bapuji Nagar, Bengaluru - KSPCB",29-09-2025 07:00:00,12.951913,77.539784,NO2,4,8,6
India,Karnataka,Bengaluru,"Jayanagar 5th Block, Bengaluru - KSPCB",29-09-2025 07:00:00,12.920984,77.584908,OZONE,1,25,16
India,Karnataka,Bengaluru,"Shivapura_Peenya, Bengaluru - KSPCB",29-09-2025 07:00:00,13.0246342,77.5080115,NO2,24,25,24
India,Jharkhand,Jorapokhar,"Tata Stadium, Jorapokhar - JSPCB",29-09-2025 07:00:00,23.707909,86.414670,OZONE,NA,NA,NA
India,Gujarat,Gandhinagar,"GIFT City, Gandhinagar - IITM",29-09-2025 07:00:00,23.163798,72.677768,CO,40,64,52
India,Gujarat,Ankleshwar,"GIDC, Ankleshwar - GPCB",29-09-2025 07:00:00,21.613267,73.010555,OZONE,49,59,52
India,Karnataka,Karwar,"KHB Colony, Karwar - KSPCB",29-09-2025 07:00:00,14.816666,74.141003,CO,NA,NA,NA
India,Karnataka,Mysuru,"Hebbal 1st Stage, Mysuru - KSPCB",29-09-2025 07:00:00,12.21041,76.37376,SO2,1,19,9
India,Karnataka,Mysuru,"Hebbal 1st Stage, Mysuru - KSPCB",29-09-2025 07:00:00,12.21041,76.37376,CO,2,14,8
India,Karnataka,Shivamogga,"Vinoba Nagara, Shivamogga - KSPCB",29-09-2025 07:00:00,13.940000,75.555917,PM2.5,16,25,22
India,Karnataka,Yadgir,"Collector Office, Yadgir - KSPCB",29-09-2025 07:00:00,16.7602,77.1428,PM2.5,NA,NA,NA
India,Karnataka,Bengaluru,"Silk Board, Bengaluru - KSPCB",29-09-2025 07:00:00,12.917348,77.622813,SO2,9,10,9
India,Karnataka,Bengaluru,"Silk Board, Bengaluru - KSPCB",29-09-2025 07:00:00,12.917348,77.622813,CO,30,44,35
India,Karnataka,Bengaluru,"Silk Board, Bengaluru - KSPCB",29-09-2025 07:00:00,12.917348,77.622813,OZONE,15,16,16
India,Karnataka,Chamarajanagar,"Urban, Chamarajanagar - KSPCB",29-09-2025 07:00:00,11.55358,76.55521,SO2,3,5,4
India,Karnataka,Chikkamagaluru,"Kalyana Nagara, Chikkamagaluru - KSPCB",29-09-2025 07:00:00,13.328028,75.797056,OZONE,13,26,25
India,Kerala,Eloor,"Udyogamandal, Eloor - Kerala PCB",29-09-2025 07:00:00,10.073232,76.302765,SO2,1,1,1
India,Kerala,Kannur,"Thavakkara, Kannur - Kerala PCB",29-09-2025 07:00:00,11.875000,75.373200,NH3,NA,NA,NA
India,Kerala,Thiruvananthapuram,"Kariavattom, Thiruvananthapuram - Kerala PCB",29-09-2025 07:00:00,8.563700,76.886500,PM10,45,50,47
India,Karnataka,Kalaburagi,"Mahatma Basaveswar Colony, Kalaburgi - KSPCB",29-09-2025 07:00:00,17.336318,76.847397,PM10,34,46,41
India,Karnataka,Kalaburagi,"Mahatma Basaveswar Colony, Kalaburgi - KSPCB",29-09-2025 07:00:00,17.336318,76.847397,NO2,9,14,10
India,Karnataka,Karwar,"KHB Colony, Karwar - KSPCB",29-09-2025 07:00:00,14.816666,74.141003,PM2.5,NA,NA,NA
India,Karnataka,Karwar,"KHB Colony, Karwar - KSPCB",29-09-2025 07:00:00,14.816666,74.141003,SO2,NA,NA,NA
India,Madhya Pradesh,Damoh,"Shrivastav Colony, Damoh - MPPCB",29-09-2025 07:00:00,23.81748678,79.446246,PM10,12,74,29
India,Madhya Pradesh,Damoh,"Shrivastav Colony, Damoh - MPPCB",29-09-2025 07:00:00,23.81748678,79.446246,SO2,25,30,29
India,Madhya Pradesh,Dewas,"Bhopal Chauraha, Dewas - MPPCB",29-09-2025 07:00:00,22.9682591,76.064118,NH3,3,3,3
India,Madhya Pradesh,Bhopal,"Idgah Hills, Bhopal - MPPCB",29-09-2025 07:00:00,23.264759,77.381568,OZONE,14,30,16
India,Madhya Pradesh,Bhopal,"Paryavaran Parisar, Bhopal - MPPCB",29-09-2025 07:00:00,23.210494,77.425409,CO,16,29,20
India,Madhya Pradesh,Bhopal,"T T Nagar, Bhopal - MPPCB",29-09-2025 07:00:00,23.233584,77.400574,CO,24,98,43
India,Karnataka,Bengaluru,"Shivapura_Peenya, Bengaluru - KSPCB",29-09-2025 07:00:00,13.0246342,77.5080115,CO,25,34,28
India,Karnataka,Bengaluru,"Silk Board, Bengaluru - KSPCB",29-09-2025 07:00:00,12.917348,77.622813,NH3,1,1,1
India,Kerala,Thiruvananthapuram,"Plammoodu, Thiruvananthapuram - Kerala PCB",29-09-2025 07:00:00,8.5149093,76.9435879,NH3,9,12,10
India,Madhya Pradesh,Gwalior,"City Center, Gwalior - MPPCB",29-09-2025 07:00:00,26.203442,78.193251,NO2,10,10,10
India,Madhya Pradesh,Indore,"Regional Park, Indore - IMC",29-09-2025 07:00:00,22.6780,75.8559,CO,15,19,16
India,Madhya Pradesh,Indore,"Residency Area, Indore - IMC",29-09-2025 07:00:00,22.7084,75.8815,SO2,21,49,31
India,Madhya Pradesh,Jabalpur,"Govindh Bhavan Colony, Jabalpur - JMC",29-09-2025 07:00:00,23.163174,79.973061,NO2,19,36,26
India,Madhya Pradesh,Jabalpur,"Govindh Bhavan Colony, Jabalpur - JMC",29-09-2025 07:00:00,23.163174,79.973061,OZONE,6,40,10
India,Madhya Pradesh,Maihar,"Sahilara, Maihar - KJS Cements",29-09-2025 07:00:00,24.2613009,80.7231783,PM2.5,NA,NA,NA
India,Madhya Pradesh,Mandideep,"Sector-D Industrial Area, Mandideep - MPPCB",29-09-2025 07:00:00,23.108440,77.511428,PM2.5,37,290,77
India,Madhya Pradesh,Mandideep,"Sector-D Industrial Area, Mandideep - MPPCB",29-09-2025 07:00:00,23.108440,77.511428,CO,16,46,18
India,Madhya Pradesh,Mandideep,"Sector-D Industrial Area, Mandideep - MPPCB",29-09-2025 07:00:00,23.108440,77.511428,OZONE,16,48,19
India,Madhya Pradesh,Pithampur,"Sector-2 Industrial Area, Pithampur - MPPCB",29-09-2025 07:00:00,22.624758,75.675238,OZONE,23,42,32
India,Madhya Pradesh,Ratlam,"Shasthri Nagar, Ratlam - IPCA Lab",29-09-2025 07:00:00,23.331731,75.045981,NO2,32,35,34
India,Madhya Pradesh,Pithampur,"Sector-2 Industrial Area, Pithampur - MPPCB",29-09-2025 07:00:00,22.624758,75.675238,NO2,5,17,8
India,Madhya Pradesh,Pithampur,"Sector-2 Industrial Area, Pithampur - MPPCB",29-09-2025 07:00:00,22.624758,75.675238,NH3,4,5,5
India,Madhya Pradesh,Pithampur,"Sector-2 Industrial Area, Pithampur - MPPCB",29-09-2025 07:00:00,22.624758,75.675238,CO,17,34,19
India,Madhya Pradesh,Gwalior,"Deen Dayal Nagar, Gwalior - MPPCB",29-09-2025 07:00:00,26.259242,78.216432,NO2,8,53,25
India,Madhya Pradesh,Gwalior,"Maharaj Bada, Gwalior - MPPCB",29-09-2025 07:00:00,26.200388,78.147714,NH3,2,2,2
India,Madhya Pradesh,Jabalpur,"Suhagi, Jabalpur - JMC",29-09-2025 07:00:00,23.218135,79.957770,NO2,28,52,38
India,Madhya Pradesh,Jabalpur,"Suhagi, Jabalpur - JMC",29-09-2025 07:00:00,23.218135,79.957770,NH3,2,2,2
India,Madhya Pradesh,Jabalpur,"Suhagi, Jabalpur - JMC",29-09-2025 07:00:00,23.218135,79.957770,SO2,6,11,9
India,Madhya Pradesh,Jabalpur,"Gupteshwar, Jabalpur - JMC",29-09-2025 07:00:00,23.142888,79.916147,PM10,NA,NA,NA
India,Madhya Pradesh,Jabalpur,"Gupteshwar, Jabalpur - JMC",29-09-2025 07:00:00,23.142888,79.916147,NO2,NA,NA,NA
India,Madhya Pradesh,Indore,"Chhoti Gwaltoli, Indore - MPPCB",29-09-2025 07:00:00,22.4310,75.5213,PM2.5,16,59,34
India,Madhya Pradesh,Gwalior,"City Center, Gwalior - MPPCB",29-09-2025 07:00:00,26.203442,78.193251,CO,11,51,35
India,Maharashtra,Akola,"Ramdaspeth, Akola - MPCB",29-09-2025 07:00:00,20.719516,77.000253,NH3,6,11,8
India,Maharashtra,Amravati,"Shivneri Colony, Amravati - MPCB",29-09-2025 07:00:00,20.9402359,77.7895248,PM2.5,5,35,16
India,Maharashtra,Amravati,"Shivneri Colony, Amravati - MPCB",29-09-2025 07:00:00,20.9402359,77.7895248,NO2,5,6,5
India,Maharashtra,Amravati,"Shivneri Colony, Amravati - MPCB",29-09-2025 07:00:00,20.9402359,77.7895248,CO,12,16,12
India,Maharashtra,Amravati,"Shivneri Colony, Amravati - MPCB",29-09-2025 07:00:00,20.9402359,77.7895248,OZONE,10,29,19
India,Maharashtra,Aurangabad,"More Chowk Waluj, Aurangabad - MPCB",29-09-2025 07:00:00,19.8389439,75.244448,OZONE,25,31,28
India,Maharashtra,Bhiwandi,"Gokul Nagar, Bhiwandi - MPCB",29-09-2025 07:00:00,19.309073,73.057223,PM10,25,47,34
India,Maharashtra,Bhiwandi,"Gokul Nagar, Bhiwandi - MPCB",29-09-2025 07:00:00,19.309073,73.057223,NO2,13,28,21
India,Maharashtra,Boisar,"Khaira, Boisar - MPCB",29-09-2025 07:00:00,19.786089,72.757971,OZONE,30,31,30
India,Maharashtra,Chandrapur,"Chauhan Colony, Chandrapur - MPCB",29-09-2025 07:00:00,19.962900,79.298714,OZONE,23,23,23
India,Maharashtra,Chandrapur,"MIDC Khutala, Chandrapur - MPCB",29-09-2025 07:00:00,19.9775302,79.2337086,PM10,13,107,50
India,Maharashtra,Kolhapur,"Shivaji University, Kolhapur - MPCB",29-09-2025 07:00:00,16.6870449,74.2505872,OZONE,5,51,11
India,Maharashtra,Kolhapur,"Sinchan Bhavan, Kolhapur - MPCB",29-09-2025 07:00:00,16.7143745,74.2426398,PM10,24,75,42
India,Maharashtra,Kolhapur,"Sinchan Bhavan, Kolhapur - MPCB",29-09-2025 07:00:00,16.7143745,74.2426398,NO2,NA,NA,NA
India,Maharashtra,Kolhapur,"Sinchan Bhavan, Kolhapur - MPCB",29-09-2025 07:00:00,16.7143745,74.2426398,SO2,1,2,1
India,Maharashtra,Jalgaon,"Prabhat Colony, Jalgaon - MPCB",29-09-2025 07:00:00,21.001264,75.565602,PM2.5,12,112,42
India,Maharashtra,Jalgaon,"Prabhat Colony, Jalgaon - MPCB",29-09-2025 07:00:00,21.001264,75.565602,PM10,13,105,43
India,Maharashtra,Jalgaon,"Prabhat Colony, Jalgaon - MPCB",29-09-2025 07:00:00,21.001264,75.565602,NO2,3,7,5
India,Maharashtra,Jalna,"Old MIDC, Jalna - MPCB",29-09-2025 07:00:00,19.854616,75.905894,PM2.5,NA,NA,NA
India,Maharashtra,Ahmednagar,"Tarakpur, Ahmednagar - MPCB",29-09-2025 07:00:00,19.10122,74.73339,CO,3,55,16
India,Maharashtra,Ahmednagar,"Tarakpur, Ahmednagar - MPCB",29-09-2025 07:00:00,19.10122,74.73339,OZONE,18,58,25
India,Maharashtra,Kolhapur,"Shivaji University, Kolhapur - MPCB",29-09-2025 07:00:00,16.6870449,74.2505872,NO2,4,42,18
India,Maharashtra,Aurangabad,"Rachnakar Colony, Aurangabad - MPCB",29-09-2025 07:00:00,19.863756,75.321188,NH3,2,5,4
India,Madhya Pradesh,Sagar,"Civil Lines, Sagar - MPPCB",29-09-2025 07:00:00,23.838586,78.759431,OZONE,14,27,21
India,Maharashtra,Belapur,"CBD Belapur, Belapur - MPCB",29-09-2025 07:00:00,19.0243902,73.0406721,NH3,3,4,4
India,Maharashtra,Mumbai,"Borivali East, Mumbai - MPCB",29-09-2025 07:00:00,19.2243333,72.8658113,SO2,4,4,4
India,Maharashtra,Mumbai,"Byculla, Mumbai - BMC",29-09-2025 07:00:00,18.9767,72.8380,OZONE,32,58,40
India,Maharashtra,Mumbai,"Chakala-Andheri East, Mumbai - IITM",29-09-2025 07:00:00,19.11074,72.86084,PM10,12,46,28
India,Maharashtra,Mumbai,"Chakala-Andheri East, Mumbai - IITM",29-09-2025 07:00:00,19.11074,72.86084,CO,2,32,25
India,Maharashtra,Mumbai,"Chembur, Mumbai - MPCB",29-09-2025 07:00:00,19.0364585,72.8954371,PM2.5,19,40,30
India,Maharashtra,Mumbai,"Chembur, Mumbai - MPCB",29-09-2025 07:00:00,19.0364585,72.8954371,CO,16,21,17
India,Maharashtra,Mumbai,"Chhatrapati Shivaji Intl. Airport (T2), Mumbai - MPCB",29-09-2025 07:00:00,19.10078,72.87462,OZONE,7,8,7
India,Maharashtra,Mumbai,"Mazgaon, Mumbai - IITM",29-09-2025 07:00:00,18.96702,72.84214,SO2,5,12,9
India,Maharashtra,Mumbai,"Mindspace-Malad West, Mumbai - MPCB",29-09-2025 07:00:00,19.1878657,72.8304069,CO,30,30,30
India,Maharashtra,Mumbai,"Mindspace-Malad West, Mumbai - MPCB",29-09-2025 07:00:00,19.1878657,72.8304069,OZONE,29,31,30
India,Maharashtra,Mumbai,"Mulund West, Mumbai - MPCB",29-09-2025 07:00:00,19.1750,72.9419,PM2.5,NA,NA,NA
India,Maharashtra,Mumbai,"Navy Nagar-Colaba, Mumbai - IITM",29-09-2025 07:00:00,18.897756,72.813320,PM2.5,26,70,51
India,Maharashtra,Mumbai,"Navy Nagar-Colaba, Mumbai - IITM",29-09-2025 07:00:00,18.897756,72.813320,PM10,45,66,55
India,Maharashtra,Mumbai,"Navy Nagar-Colaba, Mumbai - IITM",29-09-2025 07:00:00,18.897756,72.813320,OZONE,27,39,36
India,Maharashtra,Latur,"Sawe Wadi, Latur - MPCB",29-09-2025 07:00:00,18.39963,76.57452,PM2.5,6,24,13
India,Maharashtra,Latur,"Sawe Wadi, Latur - MPCB",29-09-2025 07:00:00,18.39963,76.57452,PM10,8,26,18
India,Maharashtra,Latur,"Sawe Wadi, Latur - MPCB",29-09-2025 07:00:00,18.39963,76.57452,NO2,4,31,13
India,Maharashtra,Malegaon,"Mahesh Nagar, Malegaon - MPCB",29-09-2025 07:00:00,20.555712,74.529236,PM2.5,NA,NA,NA
India,Maharashtra,Mumbai,"Colaba, Mumbai - MPCB",29-09-2025 07:00:00,18.910000,72.820000,CO,23,24,23
India,Maharashtra,Mumbai,"Deonar, Mumbai - IITM",29-09-2025 07:00:00,19.04946,72.9230,PM2.5,4,44,19
India,Maharashtra,Mumbai,"Deonar, Mumbai - IITM",29-09-2025 07:00:00,19.04946,72.9230,PM10,25,65,49
India,Maharashtra,Mumbai,"Deonar, Mumbai - IITM",29-09-2025 07:00:00,19.04946,72.9230,SO2,6,9,7
India,Maharashtra,Mumbai,"Khindipada-Bhandup West, Mumbai - IITM",29-09-2025 07:00:00,19.1653323,72.922099,NO2,3,9,6
India,Maharashtra,Mumbai,"Kurla, Mumbai - MPCB",29-09-2025 07:00:00,19.0863,72.8888,NH3,1,1,1
India,Maharashtra,Mumbai,"Kurla, Mumbai - MPCB",29-09-2025 07:00:00,19.0863,72.8888,SO2,36,37,37
India,Maharashtra,Mumbai,"Bandra Kurla Complex, Mumbai - MPCB",29-09-2025 07:00:00,19.065931,72.862131,CO,6,12,9
India,Maharashtra,Mumbai,"Borivali East, Mumbai - IITM",29-09-2025 07:00:00,19.23241,72.86895,CO,44,77,49
India,Maharashtra,Mira-Bhayandar,"Bhayandar West, Mira-Bhayandar - MPCB",29-09-2025 07:00:00,19.296481,72.840923,PM10,1,9,3
India,Maharashtra,Mumbai,"Kherwadi_Bandra East, Mumbai - MPCB",29-09-2025 07:00:00,19.0632143,72.8456324,CO,12,16,12
India,Maharashtra,Mumbai,"Ghatkopar, Mumbai - BMC",29-09-2025 07:00:00,19.083694,72.920967,OZONE,1,1,1
India,Maharashtra,Mumbai,"Sion, Mumbai - MPCB",29-09-2025 07:00:00,19.047000,72.874600,NH3,1,2,2
India,Maharashtra,Mumbai,"Sion, Mumbai - MPCB",29-09-2025 07:00:00,19.047000,72.874600,CO,18,20,20
India,Maharashtra,Mumbai,"Sion, Mumbai - MPCB",29-09-2025 07:00:00,19.047000,72.874600,OZONE,15,16,16
India,Maharashtra,Mumbai,"Vasai West, Mumbai - MPCB",29-09-2025 07:00:00,19.383200,72.820400,PM2.5,13,32,22
India,Maharashtra,Mumbai,"Vasai West, Mumbai - MPCB",29-09-2025 07:00:00,19.383200,72.820400,NH3,2,5,4
India,Maharashtra,Mumbai,"Vasai West, Mumbai - MPCB",29-09-2025 07:00:00,19.383200,72.820400,SO2,8,102,12
India,Maharashtra,Mumbai,"Vasai West, Mumbai - MPCB",29-09-2025 07:00:00,19.383200,72.820400,CO,47,57,56
India,Maharashtra,Mumbai,"Shivaji Nagar, Mumbai - BMC",29-09-2025 07:00:00,19.060498,72.923356,NH3,2,3,3
India,Maharashtra,Mumbai,"Shivaji Nagar, Mumbai - BMC",29-09-2025 07:00:00,19.060498,72.923356,CO,2,32,23
India,Maharashtra,Mumbai,"Siddharth Nagar-Worli, Mumbai - IITM",29-09-2025 07:00:00,19.000083,72.813993,CO,2,2,2
India,Maharashtra,Mumbai,"Sion, Mumbai - MPCB",29-09-2025 07:00:00,19.047000,72.874600,NO2,12,15,13
India,Maharashtra,Nagpur,"Opp GPO Civil Lines, Nagpur - MPCB",29-09-2025 07:00:00,21.152875,79.0517531,SO2,4,7,5
India,Maharashtra,Nagpur,"Opp GPO Civil Lines, Nagpur - MPCB",29-09-2025 07:00:00,21.152875,79.0517531,OZONE,4,18,6
India,Maharashtra,Nanded,"Sneh Nagar, Nanded - MPCB",29-09-2025 07:00:00,19.173852,77.296291,NH3,3,5,4
India,Maharashtra,Mumbai,"Vile Parle West, Mumbai - MPCB",29-09-2025 07:00:00,19.10861,72.83622,SO2,11,59,31
India,Maharashtra,Mumbai,"Worli, Mumbai - MPCB",29-09-2025 07:00:00,18.9936162,72.8128113,NH3,2,8,4
India,Maharashtra,Nashik,"Hirawadi, Nashik - MPCB",29-09-2025 07:00:00,20.021503,73.813844,OZONE,22,70,36
India,Maharashtra,Nashik,"MIDC Ambad, Nashik - MPCB",29-09-2025 07:00:00,19.950220,73.731480,PM2.5,14,56,33
India,Maharashtra,Nagpur,"Mahal, Nagpur - MPCB",29-09-2025 07:00:00,21.14472,79.107595,CO,15,78,26
India,Maharashtra,Nagpur,"Mahal, Nagpur - MPCB",29-09-2025 07:00:00,21.14472,79.107595,OZONE,1,11,2
India,Maharashtra,Nagpur,"Opp GPO Civil Lines, Nagpur - MPCB",29-09-2025 07:00:00,21.152875,79.0517531,PM2.5,14,51,27
India,Maharashtra,Nashik,"Hirawadi, Nashik - MPCB",29-09-2025 07:00:00,20.021503,73.813844,PM2.5,5,25,11
India,Maharashtra,Nashik,"Hirawadi, Nashik - MPCB",29-09-2025 07:00:00,20.021503,73.813844,SO2,1,14,3
India,Maharashtra,Navi Mumbai,"Tondare-Taloja, Navi Mumbai - MPCB",29-09-2025 07:00:00,19.0630,73.1209,SO2,3,4,4
India,Maharashtra,Navi Mumbai,"Tondare-Taloja, Navi Mumbai - MPCB",29-09-2025 07:00:00,19.0630,73.1209,OZONE,7,9,8
India,Maharashtra,Parbhani,"Masoom Colony, Parbhani - MPCB",29-09-2025 07:00:00,19.265594,76.761463,PM10,NA,NA,NA
India,Maharashtra,Parbhani,"Masoom Colony, Parbhani - MPCB",29-09-2025 07:00:00,19.265594,76.761463,NO2,8,17,12
India,Maharashtra,Parbhani,"Masoom Colony, Parbhani - MPCB",29-09-2025 07:00:00,19.265594,76.761463,SO2,2,25,10
India,Maharashtra,Pimpri-Chinchwad,"Gavalinagar, Pimpri Chinchwad - MPCB",29-09-2025 07:00:00,18.63673,73.82487,PM10,17,39,27
India,Maharashtra,Navi Mumbai,"Kopripada-Vashi, Navi Mumbai - MPCB",29-09-2025 07:00:00,19.090337,73.014232,PM2.5,9,27,19
India,Maharashtra,Navi Mumbai,"Kopripada-Vashi, Navi Mumbai - MPCB",29-09-2025 07:00:00,19.090337,73.014232,CO,4,14,7
India,Maharashtra,Navi Mumbai,"Kopripada-Vashi, Navi Mumbai - MPCB",29-09-2025 07:00:00,19.090337,73.014232,OZONE,31,58,43
India,Maharashtra,Navi Mumbai,"Mahape, Navi Mumbai - MPCB",29-09-2025 07:00:00,19.1135051,73.008978,PM2.5,6,9,7
India,Maharashtra,Navi Mumbai,"Mahape, Navi Mumbai - MPCB",29-09-2025 07:00:00,19.1135051,73.008978,PM10,32,42,36
India,Maharashtra,Navi Mumbai,"Mahape, Navi Mumbai - MPCB",29-09-2025 07:00:00,19.1135051,73.008978,NO2,33,36,35
India,Maharashtra,Navi Mumbai,"Mahape, Navi Mumbai - MPCB",29-09-2025 07:00:00,19.1135051,73.008978,NH3,3,3,3
India,Maharashtra,Navi Mumbai,"Mahape, Navi Mumbai - MPCB",29-09-2025 07:00:00,19.1135051,73.008978,OZONE,10,11,10
India,Maharashtra,Navi Mumbai,"Nerul, Navi Mumbai - MPCB",29-09-2025 07:00:00,19.008751,73.016620,NH3,3,4,3
India,Maharashtra,Pimpri-Chinchwad,"Park Street Wakad, Pimpri Chinchwad - MPCB",29-09-2025 07:00:00,18.59051,73.77946,CO,2,22,10
India,Maharashtra,Pimpri-Chinchwad,"Savta Mali Nagar, Pimpri-Chinchwad - IITM",29-09-2025 07:00:00,18.614767,73.799516,PM2.5,8,43,17
India,Maharashtra,Pimpri-Chinchwad,"Savta Mali Nagar, Pimpri-Chinchwad - IITM",29-09-2025 07:00:00,18.614767,73.799516,CO,38,82,48
India,Maharashtra,Nashik,"MIDC Ambad, Nashik - MPCB",29-09-2025 07:00:00,19.950220,73.731480,NO2,7,21,13
India,Maharashtra,Nashik,"MIDC Ambad, Nashik - MPCB",29-09-2025 07:00:00,19.950220,73.731480,NH3,2,3,2
India,Maharashtra,Nashik,"Pandav Nagari, Nashik - MPCB",29-09-2025 07:00:00,19.9591346,73.7788008,OZONE,20,40,38
India,Maharashtra,Navi Mumbai,"Sector-2E Kalamboli, Navi Mumbai - MPCB",29-09-2025 07:00:00,19.02579,73.10297,NO2,16,69,31
India,Maharashtra,Navi Mumbai,"Tondare-Taloja, Navi Mumbai - MPCB",29-09-2025 07:00:00,19.0630,73.1209,PM10,5,444,54
India,Maharashtra,Pimpri-Chinchwad,"Gavalinagar, Pimpri Chinchwad - MPCB",29-09-2025 07:00:00,18.63673,73.82487,OZONE,10,11,10
India,Maharashtra,Pimpri-Chinchwad,"Park Street Wakad, Pimpri Chinchwad - MPCB",29-09-2025 07:00:00,18.59051,73.77946,NO2,5,14,8
India,Maharashtra,Pimpri-Chinchwad,"Gavalinagar, Pimpri Chinchwad - MPCB",29-09-2025 07:00:00,18.63673,73.82487,NH3,7,8,8
India,Maharashtra,Navi Mumbai,"Sanpada, Navi Mumbai - MPCB",29-09-2025 07:00:00,19.0575752,73.0151367,PM10,12,28,21
India,Maharashtra,Solapur,"Dnyaneshwar Nagar, Solapur - MPCB",29-09-2025 07:00:00,17.6336264,75.9132495,SO2,1,4,3
India,Maharashtra,Thane,"Kasarvadavali, Thane - MPCB",29-09-2025 07:00:00,19.26777,72.97182,PM10,23,38,31
India,Maharashtra,Thane,"Kasarvadavali, Thane - MPCB",29-09-2025 07:00:00,19.26777,72.97182,NH3,1,2,1
India,Maharashtra,Thane,"Kasarvadavali, Thane - MPCB",29-09-2025 07:00:00,19.26777,72.97182,SO2,NA,NA,NA
India,Maharashtra,Thane,"Upvan Fort, Thane - MPCB",29-09-2025 07:00:00,19.222279,72.957979,PM2.5,11,25,15
India,Meghalaya,Shillong,"JN Stadium, Shillong - Meghalaya PCB",29-09-2025 07:00:00,25.5803419,91.8942571,NH3,8,12,10
India,Meghalaya,Shillong,"Lumpyngngad, Shillong - Meghalaya PCB",29-09-2025 07:00:00,25.5586,91.8985,PM10,3,9,6
India,Meghalaya,Shillong,"Lumpyngngad, Shillong - Meghalaya PCB",29-09-2025 07:00:00,25.5586,91.8985,CO,2,8,3
India,Meghalaya,Shillong,"Lumpyngngad, Shillong - Meghalaya PCB",29-09-2025 07:00:00,25.5586,91.8985,OZONE,NA,NA,NA
India,Odisha,Balasore,"Kalidaspur, Balasore - OSPCB",29-09-2025 07:00:00,21.51161,86.89088,NH3,1,2,1
India,Odisha,Balasore,"Kalidaspur, Balasore - OSPCB",29-09-2025 07:00:00,21.51161,86.89088,CO,18,42,30
India,Odisha,Barbil,"Forest Office, Barbil - OSPCB",29-09-2025 07:00:00,22.1166054,85.3945546,NO2,8,24,15
India,Maharashtra,Pune,"Katraj Dairy, Pune - MPCB",29-09-2025 07:00:00,18.454450,73.854155,NH3,1,3,2
India,Maharashtra,Pune,"Katraj Dairy, Pune - MPCB",29-09-2025 07:00:00,18.454450,73.854155,CO,8,56,12
India,Maharashtra,Pune,"Mhada Colony, Pune - IITM",29-09-2025 07:00:00,18.573040,73.927715,PM2.5,20,40,27
India,Nagaland,Kohima,"PWD Junction, Kohima - NPCB",29-09-2025 07:00:00,25.6635413,94.0989878,NH3,1,1,1
India,Nagaland,Kohima,"PWD Junction, Kohima - NPCB",29-09-2025 07:00:00,25.6635413,94.0989878,CO,6,20,10
India,Nagaland,Kohima,"PWD Junction, Kohima - NPCB",29-09-2025 07:00:00,25.6635413,94.0989878,OZONE,6,11,6
India,Maharashtra,Pimpri-Chinchwad,"Thergaon, Pimpri Chinchwad - MPCB",29-09-2025 07:00:00,18.616318,73.765797,NH3,1,3,2
India,Maharashtra,Pimpri-Chinchwad,"Thergaon, Pimpri Chinchwad - MPCB",29-09-2025 07:00:00,18.616318,73.765797,CO,12,106,29
India,Maharashtra,Thane,"Upvan Fort, Thane - MPCB",29-09-2025 07:00:00,19.222279,72.957979,NH3,NA,NA,NA
India,Maharashtra,Thane,"Upvan Fort, Thane - MPCB",29-09-2025 07:00:00,19.222279,72.957979,CO,18,69,30
India,Maharashtra,Pune,"Revenue Colony-Shivajinagar, Pune - IITM",29-09-2025 07:00:00,18.530085,73.849598,NO2,13,13,13
India,Nagaland,Kohima,"PWD Junction, Kohima - NPCB",29-09-2025 07:00:00,25.6635413,94.0989878,PM10,16,149,54
India,Punjab,Jalandhar,"Civil Line, Jalandhar - PPCB",29-09-2025 07:00:00,31.321907,75.578914,OZONE,44,52,48
India,Punjab,Ludhiana,"Punjab Agricultural University, Ludhiana - PPCB",29-09-2025 07:00:00,30.9028,75.8086,PM10,61,87,71
India,Punjab,Ludhiana,"Punjab Agricultural University, Ludhiana - PPCB",29-09-2025 07:00:00,30.9028,75.8086,SO2,2,17,10
India,Punjab,Mandi Gobindgarh,"RIMT University, Mandi Gobindgarh - PPCB",29-09-2025 07:00:00,30.649961,76.331442,NH3,6,6,6
India,Punjab,Mandi Gobindgarh,"RIMT University, Mandi Gobindgarh - PPCB",29-09-2025 07:00:00,30.649961,76.331442,CO,8,106,41
India,Punjab,Patiala,"Model Town, Patiala - PPCB",29-09-2025 07:00:00,30.349388,76.366642,NO2,16,19,17
India,Punjab,Patiala,"Model Town, Patiala - PPCB",29-09-2025 07:00:00,30.349388,76.366642,SO2,12,18,14
India,Odisha,Nayagarh,"Dabuna, Nayagarh - OSPCB",29-09-2025 07:00:00,21.847279,85.416905,CO,18,24,22
India,Odisha,Rairangpur,"Divisional Forest Office, Rairangpur - OSPCB",29-09-2025 07:00:00,22.265816,86.174829,PM10,37,122,76
India,Odisha,Rairangpur,"Divisional Forest Office, Rairangpur - OSPCB",29-09-2025 07:00:00,22.265816,86.174829,NO2,15,19,17
India,Odisha,Rairangpur,"Divisional Forest Office, Rairangpur - OSPCB",29-09-2025 07:00:00,22.265816,86.174829,NH3,2,3,3
India,Odisha,Rairangpur,"Divisional Forest Office, Rairangpur - OSPCB",29-09-2025 07:00:00,22.265816,86.174829,SO2,6,9,8
India,Odisha,Rourkela,"Fertilizer Township, Rourkela - OSPCB",29-09-2025 07:00:00,22.18972222,84.86277778,PM2.5,55,79,61
India,Rajasthan,Alwar,"Moti Doongri, Alwar - RSPCB",29-09-2025 07:00:00,27.554793,76.611536,SO2,20,76,27
India,Rajasthan,Banswara,"Rati Talai, Banswara - RSPCB",29-09-2025 07:00:00,23.555190,74.440010,PM10,NA,NA,NA
India,Rajasthan,Baran,"Bamboliya, Baran - RSPCB",29-09-2025 07:00:00,25.106006,76.469948,PM2.5,15,55,36
India,Rajasthan,Baran,"Bamboliya, Baran - RSPCB",29-09-2025 07:00:00,25.106006,76.469948,NO2,2,7,4
India,Rajasthan,Baran,"Bamboliya, Baran - RSPCB",29-09-2025 07:00:00,25.106006,76.469948,NH3,4,7,5
India,Rajasthan,Baran,"Bamboliya, Baran - RSPCB",29-09-2025 07:00:00,25.106006,76.469948,SO2,4,6,5
India,Odisha,Barbil,"Forest Office, Barbil - OSPCB",29-09-2025 07:00:00,22.1166054,85.3945546,CO,23,48,29
India,Odisha,Barbil,"Forest Office, Barbil - OSPCB",29-09-2025 07:00:00,22.1166054,85.3945546,OZONE,3,24,8
India,Odisha,Baripada,"Meher Colony, Baripada - OSPCB",29-09-2025 07:00:00,21.941841,86.728318,NO2,4,22,11
India,Odisha,Baripada,"Meher Colony, Baripada - OSPCB",29-09-2025 07:00:00,21.941841,86.728318,OZONE,5,19,7
India,Odisha,Bhubaneswar,"Patia, Bhubaneswar - OSPCB",29-09-2025 07:00:00,20.34652,85.81630,OZONE,3,17,4
India,Punjab,Rupnagar,"Ratanpura, Rupnagar - Ambuja Cements",29-09-2025 07:00:00,31.0325454,76.5623046,SO2,7,13,9
India,Rajasthan,Ajmer,"Civil Lines,  Ajmer - RSPCB",29-09-2025 07:00:00,26.470859,74.646594,PM2.5,45,58,49
India,Rajasthan,Ajmer,"Civil Lines,  Ajmer - RSPCB",29-09-2025 07:00:00,26.470859,74.646594,SO2,3,15,8
India,Rajasthan,Ajmer,"Civil Lines,  Ajmer - RSPCB",29-09-2025 07:00:00,26.470859,74.646594,OZONE,12,20,17
India,Rajasthan,Barmer,"Railway Colony, Barmer - RSPCB",29-09-2025 07:00:00,25.747299,71.393989,PM2.5,18,58,38
India,Rajasthan,Bharatpur,"Krishna Nagar, Bharatpur - RSPCB",29-09-2025 07:00:00,27.215415,77.50873,OZONE,8,77,25
India,Rajasthan,Bhilwara,"Pratap Nagar, Bhilwara - RSPCB",29-09-2025 07:00:00,25.339605,74.618883,PM2.5,10,87,44
India,Rajasthan,Bhilwara,"Pratap Nagar, Bhilwara - RSPCB",29-09-2025 07:00:00,25.339605,74.618883,OZONE,14,36,17
India,Odisha,Rourkela,"Raghunathpali, Rourkela - OSPCB",29-09-2025 07:00:00,22.220833,84.809444,PM10,23,72,41
India,Odisha,Rourkela,"Raghunathpali, Rourkela - OSPCB",29-09-2025 07:00:00,22.220833,84.809444,NO2,8,16,11
India,Odisha,Rourkela,"Raghunathpali, Rourkela - OSPCB",29-09-2025 07:00:00,22.220833,84.809444,SO2,4,7,5
India,Odisha,Talcher,"Talcher Coalfields,Talcher - OSPCB",29-09-2025 07:00:00,20.9360711,85.1707021,PM10,5,49,23
India,Odisha,Brajrajnagar,"GM Office, Brajrajnagar - OSPCB",29-09-2025 07:00:00,21.8004996,83.8396977,NO2,17,25,19
India,Odisha,Keonjhar,"Jagamohanpur, Keonjhar - OSPCB",29-09-2025 07:00:00,21.643900,85.599355,NO2,13,19,16
India,Odisha,Nayagarh,"Dabuna, Nayagarh - OSPCB",29-09-2025 07:00:00,21.847279,85.416905,PM10,21,26,23
India,Rajasthan,Bhiwadi,"RIICO Ind. Area III, Bhiwadi - RSPCB",29-09-2025 07:00:00,28.194909,76.862296,CO,26,162,41
India,Rajasthan,Churu,"Subash Chowk, Churu - RSPCB",29-09-2025 07:00:00,28.296139,74.961696,NH3,3,10,6
India,Rajasthan,Churu,"Subash Chowk, Churu - RSPCB",29-09-2025 07:00:00,28.296139,74.961696,SO2,1,5,3
India,Rajasthan,Dausa,"Khatikan Mohalla, Dausa - RSPCB",29-09-2025 07:00:00,26.895552,76.334753,PM10,37,91,61
India,Rajasthan,Dausa,"Khatikan Mohalla, Dausa - RSPCB",29-09-2025 07:00:00,26.895552,76.334753,CO,8,22,20
India,Rajasthan,Dholpur,"Raja Ganj, Dholpur - RSPCB",29-09-2025 07:00:00,26.699557,77.898881,PM2.5,NA,NA,NA
India,Rajasthan,Dholpur,"Raja Ganj, Dholpur - RSPCB",29-09-2025 07:00:00,26.699557,77.898881,CO,NA,NA,NA
India,Rajasthan,Dungarpur,"Bhoiwada, Dungarpur - RSPCB",29-09-2025 07:00:00,23.837789,73.714926,CO,26,38,28
India,Rajasthan,Jaipur,"Sector-2 Murlipura, Jaipur - RSPCB",29-09-2025 07:00:00,26.960669,75.771817,PM2.5,32,68,47
India,Rajasthan,Jaipur,"Sector-2 Murlipura, Jaipur - RSPCB",29-09-2025 07:00:00,26.960669,75.771817,NH3,2,2,2
India,Rajasthan,Jaipur,"Sector-2 Murlipura, Jaipur - RSPCB",29-09-2025 07:00:00,26.960669,75.771817,SO2,6,10,8
India,Rajasthan,Jaipur,"Shastri Nagar, Jaipur - RSPCB",29-09-2025 07:00:00,26.9502929,75.730943,SO2,4,28,17
India,Rajasthan,Jaipur,"Shastri Nagar, Jaipur - RSPCB",29-09-2025 07:00:00,26.9502929,75.730943,CO,24,66,49
India,Rajasthan,Jaipur,"Shastri Nagar, Jaipur - RSPCB",29-09-2025 07:00:00,26.9502929,75.730943,OZONE,28,38,30
India,Rajasthan,Jaisalmer,"Sadar Bazar, Jaisalmer - RSPCB",29-09-2025 07:00:00,26.912329,70.909168,NH3,5,9,7
India,Rajasthan,Jaisalmer,"Sadar Bazar, Jaisalmer - RSPCB",29-09-2025 07:00:00,26.912329,70.909168,CO,16,44,27
India,Rajasthan,Jalore,"Mudtra Sili, Jalore - RSPCB",29-09-2025 07:00:00,25.344694,72.626208,PM2.5,20,68,40
India,Rajasthan,Jalore,"Mudtra Sili, Jalore - RSPCB",29-09-2025 07:00:00,25.344694,72.626208,NO2,2,8,4
India,Rajasthan,Jaipur,"Adarsh Nagar, Jaipur - RSPCB",29-09-2025 07:00:00,26.902909,75.836858,OZONE,40,74,47
India,Rajasthan,Jaipur,"Mansarovar Sector-12, Jaipur - RSPCB",29-09-2025 07:00:00,26.843698,75.766894,PM10,31,114,68
India,Rajasthan,Jaipur,"Mansarovar Sector-12, Jaipur - RSPCB",29-09-2025 07:00:00,26.843698,75.766894,NO2,2,25,9
India,Rajasthan,Bikaner,"MM Ground, Bikaner - RSPCB",29-09-2025 07:00:00,28.018792,73.292658,OZONE,37,88,48
India,Rajasthan,Bundi,"New Colony, Bundi - RSPCB",29-09-2025 07:00:00,25.435774,75.644272,NH3,1,3,2
India,Rajasthan,Bundi,"New Colony, Bundi - RSPCB",29-09-2025 07:00:00,25.435774,75.644272,SO2,5,6,6
India,Rajasthan,Bhiwadi,"Vasundhara Nagar_UIT, Bhiwadi - RSPCB",29-09-2025 07:00:00,28.207266,76.829265,CO,18,50,34
India,Rajasthan,Jaipur,"RIICO Sitapura, Jaipur - RSPCB",29-09-2025 07:00:00,26.786682,75.827928,CO,14,24,23
India,Rajasthan,Jaipur,"Adarsh Nagar, Jaipur - RSPCB",29-09-2025 07:00:00,26.902909,75.836858,NH3,5,11,7
India,Rajasthan,Jalore,"Mudtra Sili, Jalore - RSPCB",29-09-2025 07:00:00,25.344694,72.626208,NH3,4,6,4
India,Rajasthan,Jodhpur,"Jhalamand, Jodhpur - RSPCB",29-09-2025 07:00:00,26.215415,73.070156,CO,11,24,13
India,Rajasthan,Jodhpur,"Mandor, Jodhpur - RSPCB",29-09-2025 07:00:00,26.358805,73.047444,NO2,11,32,18
India,Rajasthan,Jodhpur,"Mandor, Jodhpur - RSPCB",29-09-2025 07:00:00,26.358805,73.047444,NH3,2,5,3
India,Rajasthan,Jodhpur,"Mandor, Jodhpur - RSPCB",29-09-2025 07:00:00,26.358805,73.047444,SO2,1,3,2
India,Rajasthan,Jodhpur,"Samrat Ashok Udhyan, Jodhpur - RSPCB",29-09-2025 07:00:00,26.253384,72.976571,NH3,3,6,4
India,Rajasthan,Jodhpur,"Samrat Ashok Udhyan, Jodhpur - RSPCB",29-09-2025 07:00:00,26.253384,72.976571,CO,22,34,27
India,Rajasthan,Jodhpur,"Samrat Ashok Udhyan, Jodhpur - RSPCB",29-09-2025 07:00:00,26.253384,72.976571,OZONE,16,72,26
India,Rajasthan,Karauli,"Satyawati Vihar, Karauli - RSPCB",29-09-2025 07:00:00,26.506177,77.025989,NH3,4,5,5
India,Rajasthan,Karauli,"Satyawati Vihar, Karauli - RSPCB",29-09-2025 07:00:00,26.506177,77.025989,SO2,1,8,4
India,Rajasthan,Karauli,"Satyawati Vihar, Karauli - RSPCB",29-09-2025 07:00:00,26.506177,77.025989,CO,19,39,24
India,Rajasthan,Kota,"Dhanmandi, Kota - RSPCB",29-09-2025 07:00:00,25.164090,75.858137,NO2,13,58,24
India,Rajasthan,Sawai Madhopur,"Sahu Nagar, Sawai Madhopur - RSPCB",29-09-2025 07:00:00,26.031443,76.359327,NO2,6,11,8
India,Rajasthan,Sawai Madhopur,"Sahu Nagar, Sawai Madhopur - RSPCB",29-09-2025 07:00:00,26.031443,76.359327,NH3,9,16,11
India,Rajasthan,Sawai Madhopur,"Sahu Nagar, Sawai Madhopur - RSPCB",29-09-2025 07:00:00,26.031443,76.359327,SO2,2,4,3
India,Rajasthan,Sawai Madhopur,"Sahu Nagar, Sawai Madhopur - RSPCB",29-09-2025 07:00:00,26.031443,76.359327,CO,20,33,26
India,Rajasthan,Sawai Madhopur,"Sahu Nagar, Sawai Madhopur - RSPCB",29-09-2025 07:00:00,26.031443,76.359327,OZONE,26,57,37
India,Rajasthan,Sikar,"Radhakishan Pura, Sikar - RSPCB",29-09-2025 07:00:00,27.608912,75.153302,PM2.5,16,85,36
India,Rajasthan,Sikar,"Radhakishan Pura, Sikar - RSPCB",29-09-2025 07:00:00,27.608912,75.153302,NH3,4,11,5
India,Rajasthan,Sikar,"Radhakishan Pura, Sikar - RSPCB",29-09-2025 07:00:00,27.608912,75.153302,SO2,3,4,3
India,Rajasthan,Sirohi,"Vedhaynath Colony, Sirohi - RSPCB",29-09-2025 07:00:00,24.885261,72.857549,NO2,2,28,10
India,Rajasthan,Kota,"Nayapura, Kota - RSPCB",29-09-2025 07:00:00,25.196024,75.855668,SO2,3,9,6
India,Rajasthan,Kota,"Shrinath Puram, Kota - RSPCB",29-09-2025 07:00:00,25.14389,75.821256,PM10,31,80,56
India,Rajasthan,Nagaur,"Karni Colony, Nagaur - RSPCB",29-09-2025 07:00:00,27.213494,73.734444,PM2.5,15,88,37
India,Rajasthan,Nagaur,"Karni Colony, Nagaur - RSPCB",29-09-2025 07:00:00,27.213494,73.734444,PM10,50,356,118
India,Rajasthan,Nagaur,"Karni Colony, Nagaur - RSPCB",29-09-2025 07:00:00,27.213494,73.734444,OZONE,3,83,49
India,Rajasthan,Pratapgarh,"Pragati Nagar, Pratapgarh - RSPCB",29-09-2025 07:00:00,24.041198,74.780702,CO,16,28,19
India,Rajasthan,Rajsamand,"Dhoinda, Rajsamand - RSPCB",29-09-2025 07:00:00,25.036360,73.883502,OZONE,31,54,53
India,Rajasthan,Sawai Madhopur,"Sahu Nagar, Sawai Madhopur - RSPCB",29-09-2025 07:00:00,26.031443,76.359327,PM2.5,3,61,16
India,Rajasthan,Jhunjhunu,"Indra Nagar, Jhunjhunu - RSPCB",29-09-2025 07:00:00,28.108988,75.386577,OZONE,16,61,34
India,Rajasthan,Jodhpur,"Collectorate, Jodhpur - RSPCB",29-09-2025 07:00:00,26.268249,73.0193853,PM10,NA,NA,NA
India,Rajasthan,Sri Ganganagar,"Old City, Sri Ganganagar - RSPCB",29-09-2025 07:00:00,29.931624,73.864511,SO2,6,20,12
India,Rajasthan,Jhunjhunu,"Indra Nagar, Jhunjhunu - RSPCB",29-09-2025 07:00:00,28.108988,75.386577,NO2,9,49,20
India,Rajasthan,Jodhpur,"Digari Kalan, Jodhpur - RSPCB",29-09-2025 07:00:00,26.295810,73.082283,SO2,1,5,2
India,Rajasthan,Kota,"Nayapura, Kota - RSPCB",29-09-2025 07:00:00,25.196024,75.855668,PM10,30,58,44
India,Rajasthan,Udaipur,"Ashok Nagar, Udaipur - RSPCB",29-09-2025 07:00:00,24.5886166,73.6321397,CO,6,77,29
India,Sikkim,Gangtok,"Zero Point GICI, Gangtok - SSPCB",29-09-2025 07:00:00,27.338530,88.614099,NH3,1,20,3
India,TamilNadu,Ariyalur,"Keelapalur, Ariyalur - TNPCB",29-09-2025 07:00:00,11.06825,79.07033,PM10,25,76,47
India,TamilNadu,Chengalpattu,"Crescent University, Chengalpattu - TNPCB",29-09-2025 07:00:00,12.8777316,80.0834807,OZONE,6,36,23
India,TamilNadu,Chennai,"Alandur Bus Depot, Chennai - CPCB",29-09-2025 07:00:00,12.9099161,80.1076538,NH3,7,7,7
India,TamilNadu,Chennai,"Alandur Bus Depot, Chennai - CPCB",29-09-2025 07:00:00,12.9099161,80.1076538,CO,48,90,73
India,TamilNadu,Ariyalur,"Keelapalur, Ariyalur - TNPCB",29-09-2025 07:00:00,11.06825,79.07033,NH3,1,1,1
India,TamilNadu,Chengalpattu,"Crescent University, Chengalpattu - TNPCB",29-09-2025 07:00:00,12.8777316,80.0834807,PM2.5,13,96,34
India,TamilNadu,Chengalpattu,"Crescent University, Chengalpattu - TNPCB",29-09-2025 07:00:00,12.8777316,80.0834807,NH3,1,1,1
India,TamilNadu,Dindigul,"Mendonsa Colony, Dindigul - TNPCB",29-09-2025 07:00:00,10.358535,77.984321,SO2,20,23,22
India,TamilNadu,Dindigul,"Mendonsa Colony, Dindigul - TNPCB",29-09-2025 07:00:00,10.358535,77.984321,CO,10,29,15
India,TamilNadu,Hosur,"SIPCOT Phase-1, Hosur - TNPCB",29-09-2025 07:00:00,12.746998,77.813811,PM2.5,16,79,38
India,TamilNadu,Hosur,"SIPCOT Phase-1, Hosur - TNPCB",29-09-2025 07:00:00,12.746998,77.813811,OZONE,9,12,10
India,TamilNadu,Kanchipuram,"Kilambi, Kanchipuram - TNPCB",29-09-2025 07:00:00,12.864618,79.659968,PM10,9,64,31
India,TamilNadu,Kanchipuram,"Kilambi, Kanchipuram - TNPCB",29-09-2025 07:00:00,12.864618,79.659968,NO2,14,34,21
India,TamilNadu,Cuddalore,"Kudikadu, Cuddalore - TNPCB",29-09-2025 07:00:00,11.6829898,79.7532099,NH3,4,5,5
India,TamilNadu,Cuddalore,"Semmandalam, Cuddalore - TNPCB",29-09-2025 07:00:00,11.7637683,79.7499835,NH3,1,3,3
India,TamilNadu,Cuddalore,"Semmandalam, Cuddalore - TNPCB",29-09-2025 07:00:00,11.7637683,79.7499835,OZONE,1,2,1
India,TamilNadu,Chennai,"Manali Village, Chennai - TNPCB",29-09-2025 07:00:00,13.1662,80.2584,NH3,1,1,1
India,TamilNadu,Chennai,"Manali, Chennai - CPCB",29-09-2025 07:00:00,13.164544,80.26285,OZONE,27,31,28
India,TamilNadu,Coimbatore,"PSG College of Arts and Science, Coimbatore - TNPCB",29-09-2025 07:00:00,11.0328,77.0349,OZONE,4,6,5
India,TamilNadu,Karur,"Kamadenu Nagar, Karur - TNPCB",29-09-2025 07:00:00,10.967820,78.080882,NH3,3,3,3
India,TamilNadu,Thanjavur,"Parisutham Nagar, Thanjavur - TNPCB",29-09-2025 07:00:00,10.7654824,79.1389968,OZONE,9,21,17
India,TamilNadu,Thoothukudi,"Meelavittan, Thoothukudi - TNPCB",29-09-2025 07:00:00,8.816428 ,78.099039,CO,2,52,23
India,TamilNadu,Tiruchirappalli,"St Joseph College, Tiruchirappalli - TNPCB",29-09-2025 07:00:00,10.830158,78.691849,PM2.5,45,80,59
India,TamilNadu,Tirunelveli,"Municipal Corporation Office, Tirunelveli - TNPCB",29-09-2025 07:00:00,8.728442,77.6962,NO2,8,34,22
India,TamilNadu,Tirupur,"Kumaran College, Tirupur - TNPCB",29-09-2025 07:00:00,11.0973603,77.3228673,SO2,4,5,4
India,TamilNadu,Vellore,"Vasanthapuram, Vellore - TNPCB",29-09-2025 07:00:00,12.909494,79.131861,PM2.5,16,45,27
India,TamilNadu,Vellore,"Vasanthapuram, Vellore - TNPCB",29-09-2025 07:00:00,12.909494,79.131861,SO2,21,21,21
India,TamilNadu,Vellore,"Vasanthapuram, Vellore - TNPCB",29-09-2025 07:00:00,12.909494,79.131861,OZONE,10,55,19
India,TamilNadu,Virudhunagar,"Collectorate Office, Virudhunagar - TNPCB",29-09-2025 07:00:00,9.559382,77.948828,SO2,20,20,20
India,Telangana,Hyderabad,"Bollaram Industrial Area, Hyderabad - TSPCB",29-09-2025 07:00:00,17.540891,78.358528,PM10,11,40,22
India,Telangana,Hyderabad,"Bollaram Industrial Area, Hyderabad - TSPCB",29-09-2025 07:00:00,17.540891,78.358528,NO2,20,45,36
India,Telangana,Hyderabad,"Central University, Hyderabad - TSPCB",29-09-2025 07:00:00,17.460103,78.334361,OZONE,10,27,17
India,TamilNadu,Madurai,"Uchapatti, Madurai - TNPCB",29-09-2025 07:00:00,9.865935,78.022669,SO2,13,13,13
India,TamilNadu,Nagapattinam,"Velippalayam, Nagapattinam - TNPCB",29-09-2025 07:00:00,10.798548,79.838212,SO2,NA,NA,NA
India,TamilNadu,Nagapattinam,"Velippalayam, Nagapattinam - TNPCB",29-09-2025 07:00:00,10.798548,79.838212,CO,11,14,13
India,TamilNadu,Namakkal,"Ponnusamy Nagar, Namakkal - TNPCB",29-09-2025 07:00:00,11.273992,78.163545,PM2.5,NA,NA,NA
India,TamilNadu,Namakkal,"Ponnusamy Nagar, Namakkal - TNPCB",29-09-2025 07:00:00,11.273992,78.163545,NO2,NA,NA,NA
India,TamilNadu,Namakkal,"Ponnusamy Nagar, Namakkal - TNPCB",29-09-2025 07:00:00,11.273992,78.163545,CO,5,50,38
India,Telangana,Hyderabad,"IDA Pashamylaram, Hyderabad - TSPCB",29-09-2025 07:00:00,17.5316895,78.218939,NO2,NA,NA,NA
India,Telangana,Hyderabad,"IDA Pashamylaram, Hyderabad - TSPCB",29-09-2025 07:00:00,17.5316895,78.218939,CO,2,120,39
India,Telangana,Hyderabad,"IITH Kandi, Hyderabad - TSPCB",29-09-2025 07:00:00,17.585705,78.126199,PM10,NA,NA,NA
India,TamilNadu,Salem,"Sona College of Technology, Salem - TNPCB",29-09-2025 07:00:00,11.679111,78.125052,NO2,12,12,12
India,TamilNadu,Thanjavur,"Parisutham Nagar, Thanjavur - TNPCB",29-09-2025 07:00:00,10.7654824,79.1389968,SO2,16,17,16
India,TamilNadu,Perundurai,"SIPCOT Industrial Park, Perundurai - TNPCB",29-09-2025 07:00:00,11.258242,77.552761,OZONE,34,45,43
India,TamilNadu,Pudukottai,"SIPCOT Nathampannai, Pudukottai - TNPCB",29-09-2025 07:00:00,10.423417,78.784889,PM2.5,13,52,24
India,Telangana,Hyderabad,"ICRISAT Patancheru, Hyderabad - TSPCB",29-09-2025 07:00:00,17.518400,78.278777,PM10,26,46,36
India,Telangana,Hyderabad,"ICRISAT Patancheru, Hyderabad - TSPCB",29-09-2025 07:00:00,17.518400,78.278777,NO2,3,16,5
India,TamilNadu,Ramanathapuram,"Chalai Bazaar, Ramanathapuram - TNPCB",29-09-2025 07:00:00,9.36399,78.831977,OZONE,3,8,4
India,TamilNadu,Karur,"Kamadenu Nagar, Karur - TNPCB",29-09-2025 07:00:00,10.967820,78.080882,CO,6,34,6
India,Telangana,Hyderabad,"New Malakpet, Hyderabad - TSPCB",29-09-2025 07:00:00,17.37206,78.50864,OZONE,21,39,26
India,Tripura,Agartala,"Bardowali, Agartala - Tripura SPCB",29-09-2025 07:00:00,23.8175497,91.2726974,PM2.5,17,48,36
India,Uttar_Pradesh,Agra,"Manoharpur, Agra - UPPCB",29-09-2025 07:00:00,27.23711,78.01936,NH3,2,2,2
India,Telangana,Hyderabad,"Nacharam_TSIIC IALA, Hyderabad - TSPCB",29-09-2025 07:00:00,17.429398,78.569354,NH3,4,7,5
India,Telangana,Hyderabad,"Nacharam_TSIIC IALA, Hyderabad - TSPCB",29-09-2025 07:00:00,17.429398,78.569354,SO2,9,16,14
India,Telangana,Hyderabad,"New Malakpet, Hyderabad - TSPCB",29-09-2025 07:00:00,17.37206,78.50864,PM2.5,42,48,45
India,Telangana,Hyderabad,"IITH Kandi, Hyderabad - TSPCB",29-09-2025 07:00:00,17.585705,78.126199,OZONE,NA,NA,NA
India,Telangana,Hyderabad,"Kokapet, Hyderabad - TSPCB",29-09-2025 07:00:00,17.393559,78.339194,NH3,2,4,4
India,Uttar_Pradesh,Agra,"Sector-3B Avas Vikas Colony, Agra - UPPCB",29-09-2025 07:00:00,27.19412,77.96237,NH3,3,4,3
India,Uttar_Pradesh,Agra,"Shahjahan Garden, Agra - UPPCB",29-09-2025 07:00:00,27.169338,78.03582,NH3,1,1,1
India,Telangana,Hyderabad,"Kompally Municipal Office, Hyderabad - TSPCB",29-09-2025 07:00:00,17.544899,78.486949,PM2.5,47,59,55
India,Telangana,Hyderabad,"Kompally Municipal Office, Hyderabad - TSPCB",29-09-2025 07:00:00,17.544899,78.486949,NO2,9,16,11
India,Uttar_Pradesh,Agra,"Rohta, Agra - UPPCB",29-09-2025 07:00:00,27.106972,78.000111,NO2,20,20,20
India,Uttar_Pradesh,Agra,"Rohta, Agra - UPPCB",29-09-2025 07:00:00,27.106972,78.000111,SO2,11,16,14
India,Uttar_Pradesh,Agra,"Rohta, Agra - UPPCB",29-09-2025 07:00:00,27.106972,78.000111,OZONE,11,12,12
India,Telangana,Hyderabad,"Kompally Municipal Office, Hyderabad - TSPCB",29-09-2025 07:00:00,17.544899,78.486949,OZONE,18,33,32
India,Uttar_Pradesh,Agra,"Sanjay Palace, Agra - UPPCB",29-09-2025 07:00:00,27.19865833,78.00598056,SO2,16,75,23
India,Uttar_Pradesh,Agra,"Shastripuram, Agra - UPPCB",29-09-2025 07:00:00,27.19862,77.92066,PM2.5,9,56,32
India,Uttar_Pradesh,Kanpur,"FTI Kidwai Nagar, Kanpur - UPPCB",29-09-2025 07:00:00,26.428282,80.327067,CO,44,48,45
India,Uttar_Pradesh,Kanpur,"NSI Kalyanpur, Kanpur - UPPCB",29-09-2025 07:00:00,26.509954,80.249612,NO2,16,17,16
India,Uttar_Pradesh,Kanpur,"NSI Kalyanpur, Kanpur - UPPCB",29-09-2025 07:00:00,26.509954,80.249612,OZONE,21,27,25
India,Uttar_Pradesh,Kanpur,"Nehru Nagar, Kanpur - UPPCB",29-09-2025 07:00:00,26.4703136,80.3229863,SO2,12,15,14
India,Uttar_Pradesh,Lucknow,"B R Ambedkar University, Lucknow - UPPCB",29-09-2025 07:00:00,26.766433,80.927299,SO2,40,44,41
India,Uttar_Pradesh,Ghaziabad,"Loni, Ghaziabad - UPPCB",29-09-2025 07:00:00,28.757294,77.278792,NO2,21,69,42
India,Uttar_Pradesh,Ghaziabad,"Sanjay Nagar, Ghaziabad - UPPCB",29-09-2025 07:00:00,28.685382,77.453839,NH3,4,8,5
India,Uttar_Pradesh,Ghaziabad,"Vasundhara, Ghaziabad - UPPCB",29-09-2025 07:00:00,28.6603346,77.3572563,PM10,65,134,94
India,Uttar_Pradesh,Ghaziabad,"Vasundhara, Ghaziabad - UPPCB",29-09-2025 07:00:00,28.6603346,77.3572563,NO2,7,41,17
India,Uttar_Pradesh,Ghaziabad,"Vasundhara, Ghaziabad - UPPCB",29-09-2025 07:00:00,28.6603346,77.3572563,SO2,10,16,14
India,Uttar_Pradesh,Ghaziabad,"Vasundhara, Ghaziabad - UPPCB",29-09-2025 07:00:00,28.6603346,77.3572563,CO,14,44,21
India,Uttar_Pradesh,Greater Noida,"Knowledge Park - V, Greater Noida - UPPCB",29-09-2025 07:00:00,28.557054,77.453663,SO2,8,14,11
India,Uttar_Pradesh,Hapur,"Anand Vihar, Hapur - UPPCB",29-09-2025 07:00:00,28.725645,77.749675,NO2,NA,NA,NA
India,Uttar_Pradesh,Hapur,"Anand Vihar, Hapur - UPPCB",29-09-2025 07:00:00,28.725645,77.749675,NH3,NA,NA,NA
India,Uttar_Pradesh,Jhansi,"Shivaji Nagar, Jhansi - UPPCB",29-09-2025 07:00:00,25.4547,78.6039,PM2.5,42,109,60
India,Uttar_Pradesh,Jhansi,"Shivaji Nagar, Jhansi - UPPCB",29-09-2025 07:00:00,25.4547,78.6039,PM10,52,121,72
India,Uttar_Pradesh,Baghpat,"Sardar Patel Inter College, Baghpat - UPPCB",29-09-2025 07:00:00,28.964949,77.278761,NO2,40,64,55
India,Uttar_Pradesh,Bareilly,"Civil Lines, Bareilly - UPPCB",29-09-2025 07:00:00,28.359581,79.414455,PM10,NA,NA,NA
India,Uttar_Pradesh,Bulandshahr,"Yamunapuram, Bulandshahr - UPPCB",29-09-2025 07:00:00,28.406963,77.849831,PM10,48,139,72
India,Uttar_Pradesh,Bulandshahr,"Yamunapuram, Bulandshahr - UPPCB",29-09-2025 07:00:00,28.406963,77.849831,NO2,10,42,19
India,Uttar_Pradesh,Bulandshahr,"Yamunapuram, Bulandshahr - UPPCB",29-09-2025 07:00:00,28.406963,77.849831,CO,16,52,26
India,Uttar_Pradesh,Gorakhpur,"Madan Mohan Malaviya University of Technology, Gorakhpur - UPPCB",29-09-2025 07:00:00,26.730136,83.433859,CO,3,5,4
India,Uttar_Pradesh,Gorakhpur,"Madan Mohan Malaviya University of Technology, Gorakhpur - UPPCB",29-09-2025 07:00:00,26.730136,83.433859,OZONE,2,27,8
India,Uttar_Pradesh,Greater Noida,"Knowledge Park - III, Greater Noida - UPPCB",29-09-2025 07:00:00,28.47272,77.482000,CO,18,78,34
India,Uttar_Pradesh,Firozabad,"Nagla Bhau, Firozabad - UPPCB",29-09-2025 07:00:00,27.168897,78.376960,NH3,2,2,2
India,Uttar_Pradesh,Firozabad,"Vibhab Nagar, Firozabad - UPPCB",29-09-2025 07:00:00,27.1594,78.3953,NO2,15,15,15
India,Uttar_Pradesh,Ghaziabad,"Loni, Ghaziabad - UPPCB",29-09-2025 07:00:00,28.757294,77.278792,PM2.5,26,232,90
India,Uttar_Pradesh,Lucknow,"Kukrail Picnic Spot-1, Lucknow - UPPCB",29-09-2025 07:00:00,26.90723,80.98579,CO,14,24,18
India,Uttar_Pradesh,Lucknow,"Lalbagh, Lucknow - CPCB",29-09-2025 07:00:00,26.8458805,80.9365541,PM2.5,52,168,108
India,Uttar_Pradesh,Lucknow,"Lalbagh, Lucknow - CPCB",29-09-2025 07:00:00,26.8458805,80.9365541,PM10,58,430,123
India,Uttar_Pradesh,Meerut,"Ganga Nagar, Meerut - UPPCB",29-09-2025 07:00:00,28.999264,77.7590354,SO2,11,25,14
India,Uttar_Pradesh,Meerut,"Jai Bhim Nagar, Meerut - UPPCB",29-09-2025 07:00:00,28.9535882,77.7622941,PM10,51,137,94
India,Uttar_Pradesh,Lucknow,"Talkatora District Industries Center, Lucknow - CPCB",29-09-2025 07:00:00,26.83399722,80.8917361,NH3,9,12,11
India,Uttar_Pradesh,Varanasi,"IESD Banaras Hindu University, Varanasi - UPPCB",29-09-2025 07:00:00,25.262326,82.995408,NH3,1,1,1
India,Uttar_Pradesh,Varanasi,"Maldahiya, Varanasi - UPPCB",29-09-2025 07:00:00,25.32393,82.99687,PM10,20,34,27
India,Uttar_Pradesh,Varanasi,"Maldahiya, Varanasi - UPPCB",29-09-2025 07:00:00,25.32393,82.99687,NO2,2,2,2
India,Uttar_Pradesh,Varanasi,"Maldahiya, Varanasi - UPPCB",29-09-2025 07:00:00,25.32393,82.99687,SO2,29,31,29
India,Uttar_Pradesh,Varanasi,"Maldahiya, Varanasi - UPPCB",29-09-2025 07:00:00,25.32393,82.99687,OZONE,2,3,2
India,Uttar_Pradesh,Vrindavan,"Omex Eternity, Vrindavan - UPPCB",29-09-2025 07:00:00,27.5714090,77.6557570,NH3,1,2,2
India,Uttar_Pradesh,Prayagraj,"Motilal Nehru NIT, Prayagraj - UPPCB",29-09-2025 07:00:00,25.494,81.863,PM2.5,12,38,27
India,Uttar_Pradesh,Varanasi,"Ardhali Bazar, Varanasi - UPPCB",29-09-2025 07:00:00,25.3505986,82.9083074,PM10,8,48,29
India,Uttar_Pradesh,Moradabad,"Buddhi Vihar, Moradabad - UPPCB",29-09-2025 07:00:00,28.83526,78.74460,OZONE,11,32,17
India,Uttar_Pradesh,Moradabad,"Eco Herbal Park, Moradabad - UPPCB",29-09-2025 07:00:00,28.840739,78.697531,NH3,2,4,3
India,Uttar_Pradesh,Noida,"Sector-1, Noida - UPPCB",29-09-2025 07:00:00,28.5898,77.3101,PM2.5,20,100,54
India,Uttar_Pradesh,Noida,"Sector-1, Noida - UPPCB",29-09-2025 07:00:00,28.5898,77.3101,PM10,68,141,96
India,Uttar_Pradesh,Noida,"Sector-1, Noida - UPPCB",29-09-2025 07:00:00,28.5898,77.3101,NH3,8,9,8
India,Uttar_Pradesh,Meerut,"Jai Bhim Nagar, Meerut - UPPCB",29-09-2025 07:00:00,28.9535882,77.7622941,SO2,5,7,6
India,Uttar_Pradesh,Meerut,"Jai Bhim Nagar, Meerut - UPPCB",29-09-2025 07:00:00,28.9535882,77.7622941,OZONE,7,78,22
India,Uttar_Pradesh,Varanasi,"IESD Banaras Hindu University, Varanasi - UPPCB",29-09-2025 07:00:00,25.262326,82.995408,PM10,15,66,41
India,Uttar_Pradesh,Moradabad,"Employment Office, Moradabad - UPPCB",29-09-2025 07:00:00,28.88528,78.73880,PM10,57,125,96
India,Uttar_Pradesh,Moradabad,"Jigar Colony, Moradabad - UPPCB",29-09-2025 07:00:00,28.856664,78.772638,SO2,30,67,48
India,Uttarakhand,Dehradun,"Doon University, Dehradun - UKPCB",29-09-2025 07:00:00,30.269444,78.044167,NO2,1,3,1
India,West_Bengal,Asansol,"Mahabir Colliery, Asansol - WBPCB",29-09-2025 07:00:00,23.6181830,87.1057180,SO2,4,6,5
India,West_Bengal,Asansol,"Mahabir Colliery, Asansol - WBPCB",29-09-2025 07:00:00,23.6181830,87.1057180,CO,6,70,23
India,West_Bengal,Asansol,"Mahabir Colliery, Asansol - WBPCB",29-09-2025 07:00:00,23.6181830,87.1057180,OZONE,11,34,13
India,West_Bengal,Asansol,"Trivenidevi Bhalotia College, Asansol - WBPCB",29-09-2025 07:00:00,23.616515,87.119133,NO2,9,49,18
India,West_Bengal,Asansol,"Trivenidevi Bhalotia College, Asansol - WBPCB",29-09-2025 07:00:00,23.616515,87.119133,CO,52,86,63
India,West_Bengal,Asansol,"Trivenidevi Bhalotia College, Asansol - WBPCB",29-09-2025 07:00:00,23.616515,87.119133,OZONE,13,38,18
India,West_Bengal,Barrackpore,"SVSPA Campus, Barrackpore - WBPCB",29-09-2025 07:00:00,22.7605581,88.3617589,OZONE,3,11,3
India,West_Bengal,Durgapur,"Womens College_City Center, Durgapur - WBPCB (Formerly known as Sidhu Kanhu Indoor Stadium)",29-09-2025 07:00:00,23.549395,87.300496,NO2,20,27,24
India,West_Bengal,Haldia,"Priyambada Housing Estate, Haldia - WBPCB",29-09-2025 07:00:00,22.06047,88.109737,OZONE,19,29,22
India,West_Bengal,Howrah,"Botanical Garden, Howrah - WBPCB",29-09-2025 07:00:00,22.554954,88.292568,SO2,13,14,14
India,West_Bengal,Howrah,"Botanical Garden, Howrah - WBPCB",29-09-2025 07:00:00,22.554954,88.292568,CO,66,74,71
India,West_Bengal,Howrah,"Dasnagar, Howrah - WBPCB",29-09-2025 07:00:00,22.6025571,88.3105664,PM10,14,58,40
India,West_Bengal,Asansol,"Evelyn Lodge, Asansol - WBPCB",29-09-2025 07:00:00,23.6979360,86.9443950,PM10,35,73,53
India,West_Bengal,Asansol,"Evelyn Lodge, Asansol - WBPCB",29-09-2025 07:00:00,23.6979360,86.9443950,OZONE,4,26,6
India,West_Bengal,Asansol,"Asansol Court Area, Asansol - WBPCB",29-09-2025 07:00:00,23.685297,86.945968,SO2,7,26,14
India,West_Bengal,Asansol,"Asansol Court Area, Asansol - WBPCB",29-09-2025 07:00:00,23.685297,86.945968,CO,26,92,44
India,Uttarakhand,Kashipur,"Govt. Girls Inter College, Kashipur - UKPCB",29-09-2025 07:00:00,29.2124114,78.9611753,NO2,8,44,17
India,West_Bengal,Durgapur,"PCBL Residential Complex, Durgapur - WBPCB",29-09-2025 07:00:00,23.5087640,87.3544400,OZONE,5,6,6
India,West_Bengal,Howrah,"Dasnagar, Howrah - WBPCB",29-09-2025 07:00:00,22.6025571,88.3105664,CO,30,42,38
India,West_Bengal,Howrah,"Ghusuri, Howrah - WBPCB",29-09-2025 07:00:00,22.611968,88.347422,PM2.5,15,31,22
India,West_Bengal,Howrah,"Padmapukur, Howrah - WBPCB",29-09-2025 07:00:00,22.5687319,88.2797276,NH3,3,11,8
India,West_Bengal,Kolkata,"Ballygunge, Kolkata - WBPCB",29-09-2025 07:00:00,22.5367507,88.3638022,NH3,7,8,8
India,West_Bengal,Kolkata,"Bidhannagar, Kolkata - WBPCB",29-09-2025 07:00:00,22.58157048,88.41002457,SO2,6,8,7
India,West_Bengal,Kolkata,"Bidhannagar, Kolkata - WBPCB",29-09-2025 07:00:00,22.58157048,88.41002457,CO,22,34,32
India,West_Bengal,Kolkata,"Fort William, Kolkata - WBPCB",29-09-2025 07:00:00,22.556640,88.342674,PM10,26,37,30
India,West_Bengal,Kolkata,"Jadavpur, Kolkata - WBPCB",29-09-2025 07:00:00,22.49929,88.36917,NO2,23,26,24
India,West_Bengal,Kolkata,"Rabindra Bharati University, Kolkata - WBPCB",29-09-2025 07:00:00,22.627847,88.380669,PM2.5,11,23,17
India,West_Bengal,Kolkata,"Rabindra Bharati University, Kolkata - WBPCB",29-09-2025 07:00:00,22.627847,88.380669,NH3,7,8,8
India,West_Bengal,Kolkata,"Victoria, Kolkata - WBPCB",29-09-2025 07:00:00,22.5448082,88.3403691,CO,25,54,35
India,West_Bengal,Kolkata,"Victoria, Kolkata - WBPCB",29-09-2025 07:00:00,22.5448082,88.3403691,OZONE,10,44,12
India,West_Bengal,Siliguri,"Ward-32 Bapupara, Siliguri - WBPCB",29-09-2025 07:00:00,26.6879226,88.4152495,SO2,10,12,11
India,Arunachal_Pradesh,Naharlagun,"Naharlagun, Naharlagun - APSPCB",29-09-2025 07:00:00,27.103358,93.679645,CO,8,47,11
India,Assam,Guwahati,"IITG, Guwahati - PCBA",29-09-2025 07:00:00,26.2028636,91.70046436,PM2.5,NA,NA,NA
India,Assam,Guwahati,"IITG, Guwahati - PCBA",29-09-2025 07:00:00,26.2028636,91.70046436,CO,2,22,17
India,Assam,Guwahati,"LGBI Airport, Guwahati - PCBA",29-09-2025 07:00:00,26.10887,91.589544,PM10,30,187,64
India,Assam,Guwahati,"LGBI Airport, Guwahati - PCBA",29-09-2025 07:00:00,26.10887,91.589544,OZONE,13,16,16
India,Andhra_Pradesh,Anantapur,"Gulzarpet, Anantapur - APPCB",29-09-2025 07:00:00,14.675886,77.593027,SO2,11,14,13
India,Andhra_Pradesh,Chittoor,"Gangineni Cheruvu, Chittoor - APPCB",29-09-2025 07:00:00,13.204880,79.097889,NO2,24,30,28
India,Andhra_Pradesh,Kadapa,"Yerramukkapalli, Kadapa - APPCB",29-09-2025 07:00:00,14.465052,78.824187,PM10,52,63,58
India,Andhra_Pradesh,Kadapa,"Yerramukkapalli, Kadapa - APPCB",29-09-2025 07:00:00,14.465052,78.824187,NH3,5,5,5
India,Andhra_Pradesh,Amaravati,"Secretariat, Amaravati - APPCB",29-09-2025 07:00:00,16.5150833,80.5181667,PM2.5,4,35,19
India,Andhra_Pradesh,Amaravati,"Secretariat, Amaravati - APPCB",29-09-2025 07:00:00,16.5150833,80.5181667,NO2,10,26,14
India,Andhra_Pradesh,Vijayawada,"Rajiv Gandhi Park, Vijayawada - APPCB",29-09-2025 07:00:00,16.509717,80.612222,PM2.5,NA,NA,NA
India,Andhra_Pradesh,Vijayawada,"Rajiv Gandhi Park, Vijayawada - APPCB",29-09-2025 07:00:00,16.509717,80.612222,SO2,NA,NA,NA
India,Andhra_Pradesh,Rajamahendravaram,"Anand Kala Kshetram, Rajamahendravaram - APPCB",29-09-2025 07:00:00,16.9872867,81.7363176,SO2,7,7,7
India,Andhra_Pradesh,Anantapur,"Gulzarpet, Anantapur - APPCB",29-09-2025 07:00:00,14.675886,77.593027,PM10,40,61,48
India,Andhra_Pradesh,Tirupati,"Vaikuntapuram, Tirupati - APPCB",29-09-2025 07:00:00,13.615387,79.409230,NH3,5,5,5
India,Andhra_Pradesh,Anantapur,"Gulzarpet, Anantapur - APPCB",29-09-2025 07:00:00,14.675886,77.593027,NH3,5,5,5
India,Andhra_Pradesh,Tirumala,"Toll Gate, Tirumala - APPCB",29-09-2025 07:00:00,13.67,79.35,NO2,4,14,10
India,Bihar,Bettiah,"Kamalnath Nagar, Bettiah - BSPCB",29-09-2025 07:00:00,26.80365,84.51954,OZONE,22,32,23
India,Bihar,Bhagalpur,"DM Office_Kachari Chowk, Bhagalpur - BSPCB",29-09-2025 07:00:00,25.251013,86.989001,PM2.5,20,77,48
India,Bihar,Bhagalpur,"DM Office_Kachari Chowk, Bhagalpur - BSPCB",29-09-2025 07:00:00,25.251013,86.989001,PM10,42,103,59
India,Bihar,Bhagalpur,"DM Office_Kachari Chowk, Bhagalpur - BSPCB",29-09-2025 07:00:00,25.251013,86.989001,NH3,3,11,6
India,Bihar,Bhagalpur,"Mayaganj, Bhagalpur - BSPCB",29-09-2025 07:00:00,25.265194,87.012947,NO2,9,11,10
India,Bihar,Bhagalpur,"Mayaganj, Bhagalpur - BSPCB",29-09-2025 07:00:00,25.265194,87.012947,CO,44,68,48
India,Bihar,Bihar Sharif,"D M Colony, Bihar Sharif - BSPCB",29-09-2025 07:00:00,25.204762,85.514960,PM10,58,96,69
India,Assam,Silchar,"Tarapur, Silchar - PCBA",29-09-2025 07:00:00,24.82827,92.79525,PM10,50,68,59
India,Assam,Silchar,"Tarapur, Silchar - PCBA",29-09-2025 07:00:00,24.82827,92.79525,NH3,1,1,1
India,Assam,Sivasagar,"Girls College, Sivasagar - PCBA",29-09-2025 07:00:00,26.987634,94.636574,NO2,11,22,16
India,Bihar,Araria,"Kharahiya Basti, Araria - BSPCB",29-09-2025 07:00:00,26.146529,87.454184,PM10,32,71,48
India,Bihar,Araria,"Kharahiya Basti, Araria - BSPCB",29-09-2025 07:00:00,26.146529,87.454184,NH3,5,16,6
India,Bihar,Araria,"Kharahiya Basti, Araria - BSPCB",29-09-2025 07:00:00,26.146529,87.454184,SO2,16,24,20
India,Bihar,Aurangabad,"Gurdeo Nagar, Aurangabad - BSPCB",29-09-2025 07:00:00,24.75746,84.366208,PM2.5,NA,NA,NA
India,Bihar,Chhapra,"Darshan Nagar, Chhapra - BSPCB",29-09-2025 07:00:00,25.7808257,84.7446768,NO2,1,1,1
India,Bihar,Chhapra,"Darshan Nagar, Chhapra - BSPCB",29-09-2025 07:00:00,25.7808257,84.7446768,OZONE,1,41,6
India,Bihar,Hajipur,"Industrial Area, Hajipur - BSPCB",29-09-2025 07:00:00,25.697189,85.245900,CO,NA,NA,NA
India,Bihar,Hajipur,"Industrial Area, Hajipur - BSPCB",29-09-2025 07:00:00,25.697189,85.245900,OZONE,NA,NA,NA
India,Bihar,Gaya,"Collectorate, Gaya - BSPCB",29-09-2025 07:00:00,24.7955,84.9994,SO2,10,12,11
India,Bihar,Gaya,"Collectorate, Gaya - BSPCB",29-09-2025 07:00:00,24.7955,84.9994,CO,46,56,49
India,Bihar,Begusarai,"Lohiyanagar, Begusarai - BSPCB",29-09-2025 07:00:00,25.42742023,86.13886079,PM2.5,15,34,19
India,Bihar,Bihar Sharif,"D M Colony, Bihar Sharif - BSPCB",29-09-2025 07:00:00,25.204762,85.514960,CO,1,30,15
India,Assam,Nagaon,"Christianpatty, Nagaon - PCBA",29-09-2025 07:00:00,26.349082,92.68449,PM10,40,51,48
India,Assam,Nagaon,"Christianpatty, Nagaon - PCBA",29-09-2025 07:00:00,26.349082,92.68449,SO2,8,14,12
India,Bihar,Saharsa,"Police Line, Saharsa - BSPCB",29-09-2025 07:00:00,25.892357,86.590325,NH3,4,4,4
India,Bihar,Saharsa,"Police Line, Saharsa - BSPCB",29-09-2025 07:00:00,25.892357,86.590325,SO2,16,18,17
India,Bihar,Saharsa,"Police Line, Saharsa - BSPCB",29-09-2025 07:00:00,25.892357,86.590325,OZONE,8,57,16
India,Bihar,Samastipur,"DM Office_Kasipur, Samastipur - BSPCB",29-09-2025 07:00:00,25.859655,85.77944,NH3,NA,NA,NA
India,Bihar,Samastipur,"DM Office_Kasipur, Samastipur - BSPCB",29-09-2025 07:00:00,25.859655,85.77944,SO2,NA,NA,NA
India,Bihar,Samastipur,"DM Office_Kasipur, Samastipur - BSPCB",29-09-2025 07:00:00,25.859655,85.77944,CO,NA,NA,NA
India,Bihar,Sasaram,"Dada Peer, Sasaram - BSPCB",29-09-2025 07:00:00,24.952822,84.002396,NO2,2,7,3
India,Bihar,Sasaram,"Dada Peer, Sasaram - BSPCB",29-09-2025 07:00:00,24.952822,84.002396,CO,46,101,52
India,Bihar,Muzaffarpur,"Buddha Colony, Muzaffarpur - BSPCB",29-09-2025 07:00:00,26.11442,85.39813,CO,19,40,28
India,Bihar,Muzaffarpur,"MIT-Daudpur Kothi, Muzaffarpur - BSPCB",29-09-2025 07:00:00,26.1403345,85.3650192,NO2,4,12,7
India,Bihar,Muzaffarpur,"Muzaffarpur Collectorate, Muzaffarpur - BSPCB",29-09-2025 07:00:00,26.1209,85.3647,PM2.5,37,55,43
India,Bihar,Muzaffarpur,"Muzaffarpur Collectorate, Muzaffarpur - BSPCB",29-09-2025 07:00:00,26.1209,85.3647,SO2,4,5,4
India,Bihar,Patna,"IGSC Planetarium Complex, Patna - BSPCB",29-09-2025 07:00:00,25.610369,85.132568,NO2,11,20,16
India,Bihar,Patna,"Muradpur, Patna - BSPCB",29-09-2025 07:00:00,25.619651,85.147382,OZONE,5,39,5
India,Bihar,Patna,"DRM Office Danapur, Patna - BSPCB",29-09-2025 07:00:00,25.586562,85.043586,SO2,NA,NA,NA
India,Bihar,Patna,"Govt. High School Shikarpur, Patna - BSPCB",29-09-2025 07:00:00,25.592539,85.227158,PM2.5,26,46,37
India,Bihar,Muzaffarpur,"Muzaffarpur Collectorate, Muzaffarpur - BSPCB",29-09-2025 07:00:00,26.1209,85.3647,CO,10,40,10
India,Bihar,Muzaffarpur,"Muzaffarpur Collectorate, Muzaffarpur - BSPCB",29-09-2025 07:00:00,26.1209,85.3647,OZONE,10,58,10
India,Bihar,Patna,"DRM Office Danapur, Patna - BSPCB",29-09-2025 07:00:00,25.586562,85.043586,PM10,NA,NA,NA
India,Bihar,Patna,"DRM Office Danapur, Patna - BSPCB",29-09-2025 07:00:00,25.586562,85.043586,NO2,NA,NA,NA
India,Bihar,Manguraha,"Forest Rest House, Manguraha - BSPCB",29-09-2025 07:00:00,27.308328,84.531742,PM10,25,216,62
India,Bihar,Purnia,"Mariam Nagar, Purnia - BSPCB",29-09-2025 07:00:00,25.366336,87.117468,PM2.5,15,163,54
India,Bihar,Munger,"Town Hall, Munger - BSPCB",29-09-2025 07:00:00,25.376776,86.471523,NH3,5,7,6
India,Chhattisgarh,Bilaspur,"Mangala, Bilaspur - NTPC",29-09-2025 07:00:00,22.08815,82.13737,CO,44,80,46
India,Chhattisgarh,Chhal,"Nawapara SECL Colony, Chhal - CECB",29-09-2025 07:00:00,22.118125,83.140608,PM2.5,20,46,32
India,Chhattisgarh,Chhal,"Nawapara SECL Colony, Chhal - CECB",29-09-2025 07:00:00,22.118125,83.140608,NO2,4,14,10
India,Chhattisgarh,Chhal,"Nawapara SECL Colony, Chhal - CECB",29-09-2025 07:00:00,22.118125,83.140608,OZONE,26,79,28
India,Chhattisgarh,Korba,"Rampur, Korba - CECB",29-09-2025 07:00:00,22.368195,82.746431,NO2,5,11,8
India,Chhattisgarh,Korba,"Urja Nagar, Korba - CECB",29-09-2025 07:00:00,22.348441,82.549611,PM2.5,16,22,17
India,Chhattisgarh,Korba,"Urja Nagar, Korba - CECB",29-09-2025 07:00:00,22.348441,82.549611,CO,18,34,27
India,Chhattisgarh,Korba,"Urja Nagar, Korba - CECB",29-09-2025 07:00:00,22.348441,82.549611,OZONE,35,36,35
India,Chhattisgarh,Kunjemura,"OP Jindal School, Kunjemura - CECB",29-09-2025 07:00:00,22.126650,83.483212,PM10,10,72,28
India,Chhattisgarh,Kunjemura,"OP Jindal School, Kunjemura - CECB",29-09-2025 07:00:00,22.126650,83.483212,NH3,2,2,2
India,Chhattisgarh,Milupara,"Govt. Higher Secondary School, Milupara - CECB",29-09-2025 07:00:00,22.1910172,83.5197009,PM2.5,NA,NA,NA
India,Chhattisgarh,Raipur,"Bhatagaon New ISBT, Raipur - CECB",29-09-2025 07:00:00,21.219665,81.630094,OZONE,7,15,9
India,Chhattisgarh,Raipur,"Siltara Phase-II, Raipur - CECB",29-09-2025 07:00:00,21.371751,81.664929,PM10,10,104,39
India,Chhattisgarh,Raipur,"Siltara Phase-II, Raipur - CECB",29-09-2025 07:00:00,21.371751,81.664929,NO2,10,41,18
India,Chhattisgarh,Raipur,"Siltara Phase-II, Raipur - CECB",29-09-2025 07:00:00,21.371751,81.664929,CO,12,16,13
India,Chhattisgarh,Tumidih,"OP Jindal Industrial Park, Tumidih - CECB",29-09-2025 07:00:00,22.06631475,83.33820077,SO2,5,7,6
India,Chhattisgarh,Bhilai,"Civic Center, Bhilai - Bhilai Steel Plant",29-09-2025 07:00:00,21.185571,81.343175,NH3,NA,NA,NA
India,Chhattisgarh,Bhilai,"Hathkhoj, Bhilai - CECB",29-09-2025 07:00:00,21.224231,81.408350,PM2.5,2,30,14
India,Chhattisgarh,Bhilai,"Hathkhoj, Bhilai - CECB",29-09-2025 07:00:00,21.224231,81.408350,NH3,2,4,3
India,Chhattisgarh,Milupara,"Govt. Higher Secondary School, Milupara - CECB",29-09-2025 07:00:00,22.1910172,83.5197009,OZONE,NA,NA,NA
India,Chhattisgarh,Raipur,"Bhatagaon New ISBT, Raipur - CECB",29-09-2025 07:00:00,21.219665,81.630094,PM2.5,9,17,13
India,Chandigarh,Chandigarh,"Sector-53, Chandigarh - CPCC",29-09-2025 07:00:00,30.719859,76.738637,NH3,2,11,6
India,Chhattisgarh,Bhilai,"32Bungalows, Bhilai - CECB",29-09-2025 07:00:00,21.194815,81.314770,SO2,6,10,8
India,Delhi,Delhi,"Alipur, Delhi - DPCC",29-09-2025 07:00:00,28.815329,77.153010,NH3,2,3,2
India,Delhi,Delhi,"Alipur, Delhi - DPCC",29-09-2025 07:00:00,28.815329,77.153010,CO,36,59,43
India,Chandigarh,Chandigarh,"Sector 22, Chandigarh - CPCC",29-09-2025 07:00:00,30.735567,76.775714,PM2.5,27,137,78
India,Delhi,Delhi,"Anand Vihar, Delhi - DPCC",29-09-2025 07:00:00,28.647622,77.3158090,CO,44,64,50
India,Delhi,Delhi,"Lodhi Road, Delhi - IMD",29-09-2025 07:00:00,28.5918245,77.2273074,NO2,8,105,49
India,Delhi,Delhi,"Major Dhyan Chand National Stadium, Delhi - DPCC",29-09-2025 07:00:00,28.611281,77.237738,PM2.5,20,163,55
India,Delhi,Delhi,"Major Dhyan Chand National Stadium, Delhi - DPCC",29-09-2025 07:00:00,28.611281,77.237738,PM10,49,131,92
India,Delhi,Delhi,"Major Dhyan Chand National Stadium, Delhi - DPCC",29-09-2025 07:00:00,28.611281,77.237738,OZONE,3,42,5
India,Delhi,Delhi,"Jahangirpuri, Delhi - DPCC",29-09-2025 07:00:00,28.732820,77.170633,NH3,6,7,6
India,Delhi,Delhi,"Jahangirpuri, Delhi - DPCC",29-09-2025 07:00:00,28.732820,77.170633,CO,40,94,62
India,Delhi,Delhi,"Jawaharlal Nehru Stadium, Delhi - DPCC",29-09-2025 07:00:00,28.580280,77.233829,PM2.5,NA,NA,NA
India,Delhi,Delhi,"Jawaharlal Nehru Stadium, Delhi - DPCC",29-09-2025 07:00:00,28.580280,77.233829,NO2,NA,NA,NA
India,Delhi,Delhi,"Jawaharlal Nehru Stadium, Delhi - DPCC",29-09-2025 07:00:00,28.580280,77.233829,NH3,NA,NA,NA
India,Delhi,Delhi,"Dr. Karni Singh Shooting Range, Delhi - DPCC",29-09-2025 07:00:00,28.498571,77.264840,CO,2,52,29
India,Delhi,Delhi,"Dwarka-Sector 8, Delhi - DPCC ",29-09-2025 07:00:00,28.5710274,77.0719006,NO2,26,105,55
India,Delhi,Delhi,"Dwarka-Sector 8, Delhi - DPCC ",29-09-2025 07:00:00,28.5710274,77.0719006,CO,26,96,46
India,Delhi,Delhi,"Mundka, Delhi - DPCC",29-09-2025 07:00:00,28.684678,77.076574,SO2,6,13,9
India,Delhi,Delhi,"NSIT Dwarka, Delhi - CPCB",29-09-2025 07:00:00,28.60909,77.0325413,PM10,28,92,60
India,Delhi,Delhi,"NSIT Dwarka, Delhi - CPCB",29-09-2025 07:00:00,28.60909,77.0325413,CO,29,48,45
India,Delhi,Delhi,"Ashok Vihar, Delhi - DPCC",29-09-2025 07:00:00,28.695381,77.181665,PM10,69,133,97
India,Delhi,Delhi,"Ashok Vihar, Delhi - DPCC",29-09-2025 07:00:00,28.695381,77.181665,NO2,13,81,36
India,Delhi,Delhi,"Ashok Vihar, Delhi - DPCC",29-09-2025 07:00:00,28.695381,77.181665,CO,30,71,42
India,Delhi,Delhi,"Ashok Vihar, Delhi - DPCC",29-09-2025 07:00:00,28.695381,77.181665,OZONE,6,58,14
India,Delhi,Delhi,"Bawana, Delhi - DPCC",29-09-2025 07:00:00,28.776200,77.051074,NH3,3,7,5
India,Delhi,Delhi,"Bawana, Delhi - DPCC",29-09-2025 07:00:00,28.776200,77.051074,SO2,9,12,10
India,Delhi,Delhi,"Bawana, Delhi - DPCC",29-09-2025 07:00:00,28.776200,77.051074,CO,50,93,64
India,Delhi,Delhi,"Bawana, Delhi - DPCC",29-09-2025 07:00:00,28.776200,77.051074,OZONE,7,54,8
India,Delhi,Delhi,"Burari Crossing, Delhi - IMD",29-09-2025 07:00:00,28.7256504,77.2011573,OZONE,14,90,22
India,Delhi,Delhi,"CRRI Mathura Road, Delhi - IMD",29-09-2025 07:00:00,28.5512005,77.2735737,CO,3,29,18
India,Delhi,Delhi,"IHBAS, Dilshad Garden, Delhi - CPCB",29-09-2025 07:00:00,28.6811736,77.3025234,OZONE,8,22,16
India,Delhi,Delhi,"ITO, Delhi - CPCB",29-09-2025 07:00:00,28.628624,77.241060,SO2,4,31,16
India,Delhi,Delhi,"Mundka, Delhi - DPCC",29-09-2025 07:00:00,28.684678,77.076574,PM2.5,12,75,47
India,Delhi,Delhi,"Sri Aurobindo Marg, Delhi - DPCC",29-09-2025 07:00:00,28.531346,77.190156,NO2,11,29,17
India,Delhi,Delhi,"Sri Aurobindo Marg, Delhi - DPCC",29-09-2025 07:00:00,28.531346,77.190156,SO2,2,6,3
India,Delhi,Delhi,"Vivek Vihar, Delhi - DPCC",29-09-2025 07:00:00,28.672342,77.315260,CO,45,63,50
India,Delhi,Delhi,"Wazirpur, Delhi - DPCC",29-09-2025 07:00:00,28.699793,77.165453,PM2.5,30,103,62
India,Gujarat,Ahmedabad,"Chandkheda, Ahmedabad - IITM",29-09-2025 07:00:00,23.107969,72.574648,NO2,7,33,17
India,Gujarat,Ahmedabad,"Chandkheda, Ahmedabad - IITM",29-09-2025 07:00:00,23.107969,72.574648,OZONE,6,68,13
India,Gujarat,Ahmedabad,"Gyaspur, Ahmedabad - IITM",29-09-2025 07:00:00,22.977134,72.553024,PM2.5,26,62,47
India,Gujarat,Ahmedabad,"Gyaspur, Ahmedabad - IITM",29-09-2025 07:00:00,22.977134,72.553024,CO,57,88,66
India,Delhi,Delhi,"Punjabi Bagh, Delhi - DPCC",29-09-2025 07:00:00,28.674045,77.131023,CO,37,54,49
India,Delhi,Delhi,"Pusa, Delhi - DPCC",29-09-2025 07:00:00,28.639652,77.146275,PM10,50,120,83
India,Delhi,Delhi,"Pusa, Delhi - DPCC",29-09-2025 07:00:00,28.639652,77.146275,NH3,8,15,13
India,Delhi,Delhi,"Pusa, Delhi - IMD",29-09-2025 07:00:00,28.636110,77.173332,PM10,33,118,73
India,Delhi,Delhi,"Pusa, Delhi - IMD",29-09-2025 07:00:00,28.636110,77.173332,CO,34,107,78
India,Delhi,Delhi,"Shadipur, Delhi - CPCB",29-09-2025 07:00:00,28.6514781,77.1473105,CO,34,62,46
India,Delhi,Delhi,"Shadipur, Delhi - CPCB",29-09-2025 07:00:00,28.6514781,77.1473105,OZONE,18,37,19
India,Delhi,Delhi,"Sonia Vihar, Delhi - DPCC",29-09-2025 07:00:00,28.710508,77.249485,CO,48,90,64
India,Delhi,Delhi,"Okhla Phase-2, Delhi - DPCC",29-09-2025 07:00:00,28.530785,77.271255,CO,32,63,52
India,Delhi,Delhi,"Okhla Phase-2, Delhi - DPCC",29-09-2025 07:00:00,28.530785,77.271255,OZONE,5,85,12
India,Delhi,Delhi,"Nehru Nagar, Delhi - DPCC",29-09-2025 07:00:00,28.567890,77.250515,NO2,5,32,17
India,Delhi,Delhi,"Patparganj, Delhi - DPCC",29-09-2025 07:00:00,28.623763,77.287209,CO,28,48,43
India,Delhi,Delhi,"R K Puram, Delhi - DPCC",29-09-2025 07:00:00,28.563262,77.186937,CO,3,82,38
India,Delhi,Delhi,"Rohini, Delhi - DPCC",29-09-2025 07:00:00,28.732528,77.119920,NO2,6,44,20
India,Delhi,Delhi,"Narela, Delhi - DPCC",29-09-2025 07:00:00,28.822836,77.101981,NO2,9,43,27
India,Haryana,Narnaul,"Shastri Nagar, Narnaul - HSPCB",29-09-2025 07:00:00,28.060249,76.113115,NH3,8,28,15
India,Haryana,Panchgaon,"Amity University, Panchgaon - IITM",29-09-2025 07:00:00,28.3153,76.9143,PM10,21,83,50
India,Haryana,Panchgaon,"Amity University, Panchgaon - IITM",29-09-2025 07:00:00,28.3153,76.9143,OZONE,14,66,19
India,Himachal Pradesh,Baddi,"HIMUDA Complex Phase-1, Baddi - HPPCB",29-09-2025 07:00:00,30.943887,76.801991,PM10,59,199,114
India,Jammu_and_Kashmir,Srinagar,"Rajbagh, Srinagar - JKSPCB",29-09-2025 07:00:00,34.066206,74.819820,PM2.5,33,61,51
India,Jharkhand,Dhanbad,"Sardar Patel Nagar, Dhanbad - JSPCB",29-09-2025 07:00:00,23.80569,86.44268,SO2,13,104,29
India,Gujarat,Gandhinagar,"GIFT City, Gandhinagar - IITM",29-09-2025 07:00:00,23.163798,72.677768,OZONE,4,29,7
India,Gujarat,Gandhinagar,"IIPHG Lekawada, Gandhinagar - IITM",29-09-2025 07:00:00,23.243639,72.68994,PM2.5,2,32,16
India,Gujarat,Gandhinagar,"IIPHG Lekawada, Gandhinagar - IITM",29-09-2025 07:00:00,23.243639,72.68994,OZONE,10,35,13
India,Gujarat,Gandhinagar,"Sector-10, Gandhinagar - GPCB",29-09-2025 07:00:00,23.221714,72.654328,SO2,5,8,6
India,Gujarat,Gandhinagar,"Sector-10, Gandhinagar - GPCB",29-09-2025 07:00:00,23.221714,72.654328,OZONE,32,34,33
India,Gujarat,Vatva,"Phase-4 GIDC, Vatva - GPCB",29-09-2025 07:00:00,22.969611,72.643500,PM2.5,41,41,41
India,Gujarat,Vatva,"Phase-4 GIDC, Vatva - GPCB",29-09-2025 07:00:00,22.969611,72.643500,NH3,2,3,2
India,Gujarat,Vatva,"Phase-4 GIDC, Vatva - GPCB",29-09-2025 07:00:00,22.969611,72.643500,CO,8,11,8
India,Gujarat,Ahmedabad,"Rakhial, Ahmedabad - IITM",29-09-2025 07:00:00,23.016834,72.625775,NH3,5,9,6
India,Gujarat,Ahmedabad,"SAC ISRO Satellite, Ahmedabad - IITM",29-09-2025 07:00:00,23.023389,72.515201,PM2.5,15,67,34
India,Gujarat,Ahmedabad,"SAC ISRO Satellite, Ahmedabad - IITM",29-09-2025 07:00:00,23.023389,72.515201,NO2,13,46,28
India,Gujarat,Ahmedabad,"SAC ISRO Satellite, Ahmedabad - IITM",29-09-2025 07:00:00,23.023389,72.515201,CO,1,30,12
India,Gujarat,Ahmedabad,"SVPI Airport Hansol, Ahmedabad - IITM",29-09-2025 07:00:00,23.076793,72.627874,PM10,17,64,38
India,Gujarat,Ahmedabad,"SVPI Airport Hansol, Ahmedabad - IITM",29-09-2025 07:00:00,23.076793,72.627874,NH3,1,1,1
India,Gujarat,Ahmedabad,"SVPI Airport Hansol, Ahmedabad - IITM",29-09-2025 07:00:00,23.076793,72.627874,SO2,1,3,2
India,Gujarat,Ahmedabad,"SVPI Airport Hansol, Ahmedabad - IITM",29-09-2025 07:00:00,23.076793,72.627874,CO,12,38,23
India,Haryana,Faridabad,"New Industrial Town, Faridabad - HSPCB",29-09-2025 07:00:00,28.39072,77.30059,PM2.5,126,142,133
India,Haryana,Faridabad,"New Industrial Town, Faridabad - HSPCB",29-09-2025 07:00:00,28.39072,77.30059,NO2,24,27,25
India,Haryana,Faridabad,"New Industrial Town, Faridabad - HSPCB",29-09-2025 07:00:00,28.39072,77.30059,NH3,11,12,11
India,Haryana,Faridabad,"New Industrial Town, Faridabad - HSPCB",29-09-2025 07:00:00,28.39072,77.30059,SO2,8,8,8
India,Haryana,Faridabad,"Sector 30, Faridabad - HSPCB",29-09-2025 07:00:00,28.4417,77.3217,PM10,96,102,100
India,Gujarat,Ahmedabad,"Maninagar, Ahmedabad - GPCB",29-09-2025 07:00:00,23.002657,72.591912,OZONE,36,157,54
India,Gujarat,Ahmedabad,"Raikhad, Ahmedabad - IITM",29-09-2025 07:00:00,23.020509,72.579261,NO2,14,49,31
India,Gujarat,Ahmedabad,"Raikhad, Ahmedabad - IITM",29-09-2025 07:00:00,23.020509,72.579261,NH3,12,14,13
India,Gujarat,Ahmedabad,"Raikhad, Ahmedabad - IITM",29-09-2025 07:00:00,23.020509,72.579261,CO,18,48,26
India,Gujarat,Ahmedabad,"Raikhad, Ahmedabad - IITM",29-09-2025 07:00:00,23.020509,72.579261,OZONE,3,30,5
India,Jharkhand,Jorapokhar,"Tata Stadium, Jorapokhar - JSPCB",29-09-2025 07:00:00,23.707909,86.414670,PM10,NA,NA,NA
India,Karnataka,Bagalkot,"Vidayagiri, Bagalkot - KSPCB",29-09-2025 07:00:00,16.172806,75.659694,PM2.5,33,34,34
India,Haryana,Bhiwani,"H.B. Colony, Bhiwani - HSPCB",29-09-2025 07:00:00,28.806223,76.141105,CO,12,13,12
India,Haryana,Bhiwani,"H.B. Colony, Bhiwani - HSPCB",29-09-2025 07:00:00,28.806223,76.141105,OZONE,11,19,14
India,Gujarat,Gandhinagar,"GIFT City, Gandhinagar - IITM",29-09-2025 07:00:00,23.163798,72.677768,NO2,6,21,12
India,Haryana,Bahadurgarh,"Arya Nagar, Bahadurgarh - HSPCB",29-09-2025 07:00:00,28.6701,76.9254,SO2,NA,NA,NA
India,Karnataka,Chamarajanagar,"Urban, Chamarajanagar - KSPCB",29-09-2025 07:00:00,11.55358,76.55521,OZONE,15,35,25
India,Karnataka,Davanagere,"Devaraj Urs Badavane, Davanagere - KSPCB",29-09-2025 07:00:00,14.475800,75.905200,PM2.5,5,38,16
India,Karnataka,Dharwad,"Kalabhavan, Dharwad - KSPCB",29-09-2025 07:00:00,15.459706,75.008381,SO2,1,2,1
India,Karnataka,Dharwad,"Kalabhavan, Dharwad - KSPCB",29-09-2025 07:00:00,15.459706,75.008381,CO,28,49,34
India,Karnataka,Dharwad,"Kalabhavan, Dharwad - KSPCB",29-09-2025 07:00:00,15.459706,75.008381,OZONE,14,20,18
India,Karnataka,Haveri,"Ashwini Nagar, Haveri - KSPCB",29-09-2025 07:00:00,14.791800,75.389600,PM2.5,NA,NA,NA
India,Karnataka,Madikeri,"Stuart Hill, Madikeri - KSPCB",29-09-2025 07:00:00,12.415911,75.735050,PM2.5,14,500,84
India,Karnataka,Mysuru,"Hebbal 1st Stage, Mysuru - KSPCB",29-09-2025 07:00:00,12.21041,76.37376,PM2.5,11,26,16
India,Karnataka,Mysuru,"Hebbal 1st Stage, Mysuru - KSPCB",29-09-2025 07:00:00,12.21041,76.37376,PM10,18,41,30
India,Karnataka,Ramanagara,"Vijay Nagar, Ramanagara - KSPCB",29-09-2025 07:00:00,12.733409,77.298051,PM2.5,NA,NA,NA
India,Karnataka,Shivamogga,"Vinoba Nagara, Shivamogga - KSPCB",29-09-2025 07:00:00,13.940000,75.555917,NO2,13,19,16
India,Karnataka,Shivamogga,"Vinoba Nagara, Shivamogga - KSPCB",29-09-2025 07:00:00,13.940000,75.555917,OZONE,15,35,21
India,Karnataka,Bengaluru,"City Railway Station, Bengaluru - KSPCB",29-09-2025 07:00:00,12.9756843,77.5660749,SO2,6,13,9
India,Karnataka,Bengaluru,"Hebbal, Bengaluru - KSPCB",29-09-2025 07:00:00,13.029152,77.585901,PM2.5,NA,NA,NA
India,Karnataka,Bengaluru,"Hombegowda Nagar, Bengaluru - KSPCB",29-09-2025 07:00:00,12.938539,77.590100,NH3,1,1,1
India,Karnataka,Bengaluru,"Jayanagar 5th Block, Bengaluru - KSPCB",29-09-2025 07:00:00,12.920984,77.584908,NH3,NA,NA,NA
India,Karnataka,Bengaluru,"Jayanagar 5th Block, Bengaluru - KSPCB",29-09-2025 07:00:00,12.920984,77.584908,SO2,NA,NA,NA
India,Karnataka,Yadgir,"Collector Office, Yadgir - KSPCB",29-09-2025 07:00:00,16.7602,77.1428,SO2,8,32,23
India,Kerala,Kannur,"Thavakkara, Kannur - Kerala PCB",29-09-2025 07:00:00,11.875000,75.373200,PM2.5,NA,NA,NA
India,Kerala,Kannur,"Thavakkara, Kannur - Kerala PCB",29-09-2025 07:00:00,11.875000,75.373200,SO2,NA,NA,NA
India,Kerala,Thiruvananthapuram,"Kariavattom, Thiruvananthapuram - Kerala PCB",29-09-2025 07:00:00,8.563700,76.886500,OZONE,36,36,36
India,Karnataka,Hubballi,"Lingaraj Nagar, Hubballi - KSPCB",29-09-2025 07:00:00,15.3714823,75.1160168,CO,10,20,13
India,Karnataka,Kalaburagi,"Mahatma Basaveswar Colony, Kalaburgi - KSPCB",29-09-2025 07:00:00,17.336318,76.847397,PM2.5,26,36,32
India,Karnataka,Karwar,"KHB Colony, Karwar - KSPCB",29-09-2025 07:00:00,14.816666,74.141003,PM10,NA,NA,NA
India,Karnataka,Bagalkot,"Vidayagiri, Bagalkot - KSPCB",29-09-2025 07:00:00,16.172806,75.659694,NH3,1,2,1
India,Karnataka,Bengaluru,"Bapuji Nagar, Bengaluru - KSPCB",29-09-2025 07:00:00,12.951913,77.539784,NH3,1,1,1
India,Karnataka,Bengaluru,"Bapuji Nagar, Bengaluru - KSPCB",29-09-2025 07:00:00,12.951913,77.539784,OZONE,1,32,3
India,Karnataka,Haveri,"Ashwini Nagar, Haveri - KSPCB",29-09-2025 07:00:00,14.791800,75.389600,OZONE,NA,NA,NA
India,Karnataka,Hubballi,"Lingaraj Nagar, Hubballi - KSPCB",29-09-2025 07:00:00,15.3714823,75.1160168,NH3,1,1,1
India,Karnataka,Bengaluru,"Shivapura_Peenya, Bengaluru - KSPCB",29-09-2025 07:00:00,13.0246342,77.5080115,OZONE,24,25,24
India,Karnataka,Chamarajanagar,"Urban, Chamarajanagar - KSPCB",29-09-2025 07:00:00,11.55358,76.55521,PM2.5,20,38,30
India,Madhya Pradesh,Indore,"Chhoti Gwaltoli, Indore - MPPCB",29-09-2025 07:00:00,22.4310,75.5213,NH3,6,8,7
India,Madhya Pradesh,Indore,"Maguda Nagar, Indore - IMC",29-09-2025 07:00:00,22.7524,75.8872,PM10,8,23,13
India,Madhya Pradesh,Indore,"Maguda Nagar, Indore - IMC",29-09-2025 07:00:00,22.7524,75.8872,NO2,2,2,2
India,Madhya Pradesh,Indore,"Maguda Nagar, Indore - IMC",29-09-2025 07:00:00,22.7524,75.8872,NH3,NA,NA,NA
India,Madhya Pradesh,Indore,"Maguda Nagar, Indore - IMC",29-09-2025 07:00:00,22.7524,75.8872,CO,20,24,23
India,Madhya Pradesh,Indore,"Regional Park, Indore - IMC",29-09-2025 07:00:00,22.6780,75.8559,PM2.5,6,23,13
India,Madhya Pradesh,Indore,"Residency Area, Indore - IMC",29-09-2025 07:00:00,22.7084,75.8815,PM2.5,3,96,22
India,Madhya Pradesh,Indore,"Residency Area, Indore - IMC",29-09-2025 07:00:00,22.7084,75.8815,CO,12,14,13
India,Madhya Pradesh,Indore,"Residency Area, Indore - IMC",29-09-2025 07:00:00,22.7084,75.8815,OZONE,7,13,11
India,Madhya Pradesh,Jabalpur,"Govindh Bhavan Colony, Jabalpur - JMC",29-09-2025 07:00:00,23.163174,79.973061,CO,18,31,21
India,Madhya Pradesh,Jabalpur,"Gupteshwar, Jabalpur - JMC",29-09-2025 07:00:00,23.142888,79.916147,PM2.5,NA,NA,NA
India,Madhya Pradesh,Bhopal,"Idgah Hills, Bhopal - MPPCB",29-09-2025 07:00:00,23.264759,77.381568,NH3,2,2,2
India,Madhya Pradesh,Bhopal,"Idgah Hills, Bhopal - MPPCB",29-09-2025 07:00:00,23.264759,77.381568,CO,22,40,29
India,Madhya Pradesh,Bhopal,"Paryavaran Parisar, Bhopal - MPPCB",29-09-2025 07:00:00,23.210494,77.425409,SO2,12,14,13
India,Madhya Pradesh,Bhopal,"T T Nagar, Bhopal - MPPCB",29-09-2025 07:00:00,23.233584,77.400574,PM2.5,22,35,28
India,Madhya Pradesh,Bhopal,"T T Nagar, Bhopal - MPPCB",29-09-2025 07:00:00,23.233584,77.400574,OZONE,13,42,15
India,Kerala,Thiruvananthapuram,"Plammoodu, Thiruvananthapuram - Kerala PCB",29-09-2025 07:00:00,8.5149093,76.9435879,NO2,41,88,64
India,Kerala,Thrissur,"Corporation Ground, Thrissur - Kerala PCB",29-09-2025 07:00:00,10.532400,76.215900,PM10,47,55,50
India,Kerala,Thrissur,"Corporation Ground, Thrissur - Kerala PCB",29-09-2025 07:00:00,10.532400,76.215900,NO2,8,10,9
India,Madhya Pradesh,Gwalior,"City Center, Gwalior - MPPCB",29-09-2025 07:00:00,26.203442,78.193251,OZONE,29,41,41
India,Madhya Pradesh,Gwalior,"Deen Dayal Nagar, Gwalior - MPPCB",29-09-2025 07:00:00,26.259242,78.216432,PM2.5,22,58,41
India,Madhya Pradesh,Gwalior,"Deen Dayal Nagar, Gwalior - MPPCB",29-09-2025 07:00:00,26.259242,78.216432,NH3,2,5,3
India,Madhya Pradesh,Dewas,"Bhopal Chauraha, Dewas - MPPCB",29-09-2025 07:00:00,22.9682591,76.064118,OZONE,28,32,29
India,Madhya Pradesh,Gwalior,"City Center, Gwalior - MPPCB",29-09-2025 07:00:00,26.203442,78.193251,PM2.5,10,30,22
India,Madhya Pradesh,Gwalior,"Maharaj Bada, Gwalior - MPPCB",29-09-2025 07:00:00,26.200388,78.147714,PM2.5,32,58,42
India,Madhya Pradesh,Gwalior,"City Center, Gwalior - MPPCB",29-09-2025 07:00:00,26.203442,78.193251,PM10,19,47,29
India,Madhya Pradesh,Gwalior,"City Center, Gwalior - MPPCB",29-09-2025 07:00:00,26.203442,78.193251,SO2,9,27,20
India,Madhya Pradesh,Jabalpur,"Gupteshwar, Jabalpur - JMC",29-09-2025 07:00:00,23.142888,79.916147,CO,NA,NA,NA
India,Madhya Pradesh,Katni,"Gole Bazar, Katni - MPPCB",29-09-2025 07:00:00,23.50016,80.23284,SO2,16,32,24
India,Madhya Pradesh,Katni,"Gole Bazar, Katni - MPPCB",29-09-2025 07:00:00,23.50016,80.23284,CO,23,36,32
India,Madhya Pradesh,Katni,"Gole Bazar, Katni - MPPCB",29-09-2025 07:00:00,23.50016,80.23284,OZONE,3,91,32
India,Madhya Pradesh,Maihar,"Sahilara, Maihar - KJS Cements",29-09-2025 07:00:00,24.2613009,80.7231783,PM10,21,429,107
India,Madhya Pradesh,Mandideep,"Sector-D Industrial Area, Mandideep - MPPCB",29-09-2025 07:00:00,23.108440,77.511428,NO2,17,54,31
India,Maharashtra,Aurangabad,"Rachnakar Colony, Aurangabad - MPCB",29-09-2025 07:00:00,19.863756,75.321188,OZONE,12,49,14
India,Maharashtra,Badlapur,"Katrap, Badlapur - MPCB",29-09-2025 07:00:00,19.16485,73.23409,NO2,NA,NA,NA
India,Maharashtra,Belapur,"CBD Belapur, Belapur - MPCB",29-09-2025 07:00:00,19.0243902,73.0406721,PM10,25,35,30
India,Maharashtra,Belapur,"CBD Belapur, Belapur - MPCB",29-09-2025 07:00:00,19.0243902,73.0406721,NO2,2,12,8
India,Maharashtra,Amravati,"Shri Shivaji Science College, Amravati - MPCB",29-09-2025 07:00:00,20.939198,77.765701,SO2,12,14,14
India,Maharashtra,Aurangabad,"More Chowk Waluj, Aurangabad - MPCB",29-09-2025 07:00:00,19.8389439,75.244448,NH3,10,11,11
India,Maharashtra,Aurangabad,"Rachnakar Colony, Aurangabad - MPCB",29-09-2025 07:00:00,19.863756,75.321188,PM2.5,13,313,38
India,Madhya Pradesh,Satna,"Bandhavgar Colony, Satna - Birla Cement",29-09-2025 07:00:00,24.58434363,80.8549414,CO,16,22,18
India,Madhya Pradesh,Satna,"Bandhavgar Colony, Satna - Birla Cement",29-09-2025 07:00:00,24.58434363,80.8549414,OZONE,NA,NA,NA
India,Maharashtra,Akola,"Ramdaspeth, Akola - MPCB",29-09-2025 07:00:00,20.719516,77.000253,PM10,10,32,21
India,Maharashtra,Akola,"Ramdaspeth, Akola - MPCB",29-09-2025 07:00:00,20.719516,77.000253,NO2,8,18,13
India,Madhya Pradesh,Satna,"Bandhavgar Colony, Satna - Birla Cement",29-09-2025 07:00:00,24.58434363,80.8549414,PM2.5,42,46,44
India,Madhya Pradesh,Sagar,"Civil Lines, Sagar - MPPCB",29-09-2025 07:00:00,23.838586,78.759431,PM2.5,6,39,19
India,Madhya Pradesh,Jabalpur,"Marhatal, Jabalpur - MPPCB",29-09-2025 07:00:00,23.168606,79.932247,CO,20,106,89
India,Madhya Pradesh,Sagar,"Civil Lines, Sagar - MPPCB",29-09-2025 07:00:00,23.838586,78.759431,NO2,4,6,5
India,Maharashtra,Mumbai,"Byculla, Mumbai - BMC",29-09-2025 07:00:00,18.9767,72.8380,PM2.5,11,32,21
India,Maharashtra,Mumbai,"Byculla, Mumbai - BMC",29-09-2025 07:00:00,18.9767,72.8380,PM10,9,30,20
India,Maharashtra,Mumbai,"Byculla, Mumbai - BMC",29-09-2025 07:00:00,18.9767,72.8380,SO2,10,11,10
India,Maharashtra,Mumbai,"Chakala-Andheri East, Mumbai - IITM",29-09-2025 07:00:00,19.11074,72.86084,NO2,1,22,9
India,Maharashtra,Mumbai,"Chakala-Andheri East, Mumbai - IITM",29-09-2025 07:00:00,19.11074,72.86084,SO2,1,24,9
India,Maharashtra,Mumbai,"Chembur, Mumbai - MPCB",29-09-2025 07:00:00,19.0364585,72.8954371,PM10,24,37,29
India,Maharashtra,Mumbai,"Chhatrapati Shivaji Intl. Airport (T2), Mumbai - MPCB",29-09-2025 07:00:00,19.10078,72.87462,PM10,61,68,64
India,Maharashtra,Mumbai,"Chhatrapati Shivaji Intl. Airport (T2), Mumbai - MPCB",29-09-2025 07:00:00,19.10078,72.87462,NH3,1,1,1
India,Maharashtra,Mumbai,"Chhatrapati Shivaji Intl. Airport (T2), Mumbai - MPCB",29-09-2025 07:00:00,19.10078,72.87462,SO2,20,21,20
India,Maharashtra,Mumbai,"Chhatrapati Shivaji Intl. Airport (T2), Mumbai - MPCB",29-09-2025 07:00:00,19.10078,72.87462,CO,24,26,25
India,Maharashtra,Mumbai,"Colaba, Mumbai - MPCB",29-09-2025 07:00:00,18.910000,72.820000,NO2,24,24,24
India,Maharashtra,Mumbai,"Bandra Kurla Complex, Mumbai - MPCB",29-09-2025 07:00:00,19.065931,72.862131,PM10,88,94,91
India,Maharashtra,Mumbai,"Bandra Kurla Complex, Mumbai - MPCB",29-09-2025 07:00:00,19.065931,72.862131,NO2,6,15,11
India,Maharashtra,Mumbai,"Bandra Kurla Complex, Mumbai - MPCB",29-09-2025 07:00:00,19.065931,72.862131,NH3,1,4,1
India,Maharashtra,Mumbai,"Bandra Kurla Complex, Mumbai - MPCB",29-09-2025 07:00:00,19.065931,72.862131,SO2,2,4,3
India,Maharashtra,Mumbai,"Borivali East, Mumbai - IITM",29-09-2025 07:00:00,19.23241,72.86895,PM2.5,19,52,35
India,Maharashtra,Mumbai,"Borivali East, Mumbai - IITM",29-09-2025 07:00:00,19.23241,72.86895,OZONE,35,60,52
India,Maharashtra,Mumbai,"Borivali East, Mumbai - MPCB",29-09-2025 07:00:00,19.2243333,72.8658113,PM2.5,18,97,33
India,Maharashtra,Mumbai,"Borivali East, Mumbai - MPCB",29-09-2025 07:00:00,19.2243333,72.8658113,NH3,1,1,1
India,Maharashtra,Belapur,"CBD Belapur, Belapur - MPCB",29-09-2025 07:00:00,19.0243902,73.0406721,CO,2,16,5
India,Maharashtra,Boisar,"Khaira, Boisar - MPCB",29-09-2025 07:00:00,19.786089,72.757971,PM2.5,22,117,54
India,Maharashtra,Boisar,"Khaira, Boisar - MPCB",29-09-2025 07:00:00,19.786089,72.757971,SO2,NA,NA,NA
India,Maharashtra,Chandrapur,"Chauhan Colony, Chandrapur - MPCB",29-09-2025 07:00:00,19.962900,79.298714,NO2,21,32,24
India,Maharashtra,Chandrapur,"Chauhan Colony, Chandrapur - MPCB",29-09-2025 07:00:00,19.962900,79.298714,SO2,34,34,34
India,Maharashtra,Chandrapur,"MIDC Khutala, Chandrapur - MPCB",29-09-2025 07:00:00,19.9775302,79.2337086,PM2.5,NA,NA,NA
India,Maharashtra,Chandrapur,"MIDC Khutala, Chandrapur - MPCB",29-09-2025 07:00:00,19.9775302,79.2337086,SO2,8,9,9
India,Maharashtra,Chandrapur,"MIDC Khutala, Chandrapur - MPCB",29-09-2025 07:00:00,19.9775302,79.2337086,OZONE,17,19,18
India,Maharashtra,Dhule,"Deopur, Dhule - MPCB",29-09-2025 07:00:00,20.918946,74.776388,OZONE,13,54,22
India,Maharashtra,Jalgaon,"Prabhat Colony, Jalgaon - MPCB",29-09-2025 07:00:00,21.001264,75.565602,SO2,4,13,5
India,Maharashtra,Jalna,"Old MIDC, Jalna - MPCB",29-09-2025 07:00:00,19.854616,75.905894,NH3,NA,NA,NA
India,Maharashtra,Jalna,"Old MIDC, Jalna - MPCB",29-09-2025 07:00:00,19.854616,75.905894,CO,5,22,11
India,Maharashtra,Mumbai,"Colaba, Mumbai - MPCB",29-09-2025 07:00:00,18.910000,72.820000,OZONE,8,13,10
