country,state,city,station,last_update,latitude,longitude,pollutant_id,min_value,max_value,avg_value
India,Bihar,Aurangabad,"Gurdeo Nagar, Aurangabad - BSPCB",20-09-2025 15:00:00,24.75746,84.366208,OZONE,5,17,9
India,Bihar,Begusarai,"Lohiyanagar, Begusarai - BSPCB",20-09-2025 15:00:00,25.42742023,86.13886079,PM2.5,13,37,20
India,Bihar,Begusarai,"Lohiyanagar, Begusarai - BSPCB",20-09-2025 15:00:00,25.42742023,86.13886079,NO2,9,20,15
India,Bihar,Begusarai,"Lohiyanagar, Begusarai - BSPCB",20-09-2025 15:00:00,25.42742023,86.13886079,SO2,5,48,24
India,Bihar,Begusarai,"Lohiyanagar, Begusarai - BSPCB",20-09-2025 15:00:00,25.42742023,86.13886079,CO,8,92,54
India,Bihar,Begusarai,"Lohiyanagar, Begusarai - BSPCB",20-09-2025 15:00:00,25.42742023,86.13886079,OZONE,14,44,23
India,Bihar,Bhagalpur,"DM Office_Kachari Chowk, Bhagalpur - BSPCB",20-09-2025 15:00:00,25.251013,86.989001,NO2,12,16,15
India,Bihar,Bhagalpur,"Mayaganj, Bhagalpur - BSPCB",20-09-2025 15:00:00,25.265194,87.012947,PM2.5,7,283,84
India,Bihar,Bihar Sharif,"D M Colony, Bihar Sharif - BSPCB",20-09-2025 15:00:00,25.204762,85.514960,PM10,68,101,84
India,Andhra_Pradesh,Anantapur,"Gulzarpet, Anantapur - APPCB",20-09-2025 15:00:00,14.675886,77.593027,CO,2,51,12
India,Andhra_Pradesh,Chittoor,"Gangineni Cheruvu, Chittoor - APPCB",20-09-2025 15:00:00,13.204880,79.097889,PM10,64,95,82
India,Andhra_Pradesh,Kadapa,"Yerramukkapalli, Kadapa - APPCB",20-09-2025 15:00:00,14.465052,78.824187,PM2.5,58,83,66
India,Andhra_Pradesh,Kadapa,"Yerramukkapalli, Kadapa - APPCB",20-09-2025 15:00:00,14.465052,78.824187,PM10,60,89,69
India,Andhra_Pradesh,Kadapa,"Yerramukkapalli, Kadapa - APPCB",20-09-2025 15:00:00,14.465052,78.824187,OZONE,33,45,38
India,Andhra_Pradesh,Rajamahendravaram,"Anand Kala Kshetram, Rajamahendravaram - APPCB",20-09-2025 15:00:00,16.9872867,81.7363176,SO2,NA,NA,NA
India,Andhra_Pradesh,Tirumala,"Toll Gate, Tirumala - APPCB",20-09-2025 15:00:00,13.67,79.35,NO2,9,14,11
India,Bihar,Bihar Sharif,"D M Colony, Bihar Sharif - BSPCB",20-09-2025 15:00:00,25.204762,85.514960,NO2,9,10,9
India,Bihar,Bihar Sharif,"D M Colony, Bihar Sharif - BSPCB",20-09-2025 15:00:00,25.204762,85.514960,NH3,2,5,3
India,Bihar,Bihar Sharif,"D M Colony, Bihar Sharif - BSPCB",20-09-2025 15:00:00,25.204762,85.514960,SO2,8,10,10
India,Bihar,Buxar,"Charitra Van, Buxar - BSPCB",20-09-2025 15:00:00,25.567520,83.966379,SO2,1,7,3
India,Bihar,Chhapra,"Darshan Nagar, Chhapra - BSPCB",20-09-2025 15:00:00,25.7808257,84.7446768,PM2.5,5,72,28
India,Bihar,Chhapra,"Darshan Nagar, Chhapra - BSPCB",20-09-2025 15:00:00,25.7808257,84.7446768,SO2,8,9,8
India,Bihar,Gaya,"Collectorate, Gaya - BSPCB",20-09-2025 15:00:00,24.7955,84.9994,NO2,8,10,9
India,Bihar,Gaya,"Kareemganj, Gaya - BSPCB",20-09-2025 15:00:00,24.792403,84.992416,SO2,16,18,16
India,Andhra_Pradesh,Visakhapatnam,"GVM Corporation, Visakhapatnam - APPCB",20-09-2025 15:00:00,17.72,83.3,CO,6,82,23
India,Arunachal_Pradesh,Naharlagun,"Naharlagun, Naharlagun - APSPCB",20-09-2025 15:00:00,27.103358,93.679645,NO2,5,6,6
India,Assam,Byrnihat,"Central Academy for SFS, Byrnihat - PCBA",20-09-2025 15:00:00,26.071318,91.87488,CO,32,62,52
India,Assam,Guwahati,"IITG, Guwahati - PCBA",20-09-2025 15:00:00,26.2028636,91.70046436,CO,2,14,6
India,Assam,Guwahati,"LGBI Airport, Guwahati - PCBA",20-09-2025 15:00:00,26.10887,91.589544,PM10,50,51,51
India,Assam,Guwahati,"LGBI Airport, Guwahati - PCBA",20-09-2025 15:00:00,26.10887,91.589544,NO2,12,17,14
India,Bihar,Gaya,"SFTI Kusdihra, Gaya - BSPCB",20-09-2025 15:00:00,24.762518,84.982348,PM10,15,34,22
India,Bihar,Gaya,"SFTI Kusdihra, Gaya - BSPCB",20-09-2025 15:00:00,24.762518,84.982348,NH3,3,4,3
India,Bihar,Gaya,"SFTI Kusdihra, Gaya - BSPCB",20-09-2025 15:00:00,24.762518,84.982348,SO2,7,10,8
India,Bihar,Gaya,"SFTI Kusdihra, Gaya - BSPCB",20-09-2025 15:00:00,24.762518,84.982348,CO,22,30,26
India,Bihar,Hajipur,"Industrial Area, Hajipur - BSPCB",20-09-2025 15:00:00,25.697189,85.245900,SO2,1,6,4
India,Bihar,Kishanganj,"SDM Office_Khagra, Kishanganj - BSPCB",20-09-2025 15:00:00,26.0881305,87.93840336,PM2.5,17,500,97
India,Assam,Guwahati,"Railway Colony, Guwahati - PCBA",20-09-2025 15:00:00,26.181742,91.78063,PM2.5,28,77,45
India,Assam,Guwahati,"Railway Colony, Guwahati - PCBA",20-09-2025 15:00:00,26.181742,91.78063,SO2,28,28,28
India,Assam,Nagaon,"Christianpatty, Nagaon - PCBA",20-09-2025 15:00:00,26.349082,92.68449,NO2,1,1,1
India,Assam,Nagaon,"Christianpatty, Nagaon - PCBA",20-09-2025 15:00:00,26.349082,92.68449,OZONE,6,9,9
India,Assam,Nalbari,"Bata Chowk, Nalbari - PCBA",20-09-2025 15:00:00,26.446912,91.439057,PM10,17,40,29
India,Assam,Nalbari,"Bata Chowk, Nalbari - PCBA",20-09-2025 15:00:00,26.446912,91.439057,NO2,1,8,5
India,Andhra_Pradesh,Tirumala,"Toll Gate, Tirumala - APPCB",20-09-2025 15:00:00,13.67,79.35,SO2,2,4,3
India,Andhra_Pradesh,Tirupati,"Vaikuntapuram, Tirupati - APPCB",20-09-2025 15:00:00,13.615387,79.409230,NO2,4,5,5
India,Andhra_Pradesh,Tirupati,"Vaikuntapuram, Tirupati - APPCB",20-09-2025 15:00:00,13.615387,79.409230,NH3,4,4,4
India,Andhra_Pradesh,Tirupati,"Vaikuntapuram, Tirupati - APPCB",20-09-2025 15:00:00,13.615387,79.409230,CO,6,26,15
India,Andhra_Pradesh,Vijayawada,"Rajiv Gandhi Park, Vijayawada - APPCB",20-09-2025 15:00:00,16.509717,80.612222,OZONE,23,41,36
India,Assam,Sivasagar,"Girls College, Sivasagar - PCBA",20-09-2025 15:00:00,26.987634,94.636574,PM2.5,28,61,39
India,Bihar,Arrah,"New DM Office, Arrah - BSPCB",20-09-2025 15:00:00,25.5626095,84.663264,PM10,26,28,27
India,Bihar,Arrah,"New DM Office, Arrah - BSPCB",20-09-2025 15:00:00,25.5626095,84.663264,NH3,1,1,1
India,Bihar,Aurangabad,"Gurdeo Nagar, Aurangabad - BSPCB",20-09-2025 15:00:00,24.75746,84.366208,PM10,44,275,100
India,Bihar,Munger,"Town Hall, Munger - BSPCB",20-09-2025 15:00:00,25.376776,86.471523,CO,25,36,31
India,Bihar,Muzaffarpur,"Buddha Colony, Muzaffarpur - BSPCB",20-09-2025 15:00:00,26.11442,85.39813,NO2,8,19,12
India,Andhra_Pradesh,Amaravati,"Secretariat, Amaravati - APPCB",20-09-2025 15:00:00,16.5150833,80.5181667,NO2,10,43,16
India,Andhra_Pradesh,Amaravati,"Secretariat, Amaravati - APPCB",20-09-2025 15:00:00,16.5150833,80.5181667,NH3,2,5,5
India,Bihar,Muzaffarpur,"MIT-Daudpur Kothi, Muzaffarpur - BSPCB",20-09-2025 15:00:00,26.1403345,85.3650192,SO2,19,22,21
India,Bihar,Muzaffarpur,"MIT-Daudpur Kothi, Muzaffarpur - BSPCB",20-09-2025 15:00:00,26.1403345,85.3650192,OZONE,35,47,38
India,Bihar,Muzaffarpur,"Muzaffarpur Collectorate, Muzaffarpur - BSPCB",20-09-2025 15:00:00,26.1209,85.3647,NO2,11,15,14
India,Bihar,Muzaffarpur,"Muzaffarpur Collectorate, Muzaffarpur - BSPCB",20-09-2025 15:00:00,26.1209,85.3647,OZONE,11,61,35
India,Bihar,Patna,"DRM Office Danapur, Patna - BSPCB",20-09-2025 15:00:00,25.586562,85.043586,PM2.5,1,75,30
India,Bihar,Patna,"DRM Office Danapur, Patna - BSPCB",20-09-2025 15:00:00,25.586562,85.043586,SO2,6,10,8
India,Bihar,Patna,"Govt. High School Shikarpur, Patna - BSPCB",20-09-2025 15:00:00,25.592539,85.227158,PM10,17,48,26
India,Bihar,Patna,"IGSC Planetarium Complex, Patna - BSPCB",20-09-2025 15:00:00,25.610369,85.132568,NO2,NA,NA,NA
India,Chhattisgarh,Bhilai,"32Bungalows, Bhilai - CECB",20-09-2025 15:00:00,21.194815,81.314770,OZONE,3,39,24
India,Chhattisgarh,Bhilai,"Civic Center, Bhilai - Bhilai Steel Plant",20-09-2025 15:00:00,21.185571,81.343175,PM2.5,16,79,42
India,Chhattisgarh,Bhilai,"Hathkhoj, Bhilai - CECB",20-09-2025 15:00:00,21.224231,81.408350,PM2.5,18,45,32
India,Chhattisgarh,Bhilai,"Hathkhoj, Bhilai - CECB",20-09-2025 15:00:00,21.224231,81.408350,PM10,30,80,50
India,Chhattisgarh,Bhilai,"Hathkhoj, Bhilai - CECB",20-09-2025 15:00:00,21.224231,81.408350,NO2,7,35,18
India,Chhattisgarh,Bhilai,"Hathkhoj, Bhilai - CECB",20-09-2025 15:00:00,21.224231,81.408350,SO2,7,9,8
India,Chhattisgarh,Bilaspur,"Mangala, Bilaspur - NTPC",20-09-2025 15:00:00,22.08815,82.13737,PM2.5,12,61,32
India,Chhattisgarh,Bilaspur,"Mangala, Bilaspur - NTPC",20-09-2025 15:00:00,22.08815,82.13737,NO2,18,31,28
India,Chhattisgarh,Bilaspur,"Mangala, Bilaspur - NTPC",20-09-2025 15:00:00,22.08815,82.13737,CO,16,24,19
India,Delhi,Delhi,"Alipur, Delhi - DPCC",20-09-2025 15:00:00,28.815329,77.153010,PM10,101,248,129
India,Delhi,Delhi,"Alipur, Delhi - DPCC",20-09-2025 15:00:00,28.815329,77.153010,CO,34,52,39
India,Delhi,Delhi,"Alipur, Delhi - DPCC",20-09-2025 15:00:00,28.815329,77.153010,OZONE,5,38,23
India,Delhi,Delhi,"Anand Vihar, Delhi - DPCC",20-09-2025 15:00:00,28.647622,77.3158090,PM2.5,55,307,113
India,Delhi,Delhi,"Anand Vihar, Delhi - DPCC",20-09-2025 15:00:00,28.647622,77.3158090,NO2,13,60,39
India,Delhi,Delhi,"Anand Vihar, Delhi - DPCC",20-09-2025 15:00:00,28.647622,77.3158090,SO2,12,55,33
India,Delhi,Delhi,"Anand Vihar, Delhi - DPCC",20-09-2025 15:00:00,28.647622,77.3158090,OZONE,3,23,13
India,Delhi,Delhi,"Ashok Vihar, Delhi - DPCC",20-09-2025 15:00:00,28.695381,77.181665,PM10,107,238,136
India,Delhi,Delhi,"Ashok Vihar, Delhi - DPCC",20-09-2025 15:00:00,28.695381,77.181665,NO2,11,59,33
India,Delhi,Delhi,"Ashok Vihar, Delhi - DPCC",20-09-2025 15:00:00,28.695381,77.181665,NH3,7,11,9
India,Bihar,Saharsa,"Police Line, Saharsa - BSPCB",20-09-2025 15:00:00,25.892357,86.590325,NH3,4,5,4
India,Bihar,Sasaram,"Dada Peer, Sasaram - BSPCB",20-09-2025 15:00:00,24.952822,84.002396,PM2.5,NA,NA,NA
India,Bihar,Sasaram,"Dada Peer, Sasaram - BSPCB",20-09-2025 15:00:00,24.952822,84.002396,PM10,NA,NA,NA
India,Bihar,Sasaram,"Dada Peer, Sasaram - BSPCB",20-09-2025 15:00:00,24.952822,84.002396,NO2,NA,NA,NA
India,Bihar,Siwan,"Chitragupta Nagar, Siwan - BSPCB",20-09-2025 15:00:00,26.2271665,84.3570427,NO2,1,1,1
India,Bihar,Siwan,"Chitragupta Nagar, Siwan - BSPCB",20-09-2025 15:00:00,26.2271665,84.3570427,SO2,1,3,2
India,Chandigarh,Chandigarh,"Sector 22, Chandigarh - CPCC",20-09-2025 15:00:00,30.735567,76.775714,OZONE,5,58,33
India,Chandigarh,Chandigarh,"Sector-25, Chandigarh - CPCC",20-09-2025 15:00:00,30.751462,76.762879,NH3,6,11,8
India,Chandigarh,Chandigarh,"Sector-25, Chandigarh - CPCC",20-09-2025 15:00:00,30.751462,76.762879,SO2,1,6,2
India,Chandigarh,Chandigarh,"Sector-25, Chandigarh - CPCC",20-09-2025 15:00:00,30.751462,76.762879,OZONE,5,25,14
India,Chhattisgarh,Bhilai,"32Bungalows, Bhilai - CECB",20-09-2025 15:00:00,21.194815,81.314770,PM2.5,17,44,29
India,Bihar,Patna,"Muradpur, Patna - BSPCB",20-09-2025 15:00:00,25.619651,85.147382,PM10,39,104,71
India,Bihar,Patna,"Rajbansi Nagar, Patna - BSPCB",20-09-2025 15:00:00,25.599486,85.113666,CO,NA,NA,NA
India,Bihar,Purnia,"Mariam Nagar, Purnia - BSPCB",20-09-2025 15:00:00,25.366336,87.117468,PM2.5,12,48,32
India,Bihar,Rajgir,"Dangi Tola, Rajgir - BSPCB",20-09-2025 15:00:00,25.03280,85.41948,CO,83,99,89
India,Chhattisgarh,Milupara,"Govt. Higher Secondary School, Milupara - CECB",20-09-2025 15:00:00,22.1910172,83.5197009,SO2,9,13,11
India,Chhattisgarh,Raipur,"AIIMS, Raipur - CECB",20-09-2025 15:00:00,21.258815,81.578979,PM2.5,21,32,27
India,Chhattisgarh,Raipur,"AIIMS, Raipur - CECB",20-09-2025 15:00:00,21.258815,81.578979,CO,23,31,27
India,Chhattisgarh,Raipur,"Krishak Nagar, Raipur - CECB",20-09-2025 15:00:00,21.237755,81.705301,PM2.5,21,39,29
India,Chhattisgarh,Korba,"Urja Nagar, Korba - CECB",20-09-2025 15:00:00,22.348441,82.549611,NO2,40,55,50
India,Chhattisgarh,Kunjemura,"OP Jindal School, Kunjemura - CECB",20-09-2025 15:00:00,22.126650,83.483212,OZONE,1,5,3
India,Chhattisgarh,Chhal,"Nawapara SECL Colony, Chhal - CECB",20-09-2025 15:00:00,22.118125,83.140608,NH3,6,6,6
India,Chhattisgarh,Korba,"Rampur, Korba - CECB",20-09-2025 15:00:00,22.368195,82.746431,PM2.5,10,19,13
India,Delhi,Delhi,"ITO, Delhi - CPCB",20-09-2025 15:00:00,28.628624,77.241060,PM10,86,132,108
India,Delhi,Delhi,"ITO, Delhi - CPCB",20-09-2025 15:00:00,28.628624,77.241060,CO,31,84,41
India,Delhi,Delhi,"Jahangirpuri, Delhi - DPCC",20-09-2025 15:00:00,28.732820,77.170633,PM2.5,78,307,186
India,Delhi,Delhi,"Jahangirpuri, Delhi - DPCC",20-09-2025 15:00:00,28.732820,77.170633,NO2,28,64,47
India,Delhi,Delhi,"Jawaharlal Nehru Stadium, Delhi - DPCC",20-09-2025 15:00:00,28.580280,77.233829,PM10,111,181,135
India,Delhi,Delhi,"Jawaharlal Nehru Stadium, Delhi - DPCC",20-09-2025 15:00:00,28.580280,77.233829,SO2,4,21,9
India,Delhi,Delhi,"Jawaharlal Nehru Stadium, Delhi - DPCC",20-09-2025 15:00:00,28.580280,77.233829,CO,22,143,139
India,Delhi,Delhi,"Lodhi Road, Delhi - IITM",20-09-2025 15:00:00,28.588333,77.221667,SO2,2,14,7
India,Delhi,Delhi,"Major Dhyan Chand National Stadium, Delhi - DPCC",20-09-2025 15:00:00,28.611281,77.237738,SO2,1,14,8
India,Delhi,Delhi,"Mundka, Delhi - DPCC",20-09-2025 15:00:00,28.684678,77.076574,PM10,108,451,174
India,Delhi,Delhi,"Mundka, Delhi - DPCC",20-09-2025 15:00:00,28.684678,77.076574,NO2,16,55,33
India,Delhi,Delhi,"Mundka, Delhi - DPCC",20-09-2025 15:00:00,28.684678,77.076574,NH3,3,5,4
India,Delhi,Delhi,"Mundka, Delhi - DPCC",20-09-2025 15:00:00,28.684678,77.076574,SO2,7,20,11
India,Delhi,Delhi,"Narela, Delhi - DPCC",20-09-2025 15:00:00,28.822836,77.101981,SO2,2,28,8
India,Delhi,Delhi,"Nehru Nagar, Delhi - DPCC",20-09-2025 15:00:00,28.567890,77.250515,SO2,3,13,8
India,Delhi,Delhi,"North Campus, DU, Delhi - IMD",20-09-2025 15:00:00,28.6573814,77.1585447,CO,1,52,13
India,Delhi,Delhi,"North Campus, DU, Delhi - IMD",20-09-2025 15:00:00,28.6573814,77.1585447,OZONE,9,95,49
India,Delhi,Delhi,"Patparganj, Delhi - DPCC",20-09-2025 15:00:00,28.623763,77.287209,PM2.5,55,98,74
India,Delhi,Delhi,"Aya Nagar, Delhi - IMD",20-09-2025 15:00:00,28.4706914,77.1099364,CO,22,68,35
India,Delhi,Delhi,"Bawana, Delhi - DPCC",20-09-2025 15:00:00,28.776200,77.051074,PM2.5,45,297,90
India,Delhi,Delhi,"Bawana, Delhi - DPCC",20-09-2025 15:00:00,28.776200,77.051074,NH3,3,6,5
India,Delhi,Delhi,"DTU, Delhi - CPCB",20-09-2025 15:00:00,28.7500499,77.1112615,NO2,56,108,84
India,Delhi,Delhi,"DTU, Delhi - CPCB",20-09-2025 15:00:00,28.7500499,77.1112615,SO2,41,47,43
India,Delhi,Delhi,"Dr. Karni Singh Shooting Range, Delhi - DPCC",20-09-2025 15:00:00,28.498571,77.264840,NO2,27,67,42
India,Delhi,Delhi,"Dr. Karni Singh Shooting Range, Delhi - DPCC",20-09-2025 15:00:00,28.498571,77.264840,NH3,4,11,6
India,Delhi,Delhi,"Dwarka-Sector 8, Delhi - DPCC ",20-09-2025 15:00:00,28.5710274,77.0719006,PM10,101,218,155
India,Delhi,Delhi,"R K Puram, Delhi - DPCC",20-09-2025 15:00:00,28.563262,77.186937,CO,4,89,23
India,Delhi,Delhi,"Rohini, Delhi - DPCC",20-09-2025 15:00:00,28.732528,77.119920,PM10,97,167,126
India,Delhi,Delhi,"Shadipur, Delhi - CPCB",20-09-2025 15:00:00,28.6514781,77.1473105,SO2,5,18,14
India,Delhi,Delhi,"Punjabi Bagh, Delhi - DPCC",20-09-2025 15:00:00,28.674045,77.131023,SO2,1,5,3
India,Delhi,Delhi,"Pusa, Delhi - DPCC",20-09-2025 15:00:00,28.639652,77.146275,PM10,107,211,150
India,Delhi,Delhi,"R K Puram, Delhi - DPCC",20-09-2025 15:00:00,28.563262,77.186937,PM10,96,175,125
India,Delhi,Delhi,"Najafgarh, Delhi - DPCC",20-09-2025 15:00:00,28.570173,76.933762,NO2,4,57,18
India,Delhi,Delhi,"Najafgarh, Delhi - DPCC",20-09-2025 15:00:00,28.570173,76.933762,CO,7,36,24
India,Delhi,Delhi,"Lodhi Road, Delhi - IITM",20-09-2025 15:00:00,28.588333,77.221667,PM10,69,126,104
India,Gujarat,Ahmedabad,"SVPI Airport Hansol, Ahmedabad - IITM",20-09-2025 15:00:00,23.076793,72.627874,SO2,3,101,14
India,Gujarat,Ahmedabad,"SVPI Airport Hansol, Ahmedabad - IITM",20-09-2025 15:00:00,23.076793,72.627874,CO,24,64,29
India,Gujarat,Ankleshwar,"GIDC, Ankleshwar - GPCB",20-09-2025 15:00:00,21.613267,73.010555,PM2.5,NA,NA,NA
India,Gujarat,Gandhinagar,"GIFT City, Gandhinagar - IITM",20-09-2025 15:00:00,23.163798,72.677768,PM10,49,101,70
India,Gujarat,Gandhinagar,"IIPHG Lekawada, Gandhinagar - IITM",20-09-2025 15:00:00,23.243639,72.68994,NH3,1,1,1
India,Gujarat,Gandhinagar,"Sector-10, Gandhinagar - GPCB",20-09-2025 15:00:00,23.221714,72.654328,PM2.5,38,52,45
India,Gujarat,Gandhinagar,"Sector-10, Gandhinagar - GPCB",20-09-2025 15:00:00,23.221714,72.654328,NH3,1,1,1
India,Gujarat,Gandhinagar,"Sector-10, Gandhinagar - GPCB",20-09-2025 15:00:00,23.221714,72.654328,OZONE,5,30,18
India,Delhi,Delhi,"Vivek Vihar, Delhi - DPCC",20-09-2025 15:00:00,28.672342,77.315260,SO2,11,36,20
India,Delhi,Delhi,"Vivek Vihar, Delhi - DPCC",20-09-2025 15:00:00,28.672342,77.315260,OZONE,3,15,8
India,Delhi,Delhi,"Wazirpur, Delhi - DPCC",20-09-2025 15:00:00,28.699793,77.165453,PM10,131,212,162
India,Delhi,Delhi,"Wazirpur, Delhi - DPCC",20-09-2025 15:00:00,28.699793,77.165453,SO2,8,24,11
India,Gujarat,Ahmedabad,"Chandkheda, Ahmedabad - IITM",20-09-2025 15:00:00,23.107969,72.574648,PM2.5,29,60,43
India,Gujarat,Ahmedabad,"Chandkheda, Ahmedabad - IITM",20-09-2025 15:00:00,23.107969,72.574648,NH3,3,10,6
India,Gujarat,Ahmedabad,"Gyaspur, Ahmedabad - IITM",20-09-2025 15:00:00,22.977134,72.553024,NH3,NA,NA,NA
India,Gujarat,Ahmedabad,"Gyaspur, Ahmedabad - IITM",20-09-2025 15:00:00,22.977134,72.553024,CO,32,50,37
India,Gujarat,Ahmedabad,"Gyaspur, Ahmedabad - IITM",20-09-2025 15:00:00,22.977134,72.553024,OZONE,24,125,108
India,Karnataka,Chikkaballapur,"Chikkaballapur Rural, Chikkaballapur - KSPCB",20-09-2025 15:00:00,13.428828,77.731418,OZONE,17,127,55
India,Karnataka,Chikkamagaluru,"Kalyana Nagara, Chikkamagaluru - KSPCB",20-09-2025 15:00:00,13.328028,75.797056,NO2,18,30,21
India,Karnataka,Chikkamagaluru,"Kalyana Nagara, Chikkamagaluru - KSPCB",20-09-2025 15:00:00,13.328028,75.797056,NH3,2,4,2
India,Karnataka,Chikkamagaluru,"Kalyana Nagara, Chikkamagaluru - KSPCB",20-09-2025 15:00:00,13.328028,75.797056,SO2,1,5,2
India,Karnataka,Chikkamagaluru,"Kalyana Nagara, Chikkamagaluru - KSPCB",20-09-2025 15:00:00,13.328028,75.797056,OZONE,31,59,43
India,Karnataka,Davanagere,"Devaraj Urs Badavane, Davanagere - KSPCB",20-09-2025 15:00:00,14.475800,75.905200,PM10,15,52,29
India,Karnataka,Davanagere,"Devaraj Urs Badavane, Davanagere - KSPCB",20-09-2025 15:00:00,14.475800,75.905200,SO2,1,5,3
India,Karnataka,Hassan,"B.Katihalli, Hassan - KSPCB",20-09-2025 15:00:00,13.008556,76.125258,SO2,1,1,1
India,Karnataka,Bengaluru,"Sanegurava Halli, Bengaluru - KSPCB",20-09-2025 15:00:00,12.990328,77.5431385,PM10,39,46,40
India,Karnataka,Bengaluru,"Sanegurava Halli, Bengaluru - KSPCB",20-09-2025 15:00:00,12.990328,77.5431385,SO2,4,102,13
India,Karnataka,Bengaluru,"Silk Board, Bengaluru - KSPCB",20-09-2025 15:00:00,12.917348,77.622813,PM2.5,16,45,30
India,Karnataka,Bengaluru,"Silk Board, Bengaluru - KSPCB",20-09-2025 15:00:00,12.917348,77.622813,PM10,24,194,102
India,Karnataka,Chamarajanagar,"Urban, Chamarajanagar - KSPCB",20-09-2025 15:00:00,11.55358,76.55521,CO,14,119,23
India,Karnataka,Chikkaballapur,"Chikkaballapur Rural, Chikkaballapur - KSPCB",20-09-2025 15:00:00,13.428828,77.731418,PM2.5,NA,NA,NA
India,Karnataka,Chikkaballapur,"Chikkaballapur Rural, Chikkaballapur - KSPCB",20-09-2025 15:00:00,13.428828,77.731418,NO2,NA,NA,NA
India,Gujarat,Vatva,"Phase-4 GIDC, Vatva - GPCB",20-09-2025 15:00:00,22.969611,72.643500,CO,8,18,8
India,Haryana,Gurugram,"NISE Gwal Pahari, Gurugram - IMD",20-09-2025 15:00:00,28.422681,77.148944,CO,43,78,62
India,Haryana,Panchgaon,"Amity University, Panchgaon - IITM",20-09-2025 15:00:00,28.3153,76.9143,NO2,2,25,10
India,Himachal Pradesh,Baddi,"HIMUDA Complex Phase-1, Baddi - HPPCB",20-09-2025 15:00:00,30.943887,76.801991,PM10,100,246,142
India,Gujarat,Ahmedabad,"Raikhad, Ahmedabad - IITM",20-09-2025 15:00:00,23.020509,72.579261,PM2.5,43,89,63
India,Gujarat,Ahmedabad,"Rakhial, Ahmedabad - IITM",20-09-2025 15:00:00,23.016834,72.625775,CO,109,152,136
India,Gujarat,Ahmedabad,"SAC ISRO Bopal, Ahmedabad - IITM",20-09-2025 15:00:00,23.041137,72.456691,OZONE,8,35,15
India,Gujarat,Ahmedabad,"SAC ISRO Satellite, Ahmedabad - IITM",20-09-2025 15:00:00,23.023389,72.515201,PM10,37,88,63
India,Gujarat,Ahmedabad,"SAC ISRO Satellite, Ahmedabad - IITM",20-09-2025 15:00:00,23.023389,72.515201,NO2,13,72,26
India,Gujarat,Ahmedabad,"SAC ISRO Satellite, Ahmedabad - IITM",20-09-2025 15:00:00,23.023389,72.515201,CO,2,37,18
India,Karnataka,Bengaluru,"Bapuji Nagar, Bengaluru - KSPCB",20-09-2025 15:00:00,12.951913,77.539784,CO,14,74,42
India,Karnataka,Bengaluru,"Hebbal, Bengaluru - KSPCB",20-09-2025 15:00:00,13.029152,77.585901,NO2,18,21,20
India,Karnataka,Bengaluru,"Hebbal, Bengaluru - KSPCB",20-09-2025 15:00:00,13.029152,77.585901,CO,13,21,20
India,Karnataka,Bengaluru,"Hombegowda Nagar, Bengaluru - KSPCB",20-09-2025 15:00:00,12.938539,77.590100,SO2,4,14,10
India,Karnataka,Bengaluru,"Jayanagar 5th Block, Bengaluru - KSPCB",20-09-2025 15:00:00,12.920984,77.584908,NO2,11,55,25
India,Karnataka,Bengaluru,"Jayanagar 5th Block, Bengaluru - KSPCB",20-09-2025 15:00:00,12.920984,77.584908,CO,5,44,10
India,Karnataka,Bagalkot,"Vidayagiri, Bagalkot - KSPCB",20-09-2025 15:00:00,16.172806,75.659694,SO2,7,7,7
India,Karnataka,Bengaluru,"BTM Layout, Bengaluru - CPCB",20-09-2025 15:00:00,12.9135218,77.5950804,PM2.5,23,35,27
India,Karnataka,Bengaluru,"BTM Layout, Bengaluru - CPCB",20-09-2025 15:00:00,12.9135218,77.5950804,PM10,52,54,53
India,Karnataka,Bengaluru,"BTM Layout, Bengaluru - CPCB",20-09-2025 15:00:00,12.9135218,77.5950804,SO2,15,16,16
India,Karnataka,Bengaluru,"BTM Layout, Bengaluru - CPCB",20-09-2025 15:00:00,12.9135218,77.5950804,OZONE,22,23,22
India,Delhi,Delhi,"Sirifort, Delhi - CPCB",20-09-2025 15:00:00,28.5504249,77.2159377,NO2,14,52,37
India,Delhi,Delhi,"Sirifort, Delhi - CPCB",20-09-2025 15:00:00,28.5504249,77.2159377,OZONE,18,40,29
India,Delhi,Delhi,"Vivek Vihar, Delhi - DPCC",20-09-2025 15:00:00,28.672342,77.315260,PM2.5,48,277,82
India,Madhya Pradesh,Gwalior,"Deen Dayal Nagar, Gwalior - MPPCB",20-09-2025 15:00:00,26.259242,78.216432,PM10,6,107,65
India,Madhya Pradesh,Gwalior,"Deen Dayal Nagar, Gwalior - MPPCB",20-09-2025 15:00:00,26.259242,78.216432,CO,23,62,29
India,Madhya Pradesh,Gwalior,"Deen Dayal Nagar, Gwalior - MPPCB",20-09-2025 15:00:00,26.259242,78.216432,OZONE,50,134,72
India,Madhya Pradesh,Gwalior,"Maharaj Bada, Gwalior - MPPCB",20-09-2025 15:00:00,26.200388,78.147714,SO2,5,10,7
India,Madhya Pradesh,Indore,"Airport Area, Indore - IMC",20-09-2025 15:00:00,22.7289,75.8076,SO2,20,22,21
India,Madhya Pradesh,Indore,"Chhoti Gwaltoli, Indore - MPPCB",20-09-2025 15:00:00,22.4310,75.5213,PM2.5,3,84,47
India,Madhya Pradesh,Indore,"Chhoti Gwaltoli, Indore - MPPCB",20-09-2025 15:00:00,22.4310,75.5213,PM10,10,116,66
India,Madhya Pradesh,Indore,"Chhoti Gwaltoli, Indore - MPPCB",20-09-2025 15:00:00,22.4310,75.5213,NH3,6,8,7
India,Madhya Pradesh,Indore,"Chhoti Gwaltoli, Indore - MPPCB",20-09-2025 15:00:00,22.4310,75.5213,SO2,12,15,13
India,Karnataka,Mangalore,"Kadri, Mangalore - KSPCB",20-09-2025 15:00:00,12.889250,74.853000,NH3,1,3,2
India,Karnataka,Mangalore,"Kadri, Mangalore - KSPCB",20-09-2025 15:00:00,12.889250,74.853000,OZONE,18,33,24
India,Karnataka,Mysuru,"Hebbal 1st Stage, Mysuru - KSPCB",20-09-2025 15:00:00,12.21041,76.37376,OZONE,5,47,27
India,Karnataka,Ramanagara,"Vijay Nagar, Ramanagara - KSPCB",20-09-2025 15:00:00,12.733409,77.298051,PM10,NA,NA,NA
India,Karnataka,Ramanagara,"Vijay Nagar, Ramanagara - KSPCB",20-09-2025 15:00:00,12.733409,77.298051,NO2,NA,NA,NA
India,Karnataka,Shivamogga,"Vinoba Nagara, Shivamogga - KSPCB",20-09-2025 15:00:00,13.940000,75.555917,CO,14,35,26
India,Karnataka,Vijayapura,"Ibrahimpur, Vijayapura - KSPCB",20-09-2025 15:00:00,16.802639,75.722694,PM10,43,44,44
India,Karnataka,Vijayapura,"Ibrahimpur, Vijayapura - KSPCB",20-09-2025 15:00:00,16.802639,75.722694,NO2,9,10,9
India,Karnataka,Vijayapura,"Ibrahimpur, Vijayapura - KSPCB",20-09-2025 15:00:00,16.802639,75.722694,CO,12,122,23
India,Karnataka,Yadgir,"Collector Office, Yadgir - KSPCB",20-09-2025 15:00:00,16.7602,77.1428,PM2.5,5,25,14
India,Kerala,Eloor,"Udyogamandal, Eloor - Kerala PCB",20-09-2025 15:00:00,10.073232,76.302765,PM10,38,76,48
India,Kerala,Eloor,"Udyogamandal, Eloor - Kerala PCB",20-09-2025 15:00:00,10.073232,76.302765,SO2,1,1,1
India,Kerala,Kannur,"Thavakkara, Kannur - Kerala PCB",20-09-2025 15:00:00,11.875000,75.373200,NO2,15,18,16
India,Kerala,Kollam,"Polayathode, Kollam - Kerala PCB",20-09-2025 15:00:00,8.8787,76.6073,PM10,NA,NA,NA
India,Kerala,Kollam,"Polayathode, Kollam - Kerala PCB",20-09-2025 15:00:00,8.8787,76.6073,SO2,NA,NA,NA
India,Karnataka,Hubballi,"Lingaraj Nagar, Hubballi - KSPCB",20-09-2025 15:00:00,15.3714823,75.1160168,CO,10,14,13
India,Karnataka,Kalaburagi,"Lal Bahadur Shastri Nagar, Kalaburagi - KSPCB",20-09-2025 15:00:00,17.321993,76.822628,PM2.5,36,62,47
India,Karnataka,Kalaburagi,"Lal Bahadur Shastri Nagar, Kalaburagi - KSPCB",20-09-2025 15:00:00,17.321993,76.822628,NH3,1,1,1
India,Karnataka,Kalaburagi,"Lal Bahadur Shastri Nagar, Kalaburagi - KSPCB",20-09-2025 15:00:00,17.321993,76.822628,SO2,54,56,55
India,Karnataka,Kalaburagi,"Lal Bahadur Shastri Nagar, Kalaburagi - KSPCB",20-09-2025 15:00:00,17.321993,76.822628,OZONE,20,20,20
India,Karnataka,Kalaburagi,"Mahatma Basaveswar Colony, Kalaburgi - KSPCB",20-09-2025 15:00:00,17.336318,76.847397,CO,33,45,41
India,Karnataka,Karwar,"KHB Colony, Karwar - KSPCB",20-09-2025 15:00:00,14.816666,74.141003,SO2,24,26,24
India,Kerala,Thiruvananthapuram,"Kariavattom, Thiruvananthapuram - Kerala PCB",20-09-2025 15:00:00,8.563700,76.886500,PM10,55,64,60
India,Kerala,Thrissur,"Corporation Ground, Thrissur - Kerala PCB",20-09-2025 15:00:00,10.532400,76.215900,NO2,7,8,8
India,Kerala,Thrissur,"Corporation Ground, Thrissur - Kerala PCB",20-09-2025 15:00:00,10.532400,76.215900,SO2,1,1,1
India,Kerala,Thrissur,"Corporation Ground, Thrissur - Kerala PCB",20-09-2025 15:00:00,10.532400,76.215900,OZONE,29,30,30
India,Madhya Pradesh,Bhopal,"Paryavaran Parisar, Bhopal - MPPCB",20-09-2025 15:00:00,23.210494,77.425409,PM2.5,2,50,20
India,Madhya Pradesh,Bhopal,"Paryavaran Parisar, Bhopal - MPPCB",20-09-2025 15:00:00,23.210494,77.425409,PM10,4,85,34
India,Madhya Pradesh,Bhopal,"Paryavaran Parisar, Bhopal - MPPCB",20-09-2025 15:00:00,23.210494,77.425409,CO,12,38,19
India,Madhya Pradesh,Bhopal,"T T Nagar, Bhopal - MPPCB",20-09-2025 15:00:00,23.233584,77.400574,PM10,20,92,47
India,Madhya Pradesh,Damoh,"Shrivastav Colony, Damoh - MPPCB",20-09-2025 15:00:00,23.81748678,79.446246,PM10,21,123,54
India,Madhya Pradesh,Damoh,"Shrivastav Colony, Damoh - MPPCB",20-09-2025 15:00:00,23.81748678,79.446246,SO2,24,27,26
India,Madhya Pradesh,Dewas,"Bhopal Chauraha, Dewas - MPPCB",20-09-2025 15:00:00,22.9682591,76.064118,NO2,NA,NA,NA
India,Madhya Pradesh,Jabalpur,"Suhagi, Jabalpur - JMC",20-09-2025 15:00:00,23.218135,79.957770,PM2.5,20,73,46
India,Madhya Pradesh,Jabalpur,"Suhagi, Jabalpur - JMC",20-09-2025 15:00:00,23.218135,79.957770,CO,28,102,34
India,Madhya Pradesh,Katni,"Gole Bazar, Katni - MPPCB",20-09-2025 15:00:00,23.50016,80.23284,SO2,6,30,17
India,Madhya Pradesh,Pithampur,"Sector-2 Industrial Area, Pithampur - MPPCB",20-09-2025 15:00:00,22.624758,75.675238,PM10,23,110,64
India,Madhya Pradesh,Pithampur,"Sector-2 Industrial Area, Pithampur - MPPCB",20-09-2025 15:00:00,22.624758,75.675238,NO2,5,20,11
India,Madhya Pradesh,Indore,"Regional Park, Indore - IMC",20-09-2025 15:00:00,22.6780,75.8559,CO,17,28,18
India,Madhya Pradesh,Indore,"Residency Area, Indore - IMC",20-09-2025 15:00:00,22.7084,75.8815,CO,13,16,14
India,Madhya Pradesh,Indore,"Residency Area, Indore - IMC",20-09-2025 15:00:00,22.7084,75.8815,OZONE,9,14,11
India,Madhya Pradesh,Jabalpur,"Govindh Bhavan Colony, Jabalpur - JMC",20-09-2025 15:00:00,23.163174,79.973061,CO,14,44,17
India,Madhya Pradesh,Jabalpur,"Gupteshwar, Jabalpur - JMC",20-09-2025 15:00:00,23.142888,79.916147,PM2.5,13,31,25
India,Kerala,Thiruvananthapuram,"Kariavattom, Thiruvananthapuram - Kerala PCB",20-09-2025 15:00:00,8.563700,76.886500,PM2.5,38,46,40
India,Maharashtra,Aurangabad,"More Chowk Waluj, Aurangabad - MPCB",20-09-2025 15:00:00,19.8389439,75.244448,SO2,13,17,14
India,Maharashtra,Aurangabad,"Rachnakar Colony, Aurangabad - MPCB",20-09-2025 15:00:00,19.863756,75.321188,PM10,10,143,39
India,Maharashtra,Badlapur,"Katrap, Badlapur - MPCB",20-09-2025 15:00:00,19.16485,73.23409,OZONE,12,37,24
India,Maharashtra,Belapur,"CBD Belapur, Belapur - MPCB",20-09-2025 15:00:00,19.0243902,73.0406721,PM2.5,25,39,30
India,Maharashtra,Belapur,"CBD Belapur, Belapur - MPCB",20-09-2025 15:00:00,19.0243902,73.0406721,PM10,36,57,44
India,Maharashtra,Belapur,"CBD Belapur, Belapur - MPCB",20-09-2025 15:00:00,19.0243902,73.0406721,NO2,4,12,8
India,Maharashtra,Belapur,"CBD Belapur, Belapur - MPCB",20-09-2025 15:00:00,19.0243902,73.0406721,CO,1,24,10
India,Maharashtra,Belapur,"CBD Belapur, Belapur - MPCB",20-09-2025 15:00:00,19.0243902,73.0406721,OZONE,15,28,18
India,Maharashtra,Mumbai,"Kandivali West, Mumbai - BMC",20-09-2025 15:00:00,19.215859,72.831718,NO2,13,14,14
India,Maharashtra,Mumbai,"Kandivali West, Mumbai - BMC",20-09-2025 15:00:00,19.215859,72.831718,NH3,3,3,3
India,Maharashtra,Mumbai,"Kandivali West, Mumbai - BMC",20-09-2025 15:00:00,19.215859,72.831718,OZONE,1,25,13
India,Maharashtra,Mumbai,"Kherwadi_Bandra East, Mumbai - MPCB",20-09-2025 15:00:00,19.0632143,72.8456324,PM10,21,65,42
India,Maharashtra,Mumbai,"Kherwadi_Bandra East, Mumbai - MPCB",20-09-2025 15:00:00,19.0632143,72.8456324,NH3,10,24,17
India,Maharashtra,Mumbai,"Khindipada-Bhandup West, Mumbai - IITM",20-09-2025 15:00:00,19.1653323,72.922099,NO2,5,16,9
India,Maharashtra,Mumbai,"Malad West, Mumbai - IITM",20-09-2025 15:00:00,19.19709,72.82204,PM10,20,86,50
India,Maharashtra,Bhiwandi,"Gokul Nagar, Bhiwandi - MPCB",20-09-2025 15:00:00,19.309073,73.057223,NO2,33,52,44
India,Maharashtra,Boisar,"Khaira, Boisar - MPCB",20-09-2025 15:00:00,19.786089,72.757971,PM10,NA,NA,NA
India,Maharashtra,Chandrapur,"Chauhan Colony, Chandrapur - MPCB",20-09-2025 15:00:00,19.962900,79.298714,NH3,3,3,3
India,Maharashtra,Dhule,"Deopur, Dhule - MPCB",20-09-2025 15:00:00,20.918946,74.776388,OZONE,17,54,26
India,Maharashtra,Jalna,"Old MIDC, Jalna - MPCB",20-09-2025 15:00:00,19.854616,75.905894,PM2.5,13,97,45
India,Maharashtra,Ahmednagar,"Tarakpur, Ahmednagar - MPCB",20-09-2025 15:00:00,19.10122,74.73339,CO,3,50,32
India,Maharashtra,Ahmednagar,"Tarakpur, Ahmednagar - MPCB",20-09-2025 15:00:00,19.10122,74.73339,OZONE,2,30,21
India,Maharashtra,Amravati,"Shivneri Colony, Amravati - MPCB",20-09-2025 15:00:00,20.9402359,77.7895248,PM10,27,96,54
India,Maharashtra,Amravati,"Shri Shivaji Science College, Amravati - MPCB",20-09-2025 15:00:00,20.939198,77.765701,NH3,1,2,1
India,Maharashtra,Amravati,"Shri Shivaji Science College, Amravati - MPCB",20-09-2025 15:00:00,20.939198,77.765701,OZONE,1,37,26
India,Madhya Pradesh,Pithampur,"Sector-2 Industrial Area, Pithampur - MPPCB",20-09-2025 15:00:00,22.624758,75.675238,CO,8,26,13
India,Madhya Pradesh,Pithampur,"Sector-2 Industrial Area, Pithampur - MPPCB",20-09-2025 15:00:00,22.624758,75.675238,OZONE,25,58,48
India,Madhya Pradesh,Satna,"Bandhavgar Colony, Satna - Birla Cement",20-09-2025 15:00:00,24.58434363,80.8549414,NO2,22,26,23
India,Madhya Pradesh,Singrauli,"Suryakiran Bhawan NCL, Singrauli - MPPCB",20-09-2025 15:00:00,24.108970,82.645580,NH3,6,6,6
India,Maharashtra,Mumbai,"Chembur, Mumbai - MPCB",20-09-2025 15:00:00,19.0364585,72.8954371,PM2.5,8,30,18
India,Maharashtra,Mumbai,"Chembur, Mumbai - MPCB",20-09-2025 15:00:00,19.0364585,72.8954371,PM10,15,43,26
India,Maharashtra,Mumbai,"Colaba, Mumbai - MPCB",20-09-2025 15:00:00,18.910000,72.820000,PM2.5,16,24,21
India,Maharashtra,Mumbai,"Colaba, Mumbai - MPCB",20-09-2025 15:00:00,18.910000,72.820000,CO,22,23,23
India,Maharashtra,Mumbai,"Ghatkopar, Mumbai - BMC",20-09-2025 15:00:00,19.083694,72.920967,SO2,9,11,9
India,Maharashtra,Jalna,"Old MIDC, Jalna - MPCB",20-09-2025 15:00:00,19.854616,75.905894,OZONE,12,82,36
India,Maharashtra,Kolhapur,"Shivaji University, Kolhapur - MPCB",20-09-2025 15:00:00,16.6870449,74.2505872,PM10,21,64,36
India,Maharashtra,Kolhapur,"Sinchan Bhavan, Kolhapur - MPCB",20-09-2025 15:00:00,16.7143745,74.2426398,NO2,NA,NA,NA
India,Maharashtra,Kolhapur,"Sinchan Bhavan, Kolhapur - MPCB",20-09-2025 15:00:00,16.7143745,74.2426398,NH3,NA,NA,NA
India,Maharashtra,Mumbai,"Bandra Kurla Complex, Mumbai - IITM",20-09-2025 15:00:00,19.053536,72.84643,NH3,9,39,16
India,Maharashtra,Mumbai,"Bandra Kurla Complex, Mumbai - MPCB",20-09-2025 15:00:00,19.065931,72.862131,NH3,NA,NA,NA
India,Maharashtra,Mahad,"Kamble Tarf Birwadi, Mahad - MPCB",20-09-2025 15:00:00,18.1023399,73.4783687,SO2,21,56,29
India,Maharashtra,Mahad,"Kamble Tarf Birwadi, Mahad - MPCB",20-09-2025 15:00:00,18.1023399,73.4783687,CO,15,40,29
India,Maharashtra,Pune,"Panchawati_Pashan, Pune - IITM",20-09-2025 15:00:00,18.536457,73.805454,NO2,10,17,14
India,Maharashtra,Pune,"Panchawati_Pashan, Pune - IITM",20-09-2025 15:00:00,18.536457,73.805454,CO,2,32,15
India,Maharashtra,Pune,"Panchawati_Pashan, Pune - IITM",20-09-2025 15:00:00,18.536457,73.805454,OZONE,6,49,31
India,Maharashtra,Pune,"Savitribai Phule Pune University, Pune - MPCB",20-09-2025 15:00:00,18.547056,73.826908,SO2,NA,NA,NA
India,Maharashtra,Pune,"Transport Nagar-Nigdi, Pune - IITM",20-09-2025 15:00:00,18.664282,73.763966,CO,36,82,52
India,Maharashtra,Sangli,"Vijay Nagar, Sangli - MPCB",20-09-2025 15:00:00, 16.5038,74.3623,NO2,3,10,5
India,Maharashtra,Solapur,"Dnyaneshwar Nagar, Solapur - MPCB",20-09-2025 15:00:00,17.6336264,75.9132495,PM10,11,63,34
India,Maharashtra,Solapur,"Dnyaneshwar Nagar, Solapur - MPCB",20-09-2025 15:00:00,17.6336264,75.9132495,NH3,4,20,10
India,Maharashtra,Solapur,"Dnyaneshwar Nagar, Solapur - MPCB",20-09-2025 15:00:00,17.6336264,75.9132495,SO2,1,4,2
India,Maharashtra,Solapur,"Dnyaneshwar Nagar, Solapur - MPCB",20-09-2025 15:00:00,17.6336264,75.9132495,OZONE,5,25,15
India,Maharashtra,Navi Mumbai,"Kopripada-Vashi, Navi Mumbai - MPCB",20-09-2025 15:00:00,19.090337,73.014232,SO2,21,27,22
India,Maharashtra,Navi Mumbai,"Mahape, Navi Mumbai - MPCB",20-09-2025 15:00:00,19.1135051,73.008978,PM10,35,73,55
India,Maharashtra,Navi Mumbai,"Mahape, Navi Mumbai - MPCB",20-09-2025 15:00:00,19.1135051,73.008978,NO2,34,36,35
India,Maharashtra,Navi Mumbai,"Mahape, Navi Mumbai - MPCB",20-09-2025 15:00:00,19.1135051,73.008978,SO2,27,28,28
India,Maharashtra,Navi Mumbai,"Mahape, Navi Mumbai - MPCB",20-09-2025 15:00:00,19.1135051,73.008978,CO,16,22,17
India,Maharashtra,Navi Mumbai,"Sanpada, Navi Mumbai - MPCB",20-09-2025 15:00:00,19.0575752,73.0151367,PM10,22,54,35
India,Maharashtra,Navi Mumbai,"Sanpada, Navi Mumbai - MPCB",20-09-2025 15:00:00,19.0575752,73.0151367,NO2,3,17,7
India,Maharashtra,Navi Mumbai,"Sanpada, Navi Mumbai - MPCB",20-09-2025 15:00:00,19.0575752,73.0151367,NH3,11,11,11
India,Maharashtra,Navi Mumbai,"Sector-2E Kalamboli, Navi Mumbai - MPCB",20-09-2025 15:00:00,19.02579,73.10297,OZONE,3,39,20
India,Maharashtra,Nagpur,"Opp GPO Civil Lines, Nagpur - MPCB",20-09-2025 15:00:00,21.152875,79.0517531,SO2,2,6,4
India,Maharashtra,Nagpur,"Ram Nagar, Nagpur - MPCB",20-09-2025 15:00:00,21.143383,79.048912,CO,13,44,16
India,Maharashtra,Nanded,"Sneh Nagar, Nanded - MPCB",20-09-2025 15:00:00,19.173852,77.296291,PM2.5,23,41,30
India,Maharashtra,Nanded,"Sneh Nagar, Nanded - MPCB",20-09-2025 15:00:00,19.173852,77.296291,NH3,4,6,4
India,Maharashtra,Nanded,"Sneh Nagar, Nanded - MPCB",20-09-2025 15:00:00,19.173852,77.296291,SO2,10,11,10
India,Maharashtra,Nashik,"Gangapur Road, Nashik - MPCB",20-09-2025 15:00:00,20.0073285,73.7762427,SO2,1,4,2
India,Maharashtra,Nashik,"Hirawadi, Nashik - MPCB",20-09-2025 15:00:00,20.021503,73.813844,CO,15,30,20
India,Maharashtra,Pune,"Bhumkar Nagar, Pune - IITM",20-09-2025 15:00:00,18.605770,73.749976,NO2,4,24,6
India,Maharashtra,Pune,"Dhankawadi, Pune - IITM",20-09-2025 15:00:00,18.459883,73.852193,CO,NA,NA,NA
India,Maharashtra,Pune,"Katraj Dairy, Pune - MPCB",20-09-2025 15:00:00,18.454450,73.854155,PM10,19,40,26
India,Maharashtra,Pune,"Katraj Dairy, Pune - MPCB",20-09-2025 15:00:00,18.454450,73.854155,SO2,3,4,4
India,Maharashtra,Pune,"Mhada Colony, Pune - IITM",20-09-2025 15:00:00,18.573040,73.927715,PM10,33,90,59
India,Maharashtra,Pune,"Mhada Colony, Pune - IITM",20-09-2025 15:00:00,18.573040,73.927715,NO2,51,102,63
India,Maharashtra,Pune,"Mhada Colony, Pune - IITM",20-09-2025 15:00:00,18.573040,73.927715,CO,14,97,45
India,Maharashtra,Mumbai,"Navy Nagar-Colaba, Mumbai - IITM",20-09-2025 15:00:00,18.897756,72.813320,PM2.5,19,61,38
India,Maharashtra,Mumbai,"Navy Nagar-Colaba, Mumbai - IITM",20-09-2025 15:00:00,18.897756,72.813320,PM10,22,52,34
India,Maharashtra,Mumbai,"Navy Nagar-Colaba, Mumbai - IITM",20-09-2025 15:00:00,18.897756,72.813320,CO,12,14,13
India,Maharashtra,Mumbai,"Powai, Mumbai - MPCB",20-09-2025 15:00:00,19.137500,72.915056,SO2,15,15,15
India,Maharashtra,Mumbai,"Sewri, Mumbai - BMC",20-09-2025 15:00:00,19.000084,72.856730,PM2.5,NA,NA,NA
India,Maharashtra,Mumbai,"Sewri, Mumbai - BMC",20-09-2025 15:00:00,19.000084,72.856730,NO2,NA,NA,NA
India,Maharashtra,Mumbai,"Sewri, Mumbai - BMC",20-09-2025 15:00:00,19.000084,72.856730,NH3,NA,NA,NA
India,Maharashtra,Pimpri-Chinchwad,"Gavalinagar, Pimpri Chinchwad - MPCB",20-09-2025 15:00:00,18.63673,73.82487,PM2.5,20,30,25
India,Maharashtra,Pimpri-Chinchwad,"Gavalinagar, Pimpri Chinchwad - MPCB",20-09-2025 15:00:00,18.63673,73.82487,CO,8,21,10
India,Maharashtra,Pimpri-Chinchwad,"Park Street Wakad, Pimpri Chinchwad - MPCB",20-09-2025 15:00:00,18.59051,73.77946,PM2.5,10,51,25
India,Maharashtra,Pimpri-Chinchwad,"Park Street Wakad, Pimpri Chinchwad - MPCB",20-09-2025 15:00:00,18.59051,73.77946,CO,8,31,18
India,Maharashtra,Pimpri-Chinchwad,"Thergaon, Pimpri Chinchwad - MPCB",20-09-2025 15:00:00,18.616318,73.765797,NH3,1,10,3
India,Maharashtra,Nashik,"MIDC Ambad, Nashik - MPCB",20-09-2025 15:00:00,19.950220,73.731480,PM10,33,53,45
India,Maharashtra,Nashik,"MIDC Ambad, Nashik - MPCB",20-09-2025 15:00:00,19.950220,73.731480,NH3,2,2,2
India,Maharashtra,Nashik,"MIDC Ambad, Nashik - MPCB",20-09-2025 15:00:00,19.950220,73.731480,OZONE,5,25,16
India,Maharashtra,Nashik,"Pandav Nagari, Nashik - MPCB",20-09-2025 15:00:00,19.9591346,73.7788008,CO,5,24,13
India,Maharashtra,Nashik,"Pandav Nagari, Nashik - MPCB",20-09-2025 15:00:00,19.9591346,73.7788008,OZONE,4,28,14
India,Maharashtra,Mumbai,"Shivaji Nagar, Mumbai - BMC",20-09-2025 15:00:00,19.060498,72.923356,PM2.5,16,39,28
India,Maharashtra,Mumbai,"Shivaji Nagar, Mumbai - BMC",20-09-2025 15:00:00,19.060498,72.923356,NH3,2,5,4
India,Maharashtra,Mumbai,"Shivaji Nagar, Mumbai - BMC",20-09-2025 15:00:00,19.060498,72.923356,CO,11,61,27
India,Maharashtra,Nagpur,"Ambazari, Nagpur - MPCB",20-09-2025 15:00:00,21.121801,79.04952,PM10,25,90,44
India,Maharashtra,Nagpur,"Mahal, Nagpur - MPCB",20-09-2025 15:00:00,21.14472,79.107595,PM10,11,401,63
India,Rajasthan,Ajmer,"Civil Lines,  Ajmer - RSPCB",20-09-2025 15:00:00,26.470859,74.646594,NH3,3,3,3
India,Rajasthan,Ajmer,"Civil Lines,  Ajmer - RSPCB",20-09-2025 15:00:00,26.470859,74.646594,SO2,2,19,9
India,Rajasthan,Ajmer,"Civil Lines,  Ajmer - RSPCB",20-09-2025 15:00:00,26.470859,74.646594,OZONE,11,121,51
India,Rajasthan,Alwar,"Moti Doongri, Alwar - RSPCB",20-09-2025 15:00:00,27.554793,76.611536,NH3,4,7,6
India,Rajasthan,Alwar,"Moti Doongri, Alwar - RSPCB",20-09-2025 15:00:00,27.554793,76.611536,CO,34,68,53
India,Rajasthan,Banswara,"Rati Talai, Banswara - RSPCB",20-09-2025 15:00:00,23.555190,74.440010,PM2.5,38,127,64
India,Rajasthan,Banswara,"Rati Talai, Banswara - RSPCB",20-09-2025 15:00:00,23.555190,74.440010,SO2,3,19,8
India,Rajasthan,Baran,"Bamboliya, Baran - RSPCB",20-09-2025 15:00:00,25.106006,76.469948,PM2.5,15,73,39
India,Rajasthan,Baran,"Bamboliya, Baran - RSPCB",20-09-2025 15:00:00,25.106006,76.469948,SO2,5,8,7
India,Rajasthan,Barmer,"Railway Colony, Barmer - RSPCB",20-09-2025 15:00:00,25.747299,71.393989,PM10,74,120,93
India,Odisha,Nayagarh,"Dabuna, Nayagarh - OSPCB",20-09-2025 15:00:00,21.847279,85.416905,PM2.5,13,21,16
India,Odisha,Nayagarh,"Dabuna, Nayagarh - OSPCB",20-09-2025 15:00:00,21.847279,85.416905,CO,20,32,29
India,Odisha,Nayagarh,"Dabuna, Nayagarh - OSPCB",20-09-2025 15:00:00,21.847279,85.416905,OZONE,12,18,15
India,Odisha,Rairangpur,"Divisional Forest Office, Rairangpur - OSPCB",20-09-2025 15:00:00,22.265816,86.174829,NH3,2,3,3
India,Odisha,Rourkela,"Fertilizer Township, Rourkela - OSPCB",20-09-2025 15:00:00,22.18972222,84.86277778,PM2.5,57,88,65
India,Odisha,Rourkela,"Raghunathpali, Rourkela - OSPCB",20-09-2025 15:00:00,22.220833,84.809444,NO2,2,9,4
India,Odisha,Suakati,"OMC Colony, Suakati - OSPCB",20-09-2025 15:00:00,21.606865,85.510538,CO,14,31,27
India,Odisha,Talcher,"Talcher Coalfields,Talcher - OSPCB",20-09-2025 15:00:00,20.9360711,85.1707021,NO2,NA,NA,NA
India,Odisha,Talcher,"Talcher Coalfields,Talcher - OSPCB",20-09-2025 15:00:00,20.9360711,85.1707021,NH3,NA,NA,NA
India,Odisha,Talcher,"Talcher Coalfields,Talcher - OSPCB",20-09-2025 15:00:00,20.9360711,85.1707021,CO,NA,NA,NA
India,Odisha,Tensa,"Barsua Iron Ore Mines, Tensa - OSPCB",20-09-2025 15:00:00,21.869985,85.167016,SO2,1,64,16
India,Punjab,Amritsar,"Golden Temple, Amritsar - PPCB",20-09-2025 15:00:00,31.620000,74.876512,PM10,48,60,55
India,Punjab,Amritsar,"Golden Temple, Amritsar - PPCB",20-09-2025 15:00:00,31.620000,74.876512,NH3,7,16,10
India,Punjab,Amritsar,"Golden Temple, Amritsar - PPCB",20-09-2025 15:00:00,31.620000,74.876512,SO2,17,24,19
India,Punjab,Jalandhar,"Civil Line, Jalandhar - PPCB",20-09-2025 15:00:00,31.321907,75.578914,SO2,14,16,15
India,Punjab,Jalandhar,"Civil Line, Jalandhar - PPCB",20-09-2025 15:00:00,31.321907,75.578914,CO,32,37,34
India,Odisha,Balasore,"Kalidaspur, Balasore - OSPCB",20-09-2025 15:00:00,21.51161,86.89088,NO2,1,43,13
India,Odisha,Balasore,"Kalidaspur, Balasore - OSPCB",20-09-2025 15:00:00,21.51161,86.89088,OZONE,3,81,35
India,Odisha,Barbil,"Forest Office, Barbil - OSPCB",20-09-2025 15:00:00,22.1166054,85.3945546,PM2.5,38,173,85
India,Odisha,Baripada,"Meher Colony, Baripada - OSPCB",20-09-2025 15:00:00,21.941841,86.728318,PM10,51,90,64
India,Odisha,Bhubaneswar,"Lingraj Mandir, Bhubaneswar - OSPCB",20-09-2025 15:00:00,20.240790,85.836784,PM2.5,25,197,70
India,Odisha,Bhubaneswar,"Lingraj Mandir, Bhubaneswar - OSPCB",20-09-2025 15:00:00,20.240790,85.836784,SO2,1,51,9
India,Maharashtra,Ulhasnagar,"Sidhi Vinayak Nagar, Ulhasnagar - MPCB",20-09-2025 15:00:00,19.235581,73.159121,NH3,5,10,8
India,Maharashtra,Virar,"Bolinj, Virar - MPCB",20-09-2025 15:00:00,19.4458210,72.7988231,CO,12,91,33
India,Meghalaya,Shillong,"Lumpyngngad, Shillong - Meghalaya PCB",20-09-2025 15:00:00,25.5586,91.8985,PM2.5,2,21,10
India,Nagaland,Kohima,"PWD Junction, Kohima - NPCB",20-09-2025 15:00:00,25.6635413,94.0989878,CO,2,12,4
India,Punjab,Khanna,"Kalal Majra, Khanna - PPCB",20-09-2025 15:00:00,30.736056 ,76.209694,SO2,4,9,6
India,Punjab,Ludhiana,"Punjab Agricultural University, Ludhiana - PPCB",20-09-2025 15:00:00,30.9028,75.8086,PM10,43,73,52
India,Punjab,Patiala,"Model Town, Patiala - PPCB",20-09-2025 15:00:00,30.349388,76.366642,PM10,48,89,70
India,Punjab,Patiala,"Model Town, Patiala - PPCB",20-09-2025 15:00:00,30.349388,76.366642,CO,9,26,21
India,Maharashtra,Thane,"Kasarvadavali, Thane - MPCB",20-09-2025 15:00:00,19.26777,72.97182,NO2,7,18,13
India,Maharashtra,Thane,"Kasarvadavali, Thane - MPCB",20-09-2025 15:00:00,19.26777,72.97182,NH3,2,12,6
India,Maharashtra,Thane,"Kasarvadavali, Thane - MPCB",20-09-2025 15:00:00,19.26777,72.97182,OZONE,31,50,41
India,Maharashtra,Thane,"Upvan Fort, Thane - MPCB",20-09-2025 15:00:00,19.222279,72.957979,SO2,3,5,4
India,Odisha,Cuttack,"CDA Area, Cuttack - OSPCB",20-09-2025 15:00:00,20.48891     ,85.84768     ,NO2,4,24,12
India,Odisha,Cuttack,"CDA Area, Cuttack - OSPCB",20-09-2025 15:00:00,20.48891     ,85.84768     ,CO,24,96,65
India,Odisha,Brajrajnagar,"GM Office, Brajrajnagar - OSPCB",20-09-2025 15:00:00,21.8004996,83.8396977,OZONE,24,26,25
India,Rajasthan,Bharatpur,"Krishna Nagar, Bharatpur - RSPCB",20-09-2025 15:00:00,27.215415,77.50873,NO2,8,24,13
India,Rajasthan,Bharatpur,"Krishna Nagar, Bharatpur - RSPCB",20-09-2025 15:00:00,27.215415,77.50873,SO2,1,2,1
India,Rajasthan,Bhilwara,"Pratap Nagar, Bhilwara - RSPCB",20-09-2025 15:00:00,25.339605,74.618883,PM2.5,8,58,37
India,Rajasthan,Bhiwadi,"RIICO Ind. Area III, Bhiwadi - RSPCB",20-09-2025 15:00:00,28.194909,76.862296,PM2.5,NA,NA,NA
India,Rajasthan,Bhiwadi,"RIICO Ind. Area III, Bhiwadi - RSPCB",20-09-2025 15:00:00,28.194909,76.862296,PM10,NA,NA,NA
India,Rajasthan,Bhiwadi,"Vasundhara Nagar_UIT, Bhiwadi - RSPCB",20-09-2025 15:00:00,28.207266,76.829265,NO2,NA,NA,NA
India,Rajasthan,Bhiwadi,"Vasundhara Nagar_UIT, Bhiwadi - RSPCB",20-09-2025 15:00:00,28.207266,76.829265,OZONE,NA,NA,NA
India,Rajasthan,Bikaner,"MM Ground, Bikaner - RSPCB",20-09-2025 15:00:00,28.018792,73.292658,PM2.5,15,49,31
India,Rajasthan,Jaipur,"Mansarovar Sector-12, Jaipur - RSPCB",20-09-2025 15:00:00,26.843698,75.766894,NH3,10,55,15
India,Rajasthan,Jaipur,"Police Commissionerate, Jaipur - RSPCB",20-09-2025 15:00:00,26.9164092,75.7994901,NO2,86,100,95
India,Rajasthan,Jaipur,"RIICO Sitapura, Jaipur - RSPCB",20-09-2025 15:00:00,26.786682,75.827928,PM2.5,18,70,39
India,Rajasthan,Jaipur,"Sector-2 Murlipura, Jaipur - RSPCB",20-09-2025 15:00:00,26.960669,75.771817,PM10,68,159,113
India,Rajasthan,Jaipur,"Sector-2 Murlipura, Jaipur - RSPCB",20-09-2025 15:00:00,26.960669,75.771817,NO2,13,106,38
India,Rajasthan,Jaipur,"Sector-2 Murlipura, Jaipur - RSPCB",20-09-2025 15:00:00,26.960669,75.771817,CO,8,84,28
India,Rajasthan,Jaipur,"Shastri Nagar, Jaipur - RSPCB",20-09-2025 15:00:00,26.9502929,75.730943,NO2,33,69,49
India,Rajasthan,Bikaner,"MM Ground, Bikaner - RSPCB",20-09-2025 15:00:00,28.018792,73.292658,NO2,5,30,13
India,Rajasthan,Bundi,"New Colony, Bundi - RSPCB",20-09-2025 15:00:00,25.435774,75.644272,NO2,5,19,9
India,Rajasthan,Bundi,"New Colony, Bundi - RSPCB",20-09-2025 15:00:00,25.435774,75.644272,NH3,1,4,2
India,Rajasthan,Bundi,"New Colony, Bundi - RSPCB",20-09-2025 15:00:00,25.435774,75.644272,OZONE,17,81,53
India,Rajasthan,Chittorgarh,"Shastri Nagar, Chittorgarh - RSPCB",20-09-2025 15:00:00,24.892047,74.623527,NH3,2,3,2
India,Rajasthan,Chittorgarh,"Shastri Nagar, Chittorgarh - RSPCB",20-09-2025 15:00:00,24.892047,74.623527,CO,10,23,14
India,Rajasthan,Churu,"Subash Chowk, Churu - RSPCB",20-09-2025 15:00:00,28.296139,74.961696,NO2,2,5,3
India,Rajasthan,Churu,"Subash Chowk, Churu - RSPCB",20-09-2025 15:00:00,28.296139,74.961696,OZONE,29,55,48
India,Rajasthan,Jaipur,"Shastri Nagar, Jaipur - RSPCB",20-09-2025 15:00:00,26.9502929,75.730943,SO2,5,36,21
India,Rajasthan,Jaipur,"Shastri Nagar, Jaipur - RSPCB",20-09-2025 15:00:00,26.9502929,75.730943,OZONE,12,26,16
India,Rajasthan,Jalore,"Mudtra Sili, Jalore - RSPCB",20-09-2025 15:00:00,25.344694,72.626208,PM2.5,25,53,38
India,Rajasthan,Jalore,"Mudtra Sili, Jalore - RSPCB",20-09-2025 15:00:00,25.344694,72.626208,PM10,92,136,110
India,Rajasthan,Jalore,"Mudtra Sili, Jalore - RSPCB",20-09-2025 15:00:00,25.344694,72.626208,OZONE,24,50,35
India,Rajasthan,Jhalawar,"Rajlaxmi Nagar, Jhalawar - RSPCB",20-09-2025 15:00:00,24.588397,76.172782,NO2,20,39,30
India,Rajasthan,Jhunjhunu,"Indra Nagar, Jhunjhunu - RSPCB",20-09-2025 15:00:00,28.108988,75.386577,NH3,4,11,7
India,Rajasthan,Pali,"Indira Colony Vistar, Pali - RSPCB",20-09-2025 15:00:00,25.771061, 73.340227,OZONE,8,72,43
India,Rajasthan,Pratapgarh,"Pragati Nagar, Pratapgarh - RSPCB",20-09-2025 15:00:00,24.041198,74.780702,PM2.5,10,67,41
India,Rajasthan,Pratapgarh,"Pragati Nagar, Pratapgarh - RSPCB",20-09-2025 15:00:00,24.041198,74.780702,NO2,6,20,10
India,Rajasthan,Pratapgarh,"Pragati Nagar, Pratapgarh - RSPCB",20-09-2025 15:00:00,24.041198,74.780702,OZONE,14,68,53
India,Rajasthan,Rajsamand,"Dhoinda, Rajsamand - RSPCB",20-09-2025 15:00:00,25.036360,73.883502,NH3,10,13,12
India,Rajasthan,Rajsamand,"Dhoinda, Rajsamand - RSPCB",20-09-2025 15:00:00,25.036360,73.883502,CO,11,58,14
India,Rajasthan,Sawai Madhopur,"Sahu Nagar, Sawai Madhopur - RSPCB",20-09-2025 15:00:00,26.031443,76.359327,CO,18,65,40
India,Rajasthan,Kota,"Dhanmandi, Kota - RSPCB",20-09-2025 15:00:00,25.164090,75.858137,PM2.5,5,42,20
India,Rajasthan,Kota,"Dhanmandi, Kota - RSPCB",20-09-2025 15:00:00,25.164090,75.858137,PM10,21,74,46
India,Rajasthan,Kota,"Nayapura, Kota - RSPCB",20-09-2025 15:00:00,25.196024,75.855668,CO,34,52,40
India,Rajasthan,Nagaur,"Karni Colony, Nagaur - RSPCB",20-09-2025 15:00:00,27.213494,73.734444,NO2,2,13,5
India,Rajasthan,Nagaur,"Karni Colony, Nagaur - RSPCB",20-09-2025 15:00:00,27.213494,73.734444,NH3,3,7,5
India,Rajasthan,Nagaur,"Karni Colony, Nagaur - RSPCB",20-09-2025 15:00:00,27.213494,73.734444,CO,8,16,13
India,Rajasthan,Pali,"Indira Colony Vistar, Pali - RSPCB",20-09-2025 15:00:00,25.771061, 73.340227,PM10,58,138,101
India,Rajasthan,Dausa,"Khatikan Mohalla, Dausa - RSPCB",20-09-2025 15:00:00,26.895552,76.334753,SO2,1,7,4
India,Rajasthan,Dholpur,"Raja Ganj, Dholpur - RSPCB",20-09-2025 15:00:00,26.699557,77.898881,SO2,3,5,4
India,Rajasthan,Hanumangarh,"Housing Board, Hanumangarh - RSPCB",20-09-2025 15:00:00,29.610750,74.283608,NH3,5,14,8
India,Rajasthan,Hanumangarh,"Housing Board, Hanumangarh - RSPCB",20-09-2025 15:00:00,29.610750,74.283608,OZONE,15,40,31
India,Rajasthan,Jaipur,"Adarsh Nagar, Jaipur - RSPCB",20-09-2025 15:00:00,26.902909,75.836858,NO2,16,45,32
India,Rajasthan,Jaipur,"Adarsh Nagar, Jaipur - RSPCB",20-09-2025 15:00:00,26.902909,75.836858,OZONE,23,74,52
India,Rajasthan,Jodhpur,"Jhalamand, Jodhpur - RSPCB",20-09-2025 15:00:00,26.215415,73.070156,SO2,1,3,2
India,Rajasthan,Jodhpur,"Mandor, Jodhpur - RSPCB",20-09-2025 15:00:00,26.358805,73.047444,PM2.5,NA,NA,NA
India,Rajasthan,Jodhpur,"Mandor, Jodhpur - RSPCB",20-09-2025 15:00:00,26.358805,73.047444,CO,16,36,30
India,Rajasthan,Jodhpur,"Samrat Ashok Udhyan, Jodhpur - RSPCB",20-09-2025 15:00:00,26.253384,72.976571,PM2.5,18,58,30
India,Rajasthan,Jodhpur,"Samrat Ashok Udhyan, Jodhpur - RSPCB",20-09-2025 15:00:00,26.253384,72.976571,NO2,2,26,8
India,Rajasthan,Jodhpur,"Collectorate, Jodhpur - RSPCB",20-09-2025 15:00:00,26.268249,73.0193853,NO2,24,26,25
India,Rajasthan,Jodhpur,"Collectorate, Jodhpur - RSPCB",20-09-2025 15:00:00,26.268249,73.0193853,CO,5,72,23
India,TamilNadu,Ooty,"Bombay Castel, Ooty - TNPCB",20-09-2025 15:00:00,11.4068288,76.7138973,NH3,6,15,12
India,TamilNadu,Ooty,"Bombay Castel, Ooty - TNPCB",20-09-2025 15:00:00,11.4068288,76.7138973,SO2,8,24,22
India,TamilNadu,Ooty,"Bombay Castel, Ooty - TNPCB",20-09-2025 15:00:00,11.4068288,76.7138973,CO,25,26,26
India,TamilNadu,Palkalaiperur,"Bharathidasan University, Palkalaiperur - TNPCB",20-09-2025 15:00:00,10.681158,78.741746,NO2,7,7,7
India,TamilNadu,Perundurai,"SIPCOT Industrial Park, Perundurai - TNPCB",20-09-2025 15:00:00,11.258242,77.552761,PM2.5,17,43,30
India,TamilNadu,Perundurai,"SIPCOT Industrial Park, Perundurai - TNPCB",20-09-2025 15:00:00,11.258242,77.552761,OZONE,1,44,42
India,TamilNadu,Pudukottai,"SIPCOT Nathampannai, Pudukottai - TNPCB",20-09-2025 15:00:00,10.423417,78.784889,NO2,12,22,16
India,TamilNadu,Ramanathapuram,"Chalai Bazaar, Ramanathapuram - TNPCB",20-09-2025 15:00:00,9.36399,78.831977,PM10,21,70,39
India,TamilNadu,Ramanathapuram,"Chalai Bazaar, Ramanathapuram - TNPCB",20-09-2025 15:00:00,9.36399,78.831977,NO2,13,13,13
India,TamilNadu,Coimbatore,"PSG College of Arts and Science, Coimbatore - TNPCB",20-09-2025 15:00:00,11.0328,77.0349,NH3,2,2,2
India,TamilNadu,Coimbatore,"SIDCO Kurichi, Coimbatore - TNPCB",20-09-2025 15:00:00,10.942451,76.978996,PM10,22,65,44
India,TamilNadu,Coimbatore,"SIDCO Kurichi, Coimbatore - TNPCB",20-09-2025 15:00:00,10.942451,76.978996,OZONE,1,20,3
India,TamilNadu,Cuddalore,"Kudikadu, Cuddalore - TNPCB",20-09-2025 15:00:00,11.6829898,79.7532099,PM2.5,NA,NA,NA
India,TamilNadu,Cuddalore,"Kudikadu, Cuddalore - TNPCB",20-09-2025 15:00:00,11.6829898,79.7532099,OZONE,3,6,5
India,TamilNadu,Dindigul,"Mendonsa Colony, Dindigul - TNPCB",20-09-2025 15:00:00,10.358535,77.984321,NO2,NA,NA,NA
India,TamilNadu,Dindigul,"Mendonsa Colony, Dindigul - TNPCB",20-09-2025 15:00:00,10.358535,77.984321,CO,10,14,13
India,TamilNadu,Gummidipoondi,"Anthoni Pillai Nagar, Gummidipoondi - TNPCB",20-09-2025 15:00:00,13.4127,80.1081,PM10,52,126,88
India,TamilNadu,Gummidipoondi,"Anthoni Pillai Nagar, Gummidipoondi - TNPCB",20-09-2025 15:00:00,13.4127,80.1081,NH3,3,4,3
India,Rajasthan,Sri Ganganagar,"Old City, Sri Ganganagar - RSPCB",20-09-2025 15:00:00,29.931624,73.864511,SO2,4,24,18
India,Rajasthan,Tonk,"Shastri Nagar, Tonk - RSPCB",20-09-2025 15:00:00,26.159933,75.780517,PM2.5,25,68,48
India,Rajasthan,Tonk,"Shastri Nagar, Tonk - RSPCB",20-09-2025 15:00:00,26.159933,75.780517,CO,15,51,27
India,Rajasthan,Udaipur,"Ashok Nagar, Udaipur - RSPCB",20-09-2025 15:00:00,24.5886166,73.6321397,OZONE,3,53,18
India,Sikkim,Gangtok,"Zero Point GICI, Gangtok - SSPCB",20-09-2025 15:00:00,27.338530,88.614099,PM10,9,20,15
India,Sikkim,Gangtok,"Zero Point GICI, Gangtok - SSPCB",20-09-2025 15:00:00,27.338530,88.614099,NO2,NA,NA,NA
India,Sikkim,Gangtok,"Zero Point GICI, Gangtok - SSPCB",20-09-2025 15:00:00,27.338530,88.614099,SO2,1,1,1
India,TamilNadu,Ariyalur,"Keelapalur, Ariyalur - TNPCB",20-09-2025 15:00:00,11.06825,79.07033,NH3,NA,NA,NA
India,TamilNadu,Ariyalur,"Keelapalur, Ariyalur - TNPCB",20-09-2025 15:00:00,11.06825,79.07033,SO2,NA,NA,NA
India,TamilNadu,Salem,"Sona College of Technology, Salem - TNPCB",20-09-2025 15:00:00,11.679111,78.125052,SO2,31,32,31
India,TamilNadu,Salem,"Sona College of Technology, Salem - TNPCB",20-09-2025 15:00:00,11.679111,78.125052,CO,18,19,18
India,TamilNadu,Thanjavur,"Parisutham Nagar, Thanjavur - TNPCB",20-09-2025 15:00:00,10.7654824,79.1389968,NO2,3,3,3
India,TamilNadu,Thoothukudi,"Meelavittan, Thoothukudi - TNPCB",20-09-2025 15:00:00,8.816428 ,78.099039,SO2,1,12,5
India,TamilNadu,Tiruchirappalli,"St Joseph College, Tiruchirappalli - TNPCB",20-09-2025 15:00:00,10.830158,78.691849,NH3,1,4,2
India,TamilNadu,Tiruchirappalli,"St Joseph College, Tiruchirappalli - TNPCB",20-09-2025 15:00:00,10.830158,78.691849,SO2,21,23,22
India,TamilNadu,Tiruchirappalli,"St Joseph College, Tiruchirappalli - TNPCB",20-09-2025 15:00:00,10.830158,78.691849,CO,25,34,33
India,TamilNadu,Chengalpattu,"Crescent University, Chengalpattu - TNPCB",20-09-2025 15:00:00,12.8777316,80.0834807,PM10,35,81,53
India,TamilNadu,Chennai,"Arumbakkam, Chennai - TNPCB",20-09-2025 15:00:00,13.0664,80.2112 ,PM10,27,110,66
India,TamilNadu,Chennai,"Manali Village, Chennai - TNPCB",20-09-2025 15:00:00,13.1662,80.2584,PM2.5,7,71,36
India,TamilNadu,Chennai,"Manali Village, Chennai - TNPCB",20-09-2025 15:00:00,13.1662,80.2584,PM10,20,40,31
India,TamilNadu,Karur,"Kamadenu Nagar, Karur - TNPCB",20-09-2025 15:00:00,10.967820,78.080882,PM10,11,36,22
India,TamilNadu,Madurai,"Uchapatti, Madurai - TNPCB",20-09-2025 15:00:00,9.865935,78.022669,PM2.5,12,72,37
India,TamilNadu,Madurai,"Uchapatti, Madurai - TNPCB",20-09-2025 15:00:00,9.865935,78.022669,NO2,16,16,16
India,TamilNadu,Madurai,"Uchapatti, Madurai - TNPCB",20-09-2025 15:00:00,9.865935,78.022669,OZONE,6,6,6
India,TamilNadu,Chennai,"Royapuram, Chennai - TNPCB",20-09-2025 15:00:00,13.1036,80.2909,PM2.5,13,64,36
India,TamilNadu,Chennai,"Royapuram, Chennai - TNPCB",20-09-2025 15:00:00,13.1036,80.2909,CO,16,64,36
India,TamilNadu,Chennai,"Velachery Res. Area, Chennai - CPCB",20-09-2025 15:00:00,13.0052189,80.2398125,NH3,4,5,5
India,TamilNadu,Chennai,"Velachery Res. Area, Chennai - CPCB",20-09-2025 15:00:00,13.0052189,80.2398125,OZONE,5,10,7
India,Telangana,Hyderabad,"Bollaram Industrial Area, Hyderabad - TSPCB",20-09-2025 15:00:00,17.540891,78.358528,NO2,14,41,30
India,Rajasthan,Sikar,"Radhakishan Pura, Sikar - RSPCB",20-09-2025 15:00:00,27.608912,75.153302,OZONE,16,71,57
India,Uttar_Pradesh,Greater Noida,"Knowledge Park - V, Greater Noida - UPPCB",20-09-2025 15:00:00,28.557054,77.453663,OZONE,8,79,40
India,Uttar_Pradesh,Hapur,"Anand Vihar, Hapur - UPPCB",20-09-2025 15:00:00,28.725645,77.749675,NH3,9,14,10
India,Uttar_Pradesh,Hapur,"Anand Vihar, Hapur - UPPCB",20-09-2025 15:00:00,28.725645,77.749675,CO,28,103,79
India,Uttar_Pradesh,Jhansi,"Shivaji Nagar, Jhansi - UPPCB",20-09-2025 15:00:00,25.4547,78.6039,PM2.5,40,77,58
India,Uttar_Pradesh,Kanpur,"FTI Kidwai Nagar, Kanpur - UPPCB",20-09-2025 15:00:00,26.428282,80.327067,PM2.5,17,48,33
India,Uttar_Pradesh,Kanpur,"FTI Kidwai Nagar, Kanpur - UPPCB",20-09-2025 15:00:00,26.428282,80.327067,PM10,30,82,55
India,Uttar_Pradesh,Kanpur,"FTI Kidwai Nagar, Kanpur - UPPCB",20-09-2025 15:00:00,26.428282,80.327067,NH3,2,2,2
India,Uttar_Pradesh,Kanpur,"NSI Kalyanpur, Kanpur - UPPCB",20-09-2025 15:00:00,26.509954,80.249612,PM10,29,112,70
India,Uttar_Pradesh,Kanpur,"NSI Kalyanpur, Kanpur - UPPCB",20-09-2025 15:00:00,26.509954,80.249612,CO,20,46,37
India,Telangana,Hyderabad,"ICRISAT Patancheru, Hyderabad - TSPCB",20-09-2025 15:00:00,17.518400,78.278777,PM10,32,89,57
India,Telangana,Hyderabad,"ICRISAT Patancheru, Hyderabad - TSPCB",20-09-2025 15:00:00,17.518400,78.278777,NH3,1,2,2
India,Telangana,Hyderabad,"IDA Pashamylaram, Hyderabad - TSPCB",20-09-2025 15:00:00,17.5316895,78.218939,PM2.5,58,171,104
India,Telangana,Hyderabad,"IDA Pashamylaram, Hyderabad - TSPCB",20-09-2025 15:00:00,17.5316895,78.218939,NH3,1,1,1
India,Telangana,Hyderabad,"IDA Pashamylaram, Hyderabad - TSPCB",20-09-2025 15:00:00,17.5316895,78.218939,OZONE,6,9,8
India,Telangana,Hyderabad,"Kokapet, Hyderabad - TSPCB",20-09-2025 15:00:00,17.393559,78.339194,PM10,63,284,80
India,Telangana,Hyderabad,"Kokapet, Hyderabad - TSPCB",20-09-2025 15:00:00,17.393559,78.339194,CO,24,26,25
India,Telangana,Hyderabad,"Kompally Municipal Office, Hyderabad - TSPCB",20-09-2025 15:00:00,17.544899,78.486949,PM10,NA,NA,NA
India,Telangana,Hyderabad,"Kompally Municipal Office, Hyderabad - TSPCB",20-09-2025 15:00:00,17.544899,78.486949,OZONE,28,29,29
India,Telangana,Hyderabad,"New Malakpet, Hyderabad - TSPCB",20-09-2025 15:00:00,17.37206,78.50864,PM10,62,68,64
India,Telangana,Hyderabad,"New Malakpet, Hyderabad - TSPCB",20-09-2025 15:00:00,17.37206,78.50864,NO2,16,22,20
India,Telangana,Hyderabad,"Ramachandrapuram, Hyderabad - TSPCB",20-09-2025 15:00:00,17.528544,78.286195,SO2,9,15,11
India,Telangana,Hyderabad,"Sanathnagar, Hyderabad - TSPCB",20-09-2025 15:00:00,17.4559458,78.4332152,PM2.5,15,55,38
India,Telangana,Hyderabad,"Somajiguda, Hyderabad - TSPCB",20-09-2025 15:00:00,17.417094,78.457437,NO2,12,17,14
India,Uttar_Pradesh,Agra,"Shastripuram, Agra - UPPCB",20-09-2025 15:00:00,27.19862,77.92066,NH3,3,3,3
India,Uttar_Pradesh,Bareilly,"Civil Lines, Bareilly - UPPCB",20-09-2025 15:00:00,28.359581,79.414455,SO2,27,48,34
India,Uttar_Pradesh,Bareilly,"Civil Lines, Bareilly - UPPCB",20-09-2025 15:00:00,28.359581,79.414455,CO,9,29,12
India,Uttar_Pradesh,Bareilly,"Rajendra Nagar, Bareilly - UPPCB",20-09-2025 15:00:00,28.38910936,79.42963708,PM10,56,128,100
India,Uttar_Pradesh,Bulandshahr,"Yamunapuram, Bulandshahr - UPPCB",20-09-2025 15:00:00,28.406963,77.849831,SO2,5,34,13
India,Uttar_Pradesh,Bulandshahr,"Yamunapuram, Bulandshahr - UPPCB",20-09-2025 15:00:00,28.406963,77.849831,CO,21,66,28
India,Uttar_Pradesh,Ghaziabad,"Vasundhara, Ghaziabad - UPPCB",20-09-2025 15:00:00,28.6603346,77.3572563,NH3,7,15,13
India,Uttar_Pradesh,Ghaziabad,"Vasundhara, Ghaziabad - UPPCB",20-09-2025 15:00:00,28.6603346,77.3572563,SO2,4,134,23
India,Uttar_Pradesh,Gorakhpur,"Madan Mohan Malaviya University of Technology, Gorakhpur - UPPCB",20-09-2025 15:00:00,26.730136,83.433859,PM10,29,66,46
India,Uttar_Pradesh,Greater Noida,"Knowledge Park - III, Greater Noida - UPPCB",20-09-2025 15:00:00,28.47272,77.482000,PM10,115,330,183
India,Uttar_Pradesh,Greater Noida,"Knowledge Park - III, Greater Noida - UPPCB",20-09-2025 15:00:00,28.47272,77.482000,CO,34,112,40
India,Telangana,Hyderabad,"Zoo Park, Hyderabad - TSPCB",20-09-2025 15:00:00,17.349694,78.451437,OZONE,22,25,24
India,Uttar_Pradesh,Agra,"Manoharpur, Agra - UPPCB",20-09-2025 15:00:00,27.23711,78.01936,PM2.5,13,110,67
India,Uttar_Pradesh,Agra,"Manoharpur, Agra - UPPCB",20-09-2025 15:00:00,27.23711,78.01936,OZONE,8,43,12
India,Uttar_Pradesh,Agra,"Rohta, Agra - UPPCB",20-09-2025 15:00:00,27.106972,78.000111,PM10,53,157,83
India,Uttar_Pradesh,Agra,"Rohta, Agra - UPPCB",20-09-2025 15:00:00,27.106972,78.000111,SO2,12,17,15
India,Uttar_Pradesh,Firozabad,"Nagla Bhau, Firozabad - UPPCB",20-09-2025 15:00:00,27.168897,78.376960,OZONE,10,19,13
India,Uttar_Pradesh,Firozabad,"Vibhab Nagar, Firozabad - UPPCB",20-09-2025 15:00:00,27.1594,78.3953,OZONE,5,16,6
India,Uttar_Pradesh,Ghaziabad,"Indirapuram, Ghaziabad - UPPCB",20-09-2025 15:00:00,28.646233,77.358075,PM2.5,41,195,75
India,Uttar_Pradesh,Ghaziabad,"Indirapuram, Ghaziabad - UPPCB",20-09-2025 15:00:00,28.646233,77.358075,SO2,11,22,16
India,Uttar_Pradesh,Agra,"Sanjay Palace, Agra - UPPCB",20-09-2025 15:00:00,27.19865833,78.00598056,PM10,23,98,63
India,Uttar_Pradesh,Agra,"Sector-3B Avas Vikas Colony, Agra - UPPCB",20-09-2025 15:00:00,27.19412,77.96237,NO2,20,25,22
India,Telangana,Hyderabad,"ECIL Kapra, Hyderabad - TSPCB",20-09-2025 15:00:00,17.470431,78.566959,NO2,15,31,23
India,Uttar_Pradesh,Noida,"Sector-116, Noida - UPPCB",20-09-2025 15:00:00,28.569230,77.393848,NO2,26,80,55
India,Uttar_Pradesh,Noida,"Sector-116, Noida - UPPCB",20-09-2025 15:00:00,28.569230,77.393848,NH3,7,16,12
India,Uttar_Pradesh,Prayagraj,"Jhunsi, Prayagraj - UPPCB",20-09-2025 15:00:00,25.425602,81.917152,NH3,5,5,5
India,Uttar_Pradesh,Prayagraj,"Jhunsi, Prayagraj - UPPCB",20-09-2025 15:00:00,25.425602,81.917152,CO,10,31,13
India,Uttar_Pradesh,Prayagraj,"Motilal Nehru NIT, Prayagraj - UPPCB",20-09-2025 15:00:00,25.494,81.863,PM10,13,40,24
India,Uttar_Pradesh,Prayagraj,"Motilal Nehru NIT, Prayagraj - UPPCB",20-09-2025 15:00:00,25.494,81.863,NO2,12,12,12
India,Uttar_Pradesh,Varanasi,"Ardhali Bazar, Varanasi - UPPCB",20-09-2025 15:00:00,25.3505986,82.9083074,PM10,21,51,36
India,Uttar_Pradesh,Lucknow,"Kukrail Picnic Spot-1, Lucknow - UPPCB",20-09-2025 15:00:00,26.90723,80.98579,SO2,40,49,41
India,Uttar_Pradesh,Lucknow,"Kukrail Picnic Spot-1, Lucknow - UPPCB",20-09-2025 15:00:00,26.90723,80.98579,OZONE,8,56,29
India,Uttar_Pradesh,Lucknow,"Lalbagh, Lucknow - CPCB",20-09-2025 15:00:00,26.8458805,80.9365541,SO2,NA,NA,NA
India,Uttar_Pradesh,Lucknow,"Talkatora District Industries Center, Lucknow - CPCB",20-09-2025 15:00:00,26.83399722,80.8917361,NH3,9,18,12
India,Uttar_Pradesh,Meerut,"Jai Bhim Nagar, Meerut - UPPCB",20-09-2025 15:00:00,28.9535882,77.7622941,OZONE,8,109,63
India,Uttar_Pradesh,Varanasi,"Maldahiya, Varanasi - UPPCB",20-09-2025 15:00:00,25.32393,82.99687,CO,10,28,14
India,Uttar_Pradesh,Vrindavan,"Omex Eternity, Vrindavan - UPPCB",20-09-2025 15:00:00,27.5714090,77.6557570,PM2.5,22,81,41
India,Uttar_Pradesh,Vrindavan,"Omex Eternity, Vrindavan - UPPCB",20-09-2025 15:00:00,27.5714090,77.6557570,NH3,1,2,2
India,Uttar_Pradesh,Vrindavan,"Omex Eternity, Vrindavan - UPPCB",20-09-2025 15:00:00,27.5714090,77.6557570,OZONE,15,15,15
India,Uttarakhand,Dehradun,"Doon University, Dehradun - UKPCB",20-09-2025 15:00:00,30.269444,78.044167,PM2.5,NA,NA,NA
India,Uttar_Pradesh,Noida,"Sector - 125, Noida - UPPCB",20-09-2025 15:00:00,28.5447608,77.3231257,NH3,5,9,7
India,Uttar_Pradesh,Noida,"Sector - 125, Noida - UPPCB",20-09-2025 15:00:00,28.5447608,77.3231257,CO,20,63,43
India,Uttar_Pradesh,Noida,"Sector - 62, Noida - IMD",20-09-2025 15:00:00,28.6245479,77.3577104,NO2,2,10,7
India,Uttar_Pradesh,Noida,"Sector - 62, Noida - IMD",20-09-2025 15:00:00,28.6245479,77.3577104,OZONE,18,75,47
India,Uttar_Pradesh,Noida,"Sector-1, Noida - UPPCB",20-09-2025 15:00:00,28.5898,77.3101,PM10,125,177,144
India,Uttar_Pradesh,Noida,"Sector-1, Noida - UPPCB",20-09-2025 15:00:00,28.5898,77.3101,NO2,10,62,35
India,Uttar_Pradesh,Moradabad,"Buddhi Vihar, Moradabad - UPPCB",20-09-2025 15:00:00,28.83526,78.74460,PM10,NA,NA,NA
India,Uttar_Pradesh,Moradabad,"Buddhi Vihar, Moradabad - UPPCB",20-09-2025 15:00:00,28.83526,78.74460,OZONE,18,39,28
India,Uttar_Pradesh,Moradabad,"Eco Herbal Park, Moradabad - UPPCB",20-09-2025 15:00:00,28.840739,78.697531,OZONE,18,114,71
India,Uttar_Pradesh,Moradabad,"Jigar Colony, Moradabad - UPPCB",20-09-2025 15:00:00,28.856664,78.772638,NO2,24,25,25
India,Uttar_Pradesh,Moradabad,"Kashiram Nagar, Moradabad - UPPCB",20-09-2025 15:00:00,28.849399,78.742362,PM10,70,137,109
India,Uttar_Pradesh,Moradabad,"Transport Nagar, Moradabad - UPPCB",20-09-2025 15:00:00,28.802625,78.753728,PM10,74,160,115
India,Uttar_Pradesh,Muzaffarnagar,"New Mandi, Muzaffarnagar - UPPCB",20-09-2025 15:00:00,29.4723508,77.7194031,PM10,79,128,105
India,Uttar_Pradesh,Lucknow,"B R Ambedkar University, Lucknow - UPPCB",20-09-2025 15:00:00,26.766433,80.927299,PM10,NA,NA,NA
India,Uttar_Pradesh,Lucknow,"B R Ambedkar University, Lucknow - UPPCB",20-09-2025 15:00:00,26.766433,80.927299,NO2,11,12,12
India,Uttar_Pradesh,Lucknow,"B R Ambedkar University, Lucknow - UPPCB",20-09-2025 15:00:00,26.766433,80.927299,SO2,4,6,4
India,Uttar_Pradesh,Lucknow,"B R Ambedkar University, Lucknow - UPPCB",20-09-2025 15:00:00,26.766433,80.927299,CO,26,56,38
India,Uttar_Pradesh,Kanpur,"Nehru Nagar, Kanpur - UPPCB",20-09-2025 15:00:00,26.4703136,80.3229863,OZONE,6,54,28
India,Uttar_Pradesh,Khurja,"Kalindi Kunj, Khurja - UPPCB",20-09-2025 15:00:00,28.2348927,77.8683002,PM2.5,17,54,38
India,Uttar_Pradesh,Khurja,"Kalindi Kunj, Khurja - UPPCB",20-09-2025 15:00:00,28.2348927,77.8683002,PM10,27,72,50
India,Uttar_Pradesh,Varanasi,"IESD Banaras Hindu University, Varanasi - UPPCB",20-09-2025 15:00:00,25.262326,82.995408,CO,5,11,7
India,Uttarakhand,Dehradun,"Doon University, Dehradun - UKPCB",20-09-2025 15:00:00,30.269444,78.044167,SO2,NA,NA,NA
India,Uttarakhand,Kashipur,"Govt. Girls Inter College, Kashipur - UKPCB",20-09-2025 15:00:00,29.2124114,78.9611753,PM2.5,23,138,69
India,Uttarakhand,Rishikesh,"Shivaji Nagar, Rishikesh - UKPCB",20-09-2025 15:00:00,30.075911,78.2859547,NH3,4,9,7
India,West_Bengal,Asansol,"Asansol Court Area, Asansol - WBPCB",20-09-2025 15:00:00,23.685297,86.945968,PM2.5,57,114,80
India,West_Bengal,Asansol,"Asansol Court Area, Asansol - WBPCB",20-09-2025 15:00:00,23.685297,86.945968,PM10,58,102,80
India,West_Bengal,Asansol,"Asansol Court Area, Asansol - WBPCB",20-09-2025 15:00:00,23.685297,86.945968,SO2,10,18,13
India,West_Bengal,Asansol,"Evelyn Lodge, Asansol - WBPCB",20-09-2025 15:00:00,23.6979360,86.9443950,CO,14,54,31
India,West_Bengal,Asansol,"Mahabir Colliery, Asansol - WBPCB",20-09-2025 15:00:00,23.6181830,87.1057180,SO2,5,7,6
India,West_Bengal,Asansol,"Trivenidevi Bhalotia College, Asansol - WBPCB",20-09-2025 15:00:00,23.616515,87.119133,PM2.5,61,134,88
India,West_Bengal,Asansol,"Trivenidevi Bhalotia College, Asansol - WBPCB",20-09-2025 15:00:00,23.616515,87.119133,SO2,13,18,15
India,West_Bengal,Asansol,"Trivenidevi Bhalotia College, Asansol - WBPCB",20-09-2025 15:00:00,23.616515,87.119133,CO,62,105,82
India,West_Bengal,Barrackpore,"SVSPA Campus, Barrackpore - WBPCB",20-09-2025 15:00:00,22.7605581,88.3617589,PM10,55,90,76
India,West_Bengal,Barrackpore,"SVSPA Campus, Barrackpore - WBPCB",20-09-2025 15:00:00,22.7605581,88.3617589,SO2,14,16,15
India,West_Bengal,Barrackpore,"SVSPA Campus, Barrackpore - WBPCB",20-09-2025 15:00:00,22.7605581,88.3617589,CO,32,52,36
India,West_Bengal,Durgapur,"Mahishkapur Road_B-Zone, Durgapur - WBPCB",20-09-2025 15:00:00,23.567923,87.306843,NO2,8,26,14
India,West_Bengal,Durgapur,"Mahishkapur Road_B-Zone, Durgapur - WBPCB",20-09-2025 15:00:00,23.567923,87.306843,NH3,1,1,1
India,West_Bengal,Durgapur,"PCBL Residential Complex, Durgapur - WBPCB",20-09-2025 15:00:00,23.5087640,87.3544400,PM2.5,NA,NA,NA
India,West_Bengal,Durgapur,"PCBL Residential Complex, Durgapur - WBPCB",20-09-2025 15:00:00,23.5087640,87.3544400,SO2,NA,NA,NA
India,West_Bengal,Durgapur,"PCBL Residential Complex, Durgapur - WBPCB",20-09-2025 15:00:00,23.5087640,87.3544400,CO,48,105,54
India,West_Bengal,Durgapur,"Womens College_City Center, Durgapur - WBPCB (Formerly known as Sidhu Kanhu Indoor Stadium)",20-09-2025 15:00:00,23.549395,87.300496,PM10,46,99,77
India,West_Bengal,Haldia,"Priyambada Housing Estate, Haldia - WBPCB",20-09-2025 15:00:00,22.06047,88.109737,NO2,7,22,13
India,West_Bengal,Howrah,"Belur Math, Howrah - WBPCB",20-09-2025 15:00:00,22.629801,88.352017,PM2.5,70,136,99
India,West_Bengal,Howrah,"Belur Math, Howrah - WBPCB",20-09-2025 15:00:00,22.629801,88.352017,NO2,6,11,9
India,West_Bengal,Howrah,"Botanical Garden, Howrah - WBPCB",20-09-2025 15:00:00,22.554954,88.292568,PM10,48,80,61
India,West_Bengal,Howrah,"Botanical Garden, Howrah - WBPCB",20-09-2025 15:00:00,22.554954,88.292568,NO2,NA,NA,NA
India,West_Bengal,Howrah,"Botanical Garden, Howrah - WBPCB",20-09-2025 15:00:00,22.554954,88.292568,SO2,13,17,14
India,West_Bengal,Howrah,"Dasnagar, Howrah - WBPCB",20-09-2025 15:00:00,22.6025571,88.3105664,OZONE,2,58,27
India,West_Bengal,Howrah,"Ghusuri, Howrah - WBPCB",20-09-2025 15:00:00,22.611968,88.347422,NH3,9,10,10
India,West_Bengal,Howrah,"Padmapukur, Howrah - WBPCB",20-09-2025 15:00:00,22.5687319,88.2797276,PM2.5,54,94,74
India,West_Bengal,Howrah,"Padmapukur, Howrah - WBPCB",20-09-2025 15:00:00,22.5687319,88.2797276,PM10,62,102,80
India,West_Bengal,Howrah,"Padmapukur, Howrah - WBPCB",20-09-2025 15:00:00,22.5687319,88.2797276,NO2,11,23,16
India,West_Bengal,Howrah,"Padmapukur, Howrah - WBPCB",20-09-2025 15:00:00,22.5687319,88.2797276,CO,24,43,29
India,West_Bengal,Kolkata,"Ballygunge, Kolkata - WBPCB",20-09-2025 15:00:00,22.5367507,88.3638022,SO2,4,8,6
India,West_Bengal,Kolkata,"Bidhannagar, Kolkata - WBPCB",20-09-2025 15:00:00,22.58157048,88.41002457,NH3,4,7,5
India,West_Bengal,Kolkata,"Bidhannagar, Kolkata - WBPCB",20-09-2025 15:00:00,22.58157048,88.41002457,OZONE,19,40,24
India,West_Bengal,Kolkata,"Fort William, Kolkata - WBPCB",20-09-2025 15:00:00,22.556640,88.342674,PM2.5,37,62,51
India,West_Bengal,Kolkata,"Fort William, Kolkata - WBPCB",20-09-2025 15:00:00,22.556640,88.342674,NH3,7,9,8
India,West_Bengal,Kolkata,"Fort William, Kolkata - WBPCB",20-09-2025 15:00:00,22.556640,88.342674,CO,27,46,30
India,West_Bengal,Kolkata,"Fort William, Kolkata - WBPCB",20-09-2025 15:00:00,22.556640,88.342674,OZONE,14,70,30
India,West_Bengal,Kolkata,"Rabindra Bharati University, Kolkata - WBPCB",20-09-2025 15:00:00,22.627847,88.380669,PM10,47,81,62
India,West_Bengal,Kolkata,"Rabindra Bharati University, Kolkata - WBPCB",20-09-2025 15:00:00,22.627847,88.380669,CO,22,32,27
India,West_Bengal,Kolkata,"Rabindra Sarobar, Kolkata - WBPCB",20-09-2025 15:00:00,22.51106,88.35142,OZONE,5,6,6
India,West_Bengal,Kolkata,"Victoria, Kolkata - WBPCB",20-09-2025 15:00:00,22.5448082,88.3403691,SO2,3,13,8
India,West_Bengal,Kolkata,"Victoria, Kolkata - WBPCB",20-09-2025 15:00:00,22.5448082,88.3403691,OZONE,17,42,27
India,West_Bengal,Siliguri,"Ward-32 Bapupara, Siliguri - WBPCB",20-09-2025 15:00:00,26.6879226,88.4152495,PM2.5,27,57,39
India,West_Bengal,Siliguri,"Ward-32 Bapupara, Siliguri - WBPCB",20-09-2025 15:00:00,26.6879226,88.4152495,SO2,10,13,11
India,Andhra_Pradesh,Visakhapatnam,"GVM Corporation, Visakhapatnam - APPCB",20-09-2025 15:00:00,17.72,83.3,OZONE,9,24,17
India,Arunachal_Pradesh,Naharlagun,"Naharlagun, Naharlagun - APSPCB",20-09-2025 15:00:00,27.103358,93.679645,CO,8,20,9
India,Assam,Byrnihat,"Central Academy for SFS, Byrnihat - PCBA",20-09-2025 15:00:00,26.071318,91.87488,NH3,NA,NA,NA
India,Assam,Byrnihat,"Central Academy for SFS, Byrnihat - PCBA",20-09-2025 15:00:00,26.071318,91.87488,OZONE,5,31,28
India,Assam,Guwahati,"IITG, Guwahati - PCBA",20-09-2025 15:00:00,26.2028636,91.70046436,PM10,14,72,45
India,Assam,Guwahati,"LGBI Airport, Guwahati - PCBA",20-09-2025 15:00:00,26.10887,91.589544,SO2,9,13,11
India,Assam,Guwahati,"Pan Bazaar, Guwahati - PCBA",20-09-2025 15:00:00,26.187500,91.744194,SO2,42,85,58
India,Assam,Guwahati,"Pan Bazaar, Guwahati - PCBA",20-09-2025 15:00:00,26.187500,91.744194,OZONE,17,19,18
India,Andhra_Pradesh,Tirupati,"Vaikuntapuram, Tirupati - APPCB",20-09-2025 15:00:00,13.615387,79.409230,SO2,20,22,21
India,Andhra_Pradesh,Tirupati,"Vaikuntapuram, Tirupati - APPCB",20-09-2025 15:00:00,13.615387,79.409230,OZONE,25,36,30
India,Andhra_Pradesh,Vijayawada,"HB Colony, Vijayawada - APPCB",20-09-2025 15:00:00,16.536107,80.594233,CO,21,40,21
India,Andhra_Pradesh,Vijayawada,"Rajiv Gandhi Park, Vijayawada - APPCB",20-09-2025 15:00:00,16.509717,80.612222,PM2.5,31,80,54
India,Andhra_Pradesh,Vijayawada,"Rajiv Nagar, Vijayawada - APPCB",20-09-2025 15:00:00,16.554731,80.649110,PM10,NA,NA,NA
India,Andhra_Pradesh,Visakhapatnam,"GVM Corporation, Visakhapatnam - APPCB",20-09-2025 15:00:00,17.72,83.3,NO2,12,70,53
India,Andhra_Pradesh,Visakhapatnam,"GVM Corporation, Visakhapatnam - APPCB",20-09-2025 15:00:00,17.72,83.3,NH3,3,3,3
India,Andhra_Pradesh,Visakhapatnam,"GVM Corporation, Visakhapatnam - APPCB",20-09-2025 15:00:00,17.72,83.3,SO2,7,18,12
India,Andhra_Pradesh,Chittoor,"Gangineni Cheruvu, Chittoor - APPCB",20-09-2025 15:00:00,13.204880,79.097889,SO2,14,16,14
India,Andhra_Pradesh,Chittoor,"Gangineni Cheruvu, Chittoor - APPCB",20-09-2025 15:00:00,13.204880,79.097889,OZONE,50,65,57
India,Andhra_Pradesh,Kadapa,"Yerramukkapalli, Kadapa - APPCB",20-09-2025 15:00:00,14.465052,78.824187,SO2,18,23,21
India,Andhra_Pradesh,Rajamahendravaram,"Anand Kala Kshetram, Rajamahendravaram - APPCB",20-09-2025 15:00:00,16.9872867,81.7363176,PM2.5,20,53,34
India,Andhra_Pradesh,Rajamahendravaram,"Anand Kala Kshetram, Rajamahendravaram - APPCB",20-09-2025 15:00:00,16.9872867,81.7363176,NO2,7,27,14
India,Andhra_Pradesh,Tirumala,"Toll Gate, Tirumala - APPCB",20-09-2025 15:00:00,13.67,79.35,PM2.5,15,39,26
India,Andhra_Pradesh,Tirumala,"Toll Gate, Tirumala - APPCB",20-09-2025 15:00:00,13.67,79.35,OZONE,8,14,10
India,Bihar,Munger,"Town Hall, Munger - BSPCB",20-09-2025 15:00:00,25.376776,86.471523,PM2.5,3,97,30
India,Bihar,Munger,"Town Hall, Munger - BSPCB",20-09-2025 15:00:00,25.376776,86.471523,PM10,3,90,28
India,Bihar,Munger,"Town Hall, Munger - BSPCB",20-09-2025 15:00:00,25.376776,86.471523,NO2,4,5,5
India,Bihar,Muzaffarpur,"Buddha Colony, Muzaffarpur - BSPCB",20-09-2025 15:00:00,26.11442,85.39813,NH3,4,4,4
India,Bihar,Muzaffarpur,"Buddha Colony, Muzaffarpur - BSPCB",20-09-2025 15:00:00,26.11442,85.39813,SO2,3,5,4
India,Bihar,Muzaffarpur,"Buddha Colony, Muzaffarpur - BSPCB",20-09-2025 15:00:00,26.11442,85.39813,OZONE,42,78,58
India,Bihar,Muzaffarpur,"Muzaffarpur Collectorate, Muzaffarpur - BSPCB",20-09-2025 15:00:00,26.1209,85.3647,PM2.5,22,65,34
India,Bihar,Muzaffarpur,"Muzaffarpur Collectorate, Muzaffarpur - BSPCB",20-09-2025 15:00:00,26.1209,85.3647,CO,16,39,31
India,Bihar,Buxar,"Charitra Van, Buxar - BSPCB",20-09-2025 15:00:00,25.567520,83.966379,OZONE,1,52,25
India,Bihar,Chhapra,"Darshan Nagar, Chhapra - BSPCB",20-09-2025 15:00:00,25.7808257,84.7446768,PM10,6,92,35
India,Bihar,Chhapra,"Darshan Nagar, Chhapra - BSPCB",20-09-2025 15:00:00,25.7808257,84.7446768,CO,4,8,5
India,Bihar,Chhapra,"Darshan Nagar, Chhapra - BSPCB",20-09-2025 15:00:00,25.7808257,84.7446768,OZONE,1,15,10
India,Bihar,Gaya,"Kareemganj, Gaya - BSPCB",20-09-2025 15:00:00,24.792403,84.992416,PM2.5,7,243,50
India,Bihar,Gaya,"Kareemganj, Gaya - BSPCB",20-09-2025 15:00:00,24.792403,84.992416,OZONE,1,58,20
India,Bihar,Hajipur,"Industrial Area, Hajipur - BSPCB",20-09-2025 15:00:00,25.697189,85.245900,PM2.5,42,72,52
India,Assam,Sivasagar,"Girls College, Sivasagar - PCBA",20-09-2025 15:00:00,26.987634,94.636574,OZONE,2,7,4
India,Bihar,Araria,"Kharahiya Basti, Araria - BSPCB",20-09-2025 15:00:00,26.146529,87.454184,NO2,11,165,64
India,Bihar,Araria,"Kharahiya Basti, Araria - BSPCB",20-09-2025 15:00:00,26.146529,87.454184,CO,3,34,26
India,Bihar,Arrah,"New DM Office, Arrah - BSPCB",20-09-2025 15:00:00,25.5626095,84.663264,OZONE,7,9,8
India,Bihar,Aurangabad,"Gurdeo Nagar, Aurangabad - BSPCB",20-09-2025 15:00:00,24.75746,84.366208,NO2,7,8,8
India,Bihar,Aurangabad,"Gurdeo Nagar, Aurangabad - BSPCB",20-09-2025 15:00:00,24.75746,84.366208,CO,14,59,28
India,Bihar,Bettiah,"Kamalnath Nagar, Bettiah - BSPCB",20-09-2025 15:00:00,26.80365,84.51954,CO,46,76,56
India,Bihar,Bhagalpur,"DM Office_Kachari Chowk, Bhagalpur - BSPCB",20-09-2025 15:00:00,25.251013,86.989001,PM10,33,107,61
India,Bihar,Bhagalpur,"DM Office_Kachari Chowk, Bhagalpur - BSPCB",20-09-2025 15:00:00,25.251013,86.989001,OZONE,12,32,17
India,Bihar,Bhagalpur,"Mayaganj, Bhagalpur - BSPCB",20-09-2025 15:00:00,25.265194,87.012947,PM10,11,234,98
India,Bihar,Buxar,"Charitra Van, Buxar - BSPCB",20-09-2025 15:00:00,25.567520,83.966379,NH3,3,3,3
India,Andaman and Nicobar,Sri Vijaya Puram,"Police Line, Sri Vijaya Puram - ANPCC",20-09-2025 15:00:00,11.654054,92.734055,NO2,8,36,21
India,Andhra_Pradesh,Amaravati,"Secretariat, Amaravati - APPCB",20-09-2025 15:00:00,16.5150833,80.5181667,OZONE,8,30,20
India,Andhra_Pradesh,Anantapur,"Gulzarpet, Anantapur - APPCB",20-09-2025 15:00:00,14.675886,77.593027,PM2.5,54,81,72
India,Andhra_Pradesh,Anantapur,"Gulzarpet, Anantapur - APPCB",20-09-2025 15:00:00,14.675886,77.593027,NO2,21,23,21
India,Andhra_Pradesh,Anantapur,"Gulzarpet, Anantapur - APPCB",20-09-2025 15:00:00,14.675886,77.593027,SO2,8,10,9
India,Bihar,Katihar,"Mirchaibari, Katihar - BSPCB",20-09-2025 15:00:00,25.560083,87.553265,NO2,13,16,14
India,Bihar,Manguraha,"Forest Rest House, Manguraha - BSPCB",20-09-2025 15:00:00,27.308328,84.531742,NH3,1,1,1
India,Bihar,Motihari,"Gandak Colony, Motihari - BSPCB",20-09-2025 15:00:00,26.63086,84.90051,NO2,3,5,4
India,Bihar,Motihari,"Gandak Colony, Motihari - BSPCB",20-09-2025 15:00:00,26.63086,84.90051,NH3,NA,NA,NA
India,Assam,Nagaon,"Christianpatty, Nagaon - PCBA",20-09-2025 15:00:00,26.349082,92.68449,SO2,7,14,12
India,Assam,Nagaon,"Christianpatty, Nagaon - PCBA",20-09-2025 15:00:00,26.349082,92.68449,CO,10,108,42
India,Assam,Nalbari,"Bata Chowk, Nalbari - PCBA",20-09-2025 15:00:00,26.446912,91.439057,NH3,1,3,2
India,Assam,Silchar,"Tarapur, Silchar - PCBA",20-09-2025 15:00:00,24.82827,92.79525,SO2,1,11,6
India,Bihar,Samastipur,"DM Office_Kasipur, Samastipur - BSPCB",20-09-2025 15:00:00,25.859655,85.77944,NH3,2,2,2
India,Bihar,Samastipur,"DM Office_Kasipur, Samastipur - BSPCB",20-09-2025 15:00:00,25.859655,85.77944,SO2,10,39,23
India,Bihar,Samastipur,"DM Office_Kasipur, Samastipur - BSPCB",20-09-2025 15:00:00,25.859655,85.77944,OZONE,7,12,8
India,Bihar,Siwan,"Chitragupta Nagar, Siwan - BSPCB",20-09-2025 15:00:00,26.2271665,84.3570427,PM2.5,3,25,16
India,Bihar,Siwan,"Chitragupta Nagar, Siwan - BSPCB",20-09-2025 15:00:00,26.2271665,84.3570427,PM10,10,340,47
India,Bihar,Siwan,"Chitragupta Nagar, Siwan - BSPCB",20-09-2025 15:00:00,26.2271665,84.3570427,CO,69,104,92
India,Bihar,Siwan,"Chitragupta Nagar, Siwan - BSPCB",20-09-2025 15:00:00,26.2271665,84.3570427,OZONE,2,4,4
India,Chandigarh,Chandigarh,"Sector 22, Chandigarh - CPCC",20-09-2025 15:00:00,30.735567,76.775714,PM10,34,66,53
India,Chandigarh,Chandigarh,"Sector 22, Chandigarh - CPCC",20-09-2025 15:00:00,30.735567,76.775714,NO2,13,36,24
India,Chandigarh,Chandigarh,"Sector 22, Chandigarh - CPCC",20-09-2025 15:00:00,30.735567,76.775714,SO2,1,5,3
India,Chandigarh,Chandigarh,"Sector-25, Chandigarh - CPCC",20-09-2025 15:00:00,30.751462,76.762879,PM2.5,50,87,68
India,Chandigarh,Chandigarh,"Sector-25, Chandigarh - CPCC",20-09-2025 15:00:00,30.751462,76.762879,PM10,52,86,69
India,Chhattisgarh,Raipur,"Krishak Nagar, Raipur - CECB",20-09-2025 15:00:00,21.237755,81.705301,PM10,23,45,34
India,Chhattisgarh,Raipur,"Krishak Nagar, Raipur - CECB",20-09-2025 15:00:00,21.237755,81.705301,NH3,2,4,3
India,Chhattisgarh,Raipur,"Krishak Nagar, Raipur - CECB",20-09-2025 15:00:00,21.237755,81.705301,CO,10,18,12
India,Chhattisgarh,Raipur,"Siltara Phase-II, Raipur - CECB",20-09-2025 15:00:00,21.371751,81.664929,PM2.5,24,41,32
India,Chhattisgarh,Raipur,"Siltara Phase-II, Raipur - CECB",20-09-2025 15:00:00,21.371751,81.664929,SO2,5,9,7
India,Chhattisgarh,Raipur,"Siltara Phase-II, Raipur - CECB",20-09-2025 15:00:00,21.371751,81.664929,CO,21,88,46
India,Chhattisgarh,Raipur,"Siltara Phase-II, Raipur - CECB",20-09-2025 15:00:00,21.371751,81.664929,OZONE,7,21,16
India,Chhattisgarh,Tumidih,"OP Jindal Industrial Park, Tumidih - CECB",20-09-2025 15:00:00,22.06631475,83.33820077,NH3,1,2,1
India,Delhi,Delhi,"Alipur, Delhi - DPCC",20-09-2025 15:00:00,28.815329,77.153010,PM2.5,32,107,64
India,Bihar,Patna,"Rajbansi Nagar, Patna - BSPCB",20-09-2025 15:00:00,25.599486,85.113666,NO2,NA,NA,NA
India,Bihar,Purnia,"Mariam Nagar, Purnia - BSPCB",20-09-2025 15:00:00,25.366336,87.117468,PM10,6,59,43
India,Bihar,Purnia,"Mariam Nagar, Purnia - BSPCB",20-09-2025 15:00:00,25.366336,87.117468,NO2,5,7,6
India,Bihar,Purnia,"Mariam Nagar, Purnia - BSPCB",20-09-2025 15:00:00,25.366336,87.117468,SO2,2,25,8
India,Bihar,Rajgir,"Dangi Tola, Rajgir - BSPCB",20-09-2025 15:00:00,25.03280,85.41948,SO2,19,23,21
India,Bihar,Rajgir,"Dangi Tola, Rajgir - BSPCB",20-09-2025 15:00:00,25.03280,85.41948,OZONE,25,47,32
India,Bihar,Samastipur,"DM Office_Kasipur, Samastipur - BSPCB",20-09-2025 15:00:00,25.859655,85.77944,PM10,4,95,26
India,Chhattisgarh,Korba,"Urja Nagar, Korba - CECB",20-09-2025 15:00:00,22.348441,82.549611,OZONE,35,36,35
India,Chhattisgarh,Kunjemura,"OP Jindal School, Kunjemura - CECB",20-09-2025 15:00:00,22.126650,83.483212,PM2.5,22,48,32
India,Chhattisgarh,Kunjemura,"OP Jindal School, Kunjemura - CECB",20-09-2025 15:00:00,22.126650,83.483212,SO2,1,17,9
India,Chhattisgarh,Kunjemura,"OP Jindal School, Kunjemura - CECB",20-09-2025 15:00:00,22.126650,83.483212,CO,26,46,37
India,Chhattisgarh,Milupara,"Govt. Higher Secondary School, Milupara - CECB",20-09-2025 15:00:00,22.1910172,83.5197009,PM10,33,116,72
India,Chhattisgarh,Milupara,"Govt. Higher Secondary School, Milupara - CECB",20-09-2025 15:00:00,22.1910172,83.5197009,NH3,NA,NA,NA
India,Bihar,Patna,"DRM Office Danapur, Patna - BSPCB",20-09-2025 15:00:00,25.586562,85.043586,NH3,2,3,2
India,Bihar,Patna,"Govt. High School Shikarpur, Patna - BSPCB",20-09-2025 15:00:00,25.592539,85.227158,CO,22,60,45
India,Bihar,Patna,"IGSC Planetarium Complex, Patna - BSPCB",20-09-2025 15:00:00,25.610369,85.132568,CO,34,84,74
India,Bihar,Patna,"IGSC Planetarium Complex, Patna - BSPCB",20-09-2025 15:00:00,25.610369,85.132568,OZONE,46,47,46
India,Bihar,Patna,"Muradpur, Patna - BSPCB",20-09-2025 15:00:00,25.619651,85.147382,PM2.5,46,56,52
India,Bihar,Patna,"Muradpur, Patna - BSPCB",20-09-2025 15:00:00,25.619651,85.147382,OZONE,4,40,24
India,Chhattisgarh,Bilaspur,"Mangala, Bilaspur - NTPC",20-09-2025 15:00:00,22.08815,82.13737,SO2,15,22,17
India,Chhattisgarh,Chhal,"Nawapara SECL Colony, Chhal - CECB",20-09-2025 15:00:00,22.118125,83.140608,NO2,6,19,11
India,Chhattisgarh,Korba,"Rampur, Korba - CECB",20-09-2025 15:00:00,22.368195,82.746431,CO,8,24,19
India,Delhi,Delhi,"Aya Nagar, Delhi - IMD",20-09-2025 15:00:00,28.4706914,77.1099364,OZONE,11,95,54
India,Delhi,Delhi,"CRRI Mathura Road, Delhi - IMD",20-09-2025 15:00:00,28.5512005,77.2735737,PM10,99,231,149
India,Delhi,Delhi,"CRRI Mathura Road, Delhi - IMD",20-09-2025 15:00:00,28.5512005,77.2735737,CO,30,81,46
India,Chandigarh,Chandigarh,"Sector-53, Chandigarh - CPCC",20-09-2025 15:00:00,30.719859,76.738637,NH3,NA,NA,NA
India,Chhattisgarh,Bhilai,"32Bungalows, Bhilai - CECB",20-09-2025 15:00:00,21.194815,81.314770,NH3,3,4,3
India,Chhattisgarh,Korba,"Urja Nagar, Korba - CECB",20-09-2025 15:00:00,22.348441,82.549611,PM2.5,16,22,17
India,Delhi,Delhi,"Okhla Phase-2, Delhi - DPCC",20-09-2025 15:00:00,28.530785,77.271255,NO2,34,67,49
India,Delhi,Delhi,"Okhla Phase-2, Delhi - DPCC",20-09-2025 15:00:00,28.530785,77.271255,NH3,6,7,6
India,Delhi,Delhi,"Okhla Phase-2, Delhi - DPCC",20-09-2025 15:00:00,28.530785,77.271255,CO,6,46,30
India,Delhi,Delhi,"Patparganj, Delhi - DPCC",20-09-2025 15:00:00,28.623763,77.287209,NO2,13,72,37
India,Delhi,Delhi,"Patparganj, Delhi - DPCC",20-09-2025 15:00:00,28.623763,77.287209,OZONE,1,61,32
India,Delhi,Delhi,"Punjabi Bagh, Delhi - DPCC",20-09-2025 15:00:00,28.674045,77.131023,PM10,109,182,134
India,Delhi,Delhi,"Pusa, Delhi - DPCC",20-09-2025 15:00:00,28.639652,77.146275,PM2.5,38,85,60
India,Delhi,Delhi,"Pusa, Delhi - DPCC",20-09-2025 15:00:00,28.639652,77.146275,NO2,44,70,60
India,Delhi,Delhi,"Pusa, Delhi - DPCC",20-09-2025 15:00:00,28.639652,77.146275,NH3,6,13,8
India,Delhi,Delhi,"Pusa, Delhi - DPCC",20-09-2025 15:00:00,28.639652,77.146275,CO,41,78,51
India,Delhi,Delhi,"Pusa, Delhi - DPCC",20-09-2025 15:00:00,28.639652,77.146275,OZONE,2,18,9
India,Delhi,Delhi,"CRRI Mathura Road, Delhi - IMD",20-09-2025 15:00:00,28.5512005,77.2735737,OZONE,7,61,29
India,Delhi,Delhi,"Chandni Chowk, Delhi - IITM",20-09-2025 15:00:00,28.656756,77.227234,PM2.5,67,146,90
India,Delhi,Delhi,"Chandni Chowk, Delhi - IITM",20-09-2025 15:00:00,28.656756,77.227234,CO,58,78,63
India,Delhi,Delhi,"DTU, Delhi - CPCB",20-09-2025 15:00:00,28.7500499,77.1112615,NH3,8,12,10
India,Delhi,Delhi,"Dr. Karni Singh Shooting Range, Delhi - DPCC",20-09-2025 15:00:00,28.498571,77.264840,PM2.5,40,150,81
India,Delhi,Delhi,"Dr. Karni Singh Shooting Range, Delhi - DPCC",20-09-2025 15:00:00,28.498571,77.264840,CO,14,68,26
India,Delhi,Delhi,"Dwarka-Sector 8, Delhi - DPCC ",20-09-2025 15:00:00,28.5710274,77.0719006,NH3,8,11,9
India,Delhi,Delhi,"IGI Airport (T3), Delhi - IMD",20-09-2025 15:00:00,28.5627763,77.1180053,OZONE,1,2,1
India,Delhi,Delhi,"IHBAS, Dilshad Garden, Delhi - CPCB",20-09-2025 15:00:00,28.6811736,77.3025234,NH3,2,3,2
India,Delhi,Delhi,"IHBAS, Dilshad Garden, Delhi - CPCB",20-09-2025 15:00:00,28.6811736,77.3025234,CO,25,40,31
India,Delhi,Delhi,"ITO, Delhi - CPCB",20-09-2025 15:00:00,28.628624,77.241060,OZONE,39,44,41
India,Delhi,Delhi,"Jahangirpuri, Delhi - DPCC",20-09-2025 15:00:00,28.732820,77.170633,CO,39,81,50
India,Delhi,Delhi,"Jahangirpuri, Delhi - DPCC",20-09-2025 15:00:00,28.732820,77.170633,OZONE,26,47,35
India,Delhi,Delhi,"Pusa, Delhi - IMD",20-09-2025 15:00:00,28.636110,77.173332,OZONE,22,54,25
India,Delhi,Delhi,"R K Puram, Delhi - DPCC",20-09-2025 15:00:00,28.563262,77.186937,NO2,10,63,34
India,Delhi,Delhi,"R K Puram, Delhi - DPCC",20-09-2025 15:00:00,28.563262,77.186937,NH3,4,7,5
India,Delhi,Delhi,"Rohini, Delhi - DPCC",20-09-2025 15:00:00,28.732528,77.119920,CO,6,22,14
India,Delhi,Delhi,"Rohini, Delhi - DPCC",20-09-2025 15:00:00,28.732528,77.119920,OZONE,14,26,22
India,Delhi,Delhi,"Shadipur, Delhi - CPCB",20-09-2025 15:00:00,28.6514781,77.1473105,PM2.5,88,244,188
India,Delhi,Delhi,"Lodhi Road, Delhi - IITM",20-09-2025 15:00:00,28.588333,77.221667,NO2,25,83,49
India,Delhi,Delhi,"Major Dhyan Chand National Stadium, Delhi - DPCC",20-09-2025 15:00:00,28.611281,77.237738,PM2.5,8,147,69
India,Delhi,Delhi,"Major Dhyan Chand National Stadium, Delhi - DPCC",20-09-2025 15:00:00,28.611281,77.237738,CO,30,80,43
India,Delhi,Delhi,"Mandir Marg, Delhi - DPCC",20-09-2025 15:00:00,28.636429,77.201067,NH3,6,7,6
India,Delhi,Delhi,"Sonia Vihar, Delhi - DPCC",20-09-2025 15:00:00,28.710508,77.249485,PM10,89,156,114
India,Delhi,Delhi,"Sri Aurobindo Marg, Delhi - DPCC",20-09-2025 15:00:00,28.531346,77.190156,NO2,4,36,15
India,Delhi,Delhi,"Narela, Delhi - DPCC",20-09-2025 15:00:00,28.822836,77.101981,NH3,12,38,19
India,Delhi,Delhi,"Nehru Nagar, Delhi - DPCC",20-09-2025 15:00:00,28.567890,77.250515,OZONE,6,88,43
India,Delhi,Delhi,"NSIT Dwarka, Delhi - CPCB",20-09-2025 15:00:00,28.60909,77.0325413,PM10,74,113,93
India,Delhi,Delhi,"NSIT Dwarka, Delhi - CPCB",20-09-2025 15:00:00,28.60909,77.0325413,NH3,8,10,9
India,Delhi,Delhi,"Jawaharlal Nehru Stadium, Delhi - DPCC",20-09-2025 15:00:00,28.580280,77.233829,NO2,32,96,62
India,Gujarat,Vapi,"Phase-1 GIDC, Vapi - GPCB",20-09-2025 15:00:00,20.362421,72.918013,PM2.5,24,125,56
India,Gujarat,Vapi,"Phase-1 GIDC, Vapi - GPCB",20-09-2025 15:00:00,20.362421,72.918013,NH3,10,10,10
India,Gujarat,Vapi,"Phase-1 GIDC, Vapi - GPCB",20-09-2025 15:00:00,20.362421,72.918013,OZONE,2,2,2
India,Gujarat,Vatva,"Phase-4 GIDC, Vatva - GPCB",20-09-2025 15:00:00,22.969611,72.643500,PM2.5,22,71,34
India,Gujarat,Vatva,"Phase-4 GIDC, Vatva - GPCB",20-09-2025 15:00:00,22.969611,72.643500,NH3,1,4,3
India,Gujarat,Vatva,"Phase-4 GIDC, Vatva - GPCB",20-09-2025 15:00:00,22.969611,72.643500,OZONE,7,44,10
India,Haryana,Gurugram,"NISE Gwal Pahari, Gurugram - IMD",20-09-2025 15:00:00,28.422681,77.148944,PM2.5,48,151,88
India,Haryana,Gurugram,"NISE Gwal Pahari, Gurugram - IMD",20-09-2025 15:00:00,28.422681,77.148944,PM10,54,493,135
India,Haryana,Gurugram,"NISE Gwal Pahari, Gurugram - IMD",20-09-2025 15:00:00,28.422681,77.148944,OZONE,12,47,29
India,Haryana,Panchgaon,"Amity University, Panchgaon - IITM",20-09-2025 15:00:00,28.3153,76.9143,PM10,52,118,76
India,Himachal Pradesh,Baddi,"HIMUDA Complex Phase-1, Baddi - HPPCB",20-09-2025 15:00:00,30.943887,76.801991,NH3,5,9,7
India,Himachal Pradesh,Baddi,"HIMUDA Complex Phase-1, Baddi - HPPCB",20-09-2025 15:00:00,30.943887,76.801991,SO2,18,102,39
India,Karnataka,Bagalkot,"Vidayagiri, Bagalkot - KSPCB",20-09-2025 15:00:00,16.172806,75.659694,NO2,9,10,9
India,Karnataka,Bagalkot,"Vidayagiri, Bagalkot - KSPCB",20-09-2025 15:00:00,16.172806,75.659694,OZONE,12,16,16
India,Karnataka,Bengaluru,"BTM Layout, Bengaluru - CPCB",20-09-2025 15:00:00,12.9135218,77.5950804,CO,20,30,22
India,Karnataka,Bengaluru,"Bapuji Nagar, Bengaluru - KSPCB",20-09-2025 15:00:00,12.951913,77.539784,NH3,1,2,1
India,Karnataka,Bengaluru,"Bapuji Nagar, Bengaluru - KSPCB",20-09-2025 15:00:00,12.951913,77.539784,SO2,5,9,6
India,Gujarat,Ahmedabad,"Rakhial, Ahmedabad - IITM",20-09-2025 15:00:00,23.016834,72.625775,PM2.5,37,77,56
India,Gujarat,Ahmedabad,"Rakhial, Ahmedabad - IITM",20-09-2025 15:00:00,23.016834,72.625775,NO2,13,57,32
India,Gujarat,Ahmedabad,"SAC ISRO Bopal, Ahmedabad - IITM",20-09-2025 15:00:00,23.041137,72.456691,SO2,1,2,1
India,Gujarat,Ahmedabad,"SAC ISRO Satellite, Ahmedabad - IITM",20-09-2025 15:00:00,23.023389,72.515201,PM2.5,27,69,51
India,Gujarat,Ahmedabad,"SAC ISRO Satellite, Ahmedabad - IITM",20-09-2025 15:00:00,23.023389,72.515201,SO2,3,40,6
India,Gujarat,Ahmedabad,"SVPI Airport Hansol, Ahmedabad - IITM",20-09-2025 15:00:00,23.076793,72.627874,PM2.5,28,57,40
India,Gujarat,Ahmedabad,"SVPI Airport Hansol, Ahmedabad - IITM",20-09-2025 15:00:00,23.076793,72.627874,PM10,44,75,57
India,Karnataka,Davanagere,"Devaraj Urs Badavane, Davanagere - KSPCB",20-09-2025 15:00:00,14.475800,75.905200,NH3,2,3,2
India,Karnataka,Dharwad,"Kalabhavan, Dharwad - KSPCB",20-09-2025 15:00:00,15.459706,75.008381,OZONE,9,22,16
India,Karnataka,Hassan,"B.Katihalli, Hassan - KSPCB",20-09-2025 15:00:00,13.008556,76.125258,PM2.5,13,87,31
India,Karnataka,Hassan,"B.Katihalli, Hassan - KSPCB",20-09-2025 15:00:00,13.008556,76.125258,OZONE,1,1,1
India,Karnataka,Haveri,"Ashwini Nagar, Haveri - KSPCB",20-09-2025 15:00:00,14.791800,75.389600,PM2.5,NA,NA,NA
India,Karnataka,Haveri,"Ashwini Nagar, Haveri - KSPCB",20-09-2025 15:00:00,14.791800,75.389600,OZONE,NA,NA,NA
India,Karnataka,Bengaluru,"Hebbal, Bengaluru - KSPCB",20-09-2025 15:00:00,13.029152,77.585901,SO2,1,9,5
India,Karnataka,Bengaluru,"Hebbal, Bengaluru - KSPCB",20-09-2025 15:00:00,13.029152,77.585901,OZONE,5,8,7
India,Karnataka,Bengaluru,"Jayanagar 5th Block, Bengaluru - KSPCB",20-09-2025 15:00:00,12.920984,77.584908,NH3,1,1,1
India,Karnataka,Bengaluru,"Jayanagar 5th Block, Bengaluru - KSPCB",20-09-2025 15:00:00,12.920984,77.584908,SO2,1,23,7
India,Karnataka,Bengaluru,"Jayanagar 5th Block, Bengaluru - KSPCB",20-09-2025 15:00:00,12.920984,77.584908,OZONE,4,27,16
India,Karnataka,Bengaluru,"Kasturi Nagar, Bengaluru - KSPCB",20-09-2025 15:00:00,13.003872,77.664217,NH3,NA,NA,NA
India,Karnataka,Bengaluru,"Kasturi Nagar, Bengaluru - KSPCB",20-09-2025 15:00:00,13.003872,77.664217,SO2,NA,NA,NA
India,Karnataka,Bengaluru,"Shivapura_Peenya, Bengaluru - KSPCB",20-09-2025 15:00:00,13.0246342,77.5080115,NO2,24,25,24
India,Karnataka,Bengaluru,"Shivapura_Peenya, Bengaluru - KSPCB",20-09-2025 15:00:00,13.0246342,77.5080115,OZONE,24,25,24
India,Karnataka,Bengaluru,"Silk Board, Bengaluru - KSPCB",20-09-2025 15:00:00,12.917348,77.622813,SO2,10,12,11
India,Karnataka,Chamarajanagar,"Urban, Chamarajanagar - KSPCB",20-09-2025 15:00:00,11.55358,76.55521,NH3,2,3,2
India,Gujarat,Ahmedabad,"Chandkheda, Ahmedabad - IITM",20-09-2025 15:00:00,23.107969,72.574648,NO2,8,54,22
India,Gujarat,Ahmedabad,"Chandkheda, Ahmedabad - IITM",20-09-2025 15:00:00,23.107969,72.574648,OZONE,2,40,18
India,Gujarat,Ahmedabad,"Gyaspur, Ahmedabad - IITM",20-09-2025 15:00:00,22.977134,72.553024,PM2.5,25,84,52
India,Gujarat,Ahmedabad,"Gyaspur, Ahmedabad - IITM",20-09-2025 15:00:00,22.977134,72.553024,PM10,31,147,89
India,Gujarat,Ahmedabad,"Gyaspur, Ahmedabad - IITM",20-09-2025 15:00:00,22.977134,72.553024,NO2,NA,NA,NA
India,Karnataka,Hubballi,"Lingaraj Nagar, Hubballi - KSPCB",20-09-2025 15:00:00,15.3714823,75.1160168,PM10,44,50,48
India,Karnataka,Hubballi,"Lingaraj Nagar, Hubballi - KSPCB",20-09-2025 15:00:00,15.3714823,75.1160168,OZONE,11,19,16
India,Karnataka,Karwar,"KHB Colony, Karwar - KSPCB",20-09-2025 15:00:00,14.816666,74.141003,PM2.5,2,12,5
India,Gujarat,Ankleshwar,"GIDC, Ankleshwar - GPCB",20-09-2025 15:00:00,21.613267,73.010555,SO2,NA,NA,NA
India,Gujarat,Nandesari,"GIDC, Nandesari - Nandesari Ind. Association",20-09-2025 15:00:00,22.410802,73.097923,PM10,NA,NA,NA
India,Madhya Pradesh,Bhopal,"T T Nagar, Bhopal - MPPCB",20-09-2025 15:00:00,23.233584,77.400574,SO2,8,12,9
India,Madhya Pradesh,Bhopal,"T T Nagar, Bhopal - MPPCB",20-09-2025 15:00:00,23.233584,77.400574,CO,27,104,36
India,Madhya Pradesh,Bhopal,"T T Nagar, Bhopal - MPPCB",20-09-2025 15:00:00,23.233584,77.400574,OZONE,17,57,45
India,Madhya Pradesh,Damoh,"Shrivastav Colony, Damoh - MPPCB",20-09-2025 15:00:00,23.81748678,79.446246,PM2.5,12,68,35
India,Madhya Pradesh,Dewas,"Bhopal Chauraha, Dewas - MPPCB",20-09-2025 15:00:00,22.9682591,76.064118,NH3,NA,NA,NA
India,Madhya Pradesh,Dewas,"Bhopal Chauraha, Dewas - MPPCB",20-09-2025 15:00:00,22.9682591,76.064118,CO,7,103,43
India,Madhya Pradesh,Gwalior,"City Center, Gwalior - MPPCB",20-09-2025 15:00:00,26.203442,78.193251,PM10,24,72,46
India,Madhya Pradesh,Gwalior,"Deen Dayal Nagar, Gwalior - MPPCB",20-09-2025 15:00:00,26.259242,78.216432,PM2.5,8,137,72
India,Karnataka,Mysuru,"Hebbal 1st Stage, Mysuru - KSPCB",20-09-2025 15:00:00,12.21041,76.37376,PM2.5,15,36,23
India,Karnataka,Mysuru,"Hebbal 1st Stage, Mysuru - KSPCB",20-09-2025 15:00:00,12.21041,76.37376,SO2,2,14,6
India,Karnataka,Ramanagara,"Vijay Nagar, Ramanagara - KSPCB",20-09-2025 15:00:00,12.733409,77.298051,PM2.5,NA,NA,NA
India,Karnataka,Ramanagara,"Vijay Nagar, Ramanagara - KSPCB",20-09-2025 15:00:00,12.733409,77.298051,NH3,NA,NA,NA
India,Karnataka,Shivamogga,"Vinoba Nagara, Shivamogga - KSPCB",20-09-2025 15:00:00,13.940000,75.555917,SO2,2,5,4
India,Karnataka,Vijayapura,"Ibrahimpur, Vijayapura - KSPCB",20-09-2025 15:00:00,16.802639,75.722694,NH3,1,2,1
India,Karnataka,Vijayapura,"Ibrahimpur, Vijayapura - KSPCB",20-09-2025 15:00:00,16.802639,75.722694,OZONE,14,17,16
India,Karnataka,Yadgir,"Collector Office, Yadgir - KSPCB",20-09-2025 15:00:00,16.7602,77.1428,PM10,8,79,35
India,Madhya Pradesh,Jabalpur,"Suhagi, Jabalpur - JMC",20-09-2025 15:00:00,23.218135,79.957770,NO2,25,54,34
India,Madhya Pradesh,Mandideep,"Sector-D Industrial Area, Mandideep - MPPCB",20-09-2025 15:00:00,23.108440,77.511428,PM10,12,229,63
India,Madhya Pradesh,Mandideep,"Sector-D Industrial Area, Mandideep - MPPCB",20-09-2025 15:00:00,23.108440,77.511428,NO2,13,52,30
India,Madhya Pradesh,Mandideep,"Sector-D Industrial Area, Mandideep - MPPCB",20-09-2025 15:00:00,23.108440,77.511428,NH3,2,4,3
India,Madhya Pradesh,Mandideep,"Sector-D Industrial Area, Mandideep - MPPCB",20-09-2025 15:00:00,23.108440,77.511428,SO2,10,33,17
India,Madhya Pradesh,Mandideep,"Sector-D Industrial Area, Mandideep - MPPCB",20-09-2025 15:00:00,23.108440,77.511428,CO,18,67,47
India,Madhya Pradesh,Ratlam,"Shasthri Nagar, Ratlam - IPCA Lab",20-09-2025 15:00:00,23.331731,75.045981,NO2,34,36,35
India,Madhya Pradesh,Sagar,"Civil Lines, Sagar - MPPCB",20-09-2025 15:00:00,23.838586,78.759431,PM2.5,26,93,56
India,Madhya Pradesh,Gwalior,"Deen Dayal Nagar, Gwalior - MPPCB",20-09-2025 15:00:00,26.259242,78.216432,SO2,5,13,7
India,Madhya Pradesh,Gwalior,"Maharaj Bada, Gwalior - MPPCB",20-09-2025 15:00:00,26.200388,78.147714,NH3,3,3,3
India,Madhya Pradesh,Indore,"Airport Area, Indore - IMC",20-09-2025 15:00:00,22.7289,75.8076,PM2.5,4,35,18
India,Madhya Pradesh,Indore,"Chhoti Gwaltoli, Indore - MPPCB",20-09-2025 15:00:00,22.4310,75.5213,NO2,54,83,67
India,Madhya Pradesh,Indore,"Chhoti Gwaltoli, Indore - MPPCB",20-09-2025 15:00:00,22.4310,75.5213,CO,10,76,26
India,Madhya Pradesh,Indore,"Maguda Nagar, Indore - IMC",20-09-2025 15:00:00,22.7524,75.8872,NO2,1,2,2
India,Madhya Pradesh,Indore,"Maguda Nagar, Indore - IMC",20-09-2025 15:00:00,22.7524,75.8872,SO2,37,41,39
India,Madhya Pradesh,Indore,"Maguda Nagar, Indore - IMC",20-09-2025 15:00:00,22.7524,75.8872,CO,16,26,20
India,Kerala,Thiruvananthapuram,"Plammoodu, Thiruvananthapuram - Kerala PCB",20-09-2025 15:00:00,8.5149093,76.9435879,PM10,1,83,35
India,Kerala,Thiruvananthapuram,"Plammoodu, Thiruvananthapuram - Kerala PCB",20-09-2025 15:00:00,8.5149093,76.9435879,NO2,52,117,78
India,Kerala,Thiruvananthapuram,"Plammoodu, Thiruvananthapuram - Kerala PCB",20-09-2025 15:00:00,8.5149093,76.9435879,CO,8,68,16
India,Madhya Pradesh,Bhopal,"Idgah Hills, Bhopal - MPPCB",20-09-2025 15:00:00,23.264759,77.381568,NH3,3,6,4
India,Madhya Pradesh,Bhopal,"Idgah Hills, Bhopal - MPPCB",20-09-2025 15:00:00,23.264759,77.381568,CO,12,48,17
India,Madhya Pradesh,Bhopal,"Paryavaran Parisar, Bhopal - MPPCB",20-09-2025 15:00:00,23.210494,77.425409,NH3,2,4,3
India,Madhya Pradesh,Jabalpur,"Govindh Bhavan Colony, Jabalpur - JMC",20-09-2025 15:00:00,23.163174,79.973061,PM2.5,23,60,39
India,Madhya Pradesh,Jabalpur,"Gupteshwar, Jabalpur - JMC",20-09-2025 15:00:00,23.142888,79.916147,SO2,3,25,13
India,Madhya Pradesh,Jabalpur,"Marhatal, Jabalpur - MPPCB",20-09-2025 15:00:00,23.168606,79.932247,NO2,22,58,33
India,Madhya Pradesh,Jabalpur,"Marhatal, Jabalpur - MPPCB",20-09-2025 15:00:00,23.168606,79.932247,CO,6,66,47
India,Kerala,Thiruvananthapuram,"Kariavattom, Thiruvananthapuram - Kerala PCB",20-09-2025 15:00:00,8.563700,76.886500,NO2,6,7,6
India,Kerala,Thiruvananthapuram,"Kariavattom, Thiruvananthapuram - Kerala PCB",20-09-2025 15:00:00,8.563700,76.886500,OZONE,36,37,36
India,Kerala,Kannur,"Thavakkara, Kannur - Kerala PCB",20-09-2025 15:00:00,11.875000,75.373200,PM2.5,55,61,59
India,Karnataka,Mangalore,"Kadri, Mangalore - KSPCB",20-09-2025 15:00:00,12.889250,74.853000,NO2,2,10,6
India,Maharashtra,Mumbai,"Borivali East, Mumbai - MPCB",20-09-2025 15:00:00,19.2243333,72.8658113,PM2.5,16,34,23
India,Maharashtra,Mumbai,"Borivali East, Mumbai - MPCB",20-09-2025 15:00:00,19.2243333,72.8658113,NH3,1,1,1
India,Maharashtra,Mumbai,"Borivali East, Mumbai - MPCB",20-09-2025 15:00:00,19.2243333,72.8658113,SO2,3,4,4
India,Maharashtra,Mumbai,"Byculla, Mumbai - BMC",20-09-2025 15:00:00,18.9767,72.8380,PM2.5,12,33,20
India,Maharashtra,Mumbai,"Byculla, Mumbai - BMC",20-09-2025 15:00:00,18.9767,72.8380,CO,2,18,8
India,Maharashtra,Mumbai,"Chakala-Andheri East, Mumbai - IITM",20-09-2025 15:00:00,19.11074,72.86084,PM10,22,52,36
India,Maharashtra,Mumbai,"Chakala-Andheri East, Mumbai - IITM",20-09-2025 15:00:00,19.11074,72.86084,SO2,1,31,12
India,Maharashtra,Mumbai,"Chembur, Mumbai - MPCB",20-09-2025 15:00:00,19.0364585,72.8954371,NO2,15,54,22
India,Maharashtra,Mumbai,"Chembur, Mumbai - MPCB",20-09-2025 15:00:00,19.0364585,72.8954371,SO2,1,3,2
India,Maharashtra,Mumbai,"Chembur, Mumbai - MPCB",20-09-2025 15:00:00,19.0364585,72.8954371,OZONE,2,42,11
India,Maharashtra,Mumbai,"Colaba, Mumbai - MPCB",20-09-2025 15:00:00,18.910000,72.820000,PM10,24,53,39
India,Maharashtra,Mumbai,"Colaba, Mumbai - MPCB",20-09-2025 15:00:00,18.910000,72.820000,NO2,23,24,23
India,Madhya Pradesh,Sagar,"Civil Lines, Sagar - MPPCB",20-09-2025 15:00:00,23.838586,78.759431,PM10,60,86,70
India,Madhya Pradesh,Sagar,"Civil Lines, Sagar - MPPCB",20-09-2025 15:00:00,23.838586,78.759431,SO2,11,21,16
India,Madhya Pradesh,Satna,"Bandhavgar Colony, Satna - Birla Cement",20-09-2025 15:00:00,24.58434363,80.8549414,CO,19,34,25
India,Madhya Pradesh,Satna,"Bandhavgar Colony, Satna - Birla Cement",20-09-2025 15:00:00,24.58434363,80.8549414,OZONE,7,11,9
India,Madhya Pradesh,Singrauli,"Suryakiran Bhawan NCL, Singrauli - MPPCB",20-09-2025 15:00:00,24.108970,82.645580,SO2,17,46,30
India,Madhya Pradesh,Singrauli,"Suryakiran Bhawan NCL, Singrauli - MPPCB",20-09-2025 15:00:00,24.108970,82.645580,OZONE,11,47,32
India,Maharashtra,Akola,"Ramdaspeth, Akola - MPCB",20-09-2025 15:00:00,20.719516,77.000253,PM2.5,21,45,32
India,Maharashtra,Akola,"Ramdaspeth, Akola - MPCB",20-09-2025 15:00:00,20.719516,77.000253,PM10,28,71,48
India,Maharashtra,Akola,"Ramdaspeth, Akola - MPCB",20-09-2025 15:00:00,20.719516,77.000253,NO2,12,30,19
