country,state,city,station,last_update,latitude,longitude,pollutant_id,min_value,max_value,avg_value
India,Andhra_Pradesh,Vijayawada,"HB Colony, Vijayawada - APPCB",19-03-2026 08:00:00,16.536107,80.594233,CO,20,42,20
India,Andhra_Pradesh,Vijayawada,"Kanuru, Vijayawada - APPCB",19-03-2026 08:00:00,16.486692,80.699436,PM10,40,230,57
India,Andhra_Pradesh,Vijayawada,"Kanuru, Vijayawada - APPCB",19-03-2026 08:00:00,16.486692,80.699436,NO2,8,28,19
India,Andhra_Pradesh,Vijayawada,"Kanuru, Vijayawada - APPCB",19-03-2026 08:00:00,16.486692,80.699436,OZONE,10,73,48
India,Andhra_Pradesh,Vijayawada,"Rajiv Nagar, Vijayawada - APPCB",19-03-2026 08:00:00,16.554731,80.649110,OZONE,13,35,14
India,Andhra_Pradesh,Visakhapatnam,"GVM Corporation, Visakhapatnam - APPCB",19-03-2026 08:00:00,17.72,83.3,PM2.5,2,48,24
India,Andhra_Pradesh,Visakhapatnam,"GVM Corporation, Visakhapatnam - APPCB",19-03-2026 08:00:00,17.72,83.3,OZONE,4,20,5
India,Arunachal_Pradesh,Naharlagun,"Naharlagun, Naharlagun - APSPCB",19-03-2026 08:00:00,27.103358,93.679645,CO,8,22,11
India,Assam,Byrnihat,"Central Academy for SFS, Byrnihat - PCBA",19-03-2026 08:00:00,26.071318,91.87488,PM10,44,182,95
India,Assam,Nalbari,"Bata Chowk, Nalbari - PCBA",19-03-2026 08:00:00,26.446912,91.439057,NO2,13,15,14
India,Assam,Nalbari,"Bata Chowk, Nalbari - PCBA",19-03-2026 08:00:00,26.446912,91.439057,OZONE,8,17,13
India,Assam,Silchar,"Tarapur, Silchar - PCBA",19-03-2026 08:00:00,24.82827,92.79525,PM2.5,18,83,43
India,Assam,Silchar,"Tarapur, Silchar - PCBA",19-03-2026 08:00:00,24.82827,92.79525,NH3,1,1,1
India,Assam,Sivasagar,"Girls College, Sivasagar - PCBA",19-03-2026 08:00:00,26.987634,94.636574,PM2.5,16,24,20
India,Assam,Sivasagar,"Girls College, Sivasagar - PCBA",19-03-2026 08:00:00,26.987634,94.636574,NO2,22,41,31
India,Bihar,Araria,"Kharahiya Basti, Araria - BSPCB",19-03-2026 08:00:00,26.146529,87.454184,NH3,4,4,4
India,Bihar,Araria,"Kharahiya Basti, Araria - BSPCB",19-03-2026 08:00:00,26.146529,87.454184,OZONE,9,11,10
India,Bihar,Aurangabad,"Gurdeo Nagar, Aurangabad - BSPCB",19-03-2026 08:00:00,24.75746,84.366208,PM2.5,3,40,16
India,Bihar,Aurangabad,"Gurdeo Nagar, Aurangabad - BSPCB",19-03-2026 08:00:00,24.75746,84.366208,NO2,7,8,8
India,Andhra_Pradesh,Nellore,"Ambedkar Nagar, Nellore - APPCB ",19-03-2026 08:00:00,14.438164 ,79.966814 ,PM2.5,NA,NA,NA
India,Andhra_Pradesh,Nellore,"Ambedkar Nagar, Nellore - APPCB ",19-03-2026 08:00:00,14.438164 ,79.966814 ,PM10,NA,NA,NA
India,Andhra_Pradesh,Nellore,"Ambedkar Nagar, Nellore - APPCB ",19-03-2026 08:00:00,14.438164 ,79.966814 ,OZONE,4,20,12
India,Andhra_Pradesh,Rajamahendravaram,"Anand Kala Kshetram, Rajamahendravaram - APPCB",19-03-2026 08:00:00,16.9872867,81.7363176,SO2,4,14,8
India,Andhra_Pradesh,Tirumala,"Toll Gate, Tirumala - APPCB",19-03-2026 08:00:00,13.67,79.35,NO2,52,100,72
India,Andhra_Pradesh,Tirumala,"Toll Gate, Tirumala - APPCB",19-03-2026 08:00:00,13.67,79.35,SO2,1,10,5
India,Andhra_Pradesh,Tirupati,"Vaikuntapuram, Tirupati - APPCB",19-03-2026 08:00:00,13.615387,79.409230,NO2,27,36,31
India,Andhra_Pradesh,Vijayawada,"HB Colony, Vijayawada - APPCB",19-03-2026 08:00:00,16.536107,80.594233,SO2,12,23,14
India,Bihar,Buxar,"Charitra Van, Buxar - BSPCB",19-03-2026 08:00:00,25.567520,83.966379,CO,21,28,23
India,Bihar,Chhapra,"Darshan Nagar, Chhapra - BSPCB",19-03-2026 08:00:00,25.7808257,84.7446768,PM2.5,38,207,89
India,Bihar,Chhapra,"Darshan Nagar, Chhapra - BSPCB",19-03-2026 08:00:00,25.7808257,84.7446768,OZONE,4,30,5
India,Bihar,Gaya,"Kareemganj, Gaya - BSPCB",19-03-2026 08:00:00,24.792403,84.992416,PM2.5,55,183,100
India,Bihar,Gaya,"Kareemganj, Gaya - BSPCB",19-03-2026 08:00:00,24.792403,84.992416,PM10,129,288,189
India,Bihar,Gaya,"Kareemganj, Gaya - BSPCB",19-03-2026 08:00:00,24.792403,84.992416,NH3,1,2,1
India,Bihar,Gaya,"SFTI Kusdihra, Gaya - BSPCB",19-03-2026 08:00:00,24.762518,84.982348,OZONE,10,74,15
India,Bihar,Katihar,"Mirchaibari, Katihar - BSPCB",19-03-2026 08:00:00,25.560083,87.553265,SO2,12,20,17
India,Bihar,Muzaffarpur,"Muzaffarpur Collectorate, Muzaffarpur - BSPCB",19-03-2026 08:00:00,26.1209,85.3647,NO2,8,24,15
India,Bihar,Muzaffarpur,"Muzaffarpur Collectorate, Muzaffarpur - BSPCB",19-03-2026 08:00:00,26.1209,85.3647,SO2,4,67,11
India,Bihar,Patna,"DRM Office Danapur, Patna - BSPCB",19-03-2026 08:00:00,25.586562,85.043586,NH3,10,12,11
India,Bihar,Patna,"DRM Office Danapur, Patna - BSPCB",19-03-2026 08:00:00,25.586562,85.043586,SO2,5,8,7
India,Bihar,Patna,"Govt. High School Shikarpur, Patna - BSPCB",19-03-2026 08:00:00,25.592539,85.227158,CO,3,88,15
India,Bihar,Patna,"Muradpur, Patna - BSPCB",19-03-2026 08:00:00,25.619651,85.147382,PM2.5,55,91,69
India,Bihar,Patna,"Muradpur, Patna - BSPCB",19-03-2026 08:00:00,25.619651,85.147382,SO2,7,9,8
India,Bihar,Patna,"Rajbansi Nagar, Patna - BSPCB",19-03-2026 08:00:00,25.599486,85.113666,PM2.5,92,139,116
India,Bihar,Kishanganj,"SDM Office_Khagra, Kishanganj - BSPCB",19-03-2026 08:00:00,26.0881305,87.93840336,PM10,33,208,72
India,Bihar,Manguraha,"Forest Rest House, Manguraha - BSPCB",19-03-2026 08:00:00,27.308328,84.531742,NH3,NA,NA,NA
India,Bihar,Motihari,"Gandak Colony, Motihari - BSPCB",19-03-2026 08:00:00,26.63086,84.90051,SO2,2,3,2
India,Bihar,Motihari,"Gandak Colony, Motihari - BSPCB",19-03-2026 08:00:00,26.63086,84.90051,CO,18,48,21
India,Bihar,Munger,"Town Hall, Munger - BSPCB",19-03-2026 08:00:00,25.376776,86.471523,NO2,4,5,5
India,Bihar,Munger,"Town Hall, Munger - BSPCB",19-03-2026 08:00:00,25.376776,86.471523,OZONE,8,15,10
India,Bihar,Muzaffarpur,"Buddha Colony, Muzaffarpur - BSPCB",19-03-2026 08:00:00,26.11442,85.39813,CO,19,108,38
India,Andhra_Pradesh,Eluru,"District Court, Eluru - APPCB",19-03-2026 08:00:00,16.711754,81.092095,NO2,10,59,29
India,Andhra_Pradesh,Eluru,"District Court, Eluru - APPCB",19-03-2026 08:00:00,16.711754,81.092095,NH3,1,3,2
India,Andhra_Pradesh,Guntur,"Rajendra Nagar North, Guntur - APPCB",19-03-2026 08:00:00,16.316553,80.413302,NH3,4,6,5
India,Andhra_Pradesh,Guntur,"Rajendra Nagar North, Guntur - APPCB",19-03-2026 08:00:00,16.316553,80.413302,SO2,9,24,13
India,Andhra_Pradesh,Guntur,"Rajendra Nagar North, Guntur - APPCB",19-03-2026 08:00:00,16.316553,80.413302,OZONE,20,45,20
India,Andhra_Pradesh,Kadapa,"Yerramukkapalli, Kadapa - APPCB",19-03-2026 08:00:00,14.465052,78.824187,NH3,3,5,4
India,Andhra_Pradesh,Kadapa,"Yerramukkapalli, Kadapa - APPCB",19-03-2026 08:00:00,14.465052,78.824187,OZONE,21,27,22
India,Andhra_Pradesh,Machilipatnam,"Srinivas Nagar Colony, Machilipatnam - APPCB",19-03-2026 08:00:00,16.186555,81.13219,NO2,7,16,12
India,Assam,Guwahati,"IITG, Guwahati - PCBA",19-03-2026 08:00:00,26.2028636,91.70046436,CO,5,10,6
India,Assam,Guwahati,"Railway Colony, Guwahati - PCBA",19-03-2026 08:00:00,26.181742,91.78063,NH3,1,1,1
India,Assam,Nagaon,"Christianpatty, Nagaon - PCBA",19-03-2026 08:00:00,26.349082,92.68449,PM2.5,36,112,58
India,Assam,Nagaon,"Christianpatty, Nagaon - PCBA",19-03-2026 08:00:00,26.349082,92.68449,CO,10,23,22
India,Assam,Nalbari,"Bata Chowk, Nalbari - PCBA",19-03-2026 08:00:00,26.446912,91.439057,PM10,NA,NA,NA
India,Andhra_Pradesh,Amaravati,"Secretariat, Amaravati - APPCB",19-03-2026 08:00:00,16.5150833,80.5181667,PM2.5,NA,NA,NA
India,Andhra_Pradesh,Amaravati,"Secretariat, Amaravati - APPCB",19-03-2026 08:00:00,16.5150833,80.5181667,CO,NA,NA,NA
India,Andhra_Pradesh,Amaravati,"Secretariat, Amaravati - APPCB",19-03-2026 08:00:00,16.5150833,80.5181667,OZONE,NA,NA,NA
India,Andhra_Pradesh,Anantapur,"Gulzarpet, Anantapur - APPCB",19-03-2026 08:00:00,14.675886,77.593027,OZONE,25,43,40
India,Andhra_Pradesh,Eluru,"District Court, Eluru - APPCB",19-03-2026 08:00:00,16.711754,81.092095,PM10,34,80,47
India,Bihar,Begusarai,"Lohiyanagar, Begusarai - BSPCB",19-03-2026 08:00:00,25.42742023,86.13886079,CO,25,31,28
India,Bihar,Begusarai,"Lohiyanagar, Begusarai - BSPCB",19-03-2026 08:00:00,25.42742023,86.13886079,OZONE,34,58,43
India,Bihar,Bhagalpur,"Mayaganj, Bhagalpur - BSPCB",19-03-2026 08:00:00,25.265194,87.012947,CO,78,95,87
India,Bihar,Bhagalpur,"Mayaganj, Bhagalpur - BSPCB",19-03-2026 08:00:00,25.265194,87.012947,OZONE,6,34,10
India,Chhattisgarh,Korba,"Urja Nagar, Korba - CECB",19-03-2026 08:00:00,22.348441,82.549611,NH3,1,1,1
India,Chhattisgarh,Korba,"Urja Nagar, Korba - CECB",19-03-2026 08:00:00,22.348441,82.549611,CO,14,52,43
India,Chhattisgarh,Kunjemura,"OP Jindal School, Kunjemura - CECB",19-03-2026 08:00:00,22.126650,83.483212,SO2,3,45,16
India,Chhattisgarh,Kunjemura,"OP Jindal School, Kunjemura - CECB",19-03-2026 08:00:00,22.126650,83.483212,OZONE,NA,NA,NA
India,Chhattisgarh,Milupara,"Govt. Higher Secondary School, Milupara - CECB",19-03-2026 08:00:00,22.1910172,83.5197009,SO2,14,28,17
India,Chhattisgarh,Milupara,"Govt. Higher Secondary School, Milupara - CECB",19-03-2026 08:00:00,22.1910172,83.5197009,CO,10,88,22
India,Chhattisgarh,Raipur,"Bhatagaon New ISBT, Raipur - CECB",19-03-2026 08:00:00,21.219665,81.630094,PM10,11,39,25
India,Chhattisgarh,Raipur,"Bhatagaon New ISBT, Raipur - CECB",19-03-2026 08:00:00,21.219665,81.630094,NO2,37,50,42
India,Chhattisgarh,Raipur,"Bhatagaon New ISBT, Raipur - CECB",19-03-2026 08:00:00,21.219665,81.630094,NH3,2,2,2
India,Chhattisgarh,Raipur,"Bhatagaon New ISBT, Raipur - CECB",19-03-2026 08:00:00,21.219665,81.630094,OZONE,2,5,2
India,Chhattisgarh,Raipur,"Krishak Nagar, Raipur - CECB",19-03-2026 08:00:00,21.237755,81.705301,PM2.5,10,34,21
India,Chhattisgarh,Raipur,"Krishak Nagar, Raipur - CECB",19-03-2026 08:00:00,21.237755,81.705301,PM10,10,37,24
India,Bihar,Sasaram,"Dada Peer, Sasaram - BSPCB",19-03-2026 08:00:00,24.952822,84.002396,NO2,2,9,4
India,Bihar,Sasaram,"Dada Peer, Sasaram - BSPCB",19-03-2026 08:00:00,24.952822,84.002396,CO,28,105,76
India,Bihar,Sasaram,"Dada Peer, Sasaram - BSPCB",19-03-2026 08:00:00,24.952822,84.002396,OZONE,12,44,22
India,Bihar,Siwan,"Chitragupta Nagar, Siwan - BSPCB",19-03-2026 08:00:00,26.2271665,84.3570427,PM2.5,55,147,82
India,Bihar,Siwan,"Chitragupta Nagar, Siwan - BSPCB",19-03-2026 08:00:00,26.2271665,84.3570427,NO2,2,2,2
India,Bihar,Siwan,"Chitragupta Nagar, Siwan - BSPCB",19-03-2026 08:00:00,26.2271665,84.3570427,NH3,1,1,1
India,Bihar,Siwan,"Chitragupta Nagar, Siwan - BSPCB",19-03-2026 08:00:00,26.2271665,84.3570427,SO2,7,7,7
India,Chandigarh,Chandigarh,"Sector 22, Chandigarh - CPCC",19-03-2026 08:00:00,30.735567,76.775714,NO2,8,24,15
India,Chandigarh,Chandigarh,"Sector 22, Chandigarh - CPCC",19-03-2026 08:00:00,30.735567,76.775714,CO,56,90,72
India,Chandigarh,Chandigarh,"Sector-25, Chandigarh - CPCC",19-03-2026 08:00:00,30.751462,76.762879,NH3,NA,NA,NA
India,Chandigarh,Chandigarh,"Sector-25, Chandigarh - CPCC",19-03-2026 08:00:00,30.751462,76.762879,CO,NA,NA,NA
India,Chandigarh,Chandigarh,"Sector-53, Chandigarh - CPCC",19-03-2026 08:00:00,30.719859,76.738637,NH3,14,17,16
India,Delhi,Delhi,"Bawana, Delhi - DPCC",19-03-2026 08:00:00,28.776200,77.051074,OZONE,6,175,20
India,Delhi,Delhi,"Burari Crossing, Delhi - IMD",19-03-2026 08:00:00,28.7256504,77.2011573,PM10,44,423,132
India,Delhi,Delhi,"Burari Crossing, Delhi - IMD",19-03-2026 08:00:00,28.7256504,77.2011573,CO,16,60,36
India,Delhi,Delhi,"CRRI Mathura Road, Delhi - IMD",19-03-2026 08:00:00,28.5512005,77.2735737,PM10,53,209,136
India,Delhi,Delhi,"Cantonment Area, Delhi - DPCC ",19-03-2026 08:00:00,28.594169 ,77.125100 ,NO2,38,113,66
India,Delhi,Delhi,"Cantonment Area, Delhi - DPCC ",19-03-2026 08:00:00,28.594169 ,77.125100 ,NH3,3,5,4
India,Delhi,Delhi,"Chandni Chowk, Delhi - IITM",19-03-2026 08:00:00,28.656756,77.227234,NH3,8,15,10
India,Delhi,Delhi,"Chandni Chowk, Delhi - IITM",19-03-2026 08:00:00,28.656756,77.227234,OZONE,3,190,12
India,Delhi,Delhi,"Commonwealth Sports Complex, Delhi - DPCC",19-03-2026 08:00:00,28.615828 ,77.271992 ,PM10,73,368,157
India,Delhi,Delhi,"Major Dhyan Chand National Stadium, Delhi - DPCC",19-03-2026 08:00:00,28.611281,77.237738,NO2,44,116,80
India,Delhi,Delhi,"Mandir Marg, Delhi - DPCC",19-03-2026 08:00:00,28.636429,77.201067,NO2,29,83,57
India,Delhi,Delhi,"Mundka, Delhi - DPCC",19-03-2026 08:00:00,28.684678,77.076574,NO2,89,158,108
India,Delhi,Delhi,"NSIT Dwarka, Delhi - CPCB",19-03-2026 08:00:00,28.60909,77.0325413,NO2,90,156,115
India,Delhi,Delhi,"NSIT Dwarka, Delhi - CPCB",19-03-2026 08:00:00,28.60909,77.0325413,OZONE,14,66,45
India,Delhi,Delhi,"NSUT Jaffarpur, Delhi - DPCC",19-03-2026 08:00:00,28.594004 ,76.909423 ,SO2,75,91,82
India,Delhi,Delhi,"NSUT Jaffarpur, Delhi - DPCC",19-03-2026 08:00:00,28.594004 ,76.909423 ,CO,115,126,120
India,Delhi,Delhi,"Najafgarh, Delhi - DPCC",19-03-2026 08:00:00,28.570173,76.933762,CO,NA,NA,NA
India,Delhi,Delhi,"DTU, Delhi - CPCB",19-03-2026 08:00:00,28.7500499,77.1112615,CO,16,34,18
India,Delhi,Delhi,"Dr. Karni Singh Shooting Range, Delhi - DPCC",19-03-2026 08:00:00,28.498571,77.264840,NO2,11,60,37
India,Delhi,Delhi,"IGI Airport (T3), Delhi - IMD",19-03-2026 08:00:00,28.5627763,77.1180053,PM2.5,15,317,129
India,Delhi,Delhi,"IGI Airport (T3), Delhi - IMD",19-03-2026 08:00:00,28.5627763,77.1180053,NO2,17,42,30
India,Delhi,Delhi,"IGNOU_Maidan Garhi, Delhi - DPCC",19-03-2026 08:00:00,28.493624 ,77.201159 ,CO,101,120,114
India,Delhi,Delhi,"IHBAS, Dilshad Garden, Delhi - CPCB",19-03-2026 08:00:00,28.6811736,77.3025234,PM2.5,30,343,190
India,Delhi,Delhi,"IHBAS, Dilshad Garden, Delhi - CPCB",19-03-2026 08:00:00,28.6811736,77.3025234,PM10,62,241,136
India,Delhi,Delhi,"IHBAS, Dilshad Garden, Delhi - CPCB",19-03-2026 08:00:00,28.6811736,77.3025234,NH3,1,14,10
India,Chhattisgarh,Bhilai,"Civic Center, Bhilai - Bhilai Steel Plant",19-03-2026 08:00:00,21.185571,81.343175,PM10,9,26,19
India,Chhattisgarh,Bhilai,"Civic Center, Bhilai - Bhilai Steel Plant",19-03-2026 08:00:00,21.185571,81.343175,SO2,7,10,8
India,Chhattisgarh,Bhilai,"Civic Center, Bhilai - Bhilai Steel Plant",19-03-2026 08:00:00,21.185571,81.343175,OZONE,8,12,10
India,Chhattisgarh,Bilaspur,"Mangala, Bilaspur - NTPC",19-03-2026 08:00:00,22.08815,82.13737,CO,12,78,29
India,Chhattisgarh,Chhal,"Nawapara SECL Colony, Chhal - CECB",19-03-2026 08:00:00,22.118125,83.140608,PM2.5,13,65,39
India,Chhattisgarh,Korba,"Rampur, Korba - CECB",19-03-2026 08:00:00,22.368195,82.746431,PM2.5,23,74,40
India,Chhattisgarh,Korba,"Urja Nagar, Korba - CECB",19-03-2026 08:00:00,22.348441,82.549611,PM2.5,NA,NA,NA
India,Chhattisgarh,Korba,"Urja Nagar, Korba - CECB",19-03-2026 08:00:00,22.348441,82.549611,PM10,NA,NA,NA
India,Chhattisgarh,Raipur,"Siltara Phase-II, Raipur - CECB",19-03-2026 08:00:00,21.371751,81.664929,SO2,NA,NA,NA
India,Chhattisgarh,Tumidih,"OP Jindal Industrial Park, Tumidih - CECB",19-03-2026 08:00:00,22.06631475,83.33820077,NO2,33,99,68
India,Delhi,Delhi,"Alipur, Delhi - DPCC",19-03-2026 08:00:00,28.815329,77.153010,PM2.5,55,303,107
India,Delhi,Delhi,"Alipur, Delhi - DPCC",19-03-2026 08:00:00,28.815329,77.153010,PM10,62,221,112
India,Delhi,Delhi,"Alipur, Delhi - DPCC",19-03-2026 08:00:00,28.815329,77.153010,NH3,13,15,14
India,Delhi,Delhi,"Alipur, Delhi - DPCC",19-03-2026 08:00:00,28.815329,77.153010,SO2,5,23,11
India,Delhi,Delhi,"Aya Nagar, Delhi - IMD",19-03-2026 08:00:00,28.4706914,77.1099364,PM10,39,283,138
India,Delhi,Delhi,"ITO, Delhi - CPCB",19-03-2026 08:00:00,28.628624,77.241060,CO,32,85,50
India,Delhi,Delhi,"JNU, Delhi - DPCC",19-03-2026 08:00:00,28.540721 ,77.168544 ,NO2,14,48,29
India,Delhi,Delhi,"Jahangirpuri, Delhi - DPCC",19-03-2026 08:00:00,28.732820,77.170633,OZONE,10,89,12
India,Delhi,Delhi,"Jawaharlal Nehru Stadium, Delhi - DPCC",19-03-2026 08:00:00,28.580280,77.233829,NH3,9,28,13
India,Delhi,Delhi,"Jawaharlal Nehru Stadium, Delhi - DPCC",19-03-2026 08:00:00,28.580280,77.233829,SO2,11,38,23
India,Delhi,Delhi,"Jawaharlal Nehru Stadium, Delhi - DPCC",19-03-2026 08:00:00,28.580280,77.233829,CO,40,72,57
India,Delhi,Delhi,"Lodhi Road, Delhi - IMD",19-03-2026 08:00:00,28.5918245,77.2273074,PM10,57,403,140
India,Bihar,Purnia,"Mariam Nagar, Purnia - BSPCB",19-03-2026 08:00:00,25.366336,87.117468,PM10,52,74,60
India,Bihar,Rajgir,"Dangi Tola, Rajgir - BSPCB",19-03-2026 08:00:00,25.03280,85.41948,PM10,35,96,59
India,Bihar,Samastipur,"DM Office_Kasipur, Samastipur - BSPCB",19-03-2026 08:00:00,25.859655,85.77944,PM2.5,37,323,135
India,Delhi,Delhi,"Narela, Delhi - DPCC",19-03-2026 08:00:00,28.822836,77.101981,CO,28,68,52
India,Delhi,Delhi,"Narela, Delhi - DPCC",19-03-2026 08:00:00,28.822836,77.101981,OZONE,10,164,20
India,Delhi,Delhi,"Nehru Nagar, Delhi - DPCC",19-03-2026 08:00:00,28.567890,77.250515,SO2,9,109,26
India,Delhi,Delhi,"Nehru Nagar, Delhi - DPCC",19-03-2026 08:00:00,28.567890,77.250515,OZONE,1,284,4
India,Delhi,Delhi,"North Campus, DU, Delhi - IMD",19-03-2026 08:00:00,28.6573814,77.1585447,PM2.5,35,332,177
India,Delhi,Delhi,"North Campus, DU, Delhi - IMD",19-03-2026 08:00:00,28.6573814,77.1585447,PM10,45,459,161
India,Delhi,Delhi,"Okhla Phase-2, Delhi - DPCC",19-03-2026 08:00:00,28.530785,77.271255,PM2.5,NA,NA,NA
India,Delhi,Delhi,"Okhla Phase-2, Delhi - DPCC",19-03-2026 08:00:00,28.530785,77.271255,NH3,NA,NA,NA
India,Delhi,Delhi,"Okhla Phase-2, Delhi - DPCC",19-03-2026 08:00:00,28.530785,77.271255,OZONE,NA,NA,NA
India,Delhi,Delhi,"Patparganj, Delhi - DPCC",19-03-2026 08:00:00,28.623763,77.287209,PM2.5,55,333,151
India,Delhi,Delhi,"Patparganj, Delhi - DPCC",19-03-2026 08:00:00,28.623763,77.287209,SO2,11,43,25
India,Delhi,Delhi,"Punjabi Bagh, Delhi - DPCC",19-03-2026 08:00:00,28.674045,77.131023,PM10,48,401,147
India,Delhi,Delhi,"Sirifort, Delhi - CPCB",19-03-2026 08:00:00,28.5504249,77.2159377,OZONE,4,46,7
India,Delhi,Delhi,"Sonia Vihar, Delhi - DPCC",19-03-2026 08:00:00,28.710508,77.249485,SO2,28,58,40
India,Delhi,Delhi,"Sonia Vihar, Delhi - DPCC",19-03-2026 08:00:00,28.710508,77.249485,CO,7,102,16
India,Delhi,Delhi,"Sri Aurobindo Marg, Delhi - DPCC",19-03-2026 08:00:00,28.531346,77.190156,NH3,5,8,7
India,Delhi,Delhi,"Talkatora Garden, Delhi - DPCC",19-03-2026 08:00:00,28.621810,77.1944633,PM2.5,51,306,139
India,Delhi,Delhi,"Talkatora Garden, Delhi - DPCC",19-03-2026 08:00:00,28.621810,77.1944633,CO,103,107,104
India,Delhi,Delhi,"Talkatora Garden, Delhi - DPCC",19-03-2026 08:00:00,28.621810,77.1944633,OZONE,1,30,2
India,Delhi,Delhi,"Vivek Vihar, Delhi - DPCC",19-03-2026 08:00:00,28.672342,77.315260,NH3,5,7,6
India,Delhi,Delhi,"Vivek Vihar, Delhi - DPCC",19-03-2026 08:00:00,28.672342,77.315260,CO,56,96,67
India,Delhi,Delhi,"Wazirpur, Delhi - DPCC",19-03-2026 08:00:00,28.699793,77.165453,NO2,72,113,92
India,Delhi,Delhi,"Wazirpur, Delhi - DPCC",19-03-2026 08:00:00,28.699793,77.165453,OZONE,9,155,15
India,Delhi,Delhi,"Punjabi Bagh, Delhi - DPCC",19-03-2026 08:00:00,28.674045,77.131023,SO2,42,56,48
India,Delhi,Delhi,"Punjabi Bagh, Delhi - DPCC",19-03-2026 08:00:00,28.674045,77.131023,CO,42,63,46
India,Delhi,Delhi,"Pusa, Delhi - DPCC",19-03-2026 08:00:00,28.639652,77.146275,NO2,NA,NA,NA
India,Delhi,Delhi,"Pusa, Delhi - DPCC",19-03-2026 08:00:00,28.639652,77.146275,NH3,NA,NA,NA
India,Delhi,Delhi,"Pusa, Delhi - DPCC",19-03-2026 08:00:00,28.639652,77.146275,OZONE,NA,NA,NA
India,Delhi,Delhi,"Pusa, Delhi - IMD",19-03-2026 08:00:00,28.636110,77.173332,PM2.5,6,287,115
India,Delhi,Delhi,"Rohini, Delhi - DPCC",19-03-2026 08:00:00,28.732528,77.119920,PM10,63,432,152
India,Delhi,Delhi,"Rohini, Delhi - DPCC",19-03-2026 08:00:00,28.732528,77.119920,NH3,12,21,15
India,Delhi,Delhi,"Shadipur, Delhi - CPCB",19-03-2026 08:00:00,28.6514781,77.1473105,PM2.5,108,335,244
India,Delhi,Delhi,"Shadipur, Delhi - CPCB",19-03-2026 08:00:00,28.6514781,77.1473105,CO,15,70,46
India,Delhi,Delhi,"Sirifort, Delhi - CPCB",19-03-2026 08:00:00,28.5504249,77.2159377,NO2,28,45,39
India,Haryana,Ambala,"Patti Mehar, Ambala - HSPCB",19-03-2026 08:00:00,30.379589,76.778328,PM2.5,68,109,90
India,Haryana,Ambala,"Patti Mehar, Ambala - HSPCB",19-03-2026 08:00:00,30.379589,76.778328,PM10,72,107,94
India,Haryana,Bahadurgarh,"Arya Nagar, Bahadurgarh - HSPCB",19-03-2026 08:00:00,28.6701,76.9254,OZONE,16,20,17
India,Haryana,Ballabgarh,"Nathu Colony, Ballabgarh - HSPCB",19-03-2026 08:00:00,28.3419248,77.319699,PM2.5,NA,NA,NA
India,Haryana,Ballabgarh,"Nathu Colony, Ballabgarh - HSPCB",19-03-2026 08:00:00,28.3419248,77.319699,SO2,NA,NA,NA
India,Haryana,Bhiwani,"H.B. Colony, Bhiwani - HSPCB",19-03-2026 08:00:00,28.806223,76.141105,NO2,1,21,12
India,Haryana,Bhiwani,"H.B. Colony, Bhiwani - HSPCB",19-03-2026 08:00:00,28.806223,76.141105,NH3,7,26,10
India,Haryana,Charkhi Dadri,"Mini Secretariat, Charkhi Dadri - HSPCB",19-03-2026 08:00:00,28.593883,76.270653,SO2,3,131,67
India,Haryana,Charkhi Dadri,"Mini Secretariat, Charkhi Dadri - HSPCB",19-03-2026 08:00:00,28.593883,76.270653,OZONE,14,32,16
India,Gujarat,Rajkot,"Mavdi, Rajkot - Nexteng Enviro ",19-03-2026 08:00:00,22.248853,70.776774,SO2,1,9,4
India,Gujarat,Rajkot,"Mavdi, Rajkot - Nexteng Enviro ",19-03-2026 08:00:00,22.248853,70.776774,OZONE,5,15,7
India,Gujarat,Surat,"Katargam, Surat - Nexteng Enviro",19-03-2026 08:00:00,21.217779 ,72.834787 ,OZONE,9,9,9
India,Gujarat,Surat,"Science Center, Surat - SMC",19-03-2026 08:00:00,21.170046,72.795405,NO2,19,24,22
India,Gujarat,Surat,"Science Center, Surat - SMC",19-03-2026 08:00:00,21.170046,72.795405,SO2,27,42,31
India,Gujarat,Surat,"Science Center, Surat - SMC",19-03-2026 08:00:00,21.170046,72.795405,CO,72,86,74
India,Gujarat,Vadodara,"Bapunagar, Vadodara - Nexteng Enviro",19-03-2026 08:00:00,22.320153,73.216285,NH3,2,4,3
India,Gujarat,Vadodara,"Bapunagar, Vadodara - Nexteng Enviro",19-03-2026 08:00:00,22.320153,73.216285,SO2,6,33,15
India,Gujarat,Vatva,"Phase-4 GIDC, Vatva - GPCB",19-03-2026 08:00:00,22.969611,72.643500,PM10,75,305,164
India,Gujarat,Ahmedabad,"Chandkheda, Ahmedabad - IITM",19-03-2026 08:00:00,23.107969,72.574648,NO2,8,92,30
India,Gujarat,Ahmedabad,"Chandkheda, Ahmedabad - IITM",19-03-2026 08:00:00,23.107969,72.574648,NH3,4,13,10
India,Gujarat,Ahmedabad,"Chandkheda, Ahmedabad - IITM",19-03-2026 08:00:00,23.107969,72.574648,SO2,6,138,22
India,Gujarat,Ahmedabad,"Chandkheda, Ahmedabad - IITM",19-03-2026 08:00:00,23.107969,72.574648,CO,10,82,31
India,Gujarat,Ahmedabad,"Gyaspur, Ahmedabad - IITM",19-03-2026 08:00:00,22.977134,72.553024,NO2,34,153,74
India,Gujarat,Ahmedabad,"Gyaspur, Ahmedabad - IITM",19-03-2026 08:00:00,22.977134,72.553024,SO2,3,107,41
India,Gujarat,Ahmedabad,"Maninagar, Ahmedabad - GPCB",19-03-2026 08:00:00,23.002657,72.591912,PM10,67,309,125
India,Gujarat,Ahmedabad,"Raikhad, Ahmedabad - IITM",19-03-2026 08:00:00,23.020509,72.579261,PM2.5,41,256,117
India,Gujarat,Ahmedabad,"Raikhad, Ahmedabad - IITM",19-03-2026 08:00:00,23.020509,72.579261,NH3,13,23,17
India,Gujarat,Ahmedabad,"Rakhial, Ahmedabad - IITM",19-03-2026 08:00:00,23.016834,72.625775,NH3,7,13,11
India,Haryana,Dharuhera,"Municipal Corporation Office, Dharuhera -  HSPCB",19-03-2026 08:00:00,28.206800,76.799700,NH3,9,26,19
India,Haryana,Faridabad,"Sector 11, Faridabad - HSPCB",19-03-2026 08:00:00,28.376058,77.315741,SO2,3,101,12
India,Haryana,Faridabad,"Sector 30, Faridabad - HSPCB",19-03-2026 08:00:00,28.4417,77.3217,NH3,11,12,11
India,Haryana,Fatehabad,"Huda Sector, Fatehabad - HSPCB",19-03-2026 08:00:00,29.503664,75.467934,OZONE,51,77,71
India,Haryana,Gurugram,"NISE Gwal Pahari, Gurugram - IMD",19-03-2026 08:00:00,28.422681,77.148944,PM2.5,47,318,127
India,Gujarat,Bhavnagar,"Vidhyanagar, Bhavnagar - Nexteng Enviro",19-03-2026 08:00:00,21.755417,72.139056,PM10,NA,NA,NA
India,Gujarat,Gandhinagar,"IIPHG Lekawada, Gandhinagar - IITM",19-03-2026 08:00:00,23.243639,72.68994,NO2,9,35,20
India,Gujarat,Gandhinagar,"Sector-10, Gandhinagar - GPCB",19-03-2026 08:00:00,23.221714,72.654328,PM10,90,444,141
India,Gujarat,Mehsana,"Sadanand Nagar, Mehsana - Nexteng Enviro",19-03-2026 08:00:00,23.593150,72.372792,NH3,3,6,5
India,Gujarat,Ahmedabad,"SAC ISRO Bopal, Ahmedabad - IITM",19-03-2026 08:00:00,23.041137,72.456691,OZONE,9,75,18
India,Gujarat,Ahmedabad,"SVPI Airport Hansol, Ahmedabad - IITM",19-03-2026 08:00:00,23.076793,72.627874,PM2.5,36,83,57
India,Gujarat,Ankleshwar,"GIDC, Ankleshwar - GPCB",19-03-2026 08:00:00,21.613267,73.010555,NH3,5,5,5
India,Gujarat,Ankleshwar,"GIDC, Ankleshwar - GPCB",19-03-2026 08:00:00,21.613267,73.010555,SO2,21,22,22
India,Karnataka,Mysuru,"Hebbal 1st Stage, Mysuru - KSPCB",19-03-2026 08:00:00,12.21041,76.37376,PM10,31,68,47
India,Karnataka,Mysuru,"Hebbal 1st Stage, Mysuru - KSPCB",19-03-2026 08:00:00,12.21041,76.37376,NH3,3,6,4
India,Karnataka,Mysuru,"Hebbal 1st Stage, Mysuru - KSPCB",19-03-2026 08:00:00,12.21041,76.37376,SO2,2,86,7
India,Karnataka,Mysuru,"Hebbal 1st Stage, Mysuru - KSPCB",19-03-2026 08:00:00,12.21041,76.37376,CO,4,22,8
India,Karnataka,Ramanagara,"Vijay Nagar, Ramanagara - KSPCB",19-03-2026 08:00:00,12.733409,77.298051,OZONE,26,62,35
India,Karnataka,Shivamogga,"Vinoba Nagara, Shivamogga - KSPCB",19-03-2026 08:00:00,13.940000,75.555917,PM10,50,51,50
India,Karnataka,Shivamogga,"Vinoba Nagara, Shivamogga - KSPCB",19-03-2026 08:00:00,13.940000,75.555917,NH3,2,3,3
India,Karnataka,Udupi,"Brahmagiri, Udupi - KSPCB",19-03-2026 08:00:00,13.34194444,74.74694444,NO2,NA,NA,NA
India,Karnataka,Udupi,"Brahmagiri, Udupi - KSPCB",19-03-2026 08:00:00,13.34194444,74.74694444,CO,55,55,55
India,Karnataka,Vijayapura,"Ibrahimpur, Vijayapura - KSPCB",19-03-2026 08:00:00,16.802639,75.722694,PM10,NA,NA,NA
India,Karnataka,Bengaluru,"BWSSB Kadabesanahalli, Bengaluru - CPCB",19-03-2026 08:00:00,12.9352049,77.6814488,OZONE,13,34,20
India,Karnataka,Bengaluru,"Hebbal, Bengaluru - KSPCB",19-03-2026 08:00:00,13.029152,77.585901,CO,24,52,26
India,Karnataka,Bengaluru,"Hebbal, Bengaluru - KSPCB",19-03-2026 08:00:00,13.029152,77.585901,OZONE,5,11,7
India,Karnataka,Bengaluru,"Hombegowda Nagar, Bengaluru - KSPCB",19-03-2026 08:00:00,12.938539,77.590100,PM2.5,30,172,87
India,Karnataka,Bengaluru,"Hombegowda Nagar, Bengaluru - KSPCB",19-03-2026 08:00:00,12.938539,77.590100,NO2,21,56,35
India,Karnataka,Bengaluru,"Hombegowda Nagar, Bengaluru - KSPCB",19-03-2026 08:00:00,12.938539,77.590100,OZONE,29,137,46
India,Karnataka,Bengaluru,"Jayanagar 5th Block, Bengaluru - KSPCB",19-03-2026 08:00:00,12.920984,77.584908,PM2.5,33,139,78
India,Karnataka,Bengaluru,"Jayanagar 5th Block, Bengaluru - KSPCB",19-03-2026 08:00:00,12.920984,77.584908,NO2,7,16,12
India,Karnataka,Bengaluru,"Jigani, Bengaluru - KSPCB",19-03-2026 08:00:00,12.7816279,77.6299145,NH3,3,3,3
India,Himachal Pradesh,Baddi,"HIMUDA Complex Phase-1, Baddi - HPPCB",19-03-2026 08:00:00,30.943887,76.801991,PM2.5,13,223,72
India,Himachal Pradesh,Baddi,"HIMUDA Complex Phase-1, Baddi - HPPCB",19-03-2026 08:00:00,30.943887,76.801991,SO2,19,74,36
India,Himachal Pradesh,Baddi,"HIMUDA Complex Phase-1, Baddi - HPPCB",19-03-2026 08:00:00,30.943887,76.801991,CO,34,55,43
India,Himachal Pradesh,Baddi,"HIMUDA Complex Phase-1, Baddi - HPPCB",19-03-2026 08:00:00,30.943887,76.801991,OZONE,30,104,52
India,Jammu_and_Kashmir,Srinagar,"Rajbagh, Srinagar - JKPCC",19-03-2026 08:00:00,34.066206,74.819820,PM2.5,12,20,15
India,Karnataka,Bagalkot,"Vidayagiri, Bagalkot - KSPCB",19-03-2026 08:00:00,16.172806,75.659694,NH3,1,1,1
India,Karnataka,Bagalkot,"Vidayagiri, Bagalkot - KSPCB",19-03-2026 08:00:00,16.172806,75.659694,OZONE,11,12,12
India,Karnataka,Bengaluru,"BWSSB Kadabesanahalli, Bengaluru - CPCB",19-03-2026 08:00:00,12.9352049,77.6814488,PM2.5,43,309,118
India,Haryana,Panchgaon,"Amity University, Panchgaon - IITM",19-03-2026 08:00:00,28.3153,76.9143,NH3,1,4,1
India,Haryana,Panipat,"Sector-18, Panipat - HSPCB",19-03-2026 08:00:00,29.432304,76.972765,CO,34,50,50
India,Haryana,Rohtak,"MD University, Rohtak - HSPCB",19-03-2026 08:00:00,28.52123,76.37138,PM2.5,26,500,158
India,Haryana,Rohtak,"MD University, Rohtak - HSPCB",19-03-2026 08:00:00,28.52123,76.37138,SO2,10,13,12
India,Haryana,Rohtak,"MD University, Rohtak - HSPCB",19-03-2026 08:00:00,28.52123,76.37138,CO,10,40,35
India,Haryana,Sirsa,"F-Block, Sirsa - HSPCB",19-03-2026 08:00:00,29.536400,75.015800,NH3,13,14,13
India,Haryana,Sonipat,"Murthal, Sonipat - HSPCB",19-03-2026 08:00:00,29.027200,77.062100,PM2.5,55,265,136
India,Haryana,Sonipat,"Murthal, Sonipat - HSPCB",19-03-2026 08:00:00,29.027200,77.062100,NO2,12,13,13
India,Haryana,Sonipat,"Murthal, Sonipat - HSPCB",19-03-2026 08:00:00,29.027200,77.062100,NH3,11,11,11
India,Haryana,Gurugram,"Sector-51, Gurugram - HSPCB",19-03-2026 08:00:00,28.4227,77.0667,SO2,1,11,6
India,Haryana,Gurugram,"Teri Gram, Gurugram - HSPCB",19-03-2026 08:00:00,28.4275,77.1465,PM2.5,NA,NA,NA
India,Haryana,Gurugram,"Teri Gram, Gurugram - HSPCB",19-03-2026 08:00:00,28.4275,77.1465,CO,NA,NA,NA
India,Haryana,Gurugram,"Vikas Sadan, Gurugram - HSPCB",19-03-2026 08:00:00,28.4501238,77.0263051,NO2,9,45,26
India,Haryana,Hisar,"Urban Estate-II, Hisar - HSPCB",19-03-2026 08:00:00,29.140560,75.744941,NO2,25,27,26
India,Haryana,Hisar,"Urban Estate-II, Hisar - HSPCB",19-03-2026 08:00:00,29.140560,75.744941,NH3,10,11,11
India,Haryana,Jind,"Police Lines, Jind - HSPCB",19-03-2026 08:00:00,29.307814,76.337619,SO2,1,4,1
India,Haryana,Kaithal,"Rishi Nagar, Kaithal - HSPCB",19-03-2026 08:00:00,29.8006,76.4155,NO2,29,34,31
India,Haryana,Mandikhera,"General Hospital, Mandikhera(Nuh) - HSPCB",19-03-2026 08:00:00,27.9002,76.9938,OZONE,NA,NA,NA
India,Haryana,Manesar,"Sector-2 IMT, Manesar - HSPCB",19-03-2026 08:00:00,28.360699,76.936090,OZONE,NA,NA,NA
India,Haryana,Narnaul,"Shastri Nagar, Narnaul - HSPCB",19-03-2026 08:00:00,28.060249,76.113115,PM2.5,100,268,147
India,Haryana,Narnaul,"Shastri Nagar, Narnaul - HSPCB",19-03-2026 08:00:00,28.060249,76.113115,PM10,90,144,107
India,Haryana,Narnaul,"Shastri Nagar, Narnaul - HSPCB",19-03-2026 08:00:00,28.060249,76.113115,OZONE,3,30,5
India,Haryana,Palwal,"Shyam Nagar, Palwal - HSPCB",19-03-2026 08:00:00,28.1485564,77.3320667,PM10,63,76,67
India,Haryana,Palwal,"Shyam Nagar, Palwal - HSPCB",19-03-2026 08:00:00,28.1485564,77.3320667,NH3,8,9,9
India,Karnataka,Bengaluru,"RVCE-Mailasandra, Bengaluru - KSPCB",19-03-2026 08:00:00,12.921418,77.502466,OZONE,NA,NA,NA
India,Karnataka,Bengaluru,"Shivapura_Peenya, Bengaluru - KSPCB",19-03-2026 08:00:00,13.0246342,77.5080115,PM10,28,28,28
India,Karnataka,Bengaluru,"Shivapura_Peenya, Bengaluru - KSPCB",19-03-2026 08:00:00,13.0246342,77.5080115,NO2,23,24,23
India,Karnataka,Chamarajanagar,"Urban, Chamarajanagar - KSPCB",19-03-2026 08:00:00,11.55358,76.55521,NO2,23,31,29
India,Karnataka,Chikkaballapur,"Chikkaballapur Rural, Chikkaballapur - KSPCB",19-03-2026 08:00:00,13.428828,77.731418,PM2.5,NA,NA,NA
India,Karnataka,Chikkaballapur,"Chikkaballapur Rural, Chikkaballapur - KSPCB",19-03-2026 08:00:00,13.428828,77.731418,NO2,7,23,12
India,Karnataka,Chikkaballapur,"Chikkaballapur Rural, Chikkaballapur - KSPCB",19-03-2026 08:00:00,13.428828,77.731418,CO,1,17,1
India,Kerala,Eloor,"Udyogamandal, Eloor - Kerala PCB",19-03-2026 08:00:00,10.073232,76.302765,PM10,69,76,72
India,Kerala,Kollam,"Polayathode, Kollam - Kerala PCB",19-03-2026 08:00:00,8.8787,76.6073,PM10,69,81,75
India,Kerala,Thiruvananthapuram,"Kariavattom, Thiruvananthapuram - Kerala PCB",19-03-2026 08:00:00,8.563700,76.886500,PM10,41,85,59
India,Kerala,Thiruvananthapuram,"Kariavattom, Thiruvananthapuram - Kerala PCB",19-03-2026 08:00:00,8.563700,76.886500,SO2,4,21,9
India,Kerala,Thiruvananthapuram,"Plammoodu, Thiruvananthapuram - Kerala PCB",19-03-2026 08:00:00,8.5149093,76.9435879,PM10,11,54,28
India,Kerala,Thiruvananthapuram,"Plammoodu, Thiruvananthapuram - Kerala PCB",19-03-2026 08:00:00,8.5149093,76.9435879,NO2,NA,NA,NA
India,Karnataka,Chikkamagaluru,"Kalyana Nagara, Chikkamagaluru - KSPCB",19-03-2026 08:00:00,13.328028,75.797056,NH3,2,3,3
India,Karnataka,Chikkamagaluru,"Kalyana Nagara, Chikkamagaluru - KSPCB",19-03-2026 08:00:00,13.328028,75.797056,OZONE,10,58,58
India,Karnataka,Hubballi,"Lingaraj Nagar, Hubballi - KSPCB",19-03-2026 08:00:00,15.3714823,75.1160168,NO2,8,11,11
India,Karnataka,Kalaburagi,"Mahatma Basaveswar Colony, Kalaburgi - KSPCB",19-03-2026 08:00:00,17.336318,76.847397,SO2,1,4,2
India,Karnataka,Mangalore,"Kadri, Mangalore - KSPCB",19-03-2026 08:00:00,12.889250,74.853000,PM2.5,31,72,46
India,Madhya Pradesh,Gwalior,"Deen Dayal Nagar, Gwalior - MPPCB",19-03-2026 08:00:00,26.259242,78.216432,PM2.5,48,334,144
India,Madhya Pradesh,Gwalior,"Deen Dayal Nagar, Gwalior - MPPCB",19-03-2026 08:00:00,26.259242,78.216432,CO,26,83,56
India,Madhya Pradesh,Gwalior,"Deen Dayal Nagar, Gwalior - MPPCB",19-03-2026 08:00:00,26.259242,78.216432,OZONE,55,151,114
India,Madhya Pradesh,Gwalior,"Maharaj Bada, Gwalior - MPPCB",19-03-2026 08:00:00,26.200388,78.147714,PM2.5,37,257,102
India,Madhya Pradesh,Gwalior,"Maharaj Bada, Gwalior - MPPCB",19-03-2026 08:00:00,26.200388,78.147714,NH3,1,5,2
India,Madhya Pradesh,Gwalior,"Maharaj Bada, Gwalior - MPPCB",19-03-2026 08:00:00,26.200388,78.147714,SO2,2,68,24
India,Madhya Pradesh,Indore,"Airport Area, Indore - IMC",19-03-2026 08:00:00,22.7289,75.8076,PM10,95,150,117
India,Madhya Pradesh,Indore,"Airport Area, Indore - IMC",19-03-2026 08:00:00,22.7289,75.8076,CO,1,4,2
India,Madhya Pradesh,Indore,"Airport Area, Indore - IMC",19-03-2026 08:00:00,22.7289,75.8076,OZONE,6,20,11
India,Madhya Pradesh,Indore,"Chhoti Gwaltoli, Indore - MPPCB",19-03-2026 08:00:00,22.4310,75.5213,NO2,105,206,166
India,Madhya Pradesh,Indore,"Maguda Nagar, Indore - IMC",19-03-2026 08:00:00,22.7524,75.8872,SO2,13,16,14
India,Madhya Pradesh,Indore,"Maguda Nagar, Indore - IMC",19-03-2026 08:00:00,22.7524,75.8872,OZONE,11,17,12
India,Madhya Pradesh,Indore,"Regional Park, Indore - IMC",19-03-2026 08:00:00,22.6780,75.8559,PM10,32,110,63
India,Madhya Pradesh,Indore,"Regional Park, Indore - IMC",19-03-2026 08:00:00,22.6780,75.8559,NO2,18,28,21
India,Madhya Pradesh,Indore,"Regional Park, Indore - IMC",19-03-2026 08:00:00,22.6780,75.8559,NH3,1,4,2
India,Madhya Pradesh,Indore,"Regional Park, Indore - IMC",19-03-2026 08:00:00,22.6780,75.8559,SO2,17,20,18
India,Madhya Pradesh,Mandideep,"Sector-D Industrial Area, Mandideep - MPPCB",19-03-2026 08:00:00,23.108440,77.511428,PM10,108,406,183
India,Madhya Pradesh,Mandideep,"Sector-D Industrial Area, Mandideep - MPPCB",19-03-2026 08:00:00,23.108440,77.511428,NH3,6,14,12
India,Madhya Pradesh,Mandideep,"Sector-D Industrial Area, Mandideep - MPPCB",19-03-2026 08:00:00,23.108440,77.511428,SO2,13,103,37
India,Madhya Pradesh,Pithampur,"Sector-2 Industrial Area, Pithampur - MPPCB",19-03-2026 08:00:00,22.624758,75.675238,PM2.5,51,323,133
India,Madhya Pradesh,Ratlam,"Shasthri Nagar, Ratlam - IPCA Lab",19-03-2026 08:00:00,23.331731,75.045981,PM2.5,16,79,57
India,Madhya Pradesh,Sagar,"Civil Lines, Sagar - MPPCB",19-03-2026 08:00:00,23.838586,78.759431,NO2,5,40,15
India,Madhya Pradesh,Sagar,"Deen Dayal Nagar, Sagar - MPPCB",19-03-2026 08:00:00,23.8640158,78.80289321,NO2,1,108,36
India,Madhya Pradesh,Satna,"Bandhavgar Colony, Satna - Birla Cement",19-03-2026 08:00:00,24.58434363,80.8549414,PM2.5,49,51,50
India,Madhya Pradesh,Satna,"Bandhavgar Colony, Satna - Birla Cement",19-03-2026 08:00:00,24.58434363,80.8549414,PM10,69,71,70
India,Maharashtra,Boisar,"Khaira, Boisar - MPCB",19-03-2026 08:00:00,19.786089,72.757971,NH3,3,8,5
India,Maharashtra,Chandrapur,"Chauhan Colony, Chandrapur - MPCB",19-03-2026 08:00:00,19.962900,79.298714,PM2.5,18,90,39
India,Maharashtra,Chandrapur,"Chauhan Colony, Chandrapur - MPCB",19-03-2026 08:00:00,19.962900,79.298714,CO,19,28,23
India,Maharashtra,Dhule,"Deopur, Dhule - MPCB",19-03-2026 08:00:00,20.918946,74.776388,NO2,4,21,11
India,Maharashtra,Dombivli,"Kalu Nagar, Dombivli - MPCB",19-03-2026 08:00:00,19.2268427 ,73.0788456 ,PM2.5,8,81,30
India,Maharashtra,Dombivli,"Kalu Nagar, Dombivli - MPCB",19-03-2026 08:00:00,19.2268427 ,73.0788456 ,PM10,28,90,46
India,Maharashtra,Dombivli,"Kalu Nagar, Dombivli - MPCB",19-03-2026 08:00:00,19.2268427 ,73.0788456 ,NO2,17,63,36
India,Maharashtra,Dombivli,"Kalu Nagar, Dombivli - MPCB",19-03-2026 08:00:00,19.2268427 ,73.0788456 ,CO,10,50,38
India,Maharashtra,Hingoli,"Ashta Vinayak Nagar, Hingoli - MPCB",19-03-2026 08:00:00,19.710842,77.151824,SO2,1,4,1
India,Maharashtra,Aurangabad,"Rachnakar Colony, Aurangabad - MPCB",19-03-2026 08:00:00,19.863756,75.321188,PM10,14,134,73
India,Maharashtra,Badlapur,"Katrap, Badlapur - MPCB",19-03-2026 08:00:00,19.16485,73.23409,NO2,14,43,25
India,Maharashtra,Badlapur,"Katrap, Badlapur - MPCB",19-03-2026 08:00:00,19.16485,73.23409,NH3,3,8,6
India,Maharashtra,Badlapur,"Katrap, Badlapur - MPCB",19-03-2026 08:00:00,19.16485,73.23409,SO2,2,21,9
India,Maharashtra,Badlapur,"Katrap, Badlapur - MPCB",19-03-2026 08:00:00,19.16485,73.23409,CO,10,23,16
India,Maharashtra,Badlapur,"Katrap, Badlapur - MPCB",19-03-2026 08:00:00,19.16485,73.23409,OZONE,12,101,14
India,Maharashtra,Beed,"Bir, Beed - MPCB",19-03-2026 08:00:00,18.988474,75.753873,PM2.5,10,46,25
India,Maharashtra,Beed,"Bir, Beed - MPCB",19-03-2026 08:00:00,18.988474,75.753873,SO2,1,18,7
India,Maharashtra,Beed,"Bir, Beed - MPCB",19-03-2026 08:00:00,18.988474,75.753873,CO,16,38,23
India,Maharashtra,Belapur,"CBD Belapur, Belapur - MPCB",19-03-2026 08:00:00,19.0243902,73.0406721,SO2,2,15,7
India,Madhya Pradesh,Bhopal,"Idgah Hills, Bhopal - MPPCB",19-03-2026 08:00:00,23.264759,77.381568,PM10,98,171,134
India,Madhya Pradesh,Bhopal,"Paryavaran Parisar, Bhopal - MPPCB",19-03-2026 08:00:00,23.210494,77.425409,PM10,70,173,120
India,Madhya Pradesh,Bhopal,"Paryavaran Parisar, Bhopal - MPPCB",19-03-2026 08:00:00,23.210494,77.425409,NO2,18,133,55
India,Madhya Pradesh,Bhopal,"Paryavaran Parisar, Bhopal - MPPCB",19-03-2026 08:00:00,23.210494,77.425409,SO2,24,32,28
India,Madhya Pradesh,Bhopal,"T T Nagar, Bhopal - MPPCB",19-03-2026 08:00:00,23.233584,77.400574,PM2.5,41,101,72
India,Madhya Pradesh,Bhopal,"T T Nagar, Bhopal - MPPCB",19-03-2026 08:00:00,23.233584,77.400574,NH3,6,8,6
India,Madhya Pradesh,Bhopal,"T T Nagar, Bhopal - MPPCB",19-03-2026 08:00:00,23.233584,77.400574,OZONE,54,181,136
India,Madhya Pradesh,Dewas,"Bhopal Chauraha, Dewas - MPPCB",19-03-2026 08:00:00,22.9682591,76.064118,PM10,87,272,136
India,Madhya Pradesh,Indore,"Residency Area, Indore - IMC",19-03-2026 08:00:00,22.7084,75.8815,CO,36,83,60
India,Madhya Pradesh,Jabalpur,"Govindh Bhavan Colony, Jabalpur - JMC",19-03-2026 08:00:00,23.163174,79.973061,NH3,2,2,2
India,Madhya Pradesh,Jabalpur,"Gupteshwar, Jabalpur - JMC",19-03-2026 08:00:00,23.142888,79.916147,NO2,13,84,23
India,Madhya Pradesh,Jabalpur,"Gupteshwar, Jabalpur - JMC",19-03-2026 08:00:00,23.142888,79.916147,CO,28,94,32
India,Madhya Pradesh,Jabalpur,"Marhatal, Jabalpur - MPPCB",19-03-2026 08:00:00,23.168606,79.932247,PM2.5,16,51,29
India,Madhya Pradesh,Katni,"Gole Bazar, Katni - MPPCB",19-03-2026 08:00:00,23.50016,80.23284,PM10,46,270,110
India,Madhya Pradesh,Singrauli,"Suryakiran Bhawan NCL, Singrauli - MPPCB",19-03-2026 08:00:00,24.108970,82.645580,PM2.5,56,398,212
India,Madhya Pradesh,Singrauli,"Suryakiran Bhawan NCL, Singrauli - MPPCB",19-03-2026 08:00:00,24.108970,82.645580,SO2,41,73,50
India,Madhya Pradesh,Ujjain,"Mahashweta Nagar, Ujjain - MPPCB",19-03-2026 08:00:00,23.1633321,75.800225,OZONE,20,105,46
India,Maharashtra,Ahmednagar,"Tarakpur, Ahmednagar - MPCB",19-03-2026 08:00:00,19.10122,74.73339,NO2,15,26,20
India,Maharashtra,Akola,"Ramdaspeth, Akola - MPCB",19-03-2026 08:00:00,20.719516,77.000253,CO,18,30,19
India,Maharashtra,Ambernath,"Chinchpada, Ambernath - MPCB",19-03-2026 08:00:00,19.2157840,73.1997810,SO2,4,26,12
India,Maharashtra,Ambernath,"Chinchpada, Ambernath - MPCB",19-03-2026 08:00:00,19.2157840,73.1997810,OZONE,2,97,6
India,Maharashtra,Amravati,"Shivneri Colony, Amravati - MPCB",19-03-2026 08:00:00,20.9402359,77.7895248,OZONE,13,72,36
India,Maharashtra,Aurangabad,"More Chowk Waluj, Aurangabad - MPCB",19-03-2026 08:00:00,19.8389439,75.244448,PM10,14,106,60
India,Maharashtra,Aurangabad,"More Chowk Waluj, Aurangabad - MPCB",19-03-2026 08:00:00,19.8389439,75.244448,SO2,10,27,17
India,Maharashtra,Aurangabad,"More Chowk Waluj, Aurangabad - MPCB",19-03-2026 08:00:00,19.8389439,75.244448,CO,2,123,73
India,Maharashtra,Jalgaon,"Prabhat Colony, Jalgaon - MPCB",19-03-2026 08:00:00,21.001264,75.565602,PM10,38,168,100
India,Maharashtra,Kalyan,"Khadakpada, Kalyan - MPCB",19-03-2026 08:00:00,19.25292,73.142019,NH3,1,1,1
India,Maharashtra,Kolhapur,"Sinchan Bhavan, Kolhapur - MPCB",19-03-2026 08:00:00,16.7143745,74.2426398,PM10,NA,NA,NA
India,Maharashtra,Mumbai,"Mulund West, Mumbai - MPCB",19-03-2026 08:00:00,19.1750,72.9419,NH3,4,4,4
India,Maharashtra,Mumbai,"Navy Nagar-Colaba, Mumbai - IITM",19-03-2026 08:00:00,18.897756,72.813320,NH3,6,10,7
India,Maharashtra,Mumbai,"Powai, Mumbai - MPCB",19-03-2026 08:00:00,19.137500,72.915056,PM2.5,11,60,27
India,Maharashtra,Mumbai,"Powai, Mumbai - MPCB",19-03-2026 08:00:00,19.137500,72.915056,NO2,7,8,7
India,Maharashtra,Mumbai,"Powai, Mumbai - MPCB",19-03-2026 08:00:00,19.137500,72.915056,OZONE,9,9,9
India,Maharashtra,Mumbai,"Sewri, Mumbai - BMC",19-03-2026 08:00:00,19.000084,72.856730,PM2.5,17,51,31
India,Maharashtra,Mumbai,"Sewri, Mumbai - BMC",19-03-2026 08:00:00,19.000084,72.856730,PM10,52,110,78
India,Maharashtra,Mumbai,"Sewri, Mumbai - BMC",19-03-2026 08:00:00,19.000084,72.856730,NH3,2,16,8
India,Maharashtra,Mumbai,"Shivaji Nagar, Mumbai - BMC",19-03-2026 08:00:00,19.060498,72.923356,SO2,NA,NA,NA
India,Maharashtra,Mumbai,"Shivaji Nagar, Mumbai - BMC",19-03-2026 08:00:00,19.060498,72.923356,CO,5,66,21
India,Maharashtra,Mumbai,"Siddharth Nagar-Worli, Mumbai - IITM",19-03-2026 08:00:00,19.000083,72.813993,NH3,4,7,5
India,Maharashtra,Mumbai,"Sion, Mumbai - MPCB",19-03-2026 08:00:00,19.047000,72.874600,SO2,1,103,5
India,Maharashtra,Pimpri-Chinchwad,"Gavalinagar, Pimpri Chinchwad - MPCB",19-03-2026 08:00:00,18.63673,73.82487,NO2,22,64,40
India,Maharashtra,Pimpri-Chinchwad,"Park Street Wakad, Pimpri Chinchwad - MPCB",19-03-2026 08:00:00,18.59051,73.77946,PM10,NA,NA,NA
India,Maharashtra,Pimpri-Chinchwad,"Park Street Wakad, Pimpri Chinchwad - MPCB",19-03-2026 08:00:00,18.59051,73.77946,SO2,NA,NA,NA
India,Maharashtra,Pimpri-Chinchwad,"Savta Mali Nagar, Pimpri-Chinchwad - IITM",19-03-2026 08:00:00,18.614767,73.799516,PM2.5,NA,NA,NA
India,Maharashtra,Pimpri-Chinchwad,"Savta Mali Nagar, Pimpri-Chinchwad - IITM",19-03-2026 08:00:00,18.614767,73.799516,PM10,NA,NA,NA
India,Maharashtra,Pimpri-Chinchwad,"Savta Mali Nagar, Pimpri-Chinchwad - IITM",19-03-2026 08:00:00,18.614767,73.799516,OZONE,4,30,7
India,Maharashtra,Pimpri-Chinchwad,"Thergaon, Pimpri Chinchwad - MPCB",19-03-2026 08:00:00,18.616318,73.765797,PM10,100,150,117
India,Maharashtra,Pimpri-Chinchwad,"Thergaon, Pimpri Chinchwad - MPCB",19-03-2026 08:00:00,18.616318,73.765797,NH3,7,11,8
India,Maharashtra,Pune,"Bhosari, Pune - IITM",19-03-2026 08:00:00,18.640051,73.848956,CO,30,66,45
India,Maharashtra,Pune,"Bhumkar Nagar, Pune - IITM",19-03-2026 08:00:00,18.605770,73.749976,PM2.5,NA,NA,NA
India,Maharashtra,Mumbai,"Sion, Mumbai - MPCB",19-03-2026 08:00:00,19.047000,72.874600,OZONE,14,25,15
India,Maharashtra,Mumbai,"Vile Parle West, Mumbai - MPCB",19-03-2026 08:00:00,19.10861,72.83622,PM10,NA,NA,NA
India,Maharashtra,Mumbai,"Vile Parle West, Mumbai - MPCB",19-03-2026 08:00:00,19.10861,72.83622,SO2,48,51,50
India,Maharashtra,Mumbai,"Worli, Mumbai -MPCB",19-03-2026 08:00:00,18.9942180,72.8158167,PM2.5,10,43,23
India,Maharashtra,Mumbai,"Worli, Mumbai -MPCB",19-03-2026 08:00:00,18.9942180,72.8158167,OZONE,5,63,13
India,Maharashtra,Nagpur,"Ambazari, Nagpur - MPCB",19-03-2026 08:00:00,21.121801,79.04952,PM2.5,31,73,51
India,Maharashtra,Nagpur,"Ambazari, Nagpur - MPCB",19-03-2026 08:00:00,21.121801,79.04952,CO,9,42,27
India,Maharashtra,Nagpur,"Mahal, Nagpur - MPCB",19-03-2026 08:00:00,21.14472,79.107595,NO2,18,79,43
India,Maharashtra,Nagpur,"Mahal, Nagpur - MPCB",19-03-2026 08:00:00,21.14472,79.107595,NH3,7,10,8
India,Maharashtra,Nagpur,"Opp GPO Civil Lines, Nagpur - MPCB",19-03-2026 08:00:00,21.152875,79.0517531,PM10,37,78,60
India,Maharashtra,Latur,"Sawe Wadi, Latur - MPCB",19-03-2026 08:00:00,18.39963,76.57452,PM2.5,27,54,37
India,Maharashtra,Latur,"Sawe Wadi, Latur - MPCB",19-03-2026 08:00:00,18.39963,76.57452,PM10,25,59,40
India,Maharashtra,Mahad,"Kamble Tarf Birwadi, Mahad - MPCB",19-03-2026 08:00:00,18.1023399,73.4783687,CO,24,46,37
India,Maharashtra,Malegaon,"Mahesh Nagar, Malegaon - MPCB",19-03-2026 08:00:00,20.555712,74.529236,NO2,2,7,4
India,Maharashtra,Malegaon,"Mahesh Nagar, Malegaon - MPCB",19-03-2026 08:00:00,20.555712,74.529236,SO2,23,33,28
India,Maharashtra,Mumbai,"Bandra Kurla Complex, Mumbai - IITM",19-03-2026 08:00:00,19.053536,72.84643,PM2.5,17,66,34
India,Maharashtra,Mumbai,"Bandra Kurla Complex, Mumbai - IITM",19-03-2026 08:00:00,19.053536,72.84643,SO2,1,13,4
India,Maharashtra,Mumbai,"Bandra Kurla Complex, Mumbai - IITM",19-03-2026 08:00:00,19.053536,72.84643,CO,12,50,31
India,Maharashtra,Mumbai,"Bandra Kurla Complex, Mumbai - IITM",19-03-2026 08:00:00,19.053536,72.84643,OZONE,1,50,1
India,Maharashtra,Mumbai,"Colaba, Mumbai - MPCB",19-03-2026 08:00:00,18.910000,72.820000,NH3,4,4,4
India,Maharashtra,Mumbai,"Deonar, Mumbai - IITM",19-03-2026 08:00:00,19.04946,72.9230,PM2.5,16,71,41
India,Maharashtra,Mumbai,"Ghatkopar, Mumbai - BMC",19-03-2026 08:00:00,19.083694,72.920967,CO,2,28,16
India,Maharashtra,Mumbai,"Kandivali East, Mumbai - MPCB",19-03-2026 08:00:00,19.205800,72.868200,OZONE,15,15,15
India,Maharashtra,Mumbai,"Kandivali West, Mumbai - BMC",19-03-2026 08:00:00,19.215859,72.831718,NO2,15,25,19
India,Maharashtra,Mumbai,"Kandivali West, Mumbai - BMC",19-03-2026 08:00:00,19.215859,72.831718,SO2,1,5,2
India,Maharashtra,Mumbai,"Kandivali West, Mumbai - BMC",19-03-2026 08:00:00,19.215859,72.831718,CO,7,42,26
India,Maharashtra,Mumbai,"Kherwadi_Bandra East, Mumbai - MPCB",19-03-2026 08:00:00,19.0632143,72.8456324,PM2.5,1,94,19
India,Maharashtra,Mumbai,"Kherwadi_Bandra East, Mumbai - MPCB",19-03-2026 08:00:00,19.0632143,72.8456324,OZONE,1,47,1
India,Maharashtra,Mumbai,"Khindipada-Bhandup West, Mumbai - IITM",19-03-2026 08:00:00,19.1653323,72.922099,PM10,25,107,63
India,Maharashtra,Mumbai,"Kurla, Mumbai - MPCB",19-03-2026 08:00:00,19.0863,72.8888,CO,8,15,11
India,Maharashtra,Mumbai,"Malad West, Mumbai - IITM",19-03-2026 08:00:00,19.19709,72.82204,PM10,53,125,78
India,Maharashtra,Mumbai,"Malad West, Mumbai - IITM",19-03-2026 08:00:00,19.19709,72.82204,NO2,30,96,50
India,Maharashtra,Mumbai,"Mazgaon, Mumbai - IITM",19-03-2026 08:00:00,18.96702,72.84214,NO2,30,113,79
India,Maharashtra,Mumbai,"Mindspace-Malad West, Mumbai - MPCB",19-03-2026 08:00:00,19.1878657,72.8304069,NH3,2,10,4
India,Maharashtra,Mumbai,"Mindspace-Malad West, Mumbai - MPCB",19-03-2026 08:00:00,19.1878657,72.8304069,OZONE,4,17,5
India,Maharashtra,Nanded,"Sneh Nagar, Nanded - MPCB",19-03-2026 08:00:00,19.173852,77.296291,PM10,31,85,56
India,Maharashtra,Nanded,"Sneh Nagar, Nanded - MPCB",19-03-2026 08:00:00,19.173852,77.296291,NO2,12,21,17
India,Maharashtra,Nashik,"Gangapur Road, Nashik - MPCB",19-03-2026 08:00:00,20.0073285,73.7762427,PM10,78,199,122
India,Maharashtra,Nashik,"Gangapur Road, Nashik - MPCB",19-03-2026 08:00:00,20.0073285,73.7762427,NO2,5,5,5
India,Maharashtra,Nashik,"MIDC Ambad, Nashik - MPCB",19-03-2026 08:00:00,19.950220,73.731480,PM2.5,61,129,85
India,Maharashtra,Nashik,"MIDC Ambad, Nashik - MPCB",19-03-2026 08:00:00,19.950220,73.731480,NH3,2,4,3
India,Maharashtra,Nashik,"Pandav Nagari, Nashik - MPCB",19-03-2026 08:00:00,19.9591346,73.7788008,PM2.5,49,85,67
India,Maharashtra,Mumbai,"Borivali East, Mumbai - MPCB",19-03-2026 08:00:00,19.2243333,72.8658113,CO,12,17,15
India,Maharashtra,Mumbai,"Byculla, Mumbai - BMC",19-03-2026 08:00:00,18.9767,72.8380,NH3,4,21,10
India,Maharashtra,Mumbai,"Byculla, Mumbai - BMC",19-03-2026 08:00:00,18.9767,72.8380,CO,30,98,74
India,Maharashtra,Mumbai,"Chakala-Andheri East, Mumbai - IITM",19-03-2026 08:00:00,19.11074,72.86084,NO2,67,106,82
India,Maharashtra,Mumbai,"Chakala-Andheri East, Mumbai - IITM",19-03-2026 08:00:00,19.11074,72.86084,SO2,5,24,15
India,Maharashtra,Mumbai,"Chakala-Andheri East, Mumbai - IITM",19-03-2026 08:00:00,19.11074,72.86084,CO,20,52,39
India,Maharashtra,Mumbai,"Chembur, Mumbai - MPCB",19-03-2026 08:00:00,19.0364585,72.8954371,PM10,43,124,76
India,Maharashtra,Navi Mumbai,"Kopripada-Vashi, Navi Mumbai - MPCB",19-03-2026 08:00:00,19.090337,73.014232,CO,12,41,29
India,Maharashtra,Navi Mumbai,"Sector-2E Kalamboli, Navi Mumbai - MPCB",19-03-2026 08:00:00,19.02579,73.10297,SO2,5,14,8
India,Maharashtra,Navi Mumbai,"Tondare-Taloja, Navi Mumbai - MPCB",19-03-2026 08:00:00,19.0630,73.1209,OZONE,NA,NA,NA
India,Maharashtra,Parbhani,"Masoom Colony, Parbhani - MPCB",19-03-2026 08:00:00,19.265594,76.761463,PM10,24,57,36
India,Puducherry,Puducherry,"Jawahar Nagar, Puducherry - PPCC",19-03-2026 08:00:00,11.9309,79.8027,PM2.5,2,49,12
India,Puducherry,Puducherry,"Jawahar Nagar, Puducherry - PPCC",19-03-2026 08:00:00,11.9309,79.8027,NO2,3,24,8
India,Puducherry,Puducherry,"Jawahar Nagar, Puducherry - PPCC",19-03-2026 08:00:00,11.9309,79.8027,NH3,1,3,2
India,Puducherry,Puducherry,"Jawahar Nagar, Puducherry - PPCC",19-03-2026 08:00:00,11.9309,79.8027,CO,3,29,12
India,Punjab,Bathinda,"Hardev Nagar, Bathinda - PPCB",19-03-2026 08:00:00,30.233011,74.907758,PM2.5,26,72,50
India,Punjab,Bathinda,"Hardev Nagar, Bathinda - PPCB",19-03-2026 08:00:00,30.233011,74.907758,PM10,62,428,161
India,Punjab,Bathinda,"Hardev Nagar, Bathinda - PPCB",19-03-2026 08:00:00,30.233011,74.907758,SO2,6,21,12
India,Punjab,Jalandhar,"Civil Line, Jalandhar - PPCB",19-03-2026 08:00:00,31.321907,75.578914,SO2,14,18,16
India,Punjab,Khanna,"Kalal Majra, Khanna - PPCB",19-03-2026 08:00:00,30.736056 ,76.209694,NH3,7,8,7
India,Punjab,Khanna,"Kalal Majra, Khanna - PPCB",19-03-2026 08:00:00,30.736056 ,76.209694,SO2,6,12,9
India,Punjab,Ludhiana,"Punjab Agricultural University, Ludhiana - PPCB",19-03-2026 08:00:00,30.9028,75.8086,PM2.5,57,97,70
India,Odisha,Angul,"Hakimapada, Angul - OSPCB",19-03-2026 08:00:00,20.832874,85.104082,PM10,43,137,73
India,Odisha,Angul,"Hakimapada, Angul - OSPCB",19-03-2026 08:00:00,20.832874,85.104082,NH3,2,10,5
India,Odisha,Angul,"Hakimapada, Angul - OSPCB",19-03-2026 08:00:00,20.832874,85.104082,SO2,10,41,18
India,Odisha,Balasore,"Kalidaspur, Balasore - OSPCB",19-03-2026 08:00:00,21.51161,86.89088,PM10,16,73,41
India,Odisha,Balasore,"Kalidaspur, Balasore - OSPCB",19-03-2026 08:00:00,21.51161,86.89088,NO2,3,26,9
India,Odisha,Baripada,"Meher Colony, Baripada - OSPCB",19-03-2026 08:00:00,21.941841,86.728318,NO2,3,29,11
India,Odisha,Baripada,"Meher Colony, Baripada - OSPCB",19-03-2026 08:00:00,21.941841,86.728318,OZONE,NA,NA,NA
India,Odisha,Bhubaneswar,"Lingraj Mandir, Bhubaneswar - OSPCB",19-03-2026 08:00:00,20.240790,85.836784,PM10,7,87,36
India,Odisha,Bhubaneswar,"Lingraj Mandir, Bhubaneswar - OSPCB",19-03-2026 08:00:00,20.240790,85.836784,SO2,6,17,8
India,Odisha,Bhubaneswar,"Lingraj Mandir, Bhubaneswar - OSPCB",19-03-2026 08:00:00,20.240790,85.836784,OZONE,4,36,14
India,Odisha,Bhubaneswar,"Patia, Bhubaneswar - OSPCB",19-03-2026 08:00:00,20.34652,85.81630,NO2,5,24,11
India,Maharashtra,Ulhasnagar,"Sidhi Vinayak Nagar, Ulhasnagar - MPCB",19-03-2026 08:00:00,19.235581,73.159121,PM2.5,52,95,77
India,Maharashtra,Ulhasnagar,"Vithalwadi, Ulhasnagar - MPCB",19-03-2026 08:00:00,19.2307571 ,73.1551920,NO2,26,56,38
India,Maharashtra,Ulhasnagar,"Vithalwadi, Ulhasnagar - MPCB",19-03-2026 08:00:00,19.2307571 ,73.1551920,NH3,2,4,3
India,Maharashtra,Ulhasnagar,"Vithalwadi, Ulhasnagar - MPCB",19-03-2026 08:00:00,19.2307571 ,73.1551920,CO,2,38,23
India,Meghalaya,Shillong,"JN Stadium, Shillong - Meghalaya PCB",19-03-2026 08:00:00,25.5803419,91.8942571,PM2.5,NA,NA,NA
India,Meghalaya,Shillong,"JN Stadium, Shillong - Meghalaya PCB",19-03-2026 08:00:00,25.5803419,91.8942571,OZONE,2,4,2
India,Meghalaya,Shillong,"Lumpyngngad, Shillong - Meghalaya PCB",19-03-2026 08:00:00,25.5586,91.8985,SO2,10,14,12
India,Mizoram,Aizawl,"Sikulpuikawn, Aizawl - Mizoram PCB",19-03-2026 08:00:00,23.7176342,92.7192841,PM2.5,13,60,32
India,Punjab,Mandi Gobindgarh,"RIMT University, Mandi Gobindgarh - PPCB",19-03-2026 08:00:00,30.649961,76.331442,NH3,6,6,6
India,Punjab,Patiala,"Model Town, Patiala - PPCB",19-03-2026 08:00:00,30.349388,76.366642,NH3,6,7,6
India,Punjab,Rupnagar,"Ratanpura, Rupnagar - Ambuja Cements",19-03-2026 08:00:00,31.0325454,76.5623046,SO2,12,20,16
India,Rajasthan,Alwar,"Moti Doongri, Alwar - RSPCB",19-03-2026 08:00:00,27.554793,76.611536,PM2.5,NA,NA,NA
India,Rajasthan,Alwar,"Moti Doongri, Alwar - RSPCB",19-03-2026 08:00:00,27.554793,76.611536,PM10,NA,NA,NA
India,Rajasthan,Alwar,"Moti Doongri, Alwar - RSPCB",19-03-2026 08:00:00,27.554793,76.611536,NO2,NA,NA,NA
India,Rajasthan,Alwar,"Moti Doongri, Alwar - RSPCB",19-03-2026 08:00:00,27.554793,76.611536,OZONE,9,83,9
India,Rajasthan,Banswara,"Rati Talai, Banswara - RSPCB",19-03-2026 08:00:00,23.555190,74.440010,NH3,4,8,6
India,Maharashtra,Sangli,"Vijay Nagar, Sangli - MPCB",19-03-2026 08:00:00, 16.5038,74.3623,PM2.5,27,81,51
India,Maharashtra,Sangli,"Vijay Nagar, Sangli - MPCB",19-03-2026 08:00:00, 16.5038,74.3623,OZONE,6,67,19
India,Maharashtra,Solapur,"Ratandeep Housing Society, Solapur - MPCB",19-03-2026 08:00:00,17.65439,75.90649,NO2,11,53,23
India,Maharashtra,Solapur,"Ratandeep Housing Society, Solapur - MPCB",19-03-2026 08:00:00,17.65439,75.90649,SO2,1,7,3
India,Maharashtra,Thane,"Upvan Fort, Thane - MPCB",19-03-2026 08:00:00,19.222279,72.957979,PM10,58,117,83
India,Maharashtra,Thane,"Upvan Fort, Thane - MPCB",19-03-2026 08:00:00,19.222279,72.957979,NO2,1,5,2
India,Maharashtra,Thane,"Upvan Fort, Thane - MPCB",19-03-2026 08:00:00,19.222279,72.957979,NH3,3,4,3
India,Odisha,Rairangpur,"Divisional Forest Office, Rairangpur - OSPCB",19-03-2026 08:00:00,22.265816,86.174829,CO,6,80,16
India,Odisha,Rourkela,"Raghunathpali, Rourkela - OSPCB",19-03-2026 08:00:00,22.220833,84.809444,NO2,15,15,15
India,Odisha,Rourkela,"Raghunathpali, Rourkela - OSPCB",19-03-2026 08:00:00,22.220833,84.809444,NH3,1,2,2
India,Odisha,Rourkela,"Sector-2, Rourkela - OSPCB",19-03-2026 08:00:00,22.24500000,84.88111111,PM10,38,114,83
India,Odisha,Rourkela,"Sector-2, Rourkela - OSPCB",19-03-2026 08:00:00,22.24500000,84.88111111,NO2,17,17,17
India,Odisha,Talcher,"Talcher Coalfields,Talcher - OSPCB",19-03-2026 08:00:00,20.9360711,85.1707021,CO,2,32,24
India,Maharashtra,Pune,"Hadapsar, Pune - IITM",19-03-2026 08:00:00,18.501793,73.927532,PM2.5,11,135,75
India,Maharashtra,Pune,"Hadapsar, Pune - IITM",19-03-2026 08:00:00,18.501793,73.927532,PM10,62,141,108
India,Maharashtra,Pune,"Hadapsar, Pune - IITM",19-03-2026 08:00:00,18.501793,73.927532,CO,11,138,58
India,Maharashtra,Pune,"Katraj Dairy, Pune - MPCB",19-03-2026 08:00:00,18.454450,73.854155,PM10,43,85,60
India,Maharashtra,Pune,"Revenue Colony-Shivajinagar, Pune - IITM",19-03-2026 08:00:00,18.530085,73.849598,OZONE,4,71,10
India,Maharashtra,Pune,"Savitribai Phule Pune University, Pune - MPCB",19-03-2026 08:00:00,18.547056,73.826908,PM2.5,33,62,46
India,Odisha,Brajrajnagar,"GM Office, Brajrajnagar - OSPCB",19-03-2026 08:00:00,21.8004996,83.8396977,PM2.5,4,212,56
India,Odisha,Brajrajnagar,"GM Office, Brajrajnagar - OSPCB",19-03-2026 08:00:00,21.8004996,83.8396977,NO2,6,8,7
India,Nagaland,Kohima,"PWD Junction, Kohima - NPCB",19-03-2026 08:00:00,25.6635413,94.0989878,NO2,3,4,4
India,Nagaland,Kohima,"PWD Junction, Kohima - NPCB",19-03-2026 08:00:00,25.6635413,94.0989878,SO2,17,29,22
India,Rajasthan,Pali,"Indira Colony Vistar, Pali - RSPCB",19-03-2026 08:00:00,25.771061, 73.340227,OZONE,8,72,10
India,Rajasthan,Pratapgarh,"Pragati Nagar, Pratapgarh - RSPCB",19-03-2026 08:00:00,24.041198,74.780702,PM10,101,194,131
India,Rajasthan,Pratapgarh,"Pragati Nagar, Pratapgarh - RSPCB",19-03-2026 08:00:00,24.041198,74.780702,SO2,6,20,12
India,Rajasthan,Rajsamand,"Dhoinda, Rajsamand - RSPCB",19-03-2026 08:00:00,25.036360,73.883502,PM2.5,12,72,30
India,Rajasthan,Rajsamand,"Dhoinda, Rajsamand - RSPCB",19-03-2026 08:00:00,25.036360,73.883502,PM10,47,142,88
India,Rajasthan,Rajsamand,"Dhoinda, Rajsamand - RSPCB",19-03-2026 08:00:00,25.036360,73.883502,OZONE,23,140,45
India,Rajasthan,Sawai Madhopur,"Sahu Nagar, Sawai Madhopur - RSPCB",19-03-2026 08:00:00,26.031443,76.359327,NO2,3,79,19
India,Rajasthan,Sawai Madhopur,"Sahu Nagar, Sawai Madhopur - RSPCB",19-03-2026 08:00:00,26.031443,76.359327,OZONE,25,187,81
India,Rajasthan,Sikar,"Radhakishan Pura, Sikar - RSPCB",19-03-2026 08:00:00,27.608912,75.153302,NH3,1,14,9
India,Rajasthan,Sikar,"Radhakishan Pura, Sikar - RSPCB",19-03-2026 08:00:00,27.608912,75.153302,SO2,2,15,6
India,Rajasthan,Sirohi,"Vedhaynath Colony, Sirohi - RSPCB",19-03-2026 08:00:00,24.885261,72.857549,NH3,NA,NA,NA
India,Rajasthan,Baran,"Bamboliya, Baran - RSPCB",19-03-2026 08:00:00,25.106006,76.469948,PM2.5,13,117,53
India,Rajasthan,Baran,"Bamboliya, Baran - RSPCB",19-03-2026 08:00:00,25.106006,76.469948,NH3,3,9,5
India,Rajasthan,Baran,"Bamboliya, Baran - RSPCB",19-03-2026 08:00:00,25.106006,76.469948,CO,10,32,20
India,Rajasthan,Barmer,"Railway Colony, Barmer - RSPCB",19-03-2026 08:00:00,25.747299,71.393989,CO,12,30,15
India,Rajasthan,Bharatpur,"Krishna Nagar, Bharatpur - RSPCB",19-03-2026 08:00:00,27.215415,77.50873,PM2.5,10,184,45
India,Rajasthan,Bharatpur,"Krishna Nagar, Bharatpur - RSPCB",19-03-2026 08:00:00,27.215415,77.50873,PM10,13,166,64
India,Rajasthan,Bhilwara,"Pratap Nagar, Bhilwara - RSPCB",19-03-2026 08:00:00,25.339605,74.618883,NH3,7,10,9
India,Rajasthan,Bhiwadi,"RIICO Ind. Area III, Bhiwadi - RSPCB",19-03-2026 08:00:00,28.194909,76.862296,PM2.5,31,326,127
India,Rajasthan,Bhiwadi,"RIICO Ind. Area III, Bhiwadi - RSPCB",19-03-2026 08:00:00,28.194909,76.862296,NH3,5,20,12
India,Rajasthan,Bhiwadi,"Vasundhara Nagar_UIT, Bhiwadi - RSPCB",19-03-2026 08:00:00,28.207266,76.829265,NH3,3,6,5
India,Rajasthan,Bhiwadi,"Vasundhara Nagar_UIT, Bhiwadi - RSPCB",19-03-2026 08:00:00,28.207266,76.829265,SO2,6,93,28
India,Rajasthan,Bhiwadi,"Vasundhara Nagar_UIT, Bhiwadi - RSPCB",19-03-2026 08:00:00,28.207266,76.829265,CO,30,65,39
India,Rajasthan,Bikaner,"MM Ground, Bikaner - RSPCB",19-03-2026 08:00:00,28.018792,73.292658,NH3,NA,NA,NA
India,Rajasthan,Churu,"Subash Chowk, Churu - RSPCB",19-03-2026 08:00:00,28.296139,74.961696,SO2,3,15,6
India,Rajasthan,Dausa,"Khatikan Mohalla, Dausa - RSPCB",19-03-2026 08:00:00,26.895552,76.334753,NH3,2,6,4
India,Rajasthan,Dausa,"Khatikan Mohalla, Dausa - RSPCB",19-03-2026 08:00:00,26.895552,76.334753,OZONE,43,152,77
India,Rajasthan,Dholpur,"Raja Ganj, Dholpur - RSPCB",19-03-2026 08:00:00,26.699557,77.898881,PM10,52,459,105
India,Rajasthan,Sri Ganganagar,"Old City, Sri Ganganagar - RSPCB",19-03-2026 08:00:00,29.931624,73.864511,NO2,3,14,7
India,Rajasthan,Sri Ganganagar,"Old City, Sri Ganganagar - RSPCB",19-03-2026 08:00:00,29.931624,73.864511,SO2,2,4,3
India,Rajasthan,Sri Ganganagar,"Old City, Sri Ganganagar - RSPCB",19-03-2026 08:00:00,29.931624,73.864511,CO,6,30,9
India,Rajasthan,Sri Ganganagar,"Old City, Sri Ganganagar - RSPCB",19-03-2026 08:00:00,29.931624,73.864511,OZONE,11,82,44
India,Sikkim,Gangtok,"Zero Point GICI, Gangtok - SSPCB",19-03-2026 08:00:00,27.338530,88.614099,NO2,NA,NA,NA
India,Sikkim,Gangtok,"Zero Point GICI, Gangtok - SSPCB",19-03-2026 08:00:00,27.338530,88.614099,NH3,NA,NA,NA
India,Sikkim,Gangtok,"Zero Point GICI, Gangtok - SSPCB",19-03-2026 08:00:00,27.338530,88.614099,SO2,NA,NA,NA
India,TamilNadu,Chennai,"Arumbakkam, Chennai - TNPCB",19-03-2026 08:00:00,13.0664,80.2112 ,PM10,13,103,46
India,TamilNadu,Chennai,"Arumbakkam, Chennai - TNPCB",19-03-2026 08:00:00,13.0664,80.2112 ,NO2,12,24,18
India,Rajasthan,Dholpur,"Raja Ganj, Dholpur - RSPCB",19-03-2026 08:00:00,26.699557,77.898881,NO2,16,47,30
India,Rajasthan,Dholpur,"Raja Ganj, Dholpur - RSPCB",19-03-2026 08:00:00,26.699557,77.898881,OZONE,28,67,46
India,Rajasthan,Dungarpur,"Bhoiwada, Dungarpur - RSPCB",19-03-2026 08:00:00,23.837789,73.714926,NH3,8,17,15
India,Rajasthan,Jaipur,"Mansarovar Sector-12, Jaipur - RSPCB",19-03-2026 08:00:00,26.843698,75.766894,NH3,7,12,10
India,Rajasthan,Jaipur,"Mansarovar Sector-12, Jaipur - RSPCB",19-03-2026 08:00:00,26.843698,75.766894,CO,20,72,58
India,Rajasthan,Jaipur,"Mansarovar Sector-12, Jaipur - RSPCB",19-03-2026 08:00:00,26.843698,75.766894,OZONE,63,169,93
India,Rajasthan,Jaipur,"Police Commissionerate, Jaipur - RSPCB",19-03-2026 08:00:00,26.9164092,75.7994901,NO2,26,160,103
India,Rajasthan,Jhunjhunu,"Indra Nagar, Jhunjhunu - RSPCB",19-03-2026 08:00:00,28.108988,75.386577,PM2.5,28,83,48
India,Rajasthan,Jhunjhunu,"Indra Nagar, Jhunjhunu - RSPCB",19-03-2026 08:00:00,28.108988,75.386577,SO2,5,14,8
India,Rajasthan,Jodhpur,"Collectorate, Jodhpur - RSPCB",19-03-2026 08:00:00,26.268249,73.0193853,SO2,1,12,6
India,Rajasthan,Jodhpur,"Collectorate, Jodhpur - RSPCB",19-03-2026 08:00:00,26.268249,73.0193853,CO,5,106,11
India,Rajasthan,Jodhpur,"Digari Kalan, Jodhpur - RSPCB",19-03-2026 08:00:00,26.295810,73.082283,SO2,2,10,3
India,Rajasthan,Jodhpur,"Mandor, Jodhpur - RSPCB",19-03-2026 08:00:00,26.358805,73.047444,PM2.5,20,100,42
India,Rajasthan,Jodhpur,"Mandor, Jodhpur - RSPCB",19-03-2026 08:00:00,26.358805,73.047444,SO2,1,11,3
India,Rajasthan,Jodhpur,"Mandor, Jodhpur - RSPCB",19-03-2026 08:00:00,26.358805,73.047444,OZONE,26,71,36
India,Rajasthan,Jaipur,"RIICO Sitapura, Jaipur - RSPCB",19-03-2026 08:00:00,26.786682,75.827928,PM10,88,252,129
India,Rajasthan,Jaipur,"RIICO Sitapura, Jaipur - RSPCB",19-03-2026 08:00:00,26.786682,75.827928,NO2,94,156,112
India,Rajasthan,Jaipur,"RIICO Sitapura, Jaipur - RSPCB",19-03-2026 08:00:00,26.786682,75.827928,SO2,5,8,6
India,Rajasthan,Jaipur,"Shastri Nagar, Jaipur - RSPCB",19-03-2026 08:00:00,26.9502929,75.730943,NO2,32,71,48
India,Rajasthan,Jaisalmer,"Sadar Bazar, Jaisalmer - RSPCB",19-03-2026 08:00:00,26.912329,70.909168,OZONE,16,65,35
India,Rajasthan,Jalore,"Mudtra Sili, Jalore - RSPCB",19-03-2026 08:00:00,25.344694,72.626208,CO,14,53,18
India,Rajasthan,Jalore,"Mudtra Sili, Jalore - RSPCB",19-03-2026 08:00:00,25.344694,72.626208,OZONE,40,95,54
India,TamilNadu,Chennai,"Manali Village, Chennai - TNPCB",19-03-2026 08:00:00,13.1662,80.2584,PM10,NA,NA,NA
India,TamilNadu,Chennai,"Manali, Chennai - CPCB",19-03-2026 08:00:00,13.164544,80.26285,PM10,42,69,56
India,TamilNadu,Chennai,"Manali, Chennai - CPCB",19-03-2026 08:00:00,13.164544,80.26285,NO2,9,12,10
India,TamilNadu,Chennai,"Manali, Chennai - CPCB",19-03-2026 08:00:00,13.164544,80.26285,NH3,6,7,7
India,TamilNadu,Chennai,"Manali, Chennai - CPCB",19-03-2026 08:00:00,13.164544,80.26285,SO2,16,40,22
India,TamilNadu,Chennai,"Velachery Res. Area, Chennai - CPCB",19-03-2026 08:00:00,13.0052189,80.2398125,PM2.5,NA,NA,NA
India,TamilNadu,Chennai,"Velachery Res. Area, Chennai - CPCB",19-03-2026 08:00:00,13.0052189,80.2398125,OZONE,2,11,4
India,Rajasthan,Jodhpur,"Samrat Ashok Udhyan, Jodhpur - RSPCB",19-03-2026 08:00:00,26.253384,72.976571,NO2,3,46,15
India,Rajasthan,Karauli,"Satyawati Vihar, Karauli - RSPCB",19-03-2026 08:00:00,26.506177,77.025989,NO2,11,42,23
India,Rajasthan,Kota,"Dhanmandi, Kota - RSPCB",19-03-2026 08:00:00,25.164090,75.858137,SO2,3,97,23
India,Rajasthan,Kota,"Shrinath Puram, Kota - RSPCB",19-03-2026 08:00:00,25.14389,75.821256,PM10,106,172,133
India,Rajasthan,Kota,"Shrinath Puram, Kota - RSPCB",19-03-2026 08:00:00,25.14389,75.821256,OZONE,8,20,14
India,Uttar_Pradesh,Agra,"Shahjahan Garden, Agra - UPPCB",19-03-2026 08:00:00,27.169338,78.03582,NO2,20,27,23
India,Uttar_Pradesh,Agra,"Shastripuram, Agra - UPPCB",19-03-2026 08:00:00,27.19862,77.92066,SO2,29,75,48
India,Uttar_Pradesh,Agra,"Shastripuram, Agra - UPPCB",19-03-2026 08:00:00,27.19862,77.92066,CO,8,30,8
India,Uttar_Pradesh,Agra,"Shastripuram, Agra - UPPCB",19-03-2026 08:00:00,27.19862,77.92066,OZONE,12,14,13
India,Uttar_Pradesh,Baghpat,"Sardar Patel Inter College, Baghpat - UPPCB",19-03-2026 08:00:00,28.964949,77.278761,PM10,37,220,103
India,Uttar_Pradesh,Baghpat,"Sardar Patel Inter College, Baghpat - UPPCB",19-03-2026 08:00:00,28.964949,77.278761,SO2,19,89,34
India,Uttar_Pradesh,Bareilly,"Civil Lines, Bareilly - UPPCB",19-03-2026 08:00:00,28.359581,79.414455,PM10,32,99,51
India,Uttar_Pradesh,Bareilly,"Civil Lines, Bareilly - UPPCB",19-03-2026 08:00:00,28.359581,79.414455,SO2,57,85,69
India,Uttar_Pradesh,Bareilly,"Civil Lines, Bareilly - UPPCB",19-03-2026 08:00:00,28.359581,79.414455,CO,36,118,58
India,Uttar_Pradesh,Bareilly,"Civil Lines, Bareilly - UPPCB",19-03-2026 08:00:00,28.359581,79.414455,OZONE,16,18,17
India,Uttar_Pradesh,Bareilly,"Rajendra Nagar, Bareilly - UPPCB",19-03-2026 08:00:00,28.38910936,79.42963708,PM2.5,16,57,32
India,Uttar_Pradesh,Bareilly,"Rajendra Nagar, Bareilly - UPPCB",19-03-2026 08:00:00,28.38910936,79.42963708,NO2,9,10,10
India,Uttar_Pradesh,Bareilly,"Rajendra Nagar, Bareilly - UPPCB",19-03-2026 08:00:00,28.38910936,79.42963708,OZONE,NA,NA,NA
India,Uttar_Pradesh,Bulandshahr,"Yamunapuram, Bulandshahr - UPPCB",19-03-2026 08:00:00,28.406963,77.849831,PM10,33,278,152
India,Telangana,Hyderabad,"Zoo Park, Hyderabad - TSPCB",19-03-2026 08:00:00,17.349694,78.451437,OZONE,23,26,24
India,Tripura,Agartala,"Bardowali, Agartala - Tripura SPCB",19-03-2026 08:00:00,23.8175497,91.2726974,CO,NA,NA,NA
India,Tripura,Agartala,"Bardowali, Agartala - Tripura SPCB",19-03-2026 08:00:00,23.8175497,91.2726974,OZONE,NA,NA,NA
India,Uttar_Pradesh,Agra,"Manoharpur, Agra - UPPCB",19-03-2026 08:00:00,27.23711,78.01936,SO2,8,12,10
India,Uttar_Pradesh,Agra,"Manoharpur, Agra - UPPCB",19-03-2026 08:00:00,27.23711,78.01936,CO,16,24,19
India,Uttar_Pradesh,Agra,"Rohta, Agra - UPPCB",19-03-2026 08:00:00,27.106972,78.000111,PM10,53,214,114
India,Uttar_Pradesh,Agra,"Rohta, Agra - UPPCB",19-03-2026 08:00:00,27.106972,78.000111,OZONE,11,16,15
India,Uttar_Pradesh,Agra,"Sanjay Palace, Agra - UPPCB",19-03-2026 08:00:00,27.19865833,78.00598056,PM2.5,44,328,87
India,Uttar_Pradesh,Agra,"Sanjay Palace, Agra - UPPCB",19-03-2026 08:00:00,27.19865833,78.00598056,OZONE,34,132,46
India,Uttar_Pradesh,Agra,"Sector-3B Avas Vikas Colony, Agra - UPPCB",19-03-2026 08:00:00,27.19412,77.96237,NH3,7,8,7
India,Uttar_Pradesh,Ghaziabad,"Vasundhara, Ghaziabad - UPPCB",19-03-2026 08:00:00,28.6603346,77.3572563,OZONE,6,187,21
India,Uttar_Pradesh,Gorakhpur,"Madan Mohan Malaviya University of Technology, Gorakhpur - UPPCB",19-03-2026 08:00:00,26.730136,83.433859,CO,3,5,4
India,Uttar_Pradesh,Greater Noida,"Knowledge Park - III, Greater Noida - UPPCB",19-03-2026 08:00:00,28.47272,77.482000,OZONE,2,137,16
India,Uttar_Pradesh,Greater Noida,"Knowledge Park - V, Greater Noida - UPPCB",19-03-2026 08:00:00,28.557054,77.453663,NO2,51,135,82
India,Uttar_Pradesh,Greater Noida,"Knowledge Park - V, Greater Noida - UPPCB",19-03-2026 08:00:00,28.557054,77.453663,CO,24,87,42
India,Uttar_Pradesh,Greater Noida,"Knowledge Park - V, Greater Noida - UPPCB",19-03-2026 08:00:00,28.557054,77.453663,OZONE,7,222,19
India,Uttar_Pradesh,Hapur,"Anand Vihar, Hapur - UPPCB",19-03-2026 08:00:00,28.725645,77.749675,PM10,25,270,115
India,Uttar_Pradesh,Hapur,"Anand Vihar, Hapur - UPPCB",19-03-2026 08:00:00,28.725645,77.749675,NO2,7,31,15
India,Telangana,Hyderabad,"Nacharam_TSIIC IALA, Hyderabad - TSPCB",19-03-2026 08:00:00,17.429398,78.569354,NH3,4,7,5
India,Telangana,Hyderabad,"Nacharam_TSIIC IALA, Hyderabad - TSPCB",19-03-2026 08:00:00,17.429398,78.569354,CO,24,30,30
India,Telangana,Hyderabad,"New Malakpet, Hyderabad - TSPCB",19-03-2026 08:00:00,17.37206,78.50864,NH3,2,5,3
India,Telangana,Hyderabad,"New Malakpet, Hyderabad - TSPCB",19-03-2026 08:00:00,17.37206,78.50864,CO,23,33,31
India,Telangana,Hyderabad,"Ramachandrapuram, Hyderabad - TSPCB",19-03-2026 08:00:00,17.528544,78.286195,SO2,10,18,15
India,Telangana,Hyderabad,"Sanathnagar, Hyderabad - TSPCB",19-03-2026 08:00:00,17.4559458,78.4332152,PM2.5,22,54,35
India,Telangana,Hyderabad,"Somajiguda, Hyderabad - TSPCB",19-03-2026 08:00:00,17.417094,78.457437,PM2.5,20,41,31
India,Telangana,Hyderabad,"Somajiguda, Hyderabad - TSPCB",19-03-2026 08:00:00,17.417094,78.457437,NH3,4,5,5
India,Telangana,Hyderabad,"Somajiguda, Hyderabad - TSPCB",19-03-2026 08:00:00,17.417094,78.457437,CO,11,20,17
India,Telangana,Hyderabad,"Somajiguda, Hyderabad - TSPCB",19-03-2026 08:00:00,17.417094,78.457437,OZONE,12,13,12
India,TamilNadu,Coimbatore,"PSG College of Arts and Science, Coimbatore - TNPCB",19-03-2026 08:00:00,11.0328,77.0349,PM10,NA,NA,NA
India,TamilNadu,Coimbatore,"PSG College of Arts and Science, Coimbatore - TNPCB",19-03-2026 08:00:00,11.0328,77.0349,NH3,1,1,1
India,TamilNadu,Coimbatore,"SIDCO Kurichi, Coimbatore - TNPCB",19-03-2026 08:00:00,10.942451,76.978996,PM10,10,88,36
India,TamilNadu,Coimbatore,"SIDCO Kurichi, Coimbatore - TNPCB",19-03-2026 08:00:00,10.942451,76.978996,NO2,2,2,2
India,TamilNadu,Coimbatore,"SIDCO Kurichi, Coimbatore - TNPCB",19-03-2026 08:00:00,10.942451,76.978996,SO2,24,31,25
India,TamilNadu,Perundurai,"SIPCOT Industrial Park, Perundurai - TNPCB",19-03-2026 08:00:00,11.258242,77.552761,OZONE,1,32,30
India,TamilNadu,Thoothukudi,"Meelavittan, Thoothukudi - TNPCB",19-03-2026 08:00:00,8.816428 ,78.099039,PM10,31,66,44
India,TamilNadu,Thoothukudi,"Meelavittan, Thoothukudi - TNPCB",19-03-2026 08:00:00,8.816428 ,78.099039,NO2,12,20,14
India,Uttar_Pradesh,Firozabad,"Nagla Bhau, Firozabad - UPPCB",19-03-2026 08:00:00,27.168897,78.376960,NH3,2,2,2
India,Uttar_Pradesh,Firozabad,"Vibhab Nagar, Firozabad - UPPCB",19-03-2026 08:00:00,27.1594,78.3953,CO,5,14,12
India,Uttar_Pradesh,Ghaziabad,"Indirapuram, Ghaziabad - UPPCB",19-03-2026 08:00:00,28.646233,77.358075,SO2,17,34,29
India,Uttar_Pradesh,Ghaziabad,"Loni, Ghaziabad - UPPCB",19-03-2026 08:00:00,28.757294,77.278792,NO2,13,66,30
India,Uttar_Pradesh,Ghaziabad,"Sanjay Nagar, Ghaziabad - UPPCB",19-03-2026 08:00:00,28.685382,77.453839,NO2,39,104,63
India,Uttar_Pradesh,Ghaziabad,"Vasundhara, Ghaziabad - UPPCB",19-03-2026 08:00:00,28.6603346,77.3572563,NO2,38,98,57
India,Uttar_Pradesh,Lucknow,"B R Ambedkar University, Lucknow - UPPCB",19-03-2026 08:00:00,26.766433,80.927299,CO,10,20,18
India,Uttar_Pradesh,Lucknow,"Gomti Nagar, Lucknow - UPPCB",19-03-2026 08:00:00,26.868120,81.005119,PM2.5,61,204,102
India,Uttar_Pradesh,Lucknow,"Gomti Nagar, Lucknow - UPPCB",19-03-2026 08:00:00,26.868120,81.005119,SO2,10,13,11
India,Uttar_Pradesh,Lucknow,"Kukrail Picnic Spot-1, Lucknow - UPPCB",19-03-2026 08:00:00,26.90723,80.98579,SO2,15,24,17
India,Uttar_Pradesh,Lucknow,"Lalbagh, Lucknow - CPCB",19-03-2026 08:00:00,26.8458805,80.9365541,NH3,NA,NA,NA
India,Uttar_Pradesh,Lucknow,"Lalbagh, Lucknow - CPCB",19-03-2026 08:00:00,26.8458805,80.9365541,SO2,NA,NA,NA
India,Telangana,Hyderabad,"ECIL Kapra, Hyderabad - TSPCB",19-03-2026 08:00:00,17.470431,78.566959,NH3,NA,NA,NA
India,Telangana,Hyderabad,"IDA Pashamylaram, Hyderabad - TSPCB",19-03-2026 08:00:00,17.5316895,78.218939,NO2,4,6,5
India,Telangana,Hyderabad,"IDA Pashamylaram, Hyderabad - TSPCB",19-03-2026 08:00:00,17.5316895,78.218939,CO,4,97,23
India,Telangana,Hyderabad,"IITH Kandi, Hyderabad - TSPCB",19-03-2026 08:00:00,17.585705,78.126199,NO2,12,18,15
India,Telangana,Hyderabad,"Kokapet, Hyderabad - TSPCB",19-03-2026 08:00:00,17.393559,78.339194,NH3,1,3,2
India,Uttar_Pradesh,Kanpur,"FTI Kidwai Nagar, Kanpur - UPPCB",19-03-2026 08:00:00,26.428282,80.327067,NO2,26,27,27
India,Uttar_Pradesh,Kanpur,"FTI Kidwai Nagar, Kanpur - UPPCB",19-03-2026 08:00:00,26.428282,80.327067,SO2,24,28,25
India,Uttar_Pradesh,Kanpur,"NSI Kalyanpur, Kanpur - UPPCB",19-03-2026 08:00:00,26.509954,80.249612,NO2,28,28,28
India,Uttar_Pradesh,Kanpur,"NSI Kalyanpur, Kanpur - UPPCB",19-03-2026 08:00:00,26.509954,80.249612,NH3,2,2,2
India,West_Bengal,Asansol,"Mahabir Colliery, Asansol - WBPCB",19-03-2026 08:00:00,23.6181830,87.1057180,CO,21,92,40
India,West_Bengal,Asansol,"Mahabir Colliery, Asansol - WBPCB",19-03-2026 08:00:00,23.6181830,87.1057180,OZONE,6,69,9
India,West_Bengal,Asansol,"Trivenidevi Bhalotia College, Asansol - WBPCB",19-03-2026 08:00:00,23.616515,87.119133,PM10,40,78,57
India,West_Bengal,Asansol,"Trivenidevi Bhalotia College, Asansol - WBPCB",19-03-2026 08:00:00,23.616515,87.119133,NO2,9,25,17
India,West_Bengal,Barrackpore,"SVSPA Campus, Barrackpore - WBPCB",19-03-2026 08:00:00,22.7605581,88.3617589,PM2.5,17,39,29
India,West_Bengal,Barrackpore,"SVSPA Campus, Barrackpore - WBPCB",19-03-2026 08:00:00,22.7605581,88.3617589,SO2,11,16,13
India,West_Bengal,Barrackpore,"SVSPA Campus, Barrackpore - WBPCB",19-03-2026 08:00:00,22.7605581,88.3617589,OZONE,3,42,5
India,West_Bengal,Durgapur,"Mahishkapur Road_B-Zone, Durgapur - WBPCB",19-03-2026 08:00:00,23.567923,87.306843,PM2.5,34,82,49
India,West_Bengal,Durgapur,"PCBL Residential Complex, Durgapur - WBPCB",19-03-2026 08:00:00,23.5087640,87.3544400,NO2,23,52,35
India,West_Bengal,Durgapur,"PCBL Residential Complex, Durgapur - WBPCB",19-03-2026 08:00:00,23.5087640,87.3544400,NH3,4,8,6
India,West_Bengal,Durgapur,"Womens College_City Center, Durgapur - WBPCB",19-03-2026 08:00:00,23.549395,87.300496,NH3,2,4,3
India,West_Bengal,Haldia,"Priyambada Housing Estate, Haldia - WBPCB",19-03-2026 08:00:00,22.06047,88.109737,NH3,7,8,7
India,West_Bengal,Haldia,"Priyambada Housing Estate, Haldia - WBPCB",19-03-2026 08:00:00,22.06047,88.109737,OZONE,24,28,25
India,West_Bengal,Howrah,"Belur Math, Howrah - WBPCB",19-03-2026 08:00:00,22.629801,88.352017,PM2.5,22,46,33
India,West_Bengal,Howrah,"Belur Math, Howrah - WBPCB",19-03-2026 08:00:00,22.629801,88.352017,NO2,21,70,40
India,West_Bengal,Howrah,"Botanical Garden, Howrah - WBPCB",19-03-2026 08:00:00,22.554954,88.292568,PM10,21,44,32
India,West_Bengal,Howrah,"Botanical Garden, Howrah - WBPCB",19-03-2026 08:00:00,22.554954,88.292568,SO2,10,43,18
India,West_Bengal,Howrah,"Botanical Garden, Howrah - WBPCB",19-03-2026 08:00:00,22.554954,88.292568,CO,6,15,8
India,West_Bengal,Howrah,"Dasnagar, Howrah - WBPCB",19-03-2026 08:00:00,22.6025571,88.3105664,NO2,4,40,15
India,West_Bengal,Howrah,"Dasnagar, Howrah - WBPCB",19-03-2026 08:00:00,22.6025571,88.3105664,SO2,2,59,14
India,West_Bengal,Howrah,"Ghusuri, Howrah - WBPCB",19-03-2026 08:00:00,22.611968,88.347422,PM10,18,91,46
India,West_Bengal,Howrah,"Ghusuri, Howrah - WBPCB",19-03-2026 08:00:00,22.611968,88.347422,CO,15,26,17
India,West_Bengal,Howrah,"Padmapukur, Howrah - WBPCB",19-03-2026 08:00:00,22.5687319,88.2797276,PM2.5,10,34,21
India,West_Bengal,Howrah,"Padmapukur, Howrah - WBPCB",19-03-2026 08:00:00,22.5687319,88.2797276,PM10,31,69,50
India,West_Bengal,Howrah,"Padmapukur, Howrah - WBPCB",19-03-2026 08:00:00,22.5687319,88.2797276,OZONE,8,33,9
India,West_Bengal,Kolkata,"Ballygunge, Kolkata - WBPCB",19-03-2026 08:00:00,22.5367507,88.3638022,PM2.5,16,49,33
India,West_Bengal,Kolkata,"Bidhannagar, Kolkata - WBPCB",19-03-2026 08:00:00,22.58157048,88.41002457,OZONE,18,45,20
India,West_Bengal,Kolkata,"Fort William, Kolkata - WBPCB",19-03-2026 08:00:00,22.556640,88.342674,PM2.5,15,27,22
India,West_Bengal,Kolkata,"Fort William, Kolkata - WBPCB",19-03-2026 08:00:00,22.556640,88.342674,OZONE,3,22,5
India,West_Bengal,Kolkata,"Jadavpur, Kolkata - WBPCB",19-03-2026 08:00:00,22.49929,88.36917,PM10,21,46,31
India,West_Bengal,Kolkata,"Jadavpur, Kolkata - WBPCB",19-03-2026 08:00:00,22.49929,88.36917,NH3,5,11,8
India,West_Bengal,Kolkata,"Rabindra Bharati University, Kolkata - WBPCB",19-03-2026 08:00:00,22.627847,88.380669,PM10,23,65,47
India,West_Bengal,Kolkata,"Rabindra Bharati University, Kolkata - WBPCB",19-03-2026 08:00:00,22.627847,88.380669,NH3,12,12,12
India,West_Bengal,Kolkata,"Rabindra Bharati University, Kolkata - WBPCB",19-03-2026 08:00:00,22.627847,88.380669,OZONE,27,71,32
India,Uttar_Pradesh,Moradabad,"Employment Office, Moradabad - UPPCB",19-03-2026 08:00:00,28.88528,78.73880,NH3,4,4,4
India,Uttar_Pradesh,Moradabad,"Jigar Colony, Moradabad - UPPCB",19-03-2026 08:00:00,28.856664,78.772638,PM10,29,151,82
India,Uttar_Pradesh,Moradabad,"Jigar Colony, Moradabad - UPPCB",19-03-2026 08:00:00,28.856664,78.772638,NO2,24,25,25
India,Uttar_Pradesh,Moradabad,"Jigar Colony, Moradabad - UPPCB",19-03-2026 08:00:00,28.856664,78.772638,CO,40,40,40
India,Uttar_Pradesh,Moradabad,"Jigar Colony, Moradabad - UPPCB",19-03-2026 08:00:00,28.856664,78.772638,OZONE,17,24,17
India,Uttar_Pradesh,Moradabad,"Kashiram Nagar, Moradabad - UPPCB",19-03-2026 08:00:00,28.849399,78.742362,NH3,4,4,4
India,Uttar_Pradesh,Moradabad,"Kashiram Nagar, Moradabad - UPPCB",19-03-2026 08:00:00,28.849399,78.742362,OZONE,13,98,23
India,Uttar_Pradesh,Moradabad,"Transport Nagar, Moradabad - UPPCB",19-03-2026 08:00:00,28.802625,78.753728,PM10,15,160,65
India,Uttar_Pradesh,Noida,"Sector - 125, Noida - UPPCB",19-03-2026 08:00:00,28.5447608,77.3231257,SO2,1,13,9
India,Uttar_Pradesh,Noida,"Sector - 125, Noida - UPPCB",19-03-2026 08:00:00,28.5447608,77.3231257,CO,4,60,40
India,Uttar_Pradesh,Noida,"Sector - 125, Noida - UPPCB",19-03-2026 08:00:00,28.5447608,77.3231257,OZONE,10,186,19
India,Uttar_Pradesh,Lucknow,"Talkatora District Industries Center, Lucknow - CPCB",19-03-2026 08:00:00,26.83399722,80.8917361,NO2,44,49,46
India,Uttar_Pradesh,Meerut,"Ganga Nagar, Meerut - UPPCB",19-03-2026 08:00:00,28.999264,77.7590354,OZONE,8,24,9
India,Uttar_Pradesh,Meerut,"Jai Bhim Nagar, Meerut - UPPCB",19-03-2026 08:00:00,28.9535882,77.7622941,PM10,21,261,111
India,Uttar_Pradesh,Moradabad,"Buddhi Vihar, Moradabad - UPPCB",19-03-2026 08:00:00,28.83526,78.74460,SO2,20,28,22
India,Uttar_Pradesh,Moradabad,"Eco Herbal Park, Moradabad - UPPCB",19-03-2026 08:00:00,28.840739,78.697531,NO2,20,50,29
India,Uttar_Pradesh,Moradabad,"Eco Herbal Park, Moradabad - UPPCB",19-03-2026 08:00:00,28.840739,78.697531,NH3,3,6,4
India,Uttar_Pradesh,Moradabad,"Employment Office, Moradabad - UPPCB",19-03-2026 08:00:00,28.88528,78.73880,PM10,22,163,88
India,Uttar_Pradesh,Vrindavan,"Omex Eternity, Vrindavan - UPPCB",19-03-2026 08:00:00,27.5714090,77.6557570,CO,10,59,14
India,Uttarakhand,Dehradun,"Doon University, Dehradun - UKPCB",19-03-2026 08:00:00,30.269444,78.044167,CO,4,4,4
India,Uttarakhand,Kashipur,"Govt. Girls Inter College, Kashipur - UKPCB",19-03-2026 08:00:00,29.2124114,78.9611753,PM10,26,91,52
India,Uttarakhand,Kashipur,"Govt. Girls Inter College, Kashipur - UKPCB",19-03-2026 08:00:00,29.2124114,78.9611753,NO2,5,13,8
India,West_Bengal,Asansol,"Asansol Court Area, Asansol - WBPCB",19-03-2026 08:00:00,23.685297,86.945968,CO,32,88,46
India,West_Bengal,Asansol,"Mahabir Colliery, Asansol - WBPCB",19-03-2026 08:00:00,23.6181830,87.1057180,PM2.5,7,104,54
India,Uttar_Pradesh,Noida,"Sector-1, Noida - UPPCB",19-03-2026 08:00:00,28.5898,77.3101,NH3,11,14,12
India,Uttar_Pradesh,Noida,"Sector-116, Noida - UPPCB",19-03-2026 08:00:00,28.569230,77.393848,NO2,43,138,61
India,Uttar_Pradesh,Noida,"Sector-116, Noida - UPPCB",19-03-2026 08:00:00,28.569230,77.393848,SO2,5,24,13
India,Uttar_Pradesh,Noida,"Sector-116, Noida - UPPCB",19-03-2026 08:00:00,28.569230,77.393848,OZONE,7,77,9
India,Uttar_Pradesh,Prayagraj,"Nagar Nigam, Prayagraj - UPPCB",19-03-2026 08:00:00,25.44919916 ,81.82735986 ,NH3,8,14,10
India,Uttar_Pradesh,Raebareli," Indira Nagar, Raebareli - NTPC Unchahar",19-03-2026 08:00:00,26.207781,81.245571,CO,10,38,29
India,Uttar_Pradesh,Varanasi,"Maldahiya, Varanasi - UPPCB",19-03-2026 08:00:00,25.32393,82.99687,CO,20,48,37
India,Uttar_Pradesh,Vrindavan,"Omex Eternity, Vrindavan - UPPCB",19-03-2026 08:00:00,27.5714090,77.6557570,PM2.5,16,136,46
India,Uttar_Pradesh,Vrindavan,"Omex Eternity, Vrindavan - UPPCB",19-03-2026 08:00:00,27.5714090,77.6557570,PM10,30,187,95
India,West_Bengal,Kolkata,"Rabindra Sarobar, Kolkata - WBPCB",19-03-2026 08:00:00,22.51106,88.35142,PM2.5,14,32,23
India,West_Bengal,Kolkata,"Rabindra Sarobar, Kolkata - WBPCB",19-03-2026 08:00:00,22.51106,88.35142,NH3,7,8,7
India,West_Bengal,Siliguri,"Ward-32 Bapupara, Siliguri - WBPCB",19-03-2026 08:00:00,26.6879226,88.4152495,PM10,34,132,76
India,West_Bengal,Siliguri,"Ward-32 Bapupara, Siliguri - WBPCB",19-03-2026 08:00:00,26.6879226,88.4152495,CO,24,66,30
India,Bihar,Bhagalpur,"Mayaganj, Bhagalpur - BSPCB",19-03-2026 08:00:00,25.265194,87.012947,NO2,6,8,7
India,Bihar,Bihar Sharif,"D M Colony, Bihar Sharif - BSPCB",19-03-2026 08:00:00,25.204762,85.514960,NO2,9,10,9
India,Bihar,Bihar Sharif,"D M Colony, Bihar Sharif - BSPCB",19-03-2026 08:00:00,25.204762,85.514960,CO,39,67,58
India,Bihar,Buxar,"Charitra Van, Buxar - BSPCB",19-03-2026 08:00:00,25.567520,83.966379,PM10,48,95,69
India,Bihar,Buxar,"Charitra Van, Buxar - BSPCB",19-03-2026 08:00:00,25.567520,83.966379,NO2,9,10,10
India,Bihar,Chhapra,"Darshan Nagar, Chhapra - BSPCB",19-03-2026 08:00:00,25.7808257,84.7446768,PM10,54,179,108
India,Bihar,Gaya,"Collectorate, Gaya - BSPCB",19-03-2026 08:00:00,24.7955,84.9994,PM2.5,NA,NA,NA
India,Bihar,Gaya,"Collectorate, Gaya - BSPCB",19-03-2026 08:00:00,24.7955,84.9994,NO2,NA,NA,NA
India,Bihar,Gaya,"SFTI Kusdihra, Gaya - BSPCB",19-03-2026 08:00:00,24.762518,84.982348,PM2.5,35,79,60
India,Bihar,Gaya,"SFTI Kusdihra, Gaya - BSPCB",19-03-2026 08:00:00,24.762518,84.982348,PM10,47,77,64
India,Bihar,Gaya,"SFTI Kusdihra, Gaya - BSPCB",19-03-2026 08:00:00,24.762518,84.982348,NH3,3,5,4
India,Bihar,Arrah,"New DM Office, Arrah - BSPCB",19-03-2026 08:00:00,25.5626095,84.663264,NH3,1,2,2
India,Bihar,Arrah,"New DM Office, Arrah - BSPCB",19-03-2026 08:00:00,25.5626095,84.663264,CO,44,64,54
India,Bihar,Aurangabad,"Gurdeo Nagar, Aurangabad - BSPCB",19-03-2026 08:00:00,24.75746,84.366208,SO2,11,25,18
India,Bihar,Aurangabad,"Gurdeo Nagar, Aurangabad - BSPCB",19-03-2026 08:00:00,24.75746,84.366208,CO,101,103,102
India,Bihar,Aurangabad,"Gurdeo Nagar, Aurangabad - BSPCB",19-03-2026 08:00:00,24.75746,84.366208,OZONE,14,58,17
India,Bihar,Begusarai,"Lohiyanagar, Begusarai - BSPCB",19-03-2026 08:00:00,25.42742023,86.13886079,NO2,10,17,13
India,Bihar,Bettiah,"Kamalnath Nagar, Bettiah - BSPCB",19-03-2026 08:00:00,26.80365,84.51954,SO2,14,24,21
India,Bihar,Bettiah,"Kamalnath Nagar, Bettiah - BSPCB",19-03-2026 08:00:00,26.80365,84.51954,CO,30,71,41
India,Bihar,Bettiah,"Kamalnath Nagar, Bettiah - BSPCB",19-03-2026 08:00:00,26.80365,84.51954,OZONE,22,35,23
India,Bihar,Bhagalpur,"DM Office_Kachari Chowk, Bhagalpur - BSPCB",19-03-2026 08:00:00,25.251013,86.989001,CO,1,14,10
India,Bihar,Bhagalpur,"DM Office_Kachari Chowk, Bhagalpur - BSPCB",19-03-2026 08:00:00,25.251013,86.989001,OZONE,9,27,15
India,Andhra_Pradesh,Visakhapatnam,"GVM Corporation, Visakhapatnam - APPCB",19-03-2026 08:00:00,17.72,83.3,SO2,3,116,23
India,Andhra_Pradesh,Visakhapatnam,"GVM Corporation, Visakhapatnam - APPCB",19-03-2026 08:00:00,17.72,83.3,CO,6,54,18
India,Arunachal_Pradesh,Naharlagun,"Naharlagun, Naharlagun - APSPCB",19-03-2026 08:00:00,27.103358,93.679645,NO2,6,7,7
India,Assam,Byrnihat,"Central Academy for SFS, Byrnihat - PCBA",19-03-2026 08:00:00,26.071318,91.87488,OZONE,12,43,16
India,Assam,Guwahati,"IITG, Guwahati - PCBA",19-03-2026 08:00:00,26.2028636,91.70046436,OZONE,3,24,12
India,Assam,Guwahati,"LGBI Airport, Guwahati - PCBA",19-03-2026 08:00:00,26.10887,91.589544,NO2,9,20,14
India,Assam,Guwahati,"Pan Bazaar, Guwahati - PCBA",19-03-2026 08:00:00,26.187500,91.744194,PM2.5,13,91,37
India,Assam,Guwahati,"Pan Bazaar, Guwahati - PCBA",19-03-2026 08:00:00,26.187500,91.744194,PM10,14,104,37
India,Assam,Guwahati,"Pan Bazaar, Guwahati - PCBA",19-03-2026 08:00:00,26.187500,91.744194,OZONE,10,21,11
India,Assam,Guwahati,"Railway Colony, Guwahati - PCBA",19-03-2026 08:00:00,26.181742,91.78063,SO2,1,12,4
India,Assam,Nalbari,"Bata Chowk, Nalbari - PCBA",19-03-2026 08:00:00,26.446912,91.439057,PM2.5,NA,NA,NA
India,Assam,Silchar,"Tarapur, Silchar - PCBA",19-03-2026 08:00:00,24.82827,92.79525,NO2,15,20,18
India,Assam,Silchar,"Tarapur, Silchar - PCBA",19-03-2026 08:00:00,24.82827,92.79525,SO2,4,6,5
India,Assam,Silchar,"Tarapur, Silchar - PCBA",19-03-2026 08:00:00,24.82827,92.79525,CO,8,74,11
India,Assam,Sivasagar,"Girls College, Sivasagar - PCBA",19-03-2026 08:00:00,26.987634,94.636574,OZONE,21,64,26
India,Bihar,Araria,"Kharahiya Basti, Araria - BSPCB",19-03-2026 08:00:00,26.146529,87.454184,PM10,10,119,56
India,Andhra_Pradesh,Tirumala,"Toll Gate, Tirumala - APPCB",19-03-2026 08:00:00,13.67,79.35,NH3,3,4,3
India,Andhra_Pradesh,Tirupati,"Vaikuntapuram, Tirupati - APPCB",19-03-2026 08:00:00,13.615387,79.409230,PM2.5,44,322,71
India,Andhra_Pradesh,Tirupati,"Vaikuntapuram, Tirupati - APPCB",19-03-2026 08:00:00,13.615387,79.409230,PM10,42,190,59
India,Andhra_Pradesh,Tirupati,"Vaikuntapuram, Tirupati - APPCB",19-03-2026 08:00:00,13.615387,79.409230,CO,19,27,22
India,Andhra_Pradesh,Vijayawada,"HB Colony, Vijayawada - APPCB",19-03-2026 08:00:00,16.536107,80.594233,PM10,65,126,94
India,Andhra_Pradesh,Vijayawada,"Kanuru, Vijayawada - APPCB",19-03-2026 08:00:00,16.486692,80.699436,PM2.5,43,344,63
India,Andhra_Pradesh,Vijayawada,"Kanuru, Vijayawada - APPCB",19-03-2026 08:00:00,16.486692,80.699436,CO,31,54,52
India,Andhra_Pradesh,Vijayawada,"Rajiv Nagar, Vijayawada - APPCB",19-03-2026 08:00:00,16.554731,80.649110,PM2.5,33,50,44
India,Andhra_Pradesh,Vijayawada,"Rajiv Nagar, Vijayawada - APPCB",19-03-2026 08:00:00,16.554731,80.649110,PM10,39,51,46
India,Bihar,Patna,"Govt. High School Shikarpur, Patna - BSPCB",19-03-2026 08:00:00,25.592539,85.227158,SO2,2,5,4
India,Bihar,Patna,"IGSC Planetarium Complex, Patna - BSPCB",19-03-2026 08:00:00,25.610369,85.132568,PM2.5,64,189,128
India,Bihar,Patna,"IGSC Planetarium Complex, Patna - BSPCB",19-03-2026 08:00:00,25.610369,85.132568,SO2,1,21,15
India,Bihar,Patna,"Muradpur, Patna - BSPCB",19-03-2026 08:00:00,25.619651,85.147382,NH3,4,5,4
India,Bihar,Patna,"Rajbansi Nagar, Patna - BSPCB",19-03-2026 08:00:00,25.599486,85.113666,NO2,10,12,11
India,Bihar,Patna,"Rajbansi Nagar, Patna - BSPCB",19-03-2026 08:00:00,25.599486,85.113666,SO2,1,11,6
India,Bihar,Patna,"Rajbansi Nagar, Patna - BSPCB",19-03-2026 08:00:00,25.599486,85.113666,OZONE,27,37,29
India,Bihar,Patna,"Samanpura, Patna - BSPCB",19-03-2026 08:00:00,25.596727,85.085624,SO2,4,5,4
India,Bihar,Purnia,"Mariam Nagar, Purnia - BSPCB",19-03-2026 08:00:00,25.366336,87.117468,NO2,5,6,6
India,Bihar,Hajipur,"Industrial Area, Hajipur - BSPCB",19-03-2026 08:00:00,25.697189,85.245900,NH3,13,18,16
India,Bihar,Hajipur,"Industrial Area, Hajipur - BSPCB",19-03-2026 08:00:00,25.697189,85.245900,SO2,4,7,6
India,Bihar,Katihar,"Mirchaibari, Katihar - BSPCB",19-03-2026 08:00:00,25.560083,87.553265,NO2,9,10,9
India,Bihar,Kishanganj,"SDM Office_Khagra, Kishanganj - BSPCB",19-03-2026 08:00:00,26.0881305,87.93840336,OZONE,31,34,33
India,Bihar,Motihari,"Gandak Colony, Motihari - BSPCB",19-03-2026 08:00:00,26.63086,84.90051,NH3,3,3,3
India,Bihar,Munger,"Town Hall, Munger - BSPCB",19-03-2026 08:00:00,25.376776,86.471523,PM2.5,25,157,64
India,Bihar,Muzaffarpur,"MIT-Daudpur Kothi, Muzaffarpur - BSPCB",19-03-2026 08:00:00,26.1403345,85.3650192,NH3,1,2,1
India,Bihar,Muzaffarpur,"MIT-Daudpur Kothi, Muzaffarpur - BSPCB",19-03-2026 08:00:00,26.1403345,85.3650192,SO2,9,29,18
India,Bihar,Patna,"DRM Office Danapur, Patna - BSPCB",19-03-2026 08:00:00,25.586562,85.043586,PM2.5,53,101,78
India,Bihar,Patna,"DRM Office Danapur, Patna - BSPCB",19-03-2026 08:00:00,25.586562,85.043586,CO,38,99,55
India,Bihar,Patna,"Govt. High School Shikarpur, Patna - BSPCB",19-03-2026 08:00:00,25.592539,85.227158,NO2,14,18,16
India,Andhra_Pradesh,Anantapur,"Gulzarpet, Anantapur - APPCB",19-03-2026 08:00:00,14.675886,77.593027,CO,18,37,21
India,Andhra_Pradesh,Chittoor,"Gangineni Cheruvu, Chittoor - APPCB",19-03-2026 08:00:00,13.204880,79.097889,NO2,33,43,36
India,Andhra_Pradesh,Machilipatnam,"Srinivas Nagar Colony, Machilipatnam - APPCB",19-03-2026 08:00:00,16.186555,81.13219,PM2.5,41,302,75
India,Delhi,Delhi,"Alipur, Delhi - DPCC",19-03-2026 08:00:00,28.815329,77.153010,OZONE,4,65,13
India,Delhi,Delhi,"Anand Vihar, Delhi - DPCC",19-03-2026 08:00:00,28.647622,77.3158090,CO,31,110,70
India,Delhi,Delhi,"Ashok Vihar, Delhi - DPCC",19-03-2026 08:00:00,28.695381,77.181665,PM2.5,63,314,144
India,Delhi,Delhi,"Ashok Vihar, Delhi - DPCC",19-03-2026 08:00:00,28.695381,77.181665,NO2,22,71,44
India,Delhi,Delhi,"Aya Nagar, Delhi - IMD",19-03-2026 08:00:00,28.4706914,77.1099364,CO,17,48,24
India,Delhi,Delhi,"Bawana, Delhi - DPCC",19-03-2026 08:00:00,28.776200,77.051074,NO2,12,38,21
India,Delhi,Delhi,"Bawana, Delhi - DPCC",19-03-2026 08:00:00,28.776200,77.051074,NH3,6,8,7
India,Delhi,Delhi,"CRRI Mathura Road, Delhi - IMD",19-03-2026 08:00:00,28.5512005,77.2735737,PM2.5,54,211,113
India,Delhi,Delhi,"CRRI Mathura Road, Delhi - IMD",19-03-2026 08:00:00,28.5512005,77.2735737,OZONE,3,160,6
India,Delhi,Delhi,"Cantonment Area, Delhi - DPCC ",19-03-2026 08:00:00,28.594169 ,77.125100 ,PM2.5,17,65,39
India,Chhattisgarh,Raipur,"AIIMS, Raipur - CECB",19-03-2026 08:00:00,21.258815,81.578979,NO2,24,40,36
India,Chhattisgarh,Raipur,"AIIMS, Raipur - CECB",19-03-2026 08:00:00,21.258815,81.578979,SO2,1,4,3
India,Chhattisgarh,Raipur,"Bhatagaon New ISBT, Raipur - CECB",19-03-2026 08:00:00,21.219665,81.630094,PM2.5,6,25,13
India,Chhattisgarh,Raipur,"Bhatagaon New ISBT, Raipur - CECB",19-03-2026 08:00:00,21.219665,81.630094,CO,18,42,21
India,Chhattisgarh,Raipur,"Krishak Nagar, Raipur - CECB",19-03-2026 08:00:00,21.237755,81.705301,CO,10,23,12
India,Chhattisgarh,Raipur,"Siltara Phase-II, Raipur - CECB",19-03-2026 08:00:00,21.371751,81.664929,NO2,6,29,13
India,Chhattisgarh,Raipur,"Siltara Phase-II, Raipur - CECB",19-03-2026 08:00:00,21.371751,81.664929,CO,10,10,10
India,Chhattisgarh,Tumidih,"OP Jindal Industrial Park, Tumidih - CECB",19-03-2026 08:00:00,22.06631475,83.33820077,PM10,26,152,69
India,Delhi,Delhi,"Alipur, Delhi - DPCC",19-03-2026 08:00:00,28.815329,77.153010,CO,22,61,28
India,Delhi,Delhi,"Lodhi Road, Delhi - IMD",19-03-2026 08:00:00,28.5918245,77.2273074,NO2,15,38,28
India,Delhi,Delhi,"Major Dhyan Chand National Stadium, Delhi - DPCC",19-03-2026 08:00:00,28.611281,77.237738,PM2.5,10,280,97
India,Delhi,Delhi,"Major Dhyan Chand National Stadium, Delhi - DPCC",19-03-2026 08:00:00,28.611281,77.237738,PM10,55,396,142
India,Delhi,Delhi,"Major Dhyan Chand National Stadium, Delhi - DPCC",19-03-2026 08:00:00,28.611281,77.237738,NH3,14,19,16
India,Delhi,Delhi,"Mandir Marg, Delhi - DPCC",19-03-2026 08:00:00,28.636429,77.201067,PM2.5,160,329,242
India,Delhi,Delhi,"Mundka, Delhi - DPCC",19-03-2026 08:00:00,28.684678,77.076574,PM2.5,60,395,167
India,Delhi,Delhi,"Mundka, Delhi - DPCC",19-03-2026 08:00:00,28.684678,77.076574,NH3,6,13,8
India,Delhi,Delhi,"Mundka, Delhi - DPCC",19-03-2026 08:00:00,28.684678,77.076574,SO2,26,50,32
India,Delhi,Delhi,"Mundka, Delhi - DPCC",19-03-2026 08:00:00,28.684678,77.076574,CO,46,72,53
India,Delhi,Delhi,"NSIT Dwarka, Delhi - CPCB",19-03-2026 08:00:00,28.60909,77.0325413,PM10,117,500,204
India,Delhi,Delhi,"IGI Airport (T3), Delhi - IMD",19-03-2026 08:00:00,28.5627763,77.1180053,OZONE,3,170,5
India,Delhi,Delhi,"IHBAS, Dilshad Garden, Delhi - CPCB",19-03-2026 08:00:00,28.6811736,77.3025234,CO,33,121,106
India,Delhi,Delhi,"IHBAS, Dilshad Garden, Delhi - CPCB",19-03-2026 08:00:00,28.6811736,77.3025234,OZONE,2,34,5
India,Delhi,Delhi,"IIT Delhi, Delhi - IITM",19-03-2026 08:00:00,28.542460,77.191651,PM10,28,311,149
India,Delhi,Delhi,"ITO, Delhi - CPCB",19-03-2026 08:00:00,28.628624,77.241060,NO2,10,101,48
India,Delhi,Delhi,"ITO, Delhi - CPCB",19-03-2026 08:00:00,28.628624,77.241060,OZONE,25,175,27
India,Delhi,Delhi,"JNU, Delhi - DPCC",19-03-2026 08:00:00,28.540721 ,77.168544 ,NH3,3,12,5
India,Delhi,Delhi,"JNU, Delhi - DPCC",19-03-2026 08:00:00,28.540721 ,77.168544 ,OZONE,1,57,1
India,Delhi,Delhi,"Jahangirpuri, Delhi - DPCC",19-03-2026 08:00:00,28.732820,77.170633,PM10,58,328,129
India,Bihar,Rajgir,"Dangi Tola, Rajgir - BSPCB",19-03-2026 08:00:00,25.03280,85.41948,NH3,3,3,3
India,Bihar,Saharsa,"Police Line, Saharsa - BSPCB",19-03-2026 08:00:00,25.892357,86.590325,PM10,64,177,117
India,Bihar,Saharsa,"Police Line, Saharsa - BSPCB",19-03-2026 08:00:00,25.892357,86.590325,CO,36,44,40
India,Bihar,Samastipur,"DM Office_Kasipur, Samastipur - BSPCB",19-03-2026 08:00:00,25.859655,85.77944,PM10,36,200,102
India,Bihar,Samastipur,"DM Office_Kasipur, Samastipur - BSPCB",19-03-2026 08:00:00,25.859655,85.77944,CO,2,8,6
India,Bihar,Sasaram,"Dada Peer, Sasaram - BSPCB",19-03-2026 08:00:00,24.952822,84.002396,PM2.5,32,68,50
India,Bihar,Siwan,"Chitragupta Nagar, Siwan - BSPCB",19-03-2026 08:00:00,26.2271665,84.3570427,PM10,77,151,107
India,Bihar,Siwan,"Chitragupta Nagar, Siwan - BSPCB",19-03-2026 08:00:00,26.2271665,84.3570427,CO,59,118,59
India,Chandigarh,Chandigarh,"Sector 22, Chandigarh - CPCC",19-03-2026 08:00:00,30.735567,76.775714,OZONE,5,91,10
India,Chandigarh,Chandigarh,"Sector-53, Chandigarh - CPCC",19-03-2026 08:00:00,30.719859,76.738637,CO,4,66,22
India,Chhattisgarh,Bhilai,"32Bungalows, Bhilai - CECB",19-03-2026 08:00:00,21.194815,81.314770,PM10,8,26,16
India,Chhattisgarh,Bhilai,"Civic Center, Bhilai - Bhilai Steel Plant",19-03-2026 08:00:00,21.185571,81.343175,PM2.5,1,34,12
India,Chhattisgarh,Bilaspur,"Mangala, Bilaspur - NTPC",19-03-2026 08:00:00,22.08815,82.13737,PM2.5,29,108,47
India,Chhattisgarh,Bilaspur,"Mangala, Bilaspur - NTPC",19-03-2026 08:00:00,22.08815,82.13737,PM10,48,115,64
India,Chhattisgarh,Bilaspur,"Mangala, Bilaspur - NTPC",19-03-2026 08:00:00,22.08815,82.13737,NO2,23,34,28
India,Chhattisgarh,Bilaspur,"Mangala, Bilaspur - NTPC",19-03-2026 08:00:00,22.08815,82.13737,SO2,1,22,16
India,Chhattisgarh,Chhal,"Nawapara SECL Colony, Chhal - CECB",19-03-2026 08:00:00,22.118125,83.140608,PM10,18,136,56
India,Chhattisgarh,Chhal,"Nawapara SECL Colony, Chhal - CECB",19-03-2026 08:00:00,22.118125,83.140608,OZONE,81,85,81
India,Chhattisgarh,Korba,"Rampur, Korba - CECB",19-03-2026 08:00:00,22.368195,82.746431,NO2,12,44,23
India,Chhattisgarh,Kunjemura,"OP Jindal School, Kunjemura - CECB",19-03-2026 08:00:00,22.126650,83.483212,PM2.5,25,102,55
India,Chhattisgarh,Kunjemura,"OP Jindal School, Kunjemura - CECB",19-03-2026 08:00:00,22.126650,83.483212,NH3,2,2,2
India,Chhattisgarh,Milupara,"Govt. Higher Secondary School, Milupara - CECB",19-03-2026 08:00:00,22.1910172,83.5197009,NO2,32,96,56
India,Delhi,Delhi,"Chandni Chowk, Delhi - IITM",19-03-2026 08:00:00,28.656756,77.227234,PM2.5,81,323,171
India,Delhi,Delhi,"DTU, Delhi - CPCB",19-03-2026 08:00:00,28.7500499,77.1112615,NO2,35,70,44
India,Delhi,Delhi,"Dr. Karni Singh Shooting Range, Delhi - DPCC",19-03-2026 08:00:00,28.498571,77.264840,CO,49,84,64
India,Delhi,Delhi,"Dwarka-Sector 8, Delhi - DPCC ",19-03-2026 08:00:00,28.5710274,77.0719006,PM10,52,457,162
India,Delhi,Delhi,"Dwarka-Sector 8, Delhi - DPCC ",19-03-2026 08:00:00,28.5710274,77.0719006,NO2,46,84,67
India,Delhi,Delhi,"Dwarka-Sector 8, Delhi - DPCC ",19-03-2026 08:00:00,28.5710274,77.0719006,NH3,12,20,14
India,Delhi,Delhi,"Dwarka-Sector 8, Delhi - DPCC ",19-03-2026 08:00:00,28.5710274,77.0719006,CO,42,84,53
India,Delhi,Delhi,"NSUT Jaffarpur, Delhi - DPCC",19-03-2026 08:00:00,28.594004 ,76.909423 ,NO2,8,72,35
India,Delhi,Delhi,"Najafgarh, Delhi - DPCC",19-03-2026 08:00:00,28.570173,76.933762,PM2.5,NA,NA,NA
India,Delhi,Delhi,"Narela, Delhi - DPCC",19-03-2026 08:00:00,28.822836,77.101981,NH3,6,13,7
India,Delhi,Delhi,"Nehru Nagar, Delhi - DPCC",19-03-2026 08:00:00,28.567890,77.250515,PM2.5,30,302,144
India,Delhi,Delhi,"Nehru Nagar, Delhi - DPCC",19-03-2026 08:00:00,28.567890,77.250515,PM10,48,334,144
India,Delhi,Delhi,"North Campus, DU, Delhi - IMD",19-03-2026 08:00:00,28.6573814,77.1585447,NO2,32,132,81
India,Haryana,Bhiwani,"H.B. Colony, Bhiwani - HSPCB",19-03-2026 08:00:00,28.806223,76.141105,OZONE,1,15,6
India,Haryana,Charkhi Dadri,"Mini Secretariat, Charkhi Dadri - HSPCB",19-03-2026 08:00:00,28.593883,76.270653,PM10,1,336,95
India,Haryana,Dharuhera,"Municipal Corporation Office, Dharuhera -  HSPCB",19-03-2026 08:00:00,28.206800,76.799700,NO2,14,54,38
India,Haryana,Dharuhera,"Municipal Corporation Office, Dharuhera -  HSPCB",19-03-2026 08:00:00,28.206800,76.799700,OZONE,14,44,25
India,Haryana,Faridabad,"New Industrial Town, Faridabad - HSPCB",19-03-2026 08:00:00,28.39072,77.30059,PM10,130,138,134
India,Haryana,Faridabad,"New Industrial Town, Faridabad - HSPCB",19-03-2026 08:00:00,28.39072,77.30059,NO2,23,26,25
India,Haryana,Faridabad,"New Industrial Town, Faridabad - HSPCB",19-03-2026 08:00:00,28.39072,77.30059,NH3,11,12,11
India,Haryana,Faridabad,"Sector 11, Faridabad - HSPCB",19-03-2026 08:00:00,28.376058,77.315741,PM2.5,38,348,195
India,Haryana,Faridabad,"Sector 11, Faridabad - HSPCB",19-03-2026 08:00:00,28.376058,77.315741,OZONE,14,16,15
India,Haryana,Faridabad,"Sector 30, Faridabad - HSPCB",19-03-2026 08:00:00,28.4417,77.3217,NO2,35,39,37
India,Gujarat,Ahmedabad,"SAC ISRO Satellite, Ahmedabad - IITM",19-03-2026 08:00:00,23.023389,72.515201,NH3,2,7,4
India,Gujarat,Ahmedabad,"SVPI Airport Hansol, Ahmedabad - IITM",19-03-2026 08:00:00,23.076793,72.627874,OZONE,3,110,18
India,Gujarat,Ankleshwar,"GIDC, Ankleshwar - GPCB",19-03-2026 08:00:00,21.613267,73.010555,NO2,22,23,22
India,Gujarat,Ankleshwar,"GIDC, Ankleshwar - GPCB",19-03-2026 08:00:00,21.613267,73.010555,CO,39,102,73
India,Gujarat,Bhavnagar,"Vidhyanagar, Bhavnagar - Nexteng Enviro",19-03-2026 08:00:00,21.755417,72.139056,PM2.5,NA,NA,NA
India,Gujarat,Bhavnagar,"Vidhyanagar, Bhavnagar - Nexteng Enviro",19-03-2026 08:00:00,21.755417,72.139056,SO2,5,117,15
India,Gujarat,Bhavnagar,"Vidhyanagar, Bhavnagar - Nexteng Enviro",19-03-2026 08:00:00,21.755417,72.139056,OZONE,3,26,4
India,Gujarat,Gandhinagar,"GIFT City, Gandhinagar - IITM",19-03-2026 08:00:00,23.163798,72.677768,NO2,18,82,41
India,Gujarat,Gandhinagar,"GIFT City, Gandhinagar - IITM",19-03-2026 08:00:00,23.163798,72.677768,NH3,5,15,8
India,Gujarat,Gandhinagar,"IIPHG Lekawada, Gandhinagar - IITM",19-03-2026 08:00:00,23.243639,72.68994,CO,4,55,24
India,Gujarat,Gandhinagar,"Sector-10, Gandhinagar - GPCB",19-03-2026 08:00:00,23.221714,72.654328,SO2,6,113,26
India,Gujarat,Mehsana,"Sadanand Nagar, Mehsana - Nexteng Enviro",19-03-2026 08:00:00,23.593150,72.372792,PM2.5,30,316,100
India,Gujarat,Mehsana,"Sadanand Nagar, Mehsana - Nexteng Enviro",19-03-2026 08:00:00,23.593150,72.372792,NO2,44,61,52
India,Gujarat,Rajkot,"Mavdi, Rajkot - Nexteng Enviro ",19-03-2026 08:00:00,22.248853,70.776774,NO2,6,37,12
India,Gujarat,Rajkot,"Mavdi, Rajkot - Nexteng Enviro ",19-03-2026 08:00:00,22.248853,70.776774,NH3,3,4,3
India,Gujarat,Surat,"Katargam, Surat - Nexteng Enviro",19-03-2026 08:00:00,21.217779 ,72.834787 ,SO2,9,19,11
India,Gujarat,Vapi,"Phase-1 GIDC, Vapi - GPCB",19-03-2026 08:00:00,20.362421,72.918013,SO2,12,25,16
India,Gujarat,Vapi,"Phase-1 GIDC, Vapi - GPCB",19-03-2026 08:00:00,20.362421,72.918013,OZONE,4,20,5
India,Gujarat,Vatva,"Phase-4 GIDC, Vatva - GPCB",19-03-2026 08:00:00,22.969611,72.643500,PM2.5,93,258,165
India,Haryana,Ambala,"Patti Mehar, Ambala - HSPCB",19-03-2026 08:00:00,30.379589,76.778328,NH3,7,8,8
India,Haryana,Ambala,"Patti Mehar, Ambala - HSPCB",19-03-2026 08:00:00,30.379589,76.778328,CO,22,49,22
India,Haryana,Bahadurgarh,"Arya Nagar, Bahadurgarh - HSPCB",19-03-2026 08:00:00,28.6701,76.9254,NO2,13,14,13
India,Haryana,Ballabgarh,"Nathu Colony, Ballabgarh - HSPCB",19-03-2026 08:00:00,28.3419248,77.319699,PM10,NA,NA,NA
India,Delhi,Delhi,"Talkatora Garden, Delhi - DPCC",19-03-2026 08:00:00,28.621810,77.1944633,NH3,2,7,4
India,Delhi,Delhi,"Vivek Vihar, Delhi - DPCC",19-03-2026 08:00:00,28.672342,77.315260,PM2.5,63,419,180
India,Delhi,Delhi,"Vivek Vihar, Delhi - DPCC",19-03-2026 08:00:00,28.672342,77.315260,PM10,54,418,176
India,Delhi,Delhi,"Vivek Vihar, Delhi - DPCC",19-03-2026 08:00:00,28.672342,77.315260,NO2,26,77,45
India,Delhi,Delhi,"Wazirpur, Delhi - DPCC",19-03-2026 08:00:00,28.699793,77.165453,PM2.5,70,325,156
India,Delhi,Delhi,"Wazirpur, Delhi - DPCC",19-03-2026 08:00:00,28.699793,77.165453,NH3,9,11,10
India,Gujarat,Ahmedabad,"Maninagar, Ahmedabad - GPCB",19-03-2026 08:00:00,23.002657,72.591912,PM2.5,73,283,142
India,Gujarat,Ahmedabad,"Maninagar, Ahmedabad - GPCB",19-03-2026 08:00:00,23.002657,72.591912,CO,15,42,29
India,Gujarat,Ahmedabad,"Maninagar, Ahmedabad - GPCB",19-03-2026 08:00:00,23.002657,72.591912,OZONE,43,74,51
India,Gujarat,Ahmedabad,"Raikhad, Ahmedabad - IITM",19-03-2026 08:00:00,23.020509,72.579261,SO2,28,125,57
India,Gujarat,Ahmedabad,"Raikhad, Ahmedabad - IITM",19-03-2026 08:00:00,23.020509,72.579261,CO,6,101,27
India,Gujarat,Ahmedabad,"Rakhial, Ahmedabad - IITM",19-03-2026 08:00:00,23.016834,72.625775,NO2,41,133,87
India,Gujarat,Ahmedabad,"Rakhial, Ahmedabad - IITM",19-03-2026 08:00:00,23.016834,72.625775,SO2,15,136,75
India,Gujarat,Ahmedabad,"SAC ISRO Bopal, Ahmedabad - IITM",19-03-2026 08:00:00,23.041137,72.456691,PM2.5,64,353,122
India,Delhi,Delhi,"Okhla Phase-2, Delhi - DPCC",19-03-2026 08:00:00,28.530785,77.271255,PM10,NA,NA,NA
India,Delhi,Delhi,"Patparganj, Delhi - DPCC",19-03-2026 08:00:00,28.623763,77.287209,PM10,67,342,171
