country,state,city,station,last_update,latitude,longitude,pollutant_id,min_value,max_value,avg_value
India,Bihar,Gaya,"SFTI Kusdihra, Gaya - BSPCB",29-10-2025 07:00:00,24.762518,84.982348,CO,14,66,19
India,Bihar,Hajipur,"Industrial Area, Hajipur - BSPCB",29-10-2025 07:00:00,25.697189,85.245900,PM2.5,73,230,128
India,Bihar,Hajipur,"Industrial Area, Hajipur - BSPCB",29-10-2025 07:00:00,25.697189,85.245900,PM10,54,115,83
India,Bihar,Hajipur,"Industrial Area, Hajipur - BSPCB",29-10-2025 07:00:00,25.697189,85.245900,NO2,5,11,7
India,Bihar,Katihar,"Mirchaibari, Katihar - BSPCB",29-10-2025 07:00:00,25.560083,87.553265,PM10,13,72,34
India,Bihar,Katihar,"Mirchaibari, Katihar - BSPCB",29-10-2025 07:00:00,25.560083,87.553265,SO2,17,26,22
India,Bihar,Katihar,"Mirchaibari, Katihar - BSPCB",29-10-2025 07:00:00,25.560083,87.553265,CO,70,101,88
India,Bihar,Kishanganj,"SDM Office_Khagra, Kishanganj - BSPCB",29-10-2025 07:00:00,26.0881305,87.93840336,PM2.5,25,127,58
India,Bihar,Manguraha,"Forest Rest House, Manguraha - BSPCB",29-10-2025 07:00:00,27.308328,84.531742,PM2.5,30,98,56
India,Bihar,Manguraha,"Forest Rest House, Manguraha - BSPCB",29-10-2025 07:00:00,27.308328,84.531742,OZONE,6,23,12
India,Bihar,Motihari,"Gandak Colony, Motihari - BSPCB",29-10-2025 07:00:00,26.63086,84.90051,PM2.5,17,25,20
India,Bihar,Motihari,"Gandak Colony, Motihari - BSPCB",29-10-2025 07:00:00,26.63086,84.90051,NO2,6,7,7
India,Bihar,Motihari,"Gandak Colony, Motihari - BSPCB",29-10-2025 07:00:00,26.63086,84.90051,CO,25,33,31
India,Bihar,Munger,"Town Hall, Munger - BSPCB",29-10-2025 07:00:00,25.376776,86.471523,OZONE,10,12,11
India,Bihar,Bhagalpur,"Mayaganj, Bhagalpur - BSPCB",29-10-2025 07:00:00,25.265194,87.012947,OZONE,1,47,19
India,Bihar,Chhapra,"Darshan Nagar, Chhapra - BSPCB",29-10-2025 07:00:00,25.7808257,84.7446768,PM2.5,42,88,57
India,Bihar,Chhapra,"Darshan Nagar, Chhapra - BSPCB",29-10-2025 07:00:00,25.7808257,84.7446768,NH3,9,11,10
India,Bihar,Chhapra,"Darshan Nagar, Chhapra - BSPCB",29-10-2025 07:00:00,25.7808257,84.7446768,SO2,19,23,21
India,Bihar,Gaya,"Collectorate, Gaya - BSPCB",29-10-2025 07:00:00,24.7955,84.9994,NO2,9,9,9
India,Bihar,Gaya,"Collectorate, Gaya - BSPCB",29-10-2025 07:00:00,24.7955,84.9994,CO,41,52,44
India,Assam,Silchar,"Tarapur, Silchar - PCBA",29-10-2025 07:00:00,24.82827,92.79525,NO2,18,20,19
India,Assam,Silchar,"Tarapur, Silchar - PCBA",29-10-2025 07:00:00,24.82827,92.79525,NH3,1,1,1
India,Bihar,Araria,"Kharahiya Basti, Araria - BSPCB",29-10-2025 07:00:00,26.146529,87.454184,PM2.5,31,302,91
India,Bihar,Araria,"Kharahiya Basti, Araria - BSPCB",29-10-2025 07:00:00,26.146529,87.454184,NO2,2,61,22
India,Bihar,Arrah,"New DM Office, Arrah - BSPCB",29-10-2025 07:00:00,25.5626095,84.663264,NH3,1,1,1
India,Bihar,Arrah,"New DM Office, Arrah - BSPCB",29-10-2025 07:00:00,25.5626095,84.663264,CO,40,66,51
India,Andhra_Pradesh,Tirupati,"Vaikuntapuram, Tirupati - APPCB",29-10-2025 07:00:00,13.615387,79.409230,CO,24,31,25
India,Andhra_Pradesh,Vijayawada,"HB Colony, Vijayawada - APPCB",29-10-2025 07:00:00,16.536107,80.594233,CO,20,38,20
India,Andhra_Pradesh,Vijayawada,"Rajiv Gandhi Park, Vijayawada - APPCB",29-10-2025 07:00:00,16.509717,80.612222,NO2,23,31,26
India,Andhra_Pradesh,Vijayawada,"Rajiv Gandhi Park, Vijayawada - APPCB",29-10-2025 07:00:00,16.509717,80.612222,CO,28,31,31
India,Andhra_Pradesh,Vijayawada,"Rajiv Nagar, Vijayawada - APPCB",29-10-2025 07:00:00,16.554731,80.649110,PM2.5,NA,NA,NA
India,Andhra_Pradesh,Vijayawada,"Rajiv Nagar, Vijayawada - APPCB",29-10-2025 07:00:00,16.554731,80.649110,SO2,NA,NA,NA
India,Andhra_Pradesh,Anantapur,"Gulzarpet, Anantapur - APPCB",29-10-2025 07:00:00,14.675886,77.593027,CO,16,53,18
India,Andhra_Pradesh,Chittoor,"Gangineni Cheruvu, Chittoor - APPCB",29-10-2025 07:00:00,13.204880,79.097889,CO,NA,NA,NA
India,Andhra_Pradesh,Rajamahendravaram,"Anand Kala Kshetram, Rajamahendravaram - APPCB",29-10-2025 07:00:00,16.9872867,81.7363176,NH3,1,3,2
India,Andhra_Pradesh,Rajamahendravaram,"Anand Kala Kshetram, Rajamahendravaram - APPCB",29-10-2025 07:00:00,16.9872867,81.7363176,SO2,1,34,7
India,Assam,Guwahati,"LGBI Airport, Guwahati - PCBA",29-10-2025 07:00:00,26.10887,91.589544,NH3,6,6,6
India,Assam,Guwahati,"Pan Bazaar, Guwahati - PCBA",29-10-2025 07:00:00,26.187500,91.744194,PM10,21,87,47
India,Assam,Guwahati,"Railway Colony, Guwahati - PCBA",29-10-2025 07:00:00,26.181742,91.78063,PM2.5,NA,NA,NA
India,Assam,Silchar,"Tarapur, Silchar - PCBA",29-10-2025 07:00:00,24.82827,92.79525,PM2.5,33,92,59
India,Bihar,Aurangabad,"Gurdeo Nagar, Aurangabad - BSPCB",29-10-2025 07:00:00,24.75746,84.366208,OZONE,12,27,13
India,Bihar,Begusarai,"Lohiyanagar, Begusarai - BSPCB",29-10-2025 07:00:00,25.42742023,86.13886079,SO2,44,72,55
India,Bihar,Bhagalpur,"Mayaganj, Bhagalpur - BSPCB",29-10-2025 07:00:00,25.265194,87.012947,NO2,44,59,58
India,Bihar,Bhagalpur,"Mayaganj, Bhagalpur - BSPCB",29-10-2025 07:00:00,25.265194,87.012947,SO2,18,46,32
India,Assam,Byrnihat,"Central Academy for SFS, Byrnihat - PCBA",29-10-2025 07:00:00,26.071318,91.87488,OZONE,NA,NA,NA
India,Assam,Guwahati,"IITG, Guwahati - PCBA",29-10-2025 07:00:00,26.2028636,91.70046436,CO,6,20,16
India,Assam,Guwahati,"LGBI Airport, Guwahati - PCBA",29-10-2025 07:00:00,26.10887,91.589544,NO2,12,23,15
India,Andhra_Pradesh,Amaravati,"Secretariat, Amaravati - APPCB",29-10-2025 07:00:00,16.5150833,80.5181667,PM2.5,2,43,10
India,Andhra_Pradesh,Amaravati,"Secretariat, Amaravati - APPCB",29-10-2025 07:00:00,16.5150833,80.5181667,NH3,5,5,5
India,Chhattisgarh,Bilaspur,"Mangala, Bilaspur - NTPC",29-10-2025 07:00:00,22.08815,82.13737,PM10,19,89,61
India,Chhattisgarh,Bilaspur,"Mangala, Bilaspur - NTPC",29-10-2025 07:00:00,22.08815,82.13737,CO,37,42,41
India,Chhattisgarh,Chhal,"Nawapara SECL Colony, Chhal - CECB",29-10-2025 07:00:00,22.118125,83.140608,PM2.5,5,30,18
India,Chhattisgarh,Chhal,"Nawapara SECL Colony, Chhal - CECB",29-10-2025 07:00:00,22.118125,83.140608,NH3,6,6,6
India,Chhattisgarh,Chhal,"Nawapara SECL Colony, Chhal - CECB",29-10-2025 07:00:00,22.118125,83.140608,SO2,3,35,11
India,Chhattisgarh,Chhal,"Nawapara SECL Colony, Chhal - CECB",29-10-2025 07:00:00,22.118125,83.140608,CO,17,26,19
India,Chhattisgarh,Korba,"Rampur, Korba - CECB",29-10-2025 07:00:00,22.368195,82.746431,PM10,45,68,53
India,Chhattisgarh,Korba,"Rampur, Korba - CECB",29-10-2025 07:00:00,22.368195,82.746431,SO2,7,11,9
India,Chhattisgarh,Korba,"Urja Nagar, Korba - CECB",29-10-2025 07:00:00,22.348441,82.549611,CO,12,24,14
India,Bihar,Patna,"Samanpura, Patna - BSPCB",29-10-2025 07:00:00,25.596727,85.085624,CO,40,56,48
India,Bihar,Patna,"Samanpura, Patna - BSPCB",29-10-2025 07:00:00,25.596727,85.085624,OZONE,31,44,35
India,Bihar,Purnia,"Mariam Nagar, Purnia - BSPCB",29-10-2025 07:00:00,25.366336,87.117468,CO,56,60,59
India,Bihar,Purnia,"Mariam Nagar, Purnia - BSPCB",29-10-2025 07:00:00,25.366336,87.117468,OZONE,15,37,20
India,Bihar,Rajgir,"Dangi Tola, Rajgir - BSPCB",29-10-2025 07:00:00,25.03280,85.41948,PM2.5,12,93,54
India,Bihar,Saharsa,"Police Line, Saharsa - BSPCB",29-10-2025 07:00:00,25.892357,86.590325,PM2.5,3,98,43
India,Bihar,Samastipur,"DM Office_Kasipur, Samastipur - BSPCB",29-10-2025 07:00:00,25.859655,85.77944,PM2.5,25,75,43
India,Bihar,Muzaffarpur,"Buddha Colony, Muzaffarpur - BSPCB",29-10-2025 07:00:00,26.11442,85.39813,PM2.5,68,302,130
India,Bihar,Muzaffarpur,"Buddha Colony, Muzaffarpur - BSPCB",29-10-2025 07:00:00,26.11442,85.39813,SO2,3,5,4
India,Bihar,Muzaffarpur,"Muzaffarpur Collectorate, Muzaffarpur - BSPCB",29-10-2025 07:00:00,26.1209,85.3647,CO,6,24,13
India,Bihar,Muzaffarpur,"Muzaffarpur Collectorate, Muzaffarpur - BSPCB",29-10-2025 07:00:00,26.1209,85.3647,OZONE,10,43,11
India,Bihar,Patna,"DRM Office Danapur, Patna - BSPCB",29-10-2025 07:00:00,25.586562,85.043586,PM2.5,75,168,99
India,Bihar,Patna,"Govt. High School Shikarpur, Patna - BSPCB",29-10-2025 07:00:00,25.592539,85.227158,PM10,54,103,77
India,Bihar,Patna,"Govt. High School Shikarpur, Patna - BSPCB",29-10-2025 07:00:00,25.592539,85.227158,NH3,6,6,6
India,Delhi,Delhi,"Ashok Vihar, Delhi - DPCC",29-10-2025 07:00:00,28.695381,77.181665,NO2,27,116,58
India,Delhi,Delhi,"Ashok Vihar, Delhi - DPCC",29-10-2025 07:00:00,28.695381,77.181665,SO2,15,25,22
India,Delhi,Delhi,"Ashok Vihar, Delhi - DPCC",29-10-2025 07:00:00,28.695381,77.181665,OZONE,2,111,7
India,Delhi,Delhi,"Aya Nagar, Delhi - IMD",29-10-2025 07:00:00,28.4706914,77.1099364,PM2.5,91,329,220
India,Delhi,Delhi,"Aya Nagar, Delhi - IMD",29-10-2025 07:00:00,28.4706914,77.1099364,PM10,111,273,173
India,Delhi,Delhi,"Bawana, Delhi - DPCC",29-10-2025 07:00:00,28.776200,77.051074,NO2,11,86,36
India,Delhi,Delhi,"Bawana, Delhi - DPCC",29-10-2025 07:00:00,28.776200,77.051074,NH3,8,9,8
India,Delhi,Delhi,"Burari Crossing, Delhi - IMD",29-10-2025 07:00:00,28.7256504,77.2011573,PM2.5,125,356,283
India,Chhattisgarh,Raipur,"Krishak Nagar, Raipur - CECB",29-10-2025 07:00:00,21.237755,81.705301,SO2,7,9,8
India,Chhattisgarh,Raipur,"Krishak Nagar, Raipur - CECB",29-10-2025 07:00:00,21.237755,81.705301,OZONE,2,2,2
India,Chhattisgarh,Raipur,"Siltara Phase-II, Raipur - CECB",29-10-2025 07:00:00,21.371751,81.664929,PM2.5,14,50,30
India,Chhattisgarh,Raipur,"Siltara Phase-II, Raipur - CECB",29-10-2025 07:00:00,21.371751,81.664929,OZONE,4,7,5
India,Chhattisgarh,Tumidih,"OP Jindal Industrial Park, Tumidih - CECB",29-10-2025 07:00:00,22.06631475,83.33820077,PM10,20,45,36
India,Delhi,Delhi,"Anand Vihar, Delhi - DPCC",29-10-2025 07:00:00,28.647622,77.3158090,PM2.5,203,383,307
India,Chandigarh,Chandigarh,"Sector-25, Chandigarh - CPCC",29-10-2025 07:00:00,30.751462,76.762879,OZONE,3,63,8
India,Chhattisgarh,Bhilai,"32Bungalows, Bhilai - CECB",29-10-2025 07:00:00,21.194815,81.314770,PM10,23,34,30
India,Chhattisgarh,Bhilai,"Civic Center, Bhilai - Bhilai Steel Plant",29-10-2025 07:00:00,21.185571,81.343175,PM10,34,56,44
India,Chhattisgarh,Bhilai,"Civic Center, Bhilai - Bhilai Steel Plant",29-10-2025 07:00:00,21.185571,81.343175,NO2,7,14,11
India,Chhattisgarh,Bhilai,"Civic Center, Bhilai - Bhilai Steel Plant",29-10-2025 07:00:00,21.185571,81.343175,OZONE,4,13,9
India,Chhattisgarh,Bhilai,"Hathkhoj, Bhilai - CECB",29-10-2025 07:00:00,21.224231,81.408350,NH3,4,4,4
India,Bihar,Patna,"IGSC Planetarium Complex, Patna - BSPCB",29-10-2025 07:00:00,25.610369,85.132568,OZONE,49,93,49
India,Bihar,Patna,"Muradpur, Patna - BSPCB",29-10-2025 07:00:00,25.619651,85.147382,PM10,75,124,96
India,Bihar,Patna,"Rajbansi Nagar, Patna - BSPCB",29-10-2025 07:00:00,25.599486,85.113666,PM2.5,56,103,75
India,Bihar,Patna,"Rajbansi Nagar, Patna - BSPCB",29-10-2025 07:00:00,25.599486,85.113666,CO,23,44,31
India,Bihar,Patna,"Samanpura, Patna - BSPCB",29-10-2025 07:00:00,25.596727,85.085624,PM10,118,371,166
India,Chhattisgarh,Kunjemura,"OP Jindal School, Kunjemura - CECB",29-10-2025 07:00:00,22.126650,83.483212,SO2,4,12,9
India,Chhattisgarh,Milupara,"Govt. Higher Secondary School, Milupara - CECB",29-10-2025 07:00:00,22.1910172,83.5197009,SO2,NA,NA,NA
India,Chhattisgarh,Raipur,"AIIMS, Raipur - CECB",29-10-2025 07:00:00,21.258815,81.578979,PM2.5,10,34,22
India,Bihar,Samastipur,"DM Office_Kasipur, Samastipur - BSPCB",29-10-2025 07:00:00,25.859655,85.77944,CO,NA,NA,NA
India,Chandigarh,Chandigarh,"Sector 22, Chandigarh - CPCC",29-10-2025 07:00:00,30.735567,76.775714,PM2.5,100,293,205
India,Chandigarh,Chandigarh,"Sector 22, Chandigarh - CPCC",29-10-2025 07:00:00,30.735567,76.775714,NO2,26,181,63
India,Delhi,Delhi,"Jawaharlal Nehru Stadium, Delhi - DPCC",29-10-2025 07:00:00,28.580280,77.233829,OZONE,3,142,7
India,Delhi,Delhi,"Lodhi Road, Delhi - IITM",29-10-2025 07:00:00,28.588333,77.221667,PM2.5,89,303,219
India,Delhi,Delhi,"Lodhi Road, Delhi - IMD",29-10-2025 07:00:00,28.5918245,77.2273074,PM10,118,253,174
India,Delhi,Delhi,"Major Dhyan Chand National Stadium, Delhi - DPCC",29-10-2025 07:00:00,28.611281,77.237738,CO,43,92,60
India,Delhi,Delhi,"Mandir Marg, Delhi - DPCC",29-10-2025 07:00:00,28.636429,77.201067,PM2.5,133,385,276
India,Delhi,Delhi,"Mandir Marg, Delhi - DPCC",29-10-2025 07:00:00,28.636429,77.201067,NH3,3,7,4
India,Delhi,Delhi,"Mundka, Delhi - DPCC",29-10-2025 07:00:00,28.684678,77.076574,PM2.5,193,372,315
India,Delhi,Delhi,"DTU, Delhi - CPCB",29-10-2025 07:00:00,28.7500499,77.1112615,PM2.5,64,210,134
India,Delhi,Delhi,"DTU, Delhi - CPCB",29-10-2025 07:00:00,28.7500499,77.1112615,NH3,8,16,12
India,Delhi,Delhi,"DTU, Delhi - CPCB",29-10-2025 07:00:00,28.7500499,77.1112615,SO2,31,36,34
India,Delhi,Delhi,"DTU, Delhi - CPCB",29-10-2025 07:00:00,28.7500499,77.1112615,OZONE,14,19,17
India,Delhi,Delhi,"Dr. Karni Singh Shooting Range, Delhi - DPCC",29-10-2025 07:00:00,28.498571,77.264840,PM10,99,284,170
India,Delhi,Delhi,"Dwarka-Sector 8, Delhi - DPCC ",29-10-2025 07:00:00,28.5710274,77.0719006,PM10,134,320,207
India,Delhi,Delhi,"Dwarka-Sector 8, Delhi - DPCC ",29-10-2025 07:00:00,28.5710274,77.0719006,NO2,42,140,87
India,Delhi,Delhi,"Dwarka-Sector 8, Delhi - DPCC ",29-10-2025 07:00:00,28.5710274,77.0719006,CO,53,104,64
India,Delhi,Delhi,"Pusa, Delhi - DPCC",29-10-2025 07:00:00,28.639652,77.146275,PM2.5,157,363,292
India,Delhi,Delhi,"Pusa, Delhi - DPCC",29-10-2025 07:00:00,28.639652,77.146275,NO2,20,104,43
India,Delhi,Delhi,"Pusa, Delhi - DPCC",29-10-2025 07:00:00,28.639652,77.146275,OZONE,5,81,5
India,Delhi,Delhi,"Pusa, Delhi - IMD",29-10-2025 07:00:00,28.636110,77.173332,PM2.5,128,339,257
India,Delhi,Delhi,"R K Puram, Delhi - DPCC",29-10-2025 07:00:00,28.563262,77.186937,PM2.5,193,375,308
India,Delhi,Delhi,"Rohini, Delhi - DPCC",29-10-2025 07:00:00,28.732528,77.119920,PM2.5,230,411,322
India,Delhi,Delhi,"Rohini, Delhi - DPCC",29-10-2025 07:00:00,28.732528,77.119920,CO,12,48,27
India,Delhi,Delhi,"Nehru Nagar, Delhi - DPCC",29-10-2025 07:00:00,28.567890,77.250515,PM10,111,311,190
India,Delhi,Delhi,"North Campus, DU, Delhi - IMD",29-10-2025 07:00:00,28.6573814,77.1585447,CO,10,102,37
India,Delhi,Delhi,"Patparganj, Delhi - DPCC",29-10-2025 07:00:00,28.623763,77.287209,NH3,11,15,12
India,Delhi,Delhi,"Patparganj, Delhi - DPCC",29-10-2025 07:00:00,28.623763,77.287209,OZONE,3,132,9
India,Delhi,Delhi,"Punjabi Bagh, Delhi - DPCC",29-10-2025 07:00:00,28.674045,77.131023,PM2.5,177,362,300
India,Delhi,Delhi,"Sirifort, Delhi - CPCB",29-10-2025 07:00:00,28.5504249,77.2159377,CO,36,79,49
India,Delhi,Delhi,"Sonia Vihar, Delhi - DPCC",29-10-2025 07:00:00,28.710508,77.249485,PM10,129,271,181
India,Delhi,Delhi,"Sonia Vihar, Delhi - DPCC",29-10-2025 07:00:00,28.710508,77.249485,NO2,23,78,43
India,Delhi,Delhi,"Sri Aurobindo Marg, Delhi - DPCC",29-10-2025 07:00:00,28.531346,77.190156,NH3,4,7,5
India,Delhi,Delhi,"Sri Aurobindo Marg, Delhi - DPCC",29-10-2025 07:00:00,28.531346,77.190156,SO2,5,21,10
India,Delhi,Delhi,"Vivek Vihar, Delhi - DPCC",29-10-2025 07:00:00,28.672342,77.315260,PM10,112,282,184
India,Delhi,Delhi,"Vivek Vihar, Delhi - DPCC",29-10-2025 07:00:00,28.672342,77.315260,CO,16,101,85
India,Delhi,Delhi,"Wazirpur, Delhi - DPCC",29-10-2025 07:00:00,28.699793,77.165453,NH3,10,11,11
India,Gujarat,Ahmedabad,"Maninagar, Ahmedabad - GPCB",29-10-2025 07:00:00,23.002657,72.591912,PM2.5,9,93,41
India,Gujarat,Ahmedabad,"Maninagar, Ahmedabad - GPCB",29-10-2025 07:00:00,23.002657,72.591912,OZONE,39,62,45
India,Gujarat,Ahmedabad,"Raikhad, Ahmedabad - IITM",29-10-2025 07:00:00,23.020509,72.579261,NH3,10,12,10
India,Gujarat,Ahmedabad,"SAC ISRO Satellite, Ahmedabad - IITM",29-10-2025 07:00:00,23.023389,72.515201,PM2.5,5,20,11
India,Gujarat,Ahmedabad,"SAC ISRO Satellite, Ahmedabad - IITM",29-10-2025 07:00:00,23.023389,72.515201,PM10,8,35,18
India,Delhi,Delhi,"IHBAS, Dilshad Garden, Delhi - CPCB",29-10-2025 07:00:00,28.6811736,77.3025234,NH3,4,5,4
India,Delhi,Delhi,"IHBAS, Dilshad Garden, Delhi - CPCB",29-10-2025 07:00:00,28.6811736,77.3025234,SO2,4,14,10
India,Delhi,Delhi,"IHBAS, Dilshad Garden, Delhi - CPCB",29-10-2025 07:00:00,28.6811736,77.3025234,OZONE,2,67,4
India,Delhi,Delhi,"ITO, Delhi - CPCB",29-10-2025 07:00:00,28.628624,77.241060,PM10,107,245,153
India,Delhi,Delhi,"Najafgarh, Delhi - DPCC",29-10-2025 07:00:00,28.570173,76.933762,NO2,79,126,99
India,Delhi,Delhi,"Najafgarh, Delhi - DPCC",29-10-2025 07:00:00,28.570173,76.933762,OZONE,6,33,7
India,Karnataka,Belgaum,"Ramteerth Nagar, Belgaum - KSPCB",29-10-2025 07:00:00,15.888653,74.541751,OZONE,18,19,19
India,Karnataka,Bengaluru,"BWSSB Kadabesanahalli, Bengaluru - CPCB",29-10-2025 07:00:00,12.9352049,77.6814488,SO2,NA,NA,NA
India,Karnataka,Bengaluru,"BWSSB Kadabesanahalli, Bengaluru - CPCB",29-10-2025 07:00:00,12.9352049,77.6814488,CO,88,100,99
India,Karnataka,Bengaluru,"Bapuji Nagar, Bengaluru - KSPCB",29-10-2025 07:00:00,12.951913,77.539784,NO2,4,9,7
India,Karnataka,Bengaluru,"Bapuji Nagar, Bengaluru - KSPCB",29-10-2025 07:00:00,12.951913,77.539784,NH3,1,1,1
India,Karnataka,Bengaluru,"Bapuji Nagar, Bengaluru - KSPCB",29-10-2025 07:00:00,12.951913,77.539784,CO,10,54,26
India,Karnataka,Bengaluru,"Bapuji Nagar, Bengaluru - KSPCB",29-10-2025 07:00:00,12.951913,77.539784,OZONE,1,20,4
India,Karnataka,Bengaluru,"City Railway Station, Bengaluru - KSPCB",29-10-2025 07:00:00,12.9756843,77.5660749,PM10,91,100,94
India,Karnataka,Bengaluru,"City Railway Station, Bengaluru - KSPCB",29-10-2025 07:00:00,12.9756843,77.5660749,NO2,42,46,44
India,Haryana,Sonipat,"Murthal, Sonipat - HSPCB",29-10-2025 07:00:00,29.027200,77.062100,CO,NA,NA,NA
India,Himachal Pradesh,Baddi,"HIMUDA Complex Phase-1, Baddi - HPPCB",29-10-2025 07:00:00,30.943887,76.801991,SO2,23,92,34
India,Himachal Pradesh,Baddi,"HIMUDA Complex Phase-1, Baddi - HPPCB",29-10-2025 07:00:00,30.943887,76.801991,OZONE,21,216,81
India,Jammu_and_Kashmir,Srinagar,"Rajbagh, Srinagar - JKSPCB",29-10-2025 07:00:00,34.066206,74.819820,OZONE,NA,NA,NA
India,Jharkhand,Dhanbad,"Sardar Patel Nagar, Dhanbad - JSPCB",29-10-2025 07:00:00,23.80569,86.44268,PM2.5,4,88,39
India,Jharkhand,Jorapokhar,"Tata Stadium, Jorapokhar - JSPCB",29-10-2025 07:00:00,23.707909,86.414670,PM10,NA,NA,NA
India,Jharkhand,Jorapokhar,"Tata Stadium, Jorapokhar - JSPCB",29-10-2025 07:00:00,23.707909,86.414670,SO2,NA,NA,NA
India,Gujarat,Gandhinagar,"IIPHG Lekawada, Gandhinagar - IITM",29-10-2025 07:00:00,23.243639,72.68994,OZONE,9,19,15
India,Gujarat,Gandhinagar,"Sector-10, Gandhinagar - GPCB",29-10-2025 07:00:00,23.221714,72.654328,PM10,41,41,41
India,Gujarat,Gandhinagar,"Sector-10, Gandhinagar - GPCB",29-10-2025 07:00:00,23.221714,72.654328,NO2,15,16,16
India,Gujarat,Gandhinagar,"Sector-10, Gandhinagar - GPCB",29-10-2025 07:00:00,23.221714,72.654328,OZONE,14,30,25
India,Gujarat,Surat,"Science Center, Surat - SMC",29-10-2025 07:00:00,21.170046,72.795405,CO,34,36,36
India,Gujarat,Vapi,"Phase-1 GIDC, Vapi - GPCB",29-10-2025 07:00:00,20.362421,72.918013,NO2,13,14,14
India,Gujarat,Vatva,"Phase-4 GIDC, Vatva - GPCB",29-10-2025 07:00:00,22.969611,72.643500,PM2.5,16,34,26
India,Haryana,Charkhi Dadri,"Mini Secretariat, Charkhi Dadri - HSPCB",29-10-2025 07:00:00,28.593883,76.270653,PM2.5,181,342,304
India,Haryana,Dharuhera,"Municipal Corporation Office, Dharuhera -  HSPCB",29-10-2025 07:00:00,28.206800,76.799700,NO2,14,50,38
India,Haryana,Dharuhera,"Municipal Corporation Office, Dharuhera -  HSPCB",29-10-2025 07:00:00,28.206800,76.799700,NH3,9,26,19
India,Haryana,Faridabad,"Sector 11, Faridabad - HSPCB",29-10-2025 07:00:00,28.376058,77.315741,PM10,NA,NA,NA
India,Haryana,Faridabad,"Sector 30, Faridabad - HSPCB",29-10-2025 07:00:00,28.4417,77.3217,PM10,NA,NA,NA
India,Haryana,Faridabad,"Sector 30, Faridabad - HSPCB",29-10-2025 07:00:00,28.4417,77.3217,NO2,NA,NA,NA
India,Haryana,Faridabad,"Sector 30, Faridabad - HSPCB",29-10-2025 07:00:00,28.4417,77.3217,NH3,NA,NA,NA
India,Haryana,Gurugram,"NISE Gwal Pahari, Gurugram - IMD",29-10-2025 07:00:00,28.422681,77.148944,NO2,NA,NA,NA
India,Haryana,Gurugram,"NISE Gwal Pahari, Gurugram - IMD",29-10-2025 07:00:00,28.422681,77.148944,OZONE,NA,NA,NA
India,Haryana,Gurugram,"Vikas Sadan, Gurugram - HSPCB",29-10-2025 07:00:00,28.4501238,77.0263051,PM2.5,107,174,150
India,Haryana,Gurugram,"Vikas Sadan, Gurugram - HSPCB",29-10-2025 07:00:00,28.4501238,77.0263051,CO,99,141,119
India,Haryana,Jind,"Police Lines, Jind - HSPCB",29-10-2025 07:00:00,29.307814,76.337619,NO2,11,15,13
India,Haryana,Kaithal,"Rishi Nagar, Kaithal - HSPCB",29-10-2025 07:00:00,29.8006,76.4155,PM10,7,177,78
India,Gujarat,Ahmedabad,"SVPI Airport Hansol, Ahmedabad - IITM",29-10-2025 07:00:00,23.076793,72.627874,NH3,2,2,2
India,Gujarat,Ankleshwar,"GIDC, Ankleshwar - GPCB",29-10-2025 07:00:00,21.613267,73.010555,NO2,23,29,27
India,Gujarat,Ankleshwar,"GIDC, Ankleshwar - GPCB",29-10-2025 07:00:00,21.613267,73.010555,OZONE,34,75,38
India,Gujarat,Gandhinagar,"GIFT City, Gandhinagar - IITM",29-10-2025 07:00:00,23.163798,72.677768,PM2.5,2,20,9
India,Gujarat,Gandhinagar,"GIFT City, Gandhinagar - IITM",29-10-2025 07:00:00,23.163798,72.677768,OZONE,20,39,31
India,Gujarat,Gandhinagar,"IIPHG Lekawada, Gandhinagar - IITM",29-10-2025 07:00:00,23.243639,72.68994,SO2,5,8,7
India,Haryana,Panchgaon,"Amity University, Panchgaon - IITM",29-10-2025 07:00:00,28.3153,76.9143,PM10,11,141,72
India,Haryana,Panchkula,"Sector-6, Panchkula - HSPCB ",29-10-2025 07:00:00,30.7057778,76.8531805555555,CO,15,21,19
India,Haryana,Panipat,"Sector-18, Panipat - HSPCB",29-10-2025 07:00:00,29.432304,76.972765,CO,40,60,60
India,Haryana,Sirsa,"F-Block, Sirsa - HSPCB",29-10-2025 07:00:00,29.536400,75.015800,SO2,5,9,7
India,Haryana,Ambala,"Patti Mehar, Ambala - HSPCB",29-10-2025 07:00:00,30.379589,76.778328,SO2,NA,NA,NA
India,Haryana,Ambala,"Patti Mehar, Ambala - HSPCB",29-10-2025 07:00:00,30.379589,76.778328,OZONE,NA,NA,NA
India,Haryana,Bahadurgarh,"Arya Nagar, Bahadurgarh - HSPCB",29-10-2025 07:00:00,28.6701,76.9254,PM2.5,NA,NA,NA
India,Haryana,Ballabgarh,"Nathu Colony, Ballabgarh - HSPCB",29-10-2025 07:00:00,28.3419248,77.319699,NH3,3,3,3
India,Haryana,Ballabgarh,"Nathu Colony, Ballabgarh - HSPCB",29-10-2025 07:00:00,28.3419248,77.319699,OZONE,15,16,15
India,Haryana,Kurukshetra,"Sector-7, Kurukshetra - HSPCB",29-10-2025 07:00:00,29.966942,76.875879,NH3,5,5,5
India,Haryana,Kurukshetra,"Sector-7, Kurukshetra - HSPCB",29-10-2025 07:00:00,29.966942,76.875879,CO,22,86,39
India,Haryana,Manesar,"Sector-2 IMT, Manesar - HSPCB",29-10-2025 07:00:00,28.360699,76.936090,NH3,NA,NA,NA
India,Haryana,Narnaul,"Shastri Nagar, Narnaul - HSPCB",29-10-2025 07:00:00,28.060249,76.113115,CO,32,42,39
India,Karnataka,Bengaluru,"Kasturi Nagar, Bengaluru - KSPCB",29-10-2025 07:00:00,13.003872,77.664217,NH3,5,5,5
India,Karnataka,Bengaluru,"Kasturi Nagar, Bengaluru - KSPCB",29-10-2025 07:00:00,13.003872,77.664217,OZONE,21,22,22
India,Karnataka,Bengaluru,"Peenya, Bengaluru - CPCB",29-10-2025 07:00:00,13.0270199,77.494094,CO,20,48,34
India,Karnataka,Bengaluru,"Peenya, Bengaluru - CPCB",29-10-2025 07:00:00,13.0270199,77.494094,OZONE,22,23,23
India,Karnataka,Bengaluru,"RVCE-Mailasandra, Bengaluru - KSPCB",29-10-2025 07:00:00,12.921418,77.502466,PM2.5,27,27,27
India,Karnataka,Bengaluru,"RVCE-Mailasandra, Bengaluru - KSPCB",29-10-2025 07:00:00,12.921418,77.502466,PM10,75,116,96
India,Karnataka,Bengaluru,"RVCE-Mailasandra, Bengaluru - KSPCB",29-10-2025 07:00:00,12.921418,77.502466,NO2,18,33,26
India,Karnataka,Bengaluru,"RVCE-Mailasandra, Bengaluru - KSPCB",29-10-2025 07:00:00,12.921418,77.502466,CO,22,52,29
India,Karnataka,Bengaluru,"Sanegurava Halli, Bengaluru - KSPCB",29-10-2025 07:00:00,12.990328,77.5431385,CO,10,36,25
India,Karnataka,Bengaluru,"Shivapura_Peenya, Bengaluru - KSPCB",29-10-2025 07:00:00,13.0246342,77.5080115,PM10,70,95,83
India,Karnataka,Bengaluru,"Shivapura_Peenya, Bengaluru - KSPCB",29-10-2025 07:00:00,13.0246342,77.5080115,NH3,6,6,6
India,Karnataka,Bengaluru,"Shivapura_Peenya, Bengaluru - KSPCB",29-10-2025 07:00:00,13.0246342,77.5080115,OZONE,21,22,21
India,Kerala,Thiruvananthapuram,"Plammoodu, Thiruvananthapuram - Kerala PCB",29-10-2025 07:00:00,8.5149093,76.9435879,OZONE,14,19,16
India,Kerala,Thrissur,"Corporation Ground, Thrissur - Kerala PCB",29-10-2025 07:00:00,10.532400,76.215900,NO2,7,8,8
India,Madhya Pradesh,Bhopal,"Idgah Hills, Bhopal - MPPCB",29-10-2025 07:00:00,23.264759,77.381568,PM10,103,173,130
India,Madhya Pradesh,Bhopal,"Paryavaran Parisar, Bhopal - MPPCB",29-10-2025 07:00:00,23.210494,77.425409,PM10,76,143,107
India,Madhya Pradesh,Bhopal,"Paryavaran Parisar, Bhopal - MPPCB",29-10-2025 07:00:00,23.210494,77.425409,NO2,10,26,18
India,Madhya Pradesh,Bhopal,"T T Nagar, Bhopal - MPPCB",29-10-2025 07:00:00,23.233584,77.400574,PM10,80,156,116
India,Madhya Pradesh,Damoh,"Shrivastav Colony, Damoh - MPPCB",29-10-2025 07:00:00,23.81748678,79.446246,PM2.5,16,64,35
India,Karnataka,Bengaluru,"Silk Board, Bengaluru - KSPCB",29-10-2025 07:00:00,12.917348,77.622813,PM10,69,157,114
India,Karnataka,Bengaluru,"Silk Board, Bengaluru - KSPCB",29-10-2025 07:00:00,12.917348,77.622813,NO2,11,15,13
India,Karnataka,Bengaluru,"Silk Board, Bengaluru - KSPCB",29-10-2025 07:00:00,12.917348,77.622813,NH3,2,2,2
India,Karnataka,Bidar,"Naubad, Bidar - KSPCB",29-10-2025 07:00:00,17.930306,77.482194,NH3,NA,NA,NA
India,Karnataka,Chamarajanagar,"Urban, Chamarajanagar - KSPCB",29-10-2025 07:00:00,11.55358,76.55521,OZONE,13,38,15
India,Karnataka,Chikkamagaluru,"Kalyana Nagara, Chikkamagaluru - KSPCB",29-10-2025 07:00:00,13.328028,75.797056,PM10,44,57,48
India,Karnataka,Davanagere,"Devaraj Urs Badavane, Davanagere - KSPCB",29-10-2025 07:00:00,14.475800,75.905200,NO2,10,28,19
India,Karnataka,Davanagere,"Devaraj Urs Badavane, Davanagere - KSPCB",29-10-2025 07:00:00,14.475800,75.905200,NH3,1,79,6
India,Karnataka,Hubballi,"Deshpande Nagar, Hubballi - KSPCB",29-10-2025 07:00:00,15.351773,75.140726,PM10,NA,NA,NA
India,Karnataka,Hubballi,"Deshpande Nagar, Hubballi - KSPCB",29-10-2025 07:00:00,15.351773,75.140726,NH3,NA,NA,NA
India,Karnataka,Hubballi,"Lingaraj Nagar, Hubballi - KSPCB",29-10-2025 07:00:00,15.3714823,75.1160168,PM2.5,28,48,38
India,Karnataka,Hubballi,"Lingaraj Nagar, Hubballi - KSPCB",29-10-2025 07:00:00,15.3714823,75.1160168,PM10,38,56,47
India,Karnataka,Hubballi,"Lingaraj Nagar, Hubballi - KSPCB",29-10-2025 07:00:00,15.3714823,75.1160168,NO2,7,10,8
India,Karnataka,Hubballi,"Lingaraj Nagar, Hubballi - KSPCB",29-10-2025 07:00:00,15.3714823,75.1160168,SO2,1,2,1
India,Karnataka,Hubballi,"Lingaraj Nagar, Hubballi - KSPCB",29-10-2025 07:00:00,15.3714823,75.1160168,CO,6,17,14
India,Karnataka,Koppal,"Diwator Nagar, Koppal - KSPCB",29-10-2025 07:00:00,15.347630,76.181767,PM10,41,68,53
India,Karnataka,Koppal,"Diwator Nagar, Koppal - KSPCB",29-10-2025 07:00:00,15.347630,76.181767,NO2,25,35,31
India,Karnataka,Koppal,"Diwator Nagar, Koppal - KSPCB",29-10-2025 07:00:00,15.347630,76.181767,OZONE,15,32,22
India,Karnataka,Mangalore,"Kadri, Mangalore - KSPCB",29-10-2025 07:00:00,12.889250,74.853000,NO2,3,7,5
India,Karnataka,Mysuru,"Hebbal 1st Stage, Mysuru - KSPCB",29-10-2025 07:00:00,12.21041,76.37376,NO2,9,29,20
India,Karnataka,Mysuru,"Hebbal 1st Stage, Mysuru - KSPCB",29-10-2025 07:00:00,12.21041,76.37376,SO2,1,24,5
India,Karnataka,Ramanagara,"Vijay Nagar, Ramanagara - KSPCB",29-10-2025 07:00:00,12.733409,77.298051,PM10,29,52,38
India,Karnataka,Ramanagara,"Vijay Nagar, Ramanagara - KSPCB",29-10-2025 07:00:00,12.733409,77.298051,CO,9,36,20
India,Karnataka,Bengaluru,"Hebbal, Bengaluru - KSPCB",29-10-2025 07:00:00,13.029152,77.585901,SO2,1,8,5
India,Karnataka,Bengaluru,"Hombegowda Nagar, Bengaluru - KSPCB",29-10-2025 07:00:00,12.938539,77.590100,PM10,35,112,48
India,Karnataka,Bengaluru,"Jayanagar 5th Block, Bengaluru - KSPCB",29-10-2025 07:00:00,12.920984,77.584908,NO2,8,19,14
India,Karnataka,Bengaluru,"Jayanagar 5th Block, Bengaluru - KSPCB",29-10-2025 07:00:00,12.920984,77.584908,NH3,1,1,1
India,Karnataka,Bengaluru,"Jigani, Bengaluru - KSPCB",29-10-2025 07:00:00,12.7816279,77.6299145,NO2,18,20,19
India,Karnataka,Bengaluru,"Jigani, Bengaluru - KSPCB",29-10-2025 07:00:00,12.7816279,77.6299145,NH3,3,4,3
India,Kerala,Kannur,"Thavakkara, Kannur - Kerala PCB",29-10-2025 07:00:00,11.875000,75.373200,PM10,NA,NA,NA
India,Kerala,Kannur,"Thavakkara, Kannur - Kerala PCB",29-10-2025 07:00:00,11.875000,75.373200,NO2,NA,NA,NA
India,Kerala,Kollam,"Polayathode, Kollam - Kerala PCB",29-10-2025 07:00:00,8.8787,76.6073,OZONE,NA,NA,NA
India,Kerala,Thiruvananthapuram,"Plammoodu, Thiruvananthapuram - Kerala PCB",29-10-2025 07:00:00,8.5149093,76.9435879,PM2.5,5,20,11
India,Kerala,Thiruvananthapuram,"Plammoodu, Thiruvananthapuram - Kerala PCB",29-10-2025 07:00:00,8.5149093,76.9435879,NO2,52,98,74
India,Karnataka,Shivamogga,"Vinoba Nagara, Shivamogga - KSPCB",29-10-2025 07:00:00,13.940000,75.555917,OZONE,21,55,24
India,Karnataka,Vijayapura,"Ibrahimpur, Vijayapura - KSPCB",29-10-2025 07:00:00,16.802639,75.722694,NO2,11,12,11
India,Karnataka,Yadgir,"Collector Office, Yadgir - KSPCB",29-10-2025 07:00:00,16.7602,77.1428,PM10,18,64,35
India,Karnataka,Yadgir,"Collector Office, Yadgir - KSPCB",29-10-2025 07:00:00,16.7602,77.1428,CO,11,26,13
India,Karnataka,Gadag,"Panchal Nagar, Gadag - KSPCB",29-10-2025 07:00:00,15.411456,75.638133,CO,10,20,16
India,Karnataka,Gadag,"Panchal Nagar, Gadag - KSPCB",29-10-2025 07:00:00,15.411456,75.638133,OZONE,2,41,19
India,Karnataka,Hassan,"B.Katihalli, Hassan - KSPCB",29-10-2025 07:00:00,13.008556,76.125258,PM2.5,29,67,43
India,Maharashtra,Aurangabad,"Rachnakar Colony, Aurangabad - MPCB",29-10-2025 07:00:00,19.863756,75.321188,NO2,18,23,20
India,Maharashtra,Aurangabad,"Rachnakar Colony, Aurangabad - MPCB",29-10-2025 07:00:00,19.863756,75.321188,CO,14,34,20
India,Maharashtra,Badlapur,"Katrap, Badlapur - MPCB",29-10-2025 07:00:00,19.16485,73.23409,CO,15,36,21
India,Maharashtra,Belapur,"CBD Belapur, Belapur - MPCB",29-10-2025 07:00:00,19.0243902,73.0406721,NO2,2,3,3
India,Maharashtra,Belapur,"CBD Belapur, Belapur - MPCB",29-10-2025 07:00:00,19.0243902,73.0406721,OZONE,1,57,9
India,Maharashtra,Bhiwandi,"Gokul Nagar, Bhiwandi - MPCB",29-10-2025 07:00:00,19.309073,73.057223,PM2.5,28,92,53
India,Maharashtra,Bhiwandi,"Gokul Nagar, Bhiwandi - MPCB",29-10-2025 07:00:00,19.309073,73.057223,CO,24,40,31
India,Madhya Pradesh,Sagar,"Civil Lines, Sagar - MPPCB",29-10-2025 07:00:00,23.838586,78.759431,NH3,1,1,1
India,Madhya Pradesh,Satna,"Bandhavgar Colony, Satna - Birla Cement",29-10-2025 07:00:00,24.58434363,80.8549414,NO2,24,32,28
India,Madhya Pradesh,Singrauli,"Suryakiran Bhawan NCL, Singrauli - MPPCB",29-10-2025 07:00:00,24.108970,82.645580,NH3,7,7,7
India,Maharashtra,Akola,"Ramdaspeth, Akola - MPCB",29-10-2025 07:00:00,20.719516,77.000253,NO2,9,47,21
India,Maharashtra,Akola,"Ramdaspeth, Akola - MPCB",29-10-2025 07:00:00,20.719516,77.000253,NH3,4,8,6
India,Maharashtra,Akola,"Ramdaspeth, Akola - MPCB",29-10-2025 07:00:00,20.719516,77.000253,CO,18,28,20
India,Madhya Pradesh,Katni,"Gole Bazar, Katni - MPPCB",29-10-2025 07:00:00,23.50016,80.23284,NH3,3,4,4
India,Madhya Pradesh,Katni,"Gole Bazar, Katni - MPPCB",29-10-2025 07:00:00,23.50016,80.23284,SO2,23,35,29
India,Madhya Pradesh,Maihar,"Sahilara, Maihar - KJS Cements",29-10-2025 07:00:00,24.2613009,80.7231783,NO2,39,59,49
India,Madhya Pradesh,Mandideep,"Sector-D Industrial Area, Mandideep - MPPCB",29-10-2025 07:00:00,23.108440,77.511428,OZONE,34,55,49
India,Madhya Pradesh,Sagar,"Civil Lines, Sagar - MPPCB",29-10-2025 07:00:00,23.838586,78.759431,PM2.5,63,309,157
India,Maharashtra,Jalgaon,"Prabhat Colony, Jalgaon - MPCB",29-10-2025 07:00:00,21.001264,75.565602,CO,22,30,27
India,Maharashtra,Jalgaon,"Prabhat Colony, Jalgaon - MPCB",29-10-2025 07:00:00,21.001264,75.565602,OZONE,6,26,12
India,Maharashtra,Kalyan,"Khadakpada, Kalyan - MPCB",29-10-2025 07:00:00,19.25292,73.142019,PM2.5,NA,NA,NA
India,Maharashtra,Kalyan,"Pimpleshwar Mandir, Kalyan - MPCB",29-10-2025 07:00:00,19.192056,72.9585188,PM10,26,84,53
India,Maharashtra,Kalyan,"Pimpleshwar Mandir, Kalyan - MPCB",29-10-2025 07:00:00,19.192056,72.9585188,CO,2,118,83
India,Maharashtra,Boisar,"Khaira, Boisar - MPCB",29-10-2025 07:00:00,19.786089,72.757971,PM10,42,117,69
India,Maharashtra,Boisar,"Khaira, Boisar - MPCB",29-10-2025 07:00:00,19.786089,72.757971,NO2,11,16,13
India,Maharashtra,Chandrapur,"Chauhan Colony, Chandrapur - MPCB",29-10-2025 07:00:00,19.962900,79.298714,PM10,22,82,52
India,Maharashtra,Chandrapur,"MIDC Khutala, Chandrapur - MPCB",29-10-2025 07:00:00,19.9775302,79.2337086,PM2.5,28,136,72
India,Maharashtra,Chandrapur,"MIDC Khutala, Chandrapur - MPCB",29-10-2025 07:00:00,19.9775302,79.2337086,OZONE,16,20,18
India,Madhya Pradesh,Dewas,"Bhopal Chauraha, Dewas - MPPCB",29-10-2025 07:00:00,22.9682591,76.064118,CO,16,27,21
India,Madhya Pradesh,Gwalior,"City Center, Gwalior - MPPCB",29-10-2025 07:00:00,26.203442,78.193251,PM10,19,63,38
India,Madhya Pradesh,Gwalior,"Deen Dayal Nagar, Gwalior - MPPCB",29-10-2025 07:00:00,26.259242,78.216432,SO2,7,35,11
India,Madhya Pradesh,Gwalior,"Maharaj Bada, Gwalior - MPPCB",29-10-2025 07:00:00,26.200388,78.147714,OZONE,14,47,16
India,Madhya Pradesh,Jabalpur,"Gupteshwar, Jabalpur - JMC",29-10-2025 07:00:00,23.142888,79.916147,PM10,55,106,83
India,Madhya Pradesh,Jabalpur,"Gupteshwar, Jabalpur - JMC",29-10-2025 07:00:00,23.142888,79.916147,NO2,17,32,21
India,Madhya Pradesh,Jabalpur,"Suhagi, Jabalpur - JMC",29-10-2025 07:00:00,23.218135,79.957770,SO2,9,11,10
India,Madhya Pradesh,Katni,"Gole Bazar, Katni - MPPCB",29-10-2025 07:00:00,23.50016,80.23284,NO2,17,54,36
India,Madhya Pradesh,Indore,"Airport Area, Indore - IMC",29-10-2025 07:00:00,22.7289,75.8076,NO2,1,3,2
India,Madhya Pradesh,Indore,"Airport Area, Indore - IMC",29-10-2025 07:00:00,22.7289,75.8076,CO,3,5,5
India,Madhya Pradesh,Indore,"Regional Park, Indore - IMC",29-10-2025 07:00:00,22.6780,75.8559,SO2,20,23,22
India,Madhya Pradesh,Indore,"Regional Park, Indore - IMC",29-10-2025 07:00:00,22.6780,75.8559,OZONE,12,18,14
India,Maharashtra,Amravati,"Shri Shivaji Science College, Amravati - MPCB",29-10-2025 07:00:00,20.939198,77.765701,OZONE,13,44,16
India,Maharashtra,Aurangabad,"MIDC Chilkalthana, Aurangabad - MPCB",29-10-2025 07:00:00,19.875620,75.387310,CO,8,12,10
India,Maharashtra,Aurangabad,"MIDC Chilkalthana, Aurangabad - MPCB",29-10-2025 07:00:00,19.875620,75.387310,OZONE,1,53,14
India,Maharashtra,Mumbai,"Malad West, Mumbai - IITM",29-10-2025 07:00:00,19.19709,72.82204,SO2,3,10,8
India,Maharashtra,Mumbai,"Mazgaon, Mumbai - IITM",29-10-2025 07:00:00,18.96702,72.84214,SO2,6,11,9
India,Maharashtra,Mumbai,"Mazgaon, Mumbai - IITM",29-10-2025 07:00:00,18.96702,72.84214,CO,24,109,48
India,Maharashtra,Mumbai,"Mindspace-Malad West, Mumbai - MPCB",29-10-2025 07:00:00,19.1878657,72.8304069,PM10,36,78,50
India,Maharashtra,Mumbai,"Mindspace-Malad West, Mumbai - MPCB",29-10-2025 07:00:00,19.1878657,72.8304069,NH3,4,18,8
India,Maharashtra,Mumbai,"Mindspace-Malad West, Mumbai - MPCB",29-10-2025 07:00:00,19.1878657,72.8304069,CO,34,56,40
India,Maharashtra,Mumbai,"Mindspace-Malad West, Mumbai - MPCB",29-10-2025 07:00:00,19.1878657,72.8304069,OZONE,11,36,15
India,Maharashtra,Mumbai,"Mulund West, Mumbai - MPCB",29-10-2025 07:00:00,19.1750,72.9419,PM2.5,37,63,49
India,Maharashtra,Mumbai,"Mulund West, Mumbai - MPCB",29-10-2025 07:00:00,19.1750,72.9419,NH3,3,4,4
India,Maharashtra,Mumbai,"Mulund West, Mumbai - MPCB",29-10-2025 07:00:00,19.1750,72.9419,SO2,NA,NA,NA
India,Maharashtra,Nagpur,"Opp GPO Civil Lines, Nagpur - MPCB",29-10-2025 07:00:00,21.152875,79.0517531,OZONE,12,29,13
India,Maharashtra,Nagpur,"Ram Nagar, Nagpur - MPCB",29-10-2025 07:00:00,21.143383,79.048912,SO2,5,22,9
India,Maharashtra,Nanded,"Sneh Nagar, Nanded - MPCB",29-10-2025 07:00:00,19.173852,77.296291,OZONE,19,75,27
India,Maharashtra,Nashik,"Gangapur Road, Nashik - MPCB",29-10-2025 07:00:00,20.0073285,73.7762427,NH3,4,4,4
India,Maharashtra,Nashik,"Hirawadi, Nashik - MPCB",29-10-2025 07:00:00,20.021503,73.813844,PM2.5,10,52,26
India,Maharashtra,Mumbai,"Navy Nagar-Colaba, Mumbai - IITM",29-10-2025 07:00:00,18.897756,72.813320,OZONE,24,40,31
India,Maharashtra,Mumbai,"Powai, Mumbai - MPCB",29-10-2025 07:00:00,19.137500,72.915056,PM2.5,37,63,52
India,Maharashtra,Mumbai,"Powai, Mumbai - MPCB",29-10-2025 07:00:00,19.137500,72.915056,NO2,7,8,8
India,Maharashtra,Mumbai,"Powai, Mumbai - MPCB",29-10-2025 07:00:00,19.137500,72.915056,OZONE,9,9,9
India,Maharashtra,Mumbai,"Shivaji Nagar, Mumbai - BMC",29-10-2025 07:00:00,19.060498,72.923356,PM2.5,33,81,60
India,Maharashtra,Mumbai,"Shivaji Nagar, Mumbai - BMC",29-10-2025 07:00:00,19.060498,72.923356,SO2,11,14,13
India,Maharashtra,Mumbai,"Shivaji Nagar, Mumbai - BMC",29-10-2025 07:00:00,19.060498,72.923356,OZONE,2,27,7
India,Maharashtra,Mira-Bhayandar,"Bhayandar West, Mira-Bhayandar - MPCB",29-10-2025 07:00:00,19.296481,72.840923,NO2,6,38,24
India,Maharashtra,Mumbai,"Bandra Kurla Complex, Mumbai - IITM",29-10-2025 07:00:00,19.053536,72.84643,CO,1,49,10
India,Maharashtra,Mumbai,"Bandra Kurla Complex, Mumbai - IITM",29-10-2025 07:00:00,19.053536,72.84643,OZONE,1,9,4
India,Maharashtra,Mumbai,"Bandra Kurla Complex, Mumbai - MPCB",29-10-2025 07:00:00,19.065931,72.862131,PM2.5,28,60,49
India,Maharashtra,Mumbai,"Bandra Kurla Complex, Mumbai - MPCB",29-10-2025 07:00:00,19.065931,72.862131,NH3,4,17,9
India,Maharashtra,Mumbai,"Bandra Kurla Complex, Mumbai - MPCB",29-10-2025 07:00:00,19.065931,72.862131,CO,6,38,12
India,Maharashtra,Mumbai,"Sion, Mumbai - MPCB",29-10-2025 07:00:00,19.047000,72.874600,CO,NA,NA,NA
India,Maharashtra,Mumbai,"Sion, Mumbai - MPCB",29-10-2025 07:00:00,19.047000,72.874600,OZONE,NA,NA,NA
India,Maharashtra,Nagpur,"Ambazari, Nagpur - MPCB",29-10-2025 07:00:00,21.121801,79.04952,NH3,2,5,4
India,Maharashtra,Nagpur,"Ambazari, Nagpur - MPCB",29-10-2025 07:00:00,21.121801,79.04952,SO2,15,43,22
India,Maharashtra,Nagpur,"Ambazari, Nagpur - MPCB",29-10-2025 07:00:00,21.121801,79.04952,OZONE,18,42,19
India,Maharashtra,Nagpur,"Mahal, Nagpur - MPCB",29-10-2025 07:00:00,21.14472,79.107595,SO2,4,27,14
India,Maharashtra,Mumbai,"Kandivali West, Mumbai - BMC",29-10-2025 07:00:00,19.215859,72.831718,NO2,7,29,16
India,Maharashtra,Mumbai,"Kherwadi_Bandra East, Mumbai - MPCB",29-10-2025 07:00:00,19.0632143,72.8456324,CO,14,36,20
India,Maharashtra,Mumbai,"Khindipada-Bhandup West, Mumbai - IITM",29-10-2025 07:00:00,19.1653323,72.922099,NO2,7,36,16
India,Maharashtra,Mumbai,"Khindipada-Bhandup West, Mumbai - IITM",29-10-2025 07:00:00,19.1653323,72.922099,NH3,10,15,12
India,Maharashtra,Mumbai,"Khindipada-Bhandup West, Mumbai - IITM",29-10-2025 07:00:00,19.1653323,72.922099,OZONE,2,50,14
India,Maharashtra,Mumbai,"Borivali East, Mumbai - MPCB",29-10-2025 07:00:00,19.2243333,72.8658113,PM10,40,58,51
India,Maharashtra,Mumbai,"Borivali East, Mumbai - MPCB",29-10-2025 07:00:00,19.2243333,72.8658113,CO,10,12,10
India,Maharashtra,Mumbai,"Chakala-Andheri East, Mumbai - IITM",29-10-2025 07:00:00,19.11074,72.86084,NO2,22,71,44
India,Maharashtra,Mumbai,"Chhatrapati Shivaji Intl. Airport (T2), Mumbai - MPCB",29-10-2025 07:00:00,19.10078,72.87462,PM10,48,106,72
India,Maharashtra,Kolhapur,"Sinchan Bhavan, Kolhapur - MPCB",29-10-2025 07:00:00,16.7143745,74.2426398,CO,12,50,20
India,Maharashtra,Latur,"Sawe Wadi, Latur - MPCB",29-10-2025 07:00:00,18.39963,76.57452,PM2.5,4,38,19
India,Maharashtra,Mumbai,"Deonar, Mumbai - IITM",29-10-2025 07:00:00,19.04946,72.9230,NH3,10,13,11
India,Maharashtra,Mumbai,"Ghatkopar, Mumbai - BMC",29-10-2025 07:00:00,19.083694,72.920967,SO2,4,9,6
India,Maharashtra,Parbhani,"Masoom Colony, Parbhani - MPCB",29-10-2025 07:00:00,19.265594,76.761463,OZONE,11,27,24
India,Maharashtra,Pimpri-Chinchwad,"Gavalinagar, Pimpri Chinchwad - MPCB",29-10-2025 07:00:00,18.63673,73.82487,NH3,7,8,8
India,Maharashtra,Pimpri-Chinchwad,"Park Street Wakad, Pimpri Chinchwad - MPCB",29-10-2025 07:00:00,18.59051,73.77946,PM2.5,40,74,56
India,Maharashtra,Pimpri-Chinchwad,"Park Street Wakad, Pimpri Chinchwad - MPCB",29-10-2025 07:00:00,18.59051,73.77946,NH3,4,6,5
India,Maharashtra,Pimpri-Chinchwad,"Park Street Wakad, Pimpri Chinchwad - MPCB",29-10-2025 07:00:00,18.59051,73.77946,SO2,2,5,3
India,Maharashtra,Pimpri-Chinchwad,"Park Street Wakad, Pimpri Chinchwad - MPCB",29-10-2025 07:00:00,18.59051,73.77946,CO,16,48,23
India,Maharashtra,Pimpri-Chinchwad,"Park Street Wakad, Pimpri Chinchwad - MPCB",29-10-2025 07:00:00,18.59051,73.77946,OZONE,1,54,4
India,Maharashtra,Pimpri-Chinchwad,"Savta Mali Nagar, Pimpri-Chinchwad - IITM",29-10-2025 07:00:00,18.614767,73.799516,CO,39,84,73
India,Maharashtra,Pune,"Hadapsar, Pune - IITM",29-10-2025 07:00:00,18.501793,73.927532,PM10,22,162,82
India,Odisha,Balasore,"Kalidaspur, Balasore - OSPCB",29-10-2025 07:00:00,21.51161,86.89088,OZONE,48,84,58
India,Odisha,Barbil,"Forest Office, Barbil - OSPCB",29-10-2025 07:00:00,22.1166054,85.3945546,PM2.5,NA,NA,NA
India,Odisha,Barbil,"Forest Office, Barbil - OSPCB",29-10-2025 07:00:00,22.1166054,85.3945546,NO2,6,16,11
India,Odisha,Baripada,"Meher Colony, Baripada - OSPCB",29-10-2025 07:00:00,21.941841,86.728318,SO2,2,9,5
India,Odisha,Bhubaneswar,"Lingraj Mandir, Bhubaneswar - OSPCB",29-10-2025 07:00:00,20.240790,85.836784,NO2,4,25,12
India,Odisha,Bhubaneswar,"Lingraj Mandir, Bhubaneswar - OSPCB",29-10-2025 07:00:00,20.240790,85.836784,OZONE,12,32,18
India,Odisha,Bhubaneswar,"Patia, Bhubaneswar - OSPCB",29-10-2025 07:00:00,20.34652,85.81630,SO2,6,8,7
India,Odisha,Bileipada,"Tata Township, Bileipada - OSPCB",29-10-2025 07:00:00,22.06156703,85.47409613,PM2.5,NA,NA,NA
India,Maharashtra,Pune,"Katraj Dairy, Pune - MPCB",29-10-2025 07:00:00,18.454450,73.854155,NO2,1,21,11
India,Maharashtra,Pune,"Katraj Dairy, Pune - MPCB",29-10-2025 07:00:00,18.454450,73.854155,SO2,2,29,7
India,Maharashtra,Pune,"Mhada Colony, Pune - IITM",29-10-2025 07:00:00,18.573040,73.927715,CO,28,104,80
India,Maharashtra,Pune,"Mhada Colony, Pune - IITM",29-10-2025 07:00:00,18.573040,73.927715,OZONE,12,57,15
India,Maharashtra,Pune,"Panchawati_Pashan, Pune - IITM",29-10-2025 07:00:00,18.536457,73.805454,NO2,9,24,14
India,Maharashtra,Pune,"Revenue Colony-Shivajinagar, Pune - IITM",29-10-2025 07:00:00,18.530085,73.849598,PM2.5,NA,NA,NA
India,Maharashtra,Pune,"Savitribai Phule Pune University, Pune - MPCB",29-10-2025 07:00:00,18.547056,73.826908,PM10,4,111,66
India,Maharashtra,Pune,"Savitribai Phule Pune University, Pune - MPCB",29-10-2025 07:00:00,18.547056,73.826908,NH3,1,1,1
India,Maharashtra,Nashik,"Hirawadi, Nashik - MPCB",29-10-2025 07:00:00,20.021503,73.813844,PM10,31,81,49
India,Maharashtra,Nashik,"MIDC Ambad, Nashik - MPCB",29-10-2025 07:00:00,19.950220,73.731480,NO2,7,28,15
India,Maharashtra,Nashik,"Pandav Nagari, Nashik - MPCB",29-10-2025 07:00:00,19.9591346,73.7788008,PM10,14,102,33
India,Maharashtra,Nashik,"Pandav Nagari, Nashik - MPCB",29-10-2025 07:00:00,19.9591346,73.7788008,NO2,2,9,4
India,Maharashtra,Nashik,"Pandav Nagari, Nashik - MPCB",29-10-2025 07:00:00,19.9591346,73.7788008,CO,8,24,11
India,Maharashtra,Nashik,"Pandav Nagari, Nashik - MPCB",29-10-2025 07:00:00,19.9591346,73.7788008,OZONE,8,35,14
India,Maharashtra,Navi Mumbai,"Mahape, Navi Mumbai - MPCB",29-10-2025 07:00:00,19.1135051,73.008978,CO,46,109,92
India,Maharashtra,Navi Mumbai,"Mahape, Navi Mumbai - MPCB",29-10-2025 07:00:00,19.1135051,73.008978,OZONE,8,14,10
India,Maharashtra,Navi Mumbai,"Sector-2E Kalamboli, Navi Mumbai - MPCB",29-10-2025 07:00:00,19.02579,73.10297,PM10,41,91,62
India,Maharashtra,Navi Mumbai,"Sector-2E Kalamboli, Navi Mumbai - MPCB",29-10-2025 07:00:00,19.02579,73.10297,OZONE,1,65,2
India,Maharashtra,Navi Mumbai,"Tondare-Taloja, Navi Mumbai - MPCB",29-10-2025 07:00:00,19.0630,73.1209,PM2.5,52,77,64
India,Maharashtra,Navi Mumbai,"Tondare-Taloja, Navi Mumbai - MPCB",29-10-2025 07:00:00,19.0630,73.1209,OZONE,10,33,11
India,Maharashtra,Parbhani,"Masoom Colony, Parbhani - MPCB",29-10-2025 07:00:00,19.265594,76.761463,PM2.5,1,77,40
India,Maharashtra,Parbhani,"Masoom Colony, Parbhani - MPCB",29-10-2025 07:00:00,19.265594,76.761463,PM10,13,402,103
India,Maharashtra,Parbhani,"Masoom Colony, Parbhani - MPCB",29-10-2025 07:00:00,19.265594,76.761463,SO2,NA,NA,NA
India,Odisha,Brajrajnagar,"GM Office, Brajrajnagar - OSPCB",29-10-2025 07:00:00,21.8004996,83.8396977,NO2,1,11,5
India,Odisha,Byasanagar,"Ferro Chrome Colony, Byasanagar - OSPCB",29-10-2025 07:00:00,20.94185,86.11510,NO2,3,7,4
India,Odisha,Byasanagar,"Ferro Chrome Colony, Byasanagar - OSPCB",29-10-2025 07:00:00,20.94185,86.11510,NH3,1,1,1
India,Odisha,Byasanagar,"Ferro Chrome Colony, Byasanagar - OSPCB",29-10-2025 07:00:00,20.94185,86.11510,OZONE,20,41,24
India,Odisha,Cuttack,"CDA Area, Cuttack - OSPCB",29-10-2025 07:00:00,20.48891     ,85.84768     ,NH3,NA,NA,NA
India,Meghalaya,Shillong,"JN Stadium, Shillong - Meghalaya PCB",29-10-2025 07:00:00,25.5803419,91.8942571,PM10,NA,NA,NA
India,Nagaland,Kohima,"PWD Junction, Kohima - NPCB",29-10-2025 07:00:00,25.6635413,94.0989878,NH3,1,1,1
India,Odisha,Angul,"Hakimapada, Angul - OSPCB",29-10-2025 07:00:00,20.832874,85.104082,NO2,3,11,7
India,Maharashtra,Sangli,"Vijay Nagar, Sangli - MPCB",29-10-2025 07:00:00, 16.5038,74.3623,PM10,57,89,75
India,Maharashtra,Solapur,"Dnyaneshwar Nagar, Solapur - MPCB",29-10-2025 07:00:00,17.6336264,75.9132495,NH3,5,20,10
India,Maharashtra,Solapur,"Dnyaneshwar Nagar, Solapur - MPCB",29-10-2025 07:00:00,17.6336264,75.9132495,SO2,1,3,2
India,Maharashtra,Thane,"Kasarvadavali, Thane - MPCB",29-10-2025 07:00:00,19.26777,72.97182,PM10,43,80,64
India,Maharashtra,Thane,"Upvan Fort, Thane - MPCB",29-10-2025 07:00:00,19.222279,72.957979,PM10,38,67,57
India,Maharashtra,Thane,"Upvan Fort, Thane - MPCB",29-10-2025 07:00:00,19.222279,72.957979,NO2,8,32,21
India,Punjab,Jalandhar,"Civil Line, Jalandhar - PPCB",29-10-2025 07:00:00,31.321907,75.578914,SO2,18,21,19
India,Punjab,Jalandhar,"Civil Line, Jalandhar - PPCB",29-10-2025 07:00:00,31.321907,75.578914,OZONE,38,46,44
India,Punjab,Khanna,"Kalal Majra, Khanna - PPCB",29-10-2025 07:00:00,30.736056 ,76.209694,PM2.5,71,345,196
India,Punjab,Khanna,"Kalal Majra, Khanna - PPCB",29-10-2025 07:00:00,30.736056 ,76.209694,PM10,72,253,140
India,Punjab,Khanna,"Kalal Majra, Khanna - PPCB",29-10-2025 07:00:00,30.736056 ,76.209694,NH3,7,8,7
India,Punjab,Ludhiana,"Punjab Agricultural University, Ludhiana - PPCB",29-10-2025 07:00:00,30.9028,75.8086,PM2.5,114,138,125
India,Punjab,Mandi Gobindgarh,"RIMT University, Mandi Gobindgarh - PPCB",29-10-2025 07:00:00,30.649961,76.331442,PM10,124,387,180
India,Punjab,Mandi Gobindgarh,"RIMT University, Mandi Gobindgarh - PPCB",29-10-2025 07:00:00,30.649961,76.331442,NO2,23,24,24
India,Rajasthan,Banswara,"Rati Talai, Banswara - RSPCB",29-10-2025 07:00:00,23.555190,74.440010,NH3,2,4,3
India,Rajasthan,Banswara,"Rati Talai, Banswara - RSPCB",29-10-2025 07:00:00,23.555190,74.440010,OZONE,21,57,39
India,Rajasthan,Baran,"Bamboliya, Baran - RSPCB",29-10-2025 07:00:00,25.106006,76.469948,PM2.5,8,63,28
India,Rajasthan,Baran,"Bamboliya, Baran - RSPCB",29-10-2025 07:00:00,25.106006,76.469948,NH3,7,9,8
India,Rajasthan,Baran,"Bamboliya, Baran - RSPCB",29-10-2025 07:00:00,25.106006,76.469948,OZONE,29,62,31
India,Rajasthan,Bharatpur,"Krishna Nagar, Bharatpur - RSPCB",29-10-2025 07:00:00,27.215415,77.50873,PM10,46,111,75
India,Rajasthan,Bharatpur,"Krishna Nagar, Bharatpur - RSPCB",29-10-2025 07:00:00,27.215415,77.50873,NH3,5,9,6
India,Rajasthan,Bhilwara,"Pratap Nagar, Bhilwara - RSPCB",29-10-2025 07:00:00,25.339605,74.618883,PM2.5,10,60,30
India,Rajasthan,Jaipur,"Mansarovar Sector-12, Jaipur - RSPCB",29-10-2025 07:00:00,26.843698,75.766894,PM10,40,86,72
India,Rajasthan,Jaipur,"Mansarovar Sector-12, Jaipur - RSPCB",29-10-2025 07:00:00,26.843698,75.766894,NO2,NA,NA,NA
India,Rajasthan,Jaipur,"Mansarovar Sector-12, Jaipur - RSPCB",29-10-2025 07:00:00,26.843698,75.766894,CO,22,40,28
India,Rajasthan,Jaipur,"Police Commissionerate, Jaipur - RSPCB",29-10-2025 07:00:00,26.9164092,75.7994901,SO2,4,7,6
India,Rajasthan,Jaipur,"Police Commissionerate, Jaipur - RSPCB",29-10-2025 07:00:00,26.9164092,75.7994901,OZONE,6,18,8
India,Rajasthan,Jaipur,"Sector-2 Murlipura, Jaipur - RSPCB",29-10-2025 07:00:00,26.960669,75.771817,PM10,55,201,90
India,Rajasthan,Jaipur,"Sector-2 Murlipura, Jaipur - RSPCB",29-10-2025 07:00:00,26.960669,75.771817,NO2,10,24,17
India,Rajasthan,Jaipur,"Sector-2 Murlipura, Jaipur - RSPCB",29-10-2025 07:00:00,26.960669,75.771817,NH3,6,9,8
India,Punjab,Patiala,"Model Town, Patiala - PPCB",29-10-2025 07:00:00,30.349388,76.366642,OZONE,24,26,25
India,Rajasthan,Ajmer,"Civil Lines,  Ajmer - RSPCB",29-10-2025 07:00:00,26.470859,74.646594,PM10,35,93,68
India,Rajasthan,Ajmer,"Civil Lines,  Ajmer - RSPCB",29-10-2025 07:00:00,26.470859,74.646594,NO2,25,30,28
India,Rajasthan,Ajmer,"Civil Lines,  Ajmer - RSPCB",29-10-2025 07:00:00,26.470859,74.646594,CO,6,20,17
India,Rajasthan,Alwar,"Moti Doongri, Alwar - RSPCB",29-10-2025 07:00:00,27.554793,76.611536,PM10,39,124,81
India,Rajasthan,Alwar,"Moti Doongri, Alwar - RSPCB",29-10-2025 07:00:00,27.554793,76.611536,NO2,50,65,56
India,Rajasthan,Alwar,"Moti Doongri, Alwar - RSPCB",29-10-2025 07:00:00,27.554793,76.611536,CO,28,86,38
India,Odisha,Talcher,"Talcher Coalfields,Talcher - OSPCB",29-10-2025 07:00:00,20.9360711,85.1707021,NO2,33,165,107
India,Odisha,Talcher,"Talcher Coalfields,Talcher - OSPCB",29-10-2025 07:00:00,20.9360711,85.1707021,NH3,4,7,6
India,Odisha,Talcher,"Talcher Coalfields,Talcher - OSPCB",29-10-2025 07:00:00,20.9360711,85.1707021,OZONE,2,23,17
India,Odisha,Tensa,"Barsua Iron Ore Mines, Tensa - OSPCB",29-10-2025 07:00:00,21.869985,85.167016,NH3,NA,NA,NA
India,Punjab,Amritsar,"Golden Temple, Amritsar - PPCB",29-10-2025 07:00:00,31.620000,74.876512,NH3,4,6,6
India,Punjab,Amritsar,"Golden Temple, Amritsar - PPCB",29-10-2025 07:00:00,31.620000,74.876512,SO2,10,35,15
India,Odisha,Nayagarh,"Dabuna, Nayagarh - OSPCB",29-10-2025 07:00:00,21.847279,85.416905,PM2.5,6,29,15
India,Odisha,Nayagarh,"Dabuna, Nayagarh - OSPCB",29-10-2025 07:00:00,21.847279,85.416905,CO,14,38,22
India,Odisha,Rairangpur,"Divisional Forest Office, Rairangpur - OSPCB",29-10-2025 07:00:00,22.265816,86.174829,NO2,16,21,19
India,Odisha,Rourkela,"Fertilizer Township, Rourkela - OSPCB",29-10-2025 07:00:00,22.18972222,84.86277778,PM2.5,72,90,79
India,Odisha,Talcher,"Talcher Coalfields,Talcher - OSPCB",29-10-2025 07:00:00,20.9360711,85.1707021,PM2.5,NA,NA,NA
India,Rajasthan,Dholpur,"Raja Ganj, Dholpur - RSPCB",29-10-2025 07:00:00,26.699557,77.898881,PM10,NA,NA,NA
India,Rajasthan,Dungarpur,"Bhoiwada, Dungarpur - RSPCB",29-10-2025 07:00:00,23.837789,73.714926,PM2.5,2,22,9
India,Rajasthan,Dungarpur,"Bhoiwada, Dungarpur - RSPCB",29-10-2025 07:00:00,23.837789,73.714926,NO2,7,19,12
India,Rajasthan,Dungarpur,"Bhoiwada, Dungarpur - RSPCB",29-10-2025 07:00:00,23.837789,73.714926,CO,5,7,6
India,Rajasthan,Jaipur,"Mansarovar Sector-12, Jaipur - RSPCB",29-10-2025 07:00:00,26.843698,75.766894,PM2.5,40,137,94
India,Rajasthan,Bhilwara,"Pratap Nagar, Bhilwara - RSPCB",29-10-2025 07:00:00,25.339605,74.618883,NH3,4,28,8
India,Rajasthan,Bhiwadi,"RIICO Ind. Area III, Bhiwadi - RSPCB",29-10-2025 07:00:00,28.194909,76.862296,PM2.5,98,325,247
India,Rajasthan,Bhiwadi,"RIICO Ind. Area III, Bhiwadi - RSPCB",29-10-2025 07:00:00,28.194909,76.862296,SO2,2,15,9
India,Rajasthan,Bikaner,"MM Ground, Bikaner - RSPCB",29-10-2025 07:00:00,28.018792,73.292658,SO2,3,9,7
India,Rajasthan,Bundi,"New Colony, Bundi - RSPCB",29-10-2025 07:00:00,25.435774,75.644272,PM10,4,39,22
India,Rajasthan,Bundi,"New Colony, Bundi - RSPCB",29-10-2025 07:00:00,25.435774,75.644272,NH3,2,4,3
India,Rajasthan,Dausa,"Khatikan Mohalla, Dausa - RSPCB",29-10-2025 07:00:00,26.895552,76.334753,CO,48,64,51
India,Rajasthan,Kota,"Shrinath Puram, Kota - RSPCB",29-10-2025 07:00:00,25.14389,75.821256,CO,14,40,20
India,Rajasthan,Nagaur,"Karni Colony, Nagaur - RSPCB",29-10-2025 07:00:00,27.213494,73.734444,NH3,3,8,5
India,Rajasthan,Nagaur,"Karni Colony, Nagaur - RSPCB",29-10-2025 07:00:00,27.213494,73.734444,OZONE,28,64,38
India,Rajasthan,Pratapgarh,"Pragati Nagar, Pratapgarh - RSPCB",29-10-2025 07:00:00,24.041198,74.780702,PM2.5,7,90,55
India,Rajasthan,Pratapgarh,"Pragati Nagar, Pratapgarh - RSPCB",29-10-2025 07:00:00,24.041198,74.780702,CO,12,32,18
India,Rajasthan,Rajsamand,"Dhoinda, Rajsamand - RSPCB",29-10-2025 07:00:00,25.036360,73.883502,PM10,17,50,31
India,Rajasthan,Rajsamand,"Dhoinda, Rajsamand - RSPCB",29-10-2025 07:00:00,25.036360,73.883502,NO2,5,9,7
India,Rajasthan,Rajsamand,"Dhoinda, Rajsamand - RSPCB",29-10-2025 07:00:00,25.036360,73.883502,SO2,3,12,7
India,Rajasthan,Rajsamand,"Dhoinda, Rajsamand - RSPCB",29-10-2025 07:00:00,25.036360,73.883502,OZONE,12,63,14
India,TamilNadu,Chennai,"Perungudi, Chennai - TNPCB",29-10-2025 07:00:00,12.9533,80.2357,CO,12,60,40
India,TamilNadu,Chennai,"Royapuram, Chennai - TNPCB",29-10-2025 07:00:00,13.1036,80.2909,PM10,11,67,41
India,TamilNadu,Chennai,"Royapuram, Chennai - TNPCB",29-10-2025 07:00:00,13.1036,80.2909,NH3,5,9,7
India,TamilNadu,Chennai,"Velachery Res. Area, Chennai - CPCB",29-10-2025 07:00:00,13.0052189,80.2398125,PM10,57,89,70
India,TamilNadu,Chennai,"Velachery Res. Area, Chennai - CPCB",29-10-2025 07:00:00,13.0052189,80.2398125,SO2,14,16,15
India,TamilNadu,Chennai,"Velachery Res. Area, Chennai - CPCB",29-10-2025 07:00:00,13.0052189,80.2398125,OZONE,4,6,5
India,TamilNadu,Coimbatore,"PSG College of Arts and Science, Coimbatore - TNPCB",29-10-2025 07:00:00,11.0328,77.0349,PM10,44,90,67
India,Rajasthan,Jodhpur,"Mandor, Jodhpur - RSPCB",29-10-2025 07:00:00,26.358805,73.047444,NH3,NA,NA,NA
India,Rajasthan,Jodhpur,"Samrat Ashok Udhyan, Jodhpur - RSPCB",29-10-2025 07:00:00,26.253384,72.976571,NH3,7,11,9
India,Rajasthan,Jodhpur,"Samrat Ashok Udhyan, Jodhpur - RSPCB",29-10-2025 07:00:00,26.253384,72.976571,SO2,3,5,4
India,Rajasthan,Karauli,"Satyawati Vihar, Karauli - RSPCB",29-10-2025 07:00:00,26.506177,77.025989,CO,1,109,18
India,Rajasthan,Kota,"Dhanmandi, Kota - RSPCB",29-10-2025 07:00:00,25.164090,75.858137,NH3,3,3,3
India,Rajasthan,Kota,"Shrinath Puram, Kota - RSPCB",29-10-2025 07:00:00,25.14389,75.821256,PM2.5,22,53,36
India,Rajasthan,Kota,"Shrinath Puram, Kota - RSPCB",29-10-2025 07:00:00,25.14389,75.821256,NO2,9,11,10
India,Rajasthan,Udaipur,"Ashok Nagar, Udaipur - RSPCB",29-10-2025 07:00:00,24.5886166,73.6321397,SO2,1,21,8
India,Sikkim,Gangtok,"Zero Point GICI, Gangtok - SSPCB",29-10-2025 07:00:00,27.338530,88.614099,NO2,1,14,5
India,Sikkim,Gangtok,"Zero Point GICI, Gangtok - SSPCB",29-10-2025 07:00:00,27.338530,88.614099,CO,2,23,7
India,TamilNadu,Ariyalur,"Keelapalur, Ariyalur - TNPCB",29-10-2025 07:00:00,11.06825,79.07033,PM2.5,20,58,34
India,TamilNadu,Chengalpattu,"Crescent University, Chengalpattu - TNPCB",29-10-2025 07:00:00,12.8777316,80.0834807,NH3,NA,NA,NA
India,TamilNadu,Chengalpattu,"Crescent University, Chengalpattu - TNPCB",29-10-2025 07:00:00,12.8777316,80.0834807,OZONE,5,18,11
India,Rajasthan,Jaipur,"Shastri Nagar, Jaipur - RSPCB",29-10-2025 07:00:00,26.9502929,75.730943,OZONE,22,34,31
India,Rajasthan,Jaisalmer,"Sadar Bazar, Jaisalmer - RSPCB",29-10-2025 07:00:00,26.912329,70.909168,NO2,6,15,10
India,Rajasthan,Jaisalmer,"Sadar Bazar, Jaisalmer - RSPCB",29-10-2025 07:00:00,26.912329,70.909168,SO2,3,5,4
India,Rajasthan,Jalore,"Mudtra Sili, Jalore - RSPCB",29-10-2025 07:00:00,25.344694,72.626208,CO,20,32,23
India,Rajasthan,Jalore,"Mudtra Sili, Jalore - RSPCB",29-10-2025 07:00:00,25.344694,72.626208,OZONE,32,75,58
India,Rajasthan,Jhalawar,"Rajlaxmi Nagar, Jhalawar - RSPCB",29-10-2025 07:00:00,24.588397,76.172782,NH3,2,3,3
India,Rajasthan,Jhalawar,"Rajlaxmi Nagar, Jhalawar - RSPCB",29-10-2025 07:00:00,24.588397,76.172782,SO2,5,7,6
India,Rajasthan,Sikar,"Radhakishan Pura, Sikar - RSPCB",29-10-2025 07:00:00,27.608912,75.153302,NO2,10,22,14
India,Rajasthan,Sirohi,"Vedhaynath Colony, Sirohi - RSPCB",29-10-2025 07:00:00,24.885261,72.857549,NO2,5,143,16
India,Rajasthan,Sri Ganganagar,"Old City, Sri Ganganagar - RSPCB",29-10-2025 07:00:00,29.931624,73.864511,PM10,107,478,227
India,Rajasthan,Sri Ganganagar,"Old City, Sri Ganganagar - RSPCB",29-10-2025 07:00:00,29.931624,73.864511,SO2,4,18,7
India,Rajasthan,Sri Ganganagar,"Old City, Sri Ganganagar - RSPCB",29-10-2025 07:00:00,29.931624,73.864511,OZONE,1,88,21
India,Rajasthan,Tonk,"Shastri Nagar, Tonk - RSPCB",29-10-2025 07:00:00,26.159933,75.780517,NH3,4,7,5
India,Rajasthan,Jhunjhunu,"Indra Nagar, Jhunjhunu - RSPCB",29-10-2025 07:00:00,28.108988,75.386577,OZONE,34,81,48
India,Rajasthan,Jodhpur,"Digari Kalan, Jodhpur - RSPCB",29-10-2025 07:00:00,26.295810,73.082283,PM10,33,79,55
India,Rajasthan,Jodhpur,"Jhalamand, Jodhpur - RSPCB",29-10-2025 07:00:00,26.215415,73.070156,CO,5,44,32
India,Rajasthan,Jodhpur,"Jhalamand, Jodhpur - RSPCB",29-10-2025 07:00:00,26.215415,73.070156,OZONE,44,77,53
India,TamilNadu,Chennai,"Alandur Bus Depot, Chennai - CPCB",29-10-2025 07:00:00,12.9099161,80.1076538,OZONE,3,8,3
India,TamilNadu,Chennai,"Kodungaiyur, Chennai - TNPCB",29-10-2025 07:00:00,13.1278,80.2642,PM2.5,18,123,51
India,TamilNadu,Chennai,"Kodungaiyur, Chennai - TNPCB",29-10-2025 07:00:00,13.1278,80.2642,PM10,12,110,51
India,TamilNadu,Chennai,"Kodungaiyur, Chennai - TNPCB",29-10-2025 07:00:00,13.1278,80.2642,SO2,2,9,6
India,TamilNadu,Chennai,"Manali, Chennai - CPCB",29-10-2025 07:00:00,13.164544,80.26285,PM10,26,492,82
India,Uttar_Pradesh,Agra,"Sector-3B Avas Vikas Colony, Agra - UPPCB",29-10-2025 07:00:00,27.19412,77.96237,SO2,11,13,12
India,Uttar_Pradesh,Agra,"Shahjahan Garden, Agra - UPPCB",29-10-2025 07:00:00,27.169338,78.03582,OZONE,NA,NA,NA
India,Uttar_Pradesh,Agra,"Shastripuram, Agra - UPPCB",29-10-2025 07:00:00,27.19862,77.92066,NO2,51,51,51
India,Uttar_Pradesh,Baghpat,"Sardar Patel Inter College, Baghpat - UPPCB",29-10-2025 07:00:00,28.964949,77.278761,NH3,4,7,6
India,Uttar_Pradesh,Baghpat,"Sardar Patel Inter College, Baghpat - UPPCB",29-10-2025 07:00:00,28.964949,77.278761,SO2,23,48,34
India,Uttar_Pradesh,Baghpat,"Sardar Patel Inter College, Baghpat - UPPCB",29-10-2025 07:00:00,28.964949,77.278761,OZONE,3,62,6
India,Uttar_Pradesh,Bareilly,"Civil Lines, Bareilly - UPPCB",29-10-2025 07:00:00,28.359581,79.414455,CO,41,56,47
India,TamilNadu,Pudukottai,"SIPCOT Nathampannai, Pudukottai - TNPCB",29-10-2025 07:00:00,10.423417,78.784889,PM10,21,129,64
India,TamilNadu,Pudukottai,"SIPCOT Nathampannai, Pudukottai - TNPCB",29-10-2025 07:00:00,10.423417,78.784889,SO2,13,14,13
India,TamilNadu,Ramanathapuram,"Chalai Bazaar, Ramanathapuram - TNPCB",29-10-2025 07:00:00,9.36399,78.831977,PM10,21,33,26
India,TamilNadu,Ramanathapuram,"Chalai Bazaar, Ramanathapuram - TNPCB",29-10-2025 07:00:00,9.36399,78.831977,OZONE,4,5,4
India,TamilNadu,Ranipet,"VOC Nagar_SIPCOT, Ranipet - TNPCB",29-10-2025 07:00:00,12.952707,79.30394,NO2,NA,NA,NA
India,TamilNadu,Ranipet,"VOC Nagar_SIPCOT, Ranipet - TNPCB",29-10-2025 07:00:00,12.952707,79.30394,OZONE,1,1,1
India,TamilNadu,Thanjavur,"Parisutham Nagar, Thanjavur - TNPCB",29-10-2025 07:00:00,10.7654824,79.1389968,PM2.5,18,103,35
India,TamilNadu,Dindigul,"Mendonsa Colony, Dindigul - TNPCB",29-10-2025 07:00:00,10.358535,77.984321,SO2,20,24,22
India,TamilNadu,Gummidipoondi,"Anthoni Pillai Nagar, Gummidipoondi - TNPCB",29-10-2025 07:00:00,13.4127,80.1081,PM2.5,46,315,136
India,TamilNadu,Gummidipoondi,"Anthoni Pillai Nagar, Gummidipoondi - TNPCB",29-10-2025 07:00:00,13.4127,80.1081,PM10,51,212,104
India,TamilNadu,Hosur,"SIPCOT Phase-1, Hosur - TNPCB",29-10-2025 07:00:00,12.746998,77.813811,NH3,1,1,1
India,TamilNadu,Hosur,"SIPCOT Phase-1, Hosur - TNPCB",29-10-2025 07:00:00,12.746998,77.813811,OZONE,9,11,9
India,TamilNadu,Kanchipuram,"Kilambi, Kanchipuram - TNPCB",29-10-2025 07:00:00,12.864618,79.659968,NO2,NA,NA,NA
India,TamilNadu,Thoothukudi,"Meelavittan, Thoothukudi - TNPCB",29-10-2025 07:00:00,8.816428 ,78.099039,NO2,7,18,13
India,TamilNadu,Tiruchirappalli,"St Joseph College, Tiruchirappalli - TNPCB",29-10-2025 07:00:00,10.830158,78.691849,PM2.5,19,39,30
India,TamilNadu,Tiruchirappalli,"St Joseph College, Tiruchirappalli - TNPCB",29-10-2025 07:00:00,10.830158,78.691849,NO2,1,4,4
India,TamilNadu,Tiruchirappalli,"St Joseph College, Tiruchirappalli - TNPCB",29-10-2025 07:00:00,10.830158,78.691849,NH3,1,1,1
India,TamilNadu,Tiruchirappalli,"St Joseph College, Tiruchirappalli - TNPCB",29-10-2025 07:00:00,10.830158,78.691849,SO2,15,16,16
India,TamilNadu,Tirunelveli,"Municipal Corporation Office, Tirunelveli - TNPCB",29-10-2025 07:00:00,8.728442,77.6962,PM2.5,10,25,19
India,TamilNadu,Tirunelveli,"Municipal Corporation Office, Tirunelveli - TNPCB",29-10-2025 07:00:00,8.728442,77.6962,NO2,7,35,22
India,Telangana,Hyderabad,"Ramachandrapuram, Hyderabad - TSPCB",29-10-2025 07:00:00,17.528544,78.286195,PM2.5,35,44,41
India,Telangana,Hyderabad,"Ramachandrapuram, Hyderabad - TSPCB",29-10-2025 07:00:00,17.528544,78.286195,SO2,11,17,12
India,Telangana,Hyderabad,"Sanathnagar, Hyderabad - TSPCB",29-10-2025 07:00:00,17.4559458,78.4332152,PM2.5,29,55,38
India,Telangana,Hyderabad,"Sanathnagar, Hyderabad - TSPCB",29-10-2025 07:00:00,17.4559458,78.4332152,NO2,25,30,28
India,Telangana,Hyderabad,"Sanathnagar, Hyderabad - TSPCB",29-10-2025 07:00:00,17.4559458,78.4332152,SO2,2,9,6
India,Telangana,Hyderabad,"Somajiguda, Hyderabad - TSPCB",29-10-2025 07:00:00,17.417094,78.457437,PM10,77,108,94
India,Telangana,Hyderabad,"Somajiguda, Hyderabad - TSPCB",29-10-2025 07:00:00,17.417094,78.457437,SO2,11,17,14
India,Telangana,Hyderabad,"Somajiguda, Hyderabad - TSPCB",29-10-2025 07:00:00,17.417094,78.457437,OZONE,4,9,6
India,TamilNadu,Karur,"Kamadenu Nagar, Karur - TNPCB",29-10-2025 07:00:00,10.967820,78.080882,NH3,3,3,3
India,TamilNadu,Karur,"Kamadenu Nagar, Karur - TNPCB",29-10-2025 07:00:00,10.967820,78.080882,SO2,14,16,15
India,TamilNadu,Madurai,"Uchapatti, Madurai - TNPCB",29-10-2025 07:00:00,9.865935,78.022669,SO2,11,11,11
India,TamilNadu,Madurai,"Uchapatti, Madurai - TNPCB",29-10-2025 07:00:00,9.865935,78.022669,CO,7,24,8
India,TamilNadu,Nagapattinam,"Velippalayam, Nagapattinam - TNPCB",29-10-2025 07:00:00,10.798548,79.838212,PM10,27,122,56
India,TamilNadu,Nagapattinam,"Velippalayam, Nagapattinam - TNPCB",29-10-2025 07:00:00,10.798548,79.838212,SO2,2,7,4
India,Telangana,Hyderabad,"Bollaram Industrial Area, Hyderabad - TSPCB",29-10-2025 07:00:00,17.540891,78.358528,NH3,3,10,6
India,Telangana,Hyderabad,"Central University, Hyderabad - TSPCB",29-10-2025 07:00:00,17.460103,78.334361,PM10,9,46,25
India,Telangana,Hyderabad,"Central University, Hyderabad - TSPCB",29-10-2025 07:00:00,17.460103,78.334361,OZONE,7,25,15
India,Telangana,Hyderabad,"ECIL Kapra, Hyderabad - TSPCB",29-10-2025 07:00:00,17.470431,78.566959,PM2.5,59,73,61
India,Telangana,Hyderabad,"ECIL Kapra, Hyderabad - TSPCB",29-10-2025 07:00:00,17.470431,78.566959,SO2,10,14,13
India,Telangana,Hyderabad,"IDA Pashamylaram, Hyderabad - TSPCB",29-10-2025 07:00:00,17.5316895,78.218939,NO2,NA,NA,NA
India,Telangana,Hyderabad,"IITH Kandi, Hyderabad - TSPCB",29-10-2025 07:00:00,17.585705,78.126199,PM10,63,74,72
India,Telangana,Hyderabad,"Kokapet, Hyderabad - TSPCB",29-10-2025 07:00:00,17.393559,78.339194,NO2,11,17,13
India,Telangana,Hyderabad,"Kompally Municipal Office, Hyderabad - TSPCB",29-10-2025 07:00:00,17.544899,78.486949,PM2.5,NA,NA,NA
India,Telangana,Hyderabad,"Kompally Municipal Office, Hyderabad - TSPCB",29-10-2025 07:00:00,17.544899,78.486949,NH3,NA,NA,NA
India,Telangana,Hyderabad,"Zoo Park, Hyderabad - TSPCB",29-10-2025 07:00:00,17.349694,78.451437,PM10,2,18,12
India,Telangana,Hyderabad,"Zoo Park, Hyderabad - TSPCB",29-10-2025 07:00:00,17.349694,78.451437,CO,12,16,14
India,Uttar_Pradesh,Agra,"Sanjay Palace, Agra - UPPCB",29-10-2025 07:00:00,27.19865833,78.00598056,OZONE,12,46,18
India,Uttar_Pradesh,Gorakhpur,"Madan Mohan Malaviya University of Technology, Gorakhpur - UPPCB",29-10-2025 07:00:00,26.730136,83.433859,NH3,1,1,1
India,Uttar_Pradesh,Gorakhpur,"Madan Mohan Malaviya University of Technology, Gorakhpur - UPPCB",29-10-2025 07:00:00,26.730136,83.433859,SO2,28,29,28
India,Uttar_Pradesh,Greater Noida,"Knowledge Park - III, Greater Noida - UPPCB",29-10-2025 07:00:00,28.47272,77.482000,PM10,106,242,149
India,Uttar_Pradesh,Greater Noida,"Knowledge Park - V, Greater Noida - UPPCB",29-10-2025 07:00:00,28.557054,77.453663,PM10,130,316,183
India,Uttar_Pradesh,Greater Noida,"Knowledge Park - V, Greater Noida - UPPCB",29-10-2025 07:00:00,28.557054,77.453663,CO,54,103,81
India,Uttar_Pradesh,Hapur,"Anand Vihar, Hapur - UPPCB",29-10-2025 07:00:00,28.725645,77.749675,PM2.5,170,312,258
India,Uttar_Pradesh,Hapur,"Anand Vihar, Hapur - UPPCB",29-10-2025 07:00:00,28.725645,77.749675,CO,34,48,37
India,Uttar_Pradesh,Kanpur,"FTI Kidwai Nagar, Kanpur - UPPCB",29-10-2025 07:00:00,26.428282,80.327067,PM10,23,99,47
India,Uttar_Pradesh,Kanpur,"FTI Kidwai Nagar, Kanpur - UPPCB",29-10-2025 07:00:00,26.428282,80.327067,CO,33,36,34
India,Uttar_Pradesh,Kanpur,"FTI Kidwai Nagar, Kanpur - UPPCB",29-10-2025 07:00:00,26.428282,80.327067,OZONE,21,23,22
India,Uttar_Pradesh,Kanpur,"Nehru Nagar, Kanpur - UPPCB",29-10-2025 07:00:00,26.4703136,80.3229863,OZONE,6,45,6
India,Uttar_Pradesh,Khurja,"Kalindi Kunj, Khurja - UPPCB",29-10-2025 07:00:00,28.2348927,77.8683002,PM2.5,35,190,106
India,Uttar_Pradesh,Khurja,"Kalindi Kunj, Khurja - UPPCB",29-10-2025 07:00:00,28.2348927,77.8683002,NO2,3,4,4
India,Uttar_Pradesh,Lucknow,"B R Ambedkar University, Lucknow - UPPCB",29-10-2025 07:00:00,26.766433,80.927299,SO2,22,23,23
India,Uttar_Pradesh,Bareilly,"Rajendra Nagar, Bareilly - UPPCB",29-10-2025 07:00:00,28.38910936,79.42963708,PM10,36,123,75
India,Uttar_Pradesh,Bulandshahr,"Yamunapuram, Bulandshahr - UPPCB",29-10-2025 07:00:00,28.406963,77.849831,NO2,17,93,49
India,Uttar_Pradesh,Firozabad,"Nagla Bhau, Firozabad - UPPCB",29-10-2025 07:00:00,27.168897,78.376960,SO2,4,27,17
India,Uttar_Pradesh,Firozabad,"Vibhab Nagar, Firozabad - UPPCB",29-10-2025 07:00:00,27.1594,78.3953,NO2,15,15,15
India,Uttar_Pradesh,Firozabad,"Vibhab Nagar, Firozabad - UPPCB",29-10-2025 07:00:00,27.1594,78.3953,NH3,2,2,2
India,Uttar_Pradesh,Ghaziabad,"Indirapuram, Ghaziabad - UPPCB",29-10-2025 07:00:00,28.646233,77.358075,PM2.5,99,312,211
India,Uttar_Pradesh,Lucknow,"Gomti Nagar, Lucknow - UPPCB",29-10-2025 07:00:00,26.868120,81.005119,NO2,8,8,8
India,Uttar_Pradesh,Lucknow,"Gomti Nagar, Lucknow - UPPCB",29-10-2025 07:00:00,26.868120,81.005119,SO2,9,11,10
India,Uttar_Pradesh,Lucknow,"Kendriya Vidyalaya, Lucknow - CPCB",29-10-2025 07:00:00,26.906111,80.948222,SO2,2,27,13
India,Uttar_Pradesh,Lucknow,"Kendriya Vidyalaya, Lucknow - CPCB",29-10-2025 07:00:00,26.906111,80.948222,OZONE,10,79,14
India,Uttar_Pradesh,Lucknow,"Kukrail Picnic Spot-1, Lucknow - UPPCB",29-10-2025 07:00:00,26.90723,80.98579,PM2.5,25,64,36
India,Uttar_Pradesh,Lucknow,"Kukrail Picnic Spot-1, Lucknow - UPPCB",29-10-2025 07:00:00,26.90723,80.98579,SO2,37,45,39
India,Uttar_Pradesh,Lucknow,"Lalbagh, Lucknow - CPCB",29-10-2025 07:00:00,26.8458805,80.9365541,PM2.5,40,118,70
India,Uttar_Pradesh,Meerut,"Ganga Nagar, Meerut - UPPCB",29-10-2025 07:00:00,28.999264,77.7590354,PM10,117,403,249
India,Uttar_Pradesh,Meerut,"Ganga Nagar, Meerut - UPPCB",29-10-2025 07:00:00,28.999264,77.7590354,NO2,41,77,54
India,Uttar_Pradesh,Meerut,"Ganga Nagar, Meerut - UPPCB",29-10-2025 07:00:00,28.999264,77.7590354,NH3,15,19,17
India,Uttar_Pradesh,Meerut,"Ganga Nagar, Meerut - UPPCB",29-10-2025 07:00:00,28.999264,77.7590354,CO,33,77,56
India,Uttar_Pradesh,Meerut,"Jai Bhim Nagar, Meerut - UPPCB",29-10-2025 07:00:00,28.9535882,77.7622941,NH3,6,7,6
India,Uttar_Pradesh,Meerut,"Jai Bhim Nagar, Meerut - UPPCB",29-10-2025 07:00:00,28.9535882,77.7622941,OZONE,4,154,7
India,Uttar_Pradesh,Meerut,"Pallavpuram Phase 2, Meerut - UPPCB",29-10-2025 07:00:00,29.063510,77.709723,CO,7,102,63
India,Uttar_Pradesh,Moradabad,"Eco Herbal Park, Moradabad - UPPCB",29-10-2025 07:00:00,28.840739,78.697531,OZONE,8,99,10
India,Uttar_Pradesh,Moradabad,"Employment Office, Moradabad - UPPCB",29-10-2025 07:00:00,28.88528,78.73880,SO2,18,22,20
India,Uttar_Pradesh,Moradabad,"Employment Office, Moradabad - UPPCB",29-10-2025 07:00:00,28.88528,78.73880,OZONE,14,28,15
India,Uttar_Pradesh,Moradabad,"Jigar Colony, Moradabad - UPPCB",29-10-2025 07:00:00,28.856664,78.772638,CO,40,42,42
India,Uttar_Pradesh,Ghaziabad,"Indirapuram, Ghaziabad - UPPCB",29-10-2025 07:00:00,28.646233,77.358075,NH3,11,13,12
India,Uttar_Pradesh,Ghaziabad,"Loni, Ghaziabad - UPPCB",29-10-2025 07:00:00,28.757294,77.278792,PM2.5,95,363,259
India,Uttar_Pradesh,Ghaziabad,"Sanjay Nagar, Ghaziabad - UPPCB",29-10-2025 07:00:00,28.685382,77.453839,PM10,105,198,150
India,Uttar_Pradesh,Ghaziabad,"Sanjay Nagar, Ghaziabad - UPPCB",29-10-2025 07:00:00,28.685382,77.453839,CO,44,101,65
India,Uttar_Pradesh,Muzaffarnagar,"New Mandi, Muzaffarnagar - UPPCB",29-10-2025 07:00:00,29.4723508,77.7194031,CO,28,74,60
India,Uttar_Pradesh,Noida,"Sector - 62, Noida - IMD",29-10-2025 07:00:00,28.6245479,77.3577104,PM10,100,180,149
India,Uttar_Pradesh,Noida,"Sector - 62, Noida - IMD",29-10-2025 07:00:00,28.6245479,77.3577104,CO,12,21,18
India,Uttar_Pradesh,Ghaziabad,"Vasundhara, Ghaziabad - UPPCB",29-10-2025 07:00:00,28.6603346,77.3572563,SO2,15,23,21
India,Uttar_Pradesh,Prayagraj,"Jhunsi, Prayagraj - UPPCB",29-10-2025 07:00:00,25.425602,81.917152,CO,14,24,20
India,Uttar_Pradesh,Prayagraj,"Motilal Nehru NIT, Prayagraj - UPPCB",29-10-2025 07:00:00,25.494,81.863,PM10,40,129,69
India,Uttar_Pradesh,Prayagraj,"Motilal Nehru NIT, Prayagraj - UPPCB",29-10-2025 07:00:00,25.494,81.863,NO2,12,12,12
India,Uttar_Pradesh,Prayagraj,"Motilal Nehru NIT, Prayagraj - UPPCB",29-10-2025 07:00:00,25.494,81.863,NH3,8,8,8
India,Uttar_Pradesh,Prayagraj,"Nagar Nigam, Prayagraj - UPPCB",29-10-2025 07:00:00,25.44919916 ,81.82735986 ,NO2,5,5,5
India,Uttar_Pradesh,Prayagraj,"Nagar Nigam, Prayagraj - UPPCB",29-10-2025 07:00:00,25.44919916 ,81.82735986 ,OZONE,12,25,18
India,Uttar_Pradesh,Varanasi,"Ardhali Bazar, Varanasi - UPPCB",29-10-2025 07:00:00,25.3505986,82.9083074,SO2,18,19,18
India,Uttar_Pradesh,Varanasi,"Bhelupur, Varanasi - UPPCB",29-10-2025 07:00:00,25.301778,82.996789,PM10,30,72,51
India,Uttar_Pradesh,Varanasi,"Bhelupur, Varanasi - UPPCB",29-10-2025 07:00:00,25.301778,82.996789,NH3,1,1,1
India,Uttar_Pradesh,Varanasi,"Maldahiya, Varanasi - UPPCB",29-10-2025 07:00:00,25.32393,82.99687,OZONE,2,4,2
India,Uttar_Pradesh,Vrindavan,"Omex Eternity, Vrindavan - UPPCB",29-10-2025 07:00:00,27.5714090,77.6557570,OZONE,15,16,15
India,Uttarakhand,Dehradun,"Doon University, Dehradun - UKPCB",29-10-2025 07:00:00,30.269444,78.044167,NO2,1,4,2
India,Uttarakhand,Dehradun,"Doon University, Dehradun - UKPCB",29-10-2025 07:00:00,30.269444,78.044167,OZONE,22,65,26
India,Uttarakhand,Rishikesh,"Shivaji Nagar, Rishikesh - UKPCB",29-10-2025 07:00:00,30.075911,78.2859547,CO,16,32,21
India,West_Bengal,Asansol,"Asansol Court Area, Asansol - WBPCB",29-10-2025 07:00:00,23.685297,86.945968,NO2,15,99,27
India,West_Bengal,Asansol,"Asansol Court Area, Asansol - WBPCB",29-10-2025 07:00:00,23.685297,86.945968,CO,22,54,42
India,West_Bengal,Asansol,"Evelyn Lodge, Asansol - WBPCB",29-10-2025 07:00:00,23.6979360,86.9443950,SO2,2,13,5
India,West_Bengal,Asansol,"Mahabir Colliery, Asansol - WBPCB",29-10-2025 07:00:00,23.6181830,87.1057180,PM2.5,26,72,46
India,West_Bengal,Asansol,"Trivenidevi Bhalotia College, Asansol - WBPCB",29-10-2025 07:00:00,23.616515,87.119133,PM2.5,14,65,36
India,West_Bengal,Barrackpore,"SVSPA Campus, Barrackpore - WBPCB",29-10-2025 07:00:00,22.7605581,88.3617589,PM2.5,25,91,41
India,West_Bengal,Barrackpore,"SVSPA Campus, Barrackpore - WBPCB",29-10-2025 07:00:00,22.7605581,88.3617589,PM10,26,94,48
India,West_Bengal,Barrackpore,"SVSPA Campus, Barrackpore - WBPCB",29-10-2025 07:00:00,22.7605581,88.3617589,NO2,12,31,20
India,West_Bengal,Barrackpore,"SVSPA Campus, Barrackpore - WBPCB",29-10-2025 07:00:00,22.7605581,88.3617589,NH3,2,7,5
India,West_Bengal,Durgapur,"Mahishkapur Road_B-Zone, Durgapur - WBPCB",29-10-2025 07:00:00,23.567923,87.306843,CO,27,41,31
India,West_Bengal,Durgapur,"PCBL Residential Complex, Durgapur - WBPCB",29-10-2025 07:00:00,23.5087640,87.3544400,NH3,3,4,3
India,West_Bengal,Durgapur,"Womens College_City Center, Durgapur - WBPCB (Formerly known as Sidhu Kanhu Indoor Stadium)",29-10-2025 07:00:00,23.549395,87.300496,PM10,23,72,44
India,West_Bengal,Durgapur,"Womens College_City Center, Durgapur - WBPCB (Formerly known as Sidhu Kanhu Indoor Stadium)",29-10-2025 07:00:00,23.549395,87.300496,SO2,17,43,29
India,West_Bengal,Durgapur,"Womens College_City Center, Durgapur - WBPCB (Formerly known as Sidhu Kanhu Indoor Stadium)",29-10-2025 07:00:00,23.549395,87.300496,CO,28,46,34
India,West_Bengal,Haldia,"Priyambada Housing Estate, Haldia - WBPCB",29-10-2025 07:00:00,22.06047,88.109737,NO2,7,39,13
India,West_Bengal,Haldia,"Priyambada Housing Estate, Haldia - WBPCB",29-10-2025 07:00:00,22.06047,88.109737,SO2,12,21,14
India,West_Bengal,Haldia,"Priyambada Housing Estate, Haldia - WBPCB",29-10-2025 07:00:00,22.06047,88.109737,CO,22,42,28
India,West_Bengal,Howrah,"Belur Math, Howrah - WBPCB",29-10-2025 07:00:00,22.629801,88.352017,PM2.5,32,132,55
India,West_Bengal,Howrah,"Belur Math, Howrah - WBPCB",29-10-2025 07:00:00,22.629801,88.352017,OZONE,8,26,11
India,West_Bengal,Howrah,"Dasnagar, Howrah - WBPCB",29-10-2025 07:00:00,22.6025571,88.3105664,CO,42,79,57
India,West_Bengal,Howrah,"Ghusuri, Howrah - WBPCB",29-10-2025 07:00:00,22.611968,88.347422,PM10,35,108,56
India,West_Bengal,Howrah,"Padmapukur, Howrah - WBPCB",29-10-2025 07:00:00,22.5687319,88.2797276,NO2,15,53,30
India,West_Bengal,Howrah,"Padmapukur, Howrah - WBPCB",29-10-2025 07:00:00,22.5687319,88.2797276,SO2,3,8,5
India,West_Bengal,Howrah,"Padmapukur, Howrah - WBPCB",29-10-2025 07:00:00,22.5687319,88.2797276,CO,2,57,23
India,West_Bengal,Howrah,"Padmapukur, Howrah - WBPCB",29-10-2025 07:00:00,22.5687319,88.2797276,OZONE,8,27,11
India,West_Bengal,Kolkata,"Bidhannagar, Kolkata - WBPCB",29-10-2025 07:00:00,22.58157048,88.41002457,SO2,6,10,8
India,West_Bengal,Kolkata,"Fort William, Kolkata - WBPCB",29-10-2025 07:00:00,22.556640,88.342674,OZONE,17,35,24
India,West_Bengal,Kolkata,"Jadavpur, Kolkata - WBPCB",29-10-2025 07:00:00,22.49929,88.36917,SO2,6,7,6
India,West_Bengal,Kolkata,"Rabindra Bharati University, Kolkata - WBPCB",29-10-2025 07:00:00,22.627847,88.380669,PM2.5,13,63,34
India,West_Bengal,Kolkata,"Rabindra Bharati University, Kolkata - WBPCB",29-10-2025 07:00:00,22.627847,88.380669,PM10,30,81,45
India,West_Bengal,Kolkata,"Rabindra Bharati University, Kolkata - WBPCB",29-10-2025 07:00:00,22.627847,88.380669,NO2,36,67,49
India,West_Bengal,Kolkata,"Rabindra Sarobar, Kolkata - WBPCB",29-10-2025 07:00:00,22.51106,88.35142,NH3,6,10,7
India,West_Bengal,Kolkata,"Rabindra Sarobar, Kolkata - WBPCB",29-10-2025 07:00:00,22.51106,88.35142,SO2,1,4,2
India,West_Bengal,Kolkata,"Victoria, Kolkata - WBPCB",29-10-2025 07:00:00,22.5448082,88.3403691,NH3,4,5,4
India,West_Bengal,Kolkata,"Victoria, Kolkata - WBPCB",29-10-2025 07:00:00,22.5448082,88.3403691,OZONE,10,30,14
India,West_Bengal,Siliguri,"Ward-32 Bapupara, Siliguri - WBPCB",29-10-2025 07:00:00,26.6879226,88.4152495,PM10,47,461,85
India,Bihar,Bhagalpur,"Mayaganj, Bhagalpur - BSPCB",29-10-2025 07:00:00,25.265194,87.012947,NH3,4,9,6
India,Bihar,Bhagalpur,"Mayaganj, Bhagalpur - BSPCB",29-10-2025 07:00:00,25.265194,87.012947,CO,24,68,47
India,Bihar,Bihar Sharif,"D M Colony, Bihar Sharif - BSPCB",29-10-2025 07:00:00,25.204762,85.514960,PM2.5,20,207,107
India,Bihar,Bihar Sharif,"D M Colony, Bihar Sharif - BSPCB",29-10-2025 07:00:00,25.204762,85.514960,NO2,9,10,10
India,Bihar,Bihar Sharif,"D M Colony, Bihar Sharif - BSPCB",29-10-2025 07:00:00,25.204762,85.514960,SO2,10,10,10
India,Bihar,Bihar Sharif,"D M Colony, Bihar Sharif - BSPCB",29-10-2025 07:00:00,25.204762,85.514960,CO,8,8,8
India,Bihar,Buxar,"Charitra Van, Buxar - BSPCB",29-10-2025 07:00:00,25.567520,83.966379,SO2,1,8,4
India,Bihar,Buxar,"Charitra Van, Buxar - BSPCB",29-10-2025 07:00:00,25.567520,83.966379,CO,23,28,25
India,Bihar,Buxar,"Charitra Van, Buxar - BSPCB",29-10-2025 07:00:00,25.567520,83.966379,OZONE,1,67,1
India,Bihar,Chhapra,"Darshan Nagar, Chhapra - BSPCB",29-10-2025 07:00:00,25.7808257,84.7446768,NO2,2,3,2
India,Bihar,Chhapra,"Darshan Nagar, Chhapra - BSPCB",29-10-2025 07:00:00,25.7808257,84.7446768,CO,4,16,6
India,Andhra_Pradesh,Vijayawada,"Rajiv Nagar, Vijayawada - APPCB",29-10-2025 07:00:00,16.554731,80.649110,OZONE,NA,NA,NA
India,Andhra_Pradesh,Visakhapatnam,"GVM Corporation, Visakhapatnam - APPCB",29-10-2025 07:00:00,17.72,83.3,PM2.5,18,44,29
India,Andhra_Pradesh,Visakhapatnam,"GVM Corporation, Visakhapatnam - APPCB",29-10-2025 07:00:00,17.72,83.3,SO2,2,14,8
India,Andhra_Pradesh,Visakhapatnam,"GVM Corporation, Visakhapatnam - APPCB",29-10-2025 07:00:00,17.72,83.3,OZONE,26,34,32
India,Arunachal_Pradesh,Naharlagun,"Naharlagun, Naharlagun - APSPCB",29-10-2025 07:00:00,27.103358,93.679645,CO,6,36,11
India,Assam,Byrnihat,"Central Academy for SFS, Byrnihat - PCBA",29-10-2025 07:00:00,26.071318,91.87488,PM2.5,NA,NA,NA
India,Assam,Byrnihat,"Central Academy for SFS, Byrnihat - PCBA",29-10-2025 07:00:00,26.071318,91.87488,CO,NA,NA,NA
India,Assam,Guwahati,"IITG, Guwahati - PCBA",29-10-2025 07:00:00,26.2028636,91.70046436,SO2,23,27,25
India,Assam,Nalbari,"Bata Chowk, Nalbari - PCBA",29-10-2025 07:00:00,26.446912,91.439057,CO,82,112,105
India,Assam,Silchar,"Tarapur, Silchar - PCBA",29-10-2025 07:00:00,24.82827,92.79525,PM10,40,88,66
India,Assam,Silchar,"Tarapur, Silchar - PCBA",29-10-2025 07:00:00,24.82827,92.79525,CO,38,52,47
India,Assam,Silchar,"Tarapur, Silchar - PCBA",29-10-2025 07:00:00,24.82827,92.79525,OZONE,1,11,1
India,Assam,Sivasagar,"Girls College, Sivasagar - PCBA",29-10-2025 07:00:00,26.987634,94.636574,PM10,33,69,50
India,Bihar,Araria,"Kharahiya Basti, Araria - BSPCB",29-10-2025 07:00:00,26.146529,87.454184,NH3,5,5,5
India,Bihar,Araria,"Kharahiya Basti, Araria - BSPCB",29-10-2025 07:00:00,26.146529,87.454184,SO2,18,30,25
India,Bihar,Araria,"Kharahiya Basti, Araria - BSPCB",29-10-2025 07:00:00,26.146529,87.454184,OZONE,9,12,10
India,Andhra_Pradesh,Tirumala,"Toll Gate, Tirumala - APPCB",29-10-2025 07:00:00,13.67,79.35,PM10,19,98,34
India,Andhra_Pradesh,Tirumala,"Toll Gate, Tirumala - APPCB",29-10-2025 07:00:00,13.67,79.35,NH3,1,1,1
India,Andhra_Pradesh,Tirumala,"Toll Gate, Tirumala - APPCB",29-10-2025 07:00:00,13.67,79.35,OZONE,10,21,19
India,Andhra_Pradesh,Tirupati,"Vaikuntapuram, Tirupati - APPCB",29-10-2025 07:00:00,13.615387,79.409230,PM2.5,49,81,65
India,Andhra_Pradesh,Tirupati,"Vaikuntapuram, Tirupati - APPCB",29-10-2025 07:00:00,13.615387,79.409230,OZONE,29,30,29
India,Andhra_Pradesh,Vijayawada,"HB Colony, Vijayawada - APPCB",29-10-2025 07:00:00,16.536107,80.594233,PM2.5,50,63,57
India,Andhra_Pradesh,Vijayawada,"HB Colony, Vijayawada - APPCB",29-10-2025 07:00:00,16.536107,80.594233,SO2,10,18,16
India,Andhra_Pradesh,Vijayawada,"Rajiv Gandhi Park, Vijayawada - APPCB",29-10-2025 07:00:00,16.509717,80.612222,SO2,9,18,12
India,Bihar,Katihar,"Mirchaibari, Katihar - BSPCB",29-10-2025 07:00:00,25.560083,87.553265,OZONE,3,44,6
India,Bihar,Kishanganj,"SDM Office_Khagra, Kishanganj - BSPCB",29-10-2025 07:00:00,26.0881305,87.93840336,NO2,7,8,8
India,Bihar,Kishanganj,"SDM Office_Khagra, Kishanganj - BSPCB",29-10-2025 07:00:00,26.0881305,87.93840336,NH3,2,3,3
India,Bihar,Kishanganj,"SDM Office_Khagra, Kishanganj - BSPCB",29-10-2025 07:00:00,26.0881305,87.93840336,SO2,5,9,7
India,Bihar,Manguraha,"Forest Rest House, Manguraha - BSPCB",29-10-2025 07:00:00,27.308328,84.531742,NH3,1,3,2
India,Bihar,Manguraha,"Forest Rest House, Manguraha - BSPCB",29-10-2025 07:00:00,27.308328,84.531742,SO2,15,17,16
India,Bihar,Motihari,"Gandak Colony, Motihari - BSPCB",29-10-2025 07:00:00,26.63086,84.90051,OZONE,2,2,2
India,Bihar,Aurangabad,"Gurdeo Nagar, Aurangabad - BSPCB",29-10-2025 07:00:00,24.75746,84.366208,PM10,39,97,66
India,Bihar,Aurangabad,"Gurdeo Nagar, Aurangabad - BSPCB",29-10-2025 07:00:00,24.75746,84.366208,NH3,1,2,2
India,Bihar,Bettiah,"Kamalnath Nagar, Bettiah - BSPCB",29-10-2025 07:00:00,26.80365,84.51954,PM2.5,NA,NA,NA
India,Bihar,Bhagalpur,"DM Office_Kachari Chowk, Bhagalpur - BSPCB",29-10-2025 07:00:00,25.251013,86.989001,PM2.5,33,78,52
India,Bihar,Bhagalpur,"Mayaganj, Bhagalpur - BSPCB",29-10-2025 07:00:00,25.265194,87.012947,PM10,37,117,76
India,Andhra_Pradesh,Anantapur,"Gulzarpet, Anantapur - APPCB",29-10-2025 07:00:00,14.675886,77.593027,PM2.5,56,76,68
India,Andhra_Pradesh,Anantapur,"Gulzarpet, Anantapur - APPCB",29-10-2025 07:00:00,14.675886,77.593027,NO2,9,20,13
India,Andhra_Pradesh,Anantapur,"Gulzarpet, Anantapur - APPCB",29-10-2025 07:00:00,14.675886,77.593027,SO2,16,16,16
India,Andhra_Pradesh,Chittoor,"Gangineni Cheruvu, Chittoor - APPCB",29-10-2025 07:00:00,13.204880,79.097889,SO2,17,44,26
India,Andhra_Pradesh,Kadapa,"Yerramukkapalli, Kadapa - APPCB",29-10-2025 07:00:00,14.465052,78.824187,PM10,NA,NA,NA
India,Andhra_Pradesh,Kadapa,"Yerramukkapalli, Kadapa - APPCB",29-10-2025 07:00:00,14.465052,78.824187,SO2,NA,NA,NA
India,Bihar,Gaya,"Kareemganj, Gaya - BSPCB",29-10-2025 07:00:00,24.792403,84.992416,PM2.5,85,383,178
India,Bihar,Gaya,"SFTI Kusdihra, Gaya - BSPCB",29-10-2025 07:00:00,24.762518,84.982348,PM2.5,18,93,56
India,Bihar,Gaya,"SFTI Kusdihra, Gaya - BSPCB",29-10-2025 07:00:00,24.762518,84.982348,NO2,19,26,22
India,Bihar,Hajipur,"Industrial Area, Hajipur - BSPCB",29-10-2025 07:00:00,25.697189,85.245900,OZONE,4,96,9
India,Assam,Guwahati,"Pan Bazaar, Guwahati - PCBA",29-10-2025 07:00:00,26.187500,91.744194,SO2,44,83,62
India,Assam,Guwahati,"Railway Colony, Guwahati - PCBA",29-10-2025 07:00:00,26.181742,91.78063,SO2,NA,NA,NA
India,Assam,Nagaon,"Christianpatty, Nagaon - PCBA",29-10-2025 07:00:00,26.349082,92.68449,PM2.5,19,43,30
India,Andhra_Pradesh,Amaravati,"Secretariat, Amaravati - APPCB",29-10-2025 07:00:00,16.5150833,80.5181667,NO2,9,17,11
India,Bihar,Munger,"Town Hall, Munger - BSPCB",29-10-2025 07:00:00,25.376776,86.471523,SO2,16,24,19
India,Bihar,Muzaffarpur,"Buddha Colony, Muzaffarpur - BSPCB",29-10-2025 07:00:00,26.11442,85.39813,NH3,4,8,6
India,Bihar,Muzaffarpur,"Buddha Colony, Muzaffarpur - BSPCB",29-10-2025 07:00:00,26.11442,85.39813,CO,30,54,43
India,Bihar,Muzaffarpur,"MIT-Daudpur Kothi, Muzaffarpur - BSPCB",29-10-2025 07:00:00,26.1403345,85.3650192,NH3,1,1,1
India,Bihar,Muzaffarpur,"MIT-Daudpur Kothi, Muzaffarpur - BSPCB",29-10-2025 07:00:00,26.1403345,85.3650192,CO,35,46,40
India,Bihar,Muzaffarpur,"Muzaffarpur Collectorate, Muzaffarpur - BSPCB",29-10-2025 07:00:00,26.1209,85.3647,NO2,8,17,9
India,Bihar,Patna,"DRM Office Danapur, Patna - BSPCB",29-10-2025 07:00:00,25.586562,85.043586,NO2,16,49,25
India,Bihar,Patna,"DRM Office Danapur, Patna - BSPCB",29-10-2025 07:00:00,25.586562,85.043586,NH3,4,6,5
India,Bihar,Patna,"DRM Office Danapur, Patna - BSPCB",29-10-2025 07:00:00,25.586562,85.043586,SO2,7,11,9
India,Chhattisgarh,Korba,"Urja Nagar, Korba - CECB",29-10-2025 07:00:00,22.348441,82.549611,NH3,1,2,2
India,Chhattisgarh,Milupara,"Govt. Higher Secondary School, Milupara - CECB",29-10-2025 07:00:00,22.1910172,83.5197009,NO2,NA,NA,NA
India,Chhattisgarh,Raipur,"AIIMS, Raipur - CECB",29-10-2025 07:00:00,21.258815,81.578979,PM10,22,58,42
India,Chhattisgarh,Raipur,"AIIMS, Raipur - CECB",29-10-2025 07:00:00,21.258815,81.578979,NH3,NA,NA,NA
India,Chhattisgarh,Raipur,"Bhatagaon New ISBT, Raipur - CECB",29-10-2025 07:00:00,21.219665,81.630094,PM10,11,46,29
India,Chhattisgarh,Raipur,"Bhatagaon New ISBT, Raipur - CECB",29-10-2025 07:00:00,21.219665,81.630094,NO2,7,16,10
India,Bihar,Patna,"Rajbansi Nagar, Patna - BSPCB",29-10-2025 07:00:00,25.599486,85.113666,OZONE,3,11,5
India,Bihar,Purnia,"Mariam Nagar, Purnia - BSPCB",29-10-2025 07:00:00,25.366336,87.117468,PM10,3,88,40
India,Bihar,Purnia,"Mariam Nagar, Purnia - BSPCB",29-10-2025 07:00:00,25.366336,87.117468,NH3,3,3,3
India,Bihar,Saharsa,"Police Line, Saharsa - BSPCB",29-10-2025 07:00:00,25.892357,86.590325,PM10,22,111,63
India,Bihar,Saharsa,"Police Line, Saharsa - BSPCB",29-10-2025 07:00:00,25.892357,86.590325,NO2,7,8,7
India,Bihar,Saharsa,"Police Line, Saharsa - BSPCB",29-10-2025 07:00:00,25.892357,86.590325,SO2,16,17,16
India,Bihar,Saharsa,"Police Line, Saharsa - BSPCB",29-10-2025 07:00:00,25.892357,86.590325,CO,36,40,36
India,Bihar,Sasaram,"Dada Peer, Sasaram - BSPCB",29-10-2025 07:00:00,24.952822,84.002396,PM2.5,NA,NA,NA
India,Bihar,Sasaram,"Dada Peer, Sasaram - BSPCB",29-10-2025 07:00:00,24.952822,84.002396,NO2,NA,NA,NA
India,Bihar,Siwan,"Chitragupta Nagar, Siwan - BSPCB",29-10-2025 07:00:00,26.2271665,84.3570427,PM10,15,108,36
India,Bihar,Siwan,"Chitragupta Nagar, Siwan - BSPCB",29-10-2025 07:00:00,26.2271665,84.3570427,SO2,1,1,1
India,Bihar,Siwan,"Chitragupta Nagar, Siwan - BSPCB",29-10-2025 07:00:00,26.2271665,84.3570427,OZONE,1,2,1
India,Chandigarh,Chandigarh,"Sector 22, Chandigarh - CPCC",29-10-2025 07:00:00,30.735567,76.775714,SO2,4,13,8
India,Chandigarh,Chandigarh,"Sector-25, Chandigarh - CPCC",29-10-2025 07:00:00,30.751462,76.762879,PM10,75,135,108
India,Chandigarh,Chandigarh,"Sector-25, Chandigarh - CPCC",29-10-2025 07:00:00,30.751462,76.762879,NO2,12,66,30
India,Chhattisgarh,Bhilai,"Civic Center, Bhilai - Bhilai Steel Plant",29-10-2025 07:00:00,21.185571,81.343175,PM2.5,12,54,32
India,Chhattisgarh,Bhilai,"Civic Center, Bhilai - Bhilai Steel Plant",29-10-2025 07:00:00,21.185571,81.343175,NH3,3,3,3
India,Chhattisgarh,Bhilai,"Hathkhoj, Bhilai - CECB",29-10-2025 07:00:00,21.224231,81.408350,PM2.5,29,40,34
India,Delhi,Delhi,"Alipur, Delhi - DPCC",29-10-2025 07:00:00,28.815329,77.153010,SO2,4,15,9
India,Delhi,Delhi,"Alipur, Delhi - DPCC",29-10-2025 07:00:00,28.815329,77.153010,OZONE,2,56,3
India,Delhi,Delhi,"Anand Vihar, Delhi - DPCC",29-10-2025 07:00:00,28.647622,77.3158090,PM10,151,369,228
India,Delhi,Delhi,"Anand Vihar, Delhi - DPCC",29-10-2025 07:00:00,28.647622,77.3158090,NO2,52,104,74
India,Delhi,Delhi,"Bawana, Delhi - DPCC",29-10-2025 07:00:00,28.776200,77.051074,SO2,9,21,14
India,Delhi,Delhi,"Bawana, Delhi - DPCC",29-10-2025 07:00:00,28.776200,77.051074,OZONE,5,104,9
India,Chhattisgarh,Bhilai,"Hathkhoj, Bhilai - CECB",29-10-2025 07:00:00,21.224231,81.408350,CO,12,28,19
India,Chhattisgarh,Bhilai,"Hathkhoj, Bhilai - CECB",29-10-2025 07:00:00,21.224231,81.408350,OZONE,9,24,10
India,Chhattisgarh,Bilaspur,"Mangala, Bilaspur - NTPC",29-10-2025 07:00:00,22.08815,82.13737,SO2,10,19,14
India,Chhattisgarh,Chhal,"Nawapara SECL Colony, Chhal - CECB",29-10-2025 07:00:00,22.118125,83.140608,NO2,1,29,6
India,Bihar,Patna,"DRM Office Danapur, Patna - BSPCB",29-10-2025 07:00:00,25.586562,85.043586,CO,34,58,44
India,Bihar,Patna,"Govt. High School Shikarpur, Patna - BSPCB",29-10-2025 07:00:00,25.592539,85.227158,PM2.5,42,58,48
India,Bihar,Patna,"Govt. High School Shikarpur, Patna - BSPCB",29-10-2025 07:00:00,25.592539,85.227158,SO2,7,10,9
India,Chhattisgarh,Raipur,"Krishak Nagar, Raipur - CECB",29-10-2025 07:00:00,21.237755,81.705301,NO2,7,9,8
India,Chhattisgarh,Raipur,"Siltara Phase-II, Raipur - CECB",29-10-2025 07:00:00,21.371751,81.664929,NH3,3,3,3
India,Delhi,Delhi,"IGI Airport (T3), Delhi - IMD",29-10-2025 07:00:00,28.5627763,77.1180053,PM2.5,121,340,233
India,Delhi,Delhi,"IGI Airport (T3), Delhi - IMD",29-10-2025 07:00:00,28.5627763,77.1180053,OZONE,2,3,3
India,Delhi,Delhi,"IHBAS, Dilshad Garden, Delhi - CPCB",29-10-2025 07:00:00,28.6811736,77.3025234,PM2.5,168,316,259
India,Delhi,Delhi,"IHBAS, Dilshad Garden, Delhi - CPCB",29-10-2025 07:00:00,28.6811736,77.3025234,PM10,105,190,141
India,Delhi,Delhi,"IHBAS, Dilshad Garden, Delhi - CPCB",29-10-2025 07:00:00,28.6811736,77.3025234,CO,59,88,79
India,Delhi,Delhi,"ITO, Delhi - CPCB",29-10-2025 07:00:00,28.628624,77.241060,PM2.5,213,378,306
India,Delhi,Delhi,"ITO, Delhi - CPCB",29-10-2025 07:00:00,28.628624,77.241060,NH3,6,7,7
India,Delhi,Delhi,"ITO, Delhi - CPCB",29-10-2025 07:00:00,28.628624,77.241060,CO,60,105,74
India,Delhi,Delhi,"Jahangirpuri, Delhi - DPCC",29-10-2025 07:00:00,28.732820,77.170633,NO2,51,133,83
India,Delhi,Delhi,"Sonia Vihar, Delhi - DPCC",29-10-2025 07:00:00,28.710508,77.249485,SO2,36,45,39
India,Delhi,Delhi,"Sri Aurobindo Marg, Delhi - DPCC",29-10-2025 07:00:00,28.531346,77.190156,OZONE,1,73,1
India,Delhi,Delhi,"Vivek Vihar, Delhi - DPCC",29-10-2025 07:00:00,28.672342,77.315260,PM2.5,212,391,309
India,Delhi,Delhi,"Wazirpur, Delhi - DPCC",29-10-2025 07:00:00,28.699793,77.165453,NO2,42,96,58
India,Gujarat,Ahmedabad,"Gyaspur, Ahmedabad - IITM",29-10-2025 07:00:00,22.977134,72.553024,NO2,21,44,30
India,Gujarat,Ahmedabad,"Gyaspur, Ahmedabad - IITM",29-10-2025 07:00:00,22.977134,72.553024,SO2,1,17,9
India,Delhi,Delhi,"CRRI Mathura Road, Delhi - IMD",29-10-2025 07:00:00,28.5512005,77.2735737,PM10,120,263,186
India,Delhi,Delhi,"CRRI Mathura Road, Delhi - IMD",29-10-2025 07:00:00,28.5512005,77.2735737,CO,24,61,44
India,Delhi,Delhi,"DTU, Delhi - CPCB",29-10-2025 07:00:00,28.7500499,77.1112615,PM10,125,221,172
India,Delhi,Delhi,"DTU, Delhi - CPCB",29-10-2025 07:00:00,28.7500499,77.1112615,CO,34,71,63
India,Delhi,Delhi,"Dr. Karni Singh Shooting Range, Delhi - DPCC",29-10-2025 07:00:00,28.498571,77.264840,NH3,9,12,10
India,Delhi,Delhi,"Dwarka-Sector 8, Delhi - DPCC ",29-10-2025 07:00:00,28.5710274,77.0719006,PM2.5,230,358,298
India,Delhi,Delhi,"Narela, Delhi - DPCC",29-10-2025 07:00:00,28.822836,77.101981,PM10,88,284,198
India,Delhi,Delhi,"Narela, Delhi - DPCC",29-10-2025 07:00:00,28.822836,77.101981,SO2,7,16,11
India,Delhi,Delhi,"Narela, Delhi - DPCC",29-10-2025 07:00:00,28.822836,77.101981,OZONE,6,102,10
India,Delhi,Delhi,"Nehru Nagar, Delhi - DPCC",29-10-2025 07:00:00,28.567890,77.250515,PM2.5,180,375,294
India,Delhi,Delhi,"North Campus, DU, Delhi - IMD",29-10-2025 07:00:00,28.6573814,77.1585447,OZONE,31,195,32
India,Delhi,Delhi,"Patparganj, Delhi - DPCC",29-10-2025 07:00:00,28.623763,77.287209,PM10,102,395,217
India,Delhi,Delhi,"Rohini, Delhi - DPCC",29-10-2025 07:00:00,28.732528,77.119920,NO2,11,67,29
India,Delhi,Delhi,"Shadipur, Delhi - CPCB",29-10-2025 07:00:00,28.6514781,77.1473105,CO,38,82,52
India,Delhi,Delhi,"Sirifort, Delhi - CPCB",29-10-2025 07:00:00,28.5504249,77.2159377,PM10,118,384,234
India,Delhi,Delhi,"Sirifort, Delhi - CPCB",29-10-2025 07:00:00,28.5504249,77.2159377,OZONE,8,17,11
India,Delhi,Delhi,"Sonia Vihar, Delhi - DPCC",29-10-2025 07:00:00,28.710508,77.249485,NH3,3,4,3
India,Delhi,Delhi,"Mundka, Delhi - DPCC",29-10-2025 07:00:00,28.684678,77.076574,NH3,9,13,11
India,Delhi,Delhi,"Mundka, Delhi - DPCC",29-10-2025 07:00:00,28.684678,77.076574,CO,46,90,56
India,Delhi,Delhi,"NSIT Dwarka, Delhi - CPCB",29-10-2025 07:00:00,28.60909,77.0325413,PM2.5,42,342,158
India,Delhi,Delhi,"NSIT Dwarka, Delhi - CPCB",29-10-2025 07:00:00,28.60909,77.0325413,NO2,61,98,77
India,Delhi,Delhi,"Narela, Delhi - DPCC",29-10-2025 07:00:00,28.822836,77.101981,PM2.5,88,362,269
India,Delhi,Delhi,"Punjabi Bagh, Delhi - DPCC",29-10-2025 07:00:00,28.674045,77.131023,CO,48,86,55
India,Delhi,Delhi,"Pusa, Delhi - IMD",29-10-2025 07:00:00,28.636110,77.173332,PM10,42,236,146
India,Delhi,Delhi,"R K Puram, Delhi - DPCC",29-10-2025 07:00:00,28.563262,77.186937,NH3,4,15,8
India,Delhi,Delhi,"R K Puram, Delhi - DPCC",29-10-2025 07:00:00,28.563262,77.186937,SO2,16,22,19
India,Delhi,Delhi,"Jawaharlal Nehru Stadium, Delhi - DPCC",29-10-2025 07:00:00,28.580280,77.233829,PM2.5,187,350,286
India,Delhi,Delhi,"Jawaharlal Nehru Stadium, Delhi - DPCC",29-10-2025 07:00:00,28.580280,77.233829,NO2,68,170,102
India,Delhi,Delhi,"Jawaharlal Nehru Stadium, Delhi - DPCC",29-10-2025 07:00:00,28.580280,77.233829,CO,47,100,55
India,Delhi,Delhi,"Lodhi Road, Delhi - IMD",29-10-2025 07:00:00,28.5918245,77.2273074,PM2.5,134,347,260
India,Gujarat,Ahmedabad,"Raikhad, Ahmedabad - IITM",29-10-2025 07:00:00,23.020509,72.579261,PM10,5,38,24
India,Gujarat,Ahmedabad,"Raikhad, Ahmedabad - IITM",29-10-2025 07:00:00,23.020509,72.579261,NO2,16,35,22
India,Haryana,Narnaul,"Shastri Nagar, Narnaul - HSPCB",29-10-2025 07:00:00,28.060249,76.113115,PM2.5,57,166,125
India,Haryana,Narnaul,"Shastri Nagar, Narnaul - HSPCB",29-10-2025 07:00:00,28.060249,76.113115,NO2,16,46,28
India,Haryana,Narnaul,"Shastri Nagar, Narnaul - HSPCB",29-10-2025 07:00:00,28.060249,76.113115,SO2,22,24,24
India,Haryana,Panchgaon,"Amity University, Panchgaon - IITM",29-10-2025 07:00:00,28.3153,76.9143,PM2.5,14,160,58
India,Haryana,Panchgaon,"Amity University, Panchgaon - IITM",29-10-2025 07:00:00,28.3153,76.9143,SO2,4,12,8
India,Haryana,Panchkula,"Sector-6, Panchkula - HSPCB ",29-10-2025 07:00:00,30.7057778,76.8531805555555,NO2,24,26,25
India,Haryana,Panipat,"Sector-18, Panipat - HSPCB",29-10-2025 07:00:00,29.432304,76.972765,NO2,31,32,31
India,Haryana,Panipat,"Sector-18, Panipat - HSPCB",29-10-2025 07:00:00,29.432304,76.972765,NH3,2,3,3
India,Haryana,Panipat,"Sector-18, Panipat - HSPCB",29-10-2025 07:00:00,29.432304,76.972765,OZONE,30,30,30
India,Haryana,Rohtak,"MD University, Rohtak - HSPCB",29-10-2025 07:00:00,28.52123,76.37138,PM10,94,305,186
India,Jharkhand,Dhanbad,"Sardar Patel Nagar, Dhanbad - JSPCB",29-10-2025 07:00:00,23.80569,86.44268,OZONE,1,57,1
India,Karnataka,Belgaum,"Ramteerth Nagar, Belgaum - KSPCB",29-10-2025 07:00:00,15.888653,74.541751,SO2,15,26,18
India,Karnataka,Bengaluru,"BTM Layout, Bengaluru - CPCB",29-10-2025 07:00:00,12.9135218,77.5950804,PM2.5,29,42,34
India,Karnataka,Bengaluru,"BTM Layout, Bengaluru - CPCB",29-10-2025 07:00:00,12.9135218,77.5950804,NO2,30,31,30
India,Karnataka,Bengaluru,"BTM Layout, Bengaluru - CPCB",29-10-2025 07:00:00,12.9135218,77.5950804,CO,42,50,44
India,Karnataka,Bengaluru,"BTM Layout, Bengaluru - CPCB",29-10-2025 07:00:00,12.9135218,77.5950804,OZONE,24,25,24
India,Karnataka,Bengaluru,"BWSSB Kadabesanahalli, Bengaluru - CPCB",29-10-2025 07:00:00,12.9352049,77.6814488,PM2.5,45,46,46
India,Karnataka,Bengaluru,"BWSSB Kadabesanahalli, Bengaluru - CPCB",29-10-2025 07:00:00,12.9352049,77.6814488,NO2,23,23,23
India,Gujarat,Vatva,"Phase-4 GIDC, Vatva - GPCB",29-10-2025 07:00:00,22.969611,72.643500,NH3,1,2,1
India,Gujarat,Vatva,"Phase-4 GIDC, Vatva - GPCB",29-10-2025 07:00:00,22.969611,72.643500,OZONE,6,15,7
India,Haryana,Ambala,"Patti Mehar, Ambala - HSPCB",29-10-2025 07:00:00,30.379589,76.778328,PM10,NA,NA,NA
India,Haryana,Bahadurgarh,"Arya Nagar, Bahadurgarh - HSPCB",29-10-2025 07:00:00,28.6701,76.9254,PM10,NA,NA,NA
India,Haryana,Bahadurgarh,"Arya Nagar, Bahadurgarh - HSPCB",29-10-2025 07:00:00,28.6701,76.9254,NH3,NA,NA,NA
India,Haryana,Bahadurgarh,"Arya Nagar, Bahadurgarh - HSPCB",29-10-2025 07:00:00,28.6701,76.9254,CO,NA,NA,NA
India,Haryana,Ballabgarh,"Nathu Colony, Ballabgarh - HSPCB",29-10-2025 07:00:00,28.3419248,77.319699,PM2.5,316,323,319
India,Haryana,Bhiwani,"H.B. Colony, Bhiwani - HSPCB",29-10-2025 07:00:00,28.806223,76.141105,NO2,1,35,31
India,Haryana,Bhiwani,"H.B. Colony, Bhiwani - HSPCB",29-10-2025 07:00:00,28.806223,76.141105,SO2,12,13,12
India,Haryana,Bhiwani,"H.B. Colony, Bhiwani - HSPCB",29-10-2025 07:00:00,28.806223,76.141105,OZONE,7,19,15
India,Haryana,Charkhi Dadri,"Mini Secretariat, Charkhi Dadri - HSPCB",29-10-2025 07:00:00,28.593883,76.270653,NO2,9,21,15
India,Haryana,Charkhi Dadri,"Mini Secretariat, Charkhi Dadri - HSPCB",29-10-2025 07:00:00,28.593883,76.270653,NH3,5,8,6
India,Haryana,Charkhi Dadri,"Mini Secretariat, Charkhi Dadri - HSPCB",29-10-2025 07:00:00,28.593883,76.270653,SO2,10,11,10
India,Haryana,Charkhi Dadri,"Mini Secretariat, Charkhi Dadri - HSPCB",29-10-2025 07:00:00,28.593883,76.270653,CO,10,25,16
India,Gujarat,Ahmedabad,"SAC ISRO Bopal, Ahmedabad - IITM",29-10-2025 07:00:00,23.041137,72.456691,CO,14,30,22
India,Gujarat,Ahmedabad,"SAC ISRO Satellite, Ahmedabad - IITM",29-10-2025 07:00:00,23.023389,72.515201,NH3,3,5,3
India,Gujarat,Ahmedabad,"SAC ISRO Satellite, Ahmedabad - IITM",29-10-2025 07:00:00,23.023389,72.515201,OZONE,2,17,6
India,Gujarat,Ahmedabad,"SVPI Airport Hansol, Ahmedabad - IITM",29-10-2025 07:00:00,23.076793,72.627874,CO,18,32,22
India,Gujarat,Gandhinagar,"GIFT City, Gandhinagar - IITM",29-10-2025 07:00:00,23.163798,72.677768,PM10,10,44,26
India,Haryana,Sirsa,"F-Block, Sirsa - HSPCB",29-10-2025 07:00:00,29.536400,75.015800,PM10,25,73,47
India,Haryana,Sirsa,"F-Block, Sirsa - HSPCB",29-10-2025 07:00:00,29.536400,75.015800,CO,46,61,51
India,Haryana,Sonipat,"Murthal, Sonipat - HSPCB",29-10-2025 07:00:00,29.027200,77.062100,SO2,NA,NA,NA
India,Himachal Pradesh,Baddi,"HIMUDA Complex Phase-1, Baddi - HPPCB",29-10-2025 07:00:00,30.943887,76.801991,PM10,105,244,153
India,Himachal Pradesh,Baddi,"HIMUDA Complex Phase-1, Baddi - HPPCB",29-10-2025 07:00:00,30.943887,76.801991,NH3,4,5,4
India,Gujarat,Gandhinagar,"IIPHG Lekawada, Gandhinagar - IITM",29-10-2025 07:00:00,23.243639,72.68994,NH3,2,2,2
India,Gujarat,Gandhinagar,"IIPHG Lekawada, Gandhinagar - IITM",29-10-2025 07:00:00,23.243639,72.68994,CO,8,22,13
India,Gujarat,Gandhinagar,"Sector-10, Gandhinagar - GPCB",29-10-2025 07:00:00,23.221714,72.654328,PM2.5,13,68,42
India,Gujarat,Surat,"Science Center, Surat - SMC",29-10-2025 07:00:00,21.170046,72.795405,PM2.5,2,45,23
India,Gujarat,Surat,"Science Center, Surat - SMC",29-10-2025 07:00:00,21.170046,72.795405,PM10,9,138,54
India,Haryana,Faridabad,"Sector 11, Faridabad - HSPCB",29-10-2025 07:00:00,28.376058,77.315741,CO,NA,NA,NA
India,Haryana,Gurugram,"NISE Gwal Pahari, Gurugram - IMD",29-10-2025 07:00:00,28.422681,77.148944,PM2.5,NA,NA,NA
India,Haryana,Jind,"Police Lines, Jind - HSPCB",29-10-2025 07:00:00,29.307814,76.337619,PM2.5,127,310,213
India,Haryana,Jind,"Police Lines, Jind - HSPCB",29-10-2025 07:00:00,29.307814,76.337619,PM10,76,151,107
India,Haryana,Jind,"Police Lines, Jind - HSPCB",29-10-2025 07:00:00,29.307814,76.337619,CO,2,104,28
India,Haryana,Kaithal,"Rishi Nagar, Kaithal - HSPCB",29-10-2025 07:00:00,29.8006,76.4155,NO2,23,32,31
India,Haryana,Kaithal,"Rishi Nagar, Kaithal - HSPCB",29-10-2025 07:00:00,29.8006,76.4155,SO2,28,36,31
India,Haryana,Karnal,"Sector-12, Karnal - HSPCB",29-10-2025 07:00:00,29.695300,77.002700,NO2,NA,NA,NA
India,Haryana,Karnal,"Sector-12, Karnal - HSPCB",29-10-2025 07:00:00,29.695300,77.002700,NH3,NA,NA,NA
India,Haryana,Karnal,"Sector-12, Karnal - HSPCB",29-10-2025 07:00:00,29.695300,77.002700,SO2,NA,NA,NA
India,Haryana,Kurukshetra,"Sector-7, Kurukshetra - HSPCB",29-10-2025 07:00:00,29.966942,76.875879,NO2,16,21,19
India,Karnataka,Chikkamagaluru,"Kalyana Nagara, Chikkamagaluru - KSPCB",29-10-2025 07:00:00,13.328028,75.797056,SO2,3,9,6
India,Karnataka,Chikkamagaluru,"Kalyana Nagara, Chikkamagaluru - KSPCB",29-10-2025 07:00:00,13.328028,75.797056,OZONE,23,35,35
India,Karnataka,Davanagere,"Devaraj Urs Badavane, Davanagere - KSPCB",29-10-2025 07:00:00,14.475800,75.905200,PM2.5,33,68,53
India,Karnataka,Davanagere,"Devaraj Urs Badavane, Davanagere - KSPCB",29-10-2025 07:00:00,14.475800,75.905200,SO2,4,5,4
India,Karnataka,Dharwad,"Kalabhavan, Dharwad - KSPCB",29-10-2025 07:00:00,15.459706,75.008381,OZONE,19,26,21
India,Karnataka,Gadag,"Panchal Nagar, Gadag - KSPCB",29-10-2025 07:00:00,15.411456,75.638133,SO2,29,42,34
India,Karnataka,Hassan,"B.Katihalli, Hassan - KSPCB",29-10-2025 07:00:00,13.008556,76.125258,NH3,1,6,4
India,Karnataka,Bengaluru,"Sanegurava Halli, Bengaluru - KSPCB",29-10-2025 07:00:00,12.990328,77.5431385,NO2,16,22,20
India,Karnataka,Bengaluru,"Sanegurava Halli, Bengaluru - KSPCB",29-10-2025 07:00:00,12.990328,77.5431385,SO2,6,7,7
India,Karnataka,Bengaluru,"Shivapura_Peenya, Bengaluru - KSPCB",29-10-2025 07:00:00,13.0246342,77.5080115,NO2,28,30,29
India,Karnataka,Bengaluru,"Shivapura_Peenya, Bengaluru - KSPCB",29-10-2025 07:00:00,13.0246342,77.5080115,CO,40,47,41
India,Karnataka,Bidar,"Naubad, Bidar - KSPCB",29-10-2025 07:00:00,17.930306,77.482194,PM10,NA,NA,NA
India,Karnataka,Bidar,"Naubad, Bidar - KSPCB",29-10-2025 07:00:00,17.930306,77.482194,NO2,NA,NA,NA
India,Karnataka,Chikkamagaluru,"Kalyana Nagara, Chikkamagaluru - KSPCB",29-10-2025 07:00:00,13.328028,75.797056,PM2.5,22,62,38
India,Karnataka,Haveri,"Ashwini Nagar, Haveri - KSPCB",29-10-2025 07:00:00,14.791800,75.389600,SO2,NA,NA,NA
India,Karnataka,Hubballi,"Deshpande Nagar, Hubballi - KSPCB",29-10-2025 07:00:00,15.351773,75.140726,PM2.5,NA,NA,NA
India,Karnataka,Hubballi,"Deshpande Nagar, Hubballi - KSPCB",29-10-2025 07:00:00,15.351773,75.140726,NO2,NA,NA,NA
India,Karnataka,Hubballi,"Lingaraj Nagar, Hubballi - KSPCB",29-10-2025 07:00:00,15.3714823,75.1160168,NH3,1,2,1
India,Karnataka,Hubballi,"Lingaraj Nagar, Hubballi - KSPCB",29-10-2025 07:00:00,15.3714823,75.1160168,OZONE,14,19,14
India,Karnataka,Kalaburagi,"Lal Bahadur Shastri Nagar, Kalaburagi - KSPCB",29-10-2025 07:00:00,17.321993,76.822628,NO2,12,12,12
India,Karnataka,Vijayapura,"Ibrahimpur, Vijayapura - KSPCB",29-10-2025 07:00:00,16.802639,75.722694,CO,15,120,37
