country,state,city,station,last_update,latitude,longitude,pollutant_id,min_value,max_value,avg_value
India,Assam,Guwahati,"Pan Bazaar, Guwahati - PCBA",15-12-2025 08:00:00,26.187500,91.744194,PM10,NA,NA,NA
India,Assam,Guwahati,"Pan Bazaar, Guwahati - PCBA",15-12-2025 08:00:00,26.187500,91.744194,CO,NA,NA,NA
India,Assam,Guwahati,"Pan Bazaar, Guwahati - PCBA",15-12-2025 08:00:00,26.187500,91.744194,OZONE,NA,NA,NA
India,Assam,Nagaon,"Christianpatty, Nagaon - PCBA",15-12-2025 08:00:00,26.349082,92.68449,PM2.5,61,154,107
India,Assam,Nagaon,"Christianpatty, Nagaon - PCBA",15-12-2025 08:00:00,26.349082,92.68449,NO2,1,1,1
India,Assam,Nagaon,"Christianpatty, Nagaon - PCBA",15-12-2025 08:00:00,26.349082,92.68449,OZONE,7,9,9
India,Assam,Nalbari,"Bata Chowk, Nalbari - PCBA",15-12-2025 08:00:00,26.446912,91.439057,NH3,6,6,6
India,Assam,Nalbari,"Bata Chowk, Nalbari - PCBA",15-12-2025 08:00:00,26.446912,91.439057,CO,20,22,21
India,Andhra_Pradesh,Tirumala,"Toll Gate, Tirumala - APPCB",15-12-2025 08:00:00,13.67,79.35,NH3,1,1,1
India,Andhra_Pradesh,Tirumala,"Toll Gate, Tirumala - APPCB",15-12-2025 08:00:00,13.67,79.35,CO,1,73,32
India,Andhra_Pradesh,Tirumala,"Toll Gate, Tirumala - APPCB",15-12-2025 08:00:00,13.67,79.35,OZONE,4,22,11
India,Andhra_Pradesh,Tirupati,"Vaikuntapuram, Tirupati - APPCB",15-12-2025 08:00:00,13.615387,79.409230,PM2.5,56,62,59
India,Andhra_Pradesh,Tirupati,"Vaikuntapuram, Tirupati - APPCB",15-12-2025 08:00:00,13.615387,79.409230,SO2,17,18,17
India,Andhra_Pradesh,Kadapa,"Yerramukkapalli, Kadapa - APPCB",15-12-2025 08:00:00,14.465052,78.824187,OZONE,18,25,23
India,Andhra_Pradesh,Tirumala,"Toll Gate, Tirumala - APPCB",15-12-2025 08:00:00,13.67,79.35,PM2.5,114,218,169
India,Andhra_Pradesh,Tirumala,"Toll Gate, Tirumala - APPCB",15-12-2025 08:00:00,13.67,79.35,PM10,85,112,97
India,Andhra_Pradesh,Vijayawada,"Rajiv Nagar, Vijayawada - APPCB",15-12-2025 08:00:00,16.554731,80.649110,CO,50,54,54
India,Andhra_Pradesh,Visakhapatnam,"GVM Corporation, Visakhapatnam - APPCB",15-12-2025 08:00:00,17.72,83.3,NO2,18,172,52
India,Andhra_Pradesh,Visakhapatnam,"GVM Corporation, Visakhapatnam - APPCB",15-12-2025 08:00:00,17.72,83.3,SO2,22,42,29
India,Andhra_Pradesh,Vijayawada,"Kanuru, Vijayawada - APPCB",15-12-2025 08:00:00,16.486692,80.699436,SO2,NA,NA,NA
India,Andhra_Pradesh,Vijayawada,"Kanuru, Vijayawada - APPCB",15-12-2025 08:00:00,16.486692,80.699436,CO,NA,NA,NA
India,Andhra_Pradesh,Vijayawada,"Rajiv Gandhi Park, Vijayawada - APPCB",15-12-2025 08:00:00,16.509717,80.612222,OZONE,11,69,29
India,Andhra_Pradesh,Amaravati,"Secretariat, Amaravati - APPCB",15-12-2025 08:00:00,16.5150833,80.5181667,PM2.5,56,257,133
India,Andhra_Pradesh,Amaravati,"Secretariat, Amaravati - APPCB",15-12-2025 08:00:00,16.5150833,80.5181667,OZONE,9,66,16
India,Andaman and Nicobar,Sri Vijaya Puram,"Police Line, Sri Vijaya Puram - ANPCC",15-12-2025 08:00:00,11.654054,92.734055,NO2,NA,NA,NA
India,Assam,Byrnihat,"Central Academy for SFS, Byrnihat - PCBA",15-12-2025 08:00:00,26.071318,91.87488,NO2,6,8,7
India,Arunachal_Pradesh,Naharlagun,"Naharlagun, Naharlagun - APSPCB",15-12-2025 08:00:00,27.103358,93.679645,NO2,6,7,7
India,Andhra_Pradesh,Vijayawada,"Kanuru, Vijayawada - APPCB",15-12-2025 08:00:00,16.486692,80.699436,NH3,NA,NA,NA
India,Bihar,Bhagalpur,"DM Office_Kachari Chowk, Bhagalpur - BSPCB",15-12-2025 08:00:00,25.251013,86.989001,NH3,1,1,1
India,Bihar,Bhagalpur,"Mayaganj, Bhagalpur - BSPCB",15-12-2025 08:00:00,25.265194,87.012947,PM2.5,20,92,61
India,Bihar,Bhagalpur,"Mayaganj, Bhagalpur - BSPCB",15-12-2025 08:00:00,25.265194,87.012947,NH3,6,13,9
India,Bihar,Bhagalpur,"Mayaganj, Bhagalpur - BSPCB",15-12-2025 08:00:00,25.265194,87.012947,SO2,31,63,45
India,Bihar,Bihar Sharif,"D M Colony, Bihar Sharif - BSPCB",15-12-2025 08:00:00,25.204762,85.514960,PM2.5,57,304,153
India,Bihar,Buxar,"Charitra Van, Buxar - BSPCB",15-12-2025 08:00:00,25.567520,83.966379,PM2.5,62,223,144
India,Bihar,Buxar,"Charitra Van, Buxar - BSPCB",15-12-2025 08:00:00,25.567520,83.966379,PM10,60,147,113
India,Bihar,Buxar,"Charitra Van, Buxar - BSPCB",15-12-2025 08:00:00,25.567520,83.966379,NO2,9,10,9
India,Bihar,Buxar,"Charitra Van, Buxar - BSPCB",15-12-2025 08:00:00,25.567520,83.966379,OZONE,1,16,3
India,Bihar,Chhapra,"Darshan Nagar, Chhapra - BSPCB",15-12-2025 08:00:00,25.7808257,84.7446768,PM2.5,15,157,83
India,Assam,Sivasagar,"Girls College, Sivasagar - PCBA",15-12-2025 08:00:00,26.987634,94.636574,PM10,33,94,59
India,Assam,Sivasagar,"Girls College, Sivasagar - PCBA",15-12-2025 08:00:00,26.987634,94.636574,SO2,11,16,13
India,Assam,Sivasagar,"Girls College, Sivasagar - PCBA",15-12-2025 08:00:00,26.987634,94.636574,CO,10,100,63
India,Bihar,Araria,"Kharahiya Basti, Araria - BSPCB",15-12-2025 08:00:00,26.146529,87.454184,PM2.5,22,312,143
India,Bihar,Araria,"Kharahiya Basti, Araria - BSPCB",15-12-2025 08:00:00,26.146529,87.454184,NO2,1,38,13
India,Bihar,Araria,"Kharahiya Basti, Araria - BSPCB",15-12-2025 08:00:00,26.146529,87.454184,OZONE,9,11,10
India,Bihar,Arrah,"New DM Office, Arrah - BSPCB",15-12-2025 08:00:00,25.5626095,84.663264,NO2,6,8,7
India,Bihar,Arrah,"New DM Office, Arrah - BSPCB",15-12-2025 08:00:00,25.5626095,84.663264,OZONE,6,11,8
India,Bihar,Aurangabad,"Gurdeo Nagar, Aurangabad - BSPCB",15-12-2025 08:00:00,24.75746,84.366208,PM2.5,NA,NA,NA
India,Bihar,Muzaffarpur,"Buddha Colony, Muzaffarpur - BSPCB",15-12-2025 08:00:00,26.11442,85.39813,PM2.5,41,288,183
India,Bihar,Muzaffarpur,"MIT-Daudpur Kothi, Muzaffarpur - BSPCB",15-12-2025 08:00:00,26.1403345,85.3650192,NO2,NA,NA,NA
India,Bihar,Muzaffarpur,"MIT-Daudpur Kothi, Muzaffarpur - BSPCB",15-12-2025 08:00:00,26.1403345,85.3650192,NH3,1,1,1
India,Bihar,Muzaffarpur,"MIT-Daudpur Kothi, Muzaffarpur - BSPCB",15-12-2025 08:00:00,26.1403345,85.3650192,CO,38,63,51
India,Bihar,Muzaffarpur,"Muzaffarpur Collectorate, Muzaffarpur - BSPCB",15-12-2025 08:00:00,26.1209,85.3647,CO,10,39,24
India,Bihar,Patna,"DRM Office Danapur, Patna - BSPCB",15-12-2025 08:00:00,25.586562,85.043586,CO,16,133,53
India,Bihar,Patna,"IGSC Planetarium Complex, Patna - BSPCB",15-12-2025 08:00:00,25.610369,85.132568,PM2.5,33,338,163
India,Bihar,Patna,"Muradpur, Patna - BSPCB",15-12-2025 08:00:00,25.619651,85.147382,PM10,78,402,121
India,Bihar,Patna,"Muradpur, Patna - BSPCB",15-12-2025 08:00:00,25.619651,85.147382,NO2,5,12,8
India,Bihar,Patna,"Rajbansi Nagar, Patna - BSPCB",15-12-2025 08:00:00,25.599486,85.113666,PM2.5,41,153,99
India,Bihar,Begusarai,"Lohiyanagar, Begusarai - BSPCB",15-12-2025 08:00:00,25.42742023,86.13886079,NO2,7,21,13
India,Bihar,Begusarai,"Lohiyanagar, Begusarai - BSPCB",15-12-2025 08:00:00,25.42742023,86.13886079,OZONE,9,17,11
India,Bihar,Bettiah,"Kamalnath Nagar, Bettiah - BSPCB",15-12-2025 08:00:00,26.80365,84.51954,SO2,4,15,11
India,Bihar,Bettiah,"Kamalnath Nagar, Bettiah - BSPCB",15-12-2025 08:00:00,26.80365,84.51954,OZONE,22,23,22
India,Bihar,Gaya,"Kareemganj, Gaya - BSPCB",15-12-2025 08:00:00,24.792403,84.992416,PM10,78,266,159
India,Bihar,Gaya,"Kareemganj, Gaya - BSPCB",15-12-2025 08:00:00,24.792403,84.992416,CO,38,44,43
India,Bihar,Gaya,"SFTI Kusdihra, Gaya - BSPCB",15-12-2025 08:00:00,24.762518,84.982348,PM2.5,72,85,77
India,Bihar,Gaya,"SFTI Kusdihra, Gaya - BSPCB",15-12-2025 08:00:00,24.762518,84.982348,NH3,4,4,4
India,Bihar,Manguraha,"Forest Rest House, Manguraha - BSPCB",15-12-2025 08:00:00,27.308328,84.531742,SO2,16,17,17
India,Bihar,Munger,"Town Hall, Munger - BSPCB",15-12-2025 08:00:00,25.376776,86.471523,CO,22,46,32
India,Bihar,Munger,"Town Hall, Munger - BSPCB",15-12-2025 08:00:00,25.376776,86.471523,OZONE,13,22,16
India,Bihar,Patna,"Govt. High School Shikarpur, Patna - BSPCB",15-12-2025 08:00:00,25.592539,85.227158,PM10,59,181,115
India,Assam,Silchar,"Tarapur, Silchar - PCBA",15-12-2025 08:00:00,24.82827,92.79525,CO,33,57,51
India,Chhattisgarh,Korba,"Urja Nagar, Korba - CECB",15-12-2025 08:00:00,22.348441,82.549611,SO2,1,12,7
India,Chhattisgarh,Kunjemura,"OP Jindal School, Kunjemura - CECB",15-12-2025 08:00:00,22.126650,83.483212,PM2.5,34,60,49
India,Chhattisgarh,Kunjemura,"OP Jindal School, Kunjemura - CECB",15-12-2025 08:00:00,22.126650,83.483212,SO2,2,73,21
India,Chhattisgarh,Milupara,"Govt. Higher Secondary School, Milupara - CECB",15-12-2025 08:00:00,22.1910172,83.5197009,PM2.5,84,149,121
India,Chhattisgarh,Milupara,"Govt. Higher Secondary School, Milupara - CECB",15-12-2025 08:00:00,22.1910172,83.5197009,SO2,12,21,15
India,Chhattisgarh,Milupara,"Govt. Higher Secondary School, Milupara - CECB",15-12-2025 08:00:00,22.1910172,83.5197009,OZONE,6,190,13
India,Chhattisgarh,Raipur,"AIIMS, Raipur - CECB",15-12-2025 08:00:00,21.258815,81.578979,NO2,76,98,85
India,Chhattisgarh,Bhilai,"Civic Center, Bhilai - Bhilai Steel Plant",15-12-2025 08:00:00,21.185571,81.343175,SO2,6,11,9
India,Chhattisgarh,Bhilai,"Civic Center, Bhilai - Bhilai Steel Plant",15-12-2025 08:00:00,21.185571,81.343175,CO,20,22,22
India,Chhattisgarh,Bilaspur,"Mangala, Bilaspur - NTPC",15-12-2025 08:00:00,22.08815,82.13737,PM10,104,179,123
India,Chhattisgarh,Bilaspur,"Mangala, Bilaspur - NTPC",15-12-2025 08:00:00,22.08815,82.13737,SO2,7,14,10
India,Bihar,Samastipur,"DM Office_Kasipur, Samastipur - BSPCB",15-12-2025 08:00:00,25.859655,85.77944,PM10,37,186,116
India,Bihar,Samastipur,"DM Office_Kasipur, Samastipur - BSPCB",15-12-2025 08:00:00,25.859655,85.77944,OZONE,8,9,8
India,Bihar,Siwan,"Chitragupta Nagar, Siwan - BSPCB",15-12-2025 08:00:00,26.2271665,84.3570427,CO,27,30,27
India,Chandigarh,Chandigarh,"Sector-53, Chandigarh - CPCC",15-12-2025 08:00:00,30.719859,76.738637,OZONE,3,75,5
India,Chhattisgarh,Bhilai,"32Bungalows, Bhilai - CECB",15-12-2025 08:00:00,21.194815,81.314770,NH3,NA,NA,NA
India,Chhattisgarh,Bhilai,"32Bungalows, Bhilai - CECB",15-12-2025 08:00:00,21.194815,81.314770,CO,18,100,56
India,Bihar,Purnia,"Mariam Nagar, Purnia - BSPCB",15-12-2025 08:00:00,25.366336,87.117468,NH3,3,3,3
India,Bihar,Saharsa,"Police Line, Saharsa - BSPCB",15-12-2025 08:00:00,25.892357,86.590325,SO2,14,19,17
India,Chhattisgarh,Korba,"Rampur, Korba - CECB",15-12-2025 08:00:00,22.368195,82.746431,CO,26,40,34
India,Chhattisgarh,Korba,"Urja Nagar, Korba - CECB",15-12-2025 08:00:00,22.348441,82.549611,PM10,92,93,92
India,Chhattisgarh,Chhal,"Nawapara SECL Colony, Chhal - CECB",15-12-2025 08:00:00,22.118125,83.140608,NH3,5,5,5
India,Chhattisgarh,Chhal,"Nawapara SECL Colony, Chhal - CECB",15-12-2025 08:00:00,22.118125,83.140608,OZONE,3,148,6
India,Chandigarh,Chandigarh,"Sector-25, Chandigarh - CPCC",15-12-2025 08:00:00,30.751462,76.762879,NH3,2,3,2
India,Bihar,Patna,"Samanpura, Patna - BSPCB",15-12-2025 08:00:00,25.596727,85.085624,CO,10,179,150
India,Delhi,Delhi,"Lodhi Road, Delhi - IMD",15-12-2025 08:00:00,28.5918245,77.2273074,NO2,7,57,26
India,Delhi,Delhi,"Major Dhyan Chand National Stadium, Delhi - DPCC",15-12-2025 08:00:00,28.611281,77.237738,NO2,55,148,94
India,Delhi,Delhi,"Major Dhyan Chand National Stadium, Delhi - DPCC",15-12-2025 08:00:00,28.611281,77.237738,NH3,28,33,30
India,Delhi,Delhi,"Major Dhyan Chand National Stadium, Delhi - DPCC",15-12-2025 08:00:00,28.611281,77.237738,OZONE,1,129,2
India,Delhi,Delhi,"Mandir Marg, Delhi - DPCC",15-12-2025 08:00:00,28.636429,77.201067,PM2.5,371,468,413
India,Delhi,Delhi,"Mundka, Delhi - DPCC",15-12-2025 08:00:00,28.684678,77.076574,PM2.5,NA,NA,NA
India,Delhi,Delhi,"Mundka, Delhi - DPCC",15-12-2025 08:00:00,28.684678,77.076574,OZONE,1,12,2
India,Delhi,Delhi,"NSIT Dwarka, Delhi - CPCB",15-12-2025 08:00:00,28.60909,77.0325413,PM2.5,312,483,384
India,Delhi,Delhi,"NSIT Dwarka, Delhi - CPCB",15-12-2025 08:00:00,28.60909,77.0325413,PM10,149,500,383
India,Delhi,Delhi,"NSIT Dwarka, Delhi - CPCB",15-12-2025 08:00:00,28.60909,77.0325413,NO2,58,137,81
India,Delhi,Delhi,"NSIT Dwarka, Delhi - CPCB",15-12-2025 08:00:00,28.60909,77.0325413,CO,46,104,59
India,Delhi,Delhi,"Narela, Delhi - DPCC",15-12-2025 08:00:00,28.822836,77.101981,PM2.5,353,500,465
India,Delhi,Delhi,"Narela, Delhi - DPCC",15-12-2025 08:00:00,28.822836,77.101981,PM10,194,500,417
India,Delhi,Delhi,"Nehru Nagar, Delhi - DPCC",15-12-2025 08:00:00,28.567890,77.250515,NO2,33,126,72
India,Delhi,Delhi,"Nehru Nagar, Delhi - DPCC",15-12-2025 08:00:00,28.567890,77.250515,NH3,18,47,32
India,Delhi,Delhi,"North Campus, DU, Delhi - IMD",15-12-2025 08:00:00,28.6573814,77.1585447,PM2.5,442,500,473
India,Delhi,Delhi,"ITO, Delhi - CPCB",15-12-2025 08:00:00,28.628624,77.241060,PM2.5,388,500,465
India,Delhi,Delhi,"ITO, Delhi - CPCB",15-12-2025 08:00:00,28.628624,77.241060,PM10,378,463,429
India,Delhi,Delhi,"Jahangirpuri, Delhi - DPCC",15-12-2025 08:00:00,28.732820,77.170633,PM2.5,462,500,498
India,Delhi,Delhi,"Jahangirpuri, Delhi - DPCC",15-12-2025 08:00:00,28.732820,77.170633,NH3,2,6,4
India,Delhi,Delhi,"Jawaharlal Nehru Stadium, Delhi - DPCC",15-12-2025 08:00:00,28.580280,77.233829,NO2,59,163,98
India,Delhi,Delhi,"Jawaharlal Nehru Stadium, Delhi - DPCC",15-12-2025 08:00:00,28.580280,77.233829,NH3,4,5,5
India,Delhi,Delhi,"Jawaharlal Nehru Stadium, Delhi - DPCC",15-12-2025 08:00:00,28.580280,77.233829,SO2,7,44,23
India,Delhi,Delhi,"Jawaharlal Nehru Stadium, Delhi - DPCC",15-12-2025 08:00:00,28.580280,77.233829,CO,100,158,129
India,Delhi,Delhi,"Jawaharlal Nehru Stadium, Delhi - DPCC",15-12-2025 08:00:00,28.580280,77.233829,OZONE,4,141,7
India,Delhi,Delhi,"Dr. Karni Singh Shooting Range, Delhi - DPCC",15-12-2025 08:00:00,28.498571,77.264840,CO,10,68,46
India,Delhi,Delhi,"Dwarka-Sector 8, Delhi - DPCC ",15-12-2025 08:00:00,28.5710274,77.0719006,PM10,200,493,399
India,Delhi,Delhi,"Dwarka-Sector 8, Delhi - DPCC ",15-12-2025 08:00:00,28.5710274,77.0719006,OZONE,6,289,8
India,Delhi,Delhi,"IGI Airport (T3), Delhi - IMD",15-12-2025 08:00:00,28.5627763,77.1180053,PM2.5,316,442,382
India,Delhi,Delhi,"IGI Airport (T3), Delhi - IMD",15-12-2025 08:00:00,28.5627763,77.1180053,NO2,82,149,115
India,Delhi,Delhi,"IHBAS, Dilshad Garden, Delhi - CPCB",15-12-2025 08:00:00,28.6811736,77.3025234,PM10,350,433,392
India,Delhi,Delhi,"Pusa, Delhi - DPCC",15-12-2025 08:00:00,28.639652,77.146275,OZONE,8,11,10
India,Delhi,Delhi,"Pusa, Delhi - IMD",15-12-2025 08:00:00,28.636110,77.173332,PM2.5,408,500,448
India,Delhi,Delhi,"R K Puram, Delhi - DPCC",15-12-2025 08:00:00,28.563262,77.186937,NH3,10,15,13
India,Delhi,Delhi,"Rohini, Delhi - DPCC",15-12-2025 08:00:00,28.732528,77.119920,PM10,454,500,492
India,Delhi,Delhi,"Rohini, Delhi - DPCC",15-12-2025 08:00:00,28.732528,77.119920,NO2,43,147,83
India,Delhi,Delhi,"Rohini, Delhi - DPCC",15-12-2025 08:00:00,28.732528,77.119920,OZONE,6,92,8
India,Delhi,Delhi,"Shadipur, Delhi - CPCB",15-12-2025 08:00:00,28.6514781,77.1473105,PM2.5,309,371,345
India,Chhattisgarh,Raipur,"AIIMS, Raipur - CECB",15-12-2025 08:00:00,21.258815,81.578979,OZONE,NA,NA,NA
India,Chhattisgarh,Raipur,"Krishak Nagar, Raipur - CECB",15-12-2025 08:00:00,21.237755,81.705301,OZONE,1,5,1
India,Chhattisgarh,Raipur,"Siltara Phase-II, Raipur - CECB",15-12-2025 08:00:00,21.371751,81.664929,NO2,9,28,18
India,Delhi,Delhi,"Alipur, Delhi - DPCC",15-12-2025 08:00:00,28.815329,77.153010,PM2.5,378,500,449
India,Delhi,Delhi,"Anand Vihar, Delhi - DPCC",15-12-2025 08:00:00,28.647622,77.3158090,PM2.5,453,500,493
India,Delhi,Delhi,"Anand Vihar, Delhi - DPCC",15-12-2025 08:00:00,28.647622,77.3158090,CO,108,164,150
India,Delhi,Delhi,"Ashok Vihar, Delhi - DPCC",15-12-2025 08:00:00,28.695381,77.181665,PM10,465,500,490
India,Delhi,Delhi,"Ashok Vihar, Delhi - DPCC",15-12-2025 08:00:00,28.695381,77.181665,OZONE,5,81,6
India,Delhi,Delhi,"Bawana, Delhi - DPCC",15-12-2025 08:00:00,28.776200,77.051074,PM10,177,500,415
India,Delhi,Delhi,"Okhla Phase-2, Delhi - DPCC",15-12-2025 08:00:00,28.530785,77.271255,PM2.5,416,500,477
India,Delhi,Delhi,"Okhla Phase-2, Delhi - DPCC",15-12-2025 08:00:00,28.530785,77.271255,SO2,10,21,15
India,Delhi,Delhi,"Patparganj, Delhi - DPCC",15-12-2025 08:00:00,28.623763,77.287209,SO2,3,10,7
India,Delhi,Delhi,"DTU, Delhi - CPCB",15-12-2025 08:00:00,28.7500499,77.1112615,NO2,28,34,30
India,Delhi,Delhi,"DTU, Delhi - CPCB",15-12-2025 08:00:00,28.7500499,77.1112615,CO,102,130,121
India,Gujarat,Gandhinagar,"IIPHG Lekawada, Gandhinagar - IITM",15-12-2025 08:00:00,23.243639,72.68994,NH3,2,3,2
India,Gujarat,Gandhinagar,"IIPHG Lekawada, Gandhinagar - IITM",15-12-2025 08:00:00,23.243639,72.68994,SO2,4,10,6
India,Gujarat,Gandhinagar,"Sector-10, Gandhinagar - GPCB",15-12-2025 08:00:00,23.221714,72.654328,PM2.5,34,113,60
India,Gujarat,Gandhinagar,"Sector-10, Gandhinagar - GPCB",15-12-2025 08:00:00,23.221714,72.654328,PM10,50,119,74
India,Gujarat,Vapi,"Phase-1 GIDC, Vapi - GPCB",15-12-2025 08:00:00,20.362421,72.918013,NH3,5,6,5
India,Gujarat,Vatva,"Phase-4 GIDC, Vatva - GPCB",15-12-2025 08:00:00,22.969611,72.643500,PM10,27,148,77
India,Gujarat,Vatva,"Phase-4 GIDC, Vatva - GPCB",15-12-2025 08:00:00,22.969611,72.643500,NH3,5,9,7
India,Delhi,Delhi,"Shadipur, Delhi - CPCB",15-12-2025 08:00:00,28.6514781,77.1473105,NO2,51,92,67
India,Delhi,Delhi,"Sirifort, Delhi - CPCB",15-12-2025 08:00:00,28.5504249,77.2159377,CO,96,137,123
India,Delhi,Delhi,"Sirifort, Delhi - CPCB",15-12-2025 08:00:00,28.5504249,77.2159377,OZONE,8,24,8
India,Delhi,Delhi,"Sri Aurobindo Marg, Delhi - DPCC",15-12-2025 08:00:00,28.531346,77.190156,NH3,6,11,9
India,Delhi,Delhi,"Sri Aurobindo Marg, Delhi - DPCC",15-12-2025 08:00:00,28.531346,77.190156,CO,70,120,100
India,Gujarat,Ahmedabad,"SVPI Airport Hansol, Ahmedabad - IITM",15-12-2025 08:00:00,23.076793,72.627874,PM10,83,198,121
India,Gujarat,Ankleshwar,"GIDC, Ankleshwar - GPCB",15-12-2025 08:00:00,21.613267,73.010555,PM10,59,193,122
India,Gujarat,Ankleshwar,"GIDC, Ankleshwar - GPCB",15-12-2025 08:00:00,21.613267,73.010555,NO2,21,22,21
India,Gujarat,Gandhinagar,"IIPHG Lekawada, Gandhinagar - IITM",15-12-2025 08:00:00,23.243639,72.68994,PM10,66,124,100
India,Haryana,Ballabgarh,"Nathu Colony, Ballabgarh - HSPCB",15-12-2025 08:00:00,28.3419248,77.319699,NO2,19,21,20
India,Haryana,Ballabgarh,"Nathu Colony, Ballabgarh - HSPCB",15-12-2025 08:00:00,28.3419248,77.319699,SO2,6,8,7
India,Haryana,Ballabgarh,"Nathu Colony, Ballabgarh - HSPCB",15-12-2025 08:00:00,28.3419248,77.319699,OZONE,15,15,15
India,Haryana,Charkhi Dadri,"Mini Secretariat, Charkhi Dadri - HSPCB",15-12-2025 08:00:00,28.593883,76.270653,PM2.5,87,347,253
India,Gujarat,Ahmedabad,"Raikhad, Ahmedabad - IITM",15-12-2025 08:00:00,23.020509,72.579261,SO2,10,42,17
India,Gujarat,Ahmedabad,"Raikhad, Ahmedabad - IITM",15-12-2025 08:00:00,23.020509,72.579261,OZONE,8,73,27
India,Gujarat,Ahmedabad,"Rakhial, Ahmedabad - IITM",15-12-2025 08:00:00,23.016834,72.625775,NO2,15,99,39
India,Gujarat,Ahmedabad,"SAC ISRO Bopal, Ahmedabad - IITM",15-12-2025 08:00:00,23.041137,72.456691,PM2.5,77,198,118
India,Delhi,Delhi,"Vivek Vihar, Delhi - DPCC",15-12-2025 08:00:00,28.672342,77.315260,NH3,14,21,17
India,Gujarat,Ahmedabad,"Chandkheda, Ahmedabad - IITM",15-12-2025 08:00:00,23.107969,72.574648,PM10,82,221,130
India,Gujarat,Ahmedabad,"Gyaspur, Ahmedabad - IITM",15-12-2025 08:00:00,22.977134,72.553024,NH3,5,35,13
India,Gujarat,Ahmedabad,"SAC ISRO Bopal, Ahmedabad - IITM",15-12-2025 08:00:00,23.041137,72.456691,NO2,22,55,41
India,Gujarat,Ahmedabad,"SAC ISRO Bopal, Ahmedabad - IITM",15-12-2025 08:00:00,23.041137,72.456691,NH3,11,17,15
India,Gujarat,Ahmedabad,"SAC ISRO Satellite, Ahmedabad - IITM",15-12-2025 08:00:00,23.023389,72.515201,CO,4,60,26
India,Haryana,Faridabad,"New Industrial Town, Faridabad - HSPCB",15-12-2025 08:00:00,28.39072,77.30059,SO2,8,9,8
India,Haryana,Faridabad,"Sector 11, Faridabad - HSPCB",15-12-2025 08:00:00,28.376058,77.315741,PM2.5,125,475,342
India,Haryana,Ambala,"Patti Mehar, Ambala - HSPCB",15-12-2025 08:00:00,30.379589,76.778328,NO2,20,25,23
India,Haryana,Ambala,"Patti Mehar, Ambala - HSPCB",15-12-2025 08:00:00,30.379589,76.778328,SO2,31,32,31
India,Haryana,Jind,"Police Lines, Jind - HSPCB",15-12-2025 08:00:00,29.307814,76.337619,NO2,36,50,43
India,Haryana,Jind,"Police Lines, Jind - HSPCB",15-12-2025 08:00:00,29.307814,76.337619,NH3,1,3,2
India,Haryana,Karnal,"Sector-12, Karnal - HSPCB",15-12-2025 08:00:00,29.695300,77.002700,NO2,6,7,6
India,Haryana,Karnal,"Sector-12, Karnal - HSPCB",15-12-2025 08:00:00,29.695300,77.002700,SO2,17,53,28
India,Haryana,Karnal,"Sector-12, Karnal - HSPCB",15-12-2025 08:00:00,29.695300,77.002700,CO,38,60,46
India,Haryana,Kurukshetra,"Sector-7, Kurukshetra - HSPCB",15-12-2025 08:00:00,29.966942,76.875879,PM10,104,194,150
India,Haryana,Kurukshetra,"Sector-7, Kurukshetra - HSPCB",15-12-2025 08:00:00,29.966942,76.875879,NO2,15,21,18
India,Haryana,Kurukshetra,"Sector-7, Kurukshetra - HSPCB",15-12-2025 08:00:00,29.966942,76.875879,OZONE,2,59,9
India,Haryana,Mandikhera,"General Hospital, Mandikhera(Nuh) - HSPCB",15-12-2025 08:00:00,27.9002,76.9938,NO2,20,24,22
India,Karnataka,Bengaluru,"Jayanagar 5th Block, Bengaluru - KSPCB",15-12-2025 08:00:00,12.920984,77.584908,NH3,1,2,1
India,Karnataka,Bengaluru,"Jigani, Bengaluru - KSPCB",15-12-2025 08:00:00,12.7816279,77.6299145,PM10,58,128,95
India,Karnataka,Bengaluru,"Jigani, Bengaluru - KSPCB",15-12-2025 08:00:00,12.7816279,77.6299145,NO2,23,24,24
India,Karnataka,Bengaluru,"Kasturi Nagar, Bengaluru - KSPCB",15-12-2025 08:00:00,13.003872,77.664217,SO2,3,15,12
India,Karnataka,Bengaluru,"Peenya, Bengaluru - CPCB",15-12-2025 08:00:00,13.0270199,77.494094,PM10,48,61,52
India,Karnataka,Bengaluru,"Peenya, Bengaluru - CPCB",15-12-2025 08:00:00,13.0270199,77.494094,SO2,5,13,9
India,Karnataka,Bengaluru,"RVCE-Mailasandra, Bengaluru - KSPCB",15-12-2025 08:00:00,12.921418,77.502466,PM10,85,132,112
India,Haryana,Manesar,"Sector-2 IMT, Manesar - HSPCB",15-12-2025 08:00:00,28.360699,76.936090,PM10,144,385,220
India,Haryana,Narnaul,"Shastri Nagar, Narnaul - HSPCB",15-12-2025 08:00:00,28.060249,76.113115,PM2.5,171,308,217
India,Haryana,Narnaul,"Shastri Nagar, Narnaul - HSPCB",15-12-2025 08:00:00,28.060249,76.113115,SO2,2,7,4
India,Haryana,Palwal,"Shyam Nagar, Palwal - HSPCB",15-12-2025 08:00:00,28.1485564,77.3320667,SO2,12,14,12
India,Haryana,Panchgaon,"Amity University, Panchgaon - IITM",15-12-2025 08:00:00,28.3153,76.9143,PM10,56,383,198
India,Haryana,Panchgaon,"Amity University, Panchgaon - IITM",15-12-2025 08:00:00,28.3153,76.9143,NO2,1,34,7
India,Haryana,Panchgaon,"Amity University, Panchgaon - IITM",15-12-2025 08:00:00,28.3153,76.9143,CO,22,83,65
India,Himachal Pradesh,Baddi,"HIMUDA Complex Phase-1, Baddi - HPPCB",15-12-2025 08:00:00,30.943887,76.801991,CO,52,118,70
India,Jammu_and_Kashmir,Srinagar,"Rajbagh, Srinagar - JKSPCB",15-12-2025 08:00:00,34.066206,74.819820,NO2,NA,NA,NA
India,Jammu_and_Kashmir,Srinagar,"Rajbagh, Srinagar - JKSPCB",15-12-2025 08:00:00,34.066206,74.819820,CO,22,28,24
India,Jharkhand,Dhanbad,"Sardar Patel Nagar, Dhanbad - JSPCB",15-12-2025 08:00:00,23.80569,86.44268,NO2,64,78,65
India,Jharkhand,Dhanbad,"Sardar Patel Nagar, Dhanbad - JSPCB",15-12-2025 08:00:00,23.80569,86.44268,SO2,NA,NA,NA
India,Jharkhand,Dhanbad,"Sardar Patel Nagar, Dhanbad - JSPCB",15-12-2025 08:00:00,23.80569,86.44268,CO,6,32,19
India,Haryana,Panchkula,"Sector-6, Panchkula - HSPCB ",15-12-2025 08:00:00,30.7057778,76.8531805555555,OZONE,24,36,27
India,Haryana,Panipat,"Sector-18, Panipat - HSPCB",15-12-2025 08:00:00,29.432304,76.972765,NH3,2,3,2
India,Haryana,Panipat,"Sector-18, Panipat - HSPCB",15-12-2025 08:00:00,29.432304,76.972765,OZONE,30,30,30
India,Haryana,Sirsa,"F-Block, Sirsa - HSPCB",15-12-2025 08:00:00,29.536400,75.015800,PM2.5,31,95,61
India,Haryana,Sirsa,"F-Block, Sirsa - HSPCB",15-12-2025 08:00:00,29.536400,75.015800,PM10,37,109,73
India,Haryana,Sirsa,"F-Block, Sirsa - HSPCB",15-12-2025 08:00:00,29.536400,75.015800,NO2,13,31,19
India,Haryana,Faridabad,"Sector 11, Faridabad - HSPCB",15-12-2025 08:00:00,28.376058,77.315741,CO,10,101,30
India,Haryana,Faridabad,"Sector 30, Faridabad - HSPCB",15-12-2025 08:00:00,28.4417,77.3217,PM10,107,122,111
India,Haryana,Faridabad,"Sector 30, Faridabad - HSPCB",15-12-2025 08:00:00,28.4417,77.3217,NH3,11,12,11
India,Haryana,Fatehabad,"Huda Sector, Fatehabad - HSPCB",15-12-2025 08:00:00,29.503664,75.467934,PM2.5,231,337,304
India,Haryana,Fatehabad,"Huda Sector, Fatehabad - HSPCB",15-12-2025 08:00:00,29.503664,75.467934,SO2,10,11,10
India,Karnataka,Bengaluru,"Shivapura_Peenya, Bengaluru - KSPCB",15-12-2025 08:00:00,13.0246342,77.5080115,OZONE,19,20,20
India,Karnataka,Bengaluru,"Silk Board, Bengaluru - KSPCB",15-12-2025 08:00:00,12.917348,77.622813,PM10,71,232,134
India,Karnataka,Bengaluru,"Silk Board, Bengaluru - KSPCB",15-12-2025 08:00:00,12.917348,77.622813,NH3,1,2,2
India,Karnataka,Bengaluru,"Silk Board, Bengaluru - KSPCB",15-12-2025 08:00:00,12.917348,77.622813,OZONE,11,30,21
India,Haryana,Gurugram,"Vikas Sadan, Gurugram - HSPCB",15-12-2025 08:00:00,28.4501238,77.0263051,CO,101,140,121
India,Karnataka,Bengaluru,"Hebbal, Bengaluru - KSPCB",15-12-2025 08:00:00,13.029152,77.585901,PM10,45,162,95
India,Madhya Pradesh,Bhopal,"Paryavaran Parisar, Bhopal - MPPCB",15-12-2025 08:00:00,23.210494,77.425409,NO2,27,109,53
India,Madhya Pradesh,Bhopal,"T T Nagar, Bhopal - MPPCB",15-12-2025 08:00:00,23.233584,77.400574,PM10,107,262,156
India,Madhya Pradesh,Bhopal,"T T Nagar, Bhopal - MPPCB",15-12-2025 08:00:00,23.233584,77.400574,SO2,7,21,15
India,Madhya Pradesh,Damoh,"Shrivastav Colony, Damoh - MPPCB",15-12-2025 08:00:00,23.81748678,79.446246,PM2.5,10,42,28
India,Madhya Pradesh,Damoh,"Shrivastav Colony, Damoh - MPPCB",15-12-2025 08:00:00,23.81748678,79.446246,CO,17,48,27
India,Madhya Pradesh,Dewas,"Bhopal Chauraha, Dewas - MPPCB",15-12-2025 08:00:00,22.9682591,76.064118,PM10,44,148,95
India,Madhya Pradesh,Dewas,"Bhopal Chauraha, Dewas - MPPCB",15-12-2025 08:00:00,22.9682591,76.064118,NO2,7,8,7
India,Kerala,Thiruvananthapuram,"Plammoodu, Thiruvananthapuram - Kerala PCB",15-12-2025 08:00:00,8.5149093,76.9435879,SO2,11,21,17
India,Kerala,Thrissur,"Corporation Ground, Thrissur - Kerala PCB",15-12-2025 08:00:00,10.532400,76.215900,SO2,NA,NA,NA
India,Kerala,Thrissur,"Corporation Ground, Thrissur - Kerala PCB",15-12-2025 08:00:00,10.532400,76.215900,CO,18,29,23
India,Madhya Pradesh,Bhopal,"Idgah Hills, Bhopal - MPPCB",15-12-2025 08:00:00,23.264759,77.381568,PM10,80,246,167
India,Madhya Pradesh,Bhopal,"Idgah Hills, Bhopal - MPPCB",15-12-2025 08:00:00,23.264759,77.381568,CO,23,62,47
India,Madhya Pradesh,Bhopal,"Paryavaran Parisar, Bhopal - MPPCB",15-12-2025 08:00:00,23.210494,77.425409,PM2.5,48,373,202
India,Karnataka,Mysuru,"Hebbal 1st Stage, Mysuru - KSPCB",15-12-2025 08:00:00,12.21041,76.37376,PM2.5,41,89,63
India,Karnataka,Mysuru,"Hebbal 1st Stage, Mysuru - KSPCB",15-12-2025 08:00:00,12.21041,76.37376,SO2,2,7,5
India,Karnataka,Shivamogga,"Vinoba Nagara, Shivamogga - KSPCB",15-12-2025 08:00:00,13.940000,75.555917,PM10,47,68,66
India,Kerala,Kannur,"Thavakkara, Kannur - Kerala PCB",15-12-2025 08:00:00,11.875000,75.373200,SO2,8,9,8
India,Kerala,Kannur,"Thavakkara, Kannur - Kerala PCB",15-12-2025 08:00:00,11.875000,75.373200,CO,16,19,18
India,Kerala,Thiruvananthapuram,"Kariavattom, Thiruvananthapuram - Kerala PCB",15-12-2025 08:00:00,8.563700,76.886500,PM10,73,127,95
India,Karnataka,Madikeri,"Stuart Hill, Madikeri - KSPCB",15-12-2025 08:00:00,12.415911,75.735050,PM10,21,50,36
India,Karnataka,Madikeri,"Stuart Hill, Madikeri - KSPCB",15-12-2025 08:00:00,12.415911,75.735050,OZONE,3,6,4
India,Karnataka,Mangalore,"Kadri, Mangalore - KSPCB",15-12-2025 08:00:00,12.889250,74.853000,PM10,75,133,100
India,Karnataka,Chamarajanagar,"Urban, Chamarajanagar - KSPCB",15-12-2025 08:00:00,11.55358,76.55521,OZONE,11,30,18
India,Karnataka,Chikkamagaluru,"Kalyana Nagara, Chikkamagaluru - KSPCB",15-12-2025 08:00:00,13.328028,75.797056,NO2,NA,NA,NA
India,Karnataka,Chikkamagaluru,"Kalyana Nagara, Chikkamagaluru - KSPCB",15-12-2025 08:00:00,13.328028,75.797056,CO,11,11,11
India,Karnataka,Dharwad,"Kalabhavan, Dharwad - KSPCB",15-12-2025 08:00:00,15.459706,75.008381,PM10,76,94,84
India,Madhya Pradesh,Gwalior,"City Center, Gwalior - MPPCB",15-12-2025 08:00:00,26.203442,78.193251,OZONE,26,44,42
India,Karnataka,Koppal,"Diwator Nagar, Koppal - KSPCB",15-12-2025 08:00:00,15.347630,76.181767,NO2,31,37,35
India,Madhya Pradesh,Indore,"Chhoti Gwaltoli, Indore - MPPCB",15-12-2025 08:00:00,22.4310,75.5213,PM10,37,156,92
India,Madhya Pradesh,Indore,"Chhoti Gwaltoli, Indore - MPPCB",15-12-2025 08:00:00,22.4310,75.5213,NO2,91,159,121
India,Madhya Pradesh,Indore,"Regional Park, Indore - IMC",15-12-2025 08:00:00,22.6780,75.8559,NO2,8,12,10
India,Madhya Pradesh,Jabalpur,"Govindh Bhavan Colony, Jabalpur - JMC",15-12-2025 08:00:00,23.163174,79.973061,PM10,58,135,94
India,Madhya Pradesh,Jabalpur,"Govindh Bhavan Colony, Jabalpur - JMC",15-12-2025 08:00:00,23.163174,79.973061,NH3,1,2,1
India,Madhya Pradesh,Jabalpur,"Gupteshwar, Jabalpur - JMC",15-12-2025 08:00:00,23.142888,79.916147,PM10,80,183,124
India,Madhya Pradesh,Jabalpur,"Gupteshwar, Jabalpur - JMC",15-12-2025 08:00:00,23.142888,79.916147,NH3,9,17,13
India,Maharashtra,Aurangabad,"Rachnakar Colony, Aurangabad - MPCB",15-12-2025 08:00:00,19.863756,75.321188,CO,14,76,35
India,Maharashtra,Badlapur,"Katrap, Badlapur - MPCB",15-12-2025 08:00:00,19.16485,73.23409,NH3,3,9,5
India,Maharashtra,Badlapur,"Katrap, Badlapur - MPCB",15-12-2025 08:00:00,19.16485,73.23409,SO2,7,17,12
India,Maharashtra,Belapur,"CBD Belapur, Belapur - MPCB",15-12-2025 08:00:00,19.0243902,73.0406721,PM10,23,90,56
India,Maharashtra,Belapur,"CBD Belapur, Belapur - MPCB",15-12-2025 08:00:00,19.0243902,73.0406721,NO2,10,49,26
India,Maharashtra,Belapur,"CBD Belapur, Belapur - MPCB",15-12-2025 08:00:00,19.0243902,73.0406721,NH3,1,2,1
India,Maharashtra,Ahmednagar,"Tarakpur, Ahmednagar - MPCB",15-12-2025 08:00:00,19.10122,74.73339,SO2,2,12,5
India,Maharashtra,Ahmednagar,"Tarakpur, Ahmednagar - MPCB",15-12-2025 08:00:00,19.10122,74.73339,CO,30,115,52
India,Maharashtra,Akola,"Ramdaspeth, Akola - MPCB",15-12-2025 08:00:00,20.719516,77.000253,PM2.5,31,186,75
India,Maharashtra,Amravati,"Shivneri Colony, Amravati - MPCB",15-12-2025 08:00:00,20.9402359,77.7895248,PM2.5,34,112,61
India,Madhya Pradesh,Pithampur,"Sector-2 Industrial Area, Pithampur - MPPCB",15-12-2025 08:00:00,22.624758,75.675238,OZONE,21,40,27
India,Madhya Pradesh,Sagar,"Civil Lines, Sagar - MPPCB",15-12-2025 08:00:00,23.838586,78.759431,PM2.5,123,357,289
India,Madhya Pradesh,Sagar,"Civil Lines, Sagar - MPPCB",15-12-2025 08:00:00,23.838586,78.759431,NO2,11,42,21
India,Madhya Pradesh,Sagar,"Civil Lines, Sagar - MPPCB",15-12-2025 08:00:00,23.838586,78.759431,NH3,1,2,1
India,Madhya Pradesh,Jabalpur,"Suhagi, Jabalpur - JMC",15-12-2025 08:00:00,23.218135,79.957770,PM10,98,206,147
India,Madhya Pradesh,Maihar,"Sahilara, Maihar - KJS Cements",15-12-2025 08:00:00,24.2613009,80.7231783,PM2.5,24,123,68
India,Madhya Pradesh,Maihar,"Sahilara, Maihar - KJS Cements",15-12-2025 08:00:00,24.2613009,80.7231783,PM10,89,160,136
India,Madhya Pradesh,Maihar,"Sahilara, Maihar - KJS Cements",15-12-2025 08:00:00,24.2613009,80.7231783,CO,57,78,64
India,Maharashtra,Chandrapur,"Chauhan Colony, Chandrapur - MPCB",15-12-2025 08:00:00,19.962900,79.298714,PM2.5,11,83,38
India,Maharashtra,Dhule,"Deopur, Dhule - MPCB",15-12-2025 08:00:00,20.918946,74.776388,SO2,6,19,12
India,Maharashtra,Aurangabad,"More Chowk Waluj, Aurangabad - MPCB",15-12-2025 08:00:00,19.8389439,75.244448,PM2.5,35,201,77
India,Maharashtra,Aurangabad,"More Chowk Waluj, Aurangabad - MPCB",15-12-2025 08:00:00,19.8389439,75.244448,NH3,10,11,11
India,Madhya Pradesh,Gwalior,"Deen Dayal Nagar, Gwalior - MPPCB",15-12-2025 08:00:00,26.259242,78.216432,NH3,9,16,12
India,Maharashtra,Jalgaon,"Prabhat Colony, Jalgaon - MPCB",15-12-2025 08:00:00,21.001264,75.565602,NO2,4,36,11
India,Maharashtra,Mumbai,"Chakala-Andheri East, Mumbai - IITM",15-12-2025 08:00:00,19.11074,72.86084,NO2,37,70,50
India,Maharashtra,Mumbai,"Chembur, Mumbai - MPCB",15-12-2025 08:00:00,19.0364585,72.8954371,NH3,1,3,2
India,Maharashtra,Mumbai,"Chembur, Mumbai - MPCB",15-12-2025 08:00:00,19.0364585,72.8954371,SO2,6,36,14
India,Maharashtra,Mumbai,"Chembur, Mumbai - MPCB",15-12-2025 08:00:00,19.0364585,72.8954371,CO,28,69,48
India,Maharashtra,Mumbai,"Colaba, Mumbai - MPCB",15-12-2025 08:00:00,18.910000,72.820000,OZONE,10,11,11
India,Maharashtra,Mumbai,"Deonar, Mumbai - IITM",15-12-2025 08:00:00,19.04946,72.9230,PM2.5,NA,NA,NA
India,Maharashtra,Mumbai,"Deonar, Mumbai - IITM",15-12-2025 08:00:00,19.04946,72.9230,PM10,83,182,132
India,Maharashtra,Mumbai,"Borivali East, Mumbai - IITM",15-12-2025 08:00:00,19.23241,72.86895,CO,39,92,60
India,Maharashtra,Mumbai,"Byculla, Mumbai - BMC",15-12-2025 08:00:00,18.9767,72.8380,PM2.5,76,181,115
India,Maharashtra,Mumbai,"Byculla, Mumbai - BMC",15-12-2025 08:00:00,18.9767,72.8380,NO2,58,156,104
India,Maharashtra,Mumbai,"Byculla, Mumbai - BMC",15-12-2025 08:00:00,18.9767,72.8380,NH3,11,40,22
India,Maharashtra,Latur,"Sawe Wadi, Latur - MPCB",15-12-2025 08:00:00,18.39963,76.57452,SO2,2,23,10
India,Maharashtra,Malegaon,"Mahesh Nagar, Malegaon - MPCB",15-12-2025 08:00:00,20.555712,74.529236,PM10,56,221,108
India,Maharashtra,Malegaon,"Mahesh Nagar, Malegaon - MPCB",15-12-2025 08:00:00,20.555712,74.529236,SO2,19,57,30
India,Maharashtra,Kolhapur,"Shivaji University, Kolhapur - MPCB",15-12-2025 08:00:00,16.6870449,74.2505872,PM2.5,74,101,89
India,Maharashtra,Kolhapur,"Shivaji University, Kolhapur - MPCB",15-12-2025 08:00:00,16.6870449,74.2505872,NO2,10,69,31
India,Maharashtra,Kolhapur,"Sinchan Bhavan, Kolhapur - MPCB",15-12-2025 08:00:00,16.7143745,74.2426398,PM10,87,104,97
India,Maharashtra,Mumbai,"Bandra Kurla Complex, Mumbai - MPCB",15-12-2025 08:00:00,19.065931,72.862131,NO2,29,102,63
India,Maharashtra,Mumbai,"Bandra Kurla Complex, Mumbai - MPCB",15-12-2025 08:00:00,19.065931,72.862131,NH3,10,14,12
India,Maharashtra,Kolhapur,"Sinchan Bhavan, Kolhapur - MPCB",15-12-2025 08:00:00,16.7143745,74.2426398,OZONE,1,47,4
India,Maharashtra,Mumbai,"Borivali East, Mumbai - IITM",15-12-2025 08:00:00,19.23241,72.86895,PM10,64,133,100
India,Maharashtra,Jalna,"Old MIDC, Jalna - MPCB",15-12-2025 08:00:00,19.854616,75.905894,NO2,10,24,17
India,Maharashtra,Kalyan,"Khadakpada, Kalyan - MPCB",15-12-2025 08:00:00,19.25292,73.142019,NH3,NA,NA,NA
India,Maharashtra,Nashik,"Hirawadi, Nashik - MPCB",15-12-2025 08:00:00,20.021503,73.813844,OZONE,6,78,18
India,Maharashtra,Nashik,"MIDC Ambad, Nashik - MPCB",15-12-2025 08:00:00,19.950220,73.731480,NH3,2,3,3
India,Maharashtra,Nashik,"Pandav Nagari, Nashik - MPCB",15-12-2025 08:00:00,19.9591346,73.7788008,PM10,88,165,114
India,Maharashtra,Nashik,"Pandav Nagari, Nashik - MPCB",15-12-2025 08:00:00,19.9591346,73.7788008,NO2,7,58,28
India,Maharashtra,Nashik,"Pandav Nagari, Nashik - MPCB",15-12-2025 08:00:00,19.9591346,73.7788008,CO,14,108,45
India,Maharashtra,Navi Mumbai,"Kopripada-Vashi, Navi Mumbai - MPCB",15-12-2025 08:00:00,19.090337,73.014232,PM2.5,58,91,68
India,Maharashtra,Navi Mumbai,"Kopripada-Vashi, Navi Mumbai - MPCB",15-12-2025 08:00:00,19.090337,73.014232,NO2,12,75,36
India,Maharashtra,Navi Mumbai,"Kopripada-Vashi, Navi Mumbai - MPCB",15-12-2025 08:00:00,19.090337,73.014232,SO2,19,36,27
India,Maharashtra,Navi Mumbai,"Mahape, Navi Mumbai - MPCB",15-12-2025 08:00:00,19.1135051,73.008978,PM2.5,13,35,18
India,Maharashtra,Navi Mumbai,"Mahape, Navi Mumbai - MPCB",15-12-2025 08:00:00,19.1135051,73.008978,NO2,33,36,35
India,Maharashtra,Mumbai,"Kurla, Mumbai - MPCB",15-12-2025 08:00:00,19.0863,72.8888,CO,10,28,20
India,Maharashtra,Mumbai,"Malad West, Mumbai - IITM",15-12-2025 08:00:00,19.19709,72.82204,PM2.5,47,132,85
India,Maharashtra,Mumbai,"Malad West, Mumbai - IITM",15-12-2025 08:00:00,19.19709,72.82204,NH3,17,36,22
India,Maharashtra,Mumbai,"Mazgaon, Mumbai - IITM",15-12-2025 08:00:00,18.96702,72.84214,PM10,61,104,79
India,Maharashtra,Mumbai,"Mazgaon, Mumbai - IITM",15-12-2025 08:00:00,18.96702,72.84214,NO2,35,114,84
India,Maharashtra,Mumbai,"Mazgaon, Mumbai - IITM",15-12-2025 08:00:00,18.96702,72.84214,SO2,12,25,17
India,Maharashtra,Mumbai,"Mazgaon, Mumbai - IITM",15-12-2025 08:00:00,18.96702,72.84214,CO,6,63,36
India,Maharashtra,Mumbai,"Mindspace-Malad West, Mumbai - MPCB",15-12-2025 08:00:00,19.1878657,72.8304069,PM10,34,238,78
India,Maharashtra,Mumbai,"Mindspace-Malad West, Mumbai - MPCB",15-12-2025 08:00:00,19.1878657,72.8304069,OZONE,1,125,8
India,Maharashtra,Mumbai,"Deonar, Mumbai - IITM",15-12-2025 08:00:00,19.04946,72.9230,CO,18,102,45
India,Maharashtra,Mumbai,"Ghatkopar, Mumbai - BMC",15-12-2025 08:00:00,19.083694,72.920967,PM2.5,60,128,84
India,Maharashtra,Mumbai,"Ghatkopar, Mumbai - BMC",15-12-2025 08:00:00,19.083694,72.920967,CO,14,34,26
India,Maharashtra,Mumbai,"Kherwadi_Bandra East, Mumbai - MPCB",15-12-2025 08:00:00,19.0632143,72.8456324,PM10,111,217,145
India,Maharashtra,Mumbai,"Khindipada-Bhandup West, Mumbai - IITM",15-12-2025 08:00:00,19.1653323,72.922099,PM10,48,103,79
India,Maharashtra,Mumbai,"Khindipada-Bhandup West, Mumbai - IITM",15-12-2025 08:00:00,19.1653323,72.922099,SO2,1,29,11
India,Maharashtra,Nagpur,"Opp GPO Civil Lines, Nagpur - MPCB",15-12-2025 08:00:00,21.152875,79.0517531,OZONE,2,48,8
India,Maharashtra,Nagpur,"Ram Nagar, Nagpur - MPCB",15-12-2025 08:00:00,21.143383,79.048912,PM2.5,50,145,93
India,Maharashtra,Nagpur,"Ram Nagar, Nagpur - MPCB",15-12-2025 08:00:00,21.143383,79.048912,NO2,11,62,27
India,Maharashtra,Nagpur,"Ram Nagar, Nagpur - MPCB",15-12-2025 08:00:00,21.143383,79.048912,OZONE,7,63,20
India,Maharashtra,Nashik,"Gangapur Road, Nashik - MPCB",15-12-2025 08:00:00,20.0073285,73.7762427,NH3,3,3,3
India,Maharashtra,Nashik,"Gangapur Road, Nashik - MPCB",15-12-2025 08:00:00,20.0073285,73.7762427,CO,31,44,35
India,Maharashtra,Navi Mumbai,"Nerul, Navi Mumbai - MPCB",15-12-2025 08:00:00,19.008751,73.016620,PM10,74,180,123
India,Maharashtra,Navi Mumbai,"Nerul, Navi Mumbai - MPCB",15-12-2025 08:00:00,19.008751,73.016620,NH3,4,5,4
India,Maharashtra,Navi Mumbai,"Sanpada, Navi Mumbai - MPCB",15-12-2025 08:00:00,19.0575752,73.0151367,PM10,67,173,121
India,Maharashtra,Navi Mumbai,"Sanpada, Navi Mumbai - MPCB",15-12-2025 08:00:00,19.0575752,73.0151367,NH3,3,30,9
India,Maharashtra,Navi Mumbai,"Sector-2E Kalamboli, Navi Mumbai - MPCB",15-12-2025 08:00:00,19.02579,73.10297,NO2,NA,NA,NA
India,Maharashtra,Navi Mumbai,"Sector-2E Kalamboli, Navi Mumbai - MPCB",15-12-2025 08:00:00,19.02579,73.10297,CO,2,63,23
India,Maharashtra,Mumbai,"Vile Parle West, Mumbai - MPCB",15-12-2025 08:00:00,19.10861,72.83622,NO2,11,11,11
India,Maharashtra,Mumbai,"Vile Parle West, Mumbai - MPCB",15-12-2025 08:00:00,19.10861,72.83622,SO2,47,52,50
India,Maharashtra,Mumbai,"Worli, Mumbai - MPCB",15-12-2025 08:00:00,18.9936162,72.8128113,CO,4,26,8
India,Maharashtra,Nagpur,"Ambazari, Nagpur - MPCB",15-12-2025 08:00:00,21.121801,79.04952,NH3,1,20,5
India,Maharashtra,Nagpur,"Ambazari, Nagpur - MPCB",15-12-2025 08:00:00,21.121801,79.04952,OZONE,2,79,36
India,Maharashtra,Mumbai,"Navy Nagar-Colaba, Mumbai - IITM",15-12-2025 08:00:00,18.897756,72.813320,NH3,6,26,13
India,Maharashtra,Mumbai,"Navy Nagar-Colaba, Mumbai - IITM",15-12-2025 08:00:00,18.897756,72.813320,OZONE,9,80,21
India,Maharashtra,Mumbai,"Siddharth Nagar-Worli, Mumbai - IITM",15-12-2025 08:00:00,19.000083,72.813993,PM10,80,149,120
India,Maharashtra,Mumbai,"Sion, Mumbai - MPCB",15-12-2025 08:00:00,19.047000,72.874600,PM2.5,15,74,39
India,Maharashtra,Thane,"Kasarvadavali, Thane - MPCB",15-12-2025 08:00:00,19.26777,72.97182,SO2,4,21,10
India,Maharashtra,Ulhasnagar,"Sidhi Vinayak Nagar, Ulhasnagar - MPCB",15-12-2025 08:00:00,19.235581,73.159121,NH3,4,8,6
India,Maharashtra,Ulhasnagar,"Sidhi Vinayak Nagar, Ulhasnagar - MPCB",15-12-2025 08:00:00,19.235581,73.159121,CO,10,88,20
India,Maharashtra,Virar,"Bolinj, Virar - MPCB",15-12-2025 08:00:00,19.4458210,72.7988231,SO2,7,24,15
India,Maharashtra,Virar,"Bolinj, Virar - MPCB",15-12-2025 08:00:00,19.4458210,72.7988231,OZONE,3,107,36
India,Meghalaya,Shillong,"JN Stadium, Shillong - Meghalaya PCB",15-12-2025 08:00:00,25.5803419,91.8942571,NH3,8,13,10
India,Maharashtra,Pune,"Transport Nagar-Nigdi, Pune - IITM",15-12-2025 08:00:00,18.664282,73.763966,CO,NA,NA,NA
India,Maharashtra,Pune,"Transport Nagar-Nigdi, Pune - IITM",15-12-2025 08:00:00,18.664282,73.763966,OZONE,NA,NA,NA
India,Maharashtra,Solapur,"Dnyaneshwar Nagar, Solapur - MPCB",15-12-2025 08:00:00,17.6336264,75.9132495,CO,13,78,29
India,Maharashtra,Solapur,"Ratandeep Housing Society, Solapur - MPCB",15-12-2025 08:00:00,17.65439,75.90649,NO2,15,162,46
India,Maharashtra,Solapur,"Ratandeep Housing Society, Solapur - MPCB",15-12-2025 08:00:00,17.65439,75.90649,NH3,2,26,5
India,Maharashtra,Pune,"Katraj Dairy, Pune - MPCB",15-12-2025 08:00:00,18.454450,73.854155,PM2.5,82,174,125
India,Maharashtra,Pune,"Katraj Dairy, Pune - MPCB",15-12-2025 08:00:00,18.454450,73.854155,CO,8,118,86
India,Maharashtra,Pune,"Katraj Dairy, Pune - MPCB",15-12-2025 08:00:00,18.454450,73.854155,OZONE,NA,NA,NA
India,Maharashtra,Pune,"Mhada Colony, Pune - IITM",15-12-2025 08:00:00,18.573040,73.927715,NO2,18,25,21
India,Maharashtra,Pune,"Panchawati_Pashan, Pune - IITM",15-12-2025 08:00:00,18.536457,73.805454,NO2,14,54,26
India,Nagaland,Kohima,"PWD Junction, Kohima - NPCB",15-12-2025 08:00:00,25.6635413,94.0989878,NH3,1,1,1
India,Odisha,Angul,"Hakimapada, Angul - OSPCB",15-12-2025 08:00:00,20.832874,85.104082,OZONE,14,279,33
India,Odisha,Balasore,"Kalidaspur, Balasore - OSPCB",15-12-2025 08:00:00,21.51161,86.89088,PM10,100,175,127
India,Odisha,Balasore,"Kalidaspur, Balasore - OSPCB",15-12-2025 08:00:00,21.51161,86.89088,NH3,2,4,3
India,Maharashtra,Pune,"Revenue Colony-Shivajinagar, Pune - IITM",15-12-2025 08:00:00,18.530085,73.849598,PM2.5,64,346,210
India,Maharashtra,Pune,"Revenue Colony-Shivajinagar, Pune - IITM",15-12-2025 08:00:00,18.530085,73.849598,NO2,26,105,61
India,Maharashtra,Pune,"Savitribai Phule Pune University, Pune - MPCB",15-12-2025 08:00:00,18.547056,73.826908,NO2,1,39,14
India,Maharashtra,Pimpri-Chinchwad,"Thergaon, Pimpri Chinchwad - MPCB",15-12-2025 08:00:00,18.616318,73.765797,PM2.5,34,396,215
India,Maharashtra,Pimpri-Chinchwad,"Thergaon, Pimpri Chinchwad - MPCB",15-12-2025 08:00:00,18.616318,73.765797,NH3,5,12,9
India,Maharashtra,Pune,"Bhumkar Nagar, Pune - IITM",15-12-2025 08:00:00,18.605770,73.749976,PM2.5,93,385,252
India,Maharashtra,Solapur,"Ratandeep Housing Society, Solapur - MPCB",15-12-2025 08:00:00,17.65439,75.90649,OZONE,1,113,57
India,Maharashtra,Thane,"Kasarvadavali, Thane - MPCB",15-12-2025 08:00:00,19.26777,72.97182,PM2.5,32,71,54
India,Maharashtra,Thane,"Kasarvadavali, Thane - MPCB",15-12-2025 08:00:00,19.26777,72.97182,NH3,2,19,6
India,Meghalaya,Shillong,"JN Stadium, Shillong - Meghalaya PCB",15-12-2025 08:00:00,25.5803419,91.8942571,SO2,23,28,26
India,Meghalaya,Shillong,"JN Stadium, Shillong - Meghalaya PCB",15-12-2025 08:00:00,25.5803419,91.8942571,CO,18,105,39
India,Maharashtra,Pimpri-Chinchwad,"Gavalinagar, Pimpri Chinchwad - MPCB",15-12-2025 08:00:00,18.63673,73.82487,PM10,63,265,162
India,Rajasthan,Bhiwadi,"RIICO Ind. Area III, Bhiwadi - RSPCB",15-12-2025 08:00:00,28.194909,76.862296,PM10,105,269,182
India,Rajasthan,Bhiwadi,"RIICO Ind. Area III, Bhiwadi - RSPCB",15-12-2025 08:00:00,28.194909,76.862296,NH3,5,17,10
India,Rajasthan,Bhiwadi,"RIICO Ind. Area III, Bhiwadi - RSPCB",15-12-2025 08:00:00,28.194909,76.862296,OZONE,4,39,7
India,Rajasthan,Bhiwadi,"Vasundhara Nagar_UIT, Bhiwadi - RSPCB",15-12-2025 08:00:00,28.207266,76.829265,NO2,34,150,71
India,Rajasthan,Bhiwadi,"Vasundhara Nagar_UIT, Bhiwadi - RSPCB",15-12-2025 08:00:00,28.207266,76.829265,NH3,5,8,7
India,Rajasthan,Bikaner,"MM Ground, Bikaner - RSPCB",15-12-2025 08:00:00,28.018792,73.292658,CO,29,155,53
India,Rajasthan,Bundi,"New Colony, Bundi - RSPCB",15-12-2025 08:00:00,25.435774,75.644272,NO2,12,44,25
India,Odisha,Bileipada,"Tata Township, Bileipada - OSPCB",15-12-2025 08:00:00,22.06156703,85.47409613,NH3,4,4,4
India,Odisha,Bileipada,"Tata Township, Bileipada - OSPCB",15-12-2025 08:00:00,22.06156703,85.47409613,OZONE,13,13,13
India,Odisha,Brajrajnagar,"GM Office, Brajrajnagar - OSPCB",15-12-2025 08:00:00,21.8004996,83.8396977,NO2,NA,NA,NA
India,Odisha,Byasanagar,"Ferro Chrome Colony, Byasanagar - OSPCB",15-12-2025 08:00:00,20.94185,86.11510,PM2.5,143,313,242
India,Odisha,Cuttack,"CDA Area, Cuttack - OSPCB",15-12-2025 08:00:00,20.48891     ,85.84768     ,OZONE,3,206,21
India,Odisha,Talcher,"Talcher Coalfields,Talcher - OSPCB",15-12-2025 08:00:00,20.9360711,85.1707021,OZONE,7,24,11
India,Puducherry,Puducherry,"Jawahar Nagar, Puducherry - PPCC",15-12-2025 08:00:00,11.9309,79.8027,PM10,46,85,66
India,Puducherry,Puducherry,"Jawahar Nagar, Puducherry - PPCC",15-12-2025 08:00:00,11.9309,79.8027,SO2,5,10,8
India,Punjab,Amritsar,"Golden Temple, Amritsar - PPCB",15-12-2025 08:00:00,31.620000,74.876512,PM10,52,128,105
India,Punjab,Amritsar,"Golden Temple, Amritsar - PPCB",15-12-2025 08:00:00,31.620000,74.876512,NO2,5,21,9
India,Odisha,Rairangpur,"Divisional Forest Office, Rairangpur - OSPCB",15-12-2025 08:00:00,22.265816,86.174829,PM2.5,46,69,53
India,Odisha,Rairangpur,"Divisional Forest Office, Rairangpur - OSPCB",15-12-2025 08:00:00,22.265816,86.174829,PM10,77,155,115
India,Odisha,Rourkela,"Fertilizer Township, Rourkela - OSPCB",15-12-2025 08:00:00,22.18972222,84.86277778,NO2,11,11,11
India,Odisha,Rourkela,"Fertilizer Township, Rourkela - OSPCB",15-12-2025 08:00:00,22.18972222,84.86277778,CO,15,30,20
India,Odisha,Rourkela,"Raghunathpali, Rourkela - OSPCB",15-12-2025 08:00:00,22.220833,84.809444,PM10,NA,NA,NA
India,Rajasthan,Baran,"Bamboliya, Baran - RSPCB",15-12-2025 08:00:00,25.106006,76.469948,OZONE,4,173,24
India,Rajasthan,Bharatpur,"Krishna Nagar, Bharatpur - RSPCB",15-12-2025 08:00:00,27.215415,77.50873,PM2.5,67,301,168
India,Rajasthan,Bharatpur,"Krishna Nagar, Bharatpur - RSPCB",15-12-2025 08:00:00,27.215415,77.50873,PM10,64,181,121
India,Rajasthan,Bharatpur,"Krishna Nagar, Bharatpur - RSPCB",15-12-2025 08:00:00,27.215415,77.50873,SO2,1,4,3
India,Rajasthan,Bhilwara,"Pratap Nagar, Bhilwara - RSPCB",15-12-2025 08:00:00,25.339605,74.618883,NH3,8,18,12
India,Punjab,Bathinda,"Hardev Nagar, Bathinda - PPCB",15-12-2025 08:00:00,30.233011,74.907758,PM10,NA,NA,NA
India,Punjab,Jalandhar,"Civil Line, Jalandhar - PPCB",15-12-2025 08:00:00,31.321907,75.578914,PM2.5,53,112,75
India,Punjab,Jalandhar,"Civil Line, Jalandhar - PPCB",15-12-2025 08:00:00,31.321907,75.578914,SO2,16,17,17
India,Punjab,Jalandhar,"Civil Line, Jalandhar - PPCB",15-12-2025 08:00:00,31.321907,75.578914,OZONE,39,43,41
India,Punjab,Mandi Gobindgarh,"RIMT University, Mandi Gobindgarh - PPCB",15-12-2025 08:00:00,30.649961,76.331442,NO2,23,24,24
India,Odisha,Baripada,"Meher Colony, Baripada - OSPCB",15-12-2025 08:00:00,21.941841,86.728318,CO,NA,NA,NA
India,Odisha,Baripada,"Meher Colony, Baripada - OSPCB",15-12-2025 08:00:00,21.941841,86.728318,OZONE,NA,NA,NA
India,Odisha,Bhubaneswar,"Patia, Bhubaneswar - OSPCB",15-12-2025 08:00:00,20.34652,85.81630,PM10,119,331,176
India,Odisha,Bhubaneswar,"Patia, Bhubaneswar - OSPCB",15-12-2025 08:00:00,20.34652,85.81630,NO2,17,111,43
India,Odisha,Bhubaneswar,"Patia, Bhubaneswar - OSPCB",15-12-2025 08:00:00,20.34652,85.81630,NH3,7,11,9
India,Odisha,Bhubaneswar,"Patia, Bhubaneswar - OSPCB",15-12-2025 08:00:00,20.34652,85.81630,SO2,4,58,15
India,Punjab,Patiala,"Model Town, Patiala - PPCB",15-12-2025 08:00:00,30.349388,76.366642,NH3,6,7,6
India,Rajasthan,Ajmer,"Civil Lines,  Ajmer - RSPCB",15-12-2025 08:00:00,26.470859,74.646594,PM2.5,54,122,81
India,Rajasthan,Alwar,"Moti Doongri, Alwar - RSPCB",15-12-2025 08:00:00,27.554793,76.611536,NO2,51,86,67
India,Rajasthan,Alwar,"Moti Doongri, Alwar - RSPCB",15-12-2025 08:00:00,27.554793,76.611536,OZONE,13,52,17
India,Rajasthan,Chittorgarh,"Shastri Nagar, Chittorgarh - RSPCB",15-12-2025 08:00:00,24.892047,74.623527,PM10,55,209,121
India,Rajasthan,Jaipur,"Adarsh Nagar, Jaipur - RSPCB",15-12-2025 08:00:00,26.902909,75.836858,OZONE,14,85,16
India,Rajasthan,Jaipur,"Mansarovar Sector-12, Jaipur - RSPCB",15-12-2025 08:00:00,26.843698,75.766894,CO,10,154,38
India,Rajasthan,Jaipur,"Mansarovar Sector-12, Jaipur - RSPCB",15-12-2025 08:00:00,26.843698,75.766894,OZONE,9,285,10
India,Rajasthan,Jaipur,"Police Commissionerate, Jaipur - RSPCB",15-12-2025 08:00:00,26.9164092,75.7994901,PM10,43,148,97
India,Rajasthan,Jaipur,"Police Commissionerate, Jaipur - RSPCB",15-12-2025 08:00:00,26.9164092,75.7994901,NH3,6,119,34
India,Rajasthan,Jaipur,"Police Commissionerate, Jaipur - RSPCB",15-12-2025 08:00:00,26.9164092,75.7994901,CO,55,62,60
India,Rajasthan,Jaipur,"Sector-2 Murlipura, Jaipur - RSPCB",15-12-2025 08:00:00,26.960669,75.771817,PM2.5,79,315,199
India,Rajasthan,Jodhpur,"Jhalamand, Jodhpur - RSPCB",15-12-2025 08:00:00,26.215415,73.070156,NH3,10,24,16
India,Rajasthan,Jodhpur,"Jhalamand, Jodhpur - RSPCB",15-12-2025 08:00:00,26.215415,73.070156,SO2,3,18,7
India,Rajasthan,Jodhpur,"Mandor, Jodhpur - RSPCB",15-12-2025 08:00:00,26.358805,73.047444,PM10,55,123,92
India,Rajasthan,Jodhpur,"Mandor, Jodhpur - RSPCB",15-12-2025 08:00:00,26.358805,73.047444,NO2,9,85,32
India,Rajasthan,Jodhpur,"Samrat Ashok Udhyan, Jodhpur - RSPCB",15-12-2025 08:00:00,26.253384,72.976571,OZONE,19,309,65
India,Rajasthan,Karauli,"Satyawati Vihar, Karauli - RSPCB",15-12-2025 08:00:00,26.506177,77.025989,NH3,12,20,16
India,Rajasthan,Karauli,"Satyawati Vihar, Karauli - RSPCB",15-12-2025 08:00:00,26.506177,77.025989,CO,65,107,76
India,Rajasthan,Jaipur,"Shastri Nagar, Jaipur - RSPCB",15-12-2025 08:00:00,26.9502929,75.730943,OZONE,16,70,16
India,Rajasthan,Jaisalmer,"Sadar Bazar, Jaisalmer - RSPCB",15-12-2025 08:00:00,26.912329,70.909168,NO2,16,62,34
India,Rajasthan,Jaisalmer,"Sadar Bazar, Jaisalmer - RSPCB",15-12-2025 08:00:00,26.912329,70.909168,OZONE,2,72,33
India,Rajasthan,Jalore,"Mudtra Sili, Jalore - RSPCB",15-12-2025 08:00:00,25.344694,72.626208,NO2,21,146,70
India,Rajasthan,Jalore,"Mudtra Sili, Jalore - RSPCB",15-12-2025 08:00:00,25.344694,72.626208,NH3,4,10,7
India,Rajasthan,Jhalawar,"Rajlaxmi Nagar, Jhalawar - RSPCB",15-12-2025 08:00:00,24.588397,76.172782,PM10,76,227,130
India,Rajasthan,Jhunjhunu,"Indra Nagar, Jhunjhunu - RSPCB",15-12-2025 08:00:00,28.108988,75.386577,NO2,16,155,57
India,Rajasthan,Jhunjhunu,"Indra Nagar, Jhunjhunu - RSPCB",15-12-2025 08:00:00,28.108988,75.386577,CO,22,107,36
India,Rajasthan,Jodhpur,"Collectorate, Jodhpur - RSPCB",15-12-2025 08:00:00,26.268249,73.0193853,PM10,75,222,130
India,Rajasthan,Jodhpur,"Collectorate, Jodhpur - RSPCB",15-12-2025 08:00:00,26.268249,73.0193853,NO2,7,15,11
India,Rajasthan,Dausa,"Khatikan Mohalla, Dausa - RSPCB",15-12-2025 08:00:00,26.895552,76.334753,CO,32,142,50
India,Rajasthan,Dholpur,"Raja Ganj, Dholpur - RSPCB",15-12-2025 08:00:00,26.699557,77.898881,CO,52,104,81
India,Rajasthan,Dungarpur,"Bhoiwada, Dungarpur - RSPCB",15-12-2025 08:00:00,23.837789,73.714926,NO2,12,80,28
India,Rajasthan,Jodhpur,"Digari Kalan, Jodhpur - RSPCB",15-12-2025 08:00:00,26.295810,73.082283,PM2.5,18,103,60
India,Rajasthan,Jodhpur,"Digari Kalan, Jodhpur - RSPCB",15-12-2025 08:00:00,26.295810,73.082283,PM10,45,152,93
India,Rajasthan,Jodhpur,"Digari Kalan, Jodhpur - RSPCB",15-12-2025 08:00:00,26.295810,73.082283,SO2,4,23,7
India,Rajasthan,Churu,"Subash Chowk, Churu - RSPCB",15-12-2025 08:00:00,28.296139,74.961696,PM2.5,55,376,187
India,Rajasthan,Churu,"Subash Chowk, Churu - RSPCB",15-12-2025 08:00:00,28.296139,74.961696,PM10,137,469,200
India,Rajasthan,Churu,"Subash Chowk, Churu - RSPCB",15-12-2025 08:00:00,28.296139,74.961696,NO2,19,111,41
India,Rajasthan,Jaipur,"Sector-2 Murlipura, Jaipur - RSPCB",15-12-2025 08:00:00,26.960669,75.771817,NH3,5,10,8
India,Rajasthan,Jaipur,"Sector-2 Murlipura, Jaipur - RSPCB",15-12-2025 08:00:00,26.960669,75.771817,OZONE,3,104,24
India,Rajasthan,Jaipur,"Shastri Nagar, Jaipur - RSPCB",15-12-2025 08:00:00,26.9502929,75.730943,PM10,93,292,158
India,Rajasthan,Pali,"Indira Colony Vistar, Pali - RSPCB",15-12-2025 08:00:00,25.771061, 73.340227,SO2,5,10,7
India,Rajasthan,Pratapgarh,"Pragati Nagar, Pratapgarh - RSPCB",15-12-2025 08:00:00,24.041198,74.780702,NH3,2,5,3
India,Rajasthan,Rajsamand,"Dhoinda, Rajsamand - RSPCB",15-12-2025 08:00:00,25.036360,73.883502,NO2,NA,NA,NA
India,Rajasthan,Rajsamand,"Dhoinda, Rajsamand - RSPCB",15-12-2025 08:00:00,25.036360,73.883502,OZONE,NA,NA,NA
India,Rajasthan,Sawai Madhopur,"Sahu Nagar, Sawai Madhopur - RSPCB",15-12-2025 08:00:00,26.031443,76.359327,PM10,98,221,136
India,Rajasthan,Sikar,"Radhakishan Pura, Sikar - RSPCB",15-12-2025 08:00:00,27.608912,75.153302,PM2.5,65,380,190
India,TamilNadu,Chennai,"Manali Village, Chennai - TNPCB",15-12-2025 08:00:00,13.1662,80.2584,PM10,86,146,102
India,TamilNadu,Chennai,"Manali Village, Chennai - TNPCB",15-12-2025 08:00:00,13.1662,80.2584,SO2,11,15,13
India,TamilNadu,Chennai,"Manali Village, Chennai - TNPCB",15-12-2025 08:00:00,13.1662,80.2584,OZONE,16,34,28
India,TamilNadu,Chennai,"Royapuram, Chennai - TNPCB",15-12-2025 08:00:00,13.1036,80.2909,NH3,4,6,5
India,TamilNadu,Coimbatore,"PSG College of Arts and Science, Coimbatore - TNPCB",15-12-2025 08:00:00,11.0328,77.0349,PM2.5,76,230,139
India,TamilNadu,Coimbatore,"PSG College of Arts and Science, Coimbatore - TNPCB",15-12-2025 08:00:00,11.0328,77.0349,PM10,59,117,89
India,Sikkim,Gangtok,"Zero Point GICI, Gangtok - SSPCB",15-12-2025 08:00:00,27.338530,88.614099,PM2.5,7,31,17
India,Sikkim,Gangtok,"Zero Point GICI, Gangtok - SSPCB",15-12-2025 08:00:00,27.338530,88.614099,PM10,13,24,19
India,Sikkim,Gangtok,"Zero Point GICI, Gangtok - SSPCB",15-12-2025 08:00:00,27.338530,88.614099,SO2,1,1,1
India,TamilNadu,Chennai,"Kodungaiyur, Chennai - TNPCB",15-12-2025 08:00:00,13.1278,80.2642,PM10,74,170,113
India,TamilNadu,Chennai,"Kodungaiyur, Chennai - TNPCB",15-12-2025 08:00:00,13.1278,80.2642,SO2,4,14,8
India,TamilNadu,Chennai,"Kodungaiyur, Chennai - TNPCB",15-12-2025 08:00:00,13.1278,80.2642,CO,2,32,21
India,TamilNadu,Coimbatore,"SIDCO Kurichi, Coimbatore - TNPCB",15-12-2025 08:00:00,10.942451,76.978996,NO2,4,16,10
India,TamilNadu,Coimbatore,"SIDCO Kurichi, Coimbatore - TNPCB",15-12-2025 08:00:00,10.942451,76.978996,NH3,1,2,2
India,TamilNadu,Cuddalore,"Kudikadu, Cuddalore - TNPCB",15-12-2025 08:00:00,11.6829898,79.7532099,OZONE,12,14,13
India,TamilNadu,Dindigul,"Mendonsa Colony, Dindigul - TNPCB",15-12-2025 08:00:00,10.358535,77.984321,PM10,36,60,48
India,Rajasthan,Tonk,"Shastri Nagar, Tonk - RSPCB",15-12-2025 08:00:00,26.159933,75.780517,CO,32,138,50
India,Rajasthan,Udaipur,"Ashok Nagar, Udaipur - RSPCB",15-12-2025 08:00:00,24.5886166,73.6321397,PM10,71,200,126
India,Rajasthan,Sirohi,"Vedhaynath Colony, Sirohi - RSPCB",15-12-2025 08:00:00,24.885261,72.857549,PM10,55,186,99
India,Rajasthan,Sirohi,"Vedhaynath Colony, Sirohi - RSPCB",15-12-2025 08:00:00,24.885261,72.857549,NH3,2,5,4
India,Rajasthan,Sirohi,"Vedhaynath Colony, Sirohi - RSPCB",15-12-2025 08:00:00,24.885261,72.857549,OZONE,4,107,43
India,Rajasthan,Kota,"Nayapura, Kota - RSPCB",15-12-2025 08:00:00,25.196024,75.855668,NH3,9,13,10
India,Rajasthan,Kota,"Shrinath Puram, Kota - RSPCB",15-12-2025 08:00:00,25.14389,75.821256,NO2,14,17,15
India,TamilNadu,Perundurai,"SIPCOT Industrial Park, Perundurai - TNPCB",15-12-2025 08:00:00,11.258242,77.552761,PM2.5,46,68,57
India,TamilNadu,Madurai,"Uchapatti, Madurai - TNPCB",15-12-2025 08:00:00,9.865935,78.022669,OZONE,1,1,1
India,Telangana,Hyderabad,"Kokapet, Hyderabad - TSPCB",15-12-2025 08:00:00,17.393559,78.339194,PM10,74,105,91
India,Telangana,Hyderabad,"Kokapet, Hyderabad - TSPCB",15-12-2025 08:00:00,17.393559,78.339194,OZONE,15,30,15
India,Telangana,Hyderabad,"Kompally Municipal Office, Hyderabad - TSPCB",15-12-2025 08:00:00,17.544899,78.486949,PM2.5,60,67,66
India,Telangana,Hyderabad,"Kompally Municipal Office, Hyderabad - TSPCB",15-12-2025 08:00:00,17.544899,78.486949,OZONE,30,36,35
India,Telangana,Hyderabad,"Nacharam_TSIIC IALA, Hyderabad - TSPCB",15-12-2025 08:00:00,17.429398,78.569354,NH3,4,6,4
India,Telangana,Hyderabad,"Nacharam_TSIIC IALA, Hyderabad - TSPCB",15-12-2025 08:00:00,17.429398,78.569354,SO2,11,17,16
India,Telangana,Hyderabad,"Nacharam_TSIIC IALA, Hyderabad - TSPCB",15-12-2025 08:00:00,17.429398,78.569354,OZONE,16,32,31
India,Telangana,Hyderabad,"New Malakpet, Hyderabad - TSPCB",15-12-2025 08:00:00,17.37206,78.50864,PM10,79,90,85
India,TamilNadu,Ramanathapuram,"Chalai Bazaar, Ramanathapuram - TNPCB",15-12-2025 08:00:00,9.36399,78.831977,NH3,1,1,1
India,TamilNadu,Thoothukudi,"Meelavittan, Thoothukudi - TNPCB",15-12-2025 08:00:00,8.816428 ,78.099039,SO2,6,17,13
India,TamilNadu,Tirunelveli,"Municipal Corporation Office, Tirunelveli - TNPCB",15-12-2025 08:00:00,8.728442,77.6962,NH3,3,8,4
India,TamilNadu,Tirunelveli,"Municipal Corporation Office, Tirunelveli - TNPCB",15-12-2025 08:00:00,8.728442,77.6962,CO,20,22,20
India,Tripura,Agartala,"Bardowali, Agartala - Tripura SPCB",15-12-2025 08:00:00,23.8175497,91.2726974,CO,26,34,28
India,Uttar_Pradesh,Agra,"Manoharpur, Agra - UPPCB",15-12-2025 08:00:00,27.23711,78.01936,NH3,3,4,3
India,Uttar_Pradesh,Agra,"Rohta, Agra - UPPCB",15-12-2025 08:00:00,27.106972,78.000111,PM2.5,61,393,195
India,Uttar_Pradesh,Agra,"Rohta, Agra - UPPCB",15-12-2025 08:00:00,27.106972,78.000111,CO,25,104,70
India,Uttar_Pradesh,Bareilly,"Civil Lines, Bareilly - UPPCB",15-12-2025 08:00:00,28.359581,79.414455,NO2,2,3,2
India,Uttar_Pradesh,Bulandshahr,"Yamunapuram, Bulandshahr - UPPCB",15-12-2025 08:00:00,28.406963,77.849831,NH3,21,32,25
India,Uttar_Pradesh,Firozabad,"Nagla Bhau, Firozabad - UPPCB",15-12-2025 08:00:00,27.168897,78.376960,PM2.5,45,213,91
India,Uttar_Pradesh,Firozabad,"Nagla Bhau, Firozabad - UPPCB",15-12-2025 08:00:00,27.168897,78.376960,SO2,22,30,25
India,Telangana,Hyderabad,"New Malakpet, Hyderabad - TSPCB",15-12-2025 08:00:00,17.37206,78.50864,SO2,15,23,18
India,Telangana,Hyderabad,"Sanathnagar, Hyderabad - TSPCB",15-12-2025 08:00:00,17.4559458,78.4332152,SO2,11,19,14
India,Telangana,Hyderabad,"Somajiguda, Hyderabad - TSPCB",15-12-2025 08:00:00,17.417094,78.457437,OZONE,5,35,13
India,Telangana,Hyderabad,"Zoo Park, Hyderabad - TSPCB",15-12-2025 08:00:00,17.349694,78.451437,NO2,10,35,20
India,Uttar_Pradesh,Agra,"Shahjahan Garden, Agra - UPPCB",15-12-2025 08:00:00,27.169338,78.03582,PM2.5,36,346,185
India,Uttar_Pradesh,Agra,"Shastripuram, Agra - UPPCB",15-12-2025 08:00:00,27.19862,77.92066,OZONE,6,7,6
India,Telangana,Hyderabad,"ECIL Kapra, Hyderabad - TSPCB",15-12-2025 08:00:00,17.470431,78.566959,OZONE,9,39,9
India,Telangana,Hyderabad,"IITH Kandi, Hyderabad - TSPCB",15-12-2025 08:00:00,17.585705,78.126199,NO2,13,16,15
India,Uttar_Pradesh,Agra,"Sector-3B Avas Vikas Colony, Agra - UPPCB",15-12-2025 08:00:00,27.19412,77.96237,SO2,10,11,10
India,Uttar_Pradesh,Agra,"Sector-3B Avas Vikas Colony, Agra - UPPCB",15-12-2025 08:00:00,27.19412,77.96237,CO,22,72,52
India,Telangana,Hyderabad,"Central University, Hyderabad - TSPCB",15-12-2025 08:00:00,17.460103,78.334361,NO2,23,43,36
India,Uttar_Pradesh,Muzaffarnagar,"New Mandi, Muzaffarnagar - UPPCB",15-12-2025 08:00:00,29.4723508,77.7194031,NH3,12,20,17
India,Uttar_Pradesh,Muzaffarnagar,"New Mandi, Muzaffarnagar - UPPCB",15-12-2025 08:00:00,29.4723508,77.7194031,CO,36,138,52
India,Uttar_Pradesh,Noida,"Sector - 125, Noida - UPPCB",15-12-2025 08:00:00,28.5447608,77.3231257,PM10,304,500,444
India,Uttar_Pradesh,Noida,"Sector - 125, Noida - UPPCB",15-12-2025 08:00:00,28.5447608,77.3231257,NH3,3,3,3
India,Uttar_Pradesh,Noida,"Sector - 125, Noida - UPPCB",15-12-2025 08:00:00,28.5447608,77.3231257,CO,24,134,103
India,Uttar_Pradesh,Noida,"Sector - 62, Noida - IMD",15-12-2025 08:00:00,28.6245479,77.3577104,NO2,19,65,39
India,Uttar_Pradesh,Noida,"Sector - 62, Noida - IMD",15-12-2025 08:00:00,28.6245479,77.3577104,OZONE,39,163,54
India,Uttar_Pradesh,Noida,"Sector-1, Noida - UPPCB",15-12-2025 08:00:00,28.5898,77.3101,PM2.5,NA,NA,NA
India,Uttar_Pradesh,Noida,"Sector-1, Noida - UPPCB",15-12-2025 08:00:00,28.5898,77.3101,CO,NA,NA,NA
India,Uttar_Pradesh,Noida,"Sector-1, Noida - UPPCB",15-12-2025 08:00:00,28.5898,77.3101,OZONE,NA,NA,NA
India,Uttar_Pradesh,Noida,"Sector-116, Noida - UPPCB",15-12-2025 08:00:00,28.569230,77.393848,NH3,32,51,40
India,Uttar_Pradesh,Noida,"Sector-116, Noida - UPPCB",15-12-2025 08:00:00,28.569230,77.393848,OZONE,7,236,9
India,Uttar_Pradesh,Prayagraj,"Jhunsi, Prayagraj - UPPCB",15-12-2025 08:00:00,25.425602,81.917152,PM2.5,45,322,191
India,Uttar_Pradesh,Kanpur,"NSI Kalyanpur, Kanpur - UPPCB",15-12-2025 08:00:00,26.509954,80.249612,OZONE,16,18,17
India,Uttar_Pradesh,Kanpur,"Nehru Nagar, Kanpur - UPPCB",15-12-2025 08:00:00,26.4703136,80.3229863,NO2,11,42,24
India,Uttar_Pradesh,Khurja,"Kalindi Kunj, Khurja - UPPCB",15-12-2025 08:00:00,28.2348927,77.8683002,PM2.5,67,374,256
India,Uttar_Pradesh,Khurja,"Kalindi Kunj, Khurja - UPPCB",15-12-2025 08:00:00,28.2348927,77.8683002,NH3,1,1,1
India,Uttar_Pradesh,Khurja,"Kalindi Kunj, Khurja - UPPCB",15-12-2025 08:00:00,28.2348927,77.8683002,CO,66,100,83
India,Uttar_Pradesh,Lucknow,"B R Ambedkar University, Lucknow - UPPCB",15-12-2025 08:00:00,26.766433,80.927299,NO2,21,22,22
India,Uttar_Pradesh,Lucknow,"B R Ambedkar University, Lucknow - UPPCB",15-12-2025 08:00:00,26.766433,80.927299,OZONE,26,27,26
India,Uttar_Pradesh,Lucknow,"Gomti Nagar, Lucknow - UPPCB",15-12-2025 08:00:00,26.868120,81.005119,PM2.5,48,405,158
India,Uttar_Pradesh,Meerut,"Ganga Nagar, Meerut - UPPCB",15-12-2025 08:00:00,28.999264,77.7590354,CO,8,117,63
India,Uttar_Pradesh,Meerut,"Ganga Nagar, Meerut - UPPCB",15-12-2025 08:00:00,28.999264,77.7590354,OZONE,7,83,12
India,Uttar_Pradesh,Meerut,"Jai Bhim Nagar, Meerut - UPPCB",15-12-2025 08:00:00,28.9535882,77.7622941,PM2.5,307,469,395
India,Uttar_Pradesh,Meerut,"Jai Bhim Nagar, Meerut - UPPCB",15-12-2025 08:00:00,28.9535882,77.7622941,SO2,4,8,6
India,Uttar_Pradesh,Moradabad,"Buddhi Vihar, Moradabad - UPPCB",15-12-2025 08:00:00,28.83526,78.74460,NH3,5,5,5
India,Uttar_Pradesh,Moradabad,"Eco Herbal Park, Moradabad - UPPCB",15-12-2025 08:00:00,28.840739,78.697531,PM2.5,80,288,176
India,Uttar_Pradesh,Moradabad,"Eco Herbal Park, Moradabad - UPPCB",15-12-2025 08:00:00,28.840739,78.697531,NO2,3,71,21
India,Uttar_Pradesh,Moradabad,"Eco Herbal Park, Moradabad - UPPCB",15-12-2025 08:00:00,28.840739,78.697531,OZONE,3,76,6
India,Uttar_Pradesh,Prayagraj,"Jhunsi, Prayagraj - UPPCB",15-12-2025 08:00:00,25.425602,81.917152,NO2,6,6,6
India,Uttar_Pradesh,Prayagraj,"Motilal Nehru NIT, Prayagraj - UPPCB",15-12-2025 08:00:00,25.494,81.863,PM10,NA,NA,NA
India,Uttar_Pradesh,Prayagraj,"Motilal Nehru NIT, Prayagraj - UPPCB",15-12-2025 08:00:00,25.494,81.863,NH3,NA,NA,NA
India,Uttar_Pradesh,Prayagraj,"Motilal Nehru NIT, Prayagraj - UPPCB",15-12-2025 08:00:00,25.494,81.863,CO,54,70,62
India,Uttar_Pradesh,Prayagraj,"Nagar Nigam, Prayagraj - UPPCB",15-12-2025 08:00:00,25.44919916 ,81.82735986 ,PM10,NA,NA,NA
India,Uttar_Pradesh,Prayagraj,"Nagar Nigam, Prayagraj - UPPCB",15-12-2025 08:00:00,25.44919916 ,81.82735986 ,NH3,13,18,15
India,Uttar_Pradesh,Varanasi,"Ardhali Bazar, Varanasi - UPPCB",15-12-2025 08:00:00,25.3505986,82.9083074,PM2.5,75,298,199
India,Uttar_Pradesh,Varanasi,"Ardhali Bazar, Varanasi - UPPCB",15-12-2025 08:00:00,25.3505986,82.9083074,PM10,109,248,186
India,Uttar_Pradesh,Greater Noida,"Knowledge Park - III, Greater Noida - UPPCB",15-12-2025 08:00:00,28.47272,77.482000,SO2,NA,NA,NA
India,Uttar_Pradesh,Greater Noida,"Knowledge Park - V, Greater Noida - UPPCB",15-12-2025 08:00:00,28.557054,77.453663,PM2.5,397,500,452
India,Uttar_Pradesh,Greater Noida,"Knowledge Park - V, Greater Noida - UPPCB",15-12-2025 08:00:00,28.557054,77.453663,NO2,65,142,93
India,Uttar_Pradesh,Kanpur,"FTI Kidwai Nagar, Kanpur - UPPCB",15-12-2025 08:00:00,26.428282,80.327067,NO2,25,25,25
India,Uttar_Pradesh,Kanpur,"NSI Kalyanpur, Kanpur - UPPCB",15-12-2025 08:00:00,26.509954,80.249612,PM2.5,59,197,120
India,Uttar_Pradesh,Varanasi,"Bhelupur, Varanasi - UPPCB",15-12-2025 08:00:00,25.301778,82.996789,CO,35,102,67
India,Uttar_Pradesh,Varanasi,"Bhelupur, Varanasi - UPPCB",15-12-2025 08:00:00,25.301778,82.996789,OZONE,1,3,1
India,Uttar_Pradesh,Varanasi,"IESD Banaras Hindu University, Varanasi - UPPCB",15-12-2025 08:00:00,25.262326,82.995408,SO2,24,26,25
India,Uttar_Pradesh,Varanasi,"Maldahiya, Varanasi - UPPCB",15-12-2025 08:00:00,25.32393,82.99687,SO2,28,29,29
India,Uttar_Pradesh,Varanasi,"Maldahiya, Varanasi - UPPCB",15-12-2025 08:00:00,25.32393,82.99687,OZONE,2,4,2
India,Uttar_Pradesh,Ghaziabad,"Indirapuram, Ghaziabad - UPPCB",15-12-2025 08:00:00,28.646233,77.358075,PM2.5,358,487,418
India,Uttar_Pradesh,Ghaziabad,"Indirapuram, Ghaziabad - UPPCB",15-12-2025 08:00:00,28.646233,77.358075,SO2,41,54,46
India,Uttar_Pradesh,Ghaziabad,"Indirapuram, Ghaziabad - UPPCB",15-12-2025 08:00:00,28.646233,77.358075,CO,60,175,117
India,Uttar_Pradesh,Ghaziabad,"Vasundhara, Ghaziabad - UPPCB",15-12-2025 08:00:00,28.6603346,77.3572563,NO2,82,230,121
India,Uttar_Pradesh,Moradabad,"Jigar Colony, Moradabad - UPPCB",15-12-2025 08:00:00,28.856664,78.772638,PM2.5,61,306,154
India,Uttar_Pradesh,Moradabad,"Jigar Colony, Moradabad - UPPCB",15-12-2025 08:00:00,28.856664,78.772638,CO,39,40,40
India,Uttar_Pradesh,Moradabad,"Kashiram Nagar, Moradabad - UPPCB",15-12-2025 08:00:00,28.849399,78.742362,NO2,25,25,25
India,Uttar_Pradesh,Lucknow,"Kendriya Vidyalaya, Lucknow - CPCB",15-12-2025 08:00:00,26.906111,80.948222,CO,23,106,54
India,Uttar_Pradesh,Lucknow,"Lalbagh, Lucknow - CPCB",15-12-2025 08:00:00,26.8458805,80.9365541,NH3,15,22,19
India,Uttarakhand,Kashipur,"Govt. Girls Inter College, Kashipur - UKPCB",15-12-2025 08:00:00,29.2124114,78.9611753,PM10,83,107,96
India,Uttarakhand,Kashipur,"Govt. Girls Inter College, Kashipur - UKPCB",15-12-2025 08:00:00,29.2124114,78.9611753,SO2,2,11,8
India,Uttarakhand,Kashipur,"Govt. Girls Inter College, Kashipur - UKPCB",15-12-2025 08:00:00,29.2124114,78.9611753,CO,32,40,36
India,Uttarakhand,Rishikesh,"Shivaji Nagar, Rishikesh - UKPCB",15-12-2025 08:00:00,30.075911,78.2859547,PM2.5,40,80,58
India,Uttarakhand,Rishikesh,"Shivaji Nagar, Rishikesh - UKPCB",15-12-2025 08:00:00,30.075911,78.2859547,NH3,6,12,8
India,West_Bengal,Asansol,"Evelyn Lodge, Asansol - WBPCB",15-12-2025 08:00:00,23.6979360,86.9443950,NO2,10,64,28
India,West_Bengal,Asansol,"Evelyn Lodge, Asansol - WBPCB",15-12-2025 08:00:00,23.6979360,86.9443950,SO2,5,9,7
India,West_Bengal,Asansol,"Mahabir Colliery, Asansol - WBPCB",15-12-2025 08:00:00,23.6181830,87.1057180,PM10,50,164,117
India,West_Bengal,Asansol,"Mahabir Colliery, Asansol - WBPCB",15-12-2025 08:00:00,23.6181830,87.1057180,NH3,1,1,1
India,West_Bengal,Barrackpore,"SVSPA Campus, Barrackpore - WBPCB",15-12-2025 08:00:00,22.7605581,88.3617589,PM2.5,36,118,86
India,West_Bengal,Barrackpore,"SVSPA Campus, Barrackpore - WBPCB",15-12-2025 08:00:00,22.7605581,88.3617589,OZONE,3,42,5
India,West_Bengal,Durgapur,"Womens College_City Center, Durgapur - WBPCB (Formerly known as Sidhu Kanhu Indoor Stadium)",15-12-2025 08:00:00,23.549395,87.300496,PM2.5,39,204,99
India,West_Bengal,Durgapur,"Womens College_City Center, Durgapur - WBPCB (Formerly known as Sidhu Kanhu Indoor Stadium)",15-12-2025 08:00:00,23.549395,87.300496,NO2,24,35,28
India,West_Bengal,Howrah,"Belur Math, Howrah - WBPCB",15-12-2025 08:00:00,22.629801,88.352017,PM10,74,358,163
India,West_Bengal,Howrah,"Belur Math, Howrah - WBPCB",15-12-2025 08:00:00,22.629801,88.352017,NO2,21,51,32
India,West_Bengal,Howrah,"Belur Math, Howrah - WBPCB",15-12-2025 08:00:00,22.629801,88.352017,SO2,7,20,10
India,West_Bengal,Howrah,"Belur Math, Howrah - WBPCB",15-12-2025 08:00:00,22.629801,88.352017,CO,7,101,48
India,West_Bengal,Howrah,"Dasnagar, Howrah - WBPCB",15-12-2025 08:00:00,22.6025571,88.3105664,NO2,16,77,50
India,West_Bengal,Howrah,"Dasnagar, Howrah - WBPCB",15-12-2025 08:00:00,22.6025571,88.3105664,CO,2,89,30
India,West_Bengal,Howrah,"Ghusuri, Howrah - WBPCB",15-12-2025 08:00:00,22.611968,88.347422,PM2.5,78,399,254
India,West_Bengal,Howrah,"Ghusuri, Howrah - WBPCB",15-12-2025 08:00:00,22.611968,88.347422,NH3,7,15,11
India,West_Bengal,Howrah,"Ghusuri, Howrah - WBPCB",15-12-2025 08:00:00,22.611968,88.347422,SO2,11,15,13
India,West_Bengal,Howrah,"Padmapukur, Howrah - WBPCB",15-12-2025 08:00:00,22.5687319,88.2797276,PM10,NA,NA,NA
India,West_Bengal,Howrah,"Padmapukur, Howrah - WBPCB",15-12-2025 08:00:00,22.5687319,88.2797276,NO2,9,21,16
India,West_Bengal,Howrah,"Padmapukur, Howrah - WBPCB",15-12-2025 08:00:00,22.5687319,88.2797276,SO2,2,12,7
India,West_Bengal,Kolkata,"Ballygunge, Kolkata - WBPCB",15-12-2025 08:00:00,22.5367507,88.3638022,NO2,27,66,47
India,West_Bengal,Kolkata,"Ballygunge, Kolkata - WBPCB",15-12-2025 08:00:00,22.5367507,88.3638022,NH3,8,13,9
India,West_Bengal,Kolkata,"Ballygunge, Kolkata - WBPCB",15-12-2025 08:00:00,22.5367507,88.3638022,SO2,4,19,12
India,West_Bengal,Kolkata,"Fort William, Kolkata - WBPCB",15-12-2025 08:00:00,22.556640,88.342674,PM10,54,135,94
India,West_Bengal,Kolkata,"Fort William, Kolkata - WBPCB",15-12-2025 08:00:00,22.556640,88.342674,CO,15,100,73
India,West_Bengal,Kolkata,"Jadavpur, Kolkata - WBPCB",15-12-2025 08:00:00,22.49929,88.36917,PM2.5,53,306,170
India,West_Bengal,Kolkata,"Rabindra Bharati University, Kolkata - WBPCB",15-12-2025 08:00:00,22.627847,88.380669,PM10,45,140,101
India,West_Bengal,Kolkata,"Rabindra Bharati University, Kolkata - WBPCB",15-12-2025 08:00:00,22.627847,88.380669,OZONE,8,71,10
India,West_Bengal,Kolkata,"Rabindra Sarobar, Kolkata - WBPCB",15-12-2025 08:00:00,22.51106,88.35142,NO2,29,162,100
India,West_Bengal,Kolkata,"Victoria, Kolkata - WBPCB",15-12-2025 08:00:00,22.5448082,88.3403691,NO2,21,21,21
India,West_Bengal,Siliguri,"Ward-32 Bapupara, Siliguri - WBPCB",15-12-2025 08:00:00,26.6879226,88.4152495,CO,30,76,50
India,Andhra_Pradesh,Chittoor,"Gangineni Cheruvu, Chittoor - APPCB",15-12-2025 08:00:00,13.204880,79.097889,NO2,33,40,37
India,Andhra_Pradesh,Chittoor,"Gangineni Cheruvu, Chittoor - APPCB",15-12-2025 08:00:00,13.204880,79.097889,SO2,6,33,14
India,Andhra_Pradesh,Kadapa,"Yerramukkapalli, Kadapa - APPCB",15-12-2025 08:00:00,14.465052,78.824187,CO,14,36,30
India,Andhra_Pradesh,Rajamahendravaram,"Anand Kala Kshetram, Rajamahendravaram - APPCB",15-12-2025 08:00:00,16.9872867,81.7363176,CO,19,69,49
India,Bihar,Araria,"Kharahiya Basti, Araria - BSPCB",15-12-2025 08:00:00,26.146529,87.454184,CO,1,34,20
India,Bihar,Aurangabad,"Gurdeo Nagar, Aurangabad - BSPCB",15-12-2025 08:00:00,24.75746,84.366208,PM10,81,205,140
India,Bihar,Aurangabad,"Gurdeo Nagar, Aurangabad - BSPCB",15-12-2025 08:00:00,24.75746,84.366208,NH3,1,2,2
India,Bihar,Begusarai,"Lohiyanagar, Begusarai - BSPCB",15-12-2025 08:00:00,25.42742023,86.13886079,PM10,76,129,105
India,Assam,Nagaon,"Christianpatty, Nagaon - PCBA",15-12-2025 08:00:00,26.349082,92.68449,SO2,8,14,11
India,Assam,Nalbari,"Bata Chowk, Nalbari - PCBA",15-12-2025 08:00:00,26.446912,91.439057,PM10,109,125,116
India,Assam,Silchar,"Tarapur, Silchar - PCBA",15-12-2025 08:00:00,24.82827,92.79525,NO2,19,26,20
India,Andhra_Pradesh,Vijayawada,"Rajiv Nagar, Vijayawada - APPCB",15-12-2025 08:00:00,16.554731,80.649110,OZONE,88,149,94
India,Andhra_Pradesh,Visakhapatnam,"GVM Corporation, Visakhapatnam - APPCB",15-12-2025 08:00:00,17.72,83.3,CO,2,55,29
India,Andhra_Pradesh,Visakhapatnam,"GVM Corporation, Visakhapatnam - APPCB",15-12-2025 08:00:00,17.72,83.3,OZONE,25,100,68
India,Assam,Guwahati,"LGBI Airport, Guwahati - PCBA",15-12-2025 08:00:00,26.10887,91.589544,PM2.5,62,151,98
India,Assam,Guwahati,"Pan Bazaar, Guwahati - PCBA",15-12-2025 08:00:00,26.187500,91.744194,PM2.5,NA,NA,NA
India,Assam,Guwahati,"Railway Colony, Guwahati - PCBA",15-12-2025 08:00:00,26.181742,91.78063,NO2,3,4,3
India,Andhra_Pradesh,Vijayawada,"HB Colony, Vijayawada - APPCB",15-12-2025 08:00:00,16.536107,80.594233,CO,40,44,44
India,Andhra_Pradesh,Vijayawada,"HB Colony, Vijayawada - APPCB",15-12-2025 08:00:00,16.536107,80.594233,OZONE,NA,NA,NA
India,Andhra_Pradesh,Vijayawada,"Rajiv Gandhi Park, Vijayawada - APPCB",15-12-2025 08:00:00,16.509717,80.612222,NO2,10,86,42
India,Andaman and Nicobar,Sri Vijaya Puram,"Police Line, Sri Vijaya Puram - ANPCC",15-12-2025 08:00:00,11.654054,92.734055,PM2.5,NA,NA,NA
India,Andaman and Nicobar,Sri Vijaya Puram,"Police Line, Sri Vijaya Puram - ANPCC",15-12-2025 08:00:00,11.654054,92.734055,NH3,NA,NA,NA
India,Andhra_Pradesh,Vijayawada,"HB Colony, Vijayawada - APPCB",15-12-2025 08:00:00,16.536107,80.594233,NO2,12,14,13
India,Andhra_Pradesh,Vijayawada,"HB Colony, Vijayawada - APPCB",15-12-2025 08:00:00,16.536107,80.594233,NH3,3,4,4
India,Andhra_Pradesh,Vijayawada,"HB Colony, Vijayawada - APPCB",15-12-2025 08:00:00,16.536107,80.594233,SO2,12,13,12
India,Bihar,Araria,"Kharahiya Basti, Araria - BSPCB",15-12-2025 08:00:00,26.146529,87.454184,PM10,19,169,93
India,Bihar,Gaya,"SFTI Kusdihra, Gaya - BSPCB",15-12-2025 08:00:00,24.762518,84.982348,CO,24,46,44
India,Bihar,Hajipur,"Industrial Area, Hajipur - BSPCB",15-12-2025 08:00:00,25.697189,85.245900,NO2,28,56,40
India,Bihar,Hajipur,"Industrial Area, Hajipur - BSPCB",15-12-2025 08:00:00,25.697189,85.245900,SO2,8,11,9
India,Bihar,Hajipur,"Industrial Area, Hajipur - BSPCB",15-12-2025 08:00:00,25.697189,85.245900,OZONE,5,88,18
India,Bihar,Kishanganj,"SDM Office_Khagra, Kishanganj - BSPCB",15-12-2025 08:00:00,26.0881305,87.93840336,NO2,9,13,11
India,Bihar,Manguraha,"Forest Rest House, Manguraha - BSPCB",15-12-2025 08:00:00,27.308328,84.531742,PM10,25,153,67
India,Bihar,Bettiah,"Kamalnath Nagar, Bettiah - BSPCB",15-12-2025 08:00:00,26.80365,84.51954,CO,52,128,86
India,Bihar,Bhagalpur,"DM Office_Kachari Chowk, Bhagalpur - BSPCB",15-12-2025 08:00:00,25.251013,86.989001,PM2.5,15,160,76
India,Bihar,Bhagalpur,"Mayaganj, Bhagalpur - BSPCB",15-12-2025 08:00:00,25.265194,87.012947,CO,44,96,69
India,Bihar,Bihar Sharif,"D M Colony, Bihar Sharif - BSPCB",15-12-2025 08:00:00,25.204762,85.514960,NO2,9,10,9
India,Bihar,Bihar Sharif,"D M Colony, Bihar Sharif - BSPCB",15-12-2025 08:00:00,25.204762,85.514960,SO2,10,10,10
India,Bihar,Patna,"Muradpur, Patna - BSPCB",15-12-2025 08:00:00,25.619651,85.147382,NH3,4,5,4
India,Bihar,Patna,"Muradpur, Patna - BSPCB",15-12-2025 08:00:00,25.619651,85.147382,SO2,7,10,9
India,Bihar,Patna,"Muradpur, Patna - BSPCB",15-12-2025 08:00:00,25.619651,85.147382,CO,30,92,56
India,Bihar,Patna,"Muradpur, Patna - BSPCB",15-12-2025 08:00:00,25.619651,85.147382,OZONE,5,23,5
India,Bihar,Patna,"Rajbansi Nagar, Patna - BSPCB",15-12-2025 08:00:00,25.599486,85.113666,SO2,6,8,7
India,Bihar,Patna,"Rajbansi Nagar, Patna - BSPCB",15-12-2025 08:00:00,25.599486,85.113666,OZONE,23,29,26
India,Bihar,Patna,"Samanpura, Patna - BSPCB",15-12-2025 08:00:00,25.596727,85.085624,SO2,3,4,4
India,Bihar,Bihar Sharif,"D M Colony, Bihar Sharif - BSPCB",15-12-2025 08:00:00,25.204762,85.514960,CO,1,102,8
India,Bihar,Bihar Sharif,"D M Colony, Bihar Sharif - BSPCB",15-12-2025 08:00:00,25.204762,85.514960,OZONE,1,22,2
India,Bihar,Chhapra,"Darshan Nagar, Chhapra - BSPCB",15-12-2025 08:00:00,25.7808257,84.7446768,PM10,17,128,82
India,Bihar,Chhapra,"Darshan Nagar, Chhapra - BSPCB",15-12-2025 08:00:00,25.7808257,84.7446768,CO,9,22,11
India,Bihar,Gaya,"SFTI Kusdihra, Gaya - BSPCB",15-12-2025 08:00:00,24.762518,84.982348,PM10,48,93,72
India,Bihar,Munger,"Town Hall, Munger - BSPCB",15-12-2025 08:00:00,25.376776,86.471523,NO2,4,5,5
India,Bihar,Muzaffarpur,"Buddha Colony, Muzaffarpur - BSPCB",15-12-2025 08:00:00,26.11442,85.39813,PM10,32,133,99
India,Bihar,Muzaffarpur,"MIT-Daudpur Kothi, Muzaffarpur - BSPCB",15-12-2025 08:00:00,26.1403345,85.3650192,PM2.5,88,123,97
India,Bihar,Muzaffarpur,"Muzaffarpur Collectorate, Muzaffarpur - BSPCB",15-12-2025 08:00:00,26.1209,85.3647,PM2.5,95,140,114
India,Bihar,Purnia,"Mariam Nagar, Purnia - BSPCB",15-12-2025 08:00:00,25.366336,87.117468,OZONE,19,30,20
India,Bihar,Rajgir,"Dangi Tola, Rajgir - BSPCB",15-12-2025 08:00:00,25.03280,85.41948,PM2.5,12,263,88
India,Bihar,Rajgir,"Dangi Tola, Rajgir - BSPCB",15-12-2025 08:00:00,25.03280,85.41948,OZONE,29,34,32
India,Bihar,Saharsa,"Police Line, Saharsa - BSPCB",15-12-2025 08:00:00,25.892357,86.590325,OZONE,1,13,9
India,Bihar,Siwan,"Chitragupta Nagar, Siwan - BSPCB",15-12-2025 08:00:00,26.2271665,84.3570427,NH3,NA,NA,NA
India,Bihar,Siwan,"Chitragupta Nagar, Siwan - BSPCB",15-12-2025 08:00:00,26.2271665,84.3570427,OZONE,5,6,5
India,Chandigarh,Chandigarh,"Sector 22, Chandigarh - CPCC",15-12-2025 08:00:00,30.735567,76.775714,CO,46,125,68
India,Bihar,Patna,"Govt. High School Shikarpur, Patna - BSPCB",15-12-2025 08:00:00,25.592539,85.227158,SO2,11,26,14
India,Bihar,Patna,"Govt. High School Shikarpur, Patna - BSPCB",15-12-2025 08:00:00,25.592539,85.227158,OZONE,8,13,9
India,Bihar,Patna,"DRM Office Danapur, Patna - BSPCB",15-12-2025 08:00:00,25.586562,85.043586,PM2.5,90,321,216
India,Chhattisgarh,Raipur,"Bhatagaon New ISBT, Raipur - CECB",15-12-2025 08:00:00,21.219665,81.630094,PM10,42,152,81
India,Chhattisgarh,Raipur,"Bhatagaon New ISBT, Raipur - CECB",15-12-2025 08:00:00,21.219665,81.630094,NH3,2,2,2
India,Chhattisgarh,Raipur,"Krishak Nagar, Raipur - CECB",15-12-2025 08:00:00,21.237755,81.705301,PM2.5,53,114,85
India,Chhattisgarh,Raipur,"Krishak Nagar, Raipur - CECB",15-12-2025 08:00:00,21.237755,81.705301,NH3,2,2,2
India,Chhattisgarh,Raipur,"Siltara Phase-II, Raipur - CECB",15-12-2025 08:00:00,21.371751,81.664929,PM10,NA,NA,NA
India,Delhi,Delhi,"Alipur, Delhi - DPCC",15-12-2025 08:00:00,28.815329,77.153010,NH3,1,11,8
India,Delhi,Delhi,"Alipur, Delhi - DPCC",15-12-2025 08:00:00,28.815329,77.153010,OZONE,6,35,6
India,Delhi,Delhi,"Anand Vihar, Delhi - DPCC",15-12-2025 08:00:00,28.647622,77.3158090,NO2,72,186,114
India,Delhi,Delhi,"Anand Vihar, Delhi - DPCC",15-12-2025 08:00:00,28.647622,77.3158090,NH3,25,30,27
India,Delhi,Delhi,"Anand Vihar, Delhi - DPCC",15-12-2025 08:00:00,28.647622,77.3158090,SO2,1,17,9
India,Delhi,Delhi,"Ashok Vihar, Delhi - DPCC",15-12-2025 08:00:00,28.695381,77.181665,NH3,1,2,1
India,Delhi,Delhi,"Aya Nagar, Delhi - IMD",15-12-2025 08:00:00,28.4706914,77.1099364,NO2,14,85,38
India,Delhi,Delhi,"Aya Nagar, Delhi - IMD",15-12-2025 08:00:00,28.4706914,77.1099364,OZONE,6,99,7
India,Delhi,Delhi,"Burari Crossing, Delhi - IMD",15-12-2025 08:00:00,28.7256504,77.2011573,NO2,NA,NA,NA
India,Delhi,Delhi,"Chandni Chowk, Delhi - IITM",15-12-2025 08:00:00,28.656756,77.227234,OZONE,1,106,3
India,Delhi,Delhi,"DTU, Delhi - CPCB",15-12-2025 08:00:00,28.7500499,77.1112615,PM2.5,364,500,479
India,Delhi,Delhi,"DTU, Delhi - CPCB",15-12-2025 08:00:00,28.7500499,77.1112615,NH3,13,14,14
India,Delhi,Delhi,"DTU, Delhi - CPCB",15-12-2025 08:00:00,28.7500499,77.1112615,SO2,32,33,32
India,Delhi,Delhi,"DTU, Delhi - CPCB",15-12-2025 08:00:00,28.7500499,77.1112615,OZONE,17,29,21
India,Delhi,Delhi,"Dr. Karni Singh Shooting Range, Delhi - DPCC",15-12-2025 08:00:00,28.498571,77.264840,NO2,22,104,61
India,Delhi,Delhi,"Dr. Karni Singh Shooting Range, Delhi - DPCC",15-12-2025 08:00:00,28.498571,77.264840,NH3,12,18,16
India,Chhattisgarh,Bhilai,"Civic Center, Bhilai - Bhilai Steel Plant",15-12-2025 08:00:00,21.185571,81.343175,NH3,6,6,6
India,Chhattisgarh,Bilaspur,"Mangala, Bilaspur - NTPC",15-12-2025 08:00:00,22.08815,82.13737,CO,13,72,53
India,Chhattisgarh,Chhal,"Nawapara SECL Colony, Chhal - CECB",15-12-2025 08:00:00,22.118125,83.140608,PM2.5,65,118,86
India,Chandigarh,Chandigarh,"Sector-53, Chandigarh - CPCC",15-12-2025 08:00:00,30.719859,76.738637,PM10,35,140,91
India,Chandigarh,Chandigarh,"Sector-53, Chandigarh - CPCC",15-12-2025 08:00:00,30.719859,76.738637,SO2,8,37,15
India,Chhattisgarh,Bhilai,"32Bungalows, Bhilai - CECB",15-12-2025 08:00:00,21.194815,81.314770,PM2.5,14,42,27
India,Delhi,Delhi,"CRRI Mathura Road, Delhi - IMD",15-12-2025 08:00:00,28.5512005,77.2735737,PM2.5,356,474,434
India,Delhi,Delhi,"CRRI Mathura Road, Delhi - IMD",15-12-2025 08:00:00,28.5512005,77.2735737,CO,70,127,117
India,Delhi,Delhi,"Chandni Chowk, Delhi - IITM",15-12-2025 08:00:00,28.656756,77.227234,CO,62,112,98
India,Chhattisgarh,Kunjemura,"OP Jindal School, Kunjemura - CECB",15-12-2025 08:00:00,22.126650,83.483212,PM10,46,83,63
India,Chhattisgarh,Kunjemura,"OP Jindal School, Kunjemura - CECB",15-12-2025 08:00:00,22.126650,83.483212,CO,38,56,51
India,Chhattisgarh,Korba,"Rampur, Korba - CECB",15-12-2025 08:00:00,22.368195,82.746431,NH3,NA,NA,NA
India,Chhattisgarh,Korba,"Rampur, Korba - CECB",15-12-2025 08:00:00,22.368195,82.746431,OZONE,2,3,2
India,Chandigarh,Chandigarh,"Sector-25, Chandigarh - CPCC",15-12-2025 08:00:00,30.751462,76.762879,NO2,17,66,28
India,Delhi,Delhi,"Sri Aurobindo Marg, Delhi - DPCC",15-12-2025 08:00:00,28.531346,77.190156,NO2,11,79,36
India,Delhi,Delhi,"Vivek Vihar, Delhi - DPCC",15-12-2025 08:00:00,28.672342,77.315260,PM2.5,468,500,493
India,Delhi,Delhi,"Vivek Vihar, Delhi - DPCC",15-12-2025 08:00:00,28.672342,77.315260,PM10,430,500,470
India,Delhi,Delhi,"Vivek Vihar, Delhi - DPCC",15-12-2025 08:00:00,28.672342,77.315260,CO,34,123,109
India,Delhi,Delhi,"Vivek Vihar, Delhi - DPCC",15-12-2025 08:00:00,28.672342,77.315260,OZONE,2,76,3
India,Delhi,Delhi,"Wazirpur, Delhi - DPCC",15-12-2025 08:00:00,28.699793,77.165453,PM2.5,500,500,500
India,Delhi,Delhi,"Wazirpur, Delhi - DPCC",15-12-2025 08:00:00,28.699793,77.165453,PM10,476,500,497
India,Delhi,Delhi,"Wazirpur, Delhi - DPCC",15-12-2025 08:00:00,28.699793,77.165453,NH3,16,27,22
India,Delhi,Delhi,"Wazirpur, Delhi - DPCC",15-12-2025 08:00:00,28.699793,77.165453,CO,101,143,123
India,Delhi,Delhi,"Mandir Marg, Delhi - DPCC",15-12-2025 08:00:00,28.636429,77.201067,SO2,51,63,57
India,Delhi,Delhi,"Mandir Marg, Delhi - DPCC",15-12-2025 08:00:00,28.636429,77.201067,OZONE,3,70,10
India,Delhi,Delhi,"Mundka, Delhi - DPCC",15-12-2025 08:00:00,28.684678,77.076574,CO,81,131,108
India,Delhi,Delhi,"NSIT Dwarka, Delhi - CPCB",15-12-2025 08:00:00,28.60909,77.0325413,NH3,18,37,26
India,Delhi,Delhi,"NSIT Dwarka, Delhi - CPCB",15-12-2025 08:00:00,28.60909,77.0325413,OZONE,26,88,29
India,Delhi,Delhi,"Najafgarh, Delhi - DPCC",15-12-2025 08:00:00,28.570173,76.933762,NO2,94,160,128
India,Gujarat,Ahmedabad,"Chandkheda, Ahmedabad - IITM",15-12-2025 08:00:00,23.107969,72.574648,PM2.5,50,170,85
India,Gujarat,Ahmedabad,"Chandkheda, Ahmedabad - IITM",15-12-2025 08:00:00,23.107969,72.574648,NH3,5,18,10
India,Gujarat,Ahmedabad,"Maninagar, Ahmedabad - GPCB",15-12-2025 08:00:00,23.002657,72.591912,OZONE,43,94,57
India,Gujarat,Ahmedabad,"Raikhad, Ahmedabad - IITM",15-12-2025 08:00:00,23.020509,72.579261,PM2.5,64,185,112
India,Gujarat,Ahmedabad,"Rakhial, Ahmedabad - IITM",15-12-2025 08:00:00,23.016834,72.625775,PM2.5,54,314,111
India,Delhi,Delhi,"Punjabi Bagh, Delhi - DPCC",15-12-2025 08:00:00,28.674045,77.131023,PM2.5,435,500,481
India,Delhi,Delhi,"Punjabi Bagh, Delhi - DPCC",15-12-2025 08:00:00,28.674045,77.131023,NO2,44,93,64
India,Delhi,Delhi,"Punjabi Bagh, Delhi - DPCC",15-12-2025 08:00:00,28.674045,77.131023,OZONE,6,83,7
India,Delhi,Delhi,"Pusa, Delhi - DPCC",15-12-2025 08:00:00,28.639652,77.146275,NO2,55,179,106
India,Delhi,Delhi,"Pusa, Delhi - DPCC",15-12-2025 08:00:00,28.639652,77.146275,NH3,17,26,24
India,Delhi,Delhi,"Pusa, Delhi - IMD",15-12-2025 08:00:00,28.636110,77.173332,CO,78,130,118
India,Delhi,Delhi,"Narela, Delhi - DPCC",15-12-2025 08:00:00,28.822836,77.101981,SO2,5,32,17
India,Delhi,Delhi,"Narela, Delhi - DPCC",15-12-2025 08:00:00,28.822836,77.101981,CO,37,119,57
India,Delhi,Delhi,"Narela, Delhi - DPCC",15-12-2025 08:00:00,28.822836,77.101981,OZONE,7,134,14
India,Delhi,Delhi,"Okhla Phase-2, Delhi - DPCC",15-12-2025 08:00:00,28.530785,77.271255,CO,102,131,113
India,Delhi,Delhi,"Patparganj, Delhi - DPCC",15-12-2025 08:00:00,28.623763,77.287209,PM10,320,446,417
India,Delhi,Delhi,"Jawaharlal Nehru Stadium, Delhi - DPCC",15-12-2025 08:00:00,28.580280,77.233829,PM10,278,500,444
India,Delhi,Delhi,"Lodhi Road, Delhi - IITM",15-12-2025 08:00:00,28.588333,77.221667,PM2.5,353,443,414
India,Delhi,Delhi,"Lodhi Road, Delhi - IITM",15-12-2025 08:00:00,28.588333,77.221667,SO2,6,23,14
India,Delhi,Delhi,"Lodhi Road, Delhi - IMD",15-12-2025 08:00:00,28.5918245,77.2273074,PM2.5,325,482,422
India,Delhi,Delhi,"IHBAS, Dilshad Garden, Delhi - CPCB",15-12-2025 08:00:00,28.6811736,77.3025234,PM2.5,405,500,466
India,Delhi,Delhi,"IHBAS, Dilshad Garden, Delhi - CPCB",15-12-2025 08:00:00,28.6811736,77.3025234,NO2,79,193,118
India,Delhi,Delhi,"Jahangirpuri, Delhi - DPCC",15-12-2025 08:00:00,28.732820,77.170633,NO2,102,157,138
India,Delhi,Delhi,"Jahangirpuri, Delhi - DPCC",15-12-2025 08:00:00,28.732820,77.170633,OZONE,5,58,8
India,Delhi,Delhi,"Rohini, Delhi - DPCC",15-12-2025 08:00:00,28.732528,77.119920,SO2,8,16,12
India,Delhi,Delhi,"Shadipur, Delhi - CPCB",15-12-2025 08:00:00,28.6514781,77.1473105,OZONE,9,26,10
India,Gujarat,Ahmedabad,"SAC ISRO Bopal, Ahmedabad - IITM",15-12-2025 08:00:00,23.041137,72.456691,OZONE,1,60,3
India,Gujarat,Ahmedabad,"SVPI Airport Hansol, Ahmedabad - IITM",15-12-2025 08:00:00,23.076793,72.627874,SO2,5,11,8
India,Gujarat,Ankleshwar,"GIDC, Ankleshwar - GPCB",15-12-2025 08:00:00,21.613267,73.010555,NH3,7,7,7
India,Gujarat,Ankleshwar,"GIDC, Ankleshwar - GPCB",15-12-2025 08:00:00,21.613267,73.010555,SO2,42,43,42
India,Gujarat,Gandhinagar,"IIPHG Lekawada, Gandhinagar - IITM",15-12-2025 08:00:00,23.243639,72.68994,OZONE,2,45,3
India,Gujarat,Gandhinagar,"Sector-10, Gandhinagar - GPCB",15-12-2025 08:00:00,23.221714,72.654328,NH3,2,4,3
India,Gujarat,Surat,"Science Center, Surat - SMC",15-12-2025 08:00:00,21.170046,72.795405,SO2,32,46,36
India,Haryana,Bhiwani,"H.B. Colony, Bhiwani - HSPCB",15-12-2025 08:00:00,28.806223,76.141105,PM10,87,113,96
India,Haryana,Charkhi Dadri,"Mini Secretariat, Charkhi Dadri - HSPCB",15-12-2025 08:00:00,28.593883,76.270653,SO2,9,11,11
India,Haryana,Charkhi Dadri,"Mini Secretariat, Charkhi Dadri - HSPCB",15-12-2025 08:00:00,28.593883,76.270653,CO,7,25,16
India,Haryana,Charkhi Dadri,"Mini Secretariat, Charkhi Dadri - HSPCB",15-12-2025 08:00:00,28.593883,76.270653,OZONE,13,17,16
India,Haryana,Dharuhera,"Municipal Corporation Office, Dharuhera -  HSPCB",15-12-2025 08:00:00,28.206800,76.799700,PM2.5,172,500,357
India,Haryana,Dharuhera,"Municipal Corporation Office, Dharuhera -  HSPCB",15-12-2025 08:00:00,28.206800,76.799700,OZONE,7,56,9
India,Haryana,Fatehabad,"Huda Sector, Fatehabad - HSPCB",15-12-2025 08:00:00,29.503664,75.467934,NO2,18,20,19
India,Haryana,Fatehabad,"Huda Sector, Fatehabad - HSPCB",15-12-2025 08:00:00,29.503664,75.467934,OZONE,15,18,16
India,Haryana,Gurugram,"Sector-51, Gurugram - HSPCB",15-12-2025 08:00:00,28.4227,77.0667,PM2.5,214,468,334
India,Haryana,Gurugram,"Sector-51, Gurugram - HSPCB",15-12-2025 08:00:00,28.4227,77.0667,NH3,3,9,6
India,Haryana,Gurugram,"Sector-51, Gurugram - HSPCB",15-12-2025 08:00:00,28.4227,77.0667,OZONE,9,46,10
India,Gujarat,Vapi,"Phase-1 GIDC, Vapi - GPCB",15-12-2025 08:00:00,20.362421,72.918013,SO2,14,17,16
India,Gujarat,Vatva,"Phase-4 GIDC, Vatva - GPCB",15-12-2025 08:00:00,22.969611,72.643500,PM2.5,35,328,96
India,Gujarat,Vatva,"Phase-4 GIDC, Vatva - GPCB",15-12-2025 08:00:00,22.969611,72.643500,SO2,3,11,7
India,Haryana,Ambala,"Patti Mehar, Ambala - HSPCB",15-12-2025 08:00:00,30.379589,76.778328,PM10,58,109,84
India,Haryana,Ambala,"Patti Mehar, Ambala - HSPCB",15-12-2025 08:00:00,30.379589,76.778328,OZONE,48,53,51
India,Haryana,Faridabad,"New Industrial Town, Faridabad - HSPCB",15-12-2025 08:00:00,28.39072,77.30059,OZONE,28,35,31
India,Gujarat,Ahmedabad,"SAC ISRO Satellite, Ahmedabad - IITM",15-12-2025 08:00:00,23.023389,72.515201,OZONE,5,72,15
India,Haryana,Faridabad,"Sector 11, Faridabad - HSPCB",15-12-2025 08:00:00,28.376058,77.315741,NO2,29,33,31
India,Haryana,Bahadurgarh,"Arya Nagar, Bahadurgarh - HSPCB",15-12-2025 08:00:00,28.6701,76.9254,NH3,12,13,13
India,Haryana,Narnaul,"Shastri Nagar, Narnaul - HSPCB",15-12-2025 08:00:00,28.060249,76.113115,CO,6,57,39
India,Haryana,Palwal,"Shyam Nagar, Palwal - HSPCB",15-12-2025 08:00:00,28.1485564,77.3320667,PM2.5,121,255,192
India,Haryana,Panchgaon,"Amity University, Panchgaon - IITM",15-12-2025 08:00:00,28.3153,76.9143,NH3,5,14,8
India,Haryana,Panchkula,"Sector-6, Panchkula - HSPCB ",15-12-2025 08:00:00,30.7057778,76.8531805555555,NO2,24,26,25
India,Haryana,Panchkula,"Sector-6, Panchkula - HSPCB ",15-12-2025 08:00:00,30.7057778,76.8531805555555,SO2,8,9,9
India,Haryana,Panchkula,"Sector-6, Panchkula - HSPCB ",15-12-2025 08:00:00,30.7057778,76.8531805555555,CO,21,25,24
India,Haryana,Panipat,"Sector-18, Panipat - HSPCB",15-12-2025 08:00:00,29.432304,76.972765,PM2.5,95,226,163
India,Haryana,Rohtak,"MD University, Rohtak - HSPCB",15-12-2025 08:00:00,28.52123,76.37138,PM2.5,NA,NA,NA
India,Haryana,Rohtak,"MD University, Rohtak - HSPCB",15-12-2025 08:00:00,28.52123,76.37138,PM10,NA,NA,NA
India,Haryana,Rohtak,"MD University, Rohtak - HSPCB",15-12-2025 08:00:00,28.52123,76.37138,SO2,NA,NA,NA
India,Haryana,Sirsa,"F-Block, Sirsa - HSPCB",15-12-2025 08:00:00,29.536400,75.015800,SO2,9,16,13
India,Haryana,Sirsa,"F-Block, Sirsa - HSPCB",15-12-2025 08:00:00,29.536400,75.015800,CO,54,81,67
India,Haryana,Sonipat,"Murthal, Sonipat - HSPCB",15-12-2025 08:00:00,29.027200,77.062100,PM2.5,124,400,285
India,Haryana,Sonipat,"Murthal, Sonipat - HSPCB",15-12-2025 08:00:00,29.027200,77.062100,NH3,17,40,24
India,Haryana,Yamuna Nagar,"Gobind Pura, Yamuna Nagar - HSPCB",15-12-2025 08:00:00,30.1480566,77.2893471,CO,17,84,78
India,Himachal Pradesh,Baddi,"HIMUDA Complex Phase-1, Baddi - HPPCB",15-12-2025 08:00:00,30.943887,76.801991,PM10,121,434,216
India,Jammu_and_Kashmir,Srinagar,"Rajbagh, Srinagar - JKSPCB",15-12-2025 08:00:00,34.066206,74.819820,SO2,3,4,3
India,Karnataka,Bengaluru,"BTM Layout, Bengaluru - CPCB",15-12-2025 08:00:00,12.9135218,77.5950804,NH3,6,9,7
India,Karnataka,Bengaluru,"BTM Layout, Bengaluru - CPCB",15-12-2025 08:00:00,12.9135218,77.5950804,CO,43,58,47
India,Karnataka,Bengaluru,"BWSSB Kadabesanahalli, Bengaluru - CPCB",15-12-2025 08:00:00,12.9352049,77.6814488,PM10,102,184,139
India,Karnataka,Bengaluru,"BWSSB Kadabesanahalli, Bengaluru - CPCB",15-12-2025 08:00:00,12.9352049,77.6814488,NH3,1,1,1
India,Karnataka,Bengaluru,"Peenya, Bengaluru - CPCB",15-12-2025 08:00:00,13.0270199,77.494094,CO,26,59,32
India,Karnataka,Bengaluru,"RVCE-Mailasandra, Bengaluru - KSPCB",15-12-2025 08:00:00,12.921418,77.502466,SO2,5,6,6
India,Karnataka,Bengaluru,"Shivapura_Peenya, Bengaluru - KSPCB",15-12-2025 08:00:00,13.0246342,77.5080115,PM10,78,124,107
India,Karnataka,Bengaluru,"Shivapura_Peenya, Bengaluru - KSPCB",15-12-2025 08:00:00,13.0246342,77.5080115,SO2,10,11,10
India,Karnataka,Bengaluru,"Silk Board, Bengaluru - KSPCB",15-12-2025 08:00:00,12.917348,77.622813,SO2,5,11,8
India,Haryana,Gurugram,"Vikas Sadan, Gurugram - HSPCB",15-12-2025 08:00:00,28.4501238,77.0263051,PM10,143,191,167
India,Haryana,Jind,"Police Lines, Jind - HSPCB",15-12-2025 08:00:00,29.307814,76.337619,PM10,114,222,147
India,Haryana,Kaithal,"Rishi Nagar, Kaithal - HSPCB",15-12-2025 08:00:00,29.8006,76.4155,CO,5,119,27
India,Haryana,Karnal,"Sector-12, Karnal - HSPCB",15-12-2025 08:00:00,29.695300,77.002700,PM2.5,62,363,242
India,Haryana,Karnal,"Sector-12, Karnal - HSPCB",15-12-2025 08:00:00,29.695300,77.002700,PM10,70,273,156
India,Haryana,Manesar,"Sector-2 IMT, Manesar - HSPCB",15-12-2025 08:00:00,28.360699,76.936090,CO,34,72,57
India,Haryana,Narnaul,"Shastri Nagar, Narnaul - HSPCB",15-12-2025 08:00:00,28.060249,76.113115,NO2,45,118,86
India,Karnataka,Chamarajanagar,"Urban, Chamarajanagar - KSPCB",15-12-2025 08:00:00,11.55358,76.55521,SO2,2,8,5
India,Karnataka,Chamarajanagar,"Urban, Chamarajanagar - KSPCB",15-12-2025 08:00:00,11.55358,76.55521,CO,17,120,31
India,Karnataka,Chikkamagaluru,"Kalyana Nagara, Chikkamagaluru - KSPCB",15-12-2025 08:00:00,13.328028,75.797056,PM10,NA,NA,NA
India,Karnataka,Bengaluru,"Hebbal, Bengaluru - KSPCB",15-12-2025 08:00:00,13.029152,77.585901,PM2.5,37,258,105
India,Karnataka,Bengaluru,"Hombegowda Nagar, Bengaluru - KSPCB",15-12-2025 08:00:00,12.938539,77.590100,NH3,2,4,3
India,Karnataka,Bengaluru,"Jigani, Bengaluru - KSPCB",15-12-2025 08:00:00,12.7816279,77.6299145,SO2,17,17,17
India,Karnataka,Mangalore,"Kadri, Mangalore - KSPCB",15-12-2025 08:00:00,12.889250,74.853000,PM2.5,74,195,113
India,Karnataka,Mangalore,"Kadri, Mangalore - KSPCB",15-12-2025 08:00:00,12.889250,74.853000,NO2,3,6,5
India,Karnataka,Mangalore,"Kadri, Mangalore - KSPCB",15-12-2025 08:00:00,12.889250,74.853000,OZONE,4,37,17
India,Karnataka,Mysuru,"Hebbal 1st Stage, Mysuru - KSPCB",15-12-2025 08:00:00,12.21041,76.37376,PM10,54,134,95
India,Karnataka,Shivamogga,"Vinoba Nagara, Shivamogga - KSPCB",15-12-2025 08:00:00,13.940000,75.555917,PM2.5,33,51,50
India,Karnataka,Shivamogga,"Vinoba Nagara, Shivamogga - KSPCB",15-12-2025 08:00:00,13.940000,75.555917,NH3,2,3,3
India,Karnataka,Shivamogga,"Vinoba Nagara, Shivamogga - KSPCB",15-12-2025 08:00:00,13.940000,75.555917,CO,8,26,22
India,Karnataka,Shivamogga,"Vinoba Nagara, Shivamogga - KSPCB",15-12-2025 08:00:00,13.940000,75.555917,OZONE,7,73,11
India,Madhya Pradesh,Indore,"Chhoti Gwaltoli, Indore - MPPCB",15-12-2025 08:00:00,22.4310,75.5213,NH3,1,4,2
India,Madhya Pradesh,Indore,"Chhoti Gwaltoli, Indore - MPPCB",15-12-2025 08:00:00,22.4310,75.5213,SO2,1,14,6
India,Madhya Pradesh,Indore,"Regional Park, Indore - IMC",15-12-2025 08:00:00,22.6780,75.8559,CO,23,42,35
India,Madhya Pradesh,Indore,"Regional Park, Indore - IMC",15-12-2025 08:00:00,22.6780,75.8559,OZONE,8,16,12
India,Madhya Pradesh,Jabalpur,"Govindh Bhavan Colony, Jabalpur - JMC",15-12-2025 08:00:00,23.163174,79.973061,CO,45,64,54
India,Madhya Pradesh,Jabalpur,"Marhatal, Jabalpur - MPPCB",15-12-2025 08:00:00,23.168606,79.932247,PM2.5,101,339,235
India,Madhya Pradesh,Jabalpur,"Marhatal, Jabalpur - MPPCB",15-12-2025 08:00:00,23.168606,79.932247,PM10,89,289,144
India,Madhya Pradesh,Gwalior,"Deen Dayal Nagar, Gwalior - MPPCB",15-12-2025 08:00:00,26.259242,78.216432,CO,7,129,62
India,Madhya Pradesh,Gwalior,"Deen Dayal Nagar, Gwalior - MPPCB",15-12-2025 08:00:00,26.259242,78.216432,OZONE,4,184,4
India,Madhya Pradesh,Gwalior,"Maharaj Bada, Gwalior - MPPCB",15-12-2025 08:00:00,26.200388,78.147714,NH3,6,6,6
India,Madhya Pradesh,Gwalior,"Maharaj Bada, Gwalior - MPPCB",15-12-2025 08:00:00,26.200388,78.147714,SO2,5,11,9
India,Madhya Pradesh,Gwalior,"Maharaj Bada, Gwalior - MPPCB",15-12-2025 08:00:00,26.200388,78.147714,CO,2,117,45
India,Madhya Pradesh,Indore,"Airport Area, Indore - IMC",15-12-2025 08:00:00,22.7289,75.8076,PM10,30,131,75
India,Madhya Pradesh,Indore,"Airport Area, Indore - IMC",15-12-2025 08:00:00,22.7289,75.8076,OZONE,4,10,5
India,Karnataka,Chikkamagaluru,"Kalyana Nagara, Chikkamagaluru - KSPCB",15-12-2025 08:00:00,13.328028,75.797056,OZONE,11,34,22
India,Karnataka,Hubballi,"Lingaraj Nagar, Hubballi - KSPCB",15-12-2025 08:00:00,15.3714823,75.1160168,OZONE,29,30,29
India,Karnataka,Kalaburagi,"Mahatma Basaveswar Colony, Kalaburgi - KSPCB",15-12-2025 08:00:00,17.336318,76.847397,PM10,30,78,58
India,Karnataka,Kalaburagi,"Mahatma Basaveswar Colony, Kalaburgi - KSPCB",15-12-2025 08:00:00,17.336318,76.847397,NO2,12,18,15
India,Karnataka,Kalaburagi,"Mahatma Basaveswar Colony, Kalaburgi - KSPCB",15-12-2025 08:00:00,17.336318,76.847397,SO2,2,5,4
India,Karnataka,Kalaburagi,"Mahatma Basaveswar Colony, Kalaburgi - KSPCB",15-12-2025 08:00:00,17.336318,76.847397,OZONE,13,18,15
India,Kerala,Thiruvananthapuram,"Kariavattom, Thiruvananthapuram - Kerala PCB",15-12-2025 08:00:00,8.563700,76.886500,PM2.5,102,306,182
India,Kerala,Thiruvananthapuram,"Kariavattom, Thiruvananthapuram - Kerala PCB",15-12-2025 08:00:00,8.563700,76.886500,SO2,1,11,5
India,Kerala,Thrissur,"Corporation Ground, Thrissur - Kerala PCB",15-12-2025 08:00:00,10.532400,76.215900,PM2.5,49,67,57
India,Madhya Pradesh,Bhopal,"Idgah Hills, Bhopal - MPPCB",15-12-2025 08:00:00,23.264759,77.381568,PM2.5,53,353,218
India,Madhya Pradesh,Bhopal,"Idgah Hills, Bhopal - MPPCB",15-12-2025 08:00:00,23.264759,77.381568,OZONE,37,88,44
India,Madhya Pradesh,Bhopal,"Paryavaran Parisar, Bhopal - MPPCB",15-12-2025 08:00:00,23.210494,77.425409,NH3,1,1,1
India,Madhya Pradesh,Bhopal,"Paryavaran Parisar, Bhopal - MPPCB",15-12-2025 08:00:00,23.210494,77.425409,CO,20,72,32
India,Madhya Pradesh,Bhopal,"T T Nagar, Bhopal - MPPCB",15-12-2025 08:00:00,23.233584,77.400574,OZONE,45,284,133
India,Madhya Pradesh,Damoh,"Shrivastav Colony, Damoh - MPPCB",15-12-2025 08:00:00,23.81748678,79.446246,PM10,11,50,33
India,Madhya Pradesh,Dewas,"Bhopal Chauraha, Dewas - MPPCB",15-12-2025 08:00:00,22.9682591,76.064118,NH3,2,3,2
India,Madhya Pradesh,Dewas,"Bhopal Chauraha, Dewas - MPPCB",15-12-2025 08:00:00,22.9682591,76.064118,CO,13,32,19
India,Madhya Pradesh,Gwalior,"City Center, Gwalior - MPPCB",15-12-2025 08:00:00,26.203442,78.193251,PM2.5,147,341,243
India,Madhya Pradesh,Gwalior,"City Center, Gwalior - MPPCB",15-12-2025 08:00:00,26.203442,78.193251,CO,6,110,45
India,Karnataka,Madikeri,"Stuart Hill, Madikeri - KSPCB",15-12-2025 08:00:00,12.415911,75.735050,PM2.5,24,55,40
India,Karnataka,Yadgir,"Collector Office, Yadgir - KSPCB",15-12-2025 08:00:00,16.7602,77.1428,OZONE,18,22,19
India,Maharashtra,Amravati,"Shri Shivaji Science College, Amravati - MPCB",15-12-2025 08:00:00,20.939198,77.765701,NH3,1,18,4
India,Maharashtra,Amravati,"Shri Shivaji Science College, Amravati - MPCB",15-12-2025 08:00:00,20.939198,77.765701,SO2,2,78,13
India,Maharashtra,Amravati,"Shri Shivaji Science College, Amravati - MPCB",15-12-2025 08:00:00,20.939198,77.765701,OZONE,2,74,52
India,Maharashtra,Aurangabad,"MIDC Chilkalthana, Aurangabad - MPCB",15-12-2025 08:00:00,19.875620,75.387310,PM2.5,20,226,106
India,Maharashtra,Aurangabad,"MIDC Chilkalthana, Aurangabad - MPCB",15-12-2025 08:00:00,19.875620,75.387310,PM10,41,166,102
India,Maharashtra,Aurangabad,"MIDC Chilkalthana, Aurangabad - MPCB",15-12-2025 08:00:00,19.875620,75.387310,CO,6,12,9
India,Maharashtra,Aurangabad,"More Chowk Waluj, Aurangabad - MPCB",15-12-2025 08:00:00,19.8389439,75.244448,NO2,15,21,18
India,Maharashtra,Aurangabad,"Rachnakar Colony, Aurangabad - MPCB",15-12-2025 08:00:00,19.863756,75.321188,PM2.5,64,256,126
India,Maharashtra,Aurangabad,"Rachnakar Colony, Aurangabad - MPCB",15-12-2025 08:00:00,19.863756,75.321188,OZONE,11,98,15
India,Madhya Pradesh,Mandideep,"Sector-D Industrial Area, Mandideep - MPPCB",15-12-2025 08:00:00,23.108440,77.511428,OZONE,3,53,16
India,Madhya Pradesh,Pithampur,"Sector-2 Industrial Area, Pithampur - MPPCB",15-12-2025 08:00:00,22.624758,75.675238,SO2,9,16,12
India,Madhya Pradesh,Pithampur,"Sector-2 Industrial Area, Pithampur - MPPCB",15-12-2025 08:00:00,22.624758,75.675238,CO,26,64,36
India,Madhya Pradesh,Ratlam,"Shasthri Nagar, Ratlam - IPCA Lab",15-12-2025 08:00:00,23.331731,75.045981,PM10,58,185,114
India,Madhya Pradesh,Ratlam,"Shasthri Nagar, Ratlam - IPCA Lab",15-12-2025 08:00:00,23.331731,75.045981,NO2,6,31,14
India,Madhya Pradesh,Sagar,"Civil Lines, Sagar - MPPCB",15-12-2025 08:00:00,23.838586,78.759431,PM10,99,198,160
India,Maharashtra,Ahmednagar,"Tarakpur, Ahmednagar - MPCB",15-12-2025 08:00:00,19.10122,74.73339,NO2,13,29,18
India,Maharashtra,Ahmednagar,"Tarakpur, Ahmednagar - MPCB",15-12-2025 08:00:00,19.10122,74.73339,NH3,1,35,12
India,Maharashtra,Akola,"Ramdaspeth, Akola - MPCB",15-12-2025 08:00:00,20.719516,77.000253,PM10,39,127,83
India,Maharashtra,Akola,"Ramdaspeth, Akola - MPCB",15-12-2025 08:00:00,20.719516,77.000253,NO2,11,88,40
India,Maharashtra,Akola,"Ramdaspeth, Akola - MPCB",15-12-2025 08:00:00,20.719516,77.000253,NH3,4,6,5
India,Maharashtra,Kalyan,"Khadakpada, Kalyan - MPCB",15-12-2025 08:00:00,19.25292,73.142019,PM2.5,NA,NA,NA
India,Maharashtra,Kalyan,"Khadakpada, Kalyan - MPCB",15-12-2025 08:00:00,19.25292,73.142019,OZONE,8,9,9
India,Maharashtra,Kalyan,"Pimpleshwar Mandir, Kalyan - MPCB",15-12-2025 08:00:00,19.192056,72.9585188,NH3,2,7,4
India,Maharashtra,Badlapur,"Katrap, Badlapur - MPCB",15-12-2025 08:00:00,19.16485,73.23409,CO,19,101,40
India,Maharashtra,Boisar,"Khaira, Boisar - MPCB",15-12-2025 08:00:00,19.786089,72.757971,PM10,89,152,117
India,Maharashtra,Boisar,"Khaira, Boisar - MPCB",15-12-2025 08:00:00,19.786089,72.757971,CO,17,50,31
India,Madhya Pradesh,Jabalpur,"Suhagi, Jabalpur - JMC",15-12-2025 08:00:00,23.218135,79.957770,NO2,24,134,52
India,Madhya Pradesh,Maihar,"Sahilara, Maihar - KJS Cements",15-12-2025 08:00:00,24.2613009,80.7231783,NO2,76,178,92
India,Maharashtra,Chandrapur,"Chauhan Colony, Chandrapur - MPCB",15-12-2025 08:00:00,19.962900,79.298714,SO2,37,37,37
India,Maharashtra,Dhule,"Deopur, Dhule - MPCB",15-12-2025 08:00:00,20.918946,74.776388,NO2,7,70,26
India,Madhya Pradesh,Satna,"Bandhavgar Colony, Satna - Birla Cement",15-12-2025 08:00:00,24.58434363,80.8549414,CO,36,74,60
