country,state,city,station,last_update,latitude,longitude,pollutant_id,min_value,max_value,avg_value
India,Assam,Nagaon,"Christianpatty, Nagaon - PCBA",11-11-2025 07:00:00,26.349082,92.68449,PM10,32,33,32
India,Assam,Nagaon,"Christianpatty, Nagaon - PCBA",11-11-2025 07:00:00,26.349082,92.68449,OZONE,8,9,9
India,Assam,Nalbari,"Bata Chowk, Nalbari - PCBA",11-11-2025 07:00:00,26.446912,91.439057,PM2.5,35,163,83
India,Assam,Nalbari,"Bata Chowk, Nalbari - PCBA",11-11-2025 07:00:00,26.446912,91.439057,NO2,10,23,15
India,Assam,Silchar,"Tarapur, Silchar - PCBA",11-11-2025 07:00:00,24.82827,92.79525,PM10,52,69,59
India,Assam,Sivasagar,"Girls College, Sivasagar - PCBA",11-11-2025 07:00:00,26.987634,94.636574,PM10,23,88,49
India,Assam,Sivasagar,"Girls College, Sivasagar - PCBA",11-11-2025 07:00:00,26.987634,94.636574,NO2,23,30,26
India,Assam,Sivasagar,"Girls College, Sivasagar - PCBA",11-11-2025 07:00:00,26.987634,94.636574,SO2,2,11,8
India,Bihar,Araria,"Kharahiya Basti, Araria - BSPCB",11-11-2025 07:00:00,26.146529,87.454184,NO2,2,36,17
India,Bihar,Muzaffarpur,"Buddha Colony, Muzaffarpur - BSPCB",11-11-2025 07:00:00,26.11442,85.39813,NO2,14,43,31
India,Bihar,Muzaffarpur,"Buddha Colony, Muzaffarpur - BSPCB",11-11-2025 07:00:00,26.11442,85.39813,CO,30,87,47
India,Bihar,Muzaffarpur,"MIT-Daudpur Kothi, Muzaffarpur - BSPCB",11-11-2025 07:00:00,26.1403345,85.3650192,OZONE,15,71,19
India,Bihar,Muzaffarpur,"Muzaffarpur Collectorate, Muzaffarpur - BSPCB",11-11-2025 07:00:00,26.1209,85.3647,CO,14,38,18
India,Bihar,Patna,"DRM Office Danapur, Patna - BSPCB",11-11-2025 07:00:00,25.586562,85.043586,PM2.5,26,336,206
India,Bihar,Patna,"DRM Office Danapur, Patna - BSPCB",11-11-2025 07:00:00,25.586562,85.043586,NO2,41,100,63
India,Bihar,Patna,"DRM Office Danapur, Patna - BSPCB",11-11-2025 07:00:00,25.586562,85.043586,SO2,8,10,9
India,Andaman and Nicobar,Sri Vijaya Puram,"Police Line, Sri Vijaya Puram - ANPCC",11-11-2025 07:00:00,11.654054,92.734055,OZONE,NA,NA,NA
India,Andhra_Pradesh,Amaravati,"Secretariat, Amaravati - APPCB",11-11-2025 07:00:00,16.5150833,80.5181667,PM2.5,67,121,90
India,Andhra_Pradesh,Amaravati,"Secretariat, Amaravati - APPCB",11-11-2025 07:00:00,16.5150833,80.5181667,NO2,21,84,37
India,Andhra_Pradesh,Anantapur,"Gulzarpet, Anantapur - APPCB",11-11-2025 07:00:00,14.675886,77.593027,PM10,65,90,79
India,Andhra_Pradesh,Anantapur,"Gulzarpet, Anantapur - APPCB",11-11-2025 07:00:00,14.675886,77.593027,NO2,20,25,23
India,Andhra_Pradesh,Chittoor,"Gangineni Cheruvu, Chittoor - APPCB",11-11-2025 07:00:00,13.204880,79.097889,NO2,20,25,23
India,Assam,Byrnihat,"Central Academy for SFS, Byrnihat - PCBA",11-11-2025 07:00:00,26.071318,91.87488,SO2,6,9,7
India,Assam,Guwahati,"IITG, Guwahati - PCBA",11-11-2025 07:00:00,26.2028636,91.70046436,NH3,5,5,5
India,Assam,Guwahati,"IITG, Guwahati - PCBA",11-11-2025 07:00:00,26.2028636,91.70046436,SO2,23,26,24
India,Assam,Guwahati,"Pan Bazaar, Guwahati - PCBA",11-11-2025 07:00:00,26.187500,91.744194,SO2,42,78,58
India,Assam,Guwahati,"Pan Bazaar, Guwahati - PCBA",11-11-2025 07:00:00,26.187500,91.744194,CO,13,82,44
India,Assam,Guwahati,"Railway Colony, Guwahati - PCBA",11-11-2025 07:00:00,26.181742,91.78063,PM2.5,32,279,94
India,Assam,Guwahati,"Railway Colony, Guwahati - PCBA",11-11-2025 07:00:00,26.181742,91.78063,PM10,33,147,80
India,Andhra_Pradesh,Vijayawada,"HB Colony, Vijayawada - APPCB",11-11-2025 07:00:00,16.536107,80.594233,SO2,14,20,17
India,Andhra_Pradesh,Vijayawada,"HB Colony, Vijayawada - APPCB",11-11-2025 07:00:00,16.536107,80.594233,CO,34,40,34
India,Andhra_Pradesh,Vijayawada,"Rajiv Nagar, Vijayawada - APPCB",11-11-2025 07:00:00,16.554731,80.649110,CO,31,56,36
India,Andhra_Pradesh,Visakhapatnam,"GVM Corporation, Visakhapatnam - APPCB",11-11-2025 07:00:00,17.72,83.3,CO,3,42,16
India,Arunachal_Pradesh,Naharlagun,"Naharlagun, Naharlagun - APSPCB",11-11-2025 07:00:00,27.103358,93.679645,NO2,5,6,6
India,Arunachal_Pradesh,Naharlagun,"Naharlagun, Naharlagun - APSPCB",11-11-2025 07:00:00,27.103358,93.679645,OZONE,4,5,5
India,Andhra_Pradesh,Rajamahendravaram,"Anand Kala Kshetram, Rajamahendravaram - APPCB",11-11-2025 07:00:00,16.9872867,81.7363176,NO2,9,33,20
India,Andhra_Pradesh,Rajamahendravaram,"Anand Kala Kshetram, Rajamahendravaram - APPCB",11-11-2025 07:00:00,16.9872867,81.7363176,CO,22,62,37
India,Andhra_Pradesh,Tirumala,"Toll Gate, Tirumala - APPCB",11-11-2025 07:00:00,13.67,79.35,PM2.5,83,202,133
India,Andhra_Pradesh,Tirumala,"Toll Gate, Tirumala - APPCB",11-11-2025 07:00:00,13.67,79.35,PM10,75,113,97
India,Andhra_Pradesh,Tirumala,"Toll Gate, Tirumala - APPCB",11-11-2025 07:00:00,13.67,79.35,OZONE,15,326,76
India,Andhra_Pradesh,Vijayawada,"HB Colony, Vijayawada - APPCB",11-11-2025 07:00:00,16.536107,80.594233,PM10,30,117,76
India,Bihar,Bhagalpur,"Mayaganj, Bhagalpur - BSPCB",11-11-2025 07:00:00,25.265194,87.012947,OZONE,53,125,64
India,Bihar,Bihar Sharif,"D M Colony, Bihar Sharif - BSPCB",11-11-2025 07:00:00,25.204762,85.514960,NO2,9,10,10
India,Bihar,Chhapra,"Darshan Nagar, Chhapra - BSPCB",11-11-2025 07:00:00,25.7808257,84.7446768,PM2.5,45,154,82
India,Bihar,Chhapra,"Darshan Nagar, Chhapra - BSPCB",11-11-2025 07:00:00,25.7808257,84.7446768,NH3,4,6,5
India,Bihar,Hajipur,"Industrial Area, Hajipur - BSPCB",11-11-2025 07:00:00,25.697189,85.245900,OZONE,18,178,41
India,Bihar,Katihar,"Mirchaibari, Katihar - BSPCB",11-11-2025 07:00:00,25.560083,87.553265,PM2.5,65,120,88
India,Bihar,Katihar,"Mirchaibari, Katihar - BSPCB",11-11-2025 07:00:00,25.560083,87.553265,OZONE,5,28,6
India,Bihar,Motihari,"Gandak Colony, Motihari - BSPCB",11-11-2025 07:00:00,26.63086,84.90051,NO2,8,13,10
India,Bihar,Aurangabad,"Gurdeo Nagar, Aurangabad - BSPCB",11-11-2025 07:00:00,24.75746,84.366208,NO2,7,8,8
India,Bihar,Aurangabad,"Gurdeo Nagar, Aurangabad - BSPCB",11-11-2025 07:00:00,24.75746,84.366208,CO,101,103,102
India,Bihar,Bettiah,"Kamalnath Nagar, Bettiah - BSPCB",11-11-2025 07:00:00,26.80365,84.51954,SO2,1,11,6
India,Bihar,Gaya,"SFTI Kusdihra, Gaya - BSPCB",11-11-2025 07:00:00,24.762518,84.982348,PM2.5,13,36,25
India,Bihar,Hajipur,"Industrial Area, Hajipur - BSPCB",11-11-2025 07:00:00,25.697189,85.245900,NH3,4,8,6
India,Chhattisgarh,Milupara,"Govt. Higher Secondary School, Milupara - CECB",11-11-2025 07:00:00,22.1910172,83.5197009,NO2,NA,NA,NA
India,Chhattisgarh,Raipur,"AIIMS, Raipur - CECB",11-11-2025 07:00:00,21.258815,81.578979,SO2,11,15,13
India,Chhattisgarh,Raipur,"AIIMS, Raipur - CECB",11-11-2025 07:00:00,21.258815,81.578979,OZONE,5,10,5
India,Chhattisgarh,Raipur,"Bhatagaon New ISBT, Raipur - CECB",11-11-2025 07:00:00,21.219665,81.630094,NO2,NA,NA,NA
India,Chhattisgarh,Raipur,"Bhatagaon New ISBT, Raipur - CECB",11-11-2025 07:00:00,21.219665,81.630094,OZONE,3,16,3
India,Chhattisgarh,Raipur,"Krishak Nagar, Raipur - CECB",11-11-2025 07:00:00,21.237755,81.705301,SO2,5,23,9
India,Chhattisgarh,Raipur,"Krishak Nagar, Raipur - CECB",11-11-2025 07:00:00,21.237755,81.705301,OZONE,2,18,2
India,Chhattisgarh,Raipur,"Siltara Phase-II, Raipur - CECB",11-11-2025 07:00:00,21.371751,81.664929,PM10,39,163,111
India,Chhattisgarh,Raipur,"Siltara Phase-II, Raipur - CECB",11-11-2025 07:00:00,21.371751,81.664929,NH3,3,3,3
India,Chandigarh,Chandigarh,"Sector-53, Chandigarh - CPCC",11-11-2025 07:00:00,30.719859,76.738637,OZONE,2,82,2
India,Chhattisgarh,Bhilai,"32Bungalows, Bhilai - CECB",11-11-2025 07:00:00,21.194815,81.314770,PM2.5,31,62,43
India,Chhattisgarh,Bhilai,"Civic Center, Bhilai - Bhilai Steel Plant",11-11-2025 07:00:00,21.185571,81.343175,CO,21,22,22
India,Chhattisgarh,Bhilai,"Hathkhoj, Bhilai - CECB",11-11-2025 07:00:00,21.224231,81.408350,PM10,50,152,93
India,Chhattisgarh,Bilaspur,"Mangala, Bilaspur - NTPC",11-11-2025 07:00:00,22.08815,82.13737,CO,40,62,42
India,Chhattisgarh,Chhal,"Nawapara SECL Colony, Chhal - CECB",11-11-2025 07:00:00,22.118125,83.140608,PM2.5,58,131,97
India,Bihar,Patna,"Govt. High School Shikarpur, Patna - BSPCB",11-11-2025 07:00:00,25.592539,85.227158,OZONE,9,13,11
India,Bihar,Patna,"IGSC Planetarium Complex, Patna - BSPCB",11-11-2025 07:00:00,25.610369,85.132568,PM2.5,95,216,175
India,Bihar,Patna,"Muradpur, Patna - BSPCB",11-11-2025 07:00:00,25.619651,85.147382,PM10,113,429,185
India,Bihar,Patna,"Muradpur, Patna - BSPCB",11-11-2025 07:00:00,25.619651,85.147382,OZONE,5,40,5
India,Bihar,Patna,"Rajbansi Nagar, Patna - BSPCB",11-11-2025 07:00:00,25.599486,85.113666,NH3,1,7,4
India,Bihar,Patna,"Samanpura, Patna - BSPCB",11-11-2025 07:00:00,25.596727,85.085624,PM2.5,92,314,286
India,Bihar,Patna,"Samanpura, Patna - BSPCB",11-11-2025 07:00:00,25.596727,85.085624,NH3,6,7,6
India,Chhattisgarh,Tumidih,"OP Jindal Industrial Park, Tumidih - CECB",11-11-2025 07:00:00,22.06631475,83.33820077,SO2,5,11,6
India,Delhi,Delhi,"Alipur, Delhi - DPCC",11-11-2025 07:00:00,28.815329,77.153010,NH3,4,4,4
India,Delhi,Delhi,"Alipur, Delhi - DPCC",11-11-2025 07:00:00,28.815329,77.153010,SO2,22,46,33
India,Delhi,Delhi,"Anand Vihar, Delhi - DPCC",11-11-2025 07:00:00,28.647622,77.3158090,SO2,49,66,62
India,Delhi,Delhi,"Ashok Vihar, Delhi - DPCC",11-11-2025 07:00:00,28.695381,77.181665,PM10,252,490,410
India,Bihar,Siwan,"Chitragupta Nagar, Siwan - BSPCB",11-11-2025 07:00:00,26.2271665,84.3570427,SO2,NA,NA,NA
India,Chandigarh,Chandigarh,"Sector 22, Chandigarh - CPCC",11-11-2025 07:00:00,30.735567,76.775714,NO2,5,68,25
India,Chandigarh,Chandigarh,"Sector 22, Chandigarh - CPCC",11-11-2025 07:00:00,30.735567,76.775714,CO,56,100,60
India,Chandigarh,Chandigarh,"Sector-25, Chandigarh - CPCC",11-11-2025 07:00:00,30.751462,76.762879,SO2,6,10,9
India,Chandigarh,Chandigarh,"Sector-53, Chandigarh - CPCC",11-11-2025 07:00:00,30.719859,76.738637,NO2,20,157,67
India,Delhi,Delhi,"Dr. Karni Singh Shooting Range, Delhi - DPCC",11-11-2025 07:00:00,28.498571,77.264840,PM2.5,337,500,438
India,Delhi,Delhi,"Dr. Karni Singh Shooting Range, Delhi - DPCC",11-11-2025 07:00:00,28.498571,77.264840,OZONE,3,130,5
India,Delhi,Delhi,"Dwarka-Sector 8, Delhi - DPCC ",11-11-2025 07:00:00,28.5710274,77.0719006,NH3,13,19,16
India,Delhi,Delhi,"Dwarka-Sector 8, Delhi - DPCC ",11-11-2025 07:00:00,28.5710274,77.0719006,SO2,6,32,16
India,Delhi,Delhi,"IGI Airport (T3), Delhi - IMD",11-11-2025 07:00:00,28.5627763,77.1180053,NO2,124,295,216
India,Chhattisgarh,Chhal,"Nawapara SECL Colony, Chhal - CECB",11-11-2025 07:00:00,22.118125,83.140608,OZONE,9,220,17
India,Chhattisgarh,Korba,"Rampur, Korba - CECB",11-11-2025 07:00:00,22.368195,82.746431,SO2,5,18,9
India,Chhattisgarh,Korba,"Rampur, Korba - CECB",11-11-2025 07:00:00,22.368195,82.746431,CO,19,32,23
India,Chhattisgarh,Kunjemura,"OP Jindal School, Kunjemura - CECB",11-11-2025 07:00:00,22.126650,83.483212,PM2.5,44,76,56
India,Chhattisgarh,Kunjemura,"OP Jindal School, Kunjemura - CECB",11-11-2025 07:00:00,22.126650,83.483212,NO2,3,4,3
India,Delhi,Delhi,"Ashok Vihar, Delhi - DPCC",11-11-2025 07:00:00,28.695381,77.181665,CO,48,123,84
India,Delhi,Delhi,"Aya Nagar, Delhi - IMD",11-11-2025 07:00:00,28.4706914,77.1099364,PM2.5,353,475,419
India,Bihar,Purnia,"Mariam Nagar, Purnia - BSPCB",11-11-2025 07:00:00,25.366336,87.117468,CO,36,67,61
India,Bihar,Rajgir,"Dangi Tola, Rajgir - BSPCB",11-11-2025 07:00:00,25.03280,85.41948,SO2,18,24,21
India,Delhi,Delhi,"Pusa, Delhi - IMD",11-11-2025 07:00:00,28.636110,77.173332,PM10,209,458,373
India,Delhi,Delhi,"Pusa, Delhi - IMD",11-11-2025 07:00:00,28.636110,77.173332,NO2,18,147,84
India,Delhi,Delhi,"Pusa, Delhi - IMD",11-11-2025 07:00:00,28.636110,77.173332,CO,27,139,109
India,Delhi,Delhi,"R K Puram, Delhi - DPCC",11-11-2025 07:00:00,28.563262,77.186937,PM10,271,445,407
India,Delhi,Delhi,"R K Puram, Delhi - DPCC",11-11-2025 07:00:00,28.563262,77.186937,NO2,48,145,106
India,Delhi,Delhi,"R K Puram, Delhi - DPCC",11-11-2025 07:00:00,28.563262,77.186937,NH3,4,6,5
India,Delhi,Delhi,"R K Puram, Delhi - DPCC",11-11-2025 07:00:00,28.563262,77.186937,OZONE,4,248,4
India,Delhi,Delhi,"Rohini, Delhi - DPCC",11-11-2025 07:00:00,28.732528,77.119920,PM2.5,345,500,451
India,Delhi,Delhi,"Rohini, Delhi - DPCC",11-11-2025 07:00:00,28.732528,77.119920,NO2,13,56,35
India,Delhi,Delhi,"Shadipur, Delhi - CPCB",11-11-2025 07:00:00,28.6514781,77.1473105,NO2,61,193,115
India,Delhi,Delhi,"Shadipur, Delhi - CPCB",11-11-2025 07:00:00,28.6514781,77.1473105,NH3,8,15,11
India,Delhi,Delhi,"Shadipur, Delhi - CPCB",11-11-2025 07:00:00,28.6514781,77.1473105,OZONE,12,55,44
India,Delhi,Delhi,"Sirifort, Delhi - CPCB",11-11-2025 07:00:00,28.5504249,77.2159377,PM10,256,481,408
India,Delhi,Delhi,"Wazirpur, Delhi - DPCC",11-11-2025 07:00:00,28.699793,77.165453,CO,60,129,108
India,Gujarat,Ahmedabad,"Chandkheda, Ahmedabad - IITM",11-11-2025 07:00:00,23.107969,72.574648,PM10,109,422,188
India,Gujarat,Ahmedabad,"Chandkheda, Ahmedabad - IITM",11-11-2025 07:00:00,23.107969,72.574648,NO2,11,120,63
India,Gujarat,Ahmedabad,"Gyaspur, Ahmedabad - IITM",11-11-2025 07:00:00,22.977134,72.553024,PM10,116,415,262
India,Gujarat,Ahmedabad,"Gyaspur, Ahmedabad - IITM",11-11-2025 07:00:00,22.977134,72.553024,NO2,47,173,115
India,Gujarat,Ahmedabad,"Gyaspur, Ahmedabad - IITM",11-11-2025 07:00:00,22.977134,72.553024,SO2,7,122,58
India,Gujarat,Ahmedabad,"Maninagar, Ahmedabad - GPCB",11-11-2025 07:00:00,23.002657,72.591912,NO2,41,51,46
India,Gujarat,Ahmedabad,"Maninagar, Ahmedabad - GPCB",11-11-2025 07:00:00,23.002657,72.591912,CO,24,89,53
India,Gujarat,Ahmedabad,"Raikhad, Ahmedabad - IITM",11-11-2025 07:00:00,23.020509,72.579261,CO,12,157,90
India,Gujarat,Ahmedabad,"Raikhad, Ahmedabad - IITM",11-11-2025 07:00:00,23.020509,72.579261,OZONE,2,78,3
India,Delhi,Delhi,"IHBAS, Dilshad Garden, Delhi - CPCB",11-11-2025 07:00:00,28.6811736,77.3025234,PM10,183,414,298
India,Delhi,Delhi,"IHBAS, Dilshad Garden, Delhi - CPCB",11-11-2025 07:00:00,28.6811736,77.3025234,NO2,52,56,54
India,Delhi,Delhi,"IHBAS, Dilshad Garden, Delhi - CPCB",11-11-2025 07:00:00,28.6811736,77.3025234,NH3,4,6,5
India,Delhi,Delhi,"IHBAS, Dilshad Garden, Delhi - CPCB",11-11-2025 07:00:00,28.6811736,77.3025234,SO2,19,36,28
India,Delhi,Delhi,"ITO, Delhi - CPCB",11-11-2025 07:00:00,28.628624,77.241060,PM10,210,469,375
India,Delhi,Delhi,"ITO, Delhi - CPCB",11-11-2025 07:00:00,28.628624,77.241060,OZONE,5,74,7
India,Delhi,Delhi,"Jahangirpuri, Delhi - DPCC",11-11-2025 07:00:00,28.732820,77.170633,CO,83,139,121
India,Delhi,Delhi,"Jahangirpuri, Delhi - DPCC",11-11-2025 07:00:00,28.732820,77.170633,OZONE,4,38,17
India,Delhi,Delhi,"Lodhi Road, Delhi - IITM",11-11-2025 07:00:00,28.588333,77.221667,PM10,169,316,235
India,Gujarat,Ahmedabad,"Rakhial, Ahmedabad - IITM",11-11-2025 07:00:00,23.016834,72.625775,CO,6,136,124
India,Gujarat,Ahmedabad,"SAC ISRO Bopal, Ahmedabad - IITM",11-11-2025 07:00:00,23.041137,72.456691,PM2.5,39,392,186
India,Gujarat,Ahmedabad,"SAC ISRO Bopal, Ahmedabad - IITM",11-11-2025 07:00:00,23.041137,72.456691,PM10,48,500,160
India,Gujarat,Ahmedabad,"SAC ISRO Satellite, Ahmedabad - IITM",11-11-2025 07:00:00,23.023389,72.515201,PM10,99,150,119
India,Gujarat,Ahmedabad,"SAC ISRO Satellite, Ahmedabad - IITM",11-11-2025 07:00:00,23.023389,72.515201,NO2,24,152,88
India,Gujarat,Ahmedabad,"SVPI Airport Hansol, Ahmedabad - IITM",11-11-2025 07:00:00,23.076793,72.627874,PM2.5,NA,NA,NA
India,Gujarat,Ahmedabad,"SVPI Airport Hansol, Ahmedabad - IITM",11-11-2025 07:00:00,23.076793,72.627874,NH3,NA,NA,NA
India,Gujarat,Ahmedabad,"SVPI Airport Hansol, Ahmedabad - IITM",11-11-2025 07:00:00,23.076793,72.627874,SO2,6,11,8
India,Delhi,Delhi,"Lodhi Road, Delhi - IITM",11-11-2025 07:00:00,28.588333,77.221667,NO2,39,215,112
India,Delhi,Delhi,"Lodhi Road, Delhi - IMD",11-11-2025 07:00:00,28.5918245,77.2273074,PM2.5,361,476,414
India,Delhi,Delhi,"Lodhi Road, Delhi - IMD",11-11-2025 07:00:00,28.5918245,77.2273074,OZONE,5,147,6
India,Delhi,Delhi,"Major Dhyan Chand National Stadium, Delhi - DPCC",11-11-2025 07:00:00,28.611281,77.237738,PM2.5,339,483,407
India,Delhi,Delhi,"Major Dhyan Chand National Stadium, Delhi - DPCC",11-11-2025 07:00:00,28.611281,77.237738,SO2,25,48,32
India,Delhi,Delhi,"Mundka, Delhi - DPCC",11-11-2025 07:00:00,28.684678,77.076574,NO2,84,221,139
India,Delhi,Delhi,"NSIT Dwarka, Delhi - CPCB",11-11-2025 07:00:00,28.60909,77.0325413,OZONE,8,82,24
India,Delhi,Delhi,"Najafgarh, Delhi - DPCC",11-11-2025 07:00:00,28.570173,76.933762,NO2,122,153,135
India,Delhi,Delhi,"Najafgarh, Delhi - DPCC",11-11-2025 07:00:00,28.570173,76.933762,SO2,15,36,22
India,Delhi,Delhi,"Narela, Delhi - DPCC",11-11-2025 07:00:00,28.822836,77.101981,NO2,17,90,49
India,Delhi,Delhi,"Narela, Delhi - DPCC",11-11-2025 07:00:00,28.822836,77.101981,NH3,15,18,16
India,Delhi,Delhi,"Narela, Delhi - DPCC",11-11-2025 07:00:00,28.822836,77.101981,OZONE,4,212,26
India,Delhi,Delhi,"Okhla Phase-2, Delhi - DPCC",11-11-2025 07:00:00,28.530785,77.271255,CO,NA,NA,NA
India,Delhi,Delhi,"Okhla Phase-2, Delhi - DPCC",11-11-2025 07:00:00,28.530785,77.271255,OZONE,NA,NA,NA
India,Delhi,Delhi,"Patparganj, Delhi - DPCC",11-11-2025 07:00:00,28.623763,77.287209,NO2,48,218,142
India,Delhi,Delhi,"Punjabi Bagh, Delhi - DPCC",11-11-2025 07:00:00,28.674045,77.131023,PM10,250,497,411
India,Delhi,Delhi,"Punjabi Bagh, Delhi - DPCC",11-11-2025 07:00:00,28.674045,77.131023,NO2,47,113,77
India,Delhi,Delhi,"Punjabi Bagh, Delhi - DPCC",11-11-2025 07:00:00,28.674045,77.131023,NH3,4,7,6
India,Delhi,Delhi,"Sonia Vihar, Delhi - DPCC",11-11-2025 07:00:00,28.710508,77.249485,SO2,8,30,16
India,Delhi,Delhi,"Sri Aurobindo Marg, Delhi - DPCC",11-11-2025 07:00:00,28.531346,77.190156,NH3,4,6,5
India,Delhi,Delhi,"Vivek Vihar, Delhi - DPCC",11-11-2025 07:00:00,28.672342,77.315260,NH3,10,13,12
India,Delhi,Delhi,"Vivek Vihar, Delhi - DPCC",11-11-2025 07:00:00,28.672342,77.315260,SO2,13,29,19
India,Delhi,Delhi,"Vivek Vihar, Delhi - DPCC",11-11-2025 07:00:00,28.672342,77.315260,CO,60,135,82
India,Gujarat,Ahmedabad,"Rakhial, Ahmedabad - IITM",11-11-2025 07:00:00,23.016834,72.625775,NH3,2,30,6
India,Gujarat,Ahmedabad,"Rakhial, Ahmedabad - IITM",11-11-2025 07:00:00,23.016834,72.625775,SO2,16,89,48
India,Gujarat,Vapi,"Phase-1 GIDC, Vapi - GPCB",11-11-2025 07:00:00,20.362421,72.918013,PM2.5,40,341,184
India,Gujarat,Vapi,"Phase-1 GIDC, Vapi - GPCB",11-11-2025 07:00:00,20.362421,72.918013,PM10,46,216,135
India,Gujarat,Vapi,"Phase-1 GIDC, Vapi - GPCB",11-11-2025 07:00:00,20.362421,72.918013,NH3,5,5,5
India,Gujarat,Vatva,"Phase-4 GIDC, Vatva - GPCB",11-11-2025 07:00:00,22.969611,72.643500,PM10,32,208,106
India,Haryana,Ambala,"Patti Mehar, Ambala - HSPCB",11-11-2025 07:00:00,30.379589,76.778328,PM10,53,146,111
India,Haryana,Ambala,"Patti Mehar, Ambala - HSPCB",11-11-2025 07:00:00,30.379589,76.778328,SO2,31,32,31
India,Haryana,Ambala,"Patti Mehar, Ambala - HSPCB",11-11-2025 07:00:00,30.379589,76.778328,CO,98,100,99
India,Haryana,Ambala,"Patti Mehar, Ambala - HSPCB",11-11-2025 07:00:00,30.379589,76.778328,OZONE,48,51,50
India,Haryana,Bahadurgarh,"Arya Nagar, Bahadurgarh - HSPCB",11-11-2025 07:00:00,28.6701,76.9254,PM2.5,84,500,412
India,Haryana,Bahadurgarh,"Arya Nagar, Bahadurgarh - HSPCB",11-11-2025 07:00:00,28.6701,76.9254,SO2,7,7,7
India,Haryana,Bahadurgarh,"Arya Nagar, Bahadurgarh - HSPCB",11-11-2025 07:00:00,28.6701,76.9254,CO,44,52,48
India,Haryana,Panchgaon,"Amity University, Panchgaon - IITM",11-11-2025 07:00:00,28.3153,76.9143,NH3,10,19,15
India,Haryana,Panchgaon,"Amity University, Panchgaon - IITM",11-11-2025 07:00:00,28.3153,76.9143,CO,39,100,78
India,Haryana,Panchgaon,"Amity University, Panchgaon - IITM",11-11-2025 07:00:00,28.3153,76.9143,OZONE,1,87,2
India,Haryana,Panchkula,"Sector-6, Panchkula - HSPCB ",11-11-2025 07:00:00,30.7057778,76.8531805555555,OZONE,16,37,21
India,Haryana,Panipat,"Sector-18, Panipat - HSPCB",11-11-2025 07:00:00,29.432304,76.972765,PM2.5,16,337,205
India,Haryana,Panipat,"Sector-18, Panipat - HSPCB",11-11-2025 07:00:00,29.432304,76.972765,PM10,19,286,159
India,Haryana,Panipat,"Sector-18, Panipat - HSPCB",11-11-2025 07:00:00,29.432304,76.972765,CO,6,26,25
India,Haryana,Sirsa,"F-Block, Sirsa - HSPCB",11-11-2025 07:00:00,29.536400,75.015800,PM2.5,334,428,379
India,Haryana,Bahadurgarh,"Arya Nagar, Bahadurgarh - HSPCB",11-11-2025 07:00:00,28.6701,76.9254,OZONE,15,20,17
India,Haryana,Ballabgarh,"Nathu Colony, Ballabgarh - HSPCB",11-11-2025 07:00:00,28.3419248,77.319699,CO,48,52,50
India,Haryana,Bhiwani,"H.B. Colony, Bhiwani - HSPCB",11-11-2025 07:00:00,28.806223,76.141105,PM2.5,219,354,290
India,Haryana,Bhiwani,"H.B. Colony, Bhiwani - HSPCB",11-11-2025 07:00:00,28.806223,76.141105,PM10,122,214,151
India,Haryana,Charkhi Dadri,"Mini Secretariat, Charkhi Dadri - HSPCB",11-11-2025 07:00:00,28.593883,76.270653,NH3,5,8,6
India,Haryana,Charkhi Dadri,"Mini Secretariat, Charkhi Dadri - HSPCB",11-11-2025 07:00:00,28.593883,76.270653,CO,9,25,16
India,Haryana,Yamuna Nagar,"Gobind Pura, Yamuna Nagar - HSPCB",11-11-2025 07:00:00,30.1480566,77.2893471,NO2,11,11,11
India,Haryana,Yamuna Nagar,"Gobind Pura, Yamuna Nagar - HSPCB",11-11-2025 07:00:00,30.1480566,77.2893471,OZONE,37,40,38
India,Jharkhand,Dhanbad,"Sardar Patel Nagar, Dhanbad - JSPCB",11-11-2025 07:00:00,23.80569,86.44268,PM2.5,NA,NA,NA
India,Jharkhand,Dhanbad,"Sardar Patel Nagar, Dhanbad - JSPCB",11-11-2025 07:00:00,23.80569,86.44268,OZONE,1,28,1
India,Jharkhand,Jorapokhar,"Tata Stadium, Jorapokhar - JSPCB",11-11-2025 07:00:00,23.707909,86.414670,PM10,NA,NA,NA
India,Haryana,Faridabad,"New Industrial Town, Faridabad - HSPCB",11-11-2025 07:00:00,28.39072,77.30059,CO,10,13,12
India,Haryana,Fatehabad,"Huda Sector, Fatehabad - HSPCB",11-11-2025 07:00:00,29.503664,75.467934,OZONE,11,18,11
India,Haryana,Gurugram,"NISE Gwal Pahari, Gurugram - IMD",11-11-2025 07:00:00,28.422681,77.148944,PM2.5,112,457,374
India,Haryana,Gurugram,"NISE Gwal Pahari, Gurugram - IMD",11-11-2025 07:00:00,28.422681,77.148944,PM10,11,449,363
India,Haryana,Narnaul,"Shastri Nagar, Narnaul - HSPCB",11-11-2025 07:00:00,28.060249,76.113115,PM2.5,165,313,266
India,Haryana,Narnaul,"Shastri Nagar, Narnaul - HSPCB",11-11-2025 07:00:00,28.060249,76.113115,OZONE,16,82,17
India,Haryana,Palwal,"Shyam Nagar, Palwal - HSPCB",11-11-2025 07:00:00,28.1485564,77.3320667,PM2.5,171,294,236
India,Haryana,Palwal,"Shyam Nagar, Palwal - HSPCB",11-11-2025 07:00:00,28.1485564,77.3320667,PM10,129,178,154
India,Haryana,Palwal,"Shyam Nagar, Palwal - HSPCB",11-11-2025 07:00:00,28.1485564,77.3320667,CO,18,28,28
India,Haryana,Gurugram,"NISE Gwal Pahari, Gurugram - IMD",11-11-2025 07:00:00,28.422681,77.148944,OZONE,4,87,4
India,Haryana,Gurugram,"Teri Gram, Gurugram - HSPCB",11-11-2025 07:00:00,28.4275,77.1465,OZONE,NA,NA,NA
India,Haryana,Hisar,"Urban Estate-II, Hisar - HSPCB",11-11-2025 07:00:00,29.140560,75.744941,PM2.5,118,295,188
India,Haryana,Hisar,"Urban Estate-II, Hisar - HSPCB",11-11-2025 07:00:00,29.140560,75.744941,NO2,11,12,11
India,Haryana,Jind,"Police Lines, Jind - HSPCB",11-11-2025 07:00:00,29.307814,76.337619,CO,3,105,41
India,Haryana,Kaithal,"Rishi Nagar, Kaithal - HSPCB",11-11-2025 07:00:00,29.8006,76.4155,NH3,5,6,6
India,Haryana,Kurukshetra,"Sector-7, Kurukshetra - HSPCB",11-11-2025 07:00:00,29.966942,76.875879,NO2,16,21,19
India,Haryana,Kurukshetra,"Sector-7, Kurukshetra - HSPCB",11-11-2025 07:00:00,29.966942,76.875879,OZONE,13,87,19
India,Gujarat,Gandhinagar,"IIPHG Lekawada, Gandhinagar - IITM",11-11-2025 07:00:00,23.243639,72.68994,PM2.5,46,104,77
India,Gujarat,Gandhinagar,"IIPHG Lekawada, Gandhinagar - IITM",11-11-2025 07:00:00,23.243639,72.68994,NO2,3,16,9
India,Gujarat,Gandhinagar,"IIPHG Lekawada, Gandhinagar - IITM",11-11-2025 07:00:00,23.243639,72.68994,SO2,3,7,4
India,Gujarat,Gandhinagar,"Sector-10, Gandhinagar - GPCB",11-11-2025 07:00:00,23.221714,72.654328,NO2,16,37,23
India,Karnataka,Koppal,"Diwator Nagar, Koppal - KSPCB",11-11-2025 07:00:00,15.347630,76.181767,NH3,7,8,7
India,Karnataka,Madikeri,"Stuart Hill, Madikeri - KSPCB",11-11-2025 07:00:00,12.415911,75.735050,SO2,7,8,7
India,Karnataka,Mangalore,"Kadri, Mangalore - KSPCB",11-11-2025 07:00:00,12.889250,74.853000,PM2.5,72,137,88
India,Karnataka,Mangalore,"Kadri, Mangalore - KSPCB",11-11-2025 07:00:00,12.889250,74.853000,NO2,1,12,5
India,Karnataka,Mangalore,"Kadri, Mangalore - KSPCB",11-11-2025 07:00:00,12.889250,74.853000,SO2,14,16,14
India,Karnataka,Mysuru,"Hebbal 1st Stage, Mysuru - KSPCB",11-11-2025 07:00:00,12.21041,76.37376,PM2.5,12,50,28
India,Karnataka,Mysuru,"Hebbal 1st Stage, Mysuru - KSPCB",11-11-2025 07:00:00,12.21041,76.37376,SO2,1,40,8
India,Karnataka,Shivamogga,"Vinoba Nagara, Shivamogga - KSPCB",11-11-2025 07:00:00,13.940000,75.555917,PM2.5,41,54,51
India,Karnataka,Bagalkot,"Vidayagiri, Bagalkot - KSPCB",11-11-2025 07:00:00,16.172806,75.659694,PM2.5,34,36,35
India,Karnataka,Bagalkot,"Vidayagiri, Bagalkot - KSPCB",11-11-2025 07:00:00,16.172806,75.659694,NO2,11,12,12
India,Karnataka,Belgaum,"Ramteerth Nagar, Belgaum - KSPCB",11-11-2025 07:00:00,15.888653,74.541751,SO2,19,20,20
India,Karnataka,Bengaluru,"BTM Layout, Bengaluru - CPCB",11-11-2025 07:00:00,12.9135218,77.5950804,OZONE,20,22,20
India,Karnataka,Bengaluru,"BWSSB Kadabesanahalli, Bengaluru - CPCB",11-11-2025 07:00:00,12.9352049,77.6814488,PM2.5,58,61,60
India,Karnataka,Bengaluru,"BWSSB Kadabesanahalli, Bengaluru - CPCB",11-11-2025 07:00:00,12.9352049,77.6814488,SO2,2,5,3
India,Karnataka,Bengaluru,"City Railway Station, Bengaluru - KSPCB",11-11-2025 07:00:00,12.9756843,77.5660749,SO2,NA,NA,NA
India,Karnataka,Bengaluru,"City Railway Station, Bengaluru - KSPCB",11-11-2025 07:00:00,12.9756843,77.5660749,CO,NA,NA,NA
India,Karnataka,Bengaluru,"Hebbal, Bengaluru - KSPCB",11-11-2025 07:00:00,13.029152,77.585901,NO2,11,27,22
India,Karnataka,Bengaluru,"Jayanagar 5th Block, Bengaluru - KSPCB",11-11-2025 07:00:00,12.920984,77.584908,PM2.5,68,127,93
India,Karnataka,Bengaluru,"Jayanagar 5th Block, Bengaluru - KSPCB",11-11-2025 07:00:00,12.920984,77.584908,PM10,82,154,108
India,Karnataka,Bengaluru,"Jayanagar 5th Block, Bengaluru - KSPCB",11-11-2025 07:00:00,12.920984,77.584908,NO2,12,96,42
India,Karnataka,Bengaluru,"Jayanagar 5th Block, Bengaluru - KSPCB",11-11-2025 07:00:00,12.920984,77.584908,CO,8,86,15
India,Karnataka,Bengaluru,"Jayanagar 5th Block, Bengaluru - KSPCB",11-11-2025 07:00:00,12.920984,77.584908,OZONE,13,159,65
India,Karnataka,Bengaluru,"Jigani, Bengaluru - KSPCB",11-11-2025 07:00:00,12.7816279,77.6299145,NH3,3,3,3
India,Karnataka,Shivamogga,"Vinoba Nagara, Shivamogga - KSPCB",11-11-2025 07:00:00,13.940000,75.555917,NH3,3,8,4
India,Karnataka,Shivamogga,"Vinoba Nagara, Shivamogga - KSPCB",11-11-2025 07:00:00,13.940000,75.555917,OZONE,19,65,25
India,Karnataka,Udupi,"Brahmagiri, Udupi - KSPCB",11-11-2025 07:00:00,13.34194444,74.74694444,PM2.5,57,198,92
India,Karnataka,Udupi,"Brahmagiri, Udupi - KSPCB",11-11-2025 07:00:00,13.34194444,74.74694444,SO2,8,8,8
India,Karnataka,Udupi,"Brahmagiri, Udupi - KSPCB",11-11-2025 07:00:00,13.34194444,74.74694444,OZONE,8,8,8
India,Kerala,Eloor,"Udyogamandal, Eloor - Kerala PCB",11-11-2025 07:00:00,10.073232,76.302765,PM2.5,46,77,60
India,Kerala,Eloor,"Udyogamandal, Eloor - Kerala PCB",11-11-2025 07:00:00,10.073232,76.302765,SO2,1,1,1
India,Kerala,Eloor,"Udyogamandal, Eloor - Kerala PCB",11-11-2025 07:00:00,10.073232,76.302765,CO,28,71,36
India,Madhya Pradesh,Bhopal,"Idgah Hills, Bhopal - MPPCB",11-11-2025 07:00:00,23.264759,77.381568,PM2.5,53,308,158
India,Madhya Pradesh,Bhopal,"Idgah Hills, Bhopal - MPPCB",11-11-2025 07:00:00,23.264759,77.381568,NH3,4,6,5
India,Madhya Pradesh,Bhopal,"Paryavaran Parisar, Bhopal - MPPCB",11-11-2025 07:00:00,23.210494,77.425409,PM10,89,378,189
India,Madhya Pradesh,Dewas,"Bhopal Chauraha, Dewas - MPPCB",11-11-2025 07:00:00,22.9682591,76.064118,PM10,100,226,135
India,Madhya Pradesh,Dewas,"Bhopal Chauraha, Dewas - MPPCB",11-11-2025 07:00:00,22.9682591,76.064118,NH3,2,2,2
India,Karnataka,Chikkamagaluru,"Kalyana Nagara, Chikkamagaluru - KSPCB",11-11-2025 07:00:00,13.328028,75.797056,OZONE,NA,NA,NA
India,Karnataka,Dharwad,"Kalabhavan, Dharwad - KSPCB",11-11-2025 07:00:00,15.459706,75.008381,NH3,5,6,5
India,Karnataka,Dharwad,"Kalabhavan, Dharwad - KSPCB",11-11-2025 07:00:00,15.459706,75.008381,SO2,3,5,4
India,Karnataka,Dharwad,"Kalabhavan, Dharwad - KSPCB",11-11-2025 07:00:00,15.459706,75.008381,CO,25,103,54
India,Kerala,Thiruvananthapuram,"Kariavattom, Thiruvananthapuram - Kerala PCB",11-11-2025 07:00:00,8.563700,76.886500,SO2,1,17,7
India,Kerala,Thrissur,"Corporation Ground, Thrissur - Kerala PCB",11-11-2025 07:00:00,10.532400,76.215900,PM10,49,56,53
India,Karnataka,Gadag,"Panchal Nagar, Gadag - KSPCB",11-11-2025 07:00:00,15.411456,75.638133,OZONE,12,49,36
India,Karnataka,Hubballi,"Lingaraj Nagar, Hubballi - KSPCB",11-11-2025 07:00:00,15.3714823,75.1160168,PM10,57,64,60
India,Karnataka,Bengaluru,"RVCE-Mailasandra, Bengaluru - KSPCB",11-11-2025 07:00:00,12.921418,77.502466,NH3,3,3,3
India,Karnataka,Bengaluru,"Silk Board, Bengaluru - KSPCB",11-11-2025 07:00:00,12.917348,77.622813,NH3,2,2,2
India,Madhya Pradesh,Indore,"Chhoti Gwaltoli, Indore - MPPCB",11-11-2025 07:00:00,22.4310,75.5213,NO2,106,224,149
India,Madhya Pradesh,Indore,"Chhoti Gwaltoli, Indore - MPPCB",11-11-2025 07:00:00,22.4310,75.5213,CO,46,174,115
India,Madhya Pradesh,Indore,"Regional Park, Indore - IMC",11-11-2025 07:00:00,22.6780,75.8559,SO2,21,25,23
India,Madhya Pradesh,Indore,"Regional Park, Indore - IMC",11-11-2025 07:00:00,22.6780,75.8559,CO,18,38,30
India,Madhya Pradesh,Indore,"Residency Area, Indore - IMC",11-11-2025 07:00:00,22.7084,75.8815,NO2,10,20,15
India,Madhya Pradesh,Indore,"Residency Area, Indore - IMC",11-11-2025 07:00:00,22.7084,75.8815,OZONE,12,16,15
India,Madhya Pradesh,Jabalpur,"Govindh Bhavan Colony, Jabalpur - JMC",11-11-2025 07:00:00,23.163174,79.973061,PM2.5,77,207,121
India,Madhya Pradesh,Jabalpur,"Govindh Bhavan Colony, Jabalpur - JMC",11-11-2025 07:00:00,23.163174,79.973061,PM10,73,138,105
India,Madhya Pradesh,Jabalpur,"Govindh Bhavan Colony, Jabalpur - JMC",11-11-2025 07:00:00,23.163174,79.973061,NH3,1,2,2
India,Madhya Pradesh,Jabalpur,"Govindh Bhavan Colony, Jabalpur - JMC",11-11-2025 07:00:00,23.163174,79.973061,CO,15,55,40
India,Madhya Pradesh,Jabalpur,"Gupteshwar, Jabalpur - JMC",11-11-2025 07:00:00,23.142888,79.916147,PM2.5,51,148,85
India,Madhya Pradesh,Gwalior,"City Center, Gwalior - MPPCB",11-11-2025 07:00:00,26.203442,78.193251,SO2,10,14,13
India,Madhya Pradesh,Gwalior,"Deen Dayal Nagar, Gwalior - MPPCB",11-11-2025 07:00:00,26.259242,78.216432,PM2.5,118,374,262
India,Madhya Pradesh,Gwalior,"Deen Dayal Nagar, Gwalior - MPPCB",11-11-2025 07:00:00,26.259242,78.216432,SO2,5,38,16
India,Madhya Pradesh,Gwalior,"Deen Dayal Nagar, Gwalior - MPPCB",11-11-2025 07:00:00,26.259242,78.216432,OZONE,1,214,5
India,Madhya Pradesh,Gwalior,"Maharaj Bada, Gwalior - MPPCB",11-11-2025 07:00:00,26.200388,78.147714,PM2.5,75,387,234
India,Madhya Pradesh,Gwalior,"Maharaj Bada, Gwalior - MPPCB",11-11-2025 07:00:00,26.200388,78.147714,SO2,5,12,9
India,Madhya Pradesh,Indore,"Airport Area, Indore - IMC",11-11-2025 07:00:00,22.7289,75.8076,PM10,38,312,103
India,Madhya Pradesh,Indore,"Airport Area, Indore - IMC",11-11-2025 07:00:00,22.7289,75.8076,SO2,20,21,20
India,Madhya Pradesh,Indore,"Chhoti Gwaltoli, Indore - MPPCB",11-11-2025 07:00:00,22.4310,75.5213,PM10,53,230,131
India,Madhya Pradesh,Mandideep,"Sector-D Industrial Area, Mandideep - MPPCB",11-11-2025 07:00:00,23.108440,77.511428,NH3,1,6,3
India,Madhya Pradesh,Mandideep,"Sector-D Industrial Area, Mandideep - MPPCB",11-11-2025 07:00:00,23.108440,77.511428,SO2,22,122,65
India,Madhya Pradesh,Mandideep,"Sector-D Industrial Area, Mandideep - MPPCB",11-11-2025 07:00:00,23.108440,77.511428,CO,10,114,109
India,Madhya Pradesh,Pithampur,"Sector-2 Industrial Area, Pithampur - MPPCB",11-11-2025 07:00:00,22.624758,75.675238,PM2.5,64,334,164
India,Madhya Pradesh,Ratlam,"Shasthri Nagar, Ratlam - IPCA Lab",11-11-2025 07:00:00,23.331731,75.045981,NO2,35,36,36
India,Madhya Pradesh,Satna,"Bandhavgar Colony, Satna - Birla Cement",11-11-2025 07:00:00,24.58434363,80.8549414,NO2,29,47,34
India,Madhya Pradesh,Singrauli,"Suryakiran Bhawan NCL, Singrauli - MPPCB",11-11-2025 07:00:00,24.108970,82.645580,NH3,7,7,7
India,Maharashtra,Akola,"Ramdaspeth, Akola - MPCB",11-11-2025 07:00:00,20.719516,77.000253,PM10,43,168,84
India,Maharashtra,Akola,"Ramdaspeth, Akola - MPCB",11-11-2025 07:00:00,20.719516,77.000253,CO,8,132,17
India,Maharashtra,Amravati,"Shivneri Colony, Amravati - MPCB",11-11-2025 07:00:00,20.9402359,77.7895248,PM10,86,464,164
India,Maharashtra,Amravati,"Shivneri Colony, Amravati - MPCB",11-11-2025 07:00:00,20.9402359,77.7895248,NO2,9,47,22
India,Maharashtra,Amravati,"Shri Shivaji Science College, Amravati - MPCB",11-11-2025 07:00:00,20.939198,77.765701,PM10,92,410,170
India,Maharashtra,Chandrapur,"MIDC Khutala, Chandrapur - MPCB",11-11-2025 07:00:00,19.9775302,79.2337086,SO2,8,9,9
India,Maharashtra,Dhule,"Deopur, Dhule - MPCB",11-11-2025 07:00:00,20.918946,74.776388,PM2.5,38,204,88
India,Maharashtra,Dhule,"Deopur, Dhule - MPCB",11-11-2025 07:00:00,20.918946,74.776388,OZONE,17,54,34
India,Maharashtra,Jalgaon,"Prabhat Colony, Jalgaon - MPCB",11-11-2025 07:00:00,21.001264,75.565602,NH3,2,3,3
India,Maharashtra,Jalgaon,"Prabhat Colony, Jalgaon - MPCB",11-11-2025 07:00:00,21.001264,75.565602,CO,20,53,30
India,Maharashtra,Jalna,"Old MIDC, Jalna - MPCB",11-11-2025 07:00:00,19.854616,75.905894,PM2.5,47,220,93
India,Madhya Pradesh,Jabalpur,"Gupteshwar, Jabalpur - JMC",11-11-2025 07:00:00,23.142888,79.916147,CO,38,118,56
India,Madhya Pradesh,Jabalpur,"Marhatal, Jabalpur - MPPCB",11-11-2025 07:00:00,23.168606,79.932247,PM2.5,91,342,192
India,Madhya Pradesh,Katni,"Gole Bazar, Katni - MPPCB",11-11-2025 07:00:00,23.50016,80.23284,SO2,30,133,68
India,Madhya Pradesh,Katni,"Gole Bazar, Katni - MPPCB",11-11-2025 07:00:00,23.50016,80.23284,OZONE,11,126,13
India,Madhya Pradesh,Mandideep,"Sector-D Industrial Area, Mandideep - MPPCB",11-11-2025 07:00:00,23.108440,77.511428,PM2.5,58,394,269
India,Maharashtra,Bhiwandi,"Gokul Nagar, Bhiwandi - MPCB",11-11-2025 07:00:00,19.309073,73.057223,CO,NA,NA,NA
India,Maharashtra,Boisar,"Khaira, Boisar - MPCB",11-11-2025 07:00:00,19.786089,72.757971,CO,10,90,26
India,Maharashtra,Chandrapur,"Chauhan Colony, Chandrapur - MPCB",11-11-2025 07:00:00,19.962900,79.298714,PM10,97,218,151
India,Maharashtra,Chandrapur,"Chauhan Colony, Chandrapur - MPCB",11-11-2025 07:00:00,19.962900,79.298714,OZONE,19,20,20
India,Maharashtra,Chandrapur,"MIDC Khutala, Chandrapur - MPCB",11-11-2025 07:00:00,19.9775302,79.2337086,PM2.5,61,302,163
India,Maharashtra,Kalyan,"Khadakpada, Kalyan - MPCB",11-11-2025 07:00:00,19.25292,73.142019,PM10,49,135,85
India,Maharashtra,Kalyan,"Khadakpada, Kalyan - MPCB",11-11-2025 07:00:00,19.25292,73.142019,NH3,1,1,1
India,Maharashtra,Kalyan,"Khadakpada, Kalyan - MPCB",11-11-2025 07:00:00,19.25292,73.142019,OZONE,8,9,9
India,Maharashtra,Kolhapur,"Shivaji University, Kolhapur - MPCB",11-11-2025 07:00:00,16.6870449,74.2505872,NH3,3,4,3
India,Maharashtra,Latur,"Sawe Wadi, Latur - MPCB",11-11-2025 07:00:00,18.39963,76.57452,NH3,5,11,7
India,Maharashtra,Aurangabad,"MIDC Chilkalthana, Aurangabad - MPCB",11-11-2025 07:00:00,19.875620,75.387310,PM10,66,167,112
India,Maharashtra,Aurangabad,"Rachnakar Colony, Aurangabad - MPCB",11-11-2025 07:00:00,19.863756,75.321188,PM2.5,NA,NA,NA
India,Maharashtra,Aurangabad,"Rachnakar Colony, Aurangabad - MPCB",11-11-2025 07:00:00,19.863756,75.321188,NO2,NA,NA,NA
India,Maharashtra,Mumbai,"Borivali East, Mumbai - IITM",11-11-2025 07:00:00,19.23241,72.86895,PM2.5,65,99,80
India,Maharashtra,Mumbai,"Borivali East, Mumbai - IITM",11-11-2025 07:00:00,19.23241,72.86895,CO,39,90,66
India,Maharashtra,Mumbai,"Byculla, Mumbai - BMC",11-11-2025 07:00:00,18.9767,72.8380,PM2.5,41,89,61
India,Maharashtra,Mumbai,"Chakala-Andheri East, Mumbai - IITM",11-11-2025 07:00:00,19.11074,72.86084,PM2.5,57,177,96
India,Maharashtra,Mumbai,"Chakala-Andheri East, Mumbai - IITM",11-11-2025 07:00:00,19.11074,72.86084,SO2,1,32,11
India,Maharashtra,Mumbai,"Chembur, Mumbai - MPCB",11-11-2025 07:00:00,19.0364585,72.8954371,NO2,14,98,50
India,Maharashtra,Mumbai,"Chembur, Mumbai - MPCB",11-11-2025 07:00:00,19.0364585,72.8954371,CO,21,64,48
India,Maharashtra,Mumbai,"Chembur, Mumbai - MPCB",11-11-2025 07:00:00,19.0364585,72.8954371,OZONE,1,117,1
India,Maharashtra,Mumbai,"Chhatrapati Shivaji Intl. Airport (T2), Mumbai - MPCB",11-11-2025 07:00:00,19.10078,72.87462,PM2.5,42,159,81
India,Maharashtra,Nashik,"Hirawadi, Nashik - MPCB",11-11-2025 07:00:00,20.021503,73.813844,PM10,85,190,131
India,Maharashtra,Nashik,"Hirawadi, Nashik - MPCB",11-11-2025 07:00:00,20.021503,73.813844,NH3,1,17,4
India,Maharashtra,Nashik,"Hirawadi, Nashik - MPCB",11-11-2025 07:00:00,20.021503,73.813844,OZONE,6,71,19
India,Maharashtra,Nashik,"MIDC Ambad, Nashik - MPCB",11-11-2025 07:00:00,19.950220,73.731480,NO2,14,109,46
India,Maharashtra,Nashik,"MIDC Ambad, Nashik - MPCB",11-11-2025 07:00:00,19.950220,73.731480,OZONE,5,110,38
India,Maharashtra,Nashik,"Pandav Nagari, Nashik - MPCB",11-11-2025 07:00:00,19.9591346,73.7788008,NO2,NA,NA,NA
India,Maharashtra,Nashik,"Pandav Nagari, Nashik - MPCB",11-11-2025 07:00:00,19.9591346,73.7788008,SO2,NA,NA,NA
India,Maharashtra,Navi Mumbai,"Kopripada-Vashi, Navi Mumbai - MPCB",11-11-2025 07:00:00,19.090337,73.014232,PM10,45,192,105
India,Maharashtra,Navi Mumbai,"Kopripada-Vashi, Navi Mumbai - MPCB",11-11-2025 07:00:00,19.090337,73.014232,NO2,11,60,31
India,Maharashtra,Nagpur,"Mahal, Nagpur - MPCB",11-11-2025 07:00:00,21.14472,79.107595,SO2,20,116,55
India,Maharashtra,Nagpur,"Opp GPO Civil Lines, Nagpur - MPCB",11-11-2025 07:00:00,21.152875,79.0517531,OZONE,2,69,6
India,Maharashtra,Nagpur,"Ram Nagar, Nagpur - MPCB",11-11-2025 07:00:00,21.143383,79.048912,PM10,84,177,117
India,Maharashtra,Nagpur,"Ram Nagar, Nagpur - MPCB",11-11-2025 07:00:00,21.143383,79.048912,NH3,1,17,4
India,Maharashtra,Nagpur,"Ram Nagar, Nagpur - MPCB",11-11-2025 07:00:00,21.143383,79.048912,CO,16,106,40
India,Maharashtra,Nanded,"Sneh Nagar, Nanded - MPCB",11-11-2025 07:00:00,19.173852,77.296291,NH3,3,5,4
India,Maharashtra,Nanded,"Sneh Nagar, Nanded - MPCB",11-11-2025 07:00:00,19.173852,77.296291,CO,17,26,22
India,Maharashtra,Nanded,"Sneh Nagar, Nanded - MPCB",11-11-2025 07:00:00,19.173852,77.296291,OZONE,19,183,41
India,Maharashtra,Mumbai,"Vasai West, Mumbai - MPCB",11-11-2025 07:00:00,19.383200,72.820400,NO2,17,25,22
India,Maharashtra,Mumbai,"Vile Parle West, Mumbai - MPCB",11-11-2025 07:00:00,19.10861,72.83622,NO2,6,30,25
India,Maharashtra,Mumbai,"Worli, Mumbai - MPCB",11-11-2025 07:00:00,18.9936162,72.8128113,SO2,NA,NA,NA
India,Maharashtra,Nagpur,"Ambazari, Nagpur - MPCB",11-11-2025 07:00:00,21.121801,79.04952,NH3,2,25,7
India,Maharashtra,Nagpur,"Ambazari, Nagpur - MPCB",11-11-2025 07:00:00,21.121801,79.04952,OZONE,1,95,25
India,Maharashtra,Nagpur,"Mahal, Nagpur - MPCB",11-11-2025 07:00:00,21.14472,79.107595,PM2.5,71,210,153
India,Maharashtra,Latur,"Sawe Wadi, Latur - MPCB",11-11-2025 07:00:00,18.39963,76.57452,CO,5,29,20
India,Maharashtra,Mumbai,"Bandra Kurla Complex, Mumbai - IITM",11-11-2025 07:00:00,19.053536,72.84643,PM2.5,66,317,167
India,Maharashtra,Mumbai,"Bandra Kurla Complex, Mumbai - IITM",11-11-2025 07:00:00,19.053536,72.84643,PM10,112,285,194
India,Maharashtra,Mumbai,"Bandra Kurla Complex, Mumbai - IITM",11-11-2025 07:00:00,19.053536,72.84643,NH3,14,85,40
India,Maharashtra,Mumbai,"Bandra Kurla Complex, Mumbai - IITM",11-11-2025 07:00:00,19.053536,72.84643,CO,5,70,27
India,Maharashtra,Mumbai,"Bandra Kurla Complex, Mumbai - MPCB",11-11-2025 07:00:00,19.065931,72.862131,PM10,80,220,145
India,Maharashtra,Mumbai,"Chhatrapati Shivaji Intl. Airport (T2), Mumbai - MPCB",11-11-2025 07:00:00,19.10078,72.87462,OZONE,7,8,7
India,Maharashtra,Mumbai,"Colaba, Mumbai - MPCB",11-11-2025 07:00:00,18.910000,72.820000,PM2.5,13,102,40
India,Maharashtra,Mumbai,"Colaba, Mumbai - MPCB",11-11-2025 07:00:00,18.910000,72.820000,CO,26,30,28
India,Maharashtra,Mumbai,"Ghatkopar, Mumbai - BMC",11-11-2025 07:00:00,19.083694,72.920967,NH3,2,15,9
India,Maharashtra,Mumbai,"Ghatkopar, Mumbai - BMC",11-11-2025 07:00:00,19.083694,72.920967,OZONE,3,149,4
India,Maharashtra,Mumbai,"Kherwadi_Bandra East, Mumbai - MPCB",11-11-2025 07:00:00,19.0632143,72.8456324,PM10,69,163,125
India,Maharashtra,Mumbai,"Kherwadi_Bandra East, Mumbai - MPCB",11-11-2025 07:00:00,19.0632143,72.8456324,SO2,3,4,3
India,Maharashtra,Mumbai,"Khindipada-Bhandup West, Mumbai - IITM",11-11-2025 07:00:00,19.1653323,72.922099,PM10,77,158,107
India,Maharashtra,Mumbai,"Khindipada-Bhandup West, Mumbai - IITM",11-11-2025 07:00:00,19.1653323,72.922099,OZONE,2,102,12
India,Maharashtra,Mumbai,"Kurla, Mumbai - MPCB",11-11-2025 07:00:00,19.0863,72.8888,PM10,79,140,109
India,Maharashtra,Mumbai,"Mindspace-Malad West, Mumbai - MPCB",11-11-2025 07:00:00,19.1878657,72.8304069,NH3,7,40,19
India,Maharashtra,Mumbai,"Mindspace-Malad West, Mumbai - MPCB",11-11-2025 07:00:00,19.1878657,72.8304069,SO2,14,16,15
India,Maharashtra,Mumbai,"Mulund West, Mumbai - MPCB",11-11-2025 07:00:00,19.1750,72.9419,PM10,NA,NA,NA
India,Maharashtra,Mumbai,"Navy Nagar-Colaba, Mumbai - IITM",11-11-2025 07:00:00,18.897756,72.813320,PM10,51,305,120
India,Maharashtra,Mumbai,"Sewri, Mumbai - BMC",11-11-2025 07:00:00,19.000084,72.856730,PM2.5,1,69,21
India,Maharashtra,Mumbai,"Sewri, Mumbai - BMC",11-11-2025 07:00:00,19.000084,72.856730,NH3,4,25,16
India,Maharashtra,Pune,"Savitribai Phule Pune University, Pune - MPCB",11-11-2025 07:00:00,18.547056,73.826908,NH3,1,7,4
India,Maharashtra,Pune,"Savitribai Phule Pune University, Pune - MPCB",11-11-2025 07:00:00,18.547056,73.826908,OZONE,2,40,3
India,Maharashtra,Pune,"Transport Nagar-Nigdi, Pune - IITM",11-11-2025 07:00:00,18.664282,73.763966,PM10,78,110,97
India,Maharashtra,Sangli,"Vijay Nagar, Sangli - MPCB",11-11-2025 07:00:00, 16.5038,74.3623,PM2.5,85,313,177
India,Maharashtra,Sangli,"Vijay Nagar, Sangli - MPCB",11-11-2025 07:00:00, 16.5038,74.3623,SO2,1,7,4
India,Maharashtra,Sangli,"Vijay Nagar, Sangli - MPCB",11-11-2025 07:00:00, 16.5038,74.3623,OZONE,4,67,13
India,Maharashtra,Solapur,"Dnyaneshwar Nagar, Solapur - MPCB",11-11-2025 07:00:00,17.6336264,75.9132495,NO2,9,83,35
India,Maharashtra,Solapur,"Ratandeep Housing Society, Solapur - MPCB",11-11-2025 07:00:00,17.65439,75.90649,PM2.5,75,202,130
India,Maharashtra,Pimpri-Chinchwad,"Thergaon, Pimpri Chinchwad - MPCB",11-11-2025 07:00:00,18.616318,73.765797,CO,23,62,42
India,Maharashtra,Pune,"Bhumkar Nagar, Pune - IITM",11-11-2025 07:00:00,18.605770,73.749976,PM2.5,54,195,101
India,Maharashtra,Pune,"Hadapsar, Pune - IITM",11-11-2025 07:00:00,18.501793,73.927532,OZONE,10,100,16
India,Maharashtra,Pune,"Katraj Dairy, Pune - MPCB",11-11-2025 07:00:00,18.454450,73.854155,NO2,26,76,44
India,Maharashtra,Pune,"Katraj Dairy, Pune - MPCB",11-11-2025 07:00:00,18.454450,73.854155,CO,22,102,102
India,Maharashtra,Pune,"Panchawati_Pashan, Pune - IITM",11-11-2025 07:00:00,18.536457,73.805454,PM2.5,23,74,48
India,Maharashtra,Pune,"Panchawati_Pashan, Pune - IITM",11-11-2025 07:00:00,18.536457,73.805454,CO,NA,NA,NA
India,Maharashtra,Navi Mumbai,"Tondare-Taloja, Navi Mumbai - MPCB",11-11-2025 07:00:00,19.0630,73.1209,CO,29,30,30
India,Maharashtra,Pimpri-Chinchwad,"Park Street Wakad, Pimpri Chinchwad - MPCB",11-11-2025 07:00:00,18.59051,73.77946,PM2.5,55,135,89
India,Maharashtra,Pimpri-Chinchwad,"Park Street Wakad, Pimpri Chinchwad - MPCB",11-11-2025 07:00:00,18.59051,73.77946,NO2,33,86,47
India,Maharashtra,Pimpri-Chinchwad,"Park Street Wakad, Pimpri Chinchwad - MPCB",11-11-2025 07:00:00,18.59051,73.77946,NH3,2,3,2
India,Maharashtra,Pimpri-Chinchwad,"Park Street Wakad, Pimpri Chinchwad - MPCB",11-11-2025 07:00:00,18.59051,73.77946,OZONE,5,167,16
India,Maharashtra,Pimpri-Chinchwad,"Savta Mali Nagar, Pimpri-Chinchwad - IITM",11-11-2025 07:00:00,18.614767,73.799516,CO,25,78,63
India,Meghalaya,Shillong,"JN Stadium, Shillong - Meghalaya PCB",11-11-2025 07:00:00,25.5803419,91.8942571,NH3,12,22,18
India,Meghalaya,Shillong,"Lumpyngngad, Shillong - Meghalaya PCB",11-11-2025 07:00:00,25.5586,91.8985,NO2,NA,NA,NA
India,Meghalaya,Shillong,"Lumpyngngad, Shillong - Meghalaya PCB",11-11-2025 07:00:00,25.5586,91.8985,SO2,5,6,5
India,Nagaland,Kohima,"PWD Junction, Kohima - NPCB",11-11-2025 07:00:00,25.6635413,94.0989878,PM2.5,1,211,88
India,Odisha,Angul,"Hakimapada, Angul - OSPCB",11-11-2025 07:00:00,20.832874,85.104082,SO2,8,38,19
India,Odisha,Barbil,"Forest Office, Barbil - OSPCB",11-11-2025 07:00:00,22.1166054,85.3945546,PM2.5,83,313,156
India,Odisha,Barbil,"Forest Office, Barbil - OSPCB",11-11-2025 07:00:00,22.1166054,85.3945546,PM10,80,189,114
India,Odisha,Baripada,"Meher Colony, Baripada - OSPCB",11-11-2025 07:00:00,21.941841,86.728318,OZONE,15,96,42
India,Odisha,Bhubaneswar,"Lingraj Mandir, Bhubaneswar - OSPCB",11-11-2025 07:00:00,20.240790,85.836784,CO,22,107,54
India,Maharashtra,Solapur,"Ratandeep Housing Society, Solapur - MPCB",11-11-2025 07:00:00,17.65439,75.90649,NH3,2,38,10
India,Maharashtra,Solapur,"Ratandeep Housing Society, Solapur - MPCB",11-11-2025 07:00:00,17.65439,75.90649,OZONE,1,106,35
India,Maharashtra,Thane,"Kasarvadavali, Thane - MPCB",11-11-2025 07:00:00,19.26777,72.97182,SO2,4,9,6
India,Maharashtra,Thane,"Upvan Fort, Thane - MPCB",11-11-2025 07:00:00,19.222279,72.957979,PM10,48,97,73
India,Maharashtra,Navi Mumbai,"Kopripada-Vashi, Navi Mumbai - MPCB",11-11-2025 07:00:00,19.090337,73.014232,OZONE,1,59,4
India,Maharashtra,Navi Mumbai,"Mahape, Navi Mumbai - MPCB",11-11-2025 07:00:00,19.1135051,73.008978,OZONE,7,13,10
India,Maharashtra,Navi Mumbai,"Sector-2E Kalamboli, Navi Mumbai - MPCB",11-11-2025 07:00:00,19.02579,73.10297,SO2,2,9,4
India,Maharashtra,Navi Mumbai,"Sector-2E Kalamboli, Navi Mumbai - MPCB",11-11-2025 07:00:00,19.02579,73.10297,OZONE,NA,NA,NA
India,Maharashtra,Ulhasnagar,"Sidhi Vinayak Nagar, Ulhasnagar - MPCB",11-11-2025 07:00:00,19.235581,73.159121,SO2,8,21,14
India,Maharashtra,Ulhasnagar,"Sidhi Vinayak Nagar, Ulhasnagar - MPCB",11-11-2025 07:00:00,19.235581,73.159121,CO,18,47,40
India,Odisha,Brajrajnagar,"GM Office, Brajrajnagar - OSPCB",11-11-2025 07:00:00,21.8004996,83.8396977,NO2,11,121,68
India,Odisha,Brajrajnagar,"GM Office, Brajrajnagar - OSPCB",11-11-2025 07:00:00,21.8004996,83.8396977,OZONE,27,29,28
India,Odisha,Rourkela,"Raghunathpali, Rourkela - OSPCB",11-11-2025 07:00:00,22.220833,84.809444,OZONE,7,138,11
India,Odisha,Suakati,"OMC Colony, Suakati - OSPCB",11-11-2025 07:00:00,21.606865,85.510538,PM2.5,NA,NA,NA
India,Odisha,Suakati,"OMC Colony, Suakati - OSPCB",11-11-2025 07:00:00,21.606865,85.510538,PM10,NA,NA,NA
India,Odisha,Suakati,"OMC Colony, Suakati - OSPCB",11-11-2025 07:00:00,21.606865,85.510538,CO,NA,NA,NA
India,Odisha,Talcher,"Talcher Coalfields,Talcher - OSPCB",11-11-2025 07:00:00,20.9360711,85.1707021,NH3,4,7,6
India,Odisha,Talcher,"Talcher Coalfields,Talcher - OSPCB",11-11-2025 07:00:00,20.9360711,85.1707021,CO,89,111,101
India,Odisha,Tensa,"Barsua Iron Ore Mines, Tensa - OSPCB",11-11-2025 07:00:00,21.869985,85.167016,CO,34,42,40
India,Puducherry,Puducherry,"Jawahar Nagar, Puducherry - PPCC",11-11-2025 07:00:00,11.9309,79.8027,PM10,71,143,106
India,Puducherry,Puducherry,"Jawahar Nagar, Puducherry - PPCC",11-11-2025 07:00:00,11.9309,79.8027,SO2,2,11,7
India,Puducherry,Puducherry,"Jawahar Nagar, Puducherry - PPCC",11-11-2025 07:00:00,11.9309,79.8027,CO,26,39,28
India,Puducherry,Puducherry,"Jawahar Nagar, Puducherry - PPCC",11-11-2025 07:00:00,11.9309,79.8027,OZONE,24,88,36
India,Odisha,Cuttack,"CDA Area, Cuttack - OSPCB",11-11-2025 07:00:00,20.48891     ,85.84768     ,NO2,18,130,51
India,Odisha,Cuttack,"CDA Area, Cuttack - OSPCB",11-11-2025 07:00:00,20.48891     ,85.84768     ,NH3,2,4,3
India,Odisha,Keonjhar,"Jagamohanpur, Keonjhar - OSPCB",11-11-2025 07:00:00,21.643900,85.599355,CO,2,109,63
India,Odisha,Nayagarh,"Dabuna, Nayagarh - OSPCB",11-11-2025 07:00:00,21.847279,85.416905,OZONE,12,20,12
India,Odisha,Rairangpur,"Divisional Forest Office, Rairangpur - OSPCB",11-11-2025 07:00:00,22.265816,86.174829,NO2,8,8,8
India,Odisha,Rourkela,"Raghunathpali, Rourkela - OSPCB",11-11-2025 07:00:00,22.220833,84.809444,PM2.5,79,230,156
India,Odisha,Rourkela,"Raghunathpali, Rourkela - OSPCB",11-11-2025 07:00:00,22.220833,84.809444,PM10,72,210,118
India,Rajasthan,Alwar,"Moti Doongri, Alwar - RSPCB",11-11-2025 07:00:00,27.554793,76.611536,OZONE,13,44,16
India,Rajasthan,Banswara,"Rati Talai, Banswara - RSPCB",11-11-2025 07:00:00,23.555190,74.440010,NH3,2,4,3
India,Rajasthan,Banswara,"Rati Talai, Banswara - RSPCB",11-11-2025 07:00:00,23.555190,74.440010,OZONE,2,142,53
India,Rajasthan,Baran,"Bamboliya, Baran - RSPCB",11-11-2025 07:00:00,25.106006,76.469948,NO2,10,69,30
India,Rajasthan,Barmer,"Railway Colony, Barmer - RSPCB",11-11-2025 07:00:00,25.747299,71.393989,PM2.5,26,103,47
India,Rajasthan,Barmer,"Railway Colony, Barmer - RSPCB",11-11-2025 07:00:00,25.747299,71.393989,SO2,6,11,9
India,Rajasthan,Barmer,"Railway Colony, Barmer - RSPCB",11-11-2025 07:00:00,25.747299,71.393989,CO,4,68,13
India,Rajasthan,Bharatpur,"Krishna Nagar, Bharatpur - RSPCB",11-11-2025 07:00:00,27.215415,77.50873,NO2,21,280,75
India,Rajasthan,Bhilwara,"Pratap Nagar, Bhilwara - RSPCB",11-11-2025 07:00:00,25.339605,74.618883,PM2.5,53,290,134
India,Rajasthan,Bhilwara,"Pratap Nagar, Bhilwara - RSPCB",11-11-2025 07:00:00,25.339605,74.618883,CO,16,100,49
India,Rajasthan,Bhiwadi,"Vasundhara Nagar_UIT, Bhiwadi - RSPCB",11-11-2025 07:00:00,28.207266,76.829265,PM2.5,293,462,378
India,Rajasthan,Bhiwadi,"Vasundhara Nagar_UIT, Bhiwadi - RSPCB",11-11-2025 07:00:00,28.207266,76.829265,SO2,4,28,12
India,Rajasthan,Bhiwadi,"Vasundhara Nagar_UIT, Bhiwadi - RSPCB",11-11-2025 07:00:00,28.207266,76.829265,OZONE,2,185,3
India,Rajasthan,Bikaner,"MM Ground, Bikaner - RSPCB",11-11-2025 07:00:00,28.018792,73.292658,NH3,1,20,12
India,Rajasthan,Bikaner,"MM Ground, Bikaner - RSPCB",11-11-2025 07:00:00,28.018792,73.292658,OZONE,1,113,40
India,Rajasthan,Bundi,"New Colony, Bundi - RSPCB",11-11-2025 07:00:00,25.435774,75.644272,SO2,7,16,10
India,Rajasthan,Chittorgarh,"Shastri Nagar, Chittorgarh - RSPCB",11-11-2025 07:00:00,24.892047,74.623527,NO2,6,96,46
India,Rajasthan,Chittorgarh,"Shastri Nagar, Chittorgarh - RSPCB",11-11-2025 07:00:00,24.892047,74.623527,SO2,1,7,2
India,Rajasthan,Churu,"Subash Chowk, Churu - RSPCB",11-11-2025 07:00:00,28.296139,74.961696,CO,5,114,27
India,Punjab,Amritsar,"Golden Temple, Amritsar - PPCB",11-11-2025 07:00:00,31.620000,74.876512,NO2,5,30,11
India,Punjab,Amritsar,"Golden Temple, Amritsar - PPCB",11-11-2025 07:00:00,31.620000,74.876512,CO,21,50,41
India,Punjab,Bathinda,"Hardev Nagar, Bathinda - PPCB",11-11-2025 07:00:00,30.233011,74.907758,PM2.5,43,246,132
India,Punjab,Khanna,"Kalal Majra, Khanna - PPCB",11-11-2025 07:00:00,30.736056 ,76.209694,NH3,7,7,7
India,Punjab,Ludhiana,"Punjab Agricultural University, Ludhiana - PPCB",11-11-2025 07:00:00,30.9028,75.8086,SO2,11,26,18
India,Rajasthan,Ajmer,"Civil Lines,  Ajmer - RSPCB",11-11-2025 07:00:00,26.470859,74.646594,NH3,2,4,3
India,Rajasthan,Ajmer,"Civil Lines,  Ajmer - RSPCB",11-11-2025 07:00:00,26.470859,74.646594,SO2,6,28,19
India,Rajasthan,Ajmer,"Civil Lines,  Ajmer - RSPCB",11-11-2025 07:00:00,26.470859,74.646594,CO,6,33,11
India,Rajasthan,Alwar,"Moti Doongri, Alwar - RSPCB",11-11-2025 07:00:00,27.554793,76.611536,PM2.5,79,171,114
India,Rajasthan,Dausa,"Khatikan Mohalla, Dausa - RSPCB",11-11-2025 07:00:00,26.895552,76.334753,SO2,1,16,8
India,Rajasthan,Dholpur,"Raja Ganj, Dholpur - RSPCB",11-11-2025 07:00:00,26.699557,77.898881,NO2,NA,NA,NA
India,Rajasthan,Hanumangarh,"Housing Board, Hanumangarh - RSPCB",11-11-2025 07:00:00,29.610750,74.283608,SO2,5,16,10
India,Odisha,Byasanagar,"Ferro Chrome Colony, Byasanagar - OSPCB",11-11-2025 07:00:00,20.94185,86.11510,OZONE,11,205,43
India,Rajasthan,Sikar,"Radhakishan Pura, Sikar - RSPCB",11-11-2025 07:00:00,27.608912,75.153302,PM2.5,63,364,216
India,Rajasthan,Sikar,"Radhakishan Pura, Sikar - RSPCB",11-11-2025 07:00:00,27.608912,75.153302,CO,10,121,53
India,Rajasthan,Sirohi,"Vedhaynath Colony, Sirohi - RSPCB",11-11-2025 07:00:00,24.885261,72.857549,NO2,6,113,49
India,Rajasthan,Sirohi,"Vedhaynath Colony, Sirohi - RSPCB",11-11-2025 07:00:00,24.885261,72.857549,NH3,1,4,2
India,Rajasthan,Sirohi,"Vedhaynath Colony, Sirohi - RSPCB",11-11-2025 07:00:00,24.885261,72.857549,CO,20,60,30
India,Rajasthan,Sri Ganganagar,"Old City, Sri Ganganagar - RSPCB",11-11-2025 07:00:00,29.931624,73.864511,PM2.5,54,345,150
India,Rajasthan,Sri Ganganagar,"Old City, Sri Ganganagar - RSPCB",11-11-2025 07:00:00,29.931624,73.864511,NH3,6,87,30
India,Rajasthan,Sri Ganganagar,"Old City, Sri Ganganagar - RSPCB",11-11-2025 07:00:00,29.931624,73.864511,CO,69,151,110
India,Rajasthan,Sri Ganganagar,"Old City, Sri Ganganagar - RSPCB",11-11-2025 07:00:00,29.931624,73.864511,OZONE,2,80,5
India,Rajasthan,Tonk,"Shastri Nagar, Tonk - RSPCB",11-11-2025 07:00:00,26.159933,75.780517,CO,12,67,18
India,Rajasthan,Jodhpur,"Digari Kalan, Jodhpur - RSPCB",11-11-2025 07:00:00,26.295810,73.082283,NO2,11,79,47
India,Rajasthan,Jodhpur,"Digari Kalan, Jodhpur - RSPCB",11-11-2025 07:00:00,26.295810,73.082283,OZONE,1,110,3
India,Rajasthan,Jodhpur,"Jhalamand, Jodhpur - RSPCB",11-11-2025 07:00:00,26.215415,73.070156,SO2,2,6,4
India,Rajasthan,Jodhpur,"Mandor, Jodhpur - RSPCB",11-11-2025 07:00:00,26.358805,73.047444,SO2,2,10,5
India,Rajasthan,Jodhpur,"Samrat Ashok Udhyan, Jodhpur - RSPCB",11-11-2025 07:00:00,26.253384,72.976571,PM10,76,441,213
India,Rajasthan,Karauli,"Satyawati Vihar, Karauli - RSPCB",11-11-2025 07:00:00,26.506177,77.025989,PM2.5,57,316,158
India,Rajasthan,Karauli,"Satyawati Vihar, Karauli - RSPCB",11-11-2025 07:00:00,26.506177,77.025989,PM10,87,319,167
India,Rajasthan,Karauli,"Satyawati Vihar, Karauli - RSPCB",11-11-2025 07:00:00,26.506177,77.025989,NO2,13,110,37
India,Rajasthan,Jaipur,"Adarsh Nagar, Jaipur - RSPCB",11-11-2025 07:00:00,26.902909,75.836858,CO,36,110,60
India,Rajasthan,Jaipur,"Mansarovar Sector-12, Jaipur - RSPCB",11-11-2025 07:00:00,26.843698,75.766894,PM2.5,30,341,187
India,Rajasthan,Jaipur,"Mansarovar Sector-12, Jaipur - RSPCB",11-11-2025 07:00:00,26.843698,75.766894,PM10,108,384,223
India,Rajasthan,Jaipur,"Police Commissionerate, Jaipur - RSPCB",11-11-2025 07:00:00,26.9164092,75.7994901,SO2,7,10,8
India,Rajasthan,Jaipur,"RIICO Sitapura, Jaipur - RSPCB",11-11-2025 07:00:00,26.786682,75.827928,NO2,14,137,75
India,Rajasthan,Jaipur,"RIICO Sitapura, Jaipur - RSPCB",11-11-2025 07:00:00,26.786682,75.827928,NH3,3,22,12
India,Rajasthan,Jaipur,"RIICO Sitapura, Jaipur - RSPCB",11-11-2025 07:00:00,26.786682,75.827928,CO,16,141,73
India,Rajasthan,Karauli,"Satyawati Vihar, Karauli - RSPCB",11-11-2025 07:00:00,26.506177,77.025989,NH3,5,12,10
India,Rajasthan,Kota,"Dhanmandi, Kota - RSPCB",11-11-2025 07:00:00,25.164090,75.858137,SO2,1,73,17
India,Rajasthan,Kota,"Nayapura, Kota - RSPCB",11-11-2025 07:00:00,25.196024,75.855668,NO2,17,115,62
India,Rajasthan,Kota,"Shrinath Puram, Kota - RSPCB",11-11-2025 07:00:00,25.14389,75.821256,NO2,16,17,17
India,Rajasthan,Nagaur,"Karni Colony, Nagaur - RSPCB",11-11-2025 07:00:00,27.213494,73.734444,PM2.5,36,387,184
India,Rajasthan,Nagaur,"Karni Colony, Nagaur - RSPCB",11-11-2025 07:00:00,27.213494,73.734444,NO2,31,106,67
India,Rajasthan,Pali,"Indira Colony Vistar, Pali - RSPCB",11-11-2025 07:00:00,25.771061, 73.340227,NO2,31,68,42
India,Rajasthan,Pali,"Indira Colony Vistar, Pali - RSPCB",11-11-2025 07:00:00,25.771061, 73.340227,NH3,5,16,9
India,Rajasthan,Pali,"Indira Colony Vistar, Pali - RSPCB",11-11-2025 07:00:00,25.771061, 73.340227,SO2,10,16,13
India,Rajasthan,Rajsamand,"Dhoinda, Rajsamand - RSPCB",11-11-2025 07:00:00,25.036360,73.883502,NO2,10,69,26
India,Rajasthan,Sawai Madhopur,"Sahu Nagar, Sawai Madhopur - RSPCB",11-11-2025 07:00:00,26.031443,76.359327,PM10,68,280,150
India,Rajasthan,Sawai Madhopur,"Sahu Nagar, Sawai Madhopur - RSPCB",11-11-2025 07:00:00,26.031443,76.359327,NO2,16,38,22
India,Sikkim,Gangtok,"Zero Point GICI, Gangtok - SSPCB",11-11-2025 07:00:00,27.338530,88.614099,PM2.5,NA,NA,NA
India,Sikkim,Gangtok,"Zero Point GICI, Gangtok - SSPCB",11-11-2025 07:00:00,27.338530,88.614099,PM10,5,31,18
India,TamilNadu,Chengalpattu,"Crescent University, Chengalpattu - TNPCB",11-11-2025 07:00:00,12.8777316,80.0834807,NH3,1,1,1
India,TamilNadu,Chennai,"Alandur Bus Depot, Chennai - CPCB",11-11-2025 07:00:00,12.9099161,80.1076538,PM10,107,419,164
India,Rajasthan,Jhalawar,"Rajlaxmi Nagar, Jhalawar - RSPCB",11-11-2025 07:00:00,24.588397,76.172782,PM2.5,27,113,59
India,Rajasthan,Jhunjhunu,"Indra Nagar, Jhunjhunu - RSPCB",11-11-2025 07:00:00,28.108988,75.386577,SO2,3,11,7
India,Rajasthan,Jodhpur,"Collectorate, Jodhpur - RSPCB",11-11-2025 07:00:00,26.268249,73.0193853,NO2,6,19,11
India,Rajasthan,Jodhpur,"Collectorate, Jodhpur - RSPCB",11-11-2025 07:00:00,26.268249,73.0193853,SO2,2,16,10
India,Rajasthan,Jodhpur,"Collectorate, Jodhpur - RSPCB",11-11-2025 07:00:00,26.268249,73.0193853,CO,5,141,110
India,Rajasthan,Jaipur,"Shastri Nagar, Jaipur - RSPCB",11-11-2025 07:00:00,26.9502929,75.730943,CO,32,139,58
India,Rajasthan,Jaisalmer,"Sadar Bazar, Jaisalmer - RSPCB",11-11-2025 07:00:00,26.912329,70.909168,NH3,4,11,7
India,Rajasthan,Jaisalmer,"Sadar Bazar, Jaisalmer - RSPCB",11-11-2025 07:00:00,26.912329,70.909168,CO,9,72,28
India,Rajasthan,Jalore,"Mudtra Sili, Jalore - RSPCB",11-11-2025 07:00:00,25.344694,72.626208,PM2.5,46,328,126
India,Rajasthan,Jaipur,"Sector-2 Murlipura, Jaipur - RSPCB",11-11-2025 07:00:00,26.960669,75.771817,SO2,4,34,16
India,TamilNadu,Coimbatore,"SIDCO Kurichi, Coimbatore - TNPCB",11-11-2025 07:00:00,10.942451,76.978996,PM10,92,160,121
India,TamilNadu,Coimbatore,"SIDCO Kurichi, Coimbatore - TNPCB",11-11-2025 07:00:00,10.942451,76.978996,NO2,17,30,24
India,TamilNadu,Coimbatore,"SIDCO Kurichi, Coimbatore - TNPCB",11-11-2025 07:00:00,10.942451,76.978996,NH3,1,1,1
India,TamilNadu,Coimbatore,"SIDCO Kurichi, Coimbatore - TNPCB",11-11-2025 07:00:00,10.942451,76.978996,CO,36,48,42
India,TamilNadu,Cuddalore,"Kudikadu, Cuddalore - TNPCB",11-11-2025 07:00:00,11.6829898,79.7532099,SO2,NA,NA,NA
India,TamilNadu,Cuddalore,"Semmandalam, Cuddalore - TNPCB",11-11-2025 07:00:00,11.7637683,79.7499835,PM2.5,66,272,127
India,TamilNadu,Dindigul,"Mendonsa Colony, Dindigul - TNPCB",11-11-2025 07:00:00,10.358535,77.984321,PM10,133,275,191
India,TamilNadu,Dindigul,"Mendonsa Colony, Dindigul - TNPCB",11-11-2025 07:00:00,10.358535,77.984321,SO2,20,24,22
India,TamilNadu,Gummidipoondi,"Anthoni Pillai Nagar, Gummidipoondi - TNPCB",11-11-2025 07:00:00,13.4127,80.1081,PM10,54,196,124
India,TamilNadu,Gummidipoondi,"Anthoni Pillai Nagar, Gummidipoondi - TNPCB",11-11-2025 07:00:00,13.4127,80.1081,NH3,1,4,3
India,TamilNadu,Kanchipuram,"Kilambi, Kanchipuram - TNPCB",11-11-2025 07:00:00,12.864618,79.659968,PM2.5,12,78,25
India,TamilNadu,Kanchipuram,"Kilambi, Kanchipuram - TNPCB",11-11-2025 07:00:00,12.864618,79.659968,OZONE,8,9,8
India,TamilNadu,Karur,"Kamadenu Nagar, Karur - TNPCB",11-11-2025 07:00:00,10.967820,78.080882,NH3,3,4,3
India,TamilNadu,Karur,"Kamadenu Nagar, Karur - TNPCB",11-11-2025 07:00:00,10.967820,78.080882,OZONE,6,9,7
India,TamilNadu,Madurai,"Uchapatti, Madurai - TNPCB",11-11-2025 07:00:00,9.865935,78.022669,PM10,75,148,100
India,TamilNadu,Madurai,"Uchapatti, Madurai - TNPCB",11-11-2025 07:00:00,9.865935,78.022669,NH3,4,4,4
India,TamilNadu,Nagapattinam,"Velippalayam, Nagapattinam - TNPCB",11-11-2025 07:00:00,10.798548,79.838212,PM10,NA,NA,NA
India,TamilNadu,Chennai,"Perungudi, Chennai - TNPCB",11-11-2025 07:00:00,12.9533,80.2357,PM2.5,54,191,108
India,TamilNadu,Chennai,"Perungudi, Chennai - TNPCB",11-11-2025 07:00:00,12.9533,80.2357,PM10,52,500,116
India,TamilNadu,Chennai,"Perungudi, Chennai - TNPCB",11-11-2025 07:00:00,12.9533,80.2357,NH3,3,4,4
India,TamilNadu,Chennai,"Royapuram, Chennai - TNPCB",11-11-2025 07:00:00,13.1036,80.2909,PM2.5,NA,NA,NA
India,TamilNadu,Chennai,"Velachery Res. Area, Chennai - CPCB",11-11-2025 07:00:00,13.0052189,80.2398125,OZONE,6,10,7
India,TamilNadu,Coimbatore,"PSG College of Arts and Science, Coimbatore - TNPCB",11-11-2025 07:00:00,11.0328,77.0349,PM10,32,92,57
India,TamilNadu,Coimbatore,"PSG College of Arts and Science, Coimbatore - TNPCB",11-11-2025 07:00:00,11.0328,77.0349,SO2,1,2,1
India,TamilNadu,Tirunelveli,"Municipal Corporation Office, Tirunelveli - TNPCB",11-11-2025 07:00:00,8.728442,77.6962,SO2,16,20,19
India,TamilNadu,Tirunelveli,"Municipal Corporation Office, Tirunelveli - TNPCB",11-11-2025 07:00:00,8.728442,77.6962,CO,20,22,21
India,TamilNadu,Tirupur,"Kumaran College, Tirupur - TNPCB",11-11-2025 07:00:00,11.0973603,77.3228673,CO,20,27,22
India,TamilNadu,Vellore,"Vasanthapuram, Vellore - TNPCB",11-11-2025 07:00:00,12.909494,79.131861,PM2.5,75,160,118
India,TamilNadu,Vellore,"Vasanthapuram, Vellore - TNPCB",11-11-2025 07:00:00,12.909494,79.131861,CO,8,8,8
India,Telangana,Hyderabad,"Bollaram Industrial Area, Hyderabad - TSPCB",11-11-2025 07:00:00,17.540891,78.358528,SO2,5,32,10
India,TamilNadu,Nagapattinam,"Velippalayam, Nagapattinam - TNPCB",11-11-2025 07:00:00,10.798548,79.838212,OZONE,NA,NA,NA
India,TamilNadu,Namakkal,"Ponnusamy Nagar, Namakkal - TNPCB",11-11-2025 07:00:00,11.273992,78.163545,SO2,8,9,8
India,TamilNadu,Perundurai,"SIPCOT Industrial Park, Perundurai - TNPCB",11-11-2025 07:00:00,11.258242,77.552761,NO2,NA,NA,NA
India,TamilNadu,Pudukottai,"SIPCOT Nathampannai, Pudukottai - TNPCB",11-11-2025 07:00:00,10.423417,78.784889,NH3,2,3,3
India,TamilNadu,Ramanathapuram,"Chalai Bazaar, Ramanathapuram - TNPCB",11-11-2025 07:00:00,9.36399,78.831977,PM10,53,99,80
India,TamilNadu,Ramanathapuram,"Chalai Bazaar, Ramanathapuram - TNPCB",11-11-2025 07:00:00,9.36399,78.831977,NO2,10,14,11
India,TamilNadu,Thanjavur,"Parisutham Nagar, Thanjavur - TNPCB",11-11-2025 07:00:00,10.7654824,79.1389968,NO2,3,4,3
India,TamilNadu,Tiruchirappalli,"St Joseph College, Tiruchirappalli - TNPCB",11-11-2025 07:00:00,10.830158,78.691849,NO2,3,6,4
India,Telangana,Hyderabad,"Central University, Hyderabad - TSPCB",11-11-2025 07:00:00,17.460103,78.334361,NO2,28,94,56
India,Telangana,Hyderabad,"Central University, Hyderabad - TSPCB",11-11-2025 07:00:00,17.460103,78.334361,OZONE,4,21,18
India,Telangana,Hyderabad,"ECIL Kapra, Hyderabad - TSPCB",11-11-2025 07:00:00,17.470431,78.566959,PM10,57,72,64
India,Telangana,Hyderabad,"ECIL Kapra, Hyderabad - TSPCB",11-11-2025 07:00:00,17.470431,78.566959,NO2,16,16,16
India,Telangana,Hyderabad,"IDA Pashamylaram, Hyderabad - TSPCB",11-11-2025 07:00:00,17.5316895,78.218939,PM10,NA,NA,NA
India,Telangana,Hyderabad,"Kokapet, Hyderabad - TSPCB",11-11-2025 07:00:00,17.393559,78.339194,NO2,12,14,13
India,Telangana,Hyderabad,"Kokapet, Hyderabad - TSPCB",11-11-2025 07:00:00,17.393559,78.339194,OZONE,17,29,18
India,Telangana,Hyderabad,"Kompally Municipal Office, Hyderabad - TSPCB",11-11-2025 07:00:00,17.544899,78.486949,PM2.5,43,57,50
India,Telangana,Hyderabad,"Nacharam_TSIIC IALA, Hyderabad - TSPCB",11-11-2025 07:00:00,17.429398,78.569354,PM10,62,124,87
India,TamilNadu,Chennai,"Gandhi Nagar_Ennore, Chennai - TNPCB",11-11-2025 07:00:00,13.218341,80.32027,PM10,43,84,57
India,TamilNadu,Chennai,"Manali, Chennai - CPCB",11-11-2025 07:00:00,13.164544,80.26285,PM10,NA,NA,NA
India,Uttar_Pradesh,Bareilly,"Civil Lines, Bareilly - UPPCB",11-11-2025 07:00:00,28.359581,79.414455,SO2,12,29,18
India,Uttar_Pradesh,Bareilly,"Civil Lines, Bareilly - UPPCB",11-11-2025 07:00:00,28.359581,79.414455,OZONE,14,17,15
India,Uttar_Pradesh,Bareilly,"Rajendra Nagar, Bareilly - UPPCB",11-11-2025 07:00:00,28.38910936,79.42963708,NO2,9,10,9
India,Uttar_Pradesh,Bareilly,"Rajendra Nagar, Bareilly - UPPCB",11-11-2025 07:00:00,28.38910936,79.42963708,OZONE,NA,NA,NA
India,Uttar_Pradesh,Firozabad,"Nagla Bhau, Firozabad - UPPCB",11-11-2025 07:00:00,27.168897,78.376960,NH3,2,2,2
India,Uttar_Pradesh,Firozabad,"Nagla Bhau, Firozabad - UPPCB",11-11-2025 07:00:00,27.168897,78.376960,SO2,9,13,11
India,Uttar_Pradesh,Firozabad,"Nagla Bhau, Firozabad - UPPCB",11-11-2025 07:00:00,27.168897,78.376960,OZONE,10,22,10
India,Uttar_Pradesh,Firozabad,"Vibhab Nagar, Firozabad - UPPCB",11-11-2025 07:00:00,27.1594,78.3953,NO2,15,15,15
India,Uttar_Pradesh,Firozabad,"Vibhab Nagar, Firozabad - UPPCB",11-11-2025 07:00:00,27.1594,78.3953,NH3,2,2,2
India,Uttar_Pradesh,Firozabad,"Vibhab Nagar, Firozabad - UPPCB",11-11-2025 07:00:00,27.1594,78.3953,OZONE,2,36,2
India,Uttar_Pradesh,Lucknow,"B R Ambedkar University, Lucknow - UPPCB",11-11-2025 07:00:00,26.766433,80.927299,NO2,21,22,22
India,Uttar_Pradesh,Lucknow,"Gomti Nagar, Lucknow - UPPCB",11-11-2025 07:00:00,26.868120,81.005119,PM10,53,150,104
India,Uttar_Pradesh,Lucknow,"Kendriya Vidyalaya, Lucknow - CPCB",11-11-2025 07:00:00,26.906111,80.948222,SO2,5,17,10
India,Uttar_Pradesh,Lucknow,"Kendriya Vidyalaya, Lucknow - CPCB",11-11-2025 07:00:00,26.906111,80.948222,OZONE,10,78,13
India,Uttar_Pradesh,Lucknow,"Kukrail Picnic Spot-1, Lucknow - UPPCB",11-11-2025 07:00:00,26.90723,80.98579,NH3,5,5,5
India,Uttar_Pradesh,Lucknow,"Kukrail Picnic Spot-1, Lucknow - UPPCB",11-11-2025 07:00:00,26.90723,80.98579,SO2,39,42,40
India,Uttar_Pradesh,Lucknow,"Lalbagh, Lucknow - CPCB",11-11-2025 07:00:00,26.8458805,80.9365541,NO2,37,66,54
India,Uttar_Pradesh,Lucknow,"Lalbagh, Lucknow - CPCB",11-11-2025 07:00:00,26.8458805,80.9365541,CO,2,86,35
India,Uttar_Pradesh,Agra,"Sector-3B Avas Vikas Colony, Agra - UPPCB",11-11-2025 07:00:00,27.19412,77.96237,NH3,6,8,7
India,Uttar_Pradesh,Agra,"Sector-3B Avas Vikas Colony, Agra - UPPCB",11-11-2025 07:00:00,27.19412,77.96237,OZONE,6,33,12
India,Uttar_Pradesh,Agra,"Shahjahan Garden, Agra - UPPCB",11-11-2025 07:00:00,27.169338,78.03582,PM2.5,73,305,185
India,Uttar_Pradesh,Agra,"Shahjahan Garden, Agra - UPPCB",11-11-2025 07:00:00,27.169338,78.03582,PM10,NA,NA,NA
India,Uttar_Pradesh,Agra,"Shahjahan Garden, Agra - UPPCB",11-11-2025 07:00:00,27.169338,78.03582,SO2,9,22,16
India,Uttar_Pradesh,Agra,"Shahjahan Garden, Agra - UPPCB",11-11-2025 07:00:00,27.169338,78.03582,CO,24,126,79
India,Uttar_Pradesh,Agra,"Shastripuram, Agra - UPPCB",11-11-2025 07:00:00,27.19862,77.92066,PM2.5,65,277,163
India,Uttar_Pradesh,Agra,"Shastripuram, Agra - UPPCB",11-11-2025 07:00:00,27.19862,77.92066,SO2,24,43,33
India,Uttar_Pradesh,Agra,"Shastripuram, Agra - UPPCB",11-11-2025 07:00:00,27.19862,77.92066,OZONE,7,8,8
India,Uttar_Pradesh,Kanpur,"FTI Kidwai Nagar, Kanpur - UPPCB",11-11-2025 07:00:00,26.428282,80.327067,SO2,23,34,26
India,Uttar_Pradesh,Kanpur,"NSI Kalyanpur, Kanpur - UPPCB",11-11-2025 07:00:00,26.509954,80.249612,NO2,22,22,22
India,Uttar_Pradesh,Kanpur,"NSI Kalyanpur, Kanpur - UPPCB",11-11-2025 07:00:00,26.509954,80.249612,SO2,16,32,19
India,Uttar_Pradesh,Kanpur,"Nehru Nagar, Kanpur - UPPCB",11-11-2025 07:00:00,26.4703136,80.3229863,CO,28,56,53
India,Uttar_Pradesh,Khurja,"Kalindi Kunj, Khurja - UPPCB",11-11-2025 07:00:00,28.2348927,77.8683002,PM10,205,448,369
India,Uttar_Pradesh,Khurja,"Kalindi Kunj, Khurja - UPPCB",11-11-2025 07:00:00,28.2348927,77.8683002,SO2,14,15,15
India,Uttar_Pradesh,Greater Noida,"Knowledge Park - III, Greater Noida - UPPCB",11-11-2025 07:00:00,28.47272,77.482000,PM10,161,416,311
India,Uttar_Pradesh,Greater Noida,"Knowledge Park - V, Greater Noida - UPPCB",11-11-2025 07:00:00,28.557054,77.453663,PM10,174,435,348
India,Uttar_Pradesh,Greater Noida,"Knowledge Park - V, Greater Noida - UPPCB",11-11-2025 07:00:00,28.557054,77.453663,CO,82,124,112
India,Uttar_Pradesh,Jhansi,"Shivaji Nagar, Jhansi - UPPCB",11-11-2025 07:00:00,25.4547,78.6039,PM10,49,132,82
India,Uttar_Pradesh,Jhansi,"Shivaji Nagar, Jhansi - UPPCB",11-11-2025 07:00:00,25.4547,78.6039,NH3,4,4,4
India,Uttar_Pradesh,Jhansi,"Shivaji Nagar, Jhansi - UPPCB",11-11-2025 07:00:00,25.4547,78.6039,SO2,9,17,13
India,Telangana,Hyderabad,"Sanathnagar, Hyderabad - TSPCB",11-11-2025 07:00:00,17.4559458,78.4332152,PM2.5,75,180,115
India,Telangana,Hyderabad,"Somajiguda, Hyderabad - TSPCB",11-11-2025 07:00:00,17.417094,78.457437,NO2,14,14,14
India,Telangana,Hyderabad,"Somajiguda, Hyderabad - TSPCB",11-11-2025 07:00:00,17.417094,78.457437,SO2,12,20,14
India,Telangana,Hyderabad,"Zoo Park, Hyderabad - TSPCB",11-11-2025 07:00:00,17.349694,78.451437,NH3,3,4,3
India,Telangana,Hyderabad,"Zoo Park, Hyderabad - TSPCB",11-11-2025 07:00:00,17.349694,78.451437,SO2,2,2,2
India,Telangana,Hyderabad,"Zoo Park, Hyderabad - TSPCB",11-11-2025 07:00:00,17.349694,78.451437,CO,1,72,2
India,Telangana,Hyderabad,"Zoo Park, Hyderabad - TSPCB",11-11-2025 07:00:00,17.349694,78.451437,OZONE,22,26,24
India,Tripura,Agartala,"Bardowali, Agartala - Tripura SPCB",11-11-2025 07:00:00,23.8175497,91.2726974,PM2.5,15,53,34
India,Uttar_Pradesh,Agra,"Manoharpur, Agra - UPPCB",11-11-2025 07:00:00,27.23711,78.01936,SO2,26,57,37
India,Uttar_Pradesh,Agra,"Manoharpur, Agra - UPPCB",11-11-2025 07:00:00,27.23711,78.01936,OZONE,8,8,8
India,Uttar_Pradesh,Agra,"Rohta, Agra - UPPCB",11-11-2025 07:00:00,27.106972,78.000111,SO2,21,50,32
India,Uttar_Pradesh,Agra,"Sanjay Palace, Agra - UPPCB",11-11-2025 07:00:00,27.19865833,78.00598056,PM10,115,424,210
India,Uttar_Pradesh,Ghaziabad,"Indirapuram, Ghaziabad - UPPCB",11-11-2025 07:00:00,28.646233,77.358075,SO2,11,19,16
India,Uttar_Pradesh,Ghaziabad,"Vasundhara, Ghaziabad - UPPCB",11-11-2025 07:00:00,28.6603346,77.3572563,PM2.5,319,500,438
India,Telangana,Hyderabad,"New Malakpet, Hyderabad - TSPCB",11-11-2025 07:00:00,17.37206,78.50864,PM2.5,52,70,61
India,Telangana,Hyderabad,"New Malakpet, Hyderabad - TSPCB",11-11-2025 07:00:00,17.37206,78.50864,CO,24,42,24
India,Telangana,Hyderabad,"New Malakpet, Hyderabad - TSPCB",11-11-2025 07:00:00,17.37206,78.50864,OZONE,15,51,19
India,Uttar_Pradesh,Prayagraj,"Nagar Nigam, Prayagraj - UPPCB",11-11-2025 07:00:00,25.44919916 ,81.82735986 ,NH3,3,11,6
India,Uttar_Pradesh,Varanasi,"Ardhali Bazar, Varanasi - UPPCB",11-11-2025 07:00:00,25.3505986,82.9083074,NO2,31,71,42
India,Uttar_Pradesh,Varanasi,"Bhelupur, Varanasi - UPPCB",11-11-2025 07:00:00,25.301778,82.996789,PM2.5,55,336,139
India,Uttar_Pradesh,Varanasi,"Bhelupur, Varanasi - UPPCB",11-11-2025 07:00:00,25.301778,82.996789,NH3,1,1,1
India,Uttar_Pradesh,Varanasi,"IESD Banaras Hindu University, Varanasi - UPPCB",11-11-2025 07:00:00,25.262326,82.995408,NO2,2,2,2
India,Uttar_Pradesh,Varanasi,"IESD Banaras Hindu University, Varanasi - UPPCB",11-11-2025 07:00:00,25.262326,82.995408,CO,10,42,22
India,Uttar_Pradesh,Varanasi,"Maldahiya, Varanasi - UPPCB",11-11-2025 07:00:00,25.32393,82.99687,PM2.5,45,233,99
India,Uttar_Pradesh,Varanasi,"Maldahiya, Varanasi - UPPCB",11-11-2025 07:00:00,25.32393,82.99687,PM10,82,217,139
India,Uttar_Pradesh,Varanasi,"Maldahiya, Varanasi - UPPCB",11-11-2025 07:00:00,25.32393,82.99687,NO2,2,2,2
India,Uttar_Pradesh,Vrindavan,"Omex Eternity, Vrindavan - UPPCB",11-11-2025 07:00:00,27.5714090,77.6557570,PM10,138,383,207
India,Uttar_Pradesh,Vrindavan,"Omex Eternity, Vrindavan - UPPCB",11-11-2025 07:00:00,27.5714090,77.6557570,NO2,12,12,12
India,Uttar_Pradesh,Vrindavan,"Omex Eternity, Vrindavan - UPPCB",11-11-2025 07:00:00,27.5714090,77.6557570,NH3,1,3,2
India,Uttarakhand,Dehradun,"Doon University, Dehradun - UKPCB",11-11-2025 07:00:00,30.269444,78.044167,OZONE,25,63,29
India,Uttarakhand,Kashipur,"Govt. Girls Inter College, Kashipur - UKPCB",11-11-2025 07:00:00,29.2124114,78.9611753,SO2,4,9,8
India,Uttarakhand,Rishikesh,"Shivaji Nagar, Rishikesh - UKPCB",11-11-2025 07:00:00,30.075911,78.2859547,PM2.5,22,78,43
India,Uttarakhand,Rishikesh,"Shivaji Nagar, Rishikesh - UKPCB",11-11-2025 07:00:00,30.075911,78.2859547,NH3,4,8,6
India,West_Bengal,Asansol,"Asansol Court Area, Asansol - WBPCB",11-11-2025 07:00:00,23.685297,86.945968,PM10,99,149,126
India,West_Bengal,Asansol,"Asansol Court Area, Asansol - WBPCB",11-11-2025 07:00:00,23.685297,86.945968,NH3,3,8,5
India,West_Bengal,Asansol,"Asansol Court Area, Asansol - WBPCB",11-11-2025 07:00:00,23.685297,86.945968,SO2,12,34,22
India,West_Bengal,Asansol,"Asansol Court Area, Asansol - WBPCB",11-11-2025 07:00:00,23.685297,86.945968,OZONE,15,82,26
India,West_Bengal,Asansol,"Evelyn Lodge, Asansol - WBPCB",11-11-2025 07:00:00,23.6979360,86.9443950,SO2,7,15,9
India,West_Bengal,Asansol,"Evelyn Lodge, Asansol - WBPCB",11-11-2025 07:00:00,23.6979360,86.9443950,CO,14,91,39
India,West_Bengal,Asansol,"Mahabir Colliery, Asansol - WBPCB",11-11-2025 07:00:00,23.6181830,87.1057180,PM10,61,144,103
India,West_Bengal,Asansol,"Mahabir Colliery, Asansol - WBPCB",11-11-2025 07:00:00,23.6181830,87.1057180,OZONE,15,86,18
India,West_Bengal,Asansol,"Trivenidevi Bhalotia College, Asansol - WBPCB",11-11-2025 07:00:00,23.616515,87.119133,NH3,3,4,4
India,West_Bengal,Barrackpore,"SVSPA Campus, Barrackpore - WBPCB",11-11-2025 07:00:00,22.7605581,88.3617589,SO2,9,14,11
India,Uttar_Pradesh,Moradabad,"Kashiram Nagar, Moradabad - UPPCB",11-11-2025 07:00:00,28.849399,78.742362,PM10,47,221,110
India,Uttar_Pradesh,Moradabad,"Kashiram Nagar, Moradabad - UPPCB",11-11-2025 07:00:00,28.849399,78.742362,CO,23,64,39
India,Uttar_Pradesh,Moradabad,"Transport Nagar, Moradabad - UPPCB",11-11-2025 07:00:00,28.802625,78.753728,PM2.5,28,130,78
India,Uttar_Pradesh,Noida,"Sector - 125, Noida - UPPCB",11-11-2025 07:00:00,28.5447608,77.3231257,PM2.5,329,489,418
India,Uttar_Pradesh,Noida,"Sector - 125, Noida - UPPCB",11-11-2025 07:00:00,28.5447608,77.3231257,CO,12,116,90
India,Uttar_Pradesh,Noida,"Sector - 62, Noida - IMD",11-11-2025 07:00:00,28.6245479,77.3577104,PM10,NA,NA,NA
India,Uttar_Pradesh,Meerut,"Pallavpuram Phase 2, Meerut - UPPCB",11-11-2025 07:00:00,29.063510,77.709723,CO,12,104,32
India,Uttar_Pradesh,Moradabad,"Buddhi Vihar, Moradabad - UPPCB",11-11-2025 07:00:00,28.83526,78.74460,PM2.5,24,128,77
India,Uttar_Pradesh,Moradabad,"Buddhi Vihar, Moradabad - UPPCB",11-11-2025 07:00:00,28.83526,78.74460,NH3,5,5,5
India,Uttar_Pradesh,Moradabad,"Buddhi Vihar, Moradabad - UPPCB",11-11-2025 07:00:00,28.83526,78.74460,SO2,29,29,29
India,Uttar_Pradesh,Moradabad,"Jigar Colony, Moradabad - UPPCB",11-11-2025 07:00:00,28.856664,78.772638,NO2,24,25,25
India,Uttar_Pradesh,Moradabad,"Kashiram Nagar, Moradabad - UPPCB",11-11-2025 07:00:00,28.849399,78.742362,PM2.5,33,175,95
India,Uttar_Pradesh,Lucknow,"Talkatora District Industries Center, Lucknow - CPCB",11-11-2025 07:00:00,26.83399722,80.8917361,PM10,102,182,151
India,Uttar_Pradesh,Meerut,"Ganga Nagar, Meerut - UPPCB",11-11-2025 07:00:00,28.999264,77.7590354,SO2,1,20,9
India,Uttar_Pradesh,Meerut,"Jai Bhim Nagar, Meerut - UPPCB",11-11-2025 07:00:00,28.9535882,77.7622941,PM2.5,75,389,279
India,Uttar_Pradesh,Meerut,"Pallavpuram Phase 2, Meerut - UPPCB",11-11-2025 07:00:00,29.063510,77.709723,NO2,31,120,55
India,West_Bengal,Durgapur,"Mahishkapur Road_B-Zone, Durgapur - WBPCB",11-11-2025 07:00:00,23.567923,87.306843,NO2,14,69,35
India,West_Bengal,Durgapur,"Mahishkapur Road_B-Zone, Durgapur - WBPCB",11-11-2025 07:00:00,23.567923,87.306843,SO2,13,75,26
India,West_Bengal,Durgapur,"Mahishkapur Road_B-Zone, Durgapur - WBPCB",11-11-2025 07:00:00,23.567923,87.306843,OZONE,18,115,34
India,West_Bengal,Durgapur,"Womens College_City Center, Durgapur - WBPCB (Formerly known as Sidhu Kanhu Indoor Stadium)",11-11-2025 07:00:00,23.549395,87.300496,PM10,98,145,125
India,West_Bengal,Durgapur,"Womens College_City Center, Durgapur - WBPCB (Formerly known as Sidhu Kanhu Indoor Stadium)",11-11-2025 07:00:00,23.549395,87.300496,NH3,2,3,2
India,Uttar_Pradesh,Noida,"Sector-1, Noida - UPPCB",11-11-2025 07:00:00,28.5898,77.3101,PM2.5,319,481,408
India,Uttar_Pradesh,Noida,"Sector-116, Noida - UPPCB",11-11-2025 07:00:00,28.569230,77.393848,NH3,11,19,15
India,Uttar_Pradesh,Prayagraj,"Jhunsi, Prayagraj - UPPCB",11-11-2025 07:00:00,25.425602,81.917152,OZONE,15,94,17
India,Uttar_Pradesh,Prayagraj,"Motilal Nehru NIT, Prayagraj - UPPCB",11-11-2025 07:00:00,25.494,81.863,NO2,12,12,12
India,West_Bengal,Haldia,"Priyambada Housing Estate, Haldia - WBPCB",11-11-2025 07:00:00,22.06047,88.109737,OZONE,24,48,26
India,West_Bengal,Howrah,"Botanical Garden, Howrah - WBPCB",11-11-2025 07:00:00,22.554954,88.292568,PM2.5,45,119,78
India,West_Bengal,Howrah,"Botanical Garden, Howrah - WBPCB",11-11-2025 07:00:00,22.554954,88.292568,OZONE,5,22,6
India,West_Bengal,Howrah,"Dasnagar, Howrah - WBPCB",11-11-2025 07:00:00,22.6025571,88.3105664,OZONE,1,105,6
India,West_Bengal,Kolkata,"Ballygunge, Kolkata - WBPCB",11-11-2025 07:00:00,22.5367507,88.3638022,PM2.5,70,218,131
India,West_Bengal,Kolkata,"Ballygunge, Kolkata - WBPCB",11-11-2025 07:00:00,22.5367507,88.3638022,SO2,9,24,15
India,West_Bengal,Kolkata,"Ballygunge, Kolkata - WBPCB",11-11-2025 07:00:00,22.5367507,88.3638022,OZONE,6,56,12
India,West_Bengal,Kolkata,"Fort William, Kolkata - WBPCB",11-11-2025 07:00:00,22.556640,88.342674,PM10,102,155,123
India,West_Bengal,Kolkata,"Fort William, Kolkata - WBPCB",11-11-2025 07:00:00,22.556640,88.342674,NH3,7,10,8
India,West_Bengal,Kolkata,"Jadavpur, Kolkata - WBPCB",11-11-2025 07:00:00,22.49929,88.36917,PM2.5,164,334,270
India,West_Bengal,Kolkata,"Rabindra Bharati University, Kolkata - WBPCB",11-11-2025 07:00:00,22.627847,88.380669,CO,30,50,38
India,West_Bengal,Kolkata,"Rabindra Bharati University, Kolkata - WBPCB",11-11-2025 07:00:00,22.627847,88.380669,OZONE,7,125,17
India,West_Bengal,Kolkata,"Rabindra Sarobar, Kolkata - WBPCB",11-11-2025 07:00:00,22.51106,88.35142,PM10,78,122,100
India,West_Bengal,Kolkata,"Rabindra Sarobar, Kolkata - WBPCB",11-11-2025 07:00:00,22.51106,88.35142,CO,28,84,55
India,Bihar,Bhagalpur,"DM Office_Kachari Chowk, Bhagalpur - BSPCB",11-11-2025 07:00:00,25.251013,86.989001,PM10,42,124,94
India,Bihar,Bhagalpur,"DM Office_Kachari Chowk, Bhagalpur - BSPCB",11-11-2025 07:00:00,25.251013,86.989001,OZONE,14,26,17
India,Bihar,Bhagalpur,"Mayaganj, Bhagalpur - BSPCB",11-11-2025 07:00:00,25.265194,87.012947,PM2.5,55,110,79
India,Bihar,Bhagalpur,"Mayaganj, Bhagalpur - BSPCB",11-11-2025 07:00:00,25.265194,87.012947,PM10,69,110,88
India,Bihar,Bihar Sharif,"D M Colony, Bihar Sharif - BSPCB",11-11-2025 07:00:00,25.204762,85.514960,SO2,9,10,10
India,Bihar,Buxar,"Charitra Van, Buxar - BSPCB",11-11-2025 07:00:00,25.567520,83.966379,PM10,68,123,97
India,Bihar,Buxar,"Charitra Van, Buxar - BSPCB",11-11-2025 07:00:00,25.567520,83.966379,NO2,9,10,9
India,Bihar,Chhapra,"Darshan Nagar, Chhapra - BSPCB",11-11-2025 07:00:00,25.7808257,84.7446768,PM10,74,175,118
India,Bihar,Chhapra,"Darshan Nagar, Chhapra - BSPCB",11-11-2025 07:00:00,25.7808257,84.7446768,SO2,19,21,20
India,Andhra_Pradesh,Vijayawada,"HB Colony, Vijayawada - APPCB",11-11-2025 07:00:00,16.536107,80.594233,OZONE,NA,NA,NA
India,Andhra_Pradesh,Vijayawada,"Rajiv Gandhi Park, Vijayawada - APPCB",11-11-2025 07:00:00,16.509717,80.612222,SO2,9,16,12
India,Andhra_Pradesh,Vijayawada,"Rajiv Gandhi Park, Vijayawada - APPCB",11-11-2025 07:00:00,16.509717,80.612222,CO,28,34,34
India,Andhra_Pradesh,Vijayawada,"Rajiv Nagar, Vijayawada - APPCB",11-11-2025 07:00:00,16.554731,80.649110,OZONE,67,117,96
India,Andhra_Pradesh,Visakhapatnam,"GVM Corporation, Visakhapatnam - APPCB",11-11-2025 07:00:00,17.72,83.3,PM2.5,146,296,188
India,Andhra_Pradesh,Visakhapatnam,"GVM Corporation, Visakhapatnam - APPCB",11-11-2025 07:00:00,17.72,83.3,OZONE,6,130,81
India,Arunachal_Pradesh,Naharlagun,"Naharlagun, Naharlagun - APSPCB",11-11-2025 07:00:00,27.103358,93.679645,PM2.5,10,328,72
India,Arunachal_Pradesh,Naharlagun,"Naharlagun, Naharlagun - APSPCB",11-11-2025 07:00:00,27.103358,93.679645,PM10,28,227,73
India,Bihar,Hajipur,"Industrial Area, Hajipur - BSPCB",11-11-2025 07:00:00,25.697189,85.245900,CO,14,70,41
India,Bihar,Kishanganj,"SDM Office_Khagra, Kishanganj - BSPCB",11-11-2025 07:00:00,26.0881305,87.93840336,PM2.5,2,113,68
India,Bihar,Kishanganj,"SDM Office_Khagra, Kishanganj - BSPCB",11-11-2025 07:00:00,26.0881305,87.93840336,PM10,22,105,71
India,Bihar,Kishanganj,"SDM Office_Khagra, Kishanganj - BSPCB",11-11-2025 07:00:00,26.0881305,87.93840336,OZONE,16,18,17
India,Bihar,Manguraha,"Forest Rest House, Manguraha - BSPCB",11-11-2025 07:00:00,27.308328,84.531742,PM2.5,37,130,71
India,Bihar,Manguraha,"Forest Rest House, Manguraha - BSPCB",11-11-2025 07:00:00,27.308328,84.531742,NH3,1,2,1
India,Bihar,Motihari,"Gandak Colony, Motihari - BSPCB",11-11-2025 07:00:00,26.63086,84.90051,PM2.5,25,297,96
India,Bihar,Motihari,"Gandak Colony, Motihari - BSPCB",11-11-2025 07:00:00,26.63086,84.90051,SO2,2,2,2
India,Andhra_Pradesh,Kadapa,"Yerramukkapalli, Kadapa - APPCB",11-11-2025 07:00:00,14.465052,78.824187,NO2,18,22,21
India,Andhra_Pradesh,Kadapa,"Yerramukkapalli, Kadapa - APPCB",11-11-2025 07:00:00,14.465052,78.824187,NH3,3,6,4
India,Andhra_Pradesh,Rajamahendravaram,"Anand Kala Kshetram, Rajamahendravaram - APPCB",11-11-2025 07:00:00,16.9872867,81.7363176,OZONE,12,23,20
India,Andhra_Pradesh,Tirumala,"Toll Gate, Tirumala - APPCB",11-11-2025 07:00:00,13.67,79.35,SO2,6,9,7
India,Andhra_Pradesh,Tirumala,"Toll Gate, Tirumala - APPCB",11-11-2025 07:00:00,13.67,79.35,CO,26,50,36
India,Andhra_Pradesh,Tirupati,"Vaikuntapuram, Tirupati - APPCB",11-11-2025 07:00:00,13.615387,79.409230,CO,22,44,24
India,Assam,Byrnihat,"Central Academy for SFS, Byrnihat - PCBA",11-11-2025 07:00:00,26.071318,91.87488,NH3,4,4,4
India,Assam,Byrnihat,"Central Academy for SFS, Byrnihat - PCBA",11-11-2025 07:00:00,26.071318,91.87488,CO,34,64,53
India,Assam,Guwahati,"IITG, Guwahati - PCBA",11-11-2025 07:00:00,26.2028636,91.70046436,PM2.5,17,113,59
India,Assam,Guwahati,"IITG, Guwahati - PCBA",11-11-2025 07:00:00,26.2028636,91.70046436,CO,8,25,17
India,Assam,Guwahati,"Pan Bazaar, Guwahati - PCBA",11-11-2025 07:00:00,26.187500,91.744194,PM10,9,87,47
India,Assam,Guwahati,"Pan Bazaar, Guwahati - PCBA",11-11-2025 07:00:00,26.187500,91.744194,OZONE,18,18,18
India,Assam,Guwahati,"Railway Colony, Guwahati - PCBA",11-11-2025 07:00:00,26.181742,91.78063,SO2,30,34,32
India,Assam,Nalbari,"Bata Chowk, Nalbari - PCBA",11-11-2025 07:00:00,26.446912,91.439057,SO2,6,8,8
India,Assam,Silchar,"Tarapur, Silchar - PCBA",11-11-2025 07:00:00,24.82827,92.79525,NH3,1,1,1
India,Assam,Silchar,"Tarapur, Silchar - PCBA",11-11-2025 07:00:00,24.82827,92.79525,CO,12,43,36
India,Assam,Silchar,"Tarapur, Silchar - PCBA",11-11-2025 07:00:00,24.82827,92.79525,OZONE,1,6,2
India,Assam,Sivasagar,"Girls College, Sivasagar - PCBA",11-11-2025 07:00:00,26.987634,94.636574,OZONE,2,14,2
India,Bihar,Araria,"Kharahiya Basti, Araria - BSPCB",11-11-2025 07:00:00,26.146529,87.454184,PM10,7,70,44
India,Bihar,Araria,"Kharahiya Basti, Araria - BSPCB",11-11-2025 07:00:00,26.146529,87.454184,OZONE,10,11,10
India,Bihar,Arrah,"New DM Office, Arrah - BSPCB",11-11-2025 07:00:00,25.5626095,84.663264,PM10,28,54,38
India,Bihar,Arrah,"New DM Office, Arrah - BSPCB",11-11-2025 07:00:00,25.5626095,84.663264,SO2,10,10,10
India,Bihar,Arrah,"New DM Office, Arrah - BSPCB",11-11-2025 07:00:00,25.5626095,84.663264,CO,30,66,55
India,Bihar,Arrah,"New DM Office, Arrah - BSPCB",11-11-2025 07:00:00,25.5626095,84.663264,OZONE,5,10,7
India,Bihar,Aurangabad,"Gurdeo Nagar, Aurangabad - BSPCB",11-11-2025 07:00:00,24.75746,84.366208,PM2.5,88,308,169
India,Andhra_Pradesh,Anantapur,"Gulzarpet, Anantapur - APPCB",11-11-2025 07:00:00,14.675886,77.593027,PM2.5,63,92,80
India,Andhra_Pradesh,Chittoor,"Gangineni Cheruvu, Chittoor - APPCB",11-11-2025 07:00:00,13.204880,79.097889,PM10,49,140,97
India,Andhra_Pradesh,Chittoor,"Gangineni Cheruvu, Chittoor - APPCB",11-11-2025 07:00:00,13.204880,79.097889,CO,23,54,45
India,Bihar,Chhapra,"Darshan Nagar, Chhapra - BSPCB",11-11-2025 07:00:00,25.7808257,84.7446768,OZONE,17,43,24
India,Bihar,Gaya,"Collectorate, Gaya - BSPCB",11-11-2025 07:00:00,24.7955,84.9994,OZONE,19,21,20
India,Bihar,Gaya,"SFTI Kusdihra, Gaya - BSPCB",11-11-2025 07:00:00,24.762518,84.982348,SO2,8,11,9
India,Bihar,Gaya,"SFTI Kusdihra, Gaya - BSPCB",11-11-2025 07:00:00,24.762518,84.982348,CO,28,46,35
India,Bihar,Munger,"Town Hall, Munger - BSPCB",11-11-2025 07:00:00,25.376776,86.471523,OZONE,13,36,16
India,Bihar,Muzaffarpur,"Buddha Colony, Muzaffarpur - BSPCB",11-11-2025 07:00:00,26.11442,85.39813,PM2.5,82,247,159
India,Bihar,Muzaffarpur,"MIT-Daudpur Kothi, Muzaffarpur - BSPCB",11-11-2025 07:00:00,26.1403345,85.3650192,PM10,60,69,64
India,Bihar,Muzaffarpur,"MIT-Daudpur Kothi, Muzaffarpur - BSPCB",11-11-2025 07:00:00,26.1403345,85.3650192,NO2,4,9,6
India,Bihar,Muzaffarpur,"MIT-Daudpur Kothi, Muzaffarpur - BSPCB",11-11-2025 07:00:00,26.1403345,85.3650192,NH3,1,1,1
India,Bihar,Muzaffarpur,"Muzaffarpur Collectorate, Muzaffarpur - BSPCB",11-11-2025 07:00:00,26.1209,85.3647,OZONE,12,72,18
India,Bihar,Patna,"Govt. High School Shikarpur, Patna - BSPCB",11-11-2025 07:00:00,25.592539,85.227158,PM10,100,148,118
India,Bihar,Rajgir,"Dangi Tola, Rajgir - BSPCB",11-11-2025 07:00:00,25.03280,85.41948,PM2.5,45,143,90
India,Bihar,Rajgir,"Dangi Tola, Rajgir - BSPCB",11-11-2025 07:00:00,25.03280,85.41948,PM10,47,107,81
India,Bihar,Rajgir,"Dangi Tola, Rajgir - BSPCB",11-11-2025 07:00:00,25.03280,85.41948,NO2,8,10,9
India,Bihar,Rajgir,"Dangi Tola, Rajgir - BSPCB",11-11-2025 07:00:00,25.03280,85.41948,CO,76,101,92
India,Bihar,Saharsa,"Police Line, Saharsa - BSPCB",11-11-2025 07:00:00,25.892357,86.590325,NH3,4,4,4
India,Bihar,Saharsa,"Police Line, Saharsa - BSPCB",11-11-2025 07:00:00,25.892357,86.590325,SO2,16,19,17
India,Bihar,Sasaram,"Dada Peer, Sasaram - BSPCB",11-11-2025 07:00:00,24.952822,84.002396,PM2.5,47,122,65
India,Bihar,Sasaram,"Dada Peer, Sasaram - BSPCB",11-11-2025 07:00:00,24.952822,84.002396,SO2,NA,NA,NA
India,Chandigarh,Chandigarh,"Sector-53, Chandigarh - CPCC",11-11-2025 07:00:00,30.719859,76.738637,NH3,3,5,4
India,Chhattisgarh,Bhilai,"Civic Center, Bhilai - Bhilai Steel Plant",11-11-2025 07:00:00,21.185571,81.343175,NO2,7,15,9
India,Chhattisgarh,Bhilai,"Civic Center, Bhilai - Bhilai Steel Plant",11-11-2025 07:00:00,21.185571,81.343175,SO2,4,12,8
India,Chhattisgarh,Bhilai,"Hathkhoj, Bhilai - CECB",11-11-2025 07:00:00,21.224231,81.408350,CO,14,71,45
India,Chhattisgarh,Bilaspur,"Mangala, Bilaspur - NTPC",11-11-2025 07:00:00,22.08815,82.13737,PM2.5,53,128,77
India,Delhi,Delhi,"Aya Nagar, Delhi - IMD",11-11-2025 07:00:00,28.4706914,77.1099364,NO2,29,113,63
India,Delhi,Delhi,"Bawana, Delhi - DPCC",11-11-2025 07:00:00,28.776200,77.051074,NO2,20,110,52
India,Delhi,Delhi,"Bawana, Delhi - DPCC",11-11-2025 07:00:00,28.776200,77.051074,CO,38,112,93
India,Delhi,Delhi,"Burari Crossing, Delhi - IMD",11-11-2025 07:00:00,28.7256504,77.2011573,NO2,58,165,114
India,Delhi,Delhi,"CRRI Mathura Road, Delhi - IMD",11-11-2025 07:00:00,28.5512005,77.2735737,PM2.5,364,500,448
India,Delhi,Delhi,"CRRI Mathura Road, Delhi - IMD",11-11-2025 07:00:00,28.5512005,77.2735737,PM10,227,496,398
India,Chhattisgarh,Tumidih,"OP Jindal Industrial Park, Tumidih - CECB",11-11-2025 07:00:00,22.06631475,83.33820077,PM2.5,54,165,89
India,Chhattisgarh,Tumidih,"OP Jindal Industrial Park, Tumidih - CECB",11-11-2025 07:00:00,22.06631475,83.33820077,PM10,50,223,103
India,Delhi,Delhi,"Alipur, Delhi - DPCC",11-11-2025 07:00:00,28.815329,77.153010,CO,70,112,103
India,Delhi,Delhi,"Alipur, Delhi - DPCC",11-11-2025 07:00:00,28.815329,77.153010,OZONE,2,77,3
India,Delhi,Delhi,"Anand Vihar, Delhi - DPCC",11-11-2025 07:00:00,28.647622,77.3158090,NH3,12,16,14
India,Chhattisgarh,Kunjemura,"OP Jindal School, Kunjemura - CECB",11-11-2025 07:00:00,22.126650,83.483212,OZONE,5,70,9
India,Chhattisgarh,Milupara,"Govt. Higher Secondary School, Milupara - CECB",11-11-2025 07:00:00,22.1910172,83.5197009,PM10,NA,NA,NA
India,Chhattisgarh,Milupara,"Govt. Higher Secondary School, Milupara - CECB",11-11-2025 07:00:00,22.1910172,83.5197009,CO,NA,NA,NA
India,Chhattisgarh,Milupara,"Govt. Higher Secondary School, Milupara - CECB",11-11-2025 07:00:00,22.1910172,83.5197009,OZONE,NA,NA,NA
India,Chhattisgarh,Raipur,"Krishak Nagar, Raipur - CECB",11-11-2025 07:00:00,21.237755,81.705301,PM2.5,64,120,79
India,Bihar,Patna,"Govt. High School Shikarpur, Patna - BSPCB",11-11-2025 07:00:00,25.592539,85.227158,NO2,7,26,13
India,Bihar,Patna,"Govt. High School Shikarpur, Patna - BSPCB",11-11-2025 07:00:00,25.592539,85.227158,NH3,4,5,5
India,Bihar,Patna,"Rajbansi Nagar, Patna - BSPCB",11-11-2025 07:00:00,25.599486,85.113666,OZONE,32,58,52
India,Bihar,Patna,"Samanpura, Patna - BSPCB",11-11-2025 07:00:00,25.596727,85.085624,PM10,177,500,326
India,Chhattisgarh,Chhal,"Nawapara SECL Colony, Chhal - CECB",11-11-2025 07:00:00,22.118125,83.140608,SO2,3,47,20
India,Chhattisgarh,Chhal,"Nawapara SECL Colony, Chhal - CECB",11-11-2025 07:00:00,22.118125,83.140608,CO,28,60,34
India,Chhattisgarh,Korba,"Rampur, Korba - CECB",11-11-2025 07:00:00,22.368195,82.746431,PM2.5,36,66,52
India,Chhattisgarh,Korba,"Urja Nagar, Korba - CECB",11-11-2025 07:00:00,22.348441,82.549611,NH3,1,2,2
India,Bihar,Sasaram,"Dada Peer, Sasaram - BSPCB",11-11-2025 07:00:00,24.952822,84.002396,OZONE,16,27,17
India,Chandigarh,Chandigarh,"Sector 22, Chandigarh - CPCC",11-11-2025 07:00:00,30.735567,76.775714,PM10,33,134,74
India,Chandigarh,Chandigarh,"Sector-25, Chandigarh - CPCC",11-11-2025 07:00:00,30.751462,76.762879,NH3,8,14,11
India,Delhi,Delhi,"CRRI Mathura Road, Delhi - IMD",11-11-2025 07:00:00,28.5512005,77.2735737,OZONE,10,187,15
India,Delhi,Delhi,"Chandni Chowk, Delhi - IITM",11-11-2025 07:00:00,28.656756,77.227234,NH3,7,21,15
India,Delhi,Delhi,"Chandni Chowk, Delhi - IITM",11-11-2025 07:00:00,28.656756,77.227234,CO,62,126,110
India,Delhi,Delhi,"DTU, Delhi - CPCB",11-11-2025 07:00:00,28.7500499,77.1112615,PM2.5,147,370,300
India,Delhi,Delhi,"DTU, Delhi - CPCB",11-11-2025 07:00:00,28.7500499,77.1112615,NO2,41,45,45
India,Delhi,Delhi,"DTU, Delhi - CPCB",11-11-2025 07:00:00,28.7500499,77.1112615,NH3,9,11,10
India,Delhi,Delhi,"Dr. Karni Singh Shooting Range, Delhi - DPCC",11-11-2025 07:00:00,28.498571,77.264840,NH3,8,10,9
India,Delhi,Delhi,"Dwarka-Sector 8, Delhi - DPCC ",11-11-2025 07:00:00,28.5710274,77.0719006,PM10,326,500,435
India,Delhi,Delhi,"Nehru Nagar, Delhi - DPCC",11-11-2025 07:00:00,28.567890,77.250515,SO2,16,44,29
India,Delhi,Delhi,"Nehru Nagar, Delhi - DPCC",11-11-2025 07:00:00,28.567890,77.250515,OZONE,3,302,4
India,Delhi,Delhi,"North Campus, DU, Delhi - IMD",11-11-2025 07:00:00,28.6573814,77.1585447,CO,38,160,110
India,Delhi,Delhi,"Okhla Phase-2, Delhi - DPCC",11-11-2025 07:00:00,28.530785,77.271255,PM10,NA,NA,NA
India,Delhi,Delhi,"Patparganj, Delhi - DPCC",11-11-2025 07:00:00,28.623763,77.287209,SO2,7,12,10
India,Delhi,Delhi,"Punjabi Bagh, Delhi - DPCC",11-11-2025 07:00:00,28.674045,77.131023,OZONE,2,165,5
India,Delhi,Delhi,"Pusa, Delhi - DPCC",11-11-2025 07:00:00,28.639652,77.146275,PM2.5,387,483,432
India,Delhi,Delhi,"NSIT Dwarka, Delhi - CPCB",11-11-2025 07:00:00,28.60909,77.0325413,PM2.5,72,326,237
India,Delhi,Delhi,"Najafgarh, Delhi - DPCC",11-11-2025 07:00:00,28.570173,76.933762,PM2.5,380,475,430
India,Delhi,Delhi,"Najafgarh, Delhi - DPCC",11-11-2025 07:00:00,28.570173,76.933762,NH3,9,10,10
India,Delhi,Delhi,"Najafgarh, Delhi - DPCC",11-11-2025 07:00:00,28.570173,76.933762,OZONE,6,16,7
India,Delhi,Delhi,"Narela, Delhi - DPCC",11-11-2025 07:00:00,28.822836,77.101981,PM2.5,332,500,444
India,Delhi,Delhi,"Narela, Delhi - DPCC",11-11-2025 07:00:00,28.822836,77.101981,SO2,11,44,30
India,Delhi,Delhi,"Nehru Nagar, Delhi - DPCC",11-11-2025 07:00:00,28.567890,77.250515,PM2.5,366,500,448
India,Delhi,Delhi,"Nehru Nagar, Delhi - DPCC",11-11-2025 07:00:00,28.567890,77.250515,NO2,43,146,91
India,Delhi,Delhi,"Dwarka-Sector 8, Delhi - DPCC ",11-11-2025 07:00:00,28.5710274,77.0719006,OZONE,1,201,10
India,Delhi,Delhi,"IGI Airport (T3), Delhi - IMD",11-11-2025 07:00:00,28.5627763,77.1180053,PM2.5,340,456,398
India,Delhi,Delhi,"IGI Airport (T3), Delhi - IMD",11-11-2025 07:00:00,28.5627763,77.1180053,OZONE,2,11,7
India,Delhi,Delhi,"ITO, Delhi - CPCB",11-11-2025 07:00:00,28.628624,77.241060,NH3,2,6,4
India,Delhi,Delhi,"Jahangirpuri, Delhi - DPCC",11-11-2025 07:00:00,28.732820,77.170633,PM2.5,342,500,450
India,Delhi,Delhi,"Jahangirpuri, Delhi - DPCC",11-11-2025 07:00:00,28.732820,77.170633,NO2,71,167,121
India,Delhi,Delhi,"Vivek Vihar, Delhi - DPCC",11-11-2025 07:00:00,28.672342,77.315260,OZONE,2,59,3
India,Gujarat,Ahmedabad,"Gyaspur, Ahmedabad - IITM",11-11-2025 07:00:00,22.977134,72.553024,CO,28,103,86
India,Gujarat,Ahmedabad,"Gyaspur, Ahmedabad - IITM",11-11-2025 07:00:00,22.977134,72.553024,OZONE,2,44,5
India,Gujarat,Ahmedabad,"Maninagar, Ahmedabad - GPCB",11-11-2025 07:00:00,23.002657,72.591912,SO2,29,47,40
India,Delhi,Delhi,"Lodhi Road, Delhi - IITM",11-11-2025 07:00:00,28.588333,77.221667,SO2,4,46,19
India,Delhi,Delhi,"Lodhi Road, Delhi - IMD",11-11-2025 07:00:00,28.5918245,77.2273074,PM10,261,415,358
India,Delhi,Delhi,"Lodhi Road, Delhi - IMD",11-11-2025 07:00:00,28.5918245,77.2273074,NO2,25,85,48
India,Delhi,Delhi,"Mundka, Delhi - DPCC",11-11-2025 07:00:00,28.684678,77.076574,PM2.5,375,500,452
India,Gujarat,Ahmedabad,"Raikhad, Ahmedabad - IITM",11-11-2025 07:00:00,23.020509,72.579261,PM2.5,74,347,220
India,Gujarat,Ahmedabad,"Raikhad, Ahmedabad - IITM",11-11-2025 07:00:00,23.020509,72.579261,PM10,93,233,161
India,Gujarat,Ahmedabad,"Raikhad, Ahmedabad - IITM",11-11-2025 07:00:00,23.020509,72.579261,NO2,NA,NA,NA
India,Gujarat,Ahmedabad,"Raikhad, Ahmedabad - IITM",11-11-2025 07:00:00,23.020509,72.579261,SO2,5,36,16
India,Gujarat,Ahmedabad,"Rakhial, Ahmedabad - IITM",11-11-2025 07:00:00,23.016834,72.625775,NO2,5,200,45
India,Delhi,Delhi,"Sirifort, Delhi - CPCB",11-11-2025 07:00:00,28.5504249,77.2159377,PM2.5,363,500,442
India,Delhi,Delhi,"Sonia Vihar, Delhi - DPCC",11-11-2025 07:00:00,28.710508,77.249485,OZONE,4,255,5
India,Delhi,Delhi,"Sri Aurobindo Marg, Delhi - DPCC",11-11-2025 07:00:00,28.531346,77.190156,OZONE,1,153,2
India,Delhi,Delhi,"Pusa, Delhi - DPCC",11-11-2025 07:00:00,28.639652,77.146275,PM10,270,490,398
India,Delhi,Delhi,"Rohini, Delhi - DPCC",11-11-2025 07:00:00,28.732528,77.119920,CO,15,97,62
India,Delhi,Delhi,"Shadipur, Delhi - CPCB",11-11-2025 07:00:00,28.6514781,77.1473105,PM10,258,467,390
India,Haryana,Palwal,"Shyam Nagar, Palwal - HSPCB",11-11-2025 07:00:00,28.1485564,77.3320667,NH3,9,9,9
India,Haryana,Palwal,"Shyam Nagar, Palwal - HSPCB",11-11-2025 07:00:00,28.1485564,77.3320667,SO2,12,13,12
India,Haryana,Panchgaon,"Amity University, Panchgaon - IITM",11-11-2025 07:00:00,28.3153,76.9143,SO2,1,14,6
India,Haryana,Panchkula,"Sector-6, Panchkula - HSPCB ",11-11-2025 07:00:00,30.7057778,76.8531805555555,PM2.5,33,161,88
India,Haryana,Panchkula,"Sector-6, Panchkula - HSPCB ",11-11-2025 07:00:00,30.7057778,76.8531805555555,NO2,24,26,25
India,Haryana,Panchkula,"Sector-6, Panchkula - HSPCB ",11-11-2025 07:00:00,30.7057778,76.8531805555555,SO2,8,9,9
India,Haryana,Rohtak,"MD University, Rohtak - HSPCB",11-11-2025 07:00:00,28.52123,76.37138,PM2.5,26,417,337
India,Haryana,Rohtak,"MD University, Rohtak - HSPCB",11-11-2025 07:00:00,28.52123,76.37138,SO2,4,6,5
India,Haryana,Fatehabad,"Huda Sector, Fatehabad - HSPCB",11-11-2025 07:00:00,29.503664,75.467934,NH3,13,14,14
India,Haryana,Gurugram,"NISE Gwal Pahari, Gurugram - IMD",11-11-2025 07:00:00,28.422681,77.148944,NO2,21,58,36
India,Haryana,Gurugram,"Sector-51, Gurugram - HSPCB",11-11-2025 07:00:00,28.4227,77.0667,PM2.5,336,500,405
India,Haryana,Gurugram,"Sector-51, Gurugram - HSPCB",11-11-2025 07:00:00,28.4227,77.0667,PM10,242,500,375
India,Haryana,Gurugram,"Sector-51, Gurugram - HSPCB",11-11-2025 07:00:00,28.4227,77.0667,NO2,4,10,6
India,Haryana,Gurugram,"Teri Gram, Gurugram - HSPCB",11-11-2025 07:00:00,28.4275,77.1465,PM2.5,95,327,234
India,Haryana,Gurugram,"Vikas Sadan, Gurugram - HSPCB",11-11-2025 07:00:00,28.4501238,77.0263051,NO2,9,45,26
India,Haryana,Ballabgarh,"Nathu Colony, Ballabgarh - HSPCB",11-11-2025 07:00:00,28.3419248,77.319699,PM2.5,99,135,116
India,Haryana,Ballabgarh,"Nathu Colony, Ballabgarh - HSPCB",11-11-2025 07:00:00,28.3419248,77.319699,PM10,113,129,121
India,Haryana,Ballabgarh,"Nathu Colony, Ballabgarh - HSPCB",11-11-2025 07:00:00,28.3419248,77.319699,SO2,6,11,8
India,Haryana,Bhiwani,"H.B. Colony, Bhiwani - HSPCB",11-11-2025 07:00:00,28.806223,76.141105,NO2,1,34,31
India,Haryana,Charkhi Dadri,"Mini Secretariat, Charkhi Dadri - HSPCB",11-11-2025 07:00:00,28.593883,76.270653,NO2,9,22,15
India,Haryana,Charkhi Dadri,"Mini Secretariat, Charkhi Dadri - HSPCB",11-11-2025 07:00:00,28.593883,76.270653,SO2,10,11,11
India,Haryana,Manesar,"Sector-2 IMT, Manesar - HSPCB",11-11-2025 07:00:00,28.360699,76.936090,SO2,14,24,19
India,Haryana,Manesar,"Sector-2 IMT, Manesar - HSPCB",11-11-2025 07:00:00,28.360699,76.936090,CO,44,103,79
India,Haryana,Manesar,"Sector-2 IMT, Manesar - HSPCB",11-11-2025 07:00:00,28.360699,76.936090,OZONE,7,37,9
India,Haryana,Narnaul,"Shastri Nagar, Narnaul - HSPCB",11-11-2025 07:00:00,28.060249,76.113115,NO2,13,75,31
India,Haryana,Narnaul,"Shastri Nagar, Narnaul - HSPCB",11-11-2025 07:00:00,28.060249,76.113115,NH3,3,27,8
India,Haryana,Narnaul,"Shastri Nagar, Narnaul - HSPCB",11-11-2025 07:00:00,28.060249,76.113115,CO,21,38,31
India,Gujarat,Ahmedabad,"SVPI Airport Hansol, Ahmedabad - IITM",11-11-2025 07:00:00,23.076793,72.627874,NO2,27,79,44
India,Gujarat,Ahmedabad,"SVPI Airport Hansol, Ahmedabad - IITM",11-11-2025 07:00:00,23.076793,72.627874,OZONE,1,42,1
India,Gujarat,Ankleshwar,"GIDC, Ankleshwar - GPCB",11-11-2025 07:00:00,21.613267,73.010555,PM2.5,56,230,136
India,Gujarat,Gandhinagar,"GIFT City, Gandhinagar - IITM",11-11-2025 07:00:00,23.163798,72.677768,PM2.5,57,153,109
India,Haryana,Hisar,"Urban Estate-II, Hisar - HSPCB",11-11-2025 07:00:00,29.140560,75.744941,SO2,10,12,11
India,Haryana,Hisar,"Urban Estate-II, Hisar - HSPCB",11-11-2025 07:00:00,29.140560,75.744941,OZONE,47,111,61
India,Haryana,Karnal,"Sector-12, Karnal - HSPCB",11-11-2025 07:00:00,29.695300,77.002700,PM10,64,181,134
India,Haryana,Karnal,"Sector-12, Karnal - HSPCB",11-11-2025 07:00:00,29.695300,77.002700,CO,38,62,50
India,Haryana,Karnal,"Sector-12, Karnal - HSPCB",11-11-2025 07:00:00,29.695300,77.002700,OZONE,26,26,26
India,Gujarat,Vapi,"Phase-1 GIDC, Vapi - GPCB",11-11-2025 07:00:00,20.362421,72.918013,SO2,12,14,13
India,Gujarat,Vapi,"Phase-1 GIDC, Vapi - GPCB",11-11-2025 07:00:00,20.362421,72.918013,OZONE,2,2,2
India,Gujarat,Vatva,"Phase-4 GIDC, Vatva - GPCB",11-11-2025 07:00:00,22.969611,72.643500,PM2.5,46,378,155
India,Gujarat,Vatva,"Phase-4 GIDC, Vatva - GPCB",11-11-2025 07:00:00,22.969611,72.643500,CO,10,54,21
India,Gujarat,Ahmedabad,"SAC ISRO Bopal, Ahmedabad - IITM",11-11-2025 07:00:00,23.041137,72.456691,CO,30,82,74
India,Gujarat,Ahmedabad,"SAC ISRO Satellite, Ahmedabad - IITM",11-11-2025 07:00:00,23.023389,72.515201,NH3,3,24,11
India,Gujarat,Ahmedabad,"SVPI Airport Hansol, Ahmedabad - IITM",11-11-2025 07:00:00,23.076793,72.627874,PM10,NA,NA,NA
India,Haryana,Faridabad,"New Industrial Town, Faridabad - HSPCB",11-11-2025 07:00:00,28.39072,77.30059,PM2.5,224,301,285
India,Haryana,Faridabad,"Sector 30, Faridabad - HSPCB",11-11-2025 07:00:00,28.4417,77.3217,NH3,11,12,11
India,Haryana,Faridabad,"Sector 30, Faridabad - HSPCB",11-11-2025 07:00:00,28.4417,77.3217,CO,59,65,62
India,Jharkhand,Dhanbad,"Sardar Patel Nagar, Dhanbad - JSPCB",11-11-2025 07:00:00,23.80569,86.44268,SO2,20,115,42
India,Karnataka,Bagalkot,"Vidayagiri, Bagalkot - KSPCB",11-11-2025 07:00:00,16.172806,75.659694,NH3,1,2,1
India,Karnataka,Belgaum,"Ramteerth Nagar, Belgaum - KSPCB",11-11-2025 07:00:00,15.888653,74.541751,PM10,36,155,94
India,Karnataka,Belgaum,"Ramteerth Nagar, Belgaum - KSPCB",11-11-2025 07:00:00,15.888653,74.541751,NH3,7,11,9
India,Karnataka,Bengaluru,"BTM Layout, Bengaluru - CPCB",11-11-2025 07:00:00,12.9135218,77.5950804,PM2.5,48,57,52
India,Karnataka,Bengaluru,"BTM Layout, Bengaluru - CPCB",11-11-2025 07:00:00,12.9135218,77.5950804,NO2,22,29,24
India,Karnataka,Bengaluru,"Jigani, Bengaluru - KSPCB",11-11-2025 07:00:00,12.7816279,77.6299145,PM10,38,333,125
India,Karnataka,Bengaluru,"RVCE-Mailasandra, Bengaluru - KSPCB",11-11-2025 07:00:00,12.921418,77.502466,PM10,58,221,134
India,Karnataka,Bengaluru,"RVCE-Mailasandra, Bengaluru - KSPCB",11-11-2025 07:00:00,12.921418,77.502466,CO,34,56,48
India,Karnataka,Bengaluru,"Sanegurava Halli, Bengaluru - KSPCB",11-11-2025 07:00:00,12.990328,77.5431385,CO,18,54,23
India,Karnataka,Bengaluru,"Shivapura_Peenya, Bengaluru - KSPCB",11-11-2025 07:00:00,13.0246342,77.5080115,PM2.5,60,429,139
India,Karnataka,Bengaluru,"Shivapura_Peenya, Bengaluru - KSPCB",11-11-2025 07:00:00,13.0246342,77.5080115,NO2,34,35,34
India,Karnataka,Bengaluru,"Shivapura_Peenya, Bengaluru - KSPCB",11-11-2025 07:00:00,13.0246342,77.5080115,OZONE,19,20,20
India,Karnataka,Bengaluru,"Silk Board, Bengaluru - KSPCB",11-11-2025 07:00:00,12.917348,77.622813,NO2,9,22,14
