country,state,city,station,last_update,latitude,longitude,pollutant_id,min_value,max_value,avg_value
India,Bihar,Begusarai,"Lohiyanagar, Begusarai - BSPCB",04-11-2025 07:00:00,25.42742023,86.13886079,OZONE,4,16,14
India,Bihar,Bettiah,"Kamalnath Nagar, Bettiah - BSPCB",04-11-2025 07:00:00,26.80365,84.51954,PM2.5,85,304,148
India,Bihar,Bettiah,"Kamalnath Nagar, Bettiah - BSPCB",04-11-2025 07:00:00,26.80365,84.51954,SO2,9,31,17
India,Bihar,Bettiah,"Kamalnath Nagar, Bettiah - BSPCB",04-11-2025 07:00:00,26.80365,84.51954,CO,79,116,93
India,Bihar,Bhagalpur,"DM Office_Kachari Chowk, Bhagalpur - BSPCB",04-11-2025 07:00:00,25.251013,86.989001,NO2,NA,NA,NA
India,Bihar,Bhagalpur,"Mayaganj, Bhagalpur - BSPCB",04-11-2025 07:00:00,25.265194,87.012947,PM10,78,240,138
India,Bihar,Bhagalpur,"Mayaganj, Bhagalpur - BSPCB",04-11-2025 07:00:00,25.265194,87.012947,SO2,24,55,34
India,Bihar,Bihar Sharif,"D M Colony, Bihar Sharif - BSPCB",04-11-2025 07:00:00,25.204762,85.514960,NO2,9,10,9
India,Bihar,Buxar,"Charitra Van, Buxar - BSPCB",04-11-2025 07:00:00,25.567520,83.966379,PM10,71,101,84
India,Assam,Sivasagar,"Girls College, Sivasagar - PCBA",04-11-2025 07:00:00,26.987634,94.636574,CO,8,52,35
India,Assam,Sivasagar,"Girls College, Sivasagar - PCBA",04-11-2025 07:00:00,26.987634,94.636574,OZONE,2,7,2
India,Bihar,Araria,"Kharahiya Basti, Araria - BSPCB",04-11-2025 07:00:00,26.146529,87.454184,NO2,3,87,27
India,Bihar,Araria,"Kharahiya Basti, Araria - BSPCB",04-11-2025 07:00:00,26.146529,87.454184,NH3,7,8,7
India,Bihar,Araria,"Kharahiya Basti, Araria - BSPCB",04-11-2025 07:00:00,26.146529,87.454184,CO,26,37,35
India,Bihar,Arrah,"New DM Office, Arrah - BSPCB",04-11-2025 07:00:00,25.5626095,84.663264,NO2,4,9,7
India,Bihar,Arrah,"New DM Office, Arrah - BSPCB",04-11-2025 07:00:00,25.5626095,84.663264,CO,33,65,54
India,Bihar,Aurangabad,"Gurdeo Nagar, Aurangabad - BSPCB",04-11-2025 07:00:00,24.75746,84.366208,PM2.5,70,207,111
India,Bihar,Aurangabad,"Gurdeo Nagar, Aurangabad - BSPCB",04-11-2025 07:00:00,24.75746,84.366208,NO2,7,8,8
India,Bihar,Aurangabad,"Gurdeo Nagar, Aurangabad - BSPCB",04-11-2025 07:00:00,24.75746,84.366208,OZONE,7,32,10
India,Bihar,Hajipur,"Industrial Area, Hajipur - BSPCB",04-11-2025 07:00:00,25.697189,85.245900,OZONE,1,132,10
India,Bihar,Katihar,"Mirchaibari, Katihar - BSPCB",04-11-2025 07:00:00,25.560083,87.553265,PM2.5,13,100,63
India,Bihar,Katihar,"Mirchaibari, Katihar - BSPCB",04-11-2025 07:00:00,25.560083,87.553265,PM10,13,94,59
India,Bihar,Katihar,"Mirchaibari, Katihar - BSPCB",04-11-2025 07:00:00,25.560083,87.553265,CO,55,83,67
India,Bihar,Kishanganj,"SDM Office_Khagra, Kishanganj - BSPCB",04-11-2025 07:00:00,26.0881305,87.93840336,SO2,6,7,6
India,Bihar,Kishanganj,"SDM Office_Khagra, Kishanganj - BSPCB",04-11-2025 07:00:00,26.0881305,87.93840336,CO,12,14,13
India,Bihar,Manguraha,"Forest Rest House, Manguraha - BSPCB",04-11-2025 07:00:00,27.308328,84.531742,CO,32,33,33
India,Assam,Guwahati,"LGBI Airport, Guwahati - PCBA",04-11-2025 07:00:00,26.10887,91.589544,CO,18,58,36
India,Assam,Guwahati,"Pan Bazaar, Guwahati - PCBA",04-11-2025 07:00:00,26.187500,91.744194,PM10,1,61,29
India,Assam,Guwahati,"Pan Bazaar, Guwahati - PCBA",04-11-2025 07:00:00,26.187500,91.744194,SO2,28,53,41
India,Assam,Guwahati,"Railway Colony, Guwahati - PCBA",04-11-2025 07:00:00,26.181742,91.78063,PM10,13,105,49
India,Assam,Guwahati,"Railway Colony, Guwahati - PCBA",04-11-2025 07:00:00,26.181742,91.78063,SO2,30,32,31
India,Assam,Guwahati,"Railway Colony, Guwahati - PCBA",04-11-2025 07:00:00,26.181742,91.78063,CO,20,96,49
India,Assam,Silchar,"Tarapur, Silchar - PCBA",04-11-2025 07:00:00,24.82827,92.79525,PM2.5,23,41,30
India,Assam,Silchar,"Tarapur, Silchar - PCBA",04-11-2025 07:00:00,24.82827,92.79525,NO2,13,19,16
India,Andhra_Pradesh,Vijayawada,"Rajiv Gandhi Park, Vijayawada - APPCB",04-11-2025 07:00:00,16.509717,80.612222,SO2,10,21,13
India,Andhra_Pradesh,Vijayawada,"Rajiv Nagar, Vijayawada - APPCB",04-11-2025 07:00:00,16.554731,80.649110,CO,30,48,34
India,Andhra_Pradesh,Visakhapatnam,"GVM Corporation, Visakhapatnam - APPCB",04-11-2025 07:00:00,17.72,83.3,NH3,3,3,3
India,Assam,Guwahati,"IITG, Guwahati - PCBA",04-11-2025 07:00:00,26.2028636,91.70046436,NO2,1,4,2
India,Assam,Guwahati,"IITG, Guwahati - PCBA",04-11-2025 07:00:00,26.2028636,91.70046436,NH3,5,5,5
India,Assam,Guwahati,"LGBI Airport, Guwahati - PCBA",04-11-2025 07:00:00,26.10887,91.589544,SO2,7,17,13
India,Bihar,Motihari,"Gandak Colony, Motihari - BSPCB",04-11-2025 07:00:00,26.63086,84.90051,SO2,2,3,3
India,Bihar,Munger,"Town Hall, Munger - BSPCB",04-11-2025 07:00:00,25.376776,86.471523,PM10,61,159,102
India,Bihar,Munger,"Town Hall, Munger - BSPCB",04-11-2025 07:00:00,25.376776,86.471523,SO2,16,21,18
India,Bihar,Munger,"Town Hall, Munger - BSPCB",04-11-2025 07:00:00,25.376776,86.471523,CO,6,36,17
India,Bihar,Munger,"Town Hall, Munger - BSPCB",04-11-2025 07:00:00,25.376776,86.471523,OZONE,11,16,11
India,Bihar,Muzaffarpur,"Buddha Colony, Muzaffarpur - BSPCB",04-11-2025 07:00:00,26.11442,85.39813,NH3,8,9,8
India,Andhra_Pradesh,Kadapa,"Yerramukkapalli, Kadapa - APPCB",04-11-2025 07:00:00,14.465052,78.824187,OZONE,7,10,10
India,Andhra_Pradesh,Tirumala,"Toll Gate, Tirumala - APPCB",04-11-2025 07:00:00,13.67,79.35,PM10,28,60,42
India,Andhra_Pradesh,Tirumala,"Toll Gate, Tirumala - APPCB",04-11-2025 07:00:00,13.67,79.35,NO2,12,22,18
India,Andhra_Pradesh,Tirumala,"Toll Gate, Tirumala - APPCB",04-11-2025 07:00:00,13.67,79.35,OZONE,16,30,24
India,Andhra_Pradesh,Vijayawada,"HB Colony, Vijayawada - APPCB",04-11-2025 07:00:00,16.536107,80.594233,NH3,4,4,4
India,Bihar,Patna,"DRM Office Danapur, Patna - BSPCB",04-11-2025 07:00:00,25.586562,85.043586,OZONE,8,42,9
India,Bihar,Patna,"IGSC Planetarium Complex, Patna - BSPCB",04-11-2025 07:00:00,25.610369,85.132568,NO2,20,23,21
India,Bihar,Patna,"Muradpur, Patna - BSPCB",04-11-2025 07:00:00,25.619651,85.147382,NO2,3,4,3
India,Bihar,Patna,"Muradpur, Patna - BSPCB",04-11-2025 07:00:00,25.619651,85.147382,SO2,8,10,9
India,Bihar,Patna,"Rajbansi Nagar, Patna - BSPCB",04-11-2025 07:00:00,25.599486,85.113666,PM2.5,99,200,165
India,Andhra_Pradesh,Amaravati,"Secretariat, Amaravati - APPCB",04-11-2025 07:00:00,16.5150833,80.5181667,CO,14,34,24
India,Andhra_Pradesh,Anantapur,"Gulzarpet, Anantapur - APPCB",04-11-2025 07:00:00,14.675886,77.593027,NH3,4,5,5
India,Andhra_Pradesh,Anantapur,"Gulzarpet, Anantapur - APPCB",04-11-2025 07:00:00,14.675886,77.593027,OZONE,30,52,38
India,Andhra_Pradesh,Kadapa,"Yerramukkapalli, Kadapa - APPCB",04-11-2025 07:00:00,14.465052,78.824187,NO2,19,19,19
India,Bihar,Chhapra,"Darshan Nagar, Chhapra - BSPCB",04-11-2025 07:00:00,25.7808257,84.7446768,PM2.5,8,42,25
India,Bihar,Chhapra,"Darshan Nagar, Chhapra - BSPCB",04-11-2025 07:00:00,25.7808257,84.7446768,SO2,20,22,20
India,Chandigarh,Chandigarh,"Sector 22, Chandigarh - CPCC",04-11-2025 07:00:00,30.735567,76.775714,SO2,4,13,8
India,Chandigarh,Chandigarh,"Sector 22, Chandigarh - CPCC",04-11-2025 07:00:00,30.735567,76.775714,CO,52,183,78
India,Chandigarh,Chandigarh,"Sector 22, Chandigarh - CPCC",04-11-2025 07:00:00,30.735567,76.775714,OZONE,5,67,29
India,Chandigarh,Chandigarh,"Sector-53, Chandigarh - CPCC",04-11-2025 07:00:00,30.719859,76.738637,PM10,31,177,91
India,Chandigarh,Chandigarh,"Sector-53, Chandigarh - CPCC",04-11-2025 07:00:00,30.719859,76.738637,SO2,7,12,10
India,Chandigarh,Chandigarh,"Sector-53, Chandigarh - CPCC",04-11-2025 07:00:00,30.719859,76.738637,OZONE,4,82,14
India,Chhattisgarh,Bhilai,"32Bungalows, Bhilai - CECB",04-11-2025 07:00:00,21.194815,81.314770,PM2.5,12,22,17
India,Chhattisgarh,Bhilai,"Civic Center, Bhilai - Bhilai Steel Plant",04-11-2025 07:00:00,21.185571,81.343175,NO2,NA,NA,NA
India,Bihar,Rajgir,"Dangi Tola, Rajgir - BSPCB",04-11-2025 07:00:00,25.03280,85.41948,CO,70,100,88
India,Bihar,Saharsa,"Police Line, Saharsa - BSPCB",04-11-2025 07:00:00,25.892357,86.590325,PM2.5,43,193,89
India,Bihar,Saharsa,"Police Line, Saharsa - BSPCB",04-11-2025 07:00:00,25.892357,86.590325,NO2,6,8,7
India,Bihar,Saharsa,"Police Line, Saharsa - BSPCB",04-11-2025 07:00:00,25.892357,86.590325,OZONE,6,36,11
India,Bihar,Samastipur,"DM Office_Kasipur, Samastipur - BSPCB",04-11-2025 07:00:00,25.859655,85.77944,PM2.5,45,170,69
India,Bihar,Sasaram,"Dada Peer, Sasaram - BSPCB",04-11-2025 07:00:00,24.952822,84.002396,OZONE,16,43,17
India,Bihar,Siwan,"Chitragupta Nagar, Siwan - BSPCB",04-11-2025 07:00:00,26.2271665,84.3570427,OZONE,6,11,7
India,Delhi,Delhi,"Dwarka-Sector 8, Delhi - DPCC ",04-11-2025 07:00:00,28.5710274,77.0719006,PM10,141,445,262
India,Delhi,Delhi,"Dwarka-Sector 8, Delhi - DPCC ",04-11-2025 07:00:00,28.5710274,77.0719006,CO,36,177,100
India,Delhi,Delhi,"IGI Airport (T3), Delhi - IMD",04-11-2025 07:00:00,28.5627763,77.1180053,OZONE,1,4,2
India,Delhi,Delhi,"IHBAS, Dilshad Garden, Delhi - CPCB",04-11-2025 07:00:00,28.6811736,77.3025234,NO2,50,56,52
India,Delhi,Delhi,"ITO, Delhi - CPCB",04-11-2025 07:00:00,28.628624,77.241060,PM10,153,425,269
India,Delhi,Delhi,"ITO, Delhi - CPCB",04-11-2025 07:00:00,28.628624,77.241060,NO2,25,239,120
India,Chhattisgarh,Bhilai,"Civic Center, Bhilai - Bhilai Steel Plant",04-11-2025 07:00:00,21.185571,81.343175,NH3,NA,NA,NA
India,Chhattisgarh,Bhilai,"Hathkhoj, Bhilai - CECB",04-11-2025 07:00:00,21.224231,81.408350,NH3,3,4,4
India,Chhattisgarh,Chhal,"Nawapara SECL Colony, Chhal - CECB",04-11-2025 07:00:00,22.118125,83.140608,PM2.5,37,145,65
India,Chhattisgarh,Chhal,"Nawapara SECL Colony, Chhal - CECB",04-11-2025 07:00:00,22.118125,83.140608,SO2,2,30,10
India,Chhattisgarh,Korba,"Rampur, Korba - CECB",04-11-2025 07:00:00,22.368195,82.746431,PM2.5,53,75,66
India,Chhattisgarh,Korba,"Urja Nagar, Korba - CECB",04-11-2025 07:00:00,22.348441,82.549611,NO2,14,39,26
India,Chhattisgarh,Korba,"Urja Nagar, Korba - CECB",04-11-2025 07:00:00,22.348441,82.549611,SO2,4,14,9
India,Chhattisgarh,Kunjemura,"OP Jindal School, Kunjemura - CECB",04-11-2025 07:00:00,22.126650,83.483212,PM10,NA,NA,NA
India,Chhattisgarh,Kunjemura,"OP Jindal School, Kunjemura - CECB",04-11-2025 07:00:00,22.126650,83.483212,SO2,3,16,9
India,Chhattisgarh,Kunjemura,"OP Jindal School, Kunjemura - CECB",04-11-2025 07:00:00,22.126650,83.483212,OZONE,11,25,12
India,Chhattisgarh,Raipur,"AIIMS, Raipur - CECB",04-11-2025 07:00:00,21.258815,81.578979,NH3,4,5,4
India,Delhi,Delhi,"Alipur, Delhi - DPCC",04-11-2025 07:00:00,28.815329,77.153010,CO,70,138,129
India,Delhi,Delhi,"Anand Vihar, Delhi - DPCC",04-11-2025 07:00:00,28.647622,77.3158090,NH3,9,19,11
India,Delhi,Delhi,"Ashok Vihar, Delhi - DPCC",04-11-2025 07:00:00,28.695381,77.181665,PM10,207,440,320
India,Delhi,Delhi,"Aya Nagar, Delhi - IMD",04-11-2025 07:00:00,28.4706914,77.1099364,CO,2,107,32
India,Delhi,Delhi,"Aya Nagar, Delhi - IMD",04-11-2025 07:00:00,28.4706914,77.1099364,OZONE,2,122,7
India,Chhattisgarh,Raipur,"Bhatagaon New ISBT, Raipur - CECB",04-11-2025 07:00:00,21.219665,81.630094,NO2,1,38,14
India,Chhattisgarh,Raipur,"Bhatagaon New ISBT, Raipur - CECB",04-11-2025 07:00:00,21.219665,81.630094,SO2,6,11,9
India,Chhattisgarh,Raipur,"Krishak Nagar, Raipur - CECB",04-11-2025 07:00:00,21.237755,81.705301,PM10,56,101,73
India,Chhattisgarh,Raipur,"Krishak Nagar, Raipur - CECB",04-11-2025 07:00:00,21.237755,81.705301,OZONE,2,6,2
India,Chhattisgarh,Raipur,"Siltara Phase-II, Raipur - CECB",04-11-2025 07:00:00,21.371751,81.664929,PM2.5,33,84,56
India,Delhi,Delhi,"Bawana, Delhi - DPCC",04-11-2025 07:00:00,28.776200,77.051074,OZONE,5,143,7
India,Delhi,Delhi,"CRRI Mathura Road, Delhi - IMD",04-11-2025 07:00:00,28.5512005,77.2735737,PM2.5,181,389,322
India,Delhi,Delhi,"Chandni Chowk, Delhi - IITM",04-11-2025 07:00:00,28.656756,77.227234,CO,43,128,112
India,Delhi,Delhi,"DTU, Delhi - CPCB",04-11-2025 07:00:00,28.7500499,77.1112615,NO2,42,61,51
India,Bihar,Patna,"Samanpura, Patna - BSPCB",04-11-2025 07:00:00,25.596727,85.085624,PM10,184,402,269
India,Bihar,Patna,"Samanpura, Patna - BSPCB",04-11-2025 07:00:00,25.596727,85.085624,SO2,1,1,1
India,Delhi,Delhi,"Sri Aurobindo Marg, Delhi - DPCC",04-11-2025 07:00:00,28.531346,77.190156,SO2,4,8,5
India,Delhi,Delhi,"Vivek Vihar, Delhi - DPCC",04-11-2025 07:00:00,28.672342,77.315260,PM2.5,330,492,391
India,Delhi,Delhi,"Vivek Vihar, Delhi - DPCC",04-11-2025 07:00:00,28.672342,77.315260,SO2,11,28,17
India,Delhi,Delhi,"Vivek Vihar, Delhi - DPCC",04-11-2025 07:00:00,28.672342,77.315260,CO,68,153,115
India,Delhi,Delhi,"Wazirpur, Delhi - DPCC",04-11-2025 07:00:00,28.699793,77.165453,PM2.5,324,456,393
India,Delhi,Delhi,"Wazirpur, Delhi - DPCC",04-11-2025 07:00:00,28.699793,77.165453,NO2,73,137,96
India,Delhi,Delhi,"Wazirpur, Delhi - DPCC",04-11-2025 07:00:00,28.699793,77.165453,NH3,8,11,10
India,Delhi,Delhi,"Wazirpur, Delhi - DPCC",04-11-2025 07:00:00,28.699793,77.165453,OZONE,11,173,15
India,Gujarat,Ahmedabad,"Chandkheda, Ahmedabad - IITM",04-11-2025 07:00:00,23.107969,72.574648,NO2,7,37,14
India,Delhi,Delhi,"Mandir Marg, Delhi - DPCC",04-11-2025 07:00:00,28.636429,77.201067,PM2.5,33,452,271
India,Delhi,Delhi,"Mandir Marg, Delhi - DPCC",04-11-2025 07:00:00,28.636429,77.201067,PM10,92,414,187
India,Delhi,Delhi,"Mundka, Delhi - DPCC",04-11-2025 07:00:00,28.684678,77.076574,PM2.5,170,439,343
India,Delhi,Delhi,"Mundka, Delhi - DPCC",04-11-2025 07:00:00,28.684678,77.076574,PM10,155,500,319
India,Delhi,Delhi,"NSIT Dwarka, Delhi - CPCB",04-11-2025 07:00:00,28.60909,77.0325413,OZONE,15,24,16
India,Delhi,Delhi,"Najafgarh, Delhi - DPCC",04-11-2025 07:00:00,28.570173,76.933762,NH3,4,5,4
India,Delhi,Delhi,"Narela, Delhi - DPCC",04-11-2025 07:00:00,28.822836,77.101981,PM2.5,316,445,388
India,Delhi,Delhi,"Narela, Delhi - DPCC",04-11-2025 07:00:00,28.822836,77.101981,PM10,216,436,350
India,Gujarat,Ahmedabad,"SAC ISRO Bopal, Ahmedabad - IITM",04-11-2025 07:00:00,23.041137,72.456691,CO,6,20,12
India,Gujarat,Ahmedabad,"SAC ISRO Satellite, Ahmedabad - IITM",04-11-2025 07:00:00,23.023389,72.515201,PM10,8,51,32
India,Gujarat,Ahmedabad,"SAC ISRO Satellite, Ahmedabad - IITM",04-11-2025 07:00:00,23.023389,72.515201,OZONE,7,47,14
India,Gujarat,Ahmedabad,"SVPI Airport Hansol, Ahmedabad - IITM",04-11-2025 07:00:00,23.076793,72.627874,PM2.5,17,27,21
India,Gujarat,Ankleshwar,"GIDC, Ankleshwar - GPCB",04-11-2025 07:00:00,21.613267,73.010555,PM2.5,16,80,50
India,Gujarat,Ankleshwar,"GIDC, Ankleshwar - GPCB",04-11-2025 07:00:00,21.613267,73.010555,OZONE,47,73,68
India,Gujarat,Gandhinagar,"GIFT City, Gandhinagar - IITM",04-11-2025 07:00:00,23.163798,72.677768,NO2,9,32,18
India,Delhi,Delhi,"Jahangirpuri, Delhi - DPCC",04-11-2025 07:00:00,28.732820,77.170633,NO2,72,144,114
India,Delhi,Delhi,"Jahangirpuri, Delhi - DPCC",04-11-2025 07:00:00,28.732820,77.170633,CO,7,180,124
India,Delhi,Delhi,"Lodhi Road, Delhi - IITM",04-11-2025 07:00:00,28.588333,77.221667,NO2,92,232,134
India,Delhi,Delhi,"Lodhi Road, Delhi - IITM",04-11-2025 07:00:00,28.588333,77.221667,SO2,1,40,13
India,Delhi,Delhi,"Lodhi Road, Delhi - IMD",04-11-2025 07:00:00,28.5918245,77.2273074,PM2.5,94,390,259
India,Delhi,Delhi,"Major Dhyan Chand National Stadium, Delhi - DPCC",04-11-2025 07:00:00,28.611281,77.237738,NH3,14,21,16
India,Gujarat,Gandhinagar,"IIPHG Lekawada, Gandhinagar - IITM",04-11-2025 07:00:00,23.243639,72.68994,OZONE,1,243,3
India,Gujarat,Gandhinagar,"Sector-10, Gandhinagar - GPCB",04-11-2025 07:00:00,23.221714,72.654328,NH3,1,1,1
India,Gujarat,Vapi,"Phase-1 GIDC, Vapi - GPCB",04-11-2025 07:00:00,20.362421,72.918013,PM2.5,39,109,60
India,Gujarat,Vapi,"Phase-1 GIDC, Vapi - GPCB",04-11-2025 07:00:00,20.362421,72.918013,PM10,28,154,71
India,Gujarat,Vapi,"Phase-1 GIDC, Vapi - GPCB",04-11-2025 07:00:00,20.362421,72.918013,SO2,41,53,44
India,Gujarat,Ahmedabad,"Gyaspur, Ahmedabad - IITM",04-11-2025 07:00:00,22.977134,72.553024,NH3,2,9,5
India,Gujarat,Ahmedabad,"Gyaspur, Ahmedabad - IITM",04-11-2025 07:00:00,22.977134,72.553024,OZONE,9,24,16
India,Gujarat,Ahmedabad,"Raikhad, Ahmedabad - IITM",04-11-2025 07:00:00,23.020509,72.579261,PM2.5,27,54,39
India,Gujarat,Ahmedabad,"Raikhad, Ahmedabad - IITM",04-11-2025 07:00:00,23.020509,72.579261,NH3,2,13,10
India,Gujarat,Ahmedabad,"Raikhad, Ahmedabad - IITM",04-11-2025 07:00:00,23.020509,72.579261,CO,4,28,11
India,Gujarat,Ahmedabad,"Rakhial, Ahmedabad - IITM",04-11-2025 07:00:00,23.016834,72.625775,PM10,41,65,52
India,Delhi,Delhi,"Nehru Nagar, Delhi - DPCC",04-11-2025 07:00:00,28.567890,77.250515,OZONE,4,265,5
India,Delhi,Delhi,"North Campus, DU, Delhi - IMD",04-11-2025 07:00:00,28.6573814,77.1585447,NO2,98,216,150
India,Delhi,Delhi,"Patparganj, Delhi - DPCC",04-11-2025 07:00:00,28.623763,77.287209,NO2,55,171,103
India,Delhi,Delhi,"Patparganj, Delhi - DPCC",04-11-2025 07:00:00,28.623763,77.287209,SO2,6,15,9
India,Delhi,Delhi,"R K Puram, Delhi - DPCC",04-11-2025 07:00:00,28.563262,77.186937,PM2.5,133,416,294
India,Delhi,Delhi,"R K Puram, Delhi - DPCC",04-11-2025 07:00:00,28.563262,77.186937,SO2,4,20,15
India,Delhi,Delhi,"R K Puram, Delhi - DPCC",04-11-2025 07:00:00,28.563262,77.186937,CO,26,143,118
India,Delhi,Delhi,"Rohini, Delhi - DPCC",04-11-2025 07:00:00,28.732528,77.119920,SO2,3,9,6
India,Delhi,Delhi,"Shadipur, Delhi - CPCB",04-11-2025 07:00:00,28.6514781,77.1473105,PM10,185,500,299
India,Delhi,Delhi,"Sirifort, Delhi - CPCB",04-11-2025 07:00:00,28.5504249,77.2159377,NH3,6,13,9
India,Delhi,Delhi,"Sirifort, Delhi - CPCB",04-11-2025 07:00:00,28.5504249,77.2159377,SO2,26,35,29
India,Haryana,Gurugram,"Sector-51, Gurugram - HSPCB",04-11-2025 07:00:00,28.4227,77.0667,NH3,6,6,6
India,Haryana,Gurugram,"Sector-51, Gurugram - HSPCB",04-11-2025 07:00:00,28.4227,77.0667,SO2,5,14,9
India,Haryana,Gurugram,"Teri Gram, Gurugram - HSPCB",04-11-2025 07:00:00,28.4275,77.1465,PM10,50,57,52
India,Haryana,Gurugram,"Teri Gram, Gurugram - HSPCB",04-11-2025 07:00:00,28.4275,77.1465,OZONE,24,24,24
India,Haryana,Gurugram,"Vikas Sadan, Gurugram - HSPCB",04-11-2025 07:00:00,28.4501238,77.0263051,PM10,NA,NA,NA
India,Haryana,Gurugram,"Vikas Sadan, Gurugram - HSPCB",04-11-2025 07:00:00,28.4501238,77.0263051,SO2,2,8,5
India,Haryana,Hisar,"Urban Estate-II, Hisar - HSPCB",04-11-2025 07:00:00,29.140560,75.744941,CO,55,125,62
India,Haryana,Hisar,"Urban Estate-II, Hisar - HSPCB",04-11-2025 07:00:00,29.140560,75.744941,OZONE,44,90,49
India,Haryana,Jind,"Police Lines, Jind - HSPCB",04-11-2025 07:00:00,29.307814,76.337619,SO2,27,30,28
India,Gujarat,Vatva,"Phase-4 GIDC, Vatva - GPCB",04-11-2025 07:00:00,22.969611,72.643500,PM10,27,82,42
India,Haryana,Ambala,"Patti Mehar, Ambala - HSPCB",04-11-2025 07:00:00,30.379589,76.778328,SO2,31,32,31
India,Haryana,Bahadurgarh,"Arya Nagar, Bahadurgarh - HSPCB",04-11-2025 07:00:00,28.6701,76.9254,PM2.5,2,309,86
India,Haryana,Bahadurgarh,"Arya Nagar, Bahadurgarh - HSPCB",04-11-2025 07:00:00,28.6701,76.9254,PM10,2,217,75
India,Haryana,Ballabgarh,"Nathu Colony, Ballabgarh - HSPCB",04-11-2025 07:00:00,28.3419248,77.319699,NO2,19,21,20
India,Haryana,Ballabgarh,"Nathu Colony, Ballabgarh - HSPCB",04-11-2025 07:00:00,28.3419248,77.319699,SO2,6,11,9
India,Haryana,Ballabgarh,"Nathu Colony, Ballabgarh - HSPCB",04-11-2025 07:00:00,28.3419248,77.319699,OZONE,15,16,15
India,Haryana,Manesar,"Sector-2 IMT, Manesar - HSPCB",04-11-2025 07:00:00,28.360699,76.936090,NO2,32,37,34
India,Haryana,Manesar,"Sector-2 IMT, Manesar - HSPCB",04-11-2025 07:00:00,28.360699,76.936090,SO2,8,13,11
India,Haryana,Palwal,"Shyam Nagar, Palwal - HSPCB",04-11-2025 07:00:00,28.1485564,77.3320667,SO2,12,13,13
India,Haryana,Palwal,"Shyam Nagar, Palwal - HSPCB",04-11-2025 07:00:00,28.1485564,77.3320667,OZONE,24,25,24
India,Haryana,Panchgaon,"Amity University, Panchgaon - IITM",04-11-2025 07:00:00,28.3153,76.9143,NH3,9,17,11
India,Haryana,Panchgaon,"Amity University, Panchgaon - IITM",04-11-2025 07:00:00,28.3153,76.9143,SO2,2,16,7
India,Haryana,Panchkula,"Sector-6, Panchkula - HSPCB ",04-11-2025 07:00:00,30.7057778,76.8531805555555,PM2.5,51,307,216
India,Haryana,Faridabad,"Sector 11, Faridabad - HSPCB",04-11-2025 07:00:00,28.376058,77.315741,NO2,2,56,23
India,Haryana,Faridabad,"Sector 11, Faridabad - HSPCB",04-11-2025 07:00:00,28.376058,77.315741,SO2,3,127,58
India,Haryana,Faridabad,"Sector 11, Faridabad - HSPCB",04-11-2025 07:00:00,28.376058,77.315741,OZONE,1,92,2
India,Haryana,Faridabad,"Sector 30, Faridabad - HSPCB",04-11-2025 07:00:00,28.4417,77.3217,PM2.5,163,172,167
India,Haryana,Faridabad,"Sector 30, Faridabad - HSPCB",04-11-2025 07:00:00,28.4417,77.3217,CO,58,67,63
India,Haryana,Fatehabad,"Huda Sector, Fatehabad - HSPCB",04-11-2025 07:00:00,29.503664,75.467934,NO2,18,20,19
India,Haryana,Fatehabad,"Huda Sector, Fatehabad - HSPCB",04-11-2025 07:00:00,29.503664,75.467934,OZONE,11,30,12
India,Haryana,Yamuna Nagar,"Gobind Pura, Yamuna Nagar - HSPCB",04-11-2025 07:00:00,30.1480566,77.2893471,NO2,11,11,11
India,Himachal Pradesh,Baddi,"HIMUDA Complex Phase-1, Baddi - HPPCB",04-11-2025 07:00:00,30.943887,76.801991,NH3,3,7,5
India,Jharkhand,Jorapokhar,"Tata Stadium, Jorapokhar - JSPCB",04-11-2025 07:00:00,23.707909,86.414670,SO2,NA,NA,NA
India,Karnataka,Belgaum,"Ramteerth Nagar, Belgaum - KSPCB",04-11-2025 07:00:00,15.888653,74.541751,PM10,NA,NA,NA
India,Karnataka,Bengaluru,"Bapuji Nagar, Bengaluru - KSPCB",04-11-2025 07:00:00,12.951913,77.539784,PM10,51,144,97
India,Karnataka,Bengaluru,"Bapuji Nagar, Bengaluru - KSPCB",04-11-2025 07:00:00,12.951913,77.539784,NH3,1,2,1
India,Karnataka,Bengaluru,"Bapuji Nagar, Bengaluru - KSPCB",04-11-2025 07:00:00,12.951913,77.539784,OZONE,1,39,4
India,Karnataka,Bengaluru,"City Railway Station, Bengaluru - KSPCB",04-11-2025 07:00:00,12.9756843,77.5660749,PM10,94,105,102
India,Karnataka,Bengaluru,"City Railway Station, Bengaluru - KSPCB",04-11-2025 07:00:00,12.9756843,77.5660749,SO2,10,19,14
India,Haryana,Karnal,"Sector-12, Karnal - HSPCB",04-11-2025 07:00:00,29.695300,77.002700,NO2,9,11,10
India,Haryana,Karnal,"Sector-12, Karnal - HSPCB",04-11-2025 07:00:00,29.695300,77.002700,NH3,6,7,6
India,Haryana,Karnal,"Sector-12, Karnal - HSPCB",04-11-2025 07:00:00,29.695300,77.002700,OZONE,26,26,26
India,Haryana,Mandikhera,"General Hospital, Mandikhera - HSPCB",04-11-2025 07:00:00,27.9002,76.9938,SO2,30,37,34
India,Haryana,Panchkula,"Sector-6, Panchkula - HSPCB ",04-11-2025 07:00:00,30.7057778,76.8531805555555,OZONE,23,75,47
India,Haryana,Sirsa,"F-Block, Sirsa - HSPCB",04-11-2025 07:00:00,29.536400,75.015800,OZONE,51,60,55
India,Haryana,Sonipat,"Murthal, Sonipat - HSPCB",04-11-2025 07:00:00,29.027200,77.062100,NO2,12,64,48
India,Haryana,Charkhi Dadri,"Mini Secretariat, Charkhi Dadri - HSPCB",04-11-2025 07:00:00,28.593883,76.270653,NO2,9,23,15
India,Haryana,Charkhi Dadri,"Mini Secretariat, Charkhi Dadri - HSPCB",04-11-2025 07:00:00,28.593883,76.270653,OZONE,13,17,15
India,Haryana,Faridabad,"New Industrial Town, Faridabad - HSPCB",04-11-2025 07:00:00,28.39072,77.30059,NH3,10,12,11
India,Kerala,Kollam,"Polayathode, Kollam - Kerala PCB",04-11-2025 07:00:00,8.8787,76.6073,SO2,NA,NA,NA
India,Kerala,Thiruvananthapuram,"Kariavattom, Thiruvananthapuram - Kerala PCB",04-11-2025 07:00:00,8.563700,76.886500,PM10,43,51,48
India,Kerala,Thiruvananthapuram,"Kariavattom, Thiruvananthapuram - Kerala PCB",04-11-2025 07:00:00,8.563700,76.886500,NO2,6,7,7
India,Kerala,Thiruvananthapuram,"Kariavattom, Thiruvananthapuram - Kerala PCB",04-11-2025 07:00:00,8.563700,76.886500,SO2,1,16,5
India,Kerala,Thiruvananthapuram,"Plammoodu, Thiruvananthapuram - Kerala PCB",04-11-2025 07:00:00,8.5149093,76.9435879,CO,6,44,9
India,Kerala,Thiruvananthapuram,"Plammoodu, Thiruvananthapuram - Kerala PCB",04-11-2025 07:00:00,8.5149093,76.9435879,OZONE,19,24,22
India,Kerala,Thrissur,"Corporation Ground, Thrissur - Kerala PCB",04-11-2025 07:00:00,10.532400,76.215900,PM10,47,58,53
India,Kerala,Thrissur,"Corporation Ground, Thrissur - Kerala PCB",04-11-2025 07:00:00,10.532400,76.215900,NO2,7,9,8
India,Madhya Pradesh,Bhopal,"Idgah Hills, Bhopal - MPPCB",04-11-2025 07:00:00,23.264759,77.381568,PM2.5,60,333,115
India,Madhya Pradesh,Bhopal,"Idgah Hills, Bhopal - MPPCB",04-11-2025 07:00:00,23.264759,77.381568,NO2,13,67,26
India,Karnataka,Bengaluru,"Hombegowda Nagar, Bengaluru - KSPCB",04-11-2025 07:00:00,12.938539,77.590100,PM10,47,74,59
India,Karnataka,Bengaluru,"Hombegowda Nagar, Bengaluru - KSPCB",04-11-2025 07:00:00,12.938539,77.590100,NH3,2,3,2
India,Karnataka,Bengaluru,"Hombegowda Nagar, Bengaluru - KSPCB",04-11-2025 07:00:00,12.938539,77.590100,SO2,5,16,9
India,Karnataka,Bengaluru,"Hombegowda Nagar, Bengaluru - KSPCB",04-11-2025 07:00:00,12.938539,77.590100,CO,9,26,17
India,Karnataka,Bengaluru,"Jayanagar 5th Block, Bengaluru - KSPCB",04-11-2025 07:00:00,12.920984,77.584908,PM2.5,28,78,55
India,Karnataka,Bengaluru,"Jigani, Bengaluru - KSPCB",04-11-2025 07:00:00,12.7816279,77.6299145,SO2,21,21,21
India,Karnataka,Bengaluru,"Jigani, Bengaluru - KSPCB",04-11-2025 07:00:00,12.7816279,77.6299145,CO,28,30,29
India,Karnataka,Bengaluru,"Jigani, Bengaluru - KSPCB",04-11-2025 07:00:00,12.7816279,77.6299145,OZONE,21,23,23
India,Karnataka,Bengaluru,"Kasturi Nagar, Bengaluru - KSPCB",04-11-2025 07:00:00,13.003872,77.664217,PM2.5,47,54,51
India,Karnataka,Bengaluru,"Kasturi Nagar, Bengaluru - KSPCB",04-11-2025 07:00:00,13.003872,77.664217,SO2,4,11,10
India,Karnataka,Bengaluru,"Kasturi Nagar, Bengaluru - KSPCB",04-11-2025 07:00:00,13.003872,77.664217,CO,28,52,41
India,Karnataka,Chamarajanagar,"Urban, Chamarajanagar - KSPCB",04-11-2025 07:00:00,11.55358,76.55521,NO2,14,35,20
India,Karnataka,Chikkamagaluru,"Kalyana Nagara, Chikkamagaluru - KSPCB",04-11-2025 07:00:00,13.328028,75.797056,NH3,3,3,3
India,Karnataka,Chikkamagaluru,"Kalyana Nagara, Chikkamagaluru - KSPCB",04-11-2025 07:00:00,13.328028,75.797056,OZONE,19,52,22
India,Karnataka,Davanagere,"Devaraj Urs Badavane, Davanagere - KSPCB",04-11-2025 07:00:00,14.475800,75.905200,PM2.5,15,44,24
India,Karnataka,Davanagere,"Devaraj Urs Badavane, Davanagere - KSPCB",04-11-2025 07:00:00,14.475800,75.905200,NO2,14,32,23
India,Karnataka,Dharwad,"Kalabhavan, Dharwad - KSPCB",04-11-2025 07:00:00,15.459706,75.008381,PM2.5,42,85,54
India,Karnataka,Kalaburagi,"Mahatma Basaveswar Colony, Kalaburgi - KSPCB",04-11-2025 07:00:00,17.336318,76.847397,NO2,NA,NA,NA
India,Karnataka,Kalaburagi,"Mahatma Basaveswar Colony, Kalaburgi - KSPCB",04-11-2025 07:00:00,17.336318,76.847397,CO,18,45,36
India,Karnataka,Madikeri,"Stuart Hill, Madikeri - KSPCB",04-11-2025 07:00:00,12.415911,75.735050,PM10,16,32,24
India,Karnataka,Madikeri,"Stuart Hill, Madikeri - KSPCB",04-11-2025 07:00:00,12.415911,75.735050,OZONE,3,7,5
India,Karnataka,Mysuru,"Hebbal 1st Stage, Mysuru - KSPCB",04-11-2025 07:00:00,12.21041,76.37376,PM2.5,15,46,26
India,Karnataka,Mysuru,"Hebbal 1st Stage, Mysuru - KSPCB",04-11-2025 07:00:00,12.21041,76.37376,PM10,27,76,53
India,Madhya Pradesh,Bhopal,"Paryavaran Parisar, Bhopal - MPPCB",04-11-2025 07:00:00,23.210494,77.425409,OZONE,19,73,31
India,Madhya Pradesh,Bhopal,"T T Nagar, Bhopal - MPPCB",04-11-2025 07:00:00,23.233584,77.400574,PM2.5,62,281,117
India,Madhya Pradesh,Dewas,"Bhopal Chauraha, Dewas - MPPCB",04-11-2025 07:00:00,22.9682591,76.064118,NO2,9,10,9
India,Madhya Pradesh,Dewas,"Bhopal Chauraha, Dewas - MPPCB",04-11-2025 07:00:00,22.9682591,76.064118,NH3,3,3,3
India,Madhya Pradesh,Dewas,"Bhopal Chauraha, Dewas - MPPCB",04-11-2025 07:00:00,22.9682591,76.064118,CO,10,50,17
India,Karnataka,Bengaluru,"Sanegurava Halli, Bengaluru - KSPCB",04-11-2025 07:00:00,12.990328,77.5431385,CO,21,36,27
India,Karnataka,Bengaluru,"Shivapura_Peenya, Bengaluru - KSPCB",04-11-2025 07:00:00,13.0246342,77.5080115,PM10,43,118,79
India,Karnataka,Bengaluru,"Shivapura_Peenya, Bengaluru - KSPCB",04-11-2025 07:00:00,13.0246342,77.5080115,NO2,34,35,34
India,Karnataka,Bengaluru,"Shivapura_Peenya, Bengaluru - KSPCB",04-11-2025 07:00:00,13.0246342,77.5080115,SO2,7,10,9
India,Karnataka,Bengaluru,"Silk Board, Bengaluru - KSPCB",04-11-2025 07:00:00,12.917348,77.622813,NH3,2,2,2
India,Karnataka,Haveri,"Ashwini Nagar, Haveri - KSPCB",04-11-2025 07:00:00,14.791800,75.389600,PM2.5,46,57,50
India,Karnataka,Haveri,"Ashwini Nagar, Haveri - KSPCB",04-11-2025 07:00:00,14.791800,75.389600,SO2,15,17,16
India,Karnataka,Hubballi,"Lingaraj Nagar, Hubballi - KSPCB",04-11-2025 07:00:00,15.3714823,75.1160168,SO2,1,2,1
India,Karnataka,Kalaburagi,"Lal Bahadur Shastri Nagar, Kalaburagi - KSPCB",04-11-2025 07:00:00,17.321993,76.822628,OZONE,20,20,20
India,Karnataka,Ramanagara,"Vijay Nagar, Ramanagara - KSPCB",04-11-2025 07:00:00,12.733409,77.298051,PM2.5,NA,NA,NA
India,Karnataka,Shivamogga,"Vinoba Nagara, Shivamogga - KSPCB",04-11-2025 07:00:00,13.940000,75.555917,NO2,14,23,16
India,Karnataka,Tumakuru,"Thimmalapura, Tumakuru - KSPCB",04-11-2025 07:00:00,13.377516,77.099072,PM10,NA,NA,NA
India,Karnataka,Vijayapura,"Ibrahimpur, Vijayapura - KSPCB",04-11-2025 07:00:00,16.802639,75.722694,PM2.5,NA,NA,NA
India,Karnataka,Yadgir,"Collector Office, Yadgir - KSPCB",04-11-2025 07:00:00,16.7602,77.1428,CO,12,29,14
India,Kerala,Eloor,"Udyogamandal, Eloor - Kerala PCB",04-11-2025 07:00:00,10.073232,76.302765,PM10,43,77,54
India,Kerala,Kollam,"Polayathode, Kollam - Kerala PCB",04-11-2025 07:00:00,8.8787,76.6073,PM2.5,NA,NA,NA
India,Maharashtra,Jalgaon,"Prabhat Colony, Jalgaon - MPCB",04-11-2025 07:00:00,21.001264,75.565602,SO2,6,8,7
India,Maharashtra,Jalna,"Old MIDC, Jalna - MPCB",04-11-2025 07:00:00,19.854616,75.905894,CO,6,21,15
India,Maharashtra,Kalyan,"Pimpleshwar Mandir, Kalyan - MPCB",04-11-2025 07:00:00,19.192056,72.9585188,PM10,28,110,63
India,Maharashtra,Kolhapur,"Shivaji University, Kolhapur - MPCB",04-11-2025 07:00:00,16.6870449,74.2505872,PM2.5,13,39,26
India,Maharashtra,Kolhapur,"Shivaji University, Kolhapur - MPCB",04-11-2025 07:00:00,16.6870449,74.2505872,OZONE,3,24,11
India,Maharashtra,Kolhapur,"Sinchan Bhavan, Kolhapur - MPCB",04-11-2025 07:00:00,16.7143745,74.2426398,PM10,22,43,34
India,Maharashtra,Kolhapur,"Sinchan Bhavan, Kolhapur - MPCB",04-11-2025 07:00:00,16.7143745,74.2426398,NH3,2,8,2
India,Maharashtra,Kolhapur,"Sinchan Bhavan, Kolhapur - MPCB",04-11-2025 07:00:00,16.7143745,74.2426398,CO,9,22,12
India,Madhya Pradesh,Indore,"Chhoti Gwaltoli, Indore - MPPCB",04-11-2025 07:00:00,22.4310,75.5213,OZONE,11,38,25
India,Madhya Pradesh,Indore,"Maguda Nagar, Indore - IMC",04-11-2025 07:00:00,22.7524,75.8872,CO,16,25,22
India,Madhya Pradesh,Indore,"Regional Park, Indore - IMC",04-11-2025 07:00:00,22.6780,75.8559,NO2,9,15,11
India,Madhya Pradesh,Indore,"Regional Park, Indore - IMC",04-11-2025 07:00:00,22.6780,75.8559,NH3,NA,NA,NA
India,Madhya Pradesh,Indore,"Residency Area, Indore - IMC",04-11-2025 07:00:00,22.7084,75.8815,PM2.5,21,61,36
India,Madhya Pradesh,Jabalpur,"Govindh Bhavan Colony, Jabalpur - JMC",04-11-2025 07:00:00,23.163174,79.973061,NH3,1,2,2
India,Madhya Pradesh,Jabalpur,"Gupteshwar, Jabalpur - JMC",04-11-2025 07:00:00,23.142888,79.916147,PM10,NA,NA,NA
India,Madhya Pradesh,Jabalpur,"Gupteshwar, Jabalpur - JMC",04-11-2025 07:00:00,23.142888,79.916147,NH3,9,13,11
India,Maharashtra,Boisar,"Khaira, Boisar - MPCB",04-11-2025 07:00:00,19.786089,72.757971,SO2,15,31,25
India,Maharashtra,Boisar,"Khaira, Boisar - MPCB",04-11-2025 07:00:00,19.786089,72.757971,CO,6,47,15
India,Maharashtra,Boisar,"Khaira, Boisar - MPCB",04-11-2025 07:00:00,19.786089,72.757971,OZONE,20,21,21
India,Maharashtra,Chandrapur,"MIDC Khutala, Chandrapur - MPCB",04-11-2025 07:00:00,19.9775302,79.2337086,SO2,8,9,9
India,Maharashtra,Chandrapur,"MIDC Khutala, Chandrapur - MPCB",04-11-2025 07:00:00,19.9775302,79.2337086,OZONE,17,19,18
India,Maharashtra,Dhule,"Deopur, Dhule - MPCB",04-11-2025 07:00:00,20.918946,74.776388,NH3,2,5,2
India,Maharashtra,Dhule,"Deopur, Dhule - MPCB",04-11-2025 07:00:00,20.918946,74.776388,SO2,7,14,11
India,Maharashtra,Jalgaon,"Prabhat Colony, Jalgaon - MPCB",04-11-2025 07:00:00,21.001264,75.565602,PM10,45,91,61
India,Madhya Pradesh,Satna,"Bandhavgar Colony, Satna - Birla Cement",04-11-2025 07:00:00,24.58434363,80.8549414,SO2,19,24,20
India,Madhya Pradesh,Satna,"Bandhavgar Colony, Satna - Birla Cement",04-11-2025 07:00:00,24.58434363,80.8549414,CO,20,68,24
India,Madhya Pradesh,Singrauli,"Suryakiran Bhawan NCL, Singrauli - MPPCB",04-11-2025 07:00:00,24.108970,82.645580,CO,12,15,12
India,Maharashtra,Ahmednagar,"Tarakpur, Ahmednagar - MPCB",04-11-2025 07:00:00,19.10122,74.73339,OZONE,7,28,11
India,Maharashtra,Akola,"Ramdaspeth, Akola - MPCB",04-11-2025 07:00:00,20.719516,77.000253,NO2,9,36,16
India,Maharashtra,Amravati,"Shivneri Colony, Amravati - MPCB",04-11-2025 07:00:00,20.9402359,77.7895248,SO2,1,4,2
India,Maharashtra,Amravati,"Shivneri Colony, Amravati - MPCB",04-11-2025 07:00:00,20.9402359,77.7895248,CO,14,36,19
India,Maharashtra,Amravati,"Shri Shivaji Science College, Amravati - MPCB",04-11-2025 07:00:00,20.939198,77.765701,OZONE,1,49,7
India,Maharashtra,Aurangabad,"MIDC Chilkalthana, Aurangabad - MPCB",04-11-2025 07:00:00,19.875620,75.387310,PM2.5,4,59,21
India,Maharashtra,Aurangabad,"MIDC Chilkalthana, Aurangabad - MPCB",04-11-2025 07:00:00,19.875620,75.387310,NH3,1,2,2
India,Maharashtra,Aurangabad,"MIDC Chilkalthana, Aurangabad - MPCB",04-11-2025 07:00:00,19.875620,75.387310,SO2,1,2,1
India,Maharashtra,Aurangabad,"Rachnakar Colony, Aurangabad - MPCB",04-11-2025 07:00:00,19.863756,75.321188,SO2,6,25,13
India,Maharashtra,Badlapur,"Katrap, Badlapur - MPCB",04-11-2025 07:00:00,19.16485,73.23409,PM10,34,100,75
India,Maharashtra,Badlapur,"Katrap, Badlapur - MPCB",04-11-2025 07:00:00,19.16485,73.23409,NO2,9,25,16
India,Maharashtra,Belapur,"CBD Belapur, Belapur - MPCB",04-11-2025 07:00:00,19.0243902,73.0406721,NH3,1,5,3
India,Maharashtra,Belapur,"CBD Belapur, Belapur - MPCB",04-11-2025 07:00:00,19.0243902,73.0406721,SO2,1,2,1
India,Madhya Pradesh,Mandideep,"Sector-D Industrial Area, Mandideep - MPPCB",04-11-2025 07:00:00,23.108440,77.511428,PM2.5,52,292,138
India,Madhya Pradesh,Mandideep,"Sector-D Industrial Area, Mandideep - MPPCB",04-11-2025 07:00:00,23.108440,77.511428,NO2,28,133,65
India,Madhya Pradesh,Mandideep,"Sector-D Industrial Area, Mandideep - MPPCB",04-11-2025 07:00:00,23.108440,77.511428,OZONE,17,135,30
India,Madhya Pradesh,Satna,"Bandhavgar Colony, Satna - Birla Cement",04-11-2025 07:00:00,24.58434363,80.8549414,NO2,29,39,33
India,Madhya Pradesh,Jabalpur,"Gupteshwar, Jabalpur - JMC",04-11-2025 07:00:00,23.142888,79.916147,SO2,6,10,7
India,Madhya Pradesh,Jabalpur,"Gupteshwar, Jabalpur - JMC",04-11-2025 07:00:00,23.142888,79.916147,CO,16,113,47
India,Madhya Pradesh,Jabalpur,"Gupteshwar, Jabalpur - JMC",04-11-2025 07:00:00,23.142888,79.916147,OZONE,13,221,24
India,Madhya Pradesh,Jabalpur,"Marhatal, Jabalpur - MPPCB",04-11-2025 07:00:00,23.168606,79.932247,NO2,28,110,52
India,Madhya Pradesh,Jabalpur,"Suhagi, Jabalpur - JMC",04-11-2025 07:00:00,23.218135,79.957770,CO,4,110,32
India,Madhya Pradesh,Gwalior,"Deen Dayal Nagar, Gwalior - MPPCB",04-11-2025 07:00:00,26.259242,78.216432,PM10,74,282,150
India,Madhya Pradesh,Gwalior,"Deen Dayal Nagar, Gwalior - MPPCB",04-11-2025 07:00:00,26.259242,78.216432,OZONE,8,102,34
India,Madhya Pradesh,Gwalior,"Maharaj Bada, Gwalior - MPPCB",04-11-2025 07:00:00,26.200388,78.147714,NO2,18,78,38
India,Maharashtra,Mumbai,"Worli, Mumbai - MPCB",04-11-2025 07:00:00,18.9936162,72.8128113,NO2,3,15,7
India,Maharashtra,Nagpur,"Ambazari, Nagpur - MPCB",04-11-2025 07:00:00,21.121801,79.04952,PM2.5,25,89,53
India,Maharashtra,Nagpur,"Ambazari, Nagpur - MPCB",04-11-2025 07:00:00,21.121801,79.04952,NO2,3,54,16
India,Maharashtra,Nagpur,"Ambazari, Nagpur - MPCB",04-11-2025 07:00:00,21.121801,79.04952,NH3,2,15,5
India,Maharashtra,Nagpur,"Ambazari, Nagpur - MPCB",04-11-2025 07:00:00,21.121801,79.04952,CO,8,106,19
India,Maharashtra,Nagpur,"Ambazari, Nagpur - MPCB",04-11-2025 07:00:00,21.121801,79.04952,OZONE,2,43,8
India,Maharashtra,Nagpur,"Mahal, Nagpur - MPCB",04-11-2025 07:00:00,21.14472,79.107595,NH3,2,3,2
India,Maharashtra,Nagpur,"Opp GPO Civil Lines, Nagpur - MPCB",04-11-2025 07:00:00,21.152875,79.0517531,PM2.5,30,97,58
India,Maharashtra,Nagpur,"Opp GPO Civil Lines, Nagpur - MPCB",04-11-2025 07:00:00,21.152875,79.0517531,SO2,2,14,7
India,Maharashtra,Nagpur,"Opp GPO Civil Lines, Nagpur - MPCB",04-11-2025 07:00:00,21.152875,79.0517531,CO,17,107,38
India,Maharashtra,Mumbai,"Navy Nagar-Colaba, Mumbai - IITM",04-11-2025 07:00:00,18.897756,72.813320,PM10,28,103,48
India,Maharashtra,Mumbai,"Navy Nagar-Colaba, Mumbai - IITM",04-11-2025 07:00:00,18.897756,72.813320,OZONE,10,34,27
India,Maharashtra,Mumbai,"Powai, Mumbai - MPCB",04-11-2025 07:00:00,19.137500,72.915056,NO2,7,8,8
India,Maharashtra,Mumbai,"Powai, Mumbai - MPCB",04-11-2025 07:00:00,19.137500,72.915056,NH3,1,2,2
India,Maharashtra,Mumbai,"Powai, Mumbai - MPCB",04-11-2025 07:00:00,19.137500,72.915056,CO,16,16,16
India,Maharashtra,Mumbai,"Sewri, Mumbai - BMC",04-11-2025 07:00:00,19.000084,72.856730,PM2.5,NA,NA,NA
India,Maharashtra,Mumbai,"Sewri, Mumbai - BMC",04-11-2025 07:00:00,19.000084,72.856730,SO2,2,21,10
India,Maharashtra,Mumbai,"Shivaji Nagar, Mumbai - BMC",04-11-2025 07:00:00,19.060498,72.923356,NO2,12,36,23
India,Maharashtra,Mumbai,"Siddharth Nagar-Worli, Mumbai - IITM",04-11-2025 07:00:00,19.000083,72.813993,PM2.5,8,39,22
India,Maharashtra,Mumbai,"Siddharth Nagar-Worli, Mumbai - IITM",04-11-2025 07:00:00,19.000083,72.813993,NH3,2,5,2
India,Maharashtra,Mumbai,"Sion, Mumbai - MPCB",04-11-2025 07:00:00,19.047000,72.874600,OZONE,12,16,15
India,Maharashtra,Mumbai,"Vasai West, Mumbai - MPCB",04-11-2025 07:00:00,19.383200,72.820400,NH3,2,5,3
India,Maharashtra,Mumbai,"Vasai West, Mumbai - MPCB",04-11-2025 07:00:00,19.383200,72.820400,OZONE,11,24,12
India,Maharashtra,Mumbai,"Vile Parle West, Mumbai - MPCB",04-11-2025 07:00:00,19.10861,72.83622,PM10,19,83,57
India,Maharashtra,Mumbai,"Vile Parle West, Mumbai - MPCB",04-11-2025 07:00:00,19.10861,72.83622,CO,24,26,25
India,Maharashtra,Latur,"Sawe Wadi, Latur - MPCB",04-11-2025 07:00:00,18.39963,76.57452,NH3,2,9,4
India,Maharashtra,Malegaon,"Mahesh Nagar, Malegaon - MPCB",04-11-2025 07:00:00,20.555712,74.529236,PM2.5,38,68,51
India,Maharashtra,Malegaon,"Mahesh Nagar, Malegaon - MPCB",04-11-2025 07:00:00,20.555712,74.529236,NO2,2,32,9
India,Maharashtra,Malegaon,"Mahesh Nagar, Malegaon - MPCB",04-11-2025 07:00:00,20.555712,74.529236,OZONE,13,44,40
India,Maharashtra,Mira-Bhayandar,"Bhayandar West, Mira-Bhayandar - MPCB",04-11-2025 07:00:00,19.296481,72.840923,PM2.5,NA,NA,NA
India,Maharashtra,Mumbai,"Kurla, Mumbai - MPCB",04-11-2025 07:00:00,19.0863,72.8888,NO2,4,6,5
India,Maharashtra,Mumbai,"Malad West, Mumbai - IITM",04-11-2025 07:00:00,19.19709,72.82204,PM2.5,5,94,33
India,Maharashtra,Mumbai,"Malad West, Mumbai - IITM",04-11-2025 07:00:00,19.19709,72.82204,PM10,37,135,72
India,Maharashtra,Mumbai,"Malad West, Mumbai - IITM",04-11-2025 07:00:00,19.19709,72.82204,NO2,35,63,43
India,Maharashtra,Mumbai,"Mazgaon, Mumbai - IITM",04-11-2025 07:00:00,18.96702,72.84214,NO2,NA,NA,NA
India,Maharashtra,Mumbai,"Mazgaon, Mumbai - IITM",04-11-2025 07:00:00,18.96702,72.84214,OZONE,7,68,24
India,Maharashtra,Mumbai,"Byculla, Mumbai - BMC",04-11-2025 07:00:00,18.9767,72.8380,PM10,28,45,36
India,Maharashtra,Mumbai,"Byculla, Mumbai - BMC",04-11-2025 07:00:00,18.9767,72.8380,NO2,15,48,25
India,Maharashtra,Mumbai,"Chakala-Andheri East, Mumbai - IITM",04-11-2025 07:00:00,19.11074,72.86084,PM10,26,69,47
India,Maharashtra,Mumbai,"Chakala-Andheri East, Mumbai - IITM",04-11-2025 07:00:00,19.11074,72.86084,NO2,NA,NA,NA
India,Maharashtra,Mumbai,"Chhatrapati Shivaji Intl. Airport (T2), Mumbai - MPCB",04-11-2025 07:00:00,19.10078,72.87462,PM2.5,11,50,30
India,Maharashtra,Mumbai,"Kandivali West, Mumbai - BMC",04-11-2025 07:00:00,19.215859,72.831718,PM2.5,15,49,28
India,Maharashtra,Mumbai,"Kandivali West, Mumbai - BMC",04-11-2025 07:00:00,19.215859,72.831718,PM10,13,85,35
India,Maharashtra,Mumbai,"Kandivali West, Mumbai - BMC",04-11-2025 07:00:00,19.215859,72.831718,NO2,6,47,20
India,Maharashtra,Mumbai,"Khindipada-Bhandup West, Mumbai - IITM",04-11-2025 07:00:00,19.1653323,72.922099,CO,28,54,41
India,Maharashtra,Mumbai,"Kurla, Mumbai - MPCB",04-11-2025 07:00:00,19.0863,72.8888,PM2.5,42,69,58
India,Maharashtra,Mumbai,"Bandra Kurla Complex, Mumbai - MPCB",04-11-2025 07:00:00,19.065931,72.862131,OZONE,1,30,2
India,Maharashtra,Mumbai,"Borivali East, Mumbai - IITM",04-11-2025 07:00:00,19.23241,72.86895,NO2,35,97,53
India,Maharashtra,Mumbai,"Borivali East, Mumbai - IITM",04-11-2025 07:00:00,19.23241,72.86895,OZONE,8,51,11
India,Maharashtra,Mumbai,"Colaba, Mumbai - MPCB",04-11-2025 07:00:00,18.910000,72.820000,PM10,22,46,30
India,Maharashtra,Mumbai,"Colaba, Mumbai - MPCB",04-11-2025 07:00:00,18.910000,72.820000,SO2,NA,NA,NA
India,Maharashtra,Mumbai,"Deonar, Mumbai - IITM",04-11-2025 07:00:00,19.04946,72.9230,PM10,20,164,97
India,Maharashtra,Mumbai,"Deonar, Mumbai - IITM",04-11-2025 07:00:00,19.04946,72.9230,OZONE,NA,NA,NA
India,Maharashtra,Nashik,"MIDC Ambad, Nashik - MPCB",04-11-2025 07:00:00,19.950220,73.731480,CO,12,14,14
India,Maharashtra,Nashik,"Pandav Nagari, Nashik - MPCB",04-11-2025 07:00:00,19.9591346,73.7788008,PM2.5,15,63,35
India,Maharashtra,Nashik,"Pandav Nagari, Nashik - MPCB",04-11-2025 07:00:00,19.9591346,73.7788008,NH3,3,5,3
India,Maharashtra,Nashik,"Pandav Nagari, Nashik - MPCB",04-11-2025 07:00:00,19.9591346,73.7788008,CO,14,28,16
India,Maharashtra,Nashik,"Pandav Nagari, Nashik - MPCB",04-11-2025 07:00:00,19.9591346,73.7788008,OZONE,12,33,22
India,Maharashtra,Navi Mumbai,"Kopripada-Vashi, Navi Mumbai - MPCB",04-11-2025 07:00:00,19.090337,73.014232,OZONE,1,34,18
India,Maharashtra,Navi Mumbai,"Mahape, Navi Mumbai - MPCB",04-11-2025 07:00:00,19.1135051,73.008978,PM2.5,7,19,12
India,Maharashtra,Navi Mumbai,"Nerul, Navi Mumbai - MPCB",04-11-2025 07:00:00,19.008751,73.016620,PM2.5,16,53,33
India,Maharashtra,Thane,"Kasarvadavali, Thane - MPCB",04-11-2025 07:00:00,19.26777,72.97182,PM10,48,114,80
India,Maharashtra,Thane,"Upvan Fort, Thane - MPCB",04-11-2025 07:00:00,19.222279,72.957979,PM2.5,12,59,32
India,Maharashtra,Ulhasnagar,"Sidhi Vinayak Nagar, Ulhasnagar - MPCB",04-11-2025 07:00:00,19.235581,73.159121,SO2,8,17,13
India,Maharashtra,Virar,"Bolinj, Virar - MPCB",04-11-2025 07:00:00,19.4458210,72.7988231,SO2,3,6,4
India,Meghalaya,Shillong,"JN Stadium, Shillong - Meghalaya PCB",04-11-2025 07:00:00,25.5803419,91.8942571,NO2,3,8,6
India,Maharashtra,Pune,"Savitribai Phule Pune University, Pune - MPCB",04-11-2025 07:00:00,18.547056,73.826908,PM10,12,45,25
India,Maharashtra,Pune,"Savitribai Phule Pune University, Pune - MPCB",04-11-2025 07:00:00,18.547056,73.826908,NO2,5,10,8
India,Maharashtra,Solapur,"Dnyaneshwar Nagar, Solapur - MPCB",04-11-2025 07:00:00,17.6336264,75.9132495,NH3,6,44,13
India,Maharashtra,Solapur,"Ratandeep Housing Society, Solapur - MPCB",04-11-2025 07:00:00,17.65439,75.90649,OZONE,4,40,16
India,Maharashtra,Thane,"Kasarvadavali, Thane - MPCB",04-11-2025 07:00:00,19.26777,72.97182,PM2.5,15,79,50
India,Meghalaya,Shillong,"JN Stadium, Shillong - Meghalaya PCB",04-11-2025 07:00:00,25.5803419,91.8942571,NH3,9,14,11
India,Meghalaya,Shillong,"JN Stadium, Shillong - Meghalaya PCB",04-11-2025 07:00:00,25.5803419,91.8942571,SO2,NA,NA,NA
India,Odisha,Angul,"Hakimapada, Angul - OSPCB",04-11-2025 07:00:00,20.832874,85.104082,PM2.5,77,452,139
India,Odisha,Angul,"Hakimapada, Angul - OSPCB",04-11-2025 07:00:00,20.832874,85.104082,NO2,3,10,6
India,Odisha,Angul,"Hakimapada, Angul - OSPCB",04-11-2025 07:00:00,20.832874,85.104082,CO,13,106,59
India,Maharashtra,Pune,"Bhumkar Nagar, Pune - IITM",04-11-2025 07:00:00,18.605770,73.749976,OZONE,1,22,7
India,Maharashtra,Pune,"Katraj Dairy, Pune - MPCB",04-11-2025 07:00:00,18.454450,73.854155,SO2,3,4,4
India,Maharashtra,Pune,"Mhada Colony, Pune - IITM",04-11-2025 07:00:00,18.573040,73.927715,OZONE,14,54,14
India,Maharashtra,Pune,"Revenue Colony-Shivajinagar, Pune - IITM",04-11-2025 07:00:00,18.530085,73.849598,CO,22,54,33
India,Maharashtra,Navi Mumbai,"Sector-2E Kalamboli, Navi Mumbai - MPCB",04-11-2025 07:00:00,19.02579,73.10297,NO2,22,81,38
India,Maharashtra,Navi Mumbai,"Sector-2E Kalamboli, Navi Mumbai - MPCB",04-11-2025 07:00:00,19.02579,73.10297,SO2,NA,NA,NA
India,Maharashtra,Navi Mumbai,"Tondare-Taloja, Navi Mumbai - MPCB",04-11-2025 07:00:00,19.0630,73.1209,PM10,26,90,56
India,Maharashtra,Navi Mumbai,"Tondare-Taloja, Navi Mumbai - MPCB",04-11-2025 07:00:00,19.0630,73.1209,CO,28,32,30
India,Odisha,Bhubaneswar,"Lingraj Mandir, Bhubaneswar - OSPCB",04-11-2025 07:00:00,20.240790,85.836784,PM2.5,NA,NA,NA
India,Odisha,Bhubaneswar,"Lingraj Mandir, Bhubaneswar - OSPCB",04-11-2025 07:00:00,20.240790,85.836784,SO2,NA,NA,NA
India,Odisha,Bhubaneswar,"Patia, Bhubaneswar - OSPCB",04-11-2025 07:00:00,20.34652,85.81630,PM2.5,62,173,106
India,Odisha,Bhubaneswar,"Patia, Bhubaneswar - OSPCB",04-11-2025 07:00:00,20.34652,85.81630,PM10,65,204,113
India,Maharashtra,Nashik,"Hirawadi, Nashik - MPCB",04-11-2025 07:00:00,20.021503,73.813844,PM10,12,40,26
India,Maharashtra,Nashik,"Hirawadi, Nashik - MPCB",04-11-2025 07:00:00,20.021503,73.813844,NH3,1,2,1
India,Maharashtra,Pimpri-Chinchwad,"Gavalinagar, Pimpri Chinchwad - MPCB",04-11-2025 07:00:00,18.63673,73.82487,PM2.5,7,41,28
India,Punjab,Khanna,"Kalal Majra, Khanna - PPCB",04-11-2025 07:00:00,30.736056 ,76.209694,PM10,118,174,144
India,Punjab,Khanna,"Kalal Majra, Khanna - PPCB",04-11-2025 07:00:00,30.736056 ,76.209694,NH3,7,8,7
India,Punjab,Khanna,"Kalal Majra, Khanna - PPCB",04-11-2025 07:00:00,30.736056 ,76.209694,OZONE,29,31,30
India,Punjab,Ludhiana,"Punjab Agricultural University, Ludhiana - PPCB",04-11-2025 07:00:00,30.9028,75.8086,CO,14,74,42
India,Punjab,Mandi Gobindgarh,"RIMT University, Mandi Gobindgarh - PPCB",04-11-2025 07:00:00,30.649961,76.331442,PM10,106,189,151
India,Punjab,Mandi Gobindgarh,"RIMT University, Mandi Gobindgarh - PPCB",04-11-2025 07:00:00,30.649961,76.331442,SO2,5,19,9
India,Punjab,Amritsar,"Golden Temple, Amritsar - PPCB",04-11-2025 07:00:00,31.620000,74.876512,PM2.5,75,197,139
India,Punjab,Amritsar,"Golden Temple, Amritsar - PPCB",04-11-2025 07:00:00,31.620000,74.876512,PM10,71,127,107
India,Punjab,Amritsar,"Golden Temple, Amritsar - PPCB",04-11-2025 07:00:00,31.620000,74.876512,NO2,10,66,34
India,Punjab,Amritsar,"Golden Temple, Amritsar - PPCB",04-11-2025 07:00:00,31.620000,74.876512,CO,12,38,24
India,Punjab,Bathinda,"Hardev Nagar, Bathinda - PPCB",04-11-2025 07:00:00,30.233011,74.907758,PM10,40,243,114
India,Punjab,Jalandhar,"Civil Line, Jalandhar - PPCB",04-11-2025 07:00:00,31.321907,75.578914,SO2,15,17,16
India,Rajasthan,Baran,"Bamboliya, Baran - RSPCB",04-11-2025 07:00:00,25.106006,76.469948,NH3,6,8,6
India,Rajasthan,Barmer,"Railway Colony, Barmer - RSPCB",04-11-2025 07:00:00,25.747299,71.393989,NO2,4,59,16
India,Rajasthan,Bharatpur,"Krishna Nagar, Bharatpur - RSPCB",04-11-2025 07:00:00,27.215415,77.50873,PM2.5,22,79,48
India,Rajasthan,Bharatpur,"Krishna Nagar, Bharatpur - RSPCB",04-11-2025 07:00:00,27.215415,77.50873,CO,18,100,43
India,Rajasthan,Bhilwara,"Pratap Nagar, Bhilwara - RSPCB",04-11-2025 07:00:00,25.339605,74.618883,NH3,1,2,1
India,Odisha,Rairangpur,"Divisional Forest Office, Rairangpur - OSPCB",04-11-2025 07:00:00,22.265816,86.174829,OZONE,17,36,18
India,Odisha,Rourkela,"Raghunathpali, Rourkela - OSPCB",04-11-2025 07:00:00,22.220833,84.809444,PM2.5,30,134,86
India,Odisha,Rourkela,"Raghunathpali, Rourkela - OSPCB",04-11-2025 07:00:00,22.220833,84.809444,PM10,62,129,97
India,Odisha,Rourkela,"Raghunathpali, Rourkela - OSPCB",04-11-2025 07:00:00,22.220833,84.809444,NH3,1,2,1
India,Odisha,Rourkela,"Raghunathpali, Rourkela - OSPCB",04-11-2025 07:00:00,22.220833,84.809444,SO2,6,8,7
India,Odisha,Rourkela,"Raghunathpali, Rourkela - OSPCB",04-11-2025 07:00:00,22.220833,84.809444,OZONE,23,94,26
India,Odisha,Byasanagar,"Ferro Chrome Colony, Byasanagar - OSPCB",04-11-2025 07:00:00,20.94185,86.11510,NH3,1,3,2
India,Odisha,Rairangpur,"Divisional Forest Office, Rairangpur - OSPCB",04-11-2025 07:00:00,22.265816,86.174829,PM10,48,145,95
India,Odisha,Rairangpur,"Divisional Forest Office, Rairangpur - OSPCB",04-11-2025 07:00:00,22.265816,86.174829,NO2,18,22,20
India,Rajasthan,Bhiwadi,"RIICO Ind. Area III, Bhiwadi - RSPCB",04-11-2025 07:00:00,28.194909,76.862296,CO,26,145,105
India,Rajasthan,Bundi,"New Colony, Bundi - RSPCB",04-11-2025 07:00:00,25.435774,75.644272,SO2,3,12,6
India,Rajasthan,Bundi,"New Colony, Bundi - RSPCB",04-11-2025 07:00:00,25.435774,75.644272,OZONE,40,126,73
India,Rajasthan,Ajmer,"Civil Lines,  Ajmer - RSPCB",04-11-2025 07:00:00,26.470859,74.646594,CO,14,52,20
India,Rajasthan,Alwar,"Moti Doongri, Alwar - RSPCB",04-11-2025 07:00:00,27.554793,76.611536,PM2.5,40,88,56
India,Rajasthan,Alwar,"Moti Doongri, Alwar - RSPCB",04-11-2025 07:00:00,27.554793,76.611536,CO,18,72,44
India,Odisha,Brajrajnagar,"GM Office, Brajrajnagar - OSPCB",04-11-2025 07:00:00,21.8004996,83.8396977,PM10,39,150,85
India,Odisha,Brajrajnagar,"GM Office, Brajrajnagar - OSPCB",04-11-2025 07:00:00,21.8004996,83.8396977,CO,2,26,7
India,Odisha,Bhubaneswar,"Patia, Bhubaneswar - OSPCB",04-11-2025 07:00:00,20.34652,85.81630,OZONE,13,77,33
India,Rajasthan,Sikar,"Radhakishan Pura, Sikar - RSPCB",04-11-2025 07:00:00,27.608912,75.153302,SO2,4,8,6
India,Rajasthan,Sikar,"Radhakishan Pura, Sikar - RSPCB",04-11-2025 07:00:00,27.608912,75.153302,OZONE,6,87,33
India,Rajasthan,Sirohi,"Vedhaynath Colony, Sirohi - RSPCB",04-11-2025 07:00:00,24.885261,72.857549,PM10,42,107,60
India,Rajasthan,Sirohi,"Vedhaynath Colony, Sirohi - RSPCB",04-11-2025 07:00:00,24.885261,72.857549,NH3,2,7,4
India,Rajasthan,Sirohi,"Vedhaynath Colony, Sirohi - RSPCB",04-11-2025 07:00:00,24.885261,72.857549,OZONE,12,41,27
India,Rajasthan,Sri Ganganagar,"Old City, Sri Ganganagar - RSPCB",04-11-2025 07:00:00,29.931624,73.864511,PM10,57,257,122
India,Rajasthan,Sri Ganganagar,"Old City, Sri Ganganagar - RSPCB",04-11-2025 07:00:00,29.931624,73.864511,CO,35,178,64
India,Rajasthan,Sri Ganganagar,"Old City, Sri Ganganagar - RSPCB",04-11-2025 07:00:00,29.931624,73.864511,OZONE,2,96,10
India,Rajasthan,Tonk,"Shastri Nagar, Tonk - RSPCB",04-11-2025 07:00:00,26.159933,75.780517,PM2.5,47,240,111
India,Rajasthan,Tonk,"Shastri Nagar, Tonk - RSPCB",04-11-2025 07:00:00,26.159933,75.780517,PM10,30,352,155
India,Rajasthan,Tonk,"Shastri Nagar, Tonk - RSPCB",04-11-2025 07:00:00,26.159933,75.780517,OZONE,12,54,38
India,Rajasthan,Udaipur,"Ashok Nagar, Udaipur - RSPCB",04-11-2025 07:00:00,24.5886166,73.6321397,PM2.5,35,86,57
India,Rajasthan,Chittorgarh,"Shastri Nagar, Chittorgarh - RSPCB",04-11-2025 07:00:00,24.892047,74.623527,NH3,3,5,4
India,Rajasthan,Chittorgarh,"Shastri Nagar, Chittorgarh - RSPCB",04-11-2025 07:00:00,24.892047,74.623527,SO2,2,6,4
India,Rajasthan,Churu,"Subash Chowk, Churu - RSPCB",04-11-2025 07:00:00,28.296139,74.961696,PM2.5,24,305,89
India,Rajasthan,Churu,"Subash Chowk, Churu - RSPCB",04-11-2025 07:00:00,28.296139,74.961696,PM10,85,475,165
India,Rajasthan,Dausa,"Khatikan Mohalla, Dausa - RSPCB",04-11-2025 07:00:00,26.895552,76.334753,PM10,52,409,156
India,Rajasthan,Dausa,"Khatikan Mohalla, Dausa - RSPCB",04-11-2025 07:00:00,26.895552,76.334753,SO2,4,13,6
India,Rajasthan,Dausa,"Khatikan Mohalla, Dausa - RSPCB",04-11-2025 07:00:00,26.895552,76.334753,CO,8,163,16
India,Rajasthan,Dholpur,"Raja Ganj, Dholpur - RSPCB",04-11-2025 07:00:00,26.699557,77.898881,CO,24,48,32
India,Rajasthan,Dungarpur,"Bhoiwada, Dungarpur - RSPCB",04-11-2025 07:00:00,23.837789,73.714926,PM10,28,71,43
India,Rajasthan,Dungarpur,"Bhoiwada, Dungarpur - RSPCB",04-11-2025 07:00:00,23.837789,73.714926,NO2,2,7,4
India,Rajasthan,Dungarpur,"Bhoiwada, Dungarpur - RSPCB",04-11-2025 07:00:00,23.837789,73.714926,OZONE,25,60,46
India,Rajasthan,Hanumangarh,"Housing Board, Hanumangarh - RSPCB",04-11-2025 07:00:00,29.610750,74.283608,PM10,51,189,111
India,Rajasthan,Jaipur,"Adarsh Nagar, Jaipur - RSPCB",04-11-2025 07:00:00,26.902909,75.836858,PM2.5,47,177,101
India,Rajasthan,Jaipur,"Adarsh Nagar, Jaipur - RSPCB",04-11-2025 07:00:00,26.902909,75.836858,PM10,53,142,103
India,Rajasthan,Jaipur,"Adarsh Nagar, Jaipur - RSPCB",04-11-2025 07:00:00,26.902909,75.836858,NO2,12,92,39
India,Rajasthan,Jaipur,"Adarsh Nagar, Jaipur - RSPCB",04-11-2025 07:00:00,26.902909,75.836858,SO2,18,30,24
India,Rajasthan,Jaipur,"Adarsh Nagar, Jaipur - RSPCB",04-11-2025 07:00:00,26.902909,75.836858,CO,30,107,43
India,Rajasthan,Jaipur,"Mansarovar Sector-12, Jaipur - RSPCB",04-11-2025 07:00:00,26.843698,75.766894,PM10,42,404,157
India,Rajasthan,Jaipur,"Mansarovar Sector-12, Jaipur - RSPCB",04-11-2025 07:00:00,26.843698,75.766894,NO2,9,133,48
India,Rajasthan,Jaipur,"Mansarovar Sector-12, Jaipur - RSPCB",04-11-2025 07:00:00,26.843698,75.766894,NH3,8,10,9
India,Rajasthan,Nagaur,"Karni Colony, Nagaur - RSPCB",04-11-2025 07:00:00,27.213494,73.734444,CO,11,121,17
India,Rajasthan,Pali,"Indira Colony Vistar, Pali - RSPCB",04-11-2025 07:00:00,25.771061, 73.340227,SO2,5,11,8
India,Rajasthan,Pali,"Indira Colony Vistar, Pali - RSPCB",04-11-2025 07:00:00,25.771061, 73.340227,CO,9,56,31
India,Rajasthan,Pratapgarh,"Pragati Nagar, Pratapgarh - RSPCB",04-11-2025 07:00:00,24.041198,74.780702,NO2,25,52,33
India,Rajasthan,Pratapgarh,"Pragati Nagar, Pratapgarh - RSPCB",04-11-2025 07:00:00,24.041198,74.780702,SO2,2,6,3
India,Rajasthan,Rajsamand,"Dhoinda, Rajsamand - RSPCB",04-11-2025 07:00:00,25.036360,73.883502,CO,23,33,28
India,Rajasthan,Sawai Madhopur,"Sahu Nagar, Sawai Madhopur - RSPCB",04-11-2025 07:00:00,26.031443,76.359327,OZONE,5,81,54
India,Rajasthan,Sikar,"Radhakishan Pura, Sikar - RSPCB",04-11-2025 07:00:00,27.608912,75.153302,PM2.5,40,356,142
India,Rajasthan,Jaisalmer,"Sadar Bazar, Jaisalmer - RSPCB",04-11-2025 07:00:00,26.912329,70.909168,NH3,6,18,9
India,Rajasthan,Jaisalmer,"Sadar Bazar, Jaisalmer - RSPCB",04-11-2025 07:00:00,26.912329,70.909168,SO2,3,7,4
India,Rajasthan,Jaisalmer,"Sadar Bazar, Jaisalmer - RSPCB",04-11-2025 07:00:00,26.912329,70.909168,CO,9,55,22
India,Rajasthan,Jalore,"Mudtra Sili, Jalore - RSPCB",04-11-2025 07:00:00,25.344694,72.626208,CO,14,89,18
India,Rajasthan,Jhunjhunu,"Indra Nagar, Jhunjhunu - RSPCB",04-11-2025 07:00:00,28.108988,75.386577,CO,14,109,30
India,Rajasthan,Jhunjhunu,"Indra Nagar, Jhunjhunu - RSPCB",04-11-2025 07:00:00,28.108988,75.386577,OZONE,7,52,14
India,Rajasthan,Jodhpur,"Collectorate, Jodhpur - RSPCB",04-11-2025 07:00:00,26.268249,73.0193853,PM10,25,192,67
India,Rajasthan,Jodhpur,"Collectorate, Jodhpur - RSPCB",04-11-2025 07:00:00,26.268249,73.0193853,NO2,7,16,11
India,Rajasthan,Jodhpur,"Collectorate, Jodhpur - RSPCB",04-11-2025 07:00:00,26.268249,73.0193853,NH3,5,17,9
India,Rajasthan,Jodhpur,"Mandor, Jodhpur - RSPCB",04-11-2025 07:00:00,26.358805,73.047444,OZONE,10,95,18
India,Rajasthan,Jodhpur,"Samrat Ashok Udhyan, Jodhpur - RSPCB",04-11-2025 07:00:00,26.253384,72.976571,PM10,16,174,64
India,Rajasthan,Karauli,"Satyawati Vihar, Karauli - RSPCB",04-11-2025 07:00:00,26.506177,77.025989,SO2,5,11,8
India,Rajasthan,Kota,"Dhanmandi, Kota - RSPCB",04-11-2025 07:00:00,25.164090,75.858137,PM10,29,171,85
India,Rajasthan,Kota,"Dhanmandi, Kota - RSPCB",04-11-2025 07:00:00,25.164090,75.858137,NH3,2,3,3
India,Rajasthan,Jaipur,"RIICO Sitapura, Jaipur - RSPCB",04-11-2025 07:00:00,26.786682,75.827928,NH3,3,10,6
India,Rajasthan,Jaipur,"Sector-2 Murlipura, Jaipur - RSPCB",04-11-2025 07:00:00,26.960669,75.771817,NH3,1,7,3
India,Rajasthan,Jaipur,"Shastri Nagar, Jaipur - RSPCB",04-11-2025 07:00:00,26.9502929,75.730943,NO2,35,76,54
India,Rajasthan,Jaipur,"Shastri Nagar, Jaipur - RSPCB",04-11-2025 07:00:00,26.9502929,75.730943,CO,53,138,74
India,Rajasthan,Jaisalmer,"Sadar Bazar, Jaisalmer - RSPCB",04-11-2025 07:00:00,26.912329,70.909168,NO2,6,64,20
India,Rajasthan,Jodhpur,"Digari Kalan, Jodhpur - RSPCB",04-11-2025 07:00:00,26.295810,73.082283,SO2,1,4,2
India,Rajasthan,Jodhpur,"Jhalamand, Jodhpur - RSPCB",04-11-2025 07:00:00,26.215415,73.070156,PM10,21,150,66
India,Rajasthan,Jodhpur,"Jhalamand, Jodhpur - RSPCB",04-11-2025 07:00:00,26.215415,73.070156,OZONE,11,125,16
India,Rajasthan,Jodhpur,"Mandor, Jodhpur - RSPCB",04-11-2025 07:00:00,26.358805,73.047444,PM10,19,154,63
India,Rajasthan,Kota,"Nayapura, Kota - RSPCB",04-11-2025 07:00:00,25.196024,75.855668,OZONE,6,161,55
India,Rajasthan,Kota,"Shrinath Puram, Kota - RSPCB",04-11-2025 07:00:00,25.14389,75.821256,SO2,3,20,8
India,Rajasthan,Nagaur,"Karni Colony, Nagaur - RSPCB",04-11-2025 07:00:00,27.213494,73.734444,NO2,2,36,8
India,TamilNadu,Pudukottai,"SIPCOT Nathampannai, Pudukottai - TNPCB",04-11-2025 07:00:00,10.423417,78.784889,NO2,14,39,17
India,TamilNadu,Pudukottai,"SIPCOT Nathampannai, Pudukottai - TNPCB",04-11-2025 07:00:00,10.423417,78.784889,NH3,2,3,2
India,TamilNadu,Ramanathapuram,"Chalai Bazaar, Ramanathapuram - TNPCB",04-11-2025 07:00:00,9.36399,78.831977,PM10,27,90,43
India,TamilNadu,Thanjavur,"Parisutham Nagar, Thanjavur - TNPCB",04-11-2025 07:00:00,10.7654824,79.1389968,PM2.5,27,58,36
India,TamilNadu,Thanjavur,"Parisutham Nagar, Thanjavur - TNPCB",04-11-2025 07:00:00,10.7654824,79.1389968,PM10,33,75,46
India,TamilNadu,Thanjavur,"Parisutham Nagar, Thanjavur - TNPCB",04-11-2025 07:00:00,10.7654824,79.1389968,NO2,3,3,3
India,TamilNadu,Thanjavur,"Parisutham Nagar, Thanjavur - TNPCB",04-11-2025 07:00:00,10.7654824,79.1389968,NH3,1,1,1
India,TamilNadu,Thoothukudi,"Meelavittan, Thoothukudi - TNPCB",04-11-2025 07:00:00,8.816428 ,78.099039,PM10,500,500,500
India,TamilNadu,Thoothukudi,"Meelavittan, Thoothukudi - TNPCB",04-11-2025 07:00:00,8.816428 ,78.099039,CO,48,117,77
India,TamilNadu,Thoothukudi,"Meelavittan, Thoothukudi - TNPCB",04-11-2025 07:00:00,8.816428 ,78.099039,OZONE,1,7,2
India,TamilNadu,Tiruchirappalli,"St Joseph College, Tiruchirappalli - TNPCB",04-11-2025 07:00:00,10.830158,78.691849,SO2,15,15,15
India,TamilNadu,Tirunelveli,"Municipal Corporation Office, Tirunelveli - TNPCB",04-11-2025 07:00:00,8.728442,77.6962,PM10,23,39,32
India,TamilNadu,Tirunelveli,"Municipal Corporation Office, Tirunelveli - TNPCB",04-11-2025 07:00:00,8.728442,77.6962,NH3,1,3,1
India,TamilNadu,Tirupur,"Kumaran College, Tirupur - TNPCB",04-11-2025 07:00:00,11.0973603,77.3228673,PM10,26,113,59
India,TamilNadu,Tirupur,"Kumaran College, Tirupur - TNPCB",04-11-2025 07:00:00,11.0973603,77.3228673,SO2,9,12,10
India,TamilNadu,Tirupur,"Kumaran College, Tirupur - TNPCB",04-11-2025 07:00:00,11.0973603,77.3228673,OZONE,4,4,4
India,TamilNadu,Vellore,"Vasanthapuram, Vellore - TNPCB",04-11-2025 07:00:00,12.909494,79.131861,SO2,21,21,21
India,Telangana,Hyderabad,"Bollaram Industrial Area, Hyderabad - TSPCB",04-11-2025 07:00:00,17.540891,78.358528,PM10,21,124,49
India,Telangana,Hyderabad,"Bollaram Industrial Area, Hyderabad - TSPCB",04-11-2025 07:00:00,17.540891,78.358528,NO2,23,48,35
India,Telangana,Hyderabad,"Bollaram Industrial Area, Hyderabad - TSPCB",04-11-2025 07:00:00,17.540891,78.358528,SO2,4,10,7
India,TamilNadu,Chennai,"Gandhi Nagar_Ennore, Chennai - TNPCB",04-11-2025 07:00:00,13.218341,80.32027,CO,21,22,22
India,TamilNadu,Chennai,"Kodungaiyur, Chennai - TNPCB",04-11-2025 07:00:00,13.1278,80.2642,PM2.5,50,98,74
India,TamilNadu,Chennai,"Kodungaiyur, Chennai - TNPCB",04-11-2025 07:00:00,13.1278,80.2642,NO2,11,41,24
India,TamilNadu,Chennai,"Kodungaiyur, Chennai - TNPCB",04-11-2025 07:00:00,13.1278,80.2642,CO,20,70,45
India,TamilNadu,Chennai,"Manali Village, Chennai - TNPCB",04-11-2025 07:00:00,13.1662,80.2584,PM2.5,31,125,79
India,TamilNadu,Chennai,"Manali Village, Chennai - TNPCB",04-11-2025 07:00:00,13.1662,80.2584,NO2,6,9,7
India,TamilNadu,Chennai,"Manali Village, Chennai - TNPCB",04-11-2025 07:00:00,13.1662,80.2584,SO2,3,8,6
India,TamilNadu,Chennai,"Manali Village, Chennai - TNPCB",04-11-2025 07:00:00,13.1662,80.2584,CO,32,105,77
India,TamilNadu,Chennai,"Manali, Chennai - CPCB",04-11-2025 07:00:00,13.164544,80.26285,PM10,25,120,73
India,Telangana,Hyderabad,"Central University, Hyderabad - TSPCB",04-11-2025 07:00:00,17.460103,78.334361,SO2,4,10,7
India,Telangana,Hyderabad,"ECIL Kapra, Hyderabad - TSPCB",04-11-2025 07:00:00,17.470431,78.566959,PM10,60,74,65
India,Telangana,Hyderabad,"ECIL Kapra, Hyderabad - TSPCB",04-11-2025 07:00:00,17.470431,78.566959,NH3,3,6,5
India,Telangana,Hyderabad,"ECIL Kapra, Hyderabad - TSPCB",04-11-2025 07:00:00,17.470431,78.566959,CO,16,72,42
India,Telangana,Hyderabad,"ICRISAT Patancheru, Hyderabad - TSPCB",04-11-2025 07:00:00,17.518400,78.278777,NO2,5,33,12
India,Telangana,Hyderabad,"IDA Pashamylaram, Hyderabad - TSPCB",04-11-2025 07:00:00,17.5316895,78.218939,NO2,1,43,16
India,Telangana,Hyderabad,"IDA Pashamylaram, Hyderabad - TSPCB",04-11-2025 07:00:00,17.5316895,78.218939,SO2,NA,NA,NA
India,Telangana,Hyderabad,"IDA Pashamylaram, Hyderabad - TSPCB",04-11-2025 07:00:00,17.5316895,78.218939,CO,12,53,31
India,TamilNadu,Coimbatore,"SIDCO Kurichi, Coimbatore - TNPCB",04-11-2025 07:00:00,10.942451,76.978996,PM10,47,107,79
India,TamilNadu,Cuddalore,"Kudikadu, Cuddalore - TNPCB",04-11-2025 07:00:00,11.6829898,79.7532099,SO2,18,19,19
India,TamilNadu,Cuddalore,"Kudikadu, Cuddalore - TNPCB",04-11-2025 07:00:00,11.6829898,79.7532099,OZONE,11,14,13
India,TamilNadu,Cuddalore,"Semmandalam, Cuddalore - TNPCB",04-11-2025 07:00:00,11.7637683,79.7499835,PM2.5,58,118,79
India,TamilNadu,Dindigul,"Mendonsa Colony, Dindigul - TNPCB",04-11-2025 07:00:00,10.358535,77.984321,NO2,12,22,16
India,TamilNadu,Gummidipoondi,"Anthoni Pillai Nagar, Gummidipoondi - TNPCB",04-11-2025 07:00:00,13.4127,80.1081,PM10,43,140,103
India,TamilNadu,Namakkal,"Ponnusamy Nagar, Namakkal - TNPCB",04-11-2025 07:00:00,11.273992,78.163545,SO2,8,9,8
India,TamilNadu,Namakkal,"Ponnusamy Nagar, Namakkal - TNPCB",04-11-2025 07:00:00,11.273992,78.163545,CO,10,11,10
India,TamilNadu,Palkalaiperur,"Bharathidasan University, Palkalaiperur - TNPCB",04-11-2025 07:00:00,10.681158,78.741746,NH3,1,3,2
India,TamilNadu,Palkalaiperur,"Bharathidasan University, Palkalaiperur - TNPCB",04-11-2025 07:00:00,10.681158,78.741746,SO2,8,13,11
India,TamilNadu,Perundurai,"SIPCOT Industrial Park, Perundurai - TNPCB",04-11-2025 07:00:00,11.258242,77.552761,NO2,7,12,7
India,TamilNadu,Perundurai,"SIPCOT Industrial Park, Perundurai - TNPCB",04-11-2025 07:00:00,11.258242,77.552761,SO2,12,13,12
India,Telangana,Hyderabad,"Kokapet, Hyderabad - TSPCB",04-11-2025 07:00:00,17.393559,78.339194,NH3,NA,NA,NA
India,Telangana,Hyderabad,"Kokapet, Hyderabad - TSPCB",04-11-2025 07:00:00,17.393559,78.339194,SO2,NA,NA,NA
India,Telangana,Hyderabad,"Kompally Municipal Office, Hyderabad - TSPCB",04-11-2025 07:00:00,17.544899,78.486949,PM10,81,97,88
India,Telangana,Hyderabad,"Kompally Municipal Office, Hyderabad - TSPCB",04-11-2025 07:00:00,17.544899,78.486949,CO,12,24,20
India,Telangana,Hyderabad,"Kompally Municipal Office, Hyderabad - TSPCB",04-11-2025 07:00:00,17.544899,78.486949,OZONE,28,34,29
India,Telangana,Hyderabad,"Nacharam_TSIIC IALA, Hyderabad - TSPCB",04-11-2025 07:00:00,17.429398,78.569354,PM10,77,111,89
India,Telangana,Hyderabad,"Nacharam_TSIIC IALA, Hyderabad - TSPCB",04-11-2025 07:00:00,17.429398,78.569354,NO2,11,17,15
India,TamilNadu,Chennai,"Royapuram, Chennai - TNPCB",04-11-2025 07:00:00,13.1036,80.2909,PM2.5,35,107,67
India,TamilNadu,Chennai,"Velachery Res. Area, Chennai - CPCB",04-11-2025 07:00:00,13.0052189,80.2398125,SO2,15,17,16
India,TamilNadu,Nagapattinam,"Velippalayam, Nagapattinam - TNPCB",04-11-2025 07:00:00,10.798548,79.838212,PM10,NA,NA,NA
India,TamilNadu,Nagapattinam,"Velippalayam, Nagapattinam - TNPCB",04-11-2025 07:00:00,10.798548,79.838212,CO,NA,NA,NA
India,Uttar_Pradesh,Khurja,"Kalindi Kunj, Khurja - UPPCB",04-11-2025 07:00:00,28.2348927,77.8683002,PM2.5,167,352,277
India,Uttar_Pradesh,Khurja,"Kalindi Kunj, Khurja - UPPCB",04-11-2025 07:00:00,28.2348927,77.8683002,NH3,1,1,1
India,Uttar_Pradesh,Lucknow,"B R Ambedkar University, Lucknow - UPPCB",04-11-2025 07:00:00,26.766433,80.927299,SO2,23,24,23
India,Uttar_Pradesh,Lucknow,"B R Ambedkar University, Lucknow - UPPCB",04-11-2025 07:00:00,26.766433,80.927299,OZONE,27,28,28
India,Uttar_Pradesh,Lucknow,"Gomti Nagar, Lucknow - UPPCB",04-11-2025 07:00:00,26.868120,81.005119,SO2,10,12,11
India,Uttar_Pradesh,Lucknow,"Kendriya Vidyalaya, Lucknow - CPCB",04-11-2025 07:00:00,26.906111,80.948222,PM2.5,71,280,159
India,Uttar_Pradesh,Lucknow,"Kendriya Vidyalaya, Lucknow - CPCB",04-11-2025 07:00:00,26.906111,80.948222,NH3,12,17,15
India,Uttar_Pradesh,Lucknow,"Kendriya Vidyalaya, Lucknow - CPCB",04-11-2025 07:00:00,26.906111,80.948222,SO2,3,43,15
India,Uttar_Pradesh,Lucknow,"Kukrail Picnic Spot-1, Lucknow - UPPCB",04-11-2025 07:00:00,26.90723,80.98579,PM2.5,73,215,119
India,Uttar_Pradesh,Ghaziabad,"Vasundhara, Ghaziabad - UPPCB",04-11-2025 07:00:00,28.6603346,77.3572563,NO2,62,181,109
India,Uttar_Pradesh,Ghaziabad,"Vasundhara, Ghaziabad - UPPCB",04-11-2025 07:00:00,28.6603346,77.3572563,NH3,11,17,13
India,Uttar_Pradesh,Gorakhpur,"Madan Mohan Malaviya University of Technology, Gorakhpur - UPPCB",04-11-2025 07:00:00,26.730136,83.433859,PM10,6,180,104
India,Uttar_Pradesh,Gorakhpur,"Madan Mohan Malaviya University of Technology, Gorakhpur - UPPCB",04-11-2025 07:00:00,26.730136,83.433859,OZONE,15,48,31
India,Uttar_Pradesh,Greater Noida,"Knowledge Park - III, Greater Noida - UPPCB",04-11-2025 07:00:00,28.47272,77.482000,PM2.5,137,391,299
India,Uttar_Pradesh,Greater Noida,"Knowledge Park - V, Greater Noida - UPPCB",04-11-2025 07:00:00,28.557054,77.453663,SO2,3,10,7
India,Uttar_Pradesh,Agra,"Sector-3B Avas Vikas Colony, Agra - UPPCB",04-11-2025 07:00:00,27.19412,77.96237,PM10,NA,NA,NA
India,Uttar_Pradesh,Agra,"Sector-3B Avas Vikas Colony, Agra - UPPCB",04-11-2025 07:00:00,27.19412,77.96237,SO2,9,10,9
India,Uttar_Pradesh,Agra,"Shastripuram, Agra - UPPCB",04-11-2025 07:00:00,27.19862,77.92066,SO2,9,31,23
India,Uttar_Pradesh,Baghpat,"Sardar Patel Inter College, Baghpat - UPPCB",04-11-2025 07:00:00,28.964949,77.278761,NO2,57,141,91
India,Uttar_Pradesh,Baghpat,"Sardar Patel Inter College, Baghpat - UPPCB",04-11-2025 07:00:00,28.964949,77.278761,NH3,6,21,10
India,Uttar_Pradesh,Baghpat,"Sardar Patel Inter College, Baghpat - UPPCB",04-11-2025 07:00:00,28.964949,77.278761,SO2,31,62,49
India,Uttar_Pradesh,Bareilly,"Civil Lines, Bareilly - UPPCB",04-11-2025 07:00:00,28.359581,79.414455,PM2.5,19,78,55
India,Uttar_Pradesh,Lucknow,"Kukrail Picnic Spot-1, Lucknow - UPPCB",04-11-2025 07:00:00,26.90723,80.98579,SO2,41,44,42
India,Uttar_Pradesh,Lucknow,"Lalbagh, Lucknow - CPCB",04-11-2025 07:00:00,26.8458805,80.9365541,PM2.5,29,266,120
India,Uttar_Pradesh,Lucknow,"Lalbagh, Lucknow - CPCB",04-11-2025 07:00:00,26.8458805,80.9365541,NO2,40,76,59
India,Uttar_Pradesh,Lucknow,"Lalbagh, Lucknow - CPCB",04-11-2025 07:00:00,26.8458805,80.9365541,CO,14,98,42
India,Uttar_Pradesh,Lucknow,"Lalbagh, Lucknow - CPCB",04-11-2025 07:00:00,26.8458805,80.9365541,OZONE,29,83,56
India,Uttar_Pradesh,Lucknow,"Talkatora District Industries Center, Lucknow - CPCB",04-11-2025 07:00:00,26.83399722,80.8917361,NO2,40,51,46
India,Uttar_Pradesh,Meerut,"Ganga Nagar, Meerut - UPPCB",04-11-2025 07:00:00,28.999264,77.7590354,OZONE,18,157,20
India,Telangana,Hyderabad,"Zoo Park, Hyderabad - TSPCB",04-11-2025 07:00:00,17.349694,78.451437,SO2,4,4,4
India,Tripura,Agartala,"Bardowali, Agartala - Tripura SPCB",04-11-2025 07:00:00,23.8175497,91.2726974,PM10,22,54,39
India,Uttar_Pradesh,Agra,"Manoharpur, Agra - UPPCB",04-11-2025 07:00:00,27.23711,78.01936,NO2,30,30,30
India,Uttar_Pradesh,Agra,"Manoharpur, Agra - UPPCB",04-11-2025 07:00:00,27.23711,78.01936,NH3,2,3,2
India,Uttar_Pradesh,Agra,"Rohta, Agra - UPPCB",04-11-2025 07:00:00,27.106972,78.000111,PM2.5,29,131,60
India,Uttar_Pradesh,Agra,"Sanjay Palace, Agra - UPPCB",04-11-2025 07:00:00,27.19865833,78.00598056,PM2.5,46,257,108
India,Uttar_Pradesh,Firozabad,"Vibhab Nagar, Firozabad - UPPCB",04-11-2025 07:00:00,27.1594,78.3953,PM2.5,59,247,104
India,Uttar_Pradesh,Firozabad,"Vibhab Nagar, Firozabad - UPPCB",04-11-2025 07:00:00,27.1594,78.3953,SO2,4,43,17
India,Uttar_Pradesh,Firozabad,"Vibhab Nagar, Firozabad - UPPCB",04-11-2025 07:00:00,27.1594,78.3953,OZONE,2,22,2
India,Uttar_Pradesh,Ghaziabad,"Loni, Ghaziabad - UPPCB",04-11-2025 07:00:00,28.757294,77.278792,PM10,236,500,409
India,Uttar_Pradesh,Ghaziabad,"Loni, Ghaziabad - UPPCB",04-11-2025 07:00:00,28.757294,77.278792,NO2,41,367,139
India,Uttar_Pradesh,Ghaziabad,"Sanjay Nagar, Ghaziabad - UPPCB",04-11-2025 07:00:00,28.685382,77.453839,OZONE,8,179,12
India,Uttar_Pradesh,Ghaziabad,"Vasundhara, Ghaziabad - UPPCB",04-11-2025 07:00:00,28.6603346,77.3572563,PM2.5,333,498,389
India,Uttar_Pradesh,Kanpur,"FTI Kidwai Nagar, Kanpur - UPPCB",04-11-2025 07:00:00,26.428282,80.327067,SO2,23,37,30
India,Uttar_Pradesh,Kanpur,"NSI Kalyanpur, Kanpur - UPPCB",04-11-2025 07:00:00,26.509954,80.249612,PM10,100,174,138
India,Uttar_Pradesh,Kanpur,"NSI Kalyanpur, Kanpur - UPPCB",04-11-2025 07:00:00,26.509954,80.249612,NH3,3,3,3
India,Uttar_Pradesh,Bareilly,"Rajendra Nagar, Bareilly - UPPCB",04-11-2025 07:00:00,28.38910936,79.42963708,SO2,31,34,33
India,Uttar_Pradesh,Firozabad,"Nagla Bhau, Firozabad - UPPCB",04-11-2025 07:00:00,27.168897,78.376960,CO,8,20,9
India,Telangana,Hyderabad,"New Malakpet, Hyderabad - TSPCB",04-11-2025 07:00:00,17.37206,78.50864,CO,24,41,25
India,Telangana,Hyderabad,"Ramachandrapuram, Hyderabad - TSPCB",04-11-2025 07:00:00,17.528544,78.286195,PM2.5,NA,NA,NA
India,Telangana,Hyderabad,"Ramachandrapuram, Hyderabad - TSPCB",04-11-2025 07:00:00,17.528544,78.286195,PM10,NA,NA,NA
India,Uttarakhand,Dehradun,"Doon University, Dehradun - UKPCB",04-11-2025 07:00:00,30.269444,78.044167,PM2.5,37,128,89
India,Uttarakhand,Dehradun,"Doon University, Dehradun - UKPCB",04-11-2025 07:00:00,30.269444,78.044167,PM10,40,105,62
India,Uttarakhand,Dehradun,"Doon University, Dehradun - UKPCB",04-11-2025 07:00:00,30.269444,78.044167,NO2,1,4,2
India,Uttarakhand,Dehradun,"Doon University, Dehradun - UKPCB",04-11-2025 07:00:00,30.269444,78.044167,OZONE,27,73,33
India,Uttarakhand,Kashipur,"Govt. Girls Inter College, Kashipur - UKPCB",04-11-2025 07:00:00,29.2124114,78.9611753,NH3,2,16,5
India,Uttarakhand,Kashipur,"Govt. Girls Inter College, Kashipur - UKPCB",04-11-2025 07:00:00,29.2124114,78.9611753,SO2,2,9,8
India,Uttarakhand,Rishikesh,"Shivaji Nagar, Rishikesh - UKPCB",04-11-2025 07:00:00,30.075911,78.2859547,PM10,67,119,89
India,Uttarakhand,Rishikesh,"Shivaji Nagar, Rishikesh - UKPCB",04-11-2025 07:00:00,30.075911,78.2859547,CO,20,46,24
India,West_Bengal,Asansol,"Asansol Court Area, Asansol - WBPCB",04-11-2025 07:00:00,23.685297,86.945968,PM2.5,137,306,233
India,West_Bengal,Asansol,"Asansol Court Area, Asansol - WBPCB",04-11-2025 07:00:00,23.685297,86.945968,NO2,15,28,23
India,West_Bengal,Asansol,"Asansol Court Area, Asansol - WBPCB",04-11-2025 07:00:00,23.685297,86.945968,NH3,2,9,5
India,Uttar_Pradesh,Moradabad,"Transport Nagar, Moradabad - UPPCB",04-11-2025 07:00:00,28.802625,78.753728,OZONE,26,60,27
India,Uttar_Pradesh,Muzaffarnagar,"New Mandi, Muzaffarnagar - UPPCB",04-11-2025 07:00:00,29.4723508,77.7194031,PM2.5,191,420,292
India,Uttar_Pradesh,Muzaffarnagar,"New Mandi, Muzaffarnagar - UPPCB",04-11-2025 07:00:00,29.4723508,77.7194031,NO2,33,109,62
India,Uttar_Pradesh,Muzaffarnagar,"New Mandi, Muzaffarnagar - UPPCB",04-11-2025 07:00:00,29.4723508,77.7194031,SO2,15,37,22
India,Uttar_Pradesh,Noida,"Sector - 62, Noida - IMD",04-11-2025 07:00:00,28.6245479,77.3577104,PM2.5,243,430,323
India,Uttar_Pradesh,Noida,"Sector - 62, Noida - IMD",04-11-2025 07:00:00,28.6245479,77.3577104,PM10,177,403,234
India,Uttar_Pradesh,Noida,"Sector - 62, Noida - IMD",04-11-2025 07:00:00,28.6245479,77.3577104,NO2,3,43,25
India,Uttar_Pradesh,Noida,"Sector - 62, Noida - IMD",04-11-2025 07:00:00,28.6245479,77.3577104,CO,24,88,76
India,Uttar_Pradesh,Noida,"Sector-1, Noida - UPPCB",04-11-2025 07:00:00,28.5898,77.3101,NH3,12,26,16
India,Uttar_Pradesh,Meerut,"Jai Bhim Nagar, Meerut - UPPCB",04-11-2025 07:00:00,28.9535882,77.7622941,OZONE,4,183,6
India,Uttar_Pradesh,Meerut,"Pallavpuram Phase 2, Meerut - UPPCB",04-11-2025 07:00:00,29.063510,77.709723,PM2.5,129,500,305
India,Uttar_Pradesh,Meerut,"Pallavpuram Phase 2, Meerut - UPPCB",04-11-2025 07:00:00,29.063510,77.709723,NH3,5,10,7
India,Uttar_Pradesh,Moradabad,"Buddhi Vihar, Moradabad - UPPCB",04-11-2025 07:00:00,28.83526,78.74460,PM10,116,277,179
India,Uttar_Pradesh,Moradabad,"Buddhi Vihar, Moradabad - UPPCB",04-11-2025 07:00:00,28.83526,78.74460,NH3,5,5,5
India,Uttar_Pradesh,Moradabad,"Buddhi Vihar, Moradabad - UPPCB",04-11-2025 07:00:00,28.83526,78.74460,SO2,28,81,35
India,Uttar_Pradesh,Moradabad,"Buddhi Vihar, Moradabad - UPPCB",04-11-2025 07:00:00,28.83526,78.74460,OZONE,10,124,10
India,Uttar_Pradesh,Moradabad,"Eco Herbal Park, Moradabad - UPPCB",04-11-2025 07:00:00,28.840739,78.697531,PM10,122,272,157
India,Uttar_Pradesh,Moradabad,"Eco Herbal Park, Moradabad - UPPCB",04-11-2025 07:00:00,28.840739,78.697531,NH3,4,8,5
India,Uttar_Pradesh,Moradabad,"Eco Herbal Park, Moradabad - UPPCB",04-11-2025 07:00:00,28.840739,78.697531,SO2,5,28,15
India,Uttar_Pradesh,Moradabad,"Employment Office, Moradabad - UPPCB",04-11-2025 07:00:00,28.88528,78.73880,PM10,121,265,170
India,Uttar_Pradesh,Moradabad,"Employment Office, Moradabad - UPPCB",04-11-2025 07:00:00,28.88528,78.73880,CO,18,100,24
India,Uttar_Pradesh,Moradabad,"Employment Office, Moradabad - UPPCB",04-11-2025 07:00:00,28.88528,78.73880,OZONE,15,31,15
India,Uttar_Pradesh,Moradabad,"Kashiram Nagar, Moradabad - UPPCB",04-11-2025 07:00:00,28.849399,78.742362,CO,38,70,56
India,Uttar_Pradesh,Moradabad,"Transport Nagar, Moradabad - UPPCB",04-11-2025 07:00:00,28.802625,78.753728,NO2,29,30,29
India,Uttar_Pradesh,Moradabad,"Transport Nagar, Moradabad - UPPCB",04-11-2025 07:00:00,28.802625,78.753728,NH3,5,6,5
India,Uttar_Pradesh,Prayagraj,"Jhunsi, Prayagraj - UPPCB",04-11-2025 07:00:00,25.425602,81.917152,SO2,8,19,10
India,Uttar_Pradesh,Prayagraj,"Motilal Nehru NIT, Prayagraj - UPPCB",04-11-2025 07:00:00,25.494,81.863,PM10,62,134,94
India,Uttar_Pradesh,Prayagraj,"Motilal Nehru NIT, Prayagraj - UPPCB",04-11-2025 07:00:00,25.494,81.863,SO2,57,80,66
India,Uttar_Pradesh,Prayagraj,"Nagar Nigam, Prayagraj - UPPCB",04-11-2025 07:00:00,25.44919916 ,81.82735986 ,NH3,1,4,2
India,Uttar_Pradesh,Prayagraj,"Nagar Nigam, Prayagraj - UPPCB",04-11-2025 07:00:00,25.44919916 ,81.82735986 ,CO,26,60,32
India,West_Bengal,Asansol,"Evelyn Lodge, Asansol - WBPCB",04-11-2025 07:00:00,23.6979360,86.9443950,PM2.5,72,164,116
India,West_Bengal,Asansol,"Evelyn Lodge, Asansol - WBPCB",04-11-2025 07:00:00,23.6979360,86.9443950,OZONE,8,33,11
India,West_Bengal,Barrackpore,"SVSPA Campus, Barrackpore - WBPCB",04-11-2025 07:00:00,22.7605581,88.3617589,PM10,50,130,98
India,West_Bengal,Barrackpore,"SVSPA Campus, Barrackpore - WBPCB",04-11-2025 07:00:00,22.7605581,88.3617589,SO2,9,16,11
India,Uttar_Pradesh,Varanasi,"Bhelupur, Varanasi - UPPCB",04-11-2025 07:00:00,25.301778,82.996789,NO2,NA,NA,NA
India,Uttar_Pradesh,Varanasi,"Bhelupur, Varanasi - UPPCB",04-11-2025 07:00:00,25.301778,82.996789,NH3,NA,NA,NA
India,Uttar_Pradesh,Varanasi,"Maldahiya, Varanasi - UPPCB",04-11-2025 07:00:00,25.32393,82.99687,PM10,60,130,88
India,Uttar_Pradesh,Varanasi,"Maldahiya, Varanasi - UPPCB",04-11-2025 07:00:00,25.32393,82.99687,NO2,1,2,2
India,Uttar_Pradesh,Varanasi,"Maldahiya, Varanasi - UPPCB",04-11-2025 07:00:00,25.32393,82.99687,CO,16,38,22
India,Uttar_Pradesh,Vrindavan,"Omex Eternity, Vrindavan - UPPCB",04-11-2025 07:00:00,27.5714090,77.6557570,NO2,12,12,12
India,Uttar_Pradesh,Noida,"Sector-116, Noida - UPPCB",04-11-2025 07:00:00,28.569230,77.393848,PM2.5,260,414,355
India,West_Bengal,Durgapur,"Mahishkapur Road_B-Zone, Durgapur - WBPCB",04-11-2025 07:00:00,23.567923,87.306843,PM10,83,163,125
India,West_Bengal,Durgapur,"PCBL Residential Complex, Durgapur - WBPCB",04-11-2025 07:00:00,23.5087640,87.3544400,CO,34,63,57
India,West_Bengal,Durgapur,"Womens College_City Center, Durgapur - WBPCB (Formerly known as Sidhu Kanhu Indoor Stadium)",04-11-2025 07:00:00,23.549395,87.300496,PM2.5,63,294,179
India,West_Bengal,Durgapur,"Womens College_City Center, Durgapur - WBPCB (Formerly known as Sidhu Kanhu Indoor Stadium)",04-11-2025 07:00:00,23.549395,87.300496,SO2,9,59,26
India,West_Bengal,Haldia,"Priyambada Housing Estate, Haldia - WBPCB",04-11-2025 07:00:00,22.06047,88.109737,NO2,12,22,16
India,West_Bengal,Howrah,"Belur Math, Howrah - WBPCB",04-11-2025 07:00:00,22.629801,88.352017,SO2,8,14,10
India,West_Bengal,Howrah,"Botanical Garden, Howrah - WBPCB",04-11-2025 07:00:00,22.554954,88.292568,NH3,1,3,2
India,West_Bengal,Howrah,"Botanical Garden, Howrah - WBPCB",04-11-2025 07:00:00,22.554954,88.292568,OZONE,21,82,25
India,West_Bengal,Howrah,"Dasnagar, Howrah - WBPCB",04-11-2025 07:00:00,22.6025571,88.3105664,NH3,1,1,1
India,West_Bengal,Howrah,"Dasnagar, Howrah - WBPCB",04-11-2025 07:00:00,22.6025571,88.3105664,SO2,12,28,15
India,West_Bengal,Howrah,"Ghusuri, Howrah - WBPCB",04-11-2025 07:00:00,22.611968,88.347422,PM2.5,53,311,162
India,West_Bengal,Howrah,"Ghusuri, Howrah - WBPCB",04-11-2025 07:00:00,22.611968,88.347422,CO,29,92,56
India,West_Bengal,Kolkata,"Ballygunge, Kolkata - WBPCB",04-11-2025 07:00:00,22.5367507,88.3638022,PM2.5,41,232,141
India,West_Bengal,Kolkata,"Ballygunge, Kolkata - WBPCB",04-11-2025 07:00:00,22.5367507,88.3638022,PM10,45,166,119
India,West_Bengal,Kolkata,"Ballygunge, Kolkata - WBPCB",04-11-2025 07:00:00,22.5367507,88.3638022,CO,14,92,42
India,West_Bengal,Kolkata,"Bidhannagar, Kolkata - WBPCB",04-11-2025 07:00:00,22.58157048,88.41002457,PM2.5,38,202,120
India,West_Bengal,Kolkata,"Bidhannagar, Kolkata - WBPCB",04-11-2025 07:00:00,22.58157048,88.41002457,NO2,4,15,11
India,West_Bengal,Kolkata,"Bidhannagar, Kolkata - WBPCB",04-11-2025 07:00:00,22.58157048,88.41002457,SO2,6,43,11
India,West_Bengal,Kolkata,"Fort William, Kolkata - WBPCB",04-11-2025 07:00:00,22.556640,88.342674,PM2.5,40,233,142
India,West_Bengal,Kolkata,"Fort William, Kolkata - WBPCB",04-11-2025 07:00:00,22.556640,88.342674,NO2,7,25,13
India,West_Bengal,Kolkata,"Fort William, Kolkata - WBPCB",04-11-2025 07:00:00,22.556640,88.342674,SO2,10,19,12
India,West_Bengal,Kolkata,"Jadavpur, Kolkata - WBPCB",04-11-2025 07:00:00,22.49929,88.36917,NO2,1,33,14
India,West_Bengal,Kolkata,"Rabindra Bharati University, Kolkata - WBPCB",04-11-2025 07:00:00,22.627847,88.380669,CO,26,44,37
India,West_Bengal,Kolkata,"Rabindra Sarobar, Kolkata - WBPCB",04-11-2025 07:00:00,22.51106,88.35142,NH3,8,16,11
India,West_Bengal,Siliguri,"Ward-32 Bapupara, Siliguri - WBPCB",04-11-2025 07:00:00,26.6879226,88.4152495,NO2,17,22,19
India,West_Bengal,Siliguri,"Ward-32 Bapupara, Siliguri - WBPCB",04-11-2025 07:00:00,26.6879226,88.4152495,OZONE,42,51,45
India,Bihar,Buxar,"Charitra Van, Buxar - BSPCB",04-11-2025 07:00:00,25.567520,83.966379,PM2.5,72,100,84
India,Bihar,Buxar,"Charitra Van, Buxar - BSPCB",04-11-2025 07:00:00,25.567520,83.966379,CO,22,28,24
India,Bihar,Buxar,"Charitra Van, Buxar - BSPCB",04-11-2025 07:00:00,25.567520,83.966379,OZONE,1,84,2
India,Bihar,Chhapra,"Darshan Nagar, Chhapra - BSPCB",04-11-2025 07:00:00,25.7808257,84.7446768,NO2,2,2,2
India,Bihar,Chhapra,"Darshan Nagar, Chhapra - BSPCB",04-11-2025 07:00:00,25.7808257,84.7446768,NH3,5,6,5
India,Bihar,Chhapra,"Darshan Nagar, Chhapra - BSPCB",04-11-2025 07:00:00,25.7808257,84.7446768,OZONE,14,25,18
India,Bihar,Gaya,"Collectorate, Gaya - BSPCB",04-11-2025 07:00:00,24.7955,84.9994,SO2,9,21,13
India,Bihar,Gaya,"Kareemganj, Gaya - BSPCB",04-11-2025 07:00:00,24.792403,84.992416,NH3,4,6,5
India,Bihar,Gaya,"SFTI Kusdihra, Gaya - BSPCB",04-11-2025 07:00:00,24.762518,84.982348,NO2,18,26,22
India,Bihar,Gaya,"SFTI Kusdihra, Gaya - BSPCB",04-11-2025 07:00:00,24.762518,84.982348,NH3,3,4,3
India,Bihar,Gaya,"SFTI Kusdihra, Gaya - BSPCB",04-11-2025 07:00:00,24.762518,84.982348,SO2,8,9,8
India,Bihar,Motihari,"Gandak Colony, Motihari - BSPCB",04-11-2025 07:00:00,26.63086,84.90051,PM2.5,20,24,22
India,Bihar,Motihari,"Gandak Colony, Motihari - BSPCB",04-11-2025 07:00:00,26.63086,84.90051,NH3,3,3,3
India,Bihar,Munger,"Town Hall, Munger - BSPCB",04-11-2025 07:00:00,25.376776,86.471523,PM2.5,60,270,121
India,Bihar,Munger,"Town Hall, Munger - BSPCB",04-11-2025 07:00:00,25.376776,86.471523,NH3,4,7,6
India,Bihar,Muzaffarpur,"Buddha Colony, Muzaffarpur - BSPCB",04-11-2025 07:00:00,26.11442,85.39813,NO2,6,38,24
India,Bihar,Muzaffarpur,"MIT-Daudpur Kothi, Muzaffarpur - BSPCB",04-11-2025 07:00:00,26.1403345,85.3650192,PM2.5,32,59,51
India,Bihar,Muzaffarpur,"MIT-Daudpur Kothi, Muzaffarpur - BSPCB",04-11-2025 07:00:00,26.1403345,85.3650192,NO2,7,11,9
India,Bihar,Muzaffarpur,"MIT-Daudpur Kothi, Muzaffarpur - BSPCB",04-11-2025 07:00:00,26.1403345,85.3650192,NH3,1,1,1
India,Andhra_Pradesh,Vijayawada,"Rajiv Nagar, Vijayawada - APPCB",04-11-2025 07:00:00,16.554731,80.649110,PM10,28,167,58
India,Andhra_Pradesh,Vijayawada,"Rajiv Nagar, Vijayawada - APPCB",04-11-2025 07:00:00,16.554731,80.649110,SO2,18,24,20
India,Andhra_Pradesh,Visakhapatnam,"GVM Corporation, Visakhapatnam - APPCB",04-11-2025 07:00:00,17.72,83.3,NO2,9,79,41
India,Andhra_Pradesh,Visakhapatnam,"GVM Corporation, Visakhapatnam - APPCB",04-11-2025 07:00:00,17.72,83.3,OZONE,5,75,17
India,Arunachal_Pradesh,Naharlagun,"Naharlagun, Naharlagun - APSPCB",04-11-2025 07:00:00,27.103358,93.679645,PM2.5,2,163,32
India,Assam,Guwahati,"IITG, Guwahati - PCBA",04-11-2025 07:00:00,26.2028636,91.70046436,CO,4,23,17
India,Bihar,Muzaffarpur,"MIT-Daudpur Kothi, Muzaffarpur - BSPCB",04-11-2025 07:00:00,26.1403345,85.3650192,OZONE,11,66,17
India,Bihar,Patna,"DRM Office Danapur, Patna - BSPCB",04-11-2025 07:00:00,25.586562,85.043586,PM10,124,323,162
India,Bihar,Patna,"IGSC Planetarium Complex, Patna - BSPCB",04-11-2025 07:00:00,25.610369,85.132568,PM2.5,108,307,158
India,Bihar,Patna,"IGSC Planetarium Complex, Patna - BSPCB",04-11-2025 07:00:00,25.610369,85.132568,SO2,32,37,35
India,Bihar,Patna,"IGSC Planetarium Complex, Patna - BSPCB",04-11-2025 07:00:00,25.610369,85.132568,OZONE,28,30,29
India,Andhra_Pradesh,Rajamahendravaram,"Anand Kala Kshetram, Rajamahendravaram - APPCB",04-11-2025 07:00:00,16.9872867,81.7363176,PM2.5,8,61,33
India,Andhra_Pradesh,Rajamahendravaram,"Anand Kala Kshetram, Rajamahendravaram - APPCB",04-11-2025 07:00:00,16.9872867,81.7363176,SO2,4,16,7
India,Andhra_Pradesh,Tirumala,"Toll Gate, Tirumala - APPCB",04-11-2025 07:00:00,13.67,79.35,PM2.5,27,76,47
India,Andhra_Pradesh,Tirumala,"Toll Gate, Tirumala - APPCB",04-11-2025 07:00:00,13.67,79.35,NH3,1,2,1
India,Andhra_Pradesh,Tirumala,"Toll Gate, Tirumala - APPCB",04-11-2025 07:00:00,13.67,79.35,CO,21,38,27
India,Bihar,Begusarai,"Lohiyanagar, Begusarai - BSPCB",04-11-2025 07:00:00,25.42742023,86.13886079,NO2,10,27,19
India,Bihar,Bettiah,"Kamalnath Nagar, Bettiah - BSPCB",04-11-2025 07:00:00,26.80365,84.51954,PM10,99,195,128
India,Bihar,Bettiah,"Kamalnath Nagar, Bettiah - BSPCB",04-11-2025 07:00:00,26.80365,84.51954,NO2,2,10,8
India,Bihar,Bhagalpur,"DM Office_Kachari Chowk, Bhagalpur - BSPCB",04-11-2025 07:00:00,25.251013,86.989001,CO,NA,NA,NA
India,Bihar,Hajipur,"Industrial Area, Hajipur - BSPCB",04-11-2025 07:00:00,25.697189,85.245900,PM10,107,161,128
India,Bihar,Hajipur,"Industrial Area, Hajipur - BSPCB",04-11-2025 07:00:00,25.697189,85.245900,NO2,19,35,25
India,Bihar,Katihar,"Mirchaibari, Katihar - BSPCB",04-11-2025 07:00:00,25.560083,87.553265,NO2,10,17,14
India,Bihar,Manguraha,"Forest Rest House, Manguraha - BSPCB",04-11-2025 07:00:00,27.308328,84.531742,NH3,2,4,3
India,Assam,Guwahati,"Pan Bazaar, Guwahati - PCBA",04-11-2025 07:00:00,26.187500,91.744194,CO,14,83,46
India,Assam,Guwahati,"Railway Colony, Guwahati - PCBA",04-11-2025 07:00:00,26.181742,91.78063,PM2.5,13,118,51
India,Assam,Guwahati,"Railway Colony, Guwahati - PCBA",04-11-2025 07:00:00,26.181742,91.78063,NO2,3,4,3
India,Andhra_Pradesh,Amaravati,"Secretariat, Amaravati - APPCB",04-11-2025 07:00:00,16.5150833,80.5181667,SO2,4,11,8
India,Andhra_Pradesh,Chittoor,"Gangineni Cheruvu, Chittoor - APPCB",04-11-2025 07:00:00,13.204880,79.097889,NO2,21,31,24
India,Bihar,Araria,"Kharahiya Basti, Araria - BSPCB",04-11-2025 07:00:00,26.146529,87.454184,PM2.5,40,319,107
India,Bihar,Arrah,"New DM Office, Arrah - BSPCB",04-11-2025 07:00:00,25.5626095,84.663264,PM2.5,NA,NA,NA
India,Delhi,Delhi,"CRRI Mathura Road, Delhi - IMD",04-11-2025 07:00:00,28.5512005,77.2735737,PM10,172,416,309
India,Delhi,Delhi,"CRRI Mathura Road, Delhi - IMD",04-11-2025 07:00:00,28.5512005,77.2735737,NO2,2,76,34
India,Delhi,Delhi,"Chandni Chowk, Delhi - IITM",04-11-2025 07:00:00,28.656756,77.227234,PM10,204,421,290
India,Delhi,Delhi,"Chandni Chowk, Delhi - IITM",04-11-2025 07:00:00,28.656756,77.227234,NH3,7,16,10
India,Delhi,Delhi,"Chandni Chowk, Delhi - IITM",04-11-2025 07:00:00,28.656756,77.227234,SO2,29,63,40
India,Delhi,Delhi,"DTU, Delhi - CPCB",04-11-2025 07:00:00,28.7500499,77.1112615,PM10,21,428,295
India,Delhi,Delhi,"DTU, Delhi - CPCB",04-11-2025 07:00:00,28.7500499,77.1112615,OZONE,12,29,15
India,Delhi,Delhi,"Dr. Karni Singh Shooting Range, Delhi - DPCC",04-11-2025 07:00:00,28.498571,77.264840,PM2.5,127,361,236
India,Delhi,Delhi,"Dr. Karni Singh Shooting Range, Delhi - DPCC",04-11-2025 07:00:00,28.498571,77.264840,NO2,45,107,73
India,Delhi,Delhi,"Dr. Karni Singh Shooting Range, Delhi - DPCC",04-11-2025 07:00:00,28.498571,77.264840,NH3,8,11,9
India,Delhi,Delhi,"Alipur, Delhi - DPCC",04-11-2025 07:00:00,28.815329,77.153010,OZONE,3,61,4
India,Delhi,Delhi,"Anand Vihar, Delhi - DPCC",04-11-2025 07:00:00,28.647622,77.3158090,CO,1,174,115
India,Delhi,Delhi,"Ashok Vihar, Delhi - DPCC",04-11-2025 07:00:00,28.695381,77.181665,NO2,47,118,76
India,Delhi,Delhi,"Ashok Vihar, Delhi - DPCC",04-11-2025 07:00:00,28.695381,77.181665,NH3,1,1,1
India,Delhi,Delhi,"Ashok Vihar, Delhi - DPCC",04-11-2025 07:00:00,28.695381,77.181665,SO2,17,32,26
India,Delhi,Delhi,"Ashok Vihar, Delhi - DPCC",04-11-2025 07:00:00,28.695381,77.181665,CO,47,158,124
India,Delhi,Delhi,"Aya Nagar, Delhi - IMD",04-11-2025 07:00:00,28.4706914,77.1099364,PM10,123,425,206
India,Delhi,Delhi,"Bawana, Delhi - DPCC",04-11-2025 07:00:00,28.776200,77.051074,PM10,200,500,328
India,Chhattisgarh,Korba,"Rampur, Korba - CECB",04-11-2025 07:00:00,22.368195,82.746431,OZONE,NA,NA,NA
India,Chhattisgarh,Korba,"Urja Nagar, Korba - CECB",04-11-2025 07:00:00,22.348441,82.549611,PM2.5,64,68,64
India,Chhattisgarh,Korba,"Urja Nagar, Korba - CECB",04-11-2025 07:00:00,22.348441,82.549611,PM10,68,73,69
India,Chhattisgarh,Kunjemura,"OP Jindal School, Kunjemura - CECB",04-11-2025 07:00:00,22.126650,83.483212,PM2.5,NA,NA,NA
India,Chhattisgarh,Kunjemura,"OP Jindal School, Kunjemura - CECB",04-11-2025 07:00:00,22.126650,83.483212,CO,6,17,12
India,Chhattisgarh,Milupara,"Govt. Higher Secondary School, Milupara - CECB",04-11-2025 07:00:00,22.1910172,83.5197009,PM2.5,26,58,42
India,Chhattisgarh,Milupara,"Govt. Higher Secondary School, Milupara - CECB",04-11-2025 07:00:00,22.1910172,83.5197009,CO,10,38,13
India,Chhattisgarh,Milupara,"Govt. Higher Secondary School, Milupara - CECB",04-11-2025 07:00:00,22.1910172,83.5197009,OZONE,NA,NA,NA
India,Chhattisgarh,Raipur,"AIIMS, Raipur - CECB",04-11-2025 07:00:00,21.258815,81.578979,OZONE,5,12,5
India,Chhattisgarh,Raipur,"Bhatagaon New ISBT, Raipur - CECB",04-11-2025 07:00:00,21.219665,81.630094,CO,NA,NA,NA
India,Chhattisgarh,Raipur,"Krishak Nagar, Raipur - CECB",04-11-2025 07:00:00,21.237755,81.705301,NH3,2,3,2
India,Chhattisgarh,Raipur,"Siltara Phase-II, Raipur - CECB",04-11-2025 07:00:00,21.371751,81.664929,NH3,3,3,3
India,Chhattisgarh,Tumidih,"OP Jindal Industrial Park, Tumidih - CECB",04-11-2025 07:00:00,22.06631475,83.33820077,SO2,5,8,6
India,Chhattisgarh,Tumidih,"OP Jindal Industrial Park, Tumidih - CECB",04-11-2025 07:00:00,22.06631475,83.33820077,CO,14,34,24
India,Chhattisgarh,Bhilai,"Civic Center, Bhilai - Bhilai Steel Plant",04-11-2025 07:00:00,21.185571,81.343175,CO,NA,NA,NA
India,Chhattisgarh,Bhilai,"Hathkhoj, Bhilai - CECB",04-11-2025 07:00:00,21.224231,81.408350,PM2.5,30,169,68
India,Chhattisgarh,Bhilai,"Hathkhoj, Bhilai - CECB",04-11-2025 07:00:00,21.224231,81.408350,SO2,8,15,12
India,Chhattisgarh,Bhilai,"Hathkhoj, Bhilai - CECB",04-11-2025 07:00:00,21.224231,81.408350,OZONE,9,23,14
India,Chhattisgarh,Chhal,"Nawapara SECL Colony, Chhal - CECB",04-11-2025 07:00:00,22.118125,83.140608,NO2,5,17,8
India,Chhattisgarh,Chhal,"Nawapara SECL Colony, Chhal - CECB",04-11-2025 07:00:00,22.118125,83.140608,CO,20,52,23
India,Delhi,Delhi,"Dwarka-Sector 8, Delhi - DPCC ",04-11-2025 07:00:00,28.5710274,77.0719006,NH3,5,6,5
India,Delhi,Delhi,"Dwarka-Sector 8, Delhi - DPCC ",04-11-2025 07:00:00,28.5710274,77.0719006,OZONE,1,121,7
India,Delhi,Delhi,"IGI Airport (T3), Delhi - IMD",04-11-2025 07:00:00,28.5627763,77.1180053,NO2,81,259,173
India,Delhi,Delhi,"IHBAS, Dilshad Garden, Delhi - CPCB",04-11-2025 07:00:00,28.6811736,77.3025234,OZONE,2,69,4
India,Delhi,Delhi,"ITO, Delhi - CPCB",04-11-2025 07:00:00,28.628624,77.241060,PM2.5,248,471,348
India,Bihar,Patna,"Rajbansi Nagar, Patna - BSPCB",04-11-2025 07:00:00,25.599486,85.113666,NO2,4,86,38
India,Bihar,Patna,"Rajbansi Nagar, Patna - BSPCB",04-11-2025 07:00:00,25.599486,85.113666,CO,24,74,38
India,Bihar,Patna,"Samanpura, Patna - BSPCB",04-11-2025 07:00:00,25.596727,85.085624,PM2.5,170,306,253
India,Bihar,Patna,"Samanpura, Patna - BSPCB",04-11-2025 07:00:00,25.596727,85.085624,NO2,34,52,44
India,Bihar,Purnia,"Mariam Nagar, Purnia - BSPCB",04-11-2025 07:00:00,25.366336,87.117468,CO,57,62,59
India,Bihar,Purnia,"Mariam Nagar, Purnia - BSPCB",04-11-2025 07:00:00,25.366336,87.117468,OZONE,13,62,20
India,Bihar,Rajgir,"Dangi Tola, Rajgir - BSPCB",04-11-2025 07:00:00,25.03280,85.41948,NH3,5,7,6
India,Bihar,Rajgir,"Dangi Tola, Rajgir - BSPCB",04-11-2025 07:00:00,25.03280,85.41948,SO2,16,24,21
India,Bihar,Saharsa,"Police Line, Saharsa - BSPCB",04-11-2025 07:00:00,25.892357,86.590325,PM10,44,271,99
India,Bihar,Saharsa,"Police Line, Saharsa - BSPCB",04-11-2025 07:00:00,25.892357,86.590325,NH3,4,4,4
India,Bihar,Samastipur,"DM Office_Kasipur, Samastipur - BSPCB",04-11-2025 07:00:00,25.859655,85.77944,NH3,2,2,2
India,Chandigarh,Chandigarh,"Sector 22, Chandigarh - CPCC",04-11-2025 07:00:00,30.735567,76.775714,PM10,35,193,106
India,Chandigarh,Chandigarh,"Sector 22, Chandigarh - CPCC",04-11-2025 07:00:00,30.735567,76.775714,NH3,5,13,8
India,Chandigarh,Chandigarh,"Sector-53, Chandigarh - CPCC",04-11-2025 07:00:00,30.719859,76.738637,CO,26,115,49
India,Delhi,Delhi,"Rohini, Delhi - DPCC",04-11-2025 07:00:00,28.732528,77.119920,CO,18,110,104
India,Delhi,Delhi,"Rohini, Delhi - DPCC",04-11-2025 07:00:00,28.732528,77.119920,OZONE,11,208,14
India,Delhi,Delhi,"Shadipur, Delhi - CPCB",04-11-2025 07:00:00,28.6514781,77.1473105,NO2,59,148,102
India,Delhi,Delhi,"Shadipur, Delhi - CPCB",04-11-2025 07:00:00,28.6514781,77.1473105,NH3,10,18,13
India,Delhi,Delhi,"Shadipur, Delhi - CPCB",04-11-2025 07:00:00,28.6514781,77.1473105,CO,38,132,86
India,Delhi,Delhi,"Sirifort, Delhi - CPCB",04-11-2025 07:00:00,28.5504249,77.2159377,PM10,139,436,259
India,Delhi,Delhi,"Sirifort, Delhi - CPCB",04-11-2025 07:00:00,28.5504249,77.2159377,CO,16,140,120
India,Delhi,Delhi,"Sirifort, Delhi - CPCB",04-11-2025 07:00:00,28.5504249,77.2159377,OZONE,8,22,8
India,Delhi,Delhi,"Sonia Vihar, Delhi - DPCC",04-11-2025 07:00:00,28.710508,77.249485,PM10,NA,NA,NA
India,Gujarat,Ahmedabad,"Chandkheda, Ahmedabad - IITM",04-11-2025 07:00:00,23.107969,72.574648,OZONE,6,31,13
India,Gujarat,Ahmedabad,"Gyaspur, Ahmedabad - IITM",04-11-2025 07:00:00,22.977134,72.553024,PM10,NA,NA,NA
India,Gujarat,Ahmedabad,"Maninagar, Ahmedabad - GPCB",04-11-2025 07:00:00,23.002657,72.591912,PM2.5,21,158,85
India,Gujarat,Ahmedabad,"Maninagar, Ahmedabad - GPCB",04-11-2025 07:00:00,23.002657,72.591912,PM10,35,158,92
India,Gujarat,Ahmedabad,"Maninagar, Ahmedabad - GPCB",04-11-2025 07:00:00,23.002657,72.591912,NO2,23,39,31
India,Gujarat,Ahmedabad,"Raikhad, Ahmedabad - IITM",04-11-2025 07:00:00,23.020509,72.579261,OZONE,1,19,5
India,Gujarat,Ahmedabad,"Rakhial, Ahmedabad - IITM",04-11-2025 07:00:00,23.016834,72.625775,NO2,16,73,32
India,Delhi,Delhi,"Narela, Delhi - DPCC",04-11-2025 07:00:00,28.822836,77.101981,CO,26,111,102
India,Delhi,Delhi,"Nehru Nagar, Delhi - DPCC",04-11-2025 07:00:00,28.567890,77.250515,PM10,153,421,256
India,Delhi,Delhi,"Nehru Nagar, Delhi - DPCC",04-11-2025 07:00:00,28.567890,77.250515,SO2,5,54,26
India,Delhi,Delhi,"Okhla Phase-2, Delhi - DPCC",04-11-2025 07:00:00,28.530785,77.271255,PM10,150,431,281
India,Delhi,Delhi,"Okhla Phase-2, Delhi - DPCC",04-11-2025 07:00:00,28.530785,77.271255,SO2,12,25,18
India,Delhi,Delhi,"Okhla Phase-2, Delhi - DPCC",04-11-2025 07:00:00,28.530785,77.271255,CO,34,134,78
India,Delhi,Delhi,"Okhla Phase-2, Delhi - DPCC",04-11-2025 07:00:00,28.530785,77.271255,OZONE,11,156,13
India,Delhi,Delhi,"Sri Aurobindo Marg, Delhi - DPCC",04-11-2025 07:00:00,28.531346,77.190156,NO2,2,32,17
India,Delhi,Delhi,"Sri Aurobindo Marg, Delhi - DPCC",04-11-2025 07:00:00,28.531346,77.190156,CO,32,111,63
India,Delhi,Delhi,"Vivek Vihar, Delhi - DPCC",04-11-2025 07:00:00,28.672342,77.315260,PM10,229,443,339
India,Delhi,Delhi,"Wazirpur, Delhi - DPCC",04-11-2025 07:00:00,28.699793,77.165453,CO,NA,NA,NA
India,Gujarat,Ahmedabad,"Chandkheda, Ahmedabad - IITM",04-11-2025 07:00:00,23.107969,72.574648,PM10,34,60,44
India,Gujarat,Ahmedabad,"SVPI Airport Hansol, Ahmedabad - IITM",04-11-2025 07:00:00,23.076793,72.627874,PM10,46,71,58
India,Gujarat,Ankleshwar,"GIDC, Ankleshwar - GPCB",04-11-2025 07:00:00,21.613267,73.010555,PM10,1,77,48
India,Gujarat,Ankleshwar,"GIDC, Ankleshwar - GPCB",04-11-2025 07:00:00,21.613267,73.010555,NO2,20,28,26
India,Gujarat,Ankleshwar,"GIDC, Ankleshwar - GPCB",04-11-2025 07:00:00,21.613267,73.010555,SO2,39,51,42
India,Gujarat,Gandhinagar,"GIFT City, Gandhinagar - IITM",04-11-2025 07:00:00,23.163798,72.677768,PM2.5,18,50,31
India,Delhi,Delhi,"Major Dhyan Chand National Stadium, Delhi - DPCC",04-11-2025 07:00:00,28.611281,77.237738,SO2,19,37,28
India,Delhi,Delhi,"Mundka, Delhi - DPCC",04-11-2025 07:00:00,28.684678,77.076574,NO2,60,168,110
India,Delhi,Delhi,"Mundka, Delhi - DPCC",04-11-2025 07:00:00,28.684678,77.076574,SO2,2,135,26
India,Delhi,Delhi,"Najafgarh, Delhi - DPCC",04-11-2025 07:00:00,28.570173,76.933762,PM10,107,252,162
India,Delhi,Delhi,"Najafgarh, Delhi - DPCC",04-11-2025 07:00:00,28.570173,76.933762,NO2,68,127,101
India,Delhi,Delhi,"Jahangirpuri, Delhi - DPCC",04-11-2025 07:00:00,28.732820,77.170633,SO2,16,92,47
India,Delhi,Delhi,"Jawaharlal Nehru Stadium, Delhi - DPCC",04-11-2025 07:00:00,28.580280,77.233829,PM10,160,384,255
India,Delhi,Delhi,"Jawaharlal Nehru Stadium, Delhi - DPCC",04-11-2025 07:00:00,28.580280,77.233829,NO2,45,148,89
India,Delhi,Delhi,"Lodhi Road, Delhi - IMD",04-11-2025 07:00:00,28.5918245,77.2273074,NO2,3,52,22
India,Delhi,Delhi,"Punjabi Bagh, Delhi - DPCC",04-11-2025 07:00:00,28.674045,77.131023,PM2.5,318,422,361
India,Delhi,Delhi,"Pusa, Delhi - DPCC",04-11-2025 07:00:00,28.639652,77.146275,PM10,131,438,246
India,Delhi,Delhi,"R K Puram, Delhi - DPCC",04-11-2025 07:00:00,28.563262,77.186937,NH3,4,9,6
India,Gujarat,Gandhinagar,"GIFT City, Gandhinagar - IITM",04-11-2025 07:00:00,23.163798,72.677768,NH3,2,6,4
India,Gujarat,Gandhinagar,"GIFT City, Gandhinagar - IITM",04-11-2025 07:00:00,23.163798,72.677768,OZONE,1,35,17
India,Gujarat,Gandhinagar,"IIPHG Lekawada, Gandhinagar - IITM",04-11-2025 07:00:00,23.243639,72.68994,NO2,2,7,5
India,Haryana,Bhiwani,"H.B. Colony, Bhiwani - HSPCB",04-11-2025 07:00:00,28.806223,76.141105,NO2,1,35,31
India,Haryana,Bhiwani,"H.B. Colony, Bhiwani - HSPCB",04-11-2025 07:00:00,28.806223,76.141105,NH3,1,8,8
India,Haryana,Bhiwani,"H.B. Colony, Bhiwani - HSPCB",04-11-2025 07:00:00,28.806223,76.141105,CO,10,14,12
India,Haryana,Charkhi Dadri,"Mini Secretariat, Charkhi Dadri - HSPCB",04-11-2025 07:00:00,28.593883,76.270653,NH3,5,8,6
India,Haryana,Charkhi Dadri,"Mini Secretariat, Charkhi Dadri - HSPCB",04-11-2025 07:00:00,28.593883,76.270653,CO,7,25,15
India,Haryana,Dharuhera,"Municipal Corporation Office, Dharuhera -  HSPCB",04-11-2025 07:00:00,28.206800,76.799700,NO2,14,50,37
India,Haryana,Dharuhera,"Municipal Corporation Office, Dharuhera -  HSPCB",04-11-2025 07:00:00,28.206800,76.799700,SO2,4,5,4
India,Haryana,Dharuhera,"Municipal Corporation Office, Dharuhera -  HSPCB",04-11-2025 07:00:00,28.206800,76.799700,OZONE,10,72,13
India,Haryana,Faridabad,"New Industrial Town, Faridabad - HSPCB",04-11-2025 07:00:00,28.39072,77.30059,CO,10,13,12
India,Haryana,Kaithal,"Rishi Nagar, Kaithal - HSPCB",04-11-2025 07:00:00,29.8006,76.4155,PM10,192,483,308
India,Haryana,Kaithal,"Rishi Nagar, Kaithal - HSPCB",04-11-2025 07:00:00,29.8006,76.4155,NO2,26,33,30
India,Haryana,Kaithal,"Rishi Nagar, Kaithal - HSPCB",04-11-2025 07:00:00,29.8006,76.4155,NH3,5,6,6
India,Haryana,Karnal,"Sector-12, Karnal - HSPCB",04-11-2025 07:00:00,29.695300,77.002700,CO,40,60,53
India,Haryana,Kurukshetra,"Sector-7, Kurukshetra - HSPCB",04-11-2025 07:00:00,29.966942,76.875879,NO2,16,22,19
India,Haryana,Kurukshetra,"Sector-7, Kurukshetra - HSPCB",04-11-2025 07:00:00,29.966942,76.875879,NH3,5,5,5
India,Haryana,Kurukshetra,"Sector-7, Kurukshetra - HSPCB",04-11-2025 07:00:00,29.966942,76.875879,OZONE,20,57,31
India,Haryana,Mandikhera,"General Hospital, Mandikhera - HSPCB",04-11-2025 07:00:00,27.9002,76.9938,PM10,24,69,44
India,Haryana,Mandikhera,"General Hospital, Mandikhera - HSPCB",04-11-2025 07:00:00,27.9002,76.9938,NO2,20,23,21
India,Haryana,Gurugram,"Sector-51, Gurugram - HSPCB",04-11-2025 07:00:00,28.4227,77.0667,OZONE,8,12,10
India,Haryana,Gurugram,"Teri Gram, Gurugram - HSPCB",04-11-2025 07:00:00,28.4275,77.1465,CO,102,114,109
India,Haryana,Gurugram,"Vikas Sadan, Gurugram - HSPCB",04-11-2025 07:00:00,28.4501238,77.0263051,PM2.5,200,349,314
India,Haryana,Gurugram,"Vikas Sadan, Gurugram - HSPCB",04-11-2025 07:00:00,28.4501238,77.0263051,CO,102,141,119
India,Haryana,Gurugram,"Vikas Sadan, Gurugram - HSPCB",04-11-2025 07:00:00,28.4501238,77.0263051,OZONE,8,55,17
India,Haryana,Hisar,"Urban Estate-II, Hisar - HSPCB",04-11-2025 07:00:00,29.140560,75.744941,PM10,103,186,138
India,Haryana,Hisar,"Urban Estate-II, Hisar - HSPCB",04-11-2025 07:00:00,29.140560,75.744941,NH3,4,5,5
India,Haryana,Yamuna Nagar,"Gobind Pura, Yamuna Nagar - HSPCB",04-11-2025 07:00:00,30.1480566,77.2893471,CO,32,135,61
India,Himachal Pradesh,Baddi,"HIMUDA Complex Phase-1, Baddi - HPPCB",04-11-2025 07:00:00,30.943887,76.801991,PM2.5,40,359,177
India,Himachal Pradesh,Baddi,"HIMUDA Complex Phase-1, Baddi - HPPCB",04-11-2025 07:00:00,30.943887,76.801991,NO2,6,94,30
India,Jharkhand,Dhanbad,"Sardar Patel Nagar, Dhanbad - JSPCB",04-11-2025 07:00:00,23.80569,86.44268,SO2,21,100,35
India,Jharkhand,Jorapokhar,"Tata Stadium, Jorapokhar - JSPCB",04-11-2025 07:00:00,23.707909,86.414670,OZONE,NA,NA,NA
India,Haryana,Panchgaon,"Amity University, Panchgaon - IITM",04-11-2025 07:00:00,28.3153,76.9143,OZONE,1,71,15
India,Haryana,Panipat,"Sector-18, Panipat - HSPCB",04-11-2025 07:00:00,29.432304,76.972765,NH3,NA,NA,NA
India,Haryana,Panipat,"Sector-18, Panipat - HSPCB",04-11-2025 07:00:00,29.432304,76.972765,CO,NA,NA,NA
India,Haryana,Rohtak,"MD University, Rohtak - HSPCB",04-11-2025 07:00:00,28.52123,76.37138,NO2,NA,NA,NA
India,Haryana,Rohtak,"MD University, Rohtak - HSPCB",04-11-2025 07:00:00,28.52123,76.37138,SO2,NA,NA,NA
India,Haryana,Rohtak,"MD University, Rohtak - HSPCB",04-11-2025 07:00:00,28.52123,76.37138,OZONE,12,13,13
India,Haryana,Sonipat,"Murthal, Sonipat - HSPCB",04-11-2025 07:00:00,29.027200,77.062100,PM2.5,138,403,284
India,Haryana,Faridabad,"Sector 11, Faridabad - HSPCB",04-11-2025 07:00:00,28.376058,77.315741,CO,12,124,75
India,Haryana,Faridabad,"Sector 30, Faridabad - HSPCB",04-11-2025 07:00:00,28.4417,77.3217,NH3,11,12,11
India,Haryana,Fatehabad,"Huda Sector, Fatehabad - HSPCB",04-11-2025 07:00:00,29.503664,75.467934,PM2.5,4,313,136
India,Haryana,Fatehabad,"Huda Sector, Fatehabad - HSPCB",04-11-2025 07:00:00,29.503664,75.467934,PM10,NA,NA,NA
India,Haryana,Fatehabad,"Huda Sector, Fatehabad - HSPCB",04-11-2025 07:00:00,29.503664,75.467934,SO2,4,34,17
India,Haryana,Gurugram,"NISE Gwal Pahari, Gurugram - IMD",04-11-2025 07:00:00,28.422681,77.148944,NO2,10,42,26
India,Karnataka,Bengaluru,"BTM Layout, Bengaluru - CPCB",04-11-2025 07:00:00,12.9135218,77.5950804,PM10,55,57,56
India,Karnataka,Bengaluru,"BTM Layout, Bengaluru - CPCB",04-11-2025 07:00:00,12.9135218,77.5950804,NH3,5,6,5
India,Karnataka,Bengaluru,"BTM Layout, Bengaluru - CPCB",04-11-2025 07:00:00,12.9135218,77.5950804,OZONE,22,23,22
India,Karnataka,Bengaluru,"Bapuji Nagar, Bengaluru - KSPCB",04-11-2025 07:00:00,12.951913,77.539784,SO2,5,12,9
