country,state,city,station,last_update,latitude,longitude,pollutant_id,min_value,max_value,avg_value
India,Bihar,Muzaffarpur,"MIT-Daudpur Kothi, Muzaffarpur - BSPCB",24-01-2026 08:00:00,26.1403345,85.3650192,CO,39,56,41
India,Bihar,Muzaffarpur,"Muzaffarpur Collectorate, Muzaffarpur - BSPCB",24-01-2026 08:00:00,26.1209,85.3647,NO2,7,16,11
India,Bihar,Muzaffarpur,"Muzaffarpur Collectorate, Muzaffarpur - BSPCB",24-01-2026 08:00:00,26.1209,85.3647,CO,14,46,38
India,Bihar,Patna,"DRM Office Danapur, Patna - BSPCB",24-01-2026 08:00:00,25.586562,85.043586,PM2.5,40,320,157
India,Bihar,Patna,"DRM Office Danapur, Patna - BSPCB",24-01-2026 08:00:00,25.586562,85.043586,PM10,59,348,151
India,Bihar,Patna,"Govt. High School Shikarpur, Patna - BSPCB",24-01-2026 08:00:00,25.592539,85.227158,PM2.5,68,86,76
India,Bihar,Patna,"Govt. High School Shikarpur, Patna - BSPCB",24-01-2026 08:00:00,25.592539,85.227158,PM10,93,113,104
India,Bihar,Patna,"Govt. High School Shikarpur, Patna - BSPCB",24-01-2026 08:00:00,25.592539,85.227158,NO2,14,18,16
India,Bihar,Patna,"Govt. High School Shikarpur, Patna - BSPCB",24-01-2026 08:00:00,25.592539,85.227158,CO,20,119,102
India,Bihar,Patna,"IGSC Planetarium Complex, Patna - BSPCB",24-01-2026 08:00:00,25.610369,85.132568,SO2,32,37,35
India,Bihar,Patna,"Muradpur, Patna - BSPCB",24-01-2026 08:00:00,25.619651,85.147382,NH3,4,5,5
India,Bihar,Patna,"Muradpur, Patna - BSPCB",24-01-2026 08:00:00,25.619651,85.147382,CO,40,69,65
India,Bihar,Patna,"Rajbansi Nagar, Patna - BSPCB",24-01-2026 08:00:00,25.599486,85.113666,SO2,6,6,6
India,Bihar,Katihar,"Mirchaibari, Katihar - BSPCB",24-01-2026 08:00:00,25.560083,87.553265,PM10,71,149,100
India,Bihar,Manguraha,"Forest Rest House, Manguraha - BSPCB",24-01-2026 08:00:00,27.308328,84.531742,PM10,59,161,107
India,Bihar,Manguraha,"Forest Rest House, Manguraha - BSPCB",24-01-2026 08:00:00,27.308328,84.531742,SO2,16,17,16
India,Bihar,Motihari,"Gandak Colony, Motihari - BSPCB",24-01-2026 08:00:00,26.63086,84.90051,PM2.5,68,315,178
India,Bihar,Munger,"Town Hall, Munger - BSPCB",24-01-2026 08:00:00,25.376776,86.471523,PM2.5,62,316,127
India,Bihar,Munger,"Town Hall, Munger - BSPCB",24-01-2026 08:00:00,25.376776,86.471523,PM10,49,158,83
India,Bihar,Munger,"Town Hall, Munger - BSPCB",24-01-2026 08:00:00,25.376776,86.471523,NO2,4,5,5
India,Bihar,Munger,"Town Hall, Munger - BSPCB",24-01-2026 08:00:00,25.376776,86.471523,SO2,21,44,27
India,Bihar,Munger,"Town Hall, Munger - BSPCB",24-01-2026 08:00:00,25.376776,86.471523,OZONE,6,16,9
India,Bihar,Muzaffarpur,"Buddha Colony, Muzaffarpur - BSPCB",24-01-2026 08:00:00,26.11442,85.39813,NH3,5,12,9
India,Bihar,Muzaffarpur,"Buddha Colony, Muzaffarpur - BSPCB",24-01-2026 08:00:00,26.11442,85.39813,CO,40,103,99
India,Bihar,Araria,"Kharahiya Basti, Araria - BSPCB",24-01-2026 08:00:00,26.146529,87.454184,OZONE,9,11,10
India,Bihar,Arrah,"New DM Office, Arrah - BSPCB",24-01-2026 08:00:00,25.5626095,84.663264,PM2.5,NA,NA,NA
India,Bihar,Arrah,"New DM Office, Arrah - BSPCB",24-01-2026 08:00:00,25.5626095,84.663264,CO,40,70,55
India,Bihar,Aurangabad,"Gurdeo Nagar, Aurangabad - BSPCB",24-01-2026 08:00:00,24.75746,84.366208,NO2,7,8,8
India,Bihar,Aurangabad,"Gurdeo Nagar, Aurangabad - BSPCB",24-01-2026 08:00:00,24.75746,84.366208,OZONE,NA,NA,NA
India,Bihar,Begusarai,"Lohiyanagar, Begusarai - BSPCB",24-01-2026 08:00:00,25.42742023,86.13886079,PM2.5,15,270,128
India,Bihar,Begusarai,"Lohiyanagar, Begusarai - BSPCB",24-01-2026 08:00:00,25.42742023,86.13886079,PM10,62,229,129
India,Bihar,Bhagalpur,"DM Office_Kachari Chowk, Bhagalpur - BSPCB",24-01-2026 08:00:00,25.251013,86.989001,SO2,29,81,55
India,Bihar,Bhagalpur,"Mayaganj, Bhagalpur - BSPCB",24-01-2026 08:00:00,25.265194,87.012947,NO2,7,10,7
India,Andhra_Pradesh,Vijayawada,"Rajiv Gandhi Park, Vijayawada - APPCB",24-01-2026 08:00:00,16.509717,80.612222,SO2,10,20,13
India,Andhra_Pradesh,Vijayawada,"Rajiv Gandhi Park, Vijayawada - APPCB",24-01-2026 08:00:00,16.509717,80.612222,CO,28,42,28
India,Andhra_Pradesh,Vijayawada,"Rajiv Nagar, Vijayawada - APPCB",24-01-2026 08:00:00,16.554731,80.649110,PM2.5,89,124,100
India,Andhra_Pradesh,Vijayawada,"Rajiv Nagar, Vijayawada - APPCB",24-01-2026 08:00:00,16.554731,80.649110,NH3,4,4,4
India,Andhra_Pradesh,Visakhapatnam,"GVM Corporation, Visakhapatnam - APPCB",24-01-2026 08:00:00,17.72,83.3,PM2.5,94,224,152
India,Assam,Byrnihat,"Central Academy for SFS, Byrnihat - PCBA",24-01-2026 08:00:00,26.071318,91.87488,PM2.5,92,286,152
India,Assam,Byrnihat,"Central Academy for SFS, Byrnihat - PCBA",24-01-2026 08:00:00,26.071318,91.87488,NO2,4,9,7
India,Assam,Byrnihat,"Central Academy for SFS, Byrnihat - PCBA",24-01-2026 08:00:00,26.071318,91.87488,CO,30,70,53
India,Assam,Guwahati,"LGBI Airport, Guwahati - PCBA",24-01-2026 08:00:00,26.10887,91.589544,PM2.5,54,157,99
India,Andhra_Pradesh,Amaravati,"Secretariat, Amaravati - APPCB",24-01-2026 08:00:00,16.5150833,80.5181667,PM2.5,110,192,133
India,Andhra_Pradesh,Amaravati,"Secretariat, Amaravati - APPCB",24-01-2026 08:00:00,16.5150833,80.5181667,NH3,5,7,6
India,Andhra_Pradesh,Amaravati,"Secretariat, Amaravati - APPCB",24-01-2026 08:00:00,16.5150833,80.5181667,OZONE,5,61,22
India,Andhra_Pradesh,Anantapur,"Gulzarpet, Anantapur - APPCB",24-01-2026 08:00:00,14.675886,77.593027,SO2,8,13,10
India,Andhra_Pradesh,Chittoor,"Gangineni Cheruvu, Chittoor - APPCB",24-01-2026 08:00:00,13.204880,79.097889,NO2,46,49,47
India,Andhra_Pradesh,Chittoor,"Gangineni Cheruvu, Chittoor - APPCB",24-01-2026 08:00:00,13.204880,79.097889,NH3,7,8,8
India,Andhra_Pradesh,Chittoor,"Gangineni Cheruvu, Chittoor - APPCB",24-01-2026 08:00:00,13.204880,79.097889,SO2,16,43,25
India,Andhra_Pradesh,Chittoor,"Gangineni Cheruvu, Chittoor - APPCB",24-01-2026 08:00:00,13.204880,79.097889,CO,39,84,63
India,Andhra_Pradesh,Kadapa,"Yerramukkapalli, Kadapa - APPCB",24-01-2026 08:00:00,14.465052,78.824187,PM10,54,138,90
India,Bihar,Sasaram,"Dada Peer, Sasaram - BSPCB",24-01-2026 08:00:00,24.952822,84.002396,OZONE,6,30,17
India,Bihar,Siwan,"Chitragupta Nagar, Siwan - BSPCB",24-01-2026 08:00:00,26.2271665,84.3570427,PM2.5,3,314,153
India,Bihar,Siwan,"Chitragupta Nagar, Siwan - BSPCB",24-01-2026 08:00:00,26.2271665,84.3570427,OZONE,11,15,12
India,Chandigarh,Chandigarh,"Sector 22, Chandigarh - CPCC",24-01-2026 08:00:00,30.735567,76.775714,PM10,NA,NA,NA
India,Chandigarh,Chandigarh,"Sector-25, Chandigarh - CPCC",24-01-2026 08:00:00,30.751462,76.762879,NO2,NA,NA,NA
India,Chandigarh,Chandigarh,"Sector-25, Chandigarh - CPCC",24-01-2026 08:00:00,30.751462,76.762879,SO2,NA,NA,NA
India,Chandigarh,Chandigarh,"Sector-53, Chandigarh - CPCC",24-01-2026 08:00:00,30.719859,76.738637,PM10,NA,NA,NA
India,Chhattisgarh,Bhilai,"Hathkhoj, Bhilai - CECB",24-01-2026 08:00:00,21.224231,81.408350,NH3,4,6,5
India,Andhra_Pradesh,Rajamahendravaram,"Anand Kala Kshetram, Rajamahendravaram - APPCB",24-01-2026 08:00:00,16.9872867,81.7363176,SO2,6,22,12
India,Andhra_Pradesh,Tirumala,"Toll Gate, Tirumala - APPCB",24-01-2026 08:00:00,13.67,79.35,PM10,84,113,104
India,Andhra_Pradesh,Tirumala,"Toll Gate, Tirumala - APPCB",24-01-2026 08:00:00,13.67,79.35,NH3,2,2,2
India,Andhra_Pradesh,Tirumala,"Toll Gate, Tirumala - APPCB",24-01-2026 08:00:00,13.67,79.35,CO,8,54,33
India,Andhra_Pradesh,Tirupati,"Vaikuntapuram, Tirupati - APPCB",24-01-2026 08:00:00,13.615387,79.409230,CO,28,43,34
India,Andhra_Pradesh,Tirupati,"Vaikuntapuram, Tirupati - APPCB",24-01-2026 08:00:00,13.615387,79.409230,OZONE,23,31,30
India,Andhra_Pradesh,Vijayawada,"HB Colony, Vijayawada - APPCB",24-01-2026 08:00:00,16.536107,80.594233,NH3,3,5,4
India,Andhra_Pradesh,Vijayawada,"HB Colony, Vijayawada - APPCB",24-01-2026 08:00:00,16.536107,80.594233,CO,19,46,22
India,Assam,Guwahati,"Railway Colony, Guwahati - PCBA",24-01-2026 08:00:00,26.181742,91.78063,PM10,93,309,180
India,Assam,Nagaon,"Christianpatty, Nagaon - PCBA",24-01-2026 08:00:00,26.349082,92.68449,PM10,74,133,105
India,Assam,Nalbari,"Bata Chowk, Nalbari - PCBA",24-01-2026 08:00:00,26.446912,91.439057,PM10,NA,NA,NA
India,Assam,Nalbari,"Bata Chowk, Nalbari - PCBA",24-01-2026 08:00:00,26.446912,91.439057,OZONE,7,16,15
India,Assam,Silchar,"Tarapur, Silchar - PCBA",24-01-2026 08:00:00,24.82827,92.79525,CO,10,46,14
India,Assam,Sivasagar,"Girls College, Sivasagar - PCBA",24-01-2026 08:00:00,26.987634,94.636574,PM10,38,82,57
India,Assam,Sivasagar,"Girls College, Sivasagar - PCBA",24-01-2026 08:00:00,26.987634,94.636574,NO2,31,64,42
India,Bihar,Buxar,"Charitra Van, Buxar - BSPCB",24-01-2026 08:00:00,25.567520,83.966379,PM2.5,68,304,107
India,Bihar,Chhapra,"Darshan Nagar, Chhapra - BSPCB",24-01-2026 08:00:00,25.7808257,84.7446768,PM10,NA,NA,NA
India,Bihar,Chhapra,"Darshan Nagar, Chhapra - BSPCB",24-01-2026 08:00:00,25.7808257,84.7446768,OZONE,14,21,16
India,Bihar,Gaya,"Kareemganj, Gaya - BSPCB",24-01-2026 08:00:00,24.792403,84.992416,CO,2,94,21
India,Bihar,Hajipur,"Industrial Area, Hajipur - BSPCB",24-01-2026 08:00:00,25.697189,85.245900,PM2.5,55,316,195
India,Bihar,Patna,"Samanpura, Patna - BSPCB",24-01-2026 08:00:00,25.596727,85.085624,CO,2,148,118
India,Bihar,Patna,"Samanpura, Patna - BSPCB",24-01-2026 08:00:00,25.596727,85.085624,OZONE,1,120,6
India,Bihar,Rajgir,"Dangi Tola, Rajgir - BSPCB",24-01-2026 08:00:00,25.03280,85.41948,NO2,7,11,9
India,Bihar,Saharsa,"Police Line, Saharsa - BSPCB",24-01-2026 08:00:00,25.892357,86.590325,OZONE,8,11,9
India,Bihar,Samastipur,"DM Office_Kasipur, Samastipur - BSPCB",24-01-2026 08:00:00,25.859655,85.77944,NO2,8,9,8
India,Delhi,Delhi,"Patparganj, Delhi - DPCC",24-01-2026 08:00:00,28.623763,77.287209,OZONE,1,62,23
India,Delhi,Delhi,"Punjabi Bagh, Delhi - DPCC",24-01-2026 08:00:00,28.674045,77.131023,NH3,4,5,5
India,Delhi,Delhi,"Pusa, Delhi - IMD",24-01-2026 08:00:00,28.636110,77.173332,NO2,49,136,92
India,Delhi,Delhi,"R K Puram, Delhi - DPCC",24-01-2026 08:00:00,28.563262,77.186937,PM2.5,45,345,290
India,Delhi,Delhi,"Rohini, Delhi - DPCC",24-01-2026 08:00:00,28.732528,77.119920,PM10,138,216,166
India,Delhi,Delhi,"Rohini, Delhi - DPCC",24-01-2026 08:00:00,28.732528,77.119920,NO2,10,63,39
India,Delhi,Delhi,"Rohini, Delhi - DPCC",24-01-2026 08:00:00,28.732528,77.119920,OZONE,4,53,25
India,Delhi,Delhi,"Shadipur, Delhi - CPCB",24-01-2026 08:00:00,28.6514781,77.1473105,PM10,124,162,140
India,Delhi,Delhi,"Shadipur, Delhi - CPCB",24-01-2026 08:00:00,28.6514781,77.1473105,SO2,14,22,17
India,Delhi,Delhi,"Shadipur, Delhi - CPCB",24-01-2026 08:00:00,28.6514781,77.1473105,CO,42,100,62
India,Delhi,Delhi,"Sirifort, Delhi - CPCB",24-01-2026 08:00:00,28.5504249,77.2159377,PM10,147,252,178
India,Chhattisgarh,Raipur,"AIIMS, Raipur - CECB",24-01-2026 08:00:00,21.258815,81.578979,SO2,3,7,5
India,Chhattisgarh,Raipur,"Bhatagaon New ISBT, Raipur - CECB",24-01-2026 08:00:00,21.219665,81.630094,PM2.5,24,138,61
India,Chhattisgarh,Raipur,"Bhatagaon New ISBT, Raipur - CECB",24-01-2026 08:00:00,21.219665,81.630094,PM10,34,160,78
India,Chhattisgarh,Raipur,"Krishak Nagar, Raipur - CECB",24-01-2026 08:00:00,21.237755,81.705301,PM10,44,136,89
India,Chhattisgarh,Raipur,"Siltara Phase-II, Raipur - CECB",24-01-2026 08:00:00,21.371751,81.664929,SO2,3,7,4
India,Chhattisgarh,Tumidih,"OP Jindal Industrial Park, Tumidih - CECB",24-01-2026 08:00:00,22.06631475,83.33820077,PM2.5,70,108,90
India,Chhattisgarh,Tumidih,"OP Jindal Industrial Park, Tumidih - CECB",24-01-2026 08:00:00,22.06631475,83.33820077,SO2,5,24,9
India,Chhattisgarh,Tumidih,"OP Jindal Industrial Park, Tumidih - CECB",24-01-2026 08:00:00,22.06631475,83.33820077,OZONE,3,95,5
India,Delhi,Delhi,"Anand Vihar, Delhi - DPCC",24-01-2026 08:00:00,28.647622,77.3158090,NH3,7,14,11
India,Delhi,Delhi,"Jawaharlal Nehru Stadium, Delhi - DPCC",24-01-2026 08:00:00,28.580280,77.233829,PM10,131,315,164
India,Delhi,Delhi,"Jawaharlal Nehru Stadium, Delhi - DPCC",24-01-2026 08:00:00,28.580280,77.233829,CO,65,110,85
India,Delhi,Delhi,"Lodhi Road, Delhi - IMD",24-01-2026 08:00:00,28.5918245,77.2273074,CO,41,69,54
India,Delhi,Delhi,"Major Dhyan Chand National Stadium, Delhi - DPCC",24-01-2026 08:00:00,28.611281,77.237738,NH3,14,22,20
India,Delhi,Delhi,"Mandir Marg, Delhi - DPCC",24-01-2026 08:00:00,28.636429,77.201067,NO2,40,105,79
India,Delhi,Delhi,"Mandir Marg, Delhi - DPCC",24-01-2026 08:00:00,28.636429,77.201067,SO2,4,34,20
India,Delhi,Delhi,"Mundka, Delhi - DPCC",24-01-2026 08:00:00,28.684678,77.076574,NH3,NA,NA,NA
India,Delhi,Delhi,"Mundka, Delhi - DPCC",24-01-2026 08:00:00,28.684678,77.076574,SO2,NA,NA,NA
India,Delhi,Delhi,"Mundka, Delhi - DPCC",24-01-2026 08:00:00,28.684678,77.076574,CO,NA,NA,NA
India,Delhi,Delhi,"NSIT Dwarka, Delhi - CPCB",24-01-2026 08:00:00,28.60909,77.0325413,PM2.5,33,245,62
India,Chhattisgarh,Bilaspur,"Mangala, Bilaspur - NTPC",24-01-2026 08:00:00,22.08815,82.13737,PM2.5,49,171,83
India,Chhattisgarh,Chhal,"Nawapara SECL Colony, Chhal - CECB",24-01-2026 08:00:00,22.118125,83.140608,PM10,40,127,82
India,Chhattisgarh,Chhal,"Nawapara SECL Colony, Chhal - CECB",24-01-2026 08:00:00,22.118125,83.140608,NH3,5,5,5
India,Chhattisgarh,Korba,"Rampur, Korba - CECB",24-01-2026 08:00:00,22.368195,82.746431,NO2,21,39,29
India,Chhattisgarh,Korba,"Urja Nagar, Korba - CECB",24-01-2026 08:00:00,22.348441,82.549611,NO2,15,25,19
India,Chhattisgarh,Kunjemura,"OP Jindal School, Kunjemura - CECB",24-01-2026 08:00:00,22.126650,83.483212,NH3,2,2,2
India,Chhattisgarh,Milupara,"Govt. Higher Secondary School, Milupara - CECB",24-01-2026 08:00:00,22.1910172,83.5197009,SO2,13,41,20
India,Delhi,Delhi,"Ashok Vihar, Delhi - DPCC",24-01-2026 08:00:00,28.695381,77.181665,PM2.5,68,375,290
India,Delhi,Delhi,"Ashok Vihar, Delhi - DPCC",24-01-2026 08:00:00,28.695381,77.181665,NH3,8,9,8
India,Delhi,Delhi,"Bawana, Delhi - DPCC",24-01-2026 08:00:00,28.776200,77.051074,PM10,120,189,153
India,Delhi,Delhi,"Bawana, Delhi - DPCC",24-01-2026 08:00:00,28.776200,77.051074,NO2,2,27,16
India,Delhi,Delhi,"Bawana, Delhi - DPCC",24-01-2026 08:00:00,28.776200,77.051074,SO2,5,14,9
India,Delhi,Delhi,"Burari Crossing, Delhi - IMD",24-01-2026 08:00:00,28.7256504,77.2011573,PM2.5,65,336,262
India,Delhi,Delhi,"Burari Crossing, Delhi - IMD",24-01-2026 08:00:00,28.7256504,77.2011573,NO2,86,176,116
India,Delhi,Delhi,"Chandni Chowk, Delhi - IITM",24-01-2026 08:00:00,28.656756,77.227234,CO,69,108,86
India,Gujarat,Ahmedabad,"Raikhad, Ahmedabad - IITM",24-01-2026 08:00:00,23.020509,72.579261,PM2.5,36,67,49
India,Gujarat,Ahmedabad,"Raikhad, Ahmedabad - IITM",24-01-2026 08:00:00,23.020509,72.579261,NO2,23,57,34
India,Gujarat,Ahmedabad,"Raikhad, Ahmedabad - IITM",24-01-2026 08:00:00,23.020509,72.579261,NH3,9,18,13
India,Gujarat,Ahmedabad,"Raikhad, Ahmedabad - IITM",24-01-2026 08:00:00,23.020509,72.579261,CO,2,22,8
India,Gujarat,Ahmedabad,"SAC ISRO Bopal, Ahmedabad - IITM",24-01-2026 08:00:00,23.041137,72.456691,PM10,47,107,77
India,Gujarat,Ahmedabad,"SAC ISRO Satellite, Ahmedabad - IITM",24-01-2026 08:00:00,23.023389,72.515201,SO2,2,22,8
India,Gujarat,Ahmedabad,"SAC ISRO Satellite, Ahmedabad - IITM",24-01-2026 08:00:00,23.023389,72.515201,CO,1,32,9
India,Delhi,Delhi,"Sirifort, Delhi - CPCB",24-01-2026 08:00:00,28.5504249,77.2159377,CO,10,74,43
India,Delhi,Delhi,"Sirifort, Delhi - CPCB",24-01-2026 08:00:00,28.5504249,77.2159377,OZONE,12,26,18
India,Delhi,Delhi,"Sonia Vihar, Delhi - DPCC",24-01-2026 08:00:00,28.710508,77.249485,OZONE,8,54,25
India,Delhi,Delhi,"Sri Aurobindo Marg, Delhi - DPCC",24-01-2026 08:00:00,28.531346,77.190156,NO2,31,84,48
India,Delhi,Delhi,"Vivek Vihar, Delhi - DPCC",24-01-2026 08:00:00,28.672342,77.315260,SO2,8,23,12
India,Delhi,Delhi,"Vivek Vihar, Delhi - DPCC",24-01-2026 08:00:00,28.672342,77.315260,CO,22,101,51
India,Delhi,Delhi,"Najafgarh, Delhi - DPCC",24-01-2026 08:00:00,28.570173,76.933762,OZONE,3,7,4
India,Delhi,Delhi,"Narela, Delhi - DPCC",24-01-2026 08:00:00,28.822836,77.101981,CO,30,68,40
India,Delhi,Delhi,"Nehru Nagar, Delhi - DPCC",24-01-2026 08:00:00,28.567890,77.250515,PM10,124,189,156
India,Delhi,Delhi,"North Campus, DU, Delhi - IMD",24-01-2026 08:00:00,28.6573814,77.1585447,PM10,119,192,143
India,Delhi,Delhi,"Patparganj, Delhi - DPCC",24-01-2026 08:00:00,28.623763,77.287209,PM2.5,NA,NA,NA
India,Delhi,Delhi,"Dr. Karni Singh Shooting Range, Delhi - DPCC",24-01-2026 08:00:00,28.498571,77.264840,PM2.5,50,350,294
India,Delhi,Delhi,"Dr. Karni Singh Shooting Range, Delhi - DPCC",24-01-2026 08:00:00,28.498571,77.264840,NH3,6,12,10
India,Delhi,Delhi,"Dwarka-Sector 8, Delhi - DPCC ",24-01-2026 08:00:00,28.5710274,77.0719006,NO2,26,96,61
India,Delhi,Delhi,"IGI Airport (T3), Delhi - IMD",24-01-2026 08:00:00,28.5627763,77.1180053,CO,2,52,24
India,Gujarat,Ankleshwar,"GIDC, Ankleshwar - GPCB",24-01-2026 08:00:00,21.613267,73.010555,CO,20,56,50
India,Gujarat,Gandhinagar,"GIFT City, Gandhinagar - IITM",24-01-2026 08:00:00,23.163798,72.677768,PM2.5,14,55,35
India,Gujarat,Gandhinagar,"GIFT City, Gandhinagar - IITM",24-01-2026 08:00:00,23.163798,72.677768,CO,13,38,20
India,Gujarat,Gandhinagar,"IIPHG Lekawada, Gandhinagar - IITM",24-01-2026 08:00:00,23.243639,72.68994,PM10,70,100,80
India,Gujarat,Gandhinagar,"IIPHG Lekawada, Gandhinagar - IITM",24-01-2026 08:00:00,23.243639,72.68994,NO2,6,17,11
India,Gujarat,Gandhinagar,"Sector-10, Gandhinagar - GPCB",24-01-2026 08:00:00,23.221714,72.654328,SO2,3,10,7
India,Gujarat,Gandhinagar,"Sector-10, Gandhinagar - GPCB",24-01-2026 08:00:00,23.221714,72.654328,CO,30,48,34
India,Gujarat,Gandhinagar,"Sector-10, Gandhinagar - GPCB",24-01-2026 08:00:00,23.221714,72.654328,OZONE,4,49,26
India,Gujarat,Surat,"Science Center, Surat - SMC",24-01-2026 08:00:00,21.170046,72.795405,PM2.5,10,93,49
India,Gujarat,Surat,"Science Center, Surat - SMC",24-01-2026 08:00:00,21.170046,72.795405,CO,34,38,36
India,Gujarat,Vapi,"Phase-1 GIDC, Vapi - GPCB",24-01-2026 08:00:00,20.362421,72.918013,NO2,NA,NA,NA
India,Gujarat,Vatva,"Phase-4 GIDC, Vatva - GPCB",24-01-2026 08:00:00,22.969611,72.643500,PM2.5,39,182,105
India,Haryana,Yamuna Nagar,"Gobind Pura, Yamuna Nagar - HSPCB",24-01-2026 08:00:00,30.1480566,77.2893471,NH3,1,6,4
India,Himachal Pradesh,Baddi,"HIMUDA Complex Phase-1, Baddi - HPPCB",24-01-2026 08:00:00,30.943887,76.801991,NO2,1,32,11
India,Himachal Pradesh,Baddi,"HIMUDA Complex Phase-1, Baddi - HPPCB",24-01-2026 08:00:00,30.943887,76.801991,CO,19,76,41
India,Jammu_and_Kashmir,Srinagar,"Khunmoh, Srinagar - JKPCC",24-01-2026 08:00:00,34.06313,74.96017,PM2.5,2,10,5
India,Jharkhand,Dhanbad,"Sardar Patel Nagar, Dhanbad - JSPCB",24-01-2026 08:00:00,23.80569,86.44268,OZONE,NA,NA,NA
India,Karnataka,Bagalkot,"Vidayagiri, Bagalkot - KSPCB",24-01-2026 08:00:00,16.172806,75.659694,SO2,7,7,7
India,Karnataka,Bagalkot,"Vidayagiri, Bagalkot - KSPCB",24-01-2026 08:00:00,16.172806,75.659694,CO,4,44,17
India,Karnataka,Belgaum,"Ramteerth Nagar, Belgaum - KSPCB",24-01-2026 08:00:00,15.888653,74.541751,PM10,55,185,85
India,Karnataka,Belgaum,"Ramteerth Nagar, Belgaum - KSPCB",24-01-2026 08:00:00,15.888653,74.541751,NO2,29,152,60
India,Karnataka,Belgaum,"Ramteerth Nagar, Belgaum - KSPCB",24-01-2026 08:00:00,15.888653,74.541751,SO2,29,31,29
India,Karnataka,Bengaluru,"Silk Board, Bengaluru - KSPCB",24-01-2026 08:00:00,12.917348,77.622813,PM2.5,38,119,71
India,Karnataka,Chamarajanagar,"Urban, Chamarajanagar - KSPCB",24-01-2026 08:00:00,11.55358,76.55521,PM10,45,58,50
India,Karnataka,Chikkaballapur,"Chikkaballapur Rural, Chikkaballapur - KSPCB",24-01-2026 08:00:00,13.428828,77.731418,NH3,4,6,5
India,Karnataka,Chikkaballapur,"Chikkaballapur Rural, Chikkaballapur - KSPCB",24-01-2026 08:00:00,13.428828,77.731418,CO,6,20,11
India,Karnataka,Chikkamagaluru,"Kalyana Nagara, Chikkamagaluru - KSPCB",24-01-2026 08:00:00,13.328028,75.797056,SO2,2,6,4
India,Karnataka,Chikkamagaluru,"Kalyana Nagara, Chikkamagaluru - KSPCB",24-01-2026 08:00:00,13.328028,75.797056,OZONE,12,49,12
India,Karnataka,Davanagere,"Devaraj Urs Badavane, Davanagere - KSPCB",24-01-2026 08:00:00,14.475800,75.905200,PM2.5,43,97,66
India,Karnataka,Dharwad,"Kalabhavan, Dharwad - KSPCB",24-01-2026 08:00:00,15.459706,75.008381,PM10,62,122,98
India,Haryana,Gurugram,"Vikas Sadan, Gurugram - HSPCB",24-01-2026 08:00:00,28.4501238,77.0263051,CO,64,115,96
India,Haryana,Gurugram,"Vikas Sadan, Gurugram - HSPCB",24-01-2026 08:00:00,28.4501238,77.0263051,OZONE,4,30,10
India,Haryana,Kaithal,"Rishi Nagar, Kaithal - HSPCB",24-01-2026 08:00:00,29.8006,76.4155,PM2.5,47,194,71
India,Haryana,Karnal,"Sector-12, Karnal - HSPCB",24-01-2026 08:00:00,29.695300,77.002700,SO2,6,7,6
India,Haryana,Kurukshetra,"Sector-7, Kurukshetra - HSPCB",24-01-2026 08:00:00,29.966942,76.875879,NO2,16,23,19
India,Haryana,Mandikhera,"General Hospital, Mandikhera(Nuh) - HSPCB",24-01-2026 08:00:00,27.9002,76.9938,OZONE,22,29,27
India,Haryana,Manesar,"Sector-2 IMT, Manesar - HSPCB",24-01-2026 08:00:00,28.360699,76.936090,PM2.5,92,226,141
India,Haryana,Manesar,"Sector-2 IMT, Manesar - HSPCB",24-01-2026 08:00:00,28.360699,76.936090,NO2,35,42,39
India,Gujarat,Vatva,"Phase-4 GIDC, Vatva - GPCB",24-01-2026 08:00:00,22.969611,72.643500,NH3,7,10,8
India,Haryana,Bahadurgarh,"Arya Nagar, Bahadurgarh - HSPCB",24-01-2026 08:00:00,28.6701,76.9254,OZONE,16,19,17
India,Haryana,Ballabgarh,"Nathu Colony, Ballabgarh - HSPCB",24-01-2026 08:00:00,28.3419248,77.319699,PM10,160,394,259
India,Haryana,Ballabgarh,"Nathu Colony, Ballabgarh - HSPCB",24-01-2026 08:00:00,28.3419248,77.319699,NH3,3,3,3
India,Haryana,Bhiwani,"H.B. Colony, Bhiwani - HSPCB",24-01-2026 08:00:00,28.806223,76.141105,PM2.5,209,362,274
India,Haryana,Bhiwani,"H.B. Colony, Bhiwani - HSPCB",24-01-2026 08:00:00,28.806223,76.141105,CO,11,14,13
India,Haryana,Bhiwani,"H.B. Colony, Bhiwani - HSPCB",24-01-2026 08:00:00,28.806223,76.141105,OZONE,6,15,8
India,Haryana,Dharuhera,"Municipal Corporation Office, Dharuhera -  HSPCB",24-01-2026 08:00:00,28.206800,76.799700,NO2,14,50,38
India,Haryana,Dharuhera,"Municipal Corporation Office, Dharuhera -  HSPCB",24-01-2026 08:00:00,28.206800,76.799700,CO,52,103,90
India,Haryana,Faridabad,"Sector 11, Faridabad - HSPCB",24-01-2026 08:00:00,28.376058,77.315741,NO2,29,33,31
India,Haryana,Faridabad,"Sector 11, Faridabad - HSPCB",24-01-2026 08:00:00,28.376058,77.315741,CO,14,60,35
India,Haryana,Faridabad,"Sector 11, Faridabad - HSPCB",24-01-2026 08:00:00,28.376058,77.315741,OZONE,14,16,15
India,Haryana,Faridabad,"Sector 30, Faridabad - HSPCB",24-01-2026 08:00:00,28.4417,77.3217,OZONE,17,19,18
India,Haryana,Gurugram,"Sector-51, Gurugram - HSPCB",24-01-2026 08:00:00,28.4227,77.0667,SO2,4,8,6
India,Haryana,Gurugram,"Sector-51, Gurugram - HSPCB",24-01-2026 08:00:00,28.4227,77.0667,OZONE,3,15,3
India,Haryana,Gurugram,"Vikas Sadan, Gurugram - HSPCB",24-01-2026 08:00:00,28.4501238,77.0263051,PM2.5,92,302,183
India,Haryana,Palwal,"Shyam Nagar, Palwal - HSPCB",24-01-2026 08:00:00,28.1485564,77.3320667,PM10,91,108,100
India,Haryana,Palwal,"Shyam Nagar, Palwal - HSPCB",24-01-2026 08:00:00,28.1485564,77.3320667,NH3,9,9,9
India,Haryana,Panchkula,"Sector-6, Panchkula - HSPCB ",24-01-2026 08:00:00,30.7057778,76.8531805555555,PM2.5,NA,NA,NA
India,Haryana,Panipat,"Sector-18, Panipat - HSPCB",24-01-2026 08:00:00,29.432304,76.972765,PM10,NA,NA,NA
India,Haryana,Rohtak,"MD University, Rohtak - HSPCB",24-01-2026 08:00:00,28.52123,76.37138,PM10,63,500,110
India,Haryana,Rohtak,"MD University, Rohtak - HSPCB",24-01-2026 08:00:00,28.52123,76.37138,CO,30,40,34
India,Haryana,Sirsa,"F-Block, Sirsa - HSPCB",24-01-2026 08:00:00,29.536400,75.015800,SO2,5,22,12
India,Karnataka,Bengaluru,"Jayanagar 5th Block, Bengaluru - KSPCB",24-01-2026 08:00:00,12.920984,77.584908,SO2,9,18,13
India,Karnataka,Bengaluru,"Kasturi Nagar, Bengaluru - KSPCB",24-01-2026 08:00:00,13.003872,77.664217,PM10,58,74,67
India,Karnataka,Bengaluru,"Kasturi Nagar, Bengaluru - KSPCB",24-01-2026 08:00:00,13.003872,77.664217,NO2,27,29,28
India,Karnataka,Bengaluru,"Peenya, Bengaluru - CPCB",24-01-2026 08:00:00,13.0270199,77.494094,PM2.5,18,80,32
India,Karnataka,Bengaluru,"Peenya, Bengaluru - CPCB",24-01-2026 08:00:00,13.0270199,77.494094,SO2,6,18,12
India,Karnataka,Bengaluru,"RVCE-Mailasandra, Bengaluru - KSPCB",24-01-2026 08:00:00,12.921418,77.502466,PM2.5,53,333,132
India,Karnataka,Bengaluru,"Sanegurava Halli, Bengaluru - KSPCB",24-01-2026 08:00:00,12.990328,77.5431385,CO,21,38,27
India,Karnataka,Bengaluru,"Bapuji Nagar, Bengaluru - KSPCB",24-01-2026 08:00:00,12.951913,77.539784,PM2.5,22,98,61
India,Karnataka,Bengaluru,"Bapuji Nagar, Bengaluru - KSPCB",24-01-2026 08:00:00,12.951913,77.539784,CO,2,81,12
India,Karnataka,Bengaluru,"Hombegowda Nagar, Bengaluru - KSPCB",24-01-2026 08:00:00,12.938539,77.590100,PM2.5,31,85,60
India,Karnataka,Dharwad,"Kalabhavan, Dharwad - KSPCB",24-01-2026 08:00:00,15.459706,75.008381,SO2,6,10,8
India,Karnataka,Hubballi,"Lingaraj Nagar, Hubballi - KSPCB",24-01-2026 08:00:00,15.3714823,75.1160168,PM2.5,43,50,45
India,Karnataka,Hubballi,"Lingaraj Nagar, Hubballi - KSPCB",24-01-2026 08:00:00,15.3714823,75.1160168,NO2,7,12,8
India,Karnataka,Hubballi,"Lingaraj Nagar, Hubballi - KSPCB",24-01-2026 08:00:00,15.3714823,75.1160168,SO2,1,4,2
India,Karnataka,Hubballi,"Lingaraj Nagar, Hubballi - KSPCB",24-01-2026 08:00:00,15.3714823,75.1160168,OZONE,24,33,24
India,Karnataka,Kalaburagi,"Mahatma Basaveswar Colony, Kalaburgi - KSPCB",24-01-2026 08:00:00,17.336318,76.847397,PM2.5,11,63,43
India,Karnataka,Madikeri,"Stuart Hill, Madikeri - KSPCB",24-01-2026 08:00:00,12.415911,75.735050,PM2.5,28,58,38
India,Karnataka,Mangalore,"Kadri, Mangalore - KSPCB",24-01-2026 08:00:00,12.889250,74.853000,PM10,NA,NA,NA
India,Karnataka,Mangalore,"Kadri, Mangalore - KSPCB",24-01-2026 08:00:00,12.889250,74.853000,NO2,NA,NA,NA
India,Karnataka,Mangalore,"Kadri, Mangalore - KSPCB",24-01-2026 08:00:00,12.889250,74.853000,NH3,NA,NA,NA
India,Karnataka,Mysuru,"Hebbal 1st Stage, Mysuru - KSPCB",24-01-2026 08:00:00,12.21041,76.37376,NH3,2,7,4
India,Karnataka,Ramanagara,"Vijay Nagar, Ramanagara - KSPCB",24-01-2026 08:00:00,12.733409,77.298051,CO,12,42,31
India,Karnataka,Shivamogga,"Vinoba Nagara, Shivamogga - KSPCB",24-01-2026 08:00:00,13.940000,75.555917,OZONE,6,69,13
India,Karnataka,Tumakuru,"Thimmalapura, Tumakuru - KSPCB",24-01-2026 08:00:00,13.377516,77.099072,PM10,104,140,119
India,Karnataka,Tumakuru,"Thimmalapura, Tumakuru - KSPCB",24-01-2026 08:00:00,13.377516,77.099072,NH3,6,6,6
India,Karnataka,Vijayapura,"Ibrahimpur, Vijayapura - KSPCB",24-01-2026 08:00:00,16.802639,75.722694,PM2.5,30,31,30
India,Karnataka,Vijayapura,"Ibrahimpur, Vijayapura - KSPCB",24-01-2026 08:00:00,16.802639,75.722694,NH3,1,2,1
India,Karnataka,Yadgir,"Collector Office, Yadgir - KSPCB",24-01-2026 08:00:00,16.7602,77.1428,PM10,66,148,94
India,Karnataka,Yadgir,"Collector Office, Yadgir - KSPCB",24-01-2026 08:00:00,16.7602,77.1428,NO2,8,36,17
India,Kerala,Eloor,"Udyogamandal, Eloor - Kerala PCB",24-01-2026 08:00:00,10.073232,76.302765,SO2,1,1,1
India,Kerala,Kannur,"Thavakkara, Kannur - Kerala PCB",24-01-2026 08:00:00,11.875000,75.373200,PM10,74,128,91
India,Kerala,Kollam,"Polayathode, Kollam - Kerala PCB",24-01-2026 08:00:00,8.8787,76.6073,PM10,NA,NA,NA
India,Kerala,Kollam,"Polayathode, Kollam - Kerala PCB",24-01-2026 08:00:00,8.8787,76.6073,NO2,NA,NA,NA
India,Maharashtra,Amravati,"Shivneri Colony, Amravati - MPCB",24-01-2026 08:00:00,20.9402359,77.7895248,OZONE,11,73,40
India,Maharashtra,Amravati,"Shri Shivaji Science College, Amravati - MPCB",24-01-2026 08:00:00,20.939198,77.765701,NO2,2,13,4
India,Maharashtra,Amravati,"Shri Shivaji Science College, Amravati - MPCB",24-01-2026 08:00:00,20.939198,77.765701,NH3,1,6,3
India,Maharashtra,Amravati,"Shri Shivaji Science College, Amravati - MPCB",24-01-2026 08:00:00,20.939198,77.765701,SO2,11,45,22
India,Maharashtra,Amravati,"Shri Shivaji Science College, Amravati - MPCB",24-01-2026 08:00:00,20.939198,77.765701,CO,42,72,48
India,Maharashtra,Aurangabad,"More Chowk Waluj, Aurangabad - MPCB",24-01-2026 08:00:00,19.8389439,75.244448,PM2.5,59,100,79
India,Maharashtra,Aurangabad,"More Chowk Waluj, Aurangabad - MPCB",24-01-2026 08:00:00,19.8389439,75.244448,PM10,62,104,83
India,Maharashtra,Aurangabad,"More Chowk Waluj, Aurangabad - MPCB",24-01-2026 08:00:00,19.8389439,75.244448,NH3,9,11,10
India,Maharashtra,Aurangabad,"More Chowk Waluj, Aurangabad - MPCB",24-01-2026 08:00:00,19.8389439,75.244448,CO,8,144,40
India,Maharashtra,Aurangabad,"Rachnakar Colony, Aurangabad - MPCB",24-01-2026 08:00:00,19.863756,75.321188,PM10,41,212,114
India,Maharashtra,Aurangabad,"Rachnakar Colony, Aurangabad - MPCB",24-01-2026 08:00:00,19.863756,75.321188,NH3,2,5,4
India,Maharashtra,Aurangabad,"Rachnakar Colony, Aurangabad - MPCB",24-01-2026 08:00:00,19.863756,75.321188,OZONE,14,72,15
India,Madhya Pradesh,Sagar,"Deen Dayal Nagar, Sagar - MPPCB",24-01-2026 08:00:00,23.8640158,78.80289321,SO2,1,15,6
India,Madhya Pradesh,Singrauli,"Suryakiran Bhawan NCL, Singrauli - MPPCB",24-01-2026 08:00:00,24.108970,82.645580,CO,29,116,48
India,Madhya Pradesh,Singrauli,"Suryakiran Bhawan NCL, Singrauli - MPPCB",24-01-2026 08:00:00,24.108970,82.645580,OZONE,7,37,8
India,Madhya Pradesh,Ujjain,"Mahashweta Nagar, Ujjain - MPPCB",24-01-2026 08:00:00,23.1633321,75.800225,PM2.5,82,204,131
India,Madhya Pradesh,Ujjain,"Mahashweta Nagar, Ujjain - MPPCB",24-01-2026 08:00:00,23.1633321,75.800225,NO2,20,44,33
India,Maharashtra,Ahmednagar,"Tarakpur, Ahmednagar - MPCB",24-01-2026 08:00:00,19.10122,74.73339,PM2.5,59,163,100
India,Maharashtra,Ahmednagar,"Tarakpur, Ahmednagar - MPCB",24-01-2026 08:00:00,19.10122,74.73339,CO,17,115,22
India,Maharashtra,Ahmednagar,"Tarakpur, Ahmednagar - MPCB",24-01-2026 08:00:00,19.10122,74.73339,OZONE,10,123,35
India,Maharashtra,Akola,"Ramdaspeth, Akola - MPCB",24-01-2026 08:00:00,20.719516,77.000253,CO,16,50,21
India,Madhya Pradesh,Jabalpur,"Marhatal, Jabalpur - MPPCB",24-01-2026 08:00:00,23.168606,79.932247,CO,20,118,68
India,Madhya Pradesh,Jabalpur,"Suhagi, Jabalpur - JMC",24-01-2026 08:00:00,23.218135,79.957770,PM2.5,43,170,86
India,Madhya Pradesh,Katni,"Gole Bazar, Katni - MPPCB",24-01-2026 08:00:00,23.50016,80.23284,NH3,4,6,5
India,Madhya Pradesh,Katni,"Gole Bazar, Katni - MPPCB",24-01-2026 08:00:00,23.50016,80.23284,OZONE,7,127,10
India,Madhya Pradesh,Mandideep,"Sector-D Industrial Area, Mandideep - MPPCB",24-01-2026 08:00:00,23.108440,77.511428,PM2.5,86,360,225
India,Madhya Pradesh,Mandideep,"Sector-D Industrial Area, Mandideep - MPPCB",24-01-2026 08:00:00,23.108440,77.511428,SO2,15,64,32
India,Madhya Pradesh,Pithampur,"Sector-2 Industrial Area, Pithampur - MPPCB",24-01-2026 08:00:00,22.624758,75.675238,SO2,21,64,36
India,Madhya Pradesh,Sagar,"Civil Lines, Sagar - MPPCB",24-01-2026 08:00:00,23.838586,78.759431,CO,26,63,53
India,Madhya Pradesh,Indore,"Maguda Nagar, Indore - IMC",24-01-2026 08:00:00,22.7524,75.8872,PM10,NA,NA,NA
India,Madhya Pradesh,Indore,"Maguda Nagar, Indore - IMC",24-01-2026 08:00:00,22.7524,75.8872,CO,18,32,22
India,Madhya Pradesh,Indore,"Regional Park, Indore - IMC",24-01-2026 08:00:00,22.6780,75.8559,SO2,4,6,5
India,Madhya Pradesh,Indore,"Residency Area, Indore - IMC",24-01-2026 08:00:00,22.7084,75.8815,PM10,56,95,72
India,Madhya Pradesh,Indore,"Residency Area, Indore - IMC",24-01-2026 08:00:00,22.7084,75.8815,OZONE,5,32,6
India,Madhya Pradesh,Jabalpur,"Govindh Bhavan Colony, Jabalpur - JMC",24-01-2026 08:00:00,23.163174,79.973061,NH3,1,1,1
India,Madhya Pradesh,Jabalpur,"Govindh Bhavan Colony, Jabalpur - JMC",24-01-2026 08:00:00,23.163174,79.973061,SO2,7,9,8
India,Madhya Pradesh,Jabalpur,"Marhatal, Jabalpur - MPPCB",24-01-2026 08:00:00,23.168606,79.932247,PM10,81,143,105
India,Madhya Pradesh,Jabalpur,"Marhatal, Jabalpur - MPPCB",24-01-2026 08:00:00,23.168606,79.932247,SO2,15,30,21
India,Kerala,Thiruvananthapuram,"Plammoodu, Thiruvananthapuram - Kerala PCB",24-01-2026 08:00:00,8.5149093,76.9435879,PM2.5,29,55,43
India,Kerala,Thiruvananthapuram,"Plammoodu, Thiruvananthapuram - Kerala PCB",24-01-2026 08:00:00,8.5149093,76.9435879,PM10,43,82,64
India,Madhya Pradesh,Bhopal,"Idgah Hills, Bhopal - MPPCB",24-01-2026 08:00:00,23.264759,77.381568,SO2,10,24,15
India,Madhya Pradesh,Bhopal,"Idgah Hills, Bhopal - MPPCB",24-01-2026 08:00:00,23.264759,77.381568,CO,16,69,21
India,Madhya Pradesh,Bhopal,"Paryavaran Parisar, Bhopal - MPPCB",24-01-2026 08:00:00,23.210494,77.425409,OZONE,7,50,28
India,Madhya Pradesh,Bhopal,"T T Nagar, Bhopal - MPPCB",24-01-2026 08:00:00,23.233584,77.400574,PM10,103,174,136
India,Madhya Pradesh,Bhopal,"T T Nagar, Bhopal - MPPCB",24-01-2026 08:00:00,23.233584,77.400574,NH3,7,8,8
India,Madhya Pradesh,Bhopal,"T T Nagar, Bhopal - MPPCB",24-01-2026 08:00:00,23.233584,77.400574,CO,35,102,42
India,Madhya Pradesh,Damoh,"Shrivastav Colony, Damoh - MPPCB",24-01-2026 08:00:00,23.81748678,79.446246,CO,10,22,20
India,Madhya Pradesh,Gwalior,"Deen Dayal Nagar, Gwalior - MPPCB",24-01-2026 08:00:00,26.259242,78.216432,PM2.5,60,301,166
India,Madhya Pradesh,Gwalior,"Deen Dayal Nagar, Gwalior - MPPCB",24-01-2026 08:00:00,26.259242,78.216432,OZONE,47,133,59
India,Madhya Pradesh,Indore,"Airport Area, Indore - IMC",24-01-2026 08:00:00,22.7289,75.8076,CO,2,14,4
India,Maharashtra,Belapur,"CBD Belapur, Belapur - MPCB",24-01-2026 08:00:00,19.0243902,73.0406721,CO,4,62,20
India,Maharashtra,Belapur,"CBD Belapur, Belapur - MPCB",24-01-2026 08:00:00,19.0243902,73.0406721,OZONE,1,68,2
India,Maharashtra,Chandrapur,"Chauhan Colony, Chandrapur - MPCB",24-01-2026 08:00:00,19.962900,79.298714,PM2.5,28,263,57
India,Maharashtra,Chandrapur,"Chauhan Colony, Chandrapur - MPCB",24-01-2026 08:00:00,19.962900,79.298714,CO,22,145,125
India,Maharashtra,Chandrapur,"MIDC Khutala, Chandrapur - MPCB",24-01-2026 08:00:00,19.9775302,79.2337086,NH3,1,8,4
India,Maharashtra,Mumbai,"Navy Nagar-Colaba, Mumbai - IITM",24-01-2026 08:00:00,18.897756,72.813320,OZONE,8,66,22
India,Maharashtra,Mumbai,"Powai, Mumbai - MPCB",24-01-2026 08:00:00,19.137500,72.915056,PM2.5,20,55,34
India,Maharashtra,Mumbai,"Powai, Mumbai - MPCB",24-01-2026 08:00:00,19.137500,72.915056,NO2,7,8,8
India,Maharashtra,Mumbai,"Sewri, Mumbai - BMC",24-01-2026 08:00:00,19.000084,72.856730,PM10,64,133,93
India,Maharashtra,Mumbai,"Sewri, Mumbai - BMC",24-01-2026 08:00:00,19.000084,72.856730,SO2,1,14,4
India,Maharashtra,Mumbai,"Shivaji Nagar, Mumbai - BMC",24-01-2026 08:00:00,19.060498,72.923356,PM10,65,143,95
India,Maharashtra,Mumbai,"Shivaji Nagar, Mumbai - BMC",24-01-2026 08:00:00,19.060498,72.923356,NO2,25,72,47
India,Maharashtra,Mumbai,"Shivaji Nagar, Mumbai - BMC",24-01-2026 08:00:00,19.060498,72.923356,OZONE,1,37,1
India,Maharashtra,Mumbai,"Siddharth Nagar-Worli, Mumbai - IITM",24-01-2026 08:00:00,19.000083,72.813993,PM2.5,33,80,52
India,Maharashtra,Mumbai,"Sion, Mumbai - MPCB",24-01-2026 08:00:00,19.047000,72.874600,OZONE,10,21,16
India,Maharashtra,Mumbai,"Vile Parle West, Mumbai - MPCB",24-01-2026 08:00:00,19.10861,72.83622,PM10,40,112,71
India,Maharashtra,Jalgaon,"Prabhat Colony, Jalgaon - MPCB",24-01-2026 08:00:00,21.001264,75.565602,CO,18,36,21
India,Maharashtra,Jalna,"Old MIDC, Jalna - MPCB",24-01-2026 08:00:00,19.854616,75.905894,NO2,7,14,9
India,Maharashtra,Jalna,"Old MIDC, Jalna - MPCB",24-01-2026 08:00:00,19.854616,75.905894,NH3,2,6,4
India,Maharashtra,Kalyan,"Khadakpada, Kalyan - MPCB",24-01-2026 08:00:00,19.25292,73.142019,PM10,51,178,98
India,Maharashtra,Kalyan,"Khadakpada, Kalyan - MPCB",24-01-2026 08:00:00,19.25292,73.142019,OZONE,9,80,11
India,Maharashtra,Kalyan,"Pimpleshwar Mandir, Kalyan - MPCB",24-01-2026 08:00:00,19.192056,72.9585188,PM10,109,209,130
India,Maharashtra,Kalyan,"Pimpleshwar Mandir, Kalyan - MPCB",24-01-2026 08:00:00,19.192056,72.9585188,NO2,9,22,13
India,Maharashtra,Kolhapur,"Shivaji University, Kolhapur - MPCB",24-01-2026 08:00:00,16.6870449,74.2505872,SO2,2,5,3
India,Maharashtra,Kolhapur,"Sinchan Bhavan, Kolhapur - MPCB",24-01-2026 08:00:00,16.7143745,74.2426398,OZONE,1,39,10
India,Maharashtra,Nashik,"Gangapur Road, Nashik - MPCB",24-01-2026 08:00:00,20.0073285,73.7762427,OZONE,8,47,47
India,Maharashtra,Nashik,"Hirawadi, Nashik - MPCB",24-01-2026 08:00:00,20.021503,73.813844,PM2.5,42,97,61
India,Maharashtra,Nashik,"MIDC Ambad, Nashik - MPCB",24-01-2026 08:00:00,19.950220,73.731480,OZONE,1,67,15
India,Maharashtra,Nashik,"Pandav Nagari, Nashik - MPCB",24-01-2026 08:00:00,19.9591346,73.7788008,PM2.5,58,175,79
India,Maharashtra,Navi Mumbai,"Kopripada-Vashi, Navi Mumbai - MPCB",24-01-2026 08:00:00,19.090337,73.014232,NH3,4,5,4
India,Maharashtra,Navi Mumbai,"Kopripada-Vashi, Navi Mumbai - MPCB",24-01-2026 08:00:00,19.090337,73.014232,SO2,2,4,3
India,Maharashtra,Navi Mumbai,"Mahape, Navi Mumbai - MPCB",24-01-2026 08:00:00,19.1135051,73.008978,NH3,3,3,3
India,Maharashtra,Navi Mumbai,"Nerul, Navi Mumbai - MPCB",24-01-2026 08:00:00,19.008751,73.016620,PM2.5,29,211,72
India,Maharashtra,Latur,"Sawe Wadi, Latur - MPCB",24-01-2026 08:00:00,18.39963,76.57452,PM10,8,193,103
India,Maharashtra,Latur,"Sawe Wadi, Latur - MPCB",24-01-2026 08:00:00,18.39963,76.57452,NH3,6,41,16
India,Maharashtra,Mahad,"Kamble Tarf Birwadi, Mahad - MPCB",24-01-2026 08:00:00,18.1023399,73.4783687,PM10,79,180,120
India,Maharashtra,Mahad,"Kamble Tarf Birwadi, Mahad - MPCB",24-01-2026 08:00:00,18.1023399,73.4783687,NO2,11,38,22
India,Maharashtra,Mahad,"Kamble Tarf Birwadi, Mahad - MPCB",24-01-2026 08:00:00,18.1023399,73.4783687,CO,4,30,23
India,Maharashtra,Mira-Bhayandar,"Bhayandar West, Mira-Bhayandar - MPCB",24-01-2026 08:00:00,19.296481,72.840923,PM2.5,34,189,71
India,Maharashtra,Mira-Bhayandar,"Bhayandar West, Mira-Bhayandar - MPCB",24-01-2026 08:00:00,19.296481,72.840923,NO2,13,60,33
India,Maharashtra,Mira-Bhayandar,"Bhayandar West, Mira-Bhayandar - MPCB",24-01-2026 08:00:00,19.296481,72.840923,NH3,1,12,6
India,Maharashtra,Mira-Bhayandar,"Bhayandar West, Mira-Bhayandar - MPCB",24-01-2026 08:00:00,19.296481,72.840923,CO,10,66,34
India,Maharashtra,Mumbai,"Bandra Kurla Complex, Mumbai - MPCB",24-01-2026 08:00:00,19.065931,72.862131,SO2,4,6,5
India,Maharashtra,Mumbai,"Borivali East, Mumbai - IITM",24-01-2026 08:00:00,19.23241,72.86895,PM2.5,36,96,61
India,Maharashtra,Mumbai,"Borivali East, Mumbai - MPCB",24-01-2026 08:00:00,19.2243333,72.8658113,SO2,12,17,14
India,Maharashtra,Mumbai,"Chakala-Andheri East, Mumbai - IITM",24-01-2026 08:00:00,19.11074,72.86084,NO2,43,95,72
India,Maharashtra,Mumbai,"Chembur, Mumbai - MPCB",24-01-2026 08:00:00,19.0364585,72.8954371,OZONE,NA,NA,NA
India,Maharashtra,Mumbai,"Chhatrapati Shivaji Intl. Airport (T2), Mumbai - MPCB",24-01-2026 08:00:00,19.10078,72.87462,PM10,72,120,96
India,Maharashtra,Nagpur,"Ambazari, Nagpur - MPCB",24-01-2026 08:00:00,21.121801,79.04952,NH3,NA,NA,NA
India,Maharashtra,Nagpur,"Ambazari, Nagpur - MPCB",24-01-2026 08:00:00,21.121801,79.04952,CO,NA,NA,NA
India,Maharashtra,Nagpur,"Mahal, Nagpur - MPCB",24-01-2026 08:00:00,21.14472,79.107595,NO2,28,83,46
India,Maharashtra,Nagpur,"Mahal, Nagpur - MPCB",24-01-2026 08:00:00,21.14472,79.107595,NH3,7,8,8
India,Maharashtra,Nagpur,"Opp GPO Civil Lines, Nagpur - MPCB",24-01-2026 08:00:00,21.152875,79.0517531,NH3,6,20,12
India,Maharashtra,Nagpur,"Ram Nagar, Nagpur - MPCB",24-01-2026 08:00:00,21.143383,79.048912,PM2.5,85,259,187
India,Maharashtra,Nagpur,"Ram Nagar, Nagpur - MPCB",24-01-2026 08:00:00,21.143383,79.048912,NH3,4,4,4
India,Maharashtra,Nagpur,"Ram Nagar, Nagpur - MPCB",24-01-2026 08:00:00,21.143383,79.048912,OZONE,5,63,12
India,Maharashtra,Mumbai,"Colaba, Mumbai - MPCB",24-01-2026 08:00:00,18.910000,72.820000,PM2.5,24,101,51
India,Maharashtra,Mumbai,"Colaba, Mumbai - MPCB",24-01-2026 08:00:00,18.910000,72.820000,SO2,NA,NA,NA
India,Maharashtra,Mumbai,"Kandivali West, Mumbai - BMC",24-01-2026 08:00:00,19.215859,72.831718,PM10,76,111,90
India,Maharashtra,Mumbai,"Kandivali West, Mumbai - BMC",24-01-2026 08:00:00,19.215859,72.831718,SO2,2,6,3
India,Maharashtra,Mumbai,"Kherwadi_Bandra East, Mumbai - MPCB",24-01-2026 08:00:00,19.0632143,72.8456324,PM2.5,28,84,56
India,Maharashtra,Mumbai,"Kherwadi_Bandra East, Mumbai - MPCB",24-01-2026 08:00:00,19.0632143,72.8456324,SO2,3,3,3
India,Maharashtra,Mumbai,"Kurla, Mumbai - MPCB",24-01-2026 08:00:00,19.0863,72.8888,NH3,1,2,2
India,Maharashtra,Mumbai,"Malad West, Mumbai - IITM",24-01-2026 08:00:00,19.19709,72.82204,PM2.5,17,103,48
India,Maharashtra,Mumbai,"Malad West, Mumbai - IITM",24-01-2026 08:00:00,19.19709,72.82204,NO2,37,99,57
India,Maharashtra,Mumbai,"Mazgaon, Mumbai - IITM",24-01-2026 08:00:00,18.96702,72.84214,CO,NA,NA,NA
India,Maharashtra,Mumbai,"Mindspace-Malad West, Mumbai - MPCB",24-01-2026 08:00:00,19.1878657,72.8304069,OZONE,4,18,5
India,Maharashtra,Navi Mumbai,"Nerul, Navi Mumbai - MPCB",24-01-2026 08:00:00,19.008751,73.016620,NO2,38,39,39
India,Punjab,Mandi Gobindgarh,"RIMT University, Mandi Gobindgarh - PPCB",24-01-2026 08:00:00,30.649961,76.331442,PM2.5,NA,NA,NA
India,Punjab,Mandi Gobindgarh,"RIMT University, Mandi Gobindgarh - PPCB",24-01-2026 08:00:00,30.649961,76.331442,PM10,NA,NA,NA
India,Punjab,Mandi Gobindgarh,"RIMT University, Mandi Gobindgarh - PPCB",24-01-2026 08:00:00,30.649961,76.331442,NO2,NA,NA,NA
India,Punjab,Mandi Gobindgarh,"RIMT University, Mandi Gobindgarh - PPCB",24-01-2026 08:00:00,30.649961,76.331442,CO,NA,NA,NA
India,Punjab,Patiala,"Model Town, Patiala - PPCB",24-01-2026 08:00:00,30.349388,76.366642,NH3,6,6,6
India,Punjab,Patiala,"Model Town, Patiala - PPCB",24-01-2026 08:00:00,30.349388,76.366642,OZONE,10,42,12
India,Punjab,Rupnagar,"Ratanpura, Rupnagar - Ambuja Cements",24-01-2026 08:00:00,31.0325454,76.5623046,PM2.5,NA,NA,NA
India,Rajasthan,Ajmer,"Civil Lines,  Ajmer - RSPCB",24-01-2026 08:00:00,26.470859,74.646594,PM2.5,46,89,59
India,Rajasthan,Alwar,"Moti Doongri, Alwar - RSPCB",24-01-2026 08:00:00,27.554793,76.611536,NO2,60,68,66
India,Rajasthan,Alwar,"Moti Doongri, Alwar - RSPCB",24-01-2026 08:00:00,27.554793,76.611536,CO,10,50,18
India,Rajasthan,Banswara,"Rati Talai, Banswara - RSPCB",24-01-2026 08:00:00,23.555190,74.440010,NH3,4,9,6
India,Odisha,Bhubaneswar,"Patia, Bhubaneswar - OSPCB",24-01-2026 08:00:00,20.34652,85.81630,NH3,6,11,8
India,Odisha,Bhubaneswar,"Patia, Bhubaneswar - OSPCB",24-01-2026 08:00:00,20.34652,85.81630,CO,105,118,115
India,Odisha,Bileipada,"Tata Township, Bileipada - OSPCB",24-01-2026 08:00:00,22.06156703,85.47409613,PM2.5,67,332,167
India,Odisha,Bileipada,"Tata Township, Bileipada - OSPCB",24-01-2026 08:00:00,22.06156703,85.47409613,PM10,96,343,148
India,Odisha,Bileipada,"Tata Township, Bileipada - OSPCB",24-01-2026 08:00:00,22.06156703,85.47409613,NO2,6,7,6
India,Odisha,Brajrajnagar,"GM Office, Brajrajnagar - OSPCB",24-01-2026 08:00:00,21.8004996,83.8396977,NH3,10,10,10
India,Odisha,Brajrajnagar,"GM Office, Brajrajnagar - OSPCB",24-01-2026 08:00:00,21.8004996,83.8396977,SO2,20,24,21
India,Odisha,Byasanagar,"Ferro Chrome Colony, Byasanagar - OSPCB",24-01-2026 08:00:00,20.94185,86.11510,PM10,77,146,113
India,Odisha,Cuttack,"CDA Area, Cuttack - OSPCB",24-01-2026 08:00:00,20.48891     ,85.84768     ,NO2,26,117,48
India,Odisha,Keonjhar,"Jagamohanpur, Keonjhar - OSPCB",24-01-2026 08:00:00,21.643900,85.599355,PM10,82,153,121
India,Maharashtra,Pune,"Katraj Dairy, Pune - MPCB",24-01-2026 08:00:00,18.454450,73.854155,SO2,3,4,3
India,Maharashtra,Pune,"Katraj Dairy, Pune - MPCB",24-01-2026 08:00:00,18.454450,73.854155,CO,32,71,48
India,Maharashtra,Pune,"Mhada Colony, Pune - IITM",24-01-2026 08:00:00,18.573040,73.927715,NO2,19,101,65
India,Maharashtra,Pune,"Panchawati_Pashan, Pune - IITM",24-01-2026 08:00:00,18.536457,73.805454,PM10,79,134,107
India,Maharashtra,Pune,"Panchawati_Pashan, Pune - IITM",24-01-2026 08:00:00,18.536457,73.805454,NO2,4,22,11
India,Maharashtra,Pune,"Revenue Colony-Shivajinagar, Pune - IITM",24-01-2026 08:00:00,18.530085,73.849598,CO,34,102,58
India,Maharashtra,Pune,"Savitribai Phule Pune University, Pune - MPCB",24-01-2026 08:00:00,18.547056,73.826908,NH3,1,4,1
India,Maharashtra,Pune,"Transport Nagar-Nigdi, Pune - IITM",24-01-2026 08:00:00,18.664282,73.763966,NO2,20,127,59
India,Maharashtra,Pune,"Transport Nagar-Nigdi, Pune - IITM",24-01-2026 08:00:00,18.664282,73.763966,CO,52,79,70
India,Maharashtra,Sangli,"Vijay Nagar, Sangli - MPCB",24-01-2026 08:00:00, 16.5038,74.3623,NO2,15,67,38
India,Odisha,Keonjhar,"Jagamohanpur, Keonjhar - OSPCB",24-01-2026 08:00:00,21.643900,85.599355,OZONE,16,19,17
India,Odisha,Rairangpur,"Divisional Forest Office, Rairangpur - OSPCB",24-01-2026 08:00:00,22.265816,86.174829,PM2.5,1,175,54
India,Odisha,Rairangpur,"Divisional Forest Office, Rairangpur - OSPCB",24-01-2026 08:00:00,22.265816,86.174829,PM10,28,390,89
India,Odisha,Rairangpur,"Divisional Forest Office, Rairangpur - OSPCB",24-01-2026 08:00:00,22.265816,86.174829,CO,12,42,22
India,Odisha,Rourkela,"Fertilizer Township, Rourkela - OSPCB",24-01-2026 08:00:00,22.18972222,84.86277778,NO2,11,11,11
India,Odisha,Rourkela,"Raghunathpali, Rourkela - OSPCB",24-01-2026 08:00:00,22.220833,84.809444,CO,33,131,70
India,Odisha,Rourkela,"Sector-2, Rourkela - OSPCB",24-01-2026 08:00:00,22.24500000,84.88111111,CO,31,44,36
India,Odisha,Suakati,"OMC Colony, Suakati - OSPCB",24-01-2026 08:00:00,21.606865,85.510538,PM10,66,175,147
India,Odisha,Suakati,"OMC Colony, Suakati - OSPCB",24-01-2026 08:00:00,21.606865,85.510538,NO2,8,8,8
India,Odisha,Talcher,"Talcher Coalfields,Talcher - OSPCB",24-01-2026 08:00:00,20.9360711,85.1707021,PM10,41,277,136
India,Odisha,Talcher,"Talcher Coalfields,Talcher - OSPCB",24-01-2026 08:00:00,20.9360711,85.1707021,NO2,21,92,55
India,Odisha,Talcher,"Talcher Coalfields,Talcher - OSPCB",24-01-2026 08:00:00,20.9360711,85.1707021,SO2,7,44,17
India,Punjab,Bathinda,"Hardev Nagar, Bathinda - PPCB",24-01-2026 08:00:00,30.233011,74.907758,SO2,4,18,7
India,Punjab,Jalandhar,"Civil Line, Jalandhar - PPCB",24-01-2026 08:00:00,31.321907,75.578914,SO2,16,19,18
India,Punjab,Jalandhar,"Civil Line, Jalandhar - PPCB",24-01-2026 08:00:00,31.321907,75.578914,CO,51,60,57
India,Punjab,Khanna,"Kalal Majra, Khanna - PPCB",24-01-2026 08:00:00,30.736056 ,76.209694,PM2.5,NA,NA,NA
India,Punjab,Khanna,"Kalal Majra, Khanna - PPCB",24-01-2026 08:00:00,30.736056 ,76.209694,NH3,NA,NA,NA
India,Mizoram,Aizawl,"Sikulpuikawn, Aizawl - Mizoram PCB",24-01-2026 08:00:00,23.7176342,92.7192841,SO2,15,16,16
India,Nagaland,Kohima,"PWD Junction, Kohima - NPCB",24-01-2026 08:00:00,25.6635413,94.0989878,SO2,75,78,76
India,Nagaland,Kohima,"PWD Junction, Kohima - NPCB",24-01-2026 08:00:00,25.6635413,94.0989878,CO,2,22,4
India,Nagaland,Kohima,"PWD Junction, Kohima - NPCB",24-01-2026 08:00:00,25.6635413,94.0989878,OZONE,2,11,4
India,Odisha,Angul,"Hakimapada, Angul - OSPCB",24-01-2026 08:00:00,20.832874,85.104082,PM2.5,74,329,161
India,Odisha,Balasore,"Kalidaspur, Balasore - OSPCB",24-01-2026 08:00:00,21.51161,86.89088,NH3,1,5,2
India,Odisha,Balasore,"Kalidaspur, Balasore - OSPCB",24-01-2026 08:00:00,21.51161,86.89088,CO,18,69,42
India,Maharashtra,Pimpri-Chinchwad,"Savta Mali Nagar, Pimpri-Chinchwad - IITM",24-01-2026 08:00:00,18.614767,73.799516,PM2.5,70,178,110
India,Maharashtra,Pimpri-Chinchwad,"Savta Mali Nagar, Pimpri-Chinchwad - IITM",24-01-2026 08:00:00,18.614767,73.799516,OZONE,3,61,11
India,Maharashtra,Pimpri-Chinchwad,"Thergaon, Pimpri Chinchwad - MPCB",24-01-2026 08:00:00,18.616318,73.765797,OZONE,1,71,7
India,Maharashtra,Pune,"Bhumkar Nagar, Pune - IITM",24-01-2026 08:00:00,18.605770,73.749976,PM2.5,170,317,237
India,Maharashtra,Pune,"Dhankawadi, Pune - IITM",24-01-2026 08:00:00,18.459883,73.852193,CO,12,72,28
India,Maharashtra,Pune,"Katraj Dairy, Pune - MPCB",24-01-2026 08:00:00,18.454450,73.854155,NH3,2,5,3
India,Maharashtra,Solapur,"Ratandeep Housing Society, Solapur - MPCB",24-01-2026 08:00:00,17.65439,75.90649,PM2.5,74,108,90
India,Maharashtra,Solapur,"Ratandeep Housing Society, Solapur - MPCB",24-01-2026 08:00:00,17.65439,75.90649,OZONE,8,42,21
India,Maharashtra,Ulhasnagar,"Sidhi Vinayak Nagar, Ulhasnagar - MPCB",24-01-2026 08:00:00,19.235581,73.159121,PM10,59,186,107
India,Maharashtra,Virar,"Bolinj, Virar - MPCB",24-01-2026 08:00:00,19.4458210,72.7988231,OZONE,5,33,10
India,Meghalaya,Shillong,"Lumpyngngad, Shillong - Meghalaya PCB",24-01-2026 08:00:00,25.5586,91.8985,CO,4,22,5
India,Maharashtra,Navi Mumbai,"Sanpada, Navi Mumbai - MPCB",24-01-2026 08:00:00,19.0575752,73.0151367,PM10,52,127,85
India,Maharashtra,Navi Mumbai,"Sector-2E Kalamboli, Navi Mumbai - MPCB",24-01-2026 08:00:00,19.02579,73.10297,NO2,14,44,28
India,Maharashtra,Navi Mumbai,"Sector-2E Kalamboli, Navi Mumbai - MPCB",24-01-2026 08:00:00,19.02579,73.10297,SO2,2,8,6
India,Maharashtra,Parbhani,"Masoom Colony, Parbhani - MPCB",24-01-2026 08:00:00,19.265594,76.761463,PM10,83,137,102
India,Rajasthan,Jaipur,"RIICO Sitapura, Jaipur - RSPCB",24-01-2026 08:00:00,26.786682,75.827928,CO,9,86,14
India,Rajasthan,Jaipur,"Sector-2 Murlipura, Jaipur - RSPCB",24-01-2026 08:00:00,26.960669,75.771817,PM2.5,24,96,59
India,Rajasthan,Jaipur,"Sector-2 Murlipura, Jaipur - RSPCB",24-01-2026 08:00:00,26.960669,75.771817,NH3,4,10,7
India,Rajasthan,Jaipur,"Sector-2 Murlipura, Jaipur - RSPCB",24-01-2026 08:00:00,26.960669,75.771817,CO,39,72,46
India,Rajasthan,Jaipur,"Shastri Nagar, Jaipur - RSPCB",24-01-2026 08:00:00,26.9502929,75.730943,PM2.5,51,165,98
India,Rajasthan,Jaipur,"Shastri Nagar, Jaipur - RSPCB",24-01-2026 08:00:00,26.9502929,75.730943,PM10,72,128,97
India,Rajasthan,Jaipur,"Shastri Nagar, Jaipur - RSPCB",24-01-2026 08:00:00,26.9502929,75.730943,NH3,6,19,12
India,Rajasthan,Jaipur,"Shastri Nagar, Jaipur - RSPCB",24-01-2026 08:00:00,26.9502929,75.730943,SO2,2,45,21
India,Rajasthan,Jaipur,"Shastri Nagar, Jaipur - RSPCB",24-01-2026 08:00:00,26.9502929,75.730943,OZONE,23,38,34
India,Rajasthan,Jaisalmer,"Sadar Bazar, Jaisalmer - RSPCB",24-01-2026 08:00:00,26.912329,70.909168,PM2.5,35,197,72
India,Rajasthan,Jaisalmer,"Sadar Bazar, Jaisalmer - RSPCB",24-01-2026 08:00:00,26.912329,70.909168,SO2,3,4,3
India,Rajasthan,Jaisalmer,"Sadar Bazar, Jaisalmer - RSPCB",24-01-2026 08:00:00,26.912329,70.909168,OZONE,3,73,21
India,Rajasthan,Jhalawar,"Rajlaxmi Nagar, Jhalawar - RSPCB",24-01-2026 08:00:00,24.588397,76.172782,CO,12,45,16
India,Rajasthan,Karauli,"Satyawati Vihar, Karauli - RSPCB",24-01-2026 08:00:00,26.506177,77.025989,PM2.5,40,74,52
India,Rajasthan,Karauli,"Satyawati Vihar, Karauli - RSPCB",24-01-2026 08:00:00,26.506177,77.025989,OZONE,NA,NA,NA
India,Rajasthan,Kota,"Dhanmandi, Kota - RSPCB",24-01-2026 08:00:00,25.164090,75.858137,SO2,4,68,18
India,Rajasthan,Kota,"Dhanmandi, Kota - RSPCB",24-01-2026 08:00:00,25.164090,75.858137,CO,4,66,4
India,Rajasthan,Kota,"Nayapura, Kota - RSPCB",24-01-2026 08:00:00,25.196024,75.855668,PM10,37,171,98
India,Rajasthan,Kota,"Nayapura, Kota - RSPCB",24-01-2026 08:00:00,25.196024,75.855668,SO2,4,21,10
India,Rajasthan,Kota,"Shrinath Puram, Kota - RSPCB",24-01-2026 08:00:00,25.14389,75.821256,PM2.5,55,163,112
India,Rajasthan,Kota,"Shrinath Puram, Kota - RSPCB",24-01-2026 08:00:00,25.14389,75.821256,SO2,1,25,11
India,Rajasthan,Kota,"Shrinath Puram, Kota - RSPCB",24-01-2026 08:00:00,25.14389,75.821256,CO,1,58,29
India,Rajasthan,Nagaur,"Karni Colony, Nagaur - RSPCB",24-01-2026 08:00:00,27.213494,73.734444,PM10,25,159,96
India,Rajasthan,Nagaur,"Karni Colony, Nagaur - RSPCB",24-01-2026 08:00:00,27.213494,73.734444,CO,6,26,17
India,Rajasthan,Pali,"Indira Colony Vistar, Pali - RSPCB",24-01-2026 08:00:00,25.771061, 73.340227,NO2,31,88,51
India,Rajasthan,Tonk,"Shastri Nagar, Tonk - RSPCB",24-01-2026 08:00:00,26.159933,75.780517,OZONE,NA,NA,NA
India,Rajasthan,Udaipur,"Ashok Nagar, Udaipur - RSPCB",24-01-2026 08:00:00,24.5886166,73.6321397,PM2.5,32,97,58
India,Rajasthan,Udaipur,"Ashok Nagar, Udaipur - RSPCB",24-01-2026 08:00:00,24.5886166,73.6321397,OZONE,13,56,42
India,Sikkim,Gangtok,"Zero Point GICI, Gangtok - SSPCB",24-01-2026 08:00:00,27.338530,88.614099,SO2,1,1,1
India,TamilNadu,Chennai,"Arumbakkam, Chennai - TNPCB",24-01-2026 08:00:00,13.0664,80.2112 ,PM10,49,137,93
India,TamilNadu,Chennai,"Arumbakkam, Chennai - TNPCB",24-01-2026 08:00:00,13.0664,80.2112 ,NO2,8,20,11
India,TamilNadu,Chennai,"Arumbakkam, Chennai - TNPCB",24-01-2026 08:00:00,13.0664,80.2112 ,SO2,2,16,5
India,TamilNadu,Chennai,"Kodungaiyur, Chennai - TNPCB",24-01-2026 08:00:00,13.1278,80.2642,NO2,5,21,9
India,TamilNadu,Chennai,"Kodungaiyur, Chennai - TNPCB",24-01-2026 08:00:00,13.1278,80.2642,NH3,5,8,6
India,TamilNadu,Chennai,"Manali Village, Chennai - TNPCB",24-01-2026 08:00:00,13.1662,80.2584,PM10,50,108,83
India,TamilNadu,Chennai,"Manali Village, Chennai - TNPCB",24-01-2026 08:00:00,13.1662,80.2584,NH3,1,2,2
India,Rajasthan,Dholpur,"Raja Ganj, Dholpur - RSPCB",24-01-2026 08:00:00,26.699557,77.898881,SO2,4,9,6
India,Rajasthan,Dungarpur,"Bhoiwada, Dungarpur - RSPCB",24-01-2026 08:00:00,23.837789,73.714926,PM10,49,97,75
India,Rajasthan,Hanumangarh,"Housing Board, Hanumangarh - RSPCB",24-01-2026 08:00:00,29.610750,74.283608,PM10,32,189,104
India,Rajasthan,Jaipur,"Adarsh Nagar, Jaipur - RSPCB",24-01-2026 08:00:00,26.902909,75.836858,NH3,9,16,12
India,Rajasthan,Jaipur,"Mansarovar Sector-12, Jaipur - RSPCB",24-01-2026 08:00:00,26.843698,75.766894,PM10,64,145,101
India,Rajasthan,Jaipur,"Police Commissionerate, Jaipur - RSPCB",24-01-2026 08:00:00,26.9164092,75.7994901,NH3,6,14,10
India,Rajasthan,Jaipur,"RIICO Sitapura, Jaipur - RSPCB",24-01-2026 08:00:00,26.786682,75.827928,PM2.5,27,140,61
India,Rajasthan,Jodhpur,"Collectorate, Jodhpur - RSPCB",24-01-2026 08:00:00,26.268249,73.0193853,NH3,5,12,8
India,Rajasthan,Jodhpur,"Digari Kalan, Jodhpur - RSPCB",24-01-2026 08:00:00,26.295810,73.082283,PM2.5,3,322,60
India,Rajasthan,Jodhpur,"Digari Kalan, Jodhpur - RSPCB",24-01-2026 08:00:00,26.295810,73.082283,SO2,2,3,2
India,Rajasthan,Jodhpur,"Jhalamand, Jodhpur - RSPCB",24-01-2026 08:00:00,26.215415,73.070156,PM2.5,8,315,58
India,Rajasthan,Jodhpur,"Jhalamand, Jodhpur - RSPCB",24-01-2026 08:00:00,26.215415,73.070156,SO2,1,5,3
India,Rajasthan,Jodhpur,"Mandor, Jodhpur - RSPCB",24-01-2026 08:00:00,26.358805,73.047444,NO2,10,20,13
India,Rajasthan,Jodhpur,"Mandor, Jodhpur - RSPCB",24-01-2026 08:00:00,26.358805,73.047444,NH3,1,3,2
India,Rajasthan,Jodhpur,"Samrat Ashok Udhyan, Jodhpur - RSPCB",24-01-2026 08:00:00,26.253384,72.976571,NO2,9,75,22
India,Rajasthan,Jodhpur,"Samrat Ashok Udhyan, Jodhpur - RSPCB",24-01-2026 08:00:00,26.253384,72.976571,NH3,1,4,2
India,Rajasthan,Jodhpur,"Samrat Ashok Udhyan, Jodhpur - RSPCB",24-01-2026 08:00:00,26.253384,72.976571,OZONE,19,109,77
India,Rajasthan,Bhiwadi,"Vasundhara Nagar_UIT, Bhiwadi - RSPCB",24-01-2026 08:00:00,28.207266,76.829265,NO2,23,87,48
India,Rajasthan,Bhiwadi,"Vasundhara Nagar_UIT, Bhiwadi - RSPCB",24-01-2026 08:00:00,28.207266,76.829265,NH3,6,9,7
India,Rajasthan,Bhiwadi,"Vasundhara Nagar_UIT, Bhiwadi - RSPCB",24-01-2026 08:00:00,28.207266,76.829265,SO2,1,12,6
India,Rajasthan,Bikaner,"MM Ground, Bikaner - RSPCB",24-01-2026 08:00:00,28.018792,73.292658,CO,12,33,17
India,Rajasthan,Chittorgarh,"Shastri Nagar, Chittorgarh - RSPCB",24-01-2026 08:00:00,24.892047,74.623527,SO2,3,126,26
India,Rajasthan,Dholpur,"Raja Ganj, Dholpur - RSPCB",24-01-2026 08:00:00,26.699557,77.898881,PM10,85,131,110
India,Rajasthan,Baran,"Bamboliya, Baran - RSPCB",24-01-2026 08:00:00,25.106006,76.469948,OZONE,32,98,42
India,Rajasthan,Barmer,"Railway Colony, Barmer - RSPCB",24-01-2026 08:00:00,25.747299,71.393989,PM10,59,173,115
India,Rajasthan,Barmer,"Railway Colony, Barmer - RSPCB",24-01-2026 08:00:00,25.747299,71.393989,CO,37,88,47
India,Rajasthan,Barmer,"Railway Colony, Barmer - RSPCB",24-01-2026 08:00:00,25.747299,71.393989,OZONE,44,80,52
India,Rajasthan,Bharatpur,"Krishna Nagar, Bharatpur - RSPCB",24-01-2026 08:00:00,27.215415,77.50873,PM10,NA,NA,NA
India,Rajasthan,Bharatpur,"Krishna Nagar, Bharatpur - RSPCB",24-01-2026 08:00:00,27.215415,77.50873,NO2,NA,NA,NA
India,Rajasthan,Bharatpur,"Krishna Nagar, Bharatpur - RSPCB",24-01-2026 08:00:00,27.215415,77.50873,SO2,NA,NA,NA
India,Rajasthan,Bharatpur,"Krishna Nagar, Bharatpur - RSPCB",24-01-2026 08:00:00,27.215415,77.50873,OZONE,NA,NA,NA
India,Rajasthan,Rajsamand,"Dhoinda, Rajsamand - RSPCB",24-01-2026 08:00:00,25.036360,73.883502,SO2,8,17,11
India,Rajasthan,Sawai Madhopur,"Sahu Nagar, Sawai Madhopur - RSPCB",24-01-2026 08:00:00,26.031443,76.359327,OZONE,28,96,53
India,Rajasthan,Sirohi,"Vedhaynath Colony, Sirohi - RSPCB",24-01-2026 08:00:00,24.885261,72.857549,NH3,1,4,2
India,Rajasthan,Sri Ganganagar,"Old City, Sri Ganganagar - RSPCB",24-01-2026 08:00:00,29.931624,73.864511,PM2.5,10,213,133
India,TamilNadu,Chennai,"Manali, Chennai - CPCB",24-01-2026 08:00:00,13.164544,80.26285,PM10,47,117,84
India,TamilNadu,Chennai,"Manali, Chennai - CPCB",24-01-2026 08:00:00,13.164544,80.26285,OZONE,10,14,10
India,TamilNadu,Coimbatore,"PSG College of Arts and Science, Coimbatore - TNPCB",24-01-2026 08:00:00,11.0328,77.0349,NO2,10,11,11
India,TamilNadu,Coimbatore,"SIDCO Kurichi, Coimbatore - TNPCB",24-01-2026 08:00:00,10.942451,76.978996,PM2.5,42,88,63
India,TamilNadu,Coimbatore,"SIDCO Kurichi, Coimbatore - TNPCB",24-01-2026 08:00:00,10.942451,76.978996,PM10,49,108,72
India,Uttar_Pradesh,Bareilly,"Rajendra Nagar, Bareilly - UPPCB",24-01-2026 08:00:00,28.38910936,79.42963708,OZONE,NA,NA,NA
India,Uttar_Pradesh,Bulandshahr,"Yamunapuram, Bulandshahr - UPPCB",24-01-2026 08:00:00,28.406963,77.849831,PM2.5,42,188,126
India,Uttar_Pradesh,Bulandshahr,"Yamunapuram, Bulandshahr - UPPCB",24-01-2026 08:00:00,28.406963,77.849831,NH3,12,16,13
India,Uttar_Pradesh,Firozabad,"Nagla Bhau, Firozabad - UPPCB",24-01-2026 08:00:00,27.168897,78.376960,PM10,33,65,47
India,Uttar_Pradesh,Firozabad,"Nagla Bhau, Firozabad - UPPCB",24-01-2026 08:00:00,27.168897,78.376960,NO2,17,17,17
India,Uttar_Pradesh,Firozabad,"Nagla Bhau, Firozabad - UPPCB",24-01-2026 08:00:00,27.168897,78.376960,SO2,3,48,19
India,Uttar_Pradesh,Firozabad,"Nagla Bhau, Firozabad - UPPCB",24-01-2026 08:00:00,27.168897,78.376960,CO,2,43,17
India,Uttar_Pradesh,Firozabad,"Vibhab Nagar, Firozabad - UPPCB",24-01-2026 08:00:00,27.1594,78.3953,SO2,12,20,17
India,Uttar_Pradesh,Ghaziabad,"Indirapuram, Ghaziabad - UPPCB",24-01-2026 08:00:00,28.646233,77.358075,PM10,133,223,170
India,Uttar_Pradesh,Ghaziabad,"Loni, Ghaziabad - UPPCB",24-01-2026 08:00:00,28.757294,77.278792,CO,70,104,89
India,Uttar_Pradesh,Ghaziabad,"Sanjay Nagar, Ghaziabad - UPPCB",24-01-2026 08:00:00,28.685382,77.453839,NO2,33,88,58
India,Telangana,Hyderabad,"Kokapet, Hyderabad - TSPCB",24-01-2026 08:00:00,17.393559,78.339194,NH3,2,3,3
India,Telangana,Hyderabad,"Kokapet, Hyderabad - TSPCB",24-01-2026 08:00:00,17.393559,78.339194,SO2,12,18,15
India,Telangana,Hyderabad,"Kokapet, Hyderabad - TSPCB",24-01-2026 08:00:00,17.393559,78.339194,CO,18,33,19
India,Telangana,Hyderabad,"Kompally Municipal Office, Hyderabad - TSPCB",24-01-2026 08:00:00,17.544899,78.486949,PM10,60,100,78
India,Telangana,Hyderabad,"Kompally Municipal Office, Hyderabad - TSPCB",24-01-2026 08:00:00,17.544899,78.486949,NH3,3,5,4
India,Telangana,Hyderabad,"Kompally Municipal Office, Hyderabad - TSPCB",24-01-2026 08:00:00,17.544899,78.486949,SO2,9,15,11
India,Telangana,Hyderabad,"Kompally Municipal Office, Hyderabad - TSPCB",24-01-2026 08:00:00,17.544899,78.486949,CO,6,33,26
India,Telangana,Hyderabad,"Nacharam_TSIIC IALA, Hyderabad - TSPCB",24-01-2026 08:00:00,17.429398,78.569354,PM2.5,53,72,62
India,Telangana,Hyderabad,"Nacharam_TSIIC IALA, Hyderabad - TSPCB",24-01-2026 08:00:00,17.429398,78.569354,PM10,77,96,89
India,Telangana,Hyderabad,"Nacharam_TSIIC IALA, Hyderabad - TSPCB",24-01-2026 08:00:00,17.429398,78.569354,CO,14,36,31
India,Telangana,Hyderabad,"Nacharam_TSIIC IALA, Hyderabad - TSPCB",24-01-2026 08:00:00,17.429398,78.569354,OZONE,16,33,25
India,Telangana,Hyderabad,"New Malakpet, Hyderabad - TSPCB",24-01-2026 08:00:00,17.37206,78.50864,OZONE,12,34,20
India,TamilNadu,Cuddalore,"Semmandalam, Cuddalore - TNPCB",24-01-2026 08:00:00,11.7637683,79.7499835,NO2,2,26,11
India,TamilNadu,Madurai,"Uchapatti, Madurai - TNPCB",24-01-2026 08:00:00,9.865935,78.022669,NH3,9,9,9
India,TamilNadu,Nagapattinam,"Velippalayam, Nagapattinam - TNPCB",24-01-2026 08:00:00,10.798548,79.838212,PM2.5,19,96,64
India,TamilNadu,Nagapattinam,"Velippalayam, Nagapattinam - TNPCB",24-01-2026 08:00:00,10.798548,79.838212,CO,16,27,23
India,TamilNadu,Ooty,"Bombay Castel, Ooty - TNPCB",24-01-2026 08:00:00,11.4068288,76.7138973,PM10,NA,NA,NA
India,TamilNadu,Ooty,"Bombay Castel, Ooty - TNPCB",24-01-2026 08:00:00,11.4068288,76.7138973,SO2,NA,NA,NA
India,TamilNadu,Perundurai,"SIPCOT Industrial Park, Perundurai - TNPCB",24-01-2026 08:00:00,11.258242,77.552761,PM10,36,89,65
India,TamilNadu,Perundurai,"SIPCOT Industrial Park, Perundurai - TNPCB",24-01-2026 08:00:00,11.258242,77.552761,NO2,12,15,13
India,TamilNadu,Perundurai,"SIPCOT Industrial Park, Perundurai - TNPCB",24-01-2026 08:00:00,11.258242,77.552761,NH3,1,3,2
India,TamilNadu,Perundurai,"SIPCOT Industrial Park, Perundurai - TNPCB",24-01-2026 08:00:00,11.258242,77.552761,CO,18,26,24
India,Telangana,Hyderabad,"Sanathnagar, Hyderabad - TSPCB",24-01-2026 08:00:00,17.4559458,78.4332152,OZONE,13,94,27
India,Telangana,Hyderabad,"Somajiguda, Hyderabad - TSPCB",24-01-2026 08:00:00,17.417094,78.457437,PM2.5,57,71,67
India,Telangana,Hyderabad,"Zoo Park, Hyderabad - TSPCB",24-01-2026 08:00:00,17.349694,78.451437,CO,2,96,38
India,Uttar_Pradesh,Agra,"Manoharpur, Agra - UPPCB",24-01-2026 08:00:00,27.23711,78.01936,PM2.5,61,153,98
India,Uttar_Pradesh,Agra,"Manoharpur, Agra - UPPCB",24-01-2026 08:00:00,27.23711,78.01936,OZONE,6,6,6
India,Uttar_Pradesh,Agra,"Rohta, Agra - UPPCB",24-01-2026 08:00:00,27.106972,78.000111,PM2.5,50,110,74
India,Uttar_Pradesh,Agra,"Rohta, Agra - UPPCB",24-01-2026 08:00:00,27.106972,78.000111,NO2,13,13,13
India,Uttar_Pradesh,Agra,"Rohta, Agra - UPPCB",24-01-2026 08:00:00,27.106972,78.000111,OZONE,12,14,13
India,Uttar_Pradesh,Agra,"Sanjay Palace, Agra - UPPCB",24-01-2026 08:00:00,27.19865833,78.00598056,SO2,17,20,18
India,Uttar_Pradesh,Kanpur,"NSI Kalyanpur, Kanpur - UPPCB",24-01-2026 08:00:00,26.509954,80.249612,PM10,116,149,126
India,Uttar_Pradesh,Kanpur,"NSI Kalyanpur, Kanpur - UPPCB",24-01-2026 08:00:00,26.509954,80.249612,SO2,21,25,22
India,Uttar_Pradesh,Kanpur,"NSI Kalyanpur, Kanpur - UPPCB",24-01-2026 08:00:00,26.509954,80.249612,OZONE,15,17,16
India,Uttar_Pradesh,Kanpur,"Nehru Nagar, Kanpur - UPPCB",24-01-2026 08:00:00,26.4703136,80.3229863,NO2,50,55,53
India,Uttar_Pradesh,Kanpur,"Nehru Nagar, Kanpur - UPPCB",24-01-2026 08:00:00,26.4703136,80.3229863,OZONE,6,23,6
India,Uttar_Pradesh,Khurja,"Kalindi Kunj, Khurja - UPPCB",24-01-2026 08:00:00,28.2348927,77.8683002,SO2,15,18,16
India,Uttar_Pradesh,Lucknow,"B R Ambedkar University, Lucknow - UPPCB",24-01-2026 08:00:00,26.766433,80.927299,SO2,24,26,24
India,Uttar_Pradesh,Lucknow,"Gomti Nagar, Lucknow - UPPCB",24-01-2026 08:00:00,26.868120,81.005119,NO2,7,8,7
India,Uttar_Pradesh,Lucknow,"Kendriya Vidyalaya, Lucknow - CPCB",24-01-2026 08:00:00,26.906111,80.948222,PM10,106,173,142
India,Uttar_Pradesh,Lucknow,"Kendriya Vidyalaya, Lucknow - CPCB",24-01-2026 08:00:00,26.906111,80.948222,NO2,39,43,41
India,Uttar_Pradesh,Lucknow,"Kendriya Vidyalaya, Lucknow - CPCB",24-01-2026 08:00:00,26.906111,80.948222,CO,34,101,58
India,Uttar_Pradesh,Lucknow,"Kukrail Picnic Spot-1, Lucknow - UPPCB",24-01-2026 08:00:00,26.90723,80.98579,SO2,43,45,43
India,Uttar_Pradesh,Lucknow,"Kukrail Picnic Spot-1, Lucknow - UPPCB",24-01-2026 08:00:00,26.90723,80.98579,CO,10,14,11
India,Uttar_Pradesh,Lucknow,"Kukrail Picnic Spot-1, Lucknow - UPPCB",24-01-2026 08:00:00,26.90723,80.98579,OZONE,8,30,13
India,Uttar_Pradesh,Lucknow,"Lalbagh, Lucknow - CPCB",24-01-2026 08:00:00,26.8458805,80.9365541,PM10,39,222,148
India,Uttar_Pradesh,Lucknow,"Talkatora District Industries Center, Lucknow - CPCB",24-01-2026 08:00:00,26.83399722,80.8917361,OZONE,9,53,13
India,TamilNadu,Thanjavur,"Parisutham Nagar, Thanjavur - TNPCB",24-01-2026 08:00:00,10.7654824,79.1389968,NH3,1,1,1
India,TamilNadu,Thanjavur,"Parisutham Nagar, Thanjavur - TNPCB",24-01-2026 08:00:00,10.7654824,79.1389968,SO2,17,17,17
India,TamilNadu,Thoothukudi,"Meelavittan, Thoothukudi - TNPCB",24-01-2026 08:00:00,8.816428 ,78.099039,PM10,47,126,69
India,TamilNadu,Thoothukudi,"Meelavittan, Thoothukudi - TNPCB",24-01-2026 08:00:00,8.816428 ,78.099039,NO2,9,22,17
India,TamilNadu,Thoothukudi,"Meelavittan, Thoothukudi - TNPCB",24-01-2026 08:00:00,8.816428 ,78.099039,CO,23,44,33
India,TamilNadu,Thoothukudi,"Meelavittan, Thoothukudi - TNPCB",24-01-2026 08:00:00,8.816428 ,78.099039,OZONE,1,32,6
India,Telangana,Hyderabad,"ICRISAT Patancheru, Hyderabad - TSPCB",24-01-2026 08:00:00,17.518400,78.278777,PM10,NA,NA,NA
India,Telangana,Hyderabad,"ICRISAT Patancheru, Hyderabad - TSPCB",24-01-2026 08:00:00,17.518400,78.278777,SO2,NA,NA,NA
India,Uttar_Pradesh,Agra,"Shahjahan Garden, Agra - UPPCB",24-01-2026 08:00:00,27.169338,78.03582,OZONE,NA,NA,NA
India,Uttar_Pradesh,Agra,"Shastripuram, Agra - UPPCB",24-01-2026 08:00:00,27.19862,77.92066,NH3,3,3,3
India,Uttar_Pradesh,Baghpat,"Sardar Patel Inter College, Baghpat - UPPCB",24-01-2026 08:00:00,28.964949,77.278761,PM10,59,138,99
India,Uttar_Pradesh,Baghpat,"Sardar Patel Inter College, Baghpat - UPPCB",24-01-2026 08:00:00,28.964949,77.278761,NO2,6,11,8
India,Uttar_Pradesh,Bareilly,"Civil Lines, Bareilly - UPPCB",24-01-2026 08:00:00,28.359581,79.414455,NO2,2,3,3
India,Uttar_Pradesh,Bareilly,"Rajendra Nagar, Bareilly - UPPCB",24-01-2026 08:00:00,28.38910936,79.42963708,NH3,1,1,1
India,Uttar_Pradesh,Ghaziabad,"Vasundhara, Ghaziabad - UPPCB",24-01-2026 08:00:00,28.6603346,77.3572563,OZONE,8,44,19
India,Uttar_Pradesh,Greater Noida,"Knowledge Park - III, Greater Noida - UPPCB",24-01-2026 08:00:00,28.47272,77.482000,NO2,17,61,39
India,Uttar_Pradesh,Hapur,"Anand Vihar, Hapur - UPPCB",24-01-2026 08:00:00,28.725645,77.749675,PM2.5,47,500,171
India,Uttar_Pradesh,Hapur,"Anand Vihar, Hapur - UPPCB",24-01-2026 08:00:00,28.725645,77.749675,NO2,1,6,3
India,Uttar_Pradesh,Meerut,"Pallavpuram Phase 2, Meerut - UPPCB",24-01-2026 08:00:00,29.063510,77.709723,PM2.5,45,319,115
India,Uttar_Pradesh,Meerut,"Pallavpuram Phase 2, Meerut - UPPCB",24-01-2026 08:00:00,29.063510,77.709723,NH3,1,3,2
India,Uttar_Pradesh,Moradabad,"Buddhi Vihar, Moradabad - UPPCB",24-01-2026 08:00:00,28.83526,78.74460,SO2,20,28,25
India,Uttar_Pradesh,Moradabad,"Eco Herbal Park, Moradabad - UPPCB",24-01-2026 08:00:00,28.840739,78.697531,OZONE,NA,NA,NA
India,Uttar_Pradesh,Moradabad,"Kashiram Nagar, Moradabad - UPPCB",24-01-2026 08:00:00,28.849399,78.742362,PM2.5,19,118,49
India,Uttar_Pradesh,Moradabad,"Kashiram Nagar, Moradabad - UPPCB",24-01-2026 08:00:00,28.849399,78.742362,OZONE,11,17,12
India,Uttar_Pradesh,Muzaffarnagar,"New Mandi, Muzaffarnagar - UPPCB",24-01-2026 08:00:00,29.4723508,77.7194031,PM10,NA,NA,NA
India,Uttar_Pradesh,Muzaffarnagar,"New Mandi, Muzaffarnagar - UPPCB",24-01-2026 08:00:00,29.4723508,77.7194031,CO,NA,NA,NA
India,Uttar_Pradesh,Noida,"Sector - 125, Noida - UPPCB",24-01-2026 08:00:00,28.5447608,77.3231257,PM10,NA,NA,NA
India,Uttar_Pradesh,Noida,"Sector - 62, Noida - IMD",24-01-2026 08:00:00,28.6245479,77.3577104,PM10,90,196,142
India,Uttar_Pradesh,Noida,"Sector - 62, Noida - IMD",24-01-2026 08:00:00,28.6245479,77.3577104,CO,4,31,20
India,Uttar_Pradesh,Noida,"Sector-1, Noida - UPPCB",24-01-2026 08:00:00,28.5898,77.3101,SO2,6,10,8
India,Uttar_Pradesh,Noida,"Sector-116, Noida - UPPCB",24-01-2026 08:00:00,28.569230,77.393848,PM2.5,56,341,268
India,Uttar_Pradesh,Noida,"Sector-116, Noida - UPPCB",24-01-2026 08:00:00,28.569230,77.393848,NH3,9,37,18
India,Uttar_Pradesh,Prayagraj,"Motilal Nehru NIT, Prayagraj - UPPCB",24-01-2026 08:00:00,25.494,81.863,PM10,74,102,87
India,Uttar_Pradesh,Prayagraj,"Motilal Nehru NIT, Prayagraj - UPPCB",24-01-2026 08:00:00,25.494,81.863,CO,20,37,29
India,Uttar_Pradesh,Prayagraj,"Nagar Nigam, Prayagraj - UPPCB",24-01-2026 08:00:00,25.44919916 ,81.82735986 ,SO2,21,58,40
India,Uttar_Pradesh,Varanasi,"Bhelupur, Varanasi - UPPCB",24-01-2026 08:00:00,25.301778,82.996789,PM10,53,102,72
India,Uttar_Pradesh,Varanasi,"Bhelupur, Varanasi - UPPCB",24-01-2026 08:00:00,25.301778,82.996789,NH3,1,1,1
India,Uttar_Pradesh,Varanasi,"IESD Banaras Hindu University, Varanasi - UPPCB",24-01-2026 08:00:00,25.262326,82.995408,NH3,1,4,2
India,Uttar_Pradesh,Varanasi,"IESD Banaras Hindu University, Varanasi - UPPCB",24-01-2026 08:00:00,25.262326,82.995408,SO2,29,33,29
India,Uttar_Pradesh,Varanasi,"IESD Banaras Hindu University, Varanasi - UPPCB",24-01-2026 08:00:00,25.262326,82.995408,CO,5,18,12
India,Uttarakhand,Kashipur,"Govt. Girls Inter College, Kashipur - UKPCB",24-01-2026 08:00:00,29.2124114,78.9611753,OZONE,11,12,12
India,West_Bengal,Asansol,"Asansol Court Area, Asansol - WBPCB",24-01-2026 08:00:00,23.685297,86.945968,NH3,3,9,5
India,West_Bengal,Asansol,"Asansol Court Area, Asansol - WBPCB",24-01-2026 08:00:00,23.685297,86.945968,SO2,17,61,30
India,West_Bengal,Asansol,"Asansol Court Area, Asansol - WBPCB",24-01-2026 08:00:00,23.685297,86.945968,OZONE,10,54,14
India,West_Bengal,Asansol,"Evelyn Lodge, Asansol - WBPCB",24-01-2026 08:00:00,23.6979360,86.9443950,PM10,53,168,126
India,West_Bengal,Asansol,"Evelyn Lodge, Asansol - WBPCB",24-01-2026 08:00:00,23.6979360,86.9443950,SO2,7,16,11
India,West_Bengal,Asansol,"Mahabir Colliery, Asansol - WBPCB",24-01-2026 08:00:00,23.6181830,87.1057180,NO2,8,29,17
India,West_Bengal,Asansol,"Trivenidevi Bhalotia College, Asansol - WBPCB",24-01-2026 08:00:00,23.616515,87.119133,PM2.5,72,309,204
India,West_Bengal,Asansol,"Trivenidevi Bhalotia College, Asansol - WBPCB",24-01-2026 08:00:00,23.616515,87.119133,PM10,85,206,140
India,West_Bengal,Asansol,"Trivenidevi Bhalotia College, Asansol - WBPCB",24-01-2026 08:00:00,23.616515,87.119133,CO,22,107,99
India,West_Bengal,Barrackpore,"SVSPA Campus, Barrackpore - WBPCB",24-01-2026 08:00:00,22.7605581,88.3617589,NO2,14,60,30
India,West_Bengal,Durgapur,"Mahishkapur Road_B-Zone, Durgapur - WBPCB",24-01-2026 08:00:00,23.567923,87.306843,NO2,17,72,45
India,West_Bengal,Durgapur,"PCBL Residential Complex, Durgapur - WBPCB",24-01-2026 08:00:00,23.5087640,87.3544400,PM10,82,184,135
India,West_Bengal,Durgapur,"Womens College_City Center, Durgapur - WBPCB",24-01-2026 08:00:00,23.549395,87.300496,PM2.5,NA,NA,NA
India,West_Bengal,Durgapur,"Womens College_City Center, Durgapur - WBPCB",24-01-2026 08:00:00,23.549395,87.300496,CO,34,86,68
India,West_Bengal,Howrah,"Belur Math, Howrah - WBPCB",24-01-2026 08:00:00,22.629801,88.352017,NH3,11,24,17
India,West_Bengal,Howrah,"Belur Math, Howrah - WBPCB",24-01-2026 08:00:00,22.629801,88.352017,SO2,10,34,16
India,West_Bengal,Howrah,"Belur Math, Howrah - WBPCB",24-01-2026 08:00:00,22.629801,88.352017,CO,22,106,84
India,West_Bengal,Howrah,"Dasnagar, Howrah - WBPCB",24-01-2026 08:00:00,22.6025571,88.3105664,PM2.5,66,323,199
India,West_Bengal,Howrah,"Dasnagar, Howrah - WBPCB",24-01-2026 08:00:00,22.6025571,88.3105664,NO2,15,141,79
India,West_Bengal,Howrah,"Dasnagar, Howrah - WBPCB",24-01-2026 08:00:00,22.6025571,88.3105664,SO2,6,84,18
India,West_Bengal,Howrah,"Ghusuri, Howrah - WBPCB",24-01-2026 08:00:00,22.611968,88.347422,SO2,12,23,16
India,West_Bengal,Howrah,"Ghusuri, Howrah - WBPCB",24-01-2026 08:00:00,22.611968,88.347422,CO,47,126,113
India,West_Bengal,Howrah,"Ghusuri, Howrah - WBPCB",24-01-2026 08:00:00,22.611968,88.347422,OZONE,11,31,13
India,West_Bengal,Kolkata,"Ballygunge, Kolkata - WBPCB",24-01-2026 08:00:00,22.5367507,88.3638022,PM2.5,100,382,259
India,West_Bengal,Kolkata,"Ballygunge, Kolkata - WBPCB",24-01-2026 08:00:00,22.5367507,88.3638022,PM10,106,395,201
India,West_Bengal,Kolkata,"Bidhannagar, Kolkata - WBPCB",24-01-2026 08:00:00,22.58157048,88.41002457,PM10,85,180,134
India,West_Bengal,Kolkata,"Jadavpur, Kolkata - WBPCB",24-01-2026 08:00:00,22.49929,88.36917,NO2,31,75,56
India,West_Bengal,Kolkata,"Jadavpur, Kolkata - WBPCB",24-01-2026 08:00:00,22.49929,88.36917,CO,9,118,114
India,West_Bengal,Kolkata,"Rabindra Bharati University, Kolkata - WBPCB",24-01-2026 08:00:00,22.627847,88.380669,NO2,52,230,132
India,West_Bengal,Kolkata,"Rabindra Bharati University, Kolkata - WBPCB",24-01-2026 08:00:00,22.627847,88.380669,CO,48,121,105
India,West_Bengal,Kolkata,"Rabindra Sarobar, Kolkata - WBPCB",24-01-2026 08:00:00,22.51106,88.35142,NO2,23,159,86
India,West_Bengal,Kolkata,"Rabindra Sarobar, Kolkata - WBPCB",24-01-2026 08:00:00,22.51106,88.35142,NH3,8,40,22
India,West_Bengal,Kolkata,"Victoria, Kolkata - WBPCB",24-01-2026 08:00:00,22.5448082,88.3403691,NO2,35,51,42
India,West_Bengal,Kolkata,"Victoria, Kolkata - WBPCB",24-01-2026 08:00:00,22.5448082,88.3403691,SO2,8,45,17
India,West_Bengal,Kolkata,"Victoria, Kolkata - WBPCB",24-01-2026 08:00:00,22.5448082,88.3403691,CO,3,100,79
India,West_Bengal,Siliguri,"Ward-32 Bapupara, Siliguri - WBPCB",24-01-2026 08:00:00,26.6879226,88.4152495,SO2,NA,NA,NA
India,West_Bengal,Siliguri,"Ward-32 Bapupara, Siliguri - WBPCB",24-01-2026 08:00:00,26.6879226,88.4152495,OZONE,NA,NA,NA
India,Bihar,Begusarai,"Lohiyanagar, Begusarai - BSPCB",24-01-2026 08:00:00,25.42742023,86.13886079,SO2,21,32,29
India,Bihar,Begusarai,"Lohiyanagar, Begusarai - BSPCB",24-01-2026 08:00:00,25.42742023,86.13886079,CO,29,36,30
India,Bihar,Bettiah,"Kamalnath Nagar, Bettiah - BSPCB",24-01-2026 08:00:00,26.80365,84.51954,CO,60,136,99
India,Bihar,Bhagalpur,"DM Office_Kachari Chowk, Bhagalpur - BSPCB",24-01-2026 08:00:00,25.251013,86.989001,PM2.5,47,227,87
India,Bihar,Bhagalpur,"DM Office_Kachari Chowk, Bhagalpur - BSPCB",24-01-2026 08:00:00,25.251013,86.989001,PM10,55,157,95
India,Bihar,Bhagalpur,"DM Office_Kachari Chowk, Bhagalpur - BSPCB",24-01-2026 08:00:00,25.251013,86.989001,NH3,1,1,1
India,Bihar,Bhagalpur,"Mayaganj, Bhagalpur - BSPCB",24-01-2026 08:00:00,25.265194,87.012947,PM10,76,192,126
India,Bihar,Bhagalpur,"Mayaganj, Bhagalpur - BSPCB",24-01-2026 08:00:00,25.265194,87.012947,OZONE,8,36,12
India,Bihar,Bihar Sharif,"D M Colony, Bihar Sharif - BSPCB",24-01-2026 08:00:00,25.204762,85.514960,PM2.5,50,190,124
India,Bihar,Bihar Sharif,"D M Colony, Bihar Sharif - BSPCB",24-01-2026 08:00:00,25.204762,85.514960,SO2,10,10,10
India,Bihar,Buxar,"Charitra Van, Buxar - BSPCB",24-01-2026 08:00:00,25.567520,83.966379,PM10,67,181,99
India,Bihar,Buxar,"Charitra Van, Buxar - BSPCB",24-01-2026 08:00:00,25.567520,83.966379,NO2,9,10,9
India,Assam,Nagaon,"Christianpatty, Nagaon - PCBA",24-01-2026 08:00:00,26.349082,92.68449,PM2.5,69,199,118
India,Assam,Nalbari,"Bata Chowk, Nalbari - PCBA",24-01-2026 08:00:00,26.446912,91.439057,SO2,4,8,8
India,Assam,Nalbari,"Bata Chowk, Nalbari - PCBA",24-01-2026 08:00:00,26.446912,91.439057,CO,19,22,21
India,Assam,Silchar,"Tarapur, Silchar - PCBA",24-01-2026 08:00:00,24.82827,92.79525,PM2.5,8,88,44
India,Assam,Sivasagar,"Girls College, Sivasagar - PCBA",24-01-2026 08:00:00,26.987634,94.636574,PM2.5,NA,NA,NA
India,Bihar,Araria,"Kharahiya Basti, Araria - BSPCB",24-01-2026 08:00:00,26.146529,87.454184,CO,14,35,29
India,Bihar,Arrah,"New DM Office, Arrah - BSPCB",24-01-2026 08:00:00,25.5626095,84.663264,NO2,5,9,7
India,Bihar,Arrah,"New DM Office, Arrah - BSPCB",24-01-2026 08:00:00,25.5626095,84.663264,SO2,NA,NA,NA
India,Bihar,Aurangabad,"Gurdeo Nagar, Aurangabad - BSPCB",24-01-2026 08:00:00,24.75746,84.366208,PM2.5,30,83,51
India,Bihar,Aurangabad,"Gurdeo Nagar, Aurangabad - BSPCB",24-01-2026 08:00:00,24.75746,84.366208,PM10,66,142,110
India,Bihar,Purnia,"Mariam Nagar, Purnia - BSPCB",24-01-2026 08:00:00,25.366336,87.117468,PM2.5,85,183,141
India,Bihar,Purnia,"Mariam Nagar, Purnia - BSPCB",24-01-2026 08:00:00,25.366336,87.117468,PM10,68,107,93
India,Bihar,Purnia,"Mariam Nagar, Purnia - BSPCB",24-01-2026 08:00:00,25.366336,87.117468,NO2,5,6,6
India,Bihar,Purnia,"Mariam Nagar, Purnia - BSPCB",24-01-2026 08:00:00,25.366336,87.117468,SO2,15,19,16
India,Bihar,Rajgir,"Dangi Tola, Rajgir - BSPCB",24-01-2026 08:00:00,25.03280,85.41948,PM10,6,188,87
India,Bihar,Rajgir,"Dangi Tola, Rajgir - BSPCB",24-01-2026 08:00:00,25.03280,85.41948,NH3,5,8,6
India,Bihar,Rajgir,"Dangi Tola, Rajgir - BSPCB",24-01-2026 08:00:00,25.03280,85.41948,CO,68,101,89
India,Bihar,Saharsa,"Police Line, Saharsa - BSPCB",24-01-2026 08:00:00,25.892357,86.590325,SO2,16,19,18
India,Bihar,Samastipur,"DM Office_Kasipur, Samastipur - BSPCB",24-01-2026 08:00:00,25.859655,85.77944,NH3,1,1,1
India,Bihar,Sasaram,"Dada Peer, Sasaram - BSPCB",24-01-2026 08:00:00,24.952822,84.002396,NO2,1,4,2
India,Bihar,Siwan,"Chitragupta Nagar, Siwan - BSPCB",24-01-2026 08:00:00,26.2271665,84.3570427,CO,62,171,78
India,Bihar,Kishanganj,"SDM Office_Khagra, Kishanganj - BSPCB",24-01-2026 08:00:00,26.0881305,87.93840336,CO,15,28,17
India,Bihar,Manguraha,"Forest Rest House, Manguraha - BSPCB",24-01-2026 08:00:00,27.308328,84.531742,CO,32,33,32
India,Bihar,Motihari,"Gandak Colony, Motihari - BSPCB",24-01-2026 08:00:00,26.63086,84.90051,PM10,75,209,134
India,Bihar,Motihari,"Gandak Colony, Motihari - BSPCB",24-01-2026 08:00:00,26.63086,84.90051,NO2,4,8,5
India,Bihar,Munger,"Town Hall, Munger - BSPCB",24-01-2026 08:00:00,25.376776,86.471523,CO,12,34,27
India,Bihar,Muzaffarpur,"MIT-Daudpur Kothi, Muzaffarpur - BSPCB",24-01-2026 08:00:00,26.1403345,85.3650192,NO2,1,2,2
India,Bihar,Muzaffarpur,"MIT-Daudpur Kothi, Muzaffarpur - BSPCB",24-01-2026 08:00:00,26.1403345,85.3650192,NH3,2,2,2
India,Bihar,Muzaffarpur,"MIT-Daudpur Kothi, Muzaffarpur - BSPCB",24-01-2026 08:00:00,26.1403345,85.3650192,OZONE,5,49,14
India,Bihar,Muzaffarpur,"Muzaffarpur Collectorate, Muzaffarpur - BSPCB",24-01-2026 08:00:00,26.1209,85.3647,PM2.5,88,107,94
India,Arunachal_Pradesh,Naharlagun,"Naharlagun, Naharlagun - APSPCB",24-01-2026 08:00:00,27.103358,93.679645,PM10,88,498,190
India,Arunachal_Pradesh,Naharlagun,"Naharlagun, Naharlagun - APSPCB",24-01-2026 08:00:00,27.103358,93.679645,NH3,1,1,1
India,Assam,Byrnihat,"Central Academy for SFS, Byrnihat - PCBA",24-01-2026 08:00:00,26.071318,91.87488,PM10,69,130,91
India,Assam,Byrnihat,"Central Academy for SFS, Byrnihat - PCBA",24-01-2026 08:00:00,26.071318,91.87488,NH3,4,4,4
India,Assam,Guwahati,"LGBI Airport, Guwahati - PCBA",24-01-2026 08:00:00,26.10887,91.589544,NO2,13,17,15
India,Assam,Guwahati,"LGBI Airport, Guwahati - PCBA",24-01-2026 08:00:00,26.10887,91.589544,SO2,6,16,12
India,Assam,Guwahati,"LGBI Airport, Guwahati - PCBA",24-01-2026 08:00:00,26.10887,91.589544,OZONE,10,14,13
India,Assam,Guwahati,"Pan Bazaar, Guwahati - PCBA",24-01-2026 08:00:00,26.187500,91.744194,OZONE,17,18,17
India,Assam,Guwahati,"Railway Colony, Guwahati - PCBA",24-01-2026 08:00:00,26.181742,91.78063,NO2,3,4,3
India,Andhra_Pradesh,Amaravati,"Secretariat, Amaravati - APPCB",24-01-2026 08:00:00,16.5150833,80.5181667,SO2,1,11,6
India,Andhra_Pradesh,Amaravati,"Secretariat, Amaravati - APPCB",24-01-2026 08:00:00,16.5150833,80.5181667,CO,2,28,17
India,Andhra_Pradesh,Anantapur,"Gulzarpet, Anantapur - APPCB",24-01-2026 08:00:00,14.675886,77.593027,PM10,66,96,83
India,Andhra_Pradesh,Anantapur,"Gulzarpet, Anantapur - APPCB",24-01-2026 08:00:00,14.675886,77.593027,NH3,5,5,5
India,Andhra_Pradesh,Chittoor,"Gangineni Cheruvu, Chittoor - APPCB",24-01-2026 08:00:00,13.204880,79.097889,PM2.5,57,135,82
India,Andhra_Pradesh,Kadapa,"Yerramukkapalli, Kadapa - APPCB",24-01-2026 08:00:00,14.465052,78.824187,NO2,35,37,37
India,Andhra_Pradesh,Kadapa,"Yerramukkapalli, Kadapa - APPCB",24-01-2026 08:00:00,14.465052,78.824187,SO2,14,16,15
India,Andhra_Pradesh,Kadapa,"Yerramukkapalli, Kadapa - APPCB",24-01-2026 08:00:00,14.465052,78.824187,CO,4,9,6
India,Andhra_Pradesh,Kadapa,"Yerramukkapalli, Kadapa - APPCB",24-01-2026 08:00:00,14.465052,78.824187,OZONE,20,28,21
India,Bihar,Chhapra,"Darshan Nagar, Chhapra - BSPCB",24-01-2026 08:00:00,25.7808257,84.7446768,SO2,24,29,27
India,Bihar,Gaya,"Kareemganj, Gaya - BSPCB",24-01-2026 08:00:00,24.792403,84.992416,PM2.5,35,130,72
India,Bihar,Gaya,"Kareemganj, Gaya - BSPCB",24-01-2026 08:00:00,24.792403,84.992416,PM10,112,305,182
India,Bihar,Gaya,"Kareemganj, Gaya - BSPCB",24-01-2026 08:00:00,24.792403,84.992416,NH3,4,6,5
India,Bihar,Gaya,"SFTI Kusdihra, Gaya - BSPCB",24-01-2026 08:00:00,24.762518,84.982348,NO2,19,25,21
India,Bihar,Gaya,"SFTI Kusdihra, Gaya - BSPCB",24-01-2026 08:00:00,24.762518,84.982348,CO,12,55,46
India,Bihar,Katihar,"Mirchaibari, Katihar - BSPCB",24-01-2026 08:00:00,25.560083,87.553265,NO2,4,14,9
India,Bihar,Kishanganj,"SDM Office_Khagra, Kishanganj - BSPCB",24-01-2026 08:00:00,26.0881305,87.93840336,NO2,8,15,12
India,Chandigarh,Chandigarh,"Sector-25, Chandigarh - CPCC",24-01-2026 08:00:00,30.751462,76.762879,OZONE,4,26,6
India,Chandigarh,Chandigarh,"Sector-53, Chandigarh - CPCC",24-01-2026 08:00:00,30.719859,76.738637,SO2,NA,NA,NA
India,Chhattisgarh,Bhilai,"32Bungalows, Bhilai - CECB",24-01-2026 08:00:00,21.194815,81.314770,PM2.5,25,51,35
India,Chhattisgarh,Bhilai,"32Bungalows, Bhilai - CECB",24-01-2026 08:00:00,21.194815,81.314770,PM10,32,148,72
India,Chhattisgarh,Chhal,"Nawapara SECL Colony, Chhal - CECB",24-01-2026 08:00:00,22.118125,83.140608,NO2,9,29,17
India,Bihar,Muzaffarpur,"Muzaffarpur Collectorate, Muzaffarpur - BSPCB",24-01-2026 08:00:00,26.1209,85.3647,OZONE,6,17,8
India,Bihar,Patna,"Rajbansi Nagar, Patna - BSPCB",24-01-2026 08:00:00,25.599486,85.113666,PM2.5,48,182,107
India,Bihar,Patna,"Rajbansi Nagar, Patna - BSPCB",24-01-2026 08:00:00,25.599486,85.113666,PM10,67,197,112
India,Andhra_Pradesh,Tirupati,"Vaikuntapuram, Tirupati - APPCB",24-01-2026 08:00:00,13.615387,79.409230,NH3,5,7,6
India,Chhattisgarh,Chhal,"Nawapara SECL Colony, Chhal - CECB",24-01-2026 08:00:00,22.118125,83.140608,SO2,1,108,24
India,Chhattisgarh,Chhal,"Nawapara SECL Colony, Chhal - CECB",24-01-2026 08:00:00,22.118125,83.140608,OZONE,4,81,8
India,Chhattisgarh,Korba,"Rampur, Korba - CECB",24-01-2026 08:00:00,22.368195,82.746431,PM2.5,24,56,40
India,Chhattisgarh,Korba,"Rampur, Korba - CECB",24-01-2026 08:00:00,22.368195,82.746431,PM10,45,101,68
India,Chhattisgarh,Korba,"Rampur, Korba - CECB",24-01-2026 08:00:00,22.368195,82.746431,CO,10,30,24
India,Chhattisgarh,Korba,"Rampur, Korba - CECB",24-01-2026 08:00:00,22.368195,82.746431,OZONE,1,15,3
India,Chhattisgarh,Korba,"Urja Nagar, Korba - CECB",24-01-2026 08:00:00,22.348441,82.549611,NH3,1,1,1
India,Chhattisgarh,Korba,"Urja Nagar, Korba - CECB",24-01-2026 08:00:00,22.348441,82.549611,SO2,9,18,14
India,Chhattisgarh,Korba,"Urja Nagar, Korba - CECB",24-01-2026 08:00:00,22.348441,82.549611,OZONE,12,26,24
India,Chhattisgarh,Kunjemura,"OP Jindal School, Kunjemura - CECB",24-01-2026 08:00:00,22.126650,83.483212,CO,30,68,50
India,Chhattisgarh,Milupara,"Govt. Higher Secondary School, Milupara - CECB",24-01-2026 08:00:00,22.1910172,83.5197009,PM10,41,244,91
India,Chhattisgarh,Raipur,"AIIMS, Raipur - CECB",24-01-2026 08:00:00,21.258815,81.578979,PM2.5,38,113,73
India,Chhattisgarh,Raipur,"AIIMS, Raipur - CECB",24-01-2026 08:00:00,21.258815,81.578979,PM10,31,159,91
India,Chhattisgarh,Raipur,"Bhatagaon New ISBT, Raipur - CECB",24-01-2026 08:00:00,21.219665,81.630094,CO,36,98,64
India,Chhattisgarh,Raipur,"Bhatagaon New ISBT, Raipur - CECB",24-01-2026 08:00:00,21.219665,81.630094,OZONE,2,7,2
India,Chhattisgarh,Raipur,"Krishak Nagar, Raipur - CECB",24-01-2026 08:00:00,21.237755,81.705301,SO2,3,6,4
India,Chhattisgarh,Raipur,"Siltara Phase-II, Raipur - CECB",24-01-2026 08:00:00,21.371751,81.664929,PM10,77,155,118
India,Chhattisgarh,Raipur,"Siltara Phase-II, Raipur - CECB",24-01-2026 08:00:00,21.371751,81.664929,NH3,2,2,2
India,Chhattisgarh,Raipur,"Siltara Phase-II, Raipur - CECB",24-01-2026 08:00:00,21.371751,81.664929,CO,34,36,35
India,Chhattisgarh,Tumidih,"OP Jindal Industrial Park, Tumidih - CECB",24-01-2026 08:00:00,22.06631475,83.33820077,CO,26,52,38
India,Delhi,Delhi,"Alipur, Delhi - DPCC",24-01-2026 08:00:00,28.815329,77.153010,PM10,105,187,137
India,Delhi,Delhi,"Alipur, Delhi - DPCC",24-01-2026 08:00:00,28.815329,77.153010,NH3,14,20,18
India,Delhi,Delhi,"Alipur, Delhi - DPCC",24-01-2026 08:00:00,28.815329,77.153010,SO2,4,10,7
India,Delhi,Delhi,"Alipur, Delhi - DPCC",24-01-2026 08:00:00,28.815329,77.153010,OZONE,9,30,14
India,Delhi,Delhi,"Anand Vihar, Delhi - DPCC",24-01-2026 08:00:00,28.647622,77.3158090,PM2.5,78,410,300
India,Delhi,Delhi,"Anand Vihar, Delhi - DPCC",24-01-2026 08:00:00,28.647622,77.3158090,NO2,36,92,59
India,Delhi,Delhi,"Anand Vihar, Delhi - DPCC",24-01-2026 08:00:00,28.647622,77.3158090,SO2,7,32,22
India,Delhi,Delhi,"Anand Vihar, Delhi - DPCC",24-01-2026 08:00:00,28.647622,77.3158090,CO,34,104,69
India,Delhi,Delhi,"Ashok Vihar, Delhi - DPCC",24-01-2026 08:00:00,28.695381,77.181665,NO2,28,96,53
India,Delhi,Delhi,"Dwarka-Sector 8, Delhi - DPCC ",24-01-2026 08:00:00,28.5710274,77.0719006,OZONE,14,15,15
India,Delhi,Delhi,"IGI Airport (T3), Delhi - IMD",24-01-2026 08:00:00,28.5627763,77.1180053,PM2.5,38,305,203
India,Delhi,Delhi,"IGI Airport (T3), Delhi - IMD",24-01-2026 08:00:00,28.5627763,77.1180053,PM10,122,182,150
India,Delhi,Delhi,"IGI Airport (T3), Delhi - IMD",24-01-2026 08:00:00,28.5627763,77.1180053,NO2,44,79,61
India,Delhi,Delhi,"IHBAS, Dilshad Garden, Delhi - CPCB",24-01-2026 08:00:00,28.6811736,77.3025234,CO,46,103,90
India,Delhi,Delhi,"IIT Delhi, Delhi - IITM",24-01-2026 08:00:00,28.542460,77.191651,PM2.5,53,311,232
India,Delhi,Delhi,"IIT Delhi, Delhi - IITM",24-01-2026 08:00:00,28.542460,77.191651,CO,21,88,48
India,Delhi,Delhi,"ITO, Delhi - CPCB",24-01-2026 08:00:00,28.628624,77.241060,PM2.5,62,328,266
India,Delhi,Delhi,"ITO, Delhi - CPCB",24-01-2026 08:00:00,28.628624,77.241060,NO2,32,66,50
India,Delhi,Delhi,"ITO, Delhi - CPCB",24-01-2026 08:00:00,28.628624,77.241060,SO2,2,19,13
India,Delhi,Delhi,"Jahangirpuri, Delhi - DPCC",24-01-2026 08:00:00,28.732820,77.170633,PM2.5,57,383,288
India,Gujarat,Ahmedabad,"Raikhad, Ahmedabad - IITM",24-01-2026 08:00:00,23.020509,72.579261,SO2,8,97,22
India,Gujarat,Ahmedabad,"Rakhial, Ahmedabad - IITM",24-01-2026 08:00:00,23.016834,72.625775,PM2.5,26,69,46
India,Gujarat,Ahmedabad,"Rakhial, Ahmedabad - IITM",24-01-2026 08:00:00,23.016834,72.625775,SO2,15,51,25
India,Gujarat,Ahmedabad,"Rakhial, Ahmedabad - IITM",24-01-2026 08:00:00,23.016834,72.625775,OZONE,12,54,37
India,Gujarat,Ahmedabad,"SAC ISRO Satellite, Ahmedabad - IITM",24-01-2026 08:00:00,23.023389,72.515201,PM2.5,37,76,52
India,Gujarat,Ahmedabad,"SAC ISRO Satellite, Ahmedabad - IITM",24-01-2026 08:00:00,23.023389,72.515201,NO2,3,13,8
India,Gujarat,Ahmedabad,"SVPI Airport Hansol, Ahmedabad - IITM",24-01-2026 08:00:00,23.076793,72.627874,PM10,68,105,88
India,Gujarat,Ahmedabad,"SVPI Airport Hansol, Ahmedabad - IITM",24-01-2026 08:00:00,23.076793,72.627874,CO,13,30,16
India,Gujarat,Ankleshwar,"GIDC, Ankleshwar - GPCB",24-01-2026 08:00:00,21.613267,73.010555,PM10,51,113,86
India,Gujarat,Ankleshwar,"GIDC, Ankleshwar - GPCB",24-01-2026 08:00:00,21.613267,73.010555,OZONE,8,48,15
India,Delhi,Delhi,"Bawana, Delhi - DPCC",24-01-2026 08:00:00,28.776200,77.051074,OZONE,1,47,21
India,Delhi,Delhi,"Burari Crossing, Delhi - IMD",24-01-2026 08:00:00,28.7256504,77.2011573,CO,28,90,42
India,Delhi,Delhi,"CRRI Mathura Road, Delhi - IMD",24-01-2026 08:00:00,28.5512005,77.2735737,NO2,13,39,23
India,Delhi,Delhi,"CRRI Mathura Road, Delhi - IMD",24-01-2026 08:00:00,28.5512005,77.2735737,CO,10,76,41
India,Delhi,Delhi,"Chandni Chowk, Delhi - IITM",24-01-2026 08:00:00,28.656756,77.227234,PM10,165,232,182
India,Delhi,Delhi,"DTU, Delhi - CPCB",24-01-2026 08:00:00,28.7500499,77.1112615,PM10,120,211,148
India,Delhi,Delhi,"DTU, Delhi - CPCB",24-01-2026 08:00:00,28.7500499,77.1112615,OZONE,1,26,15
India,Delhi,Delhi,"Dr. Karni Singh Shooting Range, Delhi - DPCC",24-01-2026 08:00:00,28.498571,77.264840,PM10,138,189,155
India,Delhi,Delhi,"Dr. Karni Singh Shooting Range, Delhi - DPCC",24-01-2026 08:00:00,28.498571,77.264840,NO2,11,69,30
India,Delhi,Delhi,"Narela, Delhi - DPCC",24-01-2026 08:00:00,28.822836,77.101981,PM10,117,210,155
India,Delhi,Delhi,"Narela, Delhi - DPCC",24-01-2026 08:00:00,28.822836,77.101981,NH3,6,9,8
India,Delhi,Delhi,"Narela, Delhi - DPCC",24-01-2026 08:00:00,28.822836,77.101981,SO2,9,14,10
India,Delhi,Delhi,"Nehru Nagar, Delhi - DPCC",24-01-2026 08:00:00,28.567890,77.250515,CO,6,114,47
India,Delhi,Delhi,"Okhla Phase-2, Delhi - DPCC",24-01-2026 08:00:00,28.530785,77.271255,SO2,2,65,9
India,Delhi,Delhi,"Okhla Phase-2, Delhi - DPCC",24-01-2026 08:00:00,28.530785,77.271255,OZONE,8,88,33
India,Delhi,Delhi,"Patparganj, Delhi - DPCC",24-01-2026 08:00:00,28.623763,77.287209,PM10,NA,NA,NA
India,Delhi,Delhi,"Punjabi Bagh, Delhi - DPCC",24-01-2026 08:00:00,28.674045,77.131023,PM2.5,57,370,288
India,Delhi,Delhi,"Punjabi Bagh, Delhi - DPCC",24-01-2026 08:00:00,28.674045,77.131023,CO,33,74,48
India,Delhi,Delhi,"Punjabi Bagh, Delhi - DPCC",24-01-2026 08:00:00,28.674045,77.131023,OZONE,6,25,15
India,Delhi,Delhi,"Pusa, Delhi - DPCC",24-01-2026 08:00:00,28.639652,77.146275,NH3,17,25,21
India,Delhi,Delhi,"Pusa, Delhi - DPCC",24-01-2026 08:00:00,28.639652,77.146275,CO,33,100,56
India,Delhi,Delhi,"Pusa, Delhi - IMD",24-01-2026 08:00:00,28.636110,77.173332,PM2.5,42,267,187
India,Delhi,Delhi,"Pusa, Delhi - IMD",24-01-2026 08:00:00,28.636110,77.173332,PM10,116,170,143
India,Delhi,Delhi,"R K Puram, Delhi - DPCC",24-01-2026 08:00:00,28.563262,77.186937,NO2,54,93,74
India,Delhi,Delhi,"R K Puram, Delhi - DPCC",24-01-2026 08:00:00,28.563262,77.186937,OZONE,5,55,20
India,Delhi,Delhi,"Rohini, Delhi - DPCC",24-01-2026 08:00:00,28.732528,77.119920,NH3,21,28,25
India,Delhi,Delhi,"Shadipur, Delhi - CPCB",24-01-2026 08:00:00,28.6514781,77.1473105,NO2,39,106,69
India,Delhi,Delhi,"Mandir Marg, Delhi - DPCC",24-01-2026 08:00:00,28.636429,77.201067,PM10,103,211,164
India,Delhi,Delhi,"Mandir Marg, Delhi - DPCC",24-01-2026 08:00:00,28.636429,77.201067,OZONE,8,50,24
India,Delhi,Delhi,"Mundka, Delhi - DPCC",24-01-2026 08:00:00,28.684678,77.076574,PM10,NA,NA,NA
India,Delhi,Delhi,"Mundka, Delhi - DPCC",24-01-2026 08:00:00,28.684678,77.076574,OZONE,NA,NA,NA
India,Delhi,Delhi,"NSIT Dwarka, Delhi - CPCB",24-01-2026 08:00:00,28.60909,77.0325413,PM10,51,167,113
India,Delhi,Delhi,"NSIT Dwarka, Delhi - CPCB",24-01-2026 08:00:00,28.60909,77.0325413,NH3,6,9,7
India,Delhi,Delhi,"NSIT Dwarka, Delhi - CPCB",24-01-2026 08:00:00,28.60909,77.0325413,CO,43,87,58
India,Delhi,Delhi,"Vivek Vihar, Delhi - DPCC",24-01-2026 08:00:00,28.672342,77.315260,OZONE,1,31,8
India,Delhi,Delhi,"Wazirpur, Delhi - DPCC",24-01-2026 08:00:00,28.699793,77.165453,NH3,9,11,10
India,Gujarat,Ahmedabad,"Gyaspur, Ahmedabad - IITM",24-01-2026 08:00:00,22.977134,72.553024,CO,2,30,8
India,Haryana,Bahadurgarh,"Arya Nagar, Bahadurgarh - HSPCB",24-01-2026 08:00:00,28.6701,76.9254,NH3,12,13,13
India,Haryana,Ballabgarh,"Nathu Colony, Ballabgarh - HSPCB",24-01-2026 08:00:00,28.3419248,77.319699,PM2.5,71,145,100
India,Haryana,Bhiwani,"H.B. Colony, Bhiwani - HSPCB",24-01-2026 08:00:00,28.806223,76.141105,PM10,122,237,149
India,Haryana,Charkhi Dadri,"Mini Secretariat, Charkhi Dadri - HSPCB",24-01-2026 08:00:00,28.593883,76.270653,NO2,9,22,16
India,Haryana,Charkhi Dadri,"Mini Secretariat, Charkhi Dadri - HSPCB",24-01-2026 08:00:00,28.593883,76.270653,SO2,10,11,10
India,Haryana,Dharuhera,"Municipal Corporation Office, Dharuhera -  HSPCB",24-01-2026 08:00:00,28.206800,76.799700,PM2.5,55,353,249
India,Haryana,Dharuhera,"Municipal Corporation Office, Dharuhera -  HSPCB",24-01-2026 08:00:00,28.206800,76.799700,NH3,9,26,19
India,Haryana,Faridabad,"New Industrial Town, Faridabad - HSPCB",24-01-2026 08:00:00,28.39072,77.30059,PM2.5,203,219,213
India,Haryana,Faridabad,"New Industrial Town, Faridabad - HSPCB",24-01-2026 08:00:00,28.39072,77.30059,CO,10,12,12
India,Haryana,Faridabad,"New Industrial Town, Faridabad - HSPCB",24-01-2026 08:00:00,28.39072,77.30059,OZONE,25,33,30
India,Haryana,Faridabad,"Sector 11, Faridabad - HSPCB",24-01-2026 08:00:00,28.376058,77.315741,PM10,68,169,139
India,Karnataka,Bengaluru,"BWSSB Kadabesanahalli, Bengaluru - CPCB",24-01-2026 08:00:00,12.9352049,77.6814488,NO2,NA,NA,NA
India,Karnataka,Bengaluru,"BWSSB Kadabesanahalli, Bengaluru - CPCB",24-01-2026 08:00:00,12.9352049,77.6814488,CO,24,48,26
India,Karnataka,Bengaluru,"Bapuji Nagar, Bengaluru - KSPCB",24-01-2026 08:00:00,12.951913,77.539784,PM10,71,157,114
India,Karnataka,Bengaluru,"City Railway Station, Bengaluru - KSPCB",24-01-2026 08:00:00,12.9756843,77.5660749,SO2,NA,NA,NA
India,Karnataka,Bengaluru,"City Railway Station, Bengaluru - KSPCB",24-01-2026 08:00:00,12.9756843,77.5660749,CO,NA,NA,NA
India,Karnataka,Bengaluru,"Hebbal, Bengaluru - KSPCB",24-01-2026 08:00:00,13.029152,77.585901,PM10,45,113,86
India,Karnataka,Bengaluru,"Hombegowda Nagar, Bengaluru - KSPCB",24-01-2026 08:00:00,12.938539,77.590100,SO2,3,23,13
India,Karnataka,Bengaluru,"Jayanagar 5th Block, Bengaluru - KSPCB",24-01-2026 08:00:00,12.920984,77.584908,PM10,69,127,110
India,Karnataka,Bengaluru,"Jayanagar 5th Block, Bengaluru - KSPCB",24-01-2026 08:00:00,12.920984,77.584908,NH3,1,2,1
India,Karnataka,Bengaluru,"Jigani, Bengaluru - KSPCB",24-01-2026 08:00:00,12.7816279,77.6299145,NO2,19,20,19
India,Himachal Pradesh,Baddi,"HIMUDA Complex Phase-1, Baddi - HPPCB",24-01-2026 08:00:00,30.943887,76.801991,NH3,1,3,2
India,Himachal Pradesh,Baddi,"HIMUDA Complex Phase-1, Baddi - HPPCB",24-01-2026 08:00:00,30.943887,76.801991,OZONE,4,61,42
India,Jammu_and_Kashmir,Srinagar,"Khunmoh, Srinagar - JKPCC",24-01-2026 08:00:00,34.06313,74.96017,SO2,2,4,4
India,Jammu_and_Kashmir,Srinagar,"Rajbagh, Srinagar - JKPCC",24-01-2026 08:00:00,34.066206,74.819820,OZONE,1,10,5
India,Jharkhand,Dhanbad,"Sardar Patel Nagar, Dhanbad - JSPCB",24-01-2026 08:00:00,23.80569,86.44268,PM10,10,317,186
India,Karnataka,Belgaum,"Ramteerth Nagar, Belgaum - KSPCB",24-01-2026 08:00:00,15.888653,74.541751,OZONE,19,20,19
India,Karnataka,Bengaluru,"BWSSB Kadabesanahalli, Bengaluru - CPCB",24-01-2026 08:00:00,12.9352049,77.6814488,PM2.5,36,194,135
India,Karnataka,Bengaluru,"BWSSB Kadabesanahalli, Bengaluru - CPCB",24-01-2026 08:00:00,12.9352049,77.6814488,PM10,47,438,187
India,Haryana,Karnal,"Sector-12, Karnal - HSPCB",24-01-2026 08:00:00,29.695300,77.002700,NO2,6,7,6
India,Haryana,Karnal,"Sector-12, Karnal - HSPCB",24-01-2026 08:00:00,29.695300,77.002700,CO,30,38,30
India,Haryana,Kurukshetra,"Sector-7, Kurukshetra - HSPCB",24-01-2026 08:00:00,29.966942,76.875879,PM10,56,155,98
India,Haryana,Kurukshetra,"Sector-7, Kurukshetra - HSPCB",24-01-2026 08:00:00,29.966942,76.875879,SO2,2,12,5
India,Haryana,Mandikhera,"General Hospital, Mandikhera(Nuh) - HSPCB",24-01-2026 08:00:00,27.9002,76.9938,PM10,71,127,97
India,Haryana,Manesar,"Sector-2 IMT, Manesar - HSPCB",24-01-2026 08:00:00,28.360699,76.936090,PM10,85,134,107
India,Haryana,Manesar,"Sector-2 IMT, Manesar - HSPCB",24-01-2026 08:00:00,28.360699,76.936090,SO2,5,15,9
India,Haryana,Narnaul,"Shastri Nagar, Narnaul - HSPCB",24-01-2026 08:00:00,28.060249,76.113115,PM10,44,113,81
India,Haryana,Narnaul,"Shastri Nagar, Narnaul - HSPCB",24-01-2026 08:00:00,28.060249,76.113115,CO,34,40,35
India,Haryana,Narnaul,"Shastri Nagar, Narnaul - HSPCB",24-01-2026 08:00:00,28.060249,76.113115,OZONE,8,38,8
India,Haryana,Panchgaon,"Amity University, Panchgaon - IITM",24-01-2026 08:00:00,28.3153,76.9143,PM10,3,31,11
India,Haryana,Panchgaon,"Amity University, Panchgaon - IITM",24-01-2026 08:00:00,28.3153,76.9143,NH3,4,14,7
India,Haryana,Panipat,"Sector-18, Panipat - HSPCB",24-01-2026 08:00:00,29.432304,76.972765,NO2,NA,NA,NA
India,Haryana,Panipat,"Sector-18, Panipat - HSPCB",24-01-2026 08:00:00,29.432304,76.972765,OZONE,NA,NA,NA
India,Haryana,Rohtak,"MD University, Rohtak - HSPCB",24-01-2026 08:00:00,28.52123,76.37138,PM2.5,74,500,129
India,Haryana,Yamuna Nagar,"Gobind Pura, Yamuna Nagar - HSPCB",24-01-2026 08:00:00,30.1480566,77.2893471,PM10,20,114,83
India,Haryana,Yamuna Nagar,"Gobind Pura, Yamuna Nagar - HSPCB",24-01-2026 08:00:00,30.1480566,77.2893471,NO2,11,22,16
India,Haryana,Yamuna Nagar,"Gobind Pura, Yamuna Nagar - HSPCB",24-01-2026 08:00:00,30.1480566,77.2893471,SO2,9,15,11
India,Haryana,Yamuna Nagar,"Gobind Pura, Yamuna Nagar - HSPCB",24-01-2026 08:00:00,30.1480566,77.2893471,CO,26,52,29
India,Haryana,Faridabad,"Sector 11, Faridabad - HSPCB",24-01-2026 08:00:00,28.376058,77.315741,NH3,10,10,10
India,Haryana,Faridabad,"Sector 11, Faridabad - HSPCB",24-01-2026 08:00:00,28.376058,77.315741,SO2,4,123,10
India,Haryana,Faridabad,"Sector 30, Faridabad - HSPCB",24-01-2026 08:00:00,28.4417,77.3217,PM2.5,223,226,225
India,Haryana,Faridabad,"Sector 30, Faridabad - HSPCB",24-01-2026 08:00:00,28.4417,77.3217,NH3,11,12,11
India,Haryana,Faridabad,"Sector 30, Faridabad - HSPCB",24-01-2026 08:00:00,28.4417,77.3217,SO2,6,6,6
India,Haryana,Fatehabad,"Huda Sector, Fatehabad - HSPCB",24-01-2026 08:00:00,29.503664,75.467934,PM10,36,172,101
India,Haryana,Fatehabad,"Huda Sector, Fatehabad - HSPCB",24-01-2026 08:00:00,29.503664,75.467934,SO2,10,11,10
India,Haryana,Fatehabad,"Huda Sector, Fatehabad - HSPCB",24-01-2026 08:00:00,29.503664,75.467934,CO,25,31,27
India,Haryana,Fatehabad,"Huda Sector, Fatehabad - HSPCB",24-01-2026 08:00:00,29.503664,75.467934,OZONE,51,85,81
India,Karnataka,Chamarajanagar,"Urban, Chamarajanagar - KSPCB",24-01-2026 08:00:00,11.55358,76.55521,CO,22,120,34
India,Karnataka,Chamarajanagar,"Urban, Chamarajanagar - KSPCB",24-01-2026 08:00:00,11.55358,76.55521,OZONE,29,39,37
India,Karnataka,Chikkamagaluru,"Kalyana Nagara, Chikkamagaluru - KSPCB",24-01-2026 08:00:00,13.328028,75.797056,NO2,22,26,25
India,Karnataka,Chikkamagaluru,"Kalyana Nagara, Chikkamagaluru - KSPCB",24-01-2026 08:00:00,13.328028,75.797056,CO,11,11,11
India,Karnataka,Davanagere,"Devaraj Urs Badavane, Davanagere - KSPCB",24-01-2026 08:00:00,14.475800,75.905200,NO2,25,39,31
India,Karnataka,Dharwad,"Kalabhavan, Dharwad - KSPCB",24-01-2026 08:00:00,15.459706,75.008381,NO2,26,26,26
India,Karnataka,Dharwad,"Kalabhavan, Dharwad - KSPCB",24-01-2026 08:00:00,15.459706,75.008381,NH3,6,6,6
India,Karnataka,Bengaluru,"Kasturi Nagar, Bengaluru - KSPCB",24-01-2026 08:00:00,13.003872,77.664217,NH3,4,4,4
India,Karnataka,Bengaluru,"Kasturi Nagar, Bengaluru - KSPCB",24-01-2026 08:00:00,13.003872,77.664217,SO2,10,15,12
India,Karnataka,Bengaluru,"Peenya, Bengaluru - CPCB",24-01-2026 08:00:00,13.0270199,77.494094,PM10,80,97,89
India,Karnataka,Bengaluru,"RVCE-Mailasandra, Bengaluru - KSPCB",24-01-2026 08:00:00,12.921418,77.502466,CO,3,26,15
India,Karnataka,Bengaluru,"Silk Board, Bengaluru - KSPCB",24-01-2026 08:00:00,12.917348,77.622813,CO,22,96,33
India,Gujarat,Gandhinagar,"Sector-10, Gandhinagar - GPCB",24-01-2026 08:00:00,23.221714,72.654328,PM2.5,44,66,56
India,Gujarat,Vapi,"Phase-1 GIDC, Vapi - GPCB",24-01-2026 08:00:00,20.362421,72.918013,SO2,NA,NA,NA
India,Haryana,Ambala,"Patti Mehar, Ambala - HSPCB",24-01-2026 08:00:00,30.379589,76.778328,PM10,NA,NA,NA
India,Karnataka,Tumakuru,"Thimmalapura, Tumakuru - KSPCB",24-01-2026 08:00:00,13.377516,77.099072,SO2,26,27,26
India,Karnataka,Tumakuru,"Thimmalapura, Tumakuru - KSPCB",24-01-2026 08:00:00,13.377516,77.099072,OZONE,23,23,23
India,Karnataka,Yadgir,"Collector Office, Yadgir - KSPCB",24-01-2026 08:00:00,16.7602,77.1428,NH3,2,3,2
India,Karnataka,Yadgir,"Collector Office, Yadgir - KSPCB",24-01-2026 08:00:00,16.7602,77.1428,CO,14,26,21
India,Karnataka,Yadgir,"Collector Office, Yadgir - KSPCB",24-01-2026 08:00:00,16.7602,77.1428,OZONE,18,19,18
India,Kerala,Eloor,"Udyogamandal, Eloor - Kerala PCB",24-01-2026 08:00:00,10.073232,76.302765,PM2.5,70,209,126
India,Kerala,Eloor,"Udyogamandal, Eloor - Kerala PCB",24-01-2026 08:00:00,10.073232,76.302765,PM10,57,105,81
India,Kerala,Eloor,"Udyogamandal, Eloor - Kerala PCB",24-01-2026 08:00:00,10.073232,76.302765,CO,7,97,29
India,Kerala,Kannur,"Thavakkara, Kannur - Kerala PCB",24-01-2026 08:00:00,11.875000,75.373200,PM2.5,82,99,89
India,Kerala,Kannur,"Thavakkara, Kannur - Kerala PCB",24-01-2026 08:00:00,11.875000,75.373200,SO2,4,5,4
India,Kerala,Kollam,"Polayathode, Kollam - Kerala PCB",24-01-2026 08:00:00,8.8787,76.6073,PM2.5,NA,NA,NA
India,Kerala,Kollam,"Polayathode, Kollam - Kerala PCB",24-01-2026 08:00:00,8.8787,76.6073,SO2,NA,NA,NA
India,Kerala,Thiruvananthapuram,"Kariavattom, Thiruvananthapuram - Kerala PCB",24-01-2026 08:00:00,8.563700,76.886500,CO,38,102,66
India,Madhya Pradesh,Mandideep,"Sector-D Industrial Area, Mandideep - MPPCB",24-01-2026 08:00:00,23.108440,77.511428,NO2,88,175,132
India,Madhya Pradesh,Mandideep,"Sector-D Industrial Area, Mandideep - MPPCB",24-01-2026 08:00:00,23.108440,77.511428,CO,21,72,55
India,Madhya Pradesh,Mandideep,"Sector-D Industrial Area, Mandideep - MPPCB",24-01-2026 08:00:00,23.108440,77.511428,OZONE,37,66,44
India,Madhya Pradesh,Pithampur,"Sector-2 Industrial Area, Pithampur - MPPCB",24-01-2026 08:00:00,22.624758,75.675238,PM2.5,111,287,192
India,Madhya Pradesh,Ratlam,"Shasthri Nagar, Ratlam - IPCA Lab",24-01-2026 08:00:00,23.331731,75.045981,PM10,41,151,106
