country,state,city,station,last_update,latitude,longitude,pollutant_id,min_value,max_value,avg_value
India,Bihar,Aurangabad,"Gurdeo Nagar, Aurangabad - BSPCB",21-02-2026 08:00:00,24.75746,84.366208,NH3,1,2,2
India,Bihar,Aurangabad,"Gurdeo Nagar, Aurangabad - BSPCB",21-02-2026 08:00:00,24.75746,84.366208,CO,100,103,102
India,Bihar,Begusarai,"Lohiyanagar, Begusarai - BSPCB",21-02-2026 08:00:00,25.42742023,86.13886079,NO2,7,13,9
India,Bihar,Begusarai,"Lohiyanagar, Begusarai - BSPCB",21-02-2026 08:00:00,25.42742023,86.13886079,NH3,10,11,11
India,Bihar,Begusarai,"Lohiyanagar, Begusarai - BSPCB",21-02-2026 08:00:00,25.42742023,86.13886079,CO,24,30,28
India,Bihar,Bettiah,"Kamalnath Nagar, Bettiah - BSPCB",21-02-2026 08:00:00,26.80365,84.51954,PM10,31,74,51
India,Bihar,Bettiah,"Kamalnath Nagar, Bettiah - BSPCB",21-02-2026 08:00:00,26.80365,84.51954,SO2,NA,NA,NA
India,Bihar,Bhagalpur,"Mayaganj, Bhagalpur - BSPCB",21-02-2026 08:00:00,25.265194,87.012947,PM2.5,17,42,25
India,Bihar,Bhagalpur,"Mayaganj, Bhagalpur - BSPCB",21-02-2026 08:00:00,25.265194,87.012947,PM10,69,136,97
India,Andhra_Pradesh,Vijayawada,"Rajiv Gandhi Park, Vijayawada - APPCB",21-02-2026 08:00:00,16.509717,80.612222,OZONE,6,54,18
India,Andhra_Pradesh,Visakhapatnam,"GVM Corporation, Visakhapatnam - APPCB",21-02-2026 08:00:00,17.72,83.3,OZONE,NA,NA,NA
India,Arunachal_Pradesh,Naharlagun,"Naharlagun, Naharlagun - APSPCB",21-02-2026 08:00:00,27.103358,93.679645,CO,20,74,34
India,Assam,Byrnihat,"Central Academy for SFS, Byrnihat - PCBA",21-02-2026 08:00:00,26.071318,91.87488,CO,36,81,53
India,Assam,Guwahati,"LGBI Airport, Guwahati - PCBA",21-02-2026 08:00:00,26.10887,91.589544,PM10,38,141,84
India,Assam,Silchar,"Tarapur, Silchar - PCBA",21-02-2026 08:00:00,24.82827,92.79525,OZONE,2,8,2
India,Assam,Sivasagar,"Girls College, Sivasagar - PCBA",21-02-2026 08:00:00,26.987634,94.636574,NO2,34,71,51
India,Bihar,Araria,"Kharahiya Basti, Araria - BSPCB",21-02-2026 08:00:00,26.146529,87.454184,OZONE,9,10,10
India,Bihar,Arrah,"New DM Office, Arrah - BSPCB",21-02-2026 08:00:00,25.5626095,84.663264,PM10,45,108,69
India,Bihar,Arrah,"New DM Office, Arrah - BSPCB",21-02-2026 08:00:00,25.5626095,84.663264,NO2,6,8,7
India,Andhra_Pradesh,Tirupati,"Vaikuntapuram, Tirupati - APPCB",21-02-2026 08:00:00,13.615387,79.409230,PM10,54,110,77
India,Andhra_Pradesh,Tirupati,"Vaikuntapuram, Tirupati - APPCB",21-02-2026 08:00:00,13.615387,79.409230,OZONE,27,35,35
India,Andhra_Pradesh,Vijayawada,"Kanuru, Vijayawada - APPCB",21-02-2026 08:00:00,16.486692,80.699436,SO2,18,21,19
India,Andhra_Pradesh,Vijayawada,"Kanuru, Vijayawada - APPCB",21-02-2026 08:00:00,16.486692,80.699436,OZONE,28,36,31
India,Andhra_Pradesh,Vijayawada,"Rajiv Gandhi Park, Vijayawada - APPCB",21-02-2026 08:00:00,16.509717,80.612222,NO2,32,70,45
India,Andhra_Pradesh,Vijayawada,"Rajiv Gandhi Park, Vijayawada - APPCB",21-02-2026 08:00:00,16.509717,80.612222,NH3,4,5,4
India,Andhra_Pradesh,Kadapa,"Yerramukkapalli, Kadapa - APPCB",21-02-2026 08:00:00,14.465052,78.824187,PM10,NA,NA,NA
India,Andhra_Pradesh,Kadapa,"Yerramukkapalli, Kadapa - APPCB",21-02-2026 08:00:00,14.465052,78.824187,NO2,NA,NA,NA
India,Andhra_Pradesh,Kadapa,"Yerramukkapalli, Kadapa - APPCB",21-02-2026 08:00:00,14.465052,78.824187,OZONE,NA,NA,NA
India,Andhra_Pradesh,Rajamahendravaram,"Anand Kala Kshetram, Rajamahendravaram - APPCB",21-02-2026 08:00:00,16.9872867,81.7363176,PM10,89,218,111
India,Andhra_Pradesh,Rajamahendravaram,"Anand Kala Kshetram, Rajamahendravaram - APPCB",21-02-2026 08:00:00,16.9872867,81.7363176,CO,NA,NA,NA
India,Andhra_Pradesh,Rajamahendravaram,"Anand Kala Kshetram, Rajamahendravaram - APPCB",21-02-2026 08:00:00,16.9872867,81.7363176,OZONE,16,41,20
India,Andhra_Pradesh,Amaravati,"Secretariat, Amaravati - APPCB",21-02-2026 08:00:00,16.5150833,80.5181667,CO,7,51,43
India,Andhra_Pradesh,Anantapur,"Gulzarpet, Anantapur - APPCB",21-02-2026 08:00:00,14.675886,77.593027,PM2.5,48,84,60
India,Andhra_Pradesh,Anantapur,"Gulzarpet, Anantapur - APPCB",21-02-2026 08:00:00,14.675886,77.593027,PM10,50,80,60
India,Andhra_Pradesh,Anantapur,"Gulzarpet, Anantapur - APPCB",21-02-2026 08:00:00,14.675886,77.593027,SO2,1,16,13
India,Andhra_Pradesh,Tirumala,"Toll Gate, Tirumala - APPCB",21-02-2026 08:00:00,13.67,79.35,PM2.5,35,82,57
India,Andhra_Pradesh,Tirumala,"Toll Gate, Tirumala - APPCB",21-02-2026 08:00:00,13.67,79.35,PM10,32,95,59
India,Andhra_Pradesh,Tirumala,"Toll Gate, Tirumala - APPCB",21-02-2026 08:00:00,13.67,79.35,SO2,9,25,14
India,Andhra_Pradesh,Tirupati,"Vaikuntapuram, Tirupati - APPCB",21-02-2026 08:00:00,13.615387,79.409230,PM2.5,57,148,84
India,Assam,Nagaon,"Christianpatty, Nagaon - PCBA",21-02-2026 08:00:00,26.349082,92.68449,NO2,1,1,1
India,Assam,Nalbari,"Bata Chowk, Nalbari - PCBA",21-02-2026 08:00:00,26.446912,91.439057,SO2,7,8,8
India,Assam,Nalbari,"Bata Chowk, Nalbari - PCBA",21-02-2026 08:00:00,26.446912,91.439057,CO,20,22,20
India,Bihar,Bihar Sharif,"D M Colony, Bihar Sharif - BSPCB",21-02-2026 08:00:00,25.204762,85.514960,SO2,NA,NA,NA
India,Bihar,Buxar,"Charitra Van, Buxar - BSPCB",21-02-2026 08:00:00,25.567520,83.966379,SO2,1,25,15
India,Bihar,Bhagalpur,"Mayaganj, Bhagalpur - BSPCB",21-02-2026 08:00:00,25.265194,87.012947,NO2,7,9,8
India,Bihar,Motihari,"Gandak Colony, Motihari - BSPCB",21-02-2026 08:00:00,26.63086,84.90051,OZONE,NA,NA,NA
India,Bihar,Muzaffarpur,"Buddha Colony, Muzaffarpur - BSPCB",21-02-2026 08:00:00,26.11442,85.39813,PM2.5,77,202,111
India,Bihar,Muzaffarpur,"Buddha Colony, Muzaffarpur - BSPCB",21-02-2026 08:00:00,26.11442,85.39813,NO2,6,32,24
India,Bihar,Muzaffarpur,"MIT-Daudpur Kothi, Muzaffarpur - BSPCB",21-02-2026 08:00:00,26.1403345,85.3650192,PM2.5,87,110,94
India,Bihar,Muzaffarpur,"MIT-Daudpur Kothi, Muzaffarpur - BSPCB",21-02-2026 08:00:00,26.1403345,85.3650192,NO2,2,5,3
India,Bihar,Hajipur,"Industrial Area, Hajipur - BSPCB",21-02-2026 08:00:00,25.697189,85.245900,OZONE,33,131,67
India,Bihar,Katihar,"Mirchaibari, Katihar - BSPCB",21-02-2026 08:00:00,25.560083,87.553265,PM10,48,100,69
India,Bihar,Katihar,"Mirchaibari, Katihar - BSPCB",21-02-2026 08:00:00,25.560083,87.553265,NH3,1,1,1
India,Bihar,Kishanganj,"SDM Office_Khagra, Kishanganj - BSPCB",21-02-2026 08:00:00,26.0881305,87.93840336,CO,17,22,18
India,Bihar,Motihari,"Gandak Colony, Motihari - BSPCB",21-02-2026 08:00:00,26.63086,84.90051,PM10,NA,NA,NA
India,Bihar,Motihari,"Gandak Colony, Motihari - BSPCB",21-02-2026 08:00:00,26.63086,84.90051,CO,NA,NA,NA
India,Bihar,Muzaffarpur,"MIT-Daudpur Kothi, Muzaffarpur - BSPCB",21-02-2026 08:00:00,26.1403345,85.3650192,SO2,10,13,11
India,Bihar,Muzaffarpur,"Muzaffarpur Collectorate, Muzaffarpur - BSPCB",21-02-2026 08:00:00,26.1209,85.3647,CO,18,59,36
India,Bihar,Purnia,"Mariam Nagar, Purnia - BSPCB",21-02-2026 08:00:00,25.366336,87.117468,NH3,3,3,3
India,Bihar,Rajgir,"Dangi Tola, Rajgir - BSPCB",21-02-2026 08:00:00,25.03280,85.41948,PM10,30,95,66
India,Bihar,Patna,"IGSC Planetarium Complex, Patna - BSPCB",21-02-2026 08:00:00,25.610369,85.132568,PM2.5,62,202,109
India,Bihar,Patna,"Muradpur, Patna - BSPCB",21-02-2026 08:00:00,25.619651,85.147382,SO2,8,10,9
India,Bihar,Muzaffarpur,"Muzaffarpur Collectorate, Muzaffarpur - BSPCB",21-02-2026 08:00:00,26.1209,85.3647,OZONE,7,21,8
India,Bihar,Patna,"DRM Office Danapur, Patna - BSPCB",21-02-2026 08:00:00,25.586562,85.043586,SO2,4,8,6
India,Bihar,Gaya,"Kareemganj, Gaya - BSPCB",21-02-2026 08:00:00,24.792403,84.992416,NO2,NA,NA,NA
India,Chhattisgarh,Raipur,"AIIMS, Raipur - CECB",21-02-2026 08:00:00,21.258815,81.578979,PM2.5,56,109,82
India,Chhattisgarh,Raipur,"AIIMS, Raipur - CECB",21-02-2026 08:00:00,21.258815,81.578979,NH3,4,4,4
India,Chhattisgarh,Raipur,"AIIMS, Raipur - CECB",21-02-2026 08:00:00,21.258815,81.578979,SO2,4,10,6
India,Chhattisgarh,Raipur,"AIIMS, Raipur - CECB",21-02-2026 08:00:00,21.258815,81.578979,OZONE,1,12,1
India,Chhattisgarh,Raipur,"Bhatagaon New ISBT, Raipur - CECB",21-02-2026 08:00:00,21.219665,81.630094,PM2.5,23,84,49
India,Chhattisgarh,Raipur,"Bhatagaon New ISBT, Raipur - CECB",21-02-2026 08:00:00,21.219665,81.630094,NO2,38,72,51
India,Chhattisgarh,Raipur,"Bhatagaon New ISBT, Raipur - CECB",21-02-2026 08:00:00,21.219665,81.630094,SO2,7,83,29
India,Chhattisgarh,Raipur,"Krishak Nagar, Raipur - CECB",21-02-2026 08:00:00,21.237755,81.705301,NO2,18,31,23
India,Chhattisgarh,Bhilai,"Civic Center, Bhilai - Bhilai Steel Plant",21-02-2026 08:00:00,21.185571,81.343175,NO2,11,11,11
India,Chhattisgarh,Bhilai,"Civic Center, Bhilai - Bhilai Steel Plant",21-02-2026 08:00:00,21.185571,81.343175,CO,26,34,33
India,Chhattisgarh,Bilaspur,"Mangala, Bilaspur - NTPC",21-02-2026 08:00:00,22.08815,82.13737,PM2.5,49,89,73
India,Chhattisgarh,Bilaspur,"Mangala, Bilaspur - NTPC",21-02-2026 08:00:00,22.08815,82.13737,CO,26,69,31
India,Chhattisgarh,Chhal,"Nawapara SECL Colony, Chhal - CECB",21-02-2026 08:00:00,22.118125,83.140608,NO2,7,26,11
India,Chhattisgarh,Chhal,"Nawapara SECL Colony, Chhal - CECB",21-02-2026 08:00:00,22.118125,83.140608,NH3,5,5,5
India,Bihar,Saharsa,"Police Line, Saharsa - BSPCB",21-02-2026 08:00:00,25.892357,86.590325,NO2,6,8,7
India,Bihar,Saharsa,"Police Line, Saharsa - BSPCB",21-02-2026 08:00:00,25.892357,86.590325,CO,39,46,42
India,Bihar,Saharsa,"Police Line, Saharsa - BSPCB",21-02-2026 08:00:00,25.892357,86.590325,OZONE,7,15,10
India,Bihar,Samastipur,"DM Office_Kasipur, Samastipur - BSPCB",21-02-2026 08:00:00,25.859655,85.77944,NO2,8,9,8
India,Bihar,Samastipur,"DM Office_Kasipur, Samastipur - BSPCB",21-02-2026 08:00:00,25.859655,85.77944,SO2,27,35,31
India,Chhattisgarh,Kunjemura,"OP Jindal School, Kunjemura - CECB",21-02-2026 08:00:00,22.126650,83.483212,PM2.5,71,124,94
India,Chhattisgarh,Milupara,"Govt. Higher Secondary School, Milupara - CECB",21-02-2026 08:00:00,22.1910172,83.5197009,NH3,NA,NA,NA
India,Chhattisgarh,Milupara,"Govt. Higher Secondary School, Milupara - CECB",21-02-2026 08:00:00,22.1910172,83.5197009,CO,NA,NA,NA
India,Bihar,Siwan,"Chitragupta Nagar, Siwan - BSPCB",21-02-2026 08:00:00,26.2271665,84.3570427,PM10,33,92,63
India,Bihar,Siwan,"Chitragupta Nagar, Siwan - BSPCB",21-02-2026 08:00:00,26.2271665,84.3570427,NH3,1,1,1
India,Bihar,Siwan,"Chitragupta Nagar, Siwan - BSPCB",21-02-2026 08:00:00,26.2271665,84.3570427,CO,42,86,67
India,Chhattisgarh,Chhal,"Nawapara SECL Colony, Chhal - CECB",21-02-2026 08:00:00,22.118125,83.140608,CO,26,41,30
India,Chhattisgarh,Chhal,"Nawapara SECL Colony, Chhal - CECB",21-02-2026 08:00:00,22.118125,83.140608,OZONE,22,113,113
India,Chandigarh,Chandigarh,"Sector 22, Chandigarh - CPCC",21-02-2026 08:00:00,30.735567,76.775714,SO2,6,64,13
India,Chhattisgarh,Bhilai,"32Bungalows, Bhilai - CECB",21-02-2026 08:00:00,21.194815,81.314770,SO2,7,9,8
India,Bihar,Sasaram,"Dada Peer, Sasaram - BSPCB",21-02-2026 08:00:00,24.952822,84.002396,NH3,3,4,3
India,Chhattisgarh,Raipur,"Siltara Phase-II, Raipur - CECB",21-02-2026 08:00:00,21.371751,81.664929,OZONE,4,10,4
India,Chhattisgarh,Tumidih,"OP Jindal Industrial Park, Tumidih - CECB",21-02-2026 08:00:00,22.06631475,83.33820077,NO2,40,95,69
India,Chhattisgarh,Tumidih,"OP Jindal Industrial Park, Tumidih - CECB",21-02-2026 08:00:00,22.06631475,83.33820077,NH3,1,2,2
India,Delhi,Delhi,"Anand Vihar, Delhi - DPCC",21-02-2026 08:00:00,28.647622,77.3158090,NO2,49,123,85
India,Delhi,Delhi,"Anand Vihar, Delhi - DPCC",21-02-2026 08:00:00,28.647622,77.3158090,CO,48,104,98
India,Delhi,Delhi,"Ashok Vihar, Delhi - DPCC",21-02-2026 08:00:00,28.695381,77.181665,PM2.5,83,337,224
India,Delhi,Delhi,"Dr. Karni Singh Shooting Range, Delhi - DPCC",21-02-2026 08:00:00,28.498571,77.264840,NH3,10,14,12
India,Delhi,Delhi,"Dwarka-Sector 8, Delhi - DPCC ",21-02-2026 08:00:00,28.5710274,77.0719006,NO2,34,118,72
India,Delhi,Delhi,"Dwarka-Sector 8, Delhi - DPCC ",21-02-2026 08:00:00,28.5710274,77.0719006,CO,22,115,37
India,Delhi,Delhi,"Aya Nagar, Delhi - IMD",21-02-2026 08:00:00,28.4706914,77.1099364,CO,18,60,44
India,Delhi,Delhi,"Aya Nagar, Delhi - IMD",21-02-2026 08:00:00,28.4706914,77.1099364,OZONE,7,84,16
India,Delhi,Delhi,"Bawana, Delhi - DPCC",21-02-2026 08:00:00,28.776200,77.051074,CO,30,62,54
India,Delhi,Delhi,"DTU, Delhi - CPCB",21-02-2026 08:00:00,28.7500499,77.1112615,PM10,11,158,116
India,Delhi,Delhi,"DTU, Delhi - CPCB",21-02-2026 08:00:00,28.7500499,77.1112615,OZONE,16,133,21
India,Chhattisgarh,Raipur,"Krishak Nagar, Raipur - CECB",21-02-2026 08:00:00,21.237755,81.705301,OZONE,6,32,6
India,Chhattisgarh,Raipur,"Siltara Phase-II, Raipur - CECB",21-02-2026 08:00:00,21.371751,81.664929,NH3,2,2,2
India,Delhi,Delhi,"IGI Airport (T3), Delhi - IMD",21-02-2026 08:00:00,28.5627763,77.1180053,CO,27,72,45
India,Delhi,Delhi,"Burari Crossing, Delhi - IMD",21-02-2026 08:00:00,28.7256504,77.2011573,CO,14,76,36
India,Delhi,Delhi,"Chandni Chowk, Delhi - IITM",21-02-2026 08:00:00,28.656756,77.227234,NO2,6,37,28
India,Delhi,Delhi,"Jawaharlal Nehru Stadium, Delhi - DPCC",21-02-2026 08:00:00,28.580280,77.233829,OZONE,1,281,2
India,Delhi,Delhi,"Lodhi Road, Delhi - IMD",21-02-2026 08:00:00,28.5918245,77.2273074,PM10,101,239,148
India,Delhi,Delhi,"Lodhi Road, Delhi - IMD",21-02-2026 08:00:00,28.5918245,77.2273074,CO,22,52,39
India,Delhi,Delhi,"Major Dhyan Chand National Stadium, Delhi - DPCC",21-02-2026 08:00:00,28.611281,77.237738,OZONE,1,176,2
India,Delhi,Delhi,"Mandir Marg, Delhi - DPCC",21-02-2026 08:00:00,28.636429,77.201067,PM2.5,3,267,103
India,Delhi,Delhi,"Mandir Marg, Delhi - DPCC",21-02-2026 08:00:00,28.636429,77.201067,PM10,73,251,149
India,Delhi,Delhi,"Mandir Marg, Delhi - DPCC",21-02-2026 08:00:00,28.636429,77.201067,NH3,1,2,1
India,Delhi,Delhi,"Mandir Marg, Delhi - DPCC",21-02-2026 08:00:00,28.636429,77.201067,CO,8,76,33
India,Delhi,Delhi,"Mundka, Delhi - DPCC",21-02-2026 08:00:00,28.684678,77.076574,PM2.5,80,340,239
India,Delhi,Delhi,"NSIT Dwarka, Delhi - CPCB",21-02-2026 08:00:00,28.60909,77.0325413,PM10,77,430,175
India,Delhi,Delhi,"IHBAS, Dilshad Garden, Delhi - CPCB",21-02-2026 08:00:00,28.6811736,77.3025234,PM10,104,168,134
India,Delhi,Delhi,"IIT Delhi, Delhi - IITM",21-02-2026 08:00:00,28.542460,77.191651,CO,35,97,57
India,Delhi,Delhi,"ITO, Delhi - CPCB",21-02-2026 08:00:00,28.628624,77.241060,NO2,26,100,55
India,Delhi,Delhi,"Jahangirpuri, Delhi - DPCC",21-02-2026 08:00:00,28.732820,77.170633,SO2,45,77,54
India,Delhi,Delhi,"Pusa, Delhi - DPCC",21-02-2026 08:00:00,28.639652,77.146275,PM2.5,127,331,216
India,Delhi,Delhi,"Pusa, Delhi - DPCC",21-02-2026 08:00:00,28.639652,77.146275,NO2,38,134,81
India,Delhi,Delhi,"Pusa, Delhi - IMD",21-02-2026 08:00:00,28.636110,77.173332,NO2,49,168,102
India,Delhi,Delhi,"R K Puram, Delhi - DPCC",21-02-2026 08:00:00,28.563262,77.186937,NO2,10,105,67
India,Delhi,Delhi,"R K Puram, Delhi - DPCC",21-02-2026 08:00:00,28.563262,77.186937,NH3,8,11,10
India,Delhi,Delhi,"Okhla Phase-2, Delhi - DPCC",21-02-2026 08:00:00,28.530785,77.271255,PM10,127,245,167
India,Delhi,Delhi,"Patparganj, Delhi - DPCC",21-02-2026 08:00:00,28.623763,77.287209,SO2,19,57,30
India,Delhi,Delhi,"Punjabi Bagh, Delhi - DPCC",21-02-2026 08:00:00,28.674045,77.131023,PM10,75,226,157
India,Delhi,Delhi,"Rohini, Delhi - DPCC",21-02-2026 08:00:00,28.732528,77.119920,NH3,9,18,14
India,Delhi,Delhi,"Rohini, Delhi - DPCC",21-02-2026 08:00:00,28.732528,77.119920,SO2,10,46,18
India,Delhi,Delhi,"Rohini, Delhi - DPCC",21-02-2026 08:00:00,28.732528,77.119920,CO,9,42,23
India,Delhi,Delhi,"Jawaharlal Nehru Stadium, Delhi - DPCC",21-02-2026 08:00:00,28.580280,77.233829,CO,31,82,50
India,Delhi,Delhi,"NSIT Dwarka, Delhi - CPCB",21-02-2026 08:00:00,28.60909,77.0325413,OZONE,14,48,22
India,Delhi,Delhi,"Nehru Nagar, Delhi - DPCC",21-02-2026 08:00:00,28.567890,77.250515,SO2,9,108,21
India,Delhi,Delhi,"Rohini, Delhi - DPCC",21-02-2026 08:00:00,28.732528,77.119920,PM2.5,75,366,238
India,Gujarat,Vadodara,"Bapunagar, Vadodara - Nexteng Enviro",21-02-2026 08:00:00,22.320153,73.216285,CO,60,87,71
India,Gujarat,Vadodara,"Bapunagar, Vadodara - Nexteng Enviro",21-02-2026 08:00:00,22.320153,73.216285,OZONE,5,18,7
India,Gujarat,Vatva,"Phase-4 GIDC, Vatva - GPCB",21-02-2026 08:00:00,22.969611,72.643500,NH3,2,6,4
India,Gujarat,Vatva,"Phase-4 GIDC, Vatva - GPCB",21-02-2026 08:00:00,22.969611,72.643500,CO,16,52,22
India,Haryana,Ambala,"Patti Mehar, Ambala - HSPCB",21-02-2026 08:00:00,30.379589,76.778328,PM2.5,83,229,133
India,Haryana,Ambala,"Patti Mehar, Ambala - HSPCB",21-02-2026 08:00:00,30.379589,76.778328,NO2,8,12,10
India,Haryana,Bahadurgarh,"Arya Nagar, Bahadurgarh - HSPCB",21-02-2026 08:00:00,28.6701,76.9254,OZONE,16,20,18
India,Haryana,Ballabgarh,"Nathu Colony, Ballabgarh - HSPCB",21-02-2026 08:00:00,28.3419248,77.319699,NO2,19,21,20
India,Haryana,Bhiwani,"H.B. Colony, Bhiwani - HSPCB",21-02-2026 08:00:00,28.806223,76.141105,NO2,6,10,8
India,Haryana,Charkhi Dadri,"Mini Secretariat, Charkhi Dadri - HSPCB",21-02-2026 08:00:00,28.593883,76.270653,OZONE,14,18,16
India,Haryana,Dharuhera,"Municipal Corporation Office, Dharuhera -  HSPCB",21-02-2026 08:00:00,28.206800,76.799700,SO2,3,3,3
India,Haryana,Faridabad,"New Industrial Town, Faridabad - HSPCB",21-02-2026 08:00:00,28.39072,77.30059,PM2.5,182,204,195
India,Haryana,Faridabad,"New Industrial Town, Faridabad - HSPCB",21-02-2026 08:00:00,28.39072,77.30059,NO2,23,26,25
India,Haryana,Faridabad,"New Industrial Town, Faridabad - HSPCB",21-02-2026 08:00:00,28.39072,77.30059,NH3,11,12,11
India,Haryana,Faridabad,"New Industrial Town, Faridabad - HSPCB",21-02-2026 08:00:00,28.39072,77.30059,OZONE,26,34,30
India,Gujarat,Gandhinagar,"Sector-10, Gandhinagar - GPCB",21-02-2026 08:00:00,23.221714,72.654328,NH3,2,4,3
India,Gujarat,Mehsana,"Sadanand Nagar, Mehsana - Nexteng Enviro",21-02-2026 08:00:00,23.593150,72.372792,SO2,5,14,9
India,Gujarat,Nandesari,"GIDC, Nandesari - Nandesari Ind. Association",21-02-2026 08:00:00,22.410802,73.097923,NO2,18,130,51
India,Gujarat,Rajkot,"Mavdi, Rajkot - Nexteng Enviro ",21-02-2026 08:00:00,22.248853,70.776774,PM10,96,188,129
India,Gujarat,Rajkot,"Mavdi, Rajkot - Nexteng Enviro ",21-02-2026 08:00:00,22.248853,70.776774,OZONE,21,40,26
India,Gujarat,Surat,"Katargam, Surat - Nexteng Enviro",21-02-2026 08:00:00,21.217779 ,72.834787 ,NH3,3,5,4
India,Delhi,Delhi,"Sirifort, Delhi - CPCB",21-02-2026 08:00:00,28.5504249,77.2159377,NO2,24,37,29
India,Delhi,Delhi,"Sirifort, Delhi - CPCB",21-02-2026 08:00:00,28.5504249,77.2159377,SO2,29,34,31
India,Delhi,Delhi,"Sonia Vihar, Delhi - DPCC",21-02-2026 08:00:00,28.710508,77.249485,NO2,21,67,43
India,Delhi,Delhi,"Sonia Vihar, Delhi - DPCC",21-02-2026 08:00:00,28.710508,77.249485,CO,57,162,160
India,Delhi,Delhi,"Sri Aurobindo Marg, Delhi - DPCC",21-02-2026 08:00:00,28.531346,77.190156,PM10,NA,NA,NA
India,Delhi,Delhi,"Sri Aurobindo Marg, Delhi - DPCC",21-02-2026 08:00:00,28.531346,77.190156,NO2,15,94,43
India,Delhi,Delhi,"Sri Aurobindo Marg, Delhi - DPCC",21-02-2026 08:00:00,28.531346,77.190156,NH3,6,13,10
India,Gujarat,Bhavnagar,"Vidhyanagar, Bhavnagar - Nexteng Enviro",21-02-2026 08:00:00,21.755417,72.139056,PM2.5,47,162,91
India,Gujarat,Bhavnagar,"Vidhyanagar, Bhavnagar - Nexteng Enviro",21-02-2026 08:00:00,21.755417,72.139056,SO2,12,26,17
India,Gujarat,Gandhinagar,"GIFT City, Gandhinagar - IITM",21-02-2026 08:00:00,23.163798,72.677768,NO2,18,48,27
India,Gujarat,Gandhinagar,"GIFT City, Gandhinagar - IITM",21-02-2026 08:00:00,23.163798,72.677768,OZONE,20,74,35
India,Gujarat,Gandhinagar,"IIPHG Lekawada, Gandhinagar - IITM",21-02-2026 08:00:00,23.243639,72.68994,SO2,4,6,5
India,Gujarat,Ahmedabad,"Raikhad, Ahmedabad - IITM",21-02-2026 08:00:00,23.020509,72.579261,NO2,26,67,44
India,Gujarat,Ahmedabad,"Rakhial, Ahmedabad - IITM",21-02-2026 08:00:00,23.016834,72.625775,OZONE,23,62,28
India,Gujarat,Ahmedabad,"SAC ISRO Bopal, Ahmedabad - IITM",21-02-2026 08:00:00,23.041137,72.456691,PM2.5,68,188,147
India,Gujarat,Ahmedabad,"SAC ISRO Satellite, Ahmedabad - IITM",21-02-2026 08:00:00,23.023389,72.515201,PM10,74,120,100
India,Gujarat,Ahmedabad,"SAC ISRO Satellite, Ahmedabad - IITM",21-02-2026 08:00:00,23.023389,72.515201,NO2,6,12,8
India,Haryana,Faridabad,"Sector 11, Faridabad - HSPCB",21-02-2026 08:00:00,28.376058,77.315741,NH3,10,10,10
India,Haryana,Faridabad,"Sector 11, Faridabad - HSPCB",21-02-2026 08:00:00,28.376058,77.315741,CO,28,62,42
India,Haryana,Faridabad,"Sector 30, Faridabad - HSPCB",21-02-2026 08:00:00,28.4417,77.3217,NH3,11,12,11
India,Haryana,Fatehabad,"Huda Sector, Fatehabad - HSPCB",21-02-2026 08:00:00,29.503664,75.467934,PM2.5,8,33,21
India,Haryana,Fatehabad,"Huda Sector, Fatehabad - HSPCB",21-02-2026 08:00:00,29.503664,75.467934,PM10,13,49,31
India,Haryana,Fatehabad,"Huda Sector, Fatehabad - HSPCB",21-02-2026 08:00:00,29.503664,75.467934,SO2,10,11,10
India,Delhi,Delhi,"Wazirpur, Delhi - DPCC",21-02-2026 08:00:00,28.699793,77.165453,PM2.5,87,338,222
India,Gujarat,Ahmedabad,"Chandkheda, Ahmedabad - IITM",21-02-2026 08:00:00,23.107969,72.574648,SO2,11,15,13
India,Gujarat,Ahmedabad,"Gyaspur, Ahmedabad - IITM",21-02-2026 08:00:00,22.977134,72.553024,CO,23,64,45
India,Gujarat,Ahmedabad,"Maninagar, Ahmedabad - GPCB",21-02-2026 08:00:00,23.002657,72.591912,NO2,103,104,104
India,Gujarat,Surat,"Science Center, Surat - SMC",21-02-2026 08:00:00,21.170046,72.795405,PM2.5,168,303,252
India,Gujarat,Surat,"Science Center, Surat - SMC",21-02-2026 08:00:00,21.170046,72.795405,CO,68,74,73
India,Haryana,Gurugram,"Sector-51, Gurugram - HSPCB",21-02-2026 08:00:00,28.4227,77.0667,OZONE,3,15,3
India,Haryana,Gurugram,"Vikas Sadan, Gurugram - HSPCB",21-02-2026 08:00:00,28.4501238,77.0263051,SO2,3,8,5
India,Haryana,Gurugram,"Vikas Sadan, Gurugram - HSPCB",21-02-2026 08:00:00,28.4501238,77.0263051,OZONE,4,31,11
India,Haryana,Hisar,"Urban Estate-II, Hisar - HSPCB",21-02-2026 08:00:00,29.140560,75.744941,PM10,53,123,90
India,Haryana,Hisar,"Urban Estate-II, Hisar - HSPCB",21-02-2026 08:00:00,29.140560,75.744941,NO2,26,27,26
India,Haryana,Panchkula,"Sector-6, Panchkula - HSPCB ",21-02-2026 08:00:00,30.7057778,76.8531805555555,PM2.5,54,134,97
India,Haryana,Panchkula,"Sector-6, Panchkula - HSPCB ",21-02-2026 08:00:00,30.7057778,76.8531805555555,CO,3,24,20
India,Haryana,Rohtak,"MD University, Rohtak - HSPCB",21-02-2026 08:00:00,28.52123,76.37138,PM2.5,35,89,65
India,Haryana,Rohtak,"MD University, Rohtak - HSPCB",21-02-2026 08:00:00,28.52123,76.37138,OZONE,38,40,39
India,Haryana,Kurukshetra,"Sector-7, Kurukshetra - HSPCB",21-02-2026 08:00:00,29.966942,76.875879,NO2,12,56,20
India,Haryana,Kurukshetra,"Sector-7, Kurukshetra - HSPCB",21-02-2026 08:00:00,29.966942,76.875879,SO2,1,23,5
India,Haryana,Mandikhera,"General Hospital, Mandikhera(Nuh) - HSPCB",21-02-2026 08:00:00,27.9002,76.9938,PM2.5,44,94,63
India,Haryana,Gurugram,"NISE Gwal Pahari, Gurugram - IMD",21-02-2026 08:00:00,28.422681,77.148944,PM10,108,266,165
India,Haryana,Gurugram,"NISE Gwal Pahari, Gurugram - IMD",21-02-2026 08:00:00,28.422681,77.148944,CO,28,74,54
India,Haryana,Gurugram,"Sector-51, Gurugram - HSPCB",21-02-2026 08:00:00,28.4227,77.0667,PM10,77,240,166
India,Haryana,Manesar,"Sector-2 IMT, Manesar - HSPCB",21-02-2026 08:00:00,28.360699,76.936090,NO2,59,73,67
India,Haryana,Manesar,"Sector-2 IMT, Manesar - HSPCB",21-02-2026 08:00:00,28.360699,76.936090,CO,11,38,21
India,Haryana,Narnaul,"Shastri Nagar, Narnaul - HSPCB",21-02-2026 08:00:00,28.060249,76.113115,SO2,4,5,4
India,Haryana,Jind,"Police Lines, Jind - HSPCB",21-02-2026 08:00:00,29.307814,76.337619,OZONE,7,43,22
India,Haryana,Kaithal,"Rishi Nagar, Kaithal - HSPCB",21-02-2026 08:00:00,29.8006,76.4155,PM2.5,55,120,76
India,Haryana,Karnal,"Sector-12, Karnal - HSPCB",21-02-2026 08:00:00,29.695300,77.002700,SO2,2,63,9
India,Haryana,Karnal,"Sector-12, Karnal - HSPCB",21-02-2026 08:00:00,29.695300,77.002700,CO,1,8,3
India,Haryana,Palwal,"Shyam Nagar, Palwal - HSPCB",21-02-2026 08:00:00,28.1485564,77.3320667,CO,6,43,31
India,Haryana,Sonipat,"Murthal, Sonipat - HSPCB",21-02-2026 08:00:00,29.027200,77.062100,NO2,12,13,12
India,Karnataka,Bengaluru,"Kasturi Nagar, Bengaluru - KSPCB",21-02-2026 08:00:00,13.003872,77.664217,SO2,NA,NA,NA
India,Karnataka,Bengaluru,"RVCE-Mailasandra, Bengaluru - KSPCB",21-02-2026 08:00:00,12.921418,77.502466,PM10,64,124,93
India,Karnataka,Bengaluru,"RVCE-Mailasandra, Bengaluru - KSPCB",21-02-2026 08:00:00,12.921418,77.502466,NH3,3,4,4
India,Karnataka,Bengaluru,"Shivapura_Peenya, Bengaluru - KSPCB",21-02-2026 08:00:00,13.0246342,77.5080115,PM10,NA,NA,NA
India,Karnataka,Bengaluru,"Shivapura_Peenya, Bengaluru - KSPCB",21-02-2026 08:00:00,13.0246342,77.5080115,NO2,NA,NA,NA
India,Jharkhand,Dhanbad,"Sardar Patel Nagar, Dhanbad - JSPCB",21-02-2026 08:00:00,23.80569,86.44268,PM10,68,270,129
India,Karnataka,Bagalkot,"Vidayagiri, Bagalkot - KSPCB",21-02-2026 08:00:00,16.172806,75.659694,PM10,45,46,46
India,Karnataka,Bagalkot,"Vidayagiri, Bagalkot - KSPCB",21-02-2026 08:00:00,16.172806,75.659694,NO2,11,12,12
India,Karnataka,Bengaluru,"BTM Layout, Bengaluru - CPCB",21-02-2026 08:00:00,12.9135218,77.5950804,PM10,NA,NA,NA
India,Haryana,Sonipat,"Murthal, Sonipat - HSPCB",21-02-2026 08:00:00,29.027200,77.062100,CO,3,6,4
India,Haryana,Yamuna Nagar,"Gobind Pura, Yamuna Nagar - HSPCB",21-02-2026 08:00:00,30.1480566,77.2893471,PM10,107,155,129
India,Haryana,Yamuna Nagar,"Gobind Pura, Yamuna Nagar - HSPCB",21-02-2026 08:00:00,30.1480566,77.2893471,NO2,35,38,37
India,Haryana,Yamuna Nagar,"Gobind Pura, Yamuna Nagar - HSPCB",21-02-2026 08:00:00,30.1480566,77.2893471,NH3,3,5,4
India,Karnataka,Bengaluru,"Bapuji Nagar, Bengaluru - KSPCB",21-02-2026 08:00:00,12.951913,77.539784,NO2,54,103,82
India,Karnataka,Bengaluru,"Hebbal, Bengaluru - KSPCB",21-02-2026 08:00:00,13.029152,77.585901,PM2.5,28,77,43
India,Karnataka,Bengaluru,"Hebbal, Bengaluru - KSPCB",21-02-2026 08:00:00,13.029152,77.585901,PM10,47,118,65
India,Karnataka,Bengaluru,"Hebbal, Bengaluru - KSPCB",21-02-2026 08:00:00,13.029152,77.585901,OZONE,5,8,6
India,Karnataka,Bengaluru,"Jayanagar 5th Block, Bengaluru - KSPCB",21-02-2026 08:00:00,12.920984,77.584908,CO,8,39,13
India,Karnataka,Bengaluru,"Jigani, Bengaluru - KSPCB",21-02-2026 08:00:00,12.7816279,77.6299145,PM10,64,104,84
India,Karnataka,Bidar,"Naubad, Bidar - KSPCB",21-02-2026 08:00:00,17.930306,77.482194,CO,2,10,10
India,Karnataka,Chamarajanagar,"Urban, Chamarajanagar - KSPCB",21-02-2026 08:00:00,11.55358,76.55521,PM2.5,26,48,32
India,Karnataka,Bengaluru,"BWSSB Kadabesanahalli, Bengaluru - CPCB",21-02-2026 08:00:00,12.9352049,77.6814488,PM10,8,400,129
India,Karnataka,Bengaluru,"BWSSB Kadabesanahalli, Bengaluru - CPCB",21-02-2026 08:00:00,12.9352049,77.6814488,CO,38,39,38
India,Karnataka,Bengaluru,"Bapuji Nagar, Bengaluru - KSPCB",21-02-2026 08:00:00,12.951913,77.539784,PM2.5,18,67,30
India,Karnataka,Bengaluru,"Silk Board, Bengaluru - KSPCB",21-02-2026 08:00:00,12.917348,77.622813,OZONE,18,78,35
India,Karnataka,Chikkaballapur,"Chikkaballapur Rural, Chikkaballapur - KSPCB",21-02-2026 08:00:00,13.428828,77.731418,PM2.5,13,63,37
India,Karnataka,Chikkaballapur,"Chikkaballapur Rural, Chikkaballapur - KSPCB",21-02-2026 08:00:00,13.428828,77.731418,NH3,4,7,6
India,Karnataka,Chikkaballapur,"Chikkaballapur Rural, Chikkaballapur - KSPCB",21-02-2026 08:00:00,13.428828,77.731418,SO2,8,24,14
India,Karnataka,Chikkaballapur,"Chikkaballapur Rural, Chikkaballapur - KSPCB",21-02-2026 08:00:00,13.428828,77.731418,CO,2,28,18
India,Karnataka,Chikkamagaluru,"Kalyana Nagara, Chikkamagaluru - KSPCB",21-02-2026 08:00:00,13.328028,75.797056,PM10,NA,NA,NA
India,Karnataka,Chikkamagaluru,"Kalyana Nagara, Chikkamagaluru - KSPCB",21-02-2026 08:00:00,13.328028,75.797056,CO,10,30,12
India,Karnataka,Dharwad,"Kalabhavan, Dharwad - KSPCB",21-02-2026 08:00:00,15.459706,75.008381,SO2,12,12,12
India,Karnataka,Kalaburagi,"Mahatma Basaveswar Colony, Kalaburgi - KSPCB",21-02-2026 08:00:00,17.336318,76.847397,OZONE,13,21,14
India,Karnataka,Madikeri,"Stuart Hill, Madikeri - KSPCB",21-02-2026 08:00:00,12.415911,75.735050,SO2,7,7,7
India,Karnataka,Mangalore,"Kadri, Mangalore - KSPCB",21-02-2026 08:00:00,12.889250,74.853000,OZONE,NA,NA,NA
India,Karnataka,Mysuru,"Hebbal 1st Stage, Mysuru - KSPCB",21-02-2026 08:00:00,12.21041,76.37376,PM2.5,17,75,39
India,Karnataka,Shivamogga,"Vinoba Nagara, Shivamogga - KSPCB",21-02-2026 08:00:00,13.940000,75.555917,CO,15,36,21
India,Karnataka,Shivamogga,"Vinoba Nagara, Shivamogga - KSPCB",21-02-2026 08:00:00,13.940000,75.555917,OZONE,56,90,68
India,Karnataka,Chamarajanagar,"Urban, Chamarajanagar - KSPCB",21-02-2026 08:00:00,11.55358,76.55521,PM10,29,59,42
India,Karnataka,Chamarajanagar,"Urban, Chamarajanagar - KSPCB",21-02-2026 08:00:00,11.55358,76.55521,NO2,14,34,22
India,Karnataka,Kalaburagi,"Mahatma Basaveswar Colony, Kalaburgi - KSPCB",21-02-2026 08:00:00,17.336318,76.847397,PM2.5,23,55,43
India,Karnataka,Kalaburagi,"Mahatma Basaveswar Colony, Kalaburgi - KSPCB",21-02-2026 08:00:00,17.336318,76.847397,SO2,2,6,3
India,Karnataka,Shivamogga,"Vinoba Nagara, Shivamogga - KSPCB",21-02-2026 08:00:00,13.940000,75.555917,PM2.5,27,51,40
India,Karnataka,Ramanagara,"Vijay Nagar, Ramanagara - KSPCB",21-02-2026 08:00:00,12.733409,77.298051,PM2.5,15,88,45
India,Madhya Pradesh,Indore,"Maguda Nagar, Indore - IMC",21-02-2026 08:00:00,22.7524,75.8872,CO,8,33,30
India,Madhya Pradesh,Indore,"Regional Park, Indore - IMC",21-02-2026 08:00:00,22.6780,75.8559,NH3,NA,NA,NA
India,Madhya Pradesh,Indore,"Regional Park, Indore - IMC",21-02-2026 08:00:00,22.6780,75.8559,CO,15,24,21
India,Madhya Pradesh,Indore,"Residency Area, Indore - IMC",21-02-2026 08:00:00,22.7084,75.8815,OZONE,6,13,6
India,Madhya Pradesh,Jabalpur,"Govindh Bhavan Colony, Jabalpur - JMC",21-02-2026 08:00:00,23.163174,79.973061,PM2.5,37,97,65
India,Madhya Pradesh,Jabalpur,"Govindh Bhavan Colony, Jabalpur - JMC",21-02-2026 08:00:00,23.163174,79.973061,SO2,5,8,6
India,Madhya Pradesh,Jabalpur,"Govindh Bhavan Colony, Jabalpur - JMC",21-02-2026 08:00:00,23.163174,79.973061,OZONE,5,102,6
India,Madhya Pradesh,Jabalpur,"Gupteshwar, Jabalpur - JMC",21-02-2026 08:00:00,23.142888,79.916147,PM2.5,38,99,62
India,Madhya Pradesh,Jabalpur,"Gupteshwar, Jabalpur - JMC",21-02-2026 08:00:00,23.142888,79.916147,NO2,18,50,31
India,Kerala,Kollam,"Polayathode, Kollam - Kerala PCB",21-02-2026 08:00:00,8.8787,76.6073,NH3,1,1,1
India,Kerala,Kollam,"Polayathode, Kollam - Kerala PCB",21-02-2026 08:00:00,8.8787,76.6073,CO,14,18,16
India,Kerala,Thiruvananthapuram,"Plammoodu, Thiruvananthapuram - Kerala PCB",21-02-2026 08:00:00,8.5149093,76.9435879,NO2,NA,NA,NA
India,Kerala,Thrissur,"Corporation Ground, Thrissur - Kerala PCB",21-02-2026 08:00:00,10.532400,76.215900,CO,12,20,14
India,Madhya Pradesh,Bhopal,"Idgah Hills, Bhopal - MPPCB",21-02-2026 08:00:00,23.264759,77.381568,NH3,5,7,6
India,Karnataka,Vijayapura,"Ibrahimpur, Vijayapura - KSPCB",21-02-2026 08:00:00,16.802639,75.722694,CO,9,32,24
India,Karnataka,Yadgir,"Collector Office, Yadgir - KSPCB",21-02-2026 08:00:00,16.7602,77.1428,PM10,37,116,76
India,Karnataka,Yadgir,"Collector Office, Yadgir - KSPCB",21-02-2026 08:00:00,16.7602,77.1428,SO2,7,15,12
India,Kerala,Kannur,"Thavakkara, Kannur - Kerala PCB",21-02-2026 08:00:00,11.875000,75.373200,SO2,6,8,7
India,Kerala,Kollam,"Polayathode, Kollam - Kerala PCB",21-02-2026 08:00:00,8.8787,76.6073,PM2.5,43,51,46
India,Madhya Pradesh,Gwalior,"Deen Dayal Nagar, Gwalior - MPPCB",21-02-2026 08:00:00,26.259242,78.216432,PM10,93,374,162
India,Madhya Pradesh,Gwalior,"Deen Dayal Nagar, Gwalior - MPPCB",21-02-2026 08:00:00,26.259242,78.216432,OZONE,34,143,36
India,Madhya Pradesh,Gwalior,"Maharaj Bada, Gwalior - MPPCB",21-02-2026 08:00:00,26.200388,78.147714,PM2.5,75,260,134
India,Madhya Pradesh,Gwalior,"Maharaj Bada, Gwalior - MPPCB",21-02-2026 08:00:00,26.200388,78.147714,NH3,2,2,2
India,Madhya Pradesh,Gwalior,"Maharaj Bada, Gwalior - MPPCB",21-02-2026 08:00:00,26.200388,78.147714,SO2,5,12,9
India,Madhya Pradesh,Indore,"Airport Area, Indore - IMC",21-02-2026 08:00:00,22.7289,75.8076,PM10,59,112,77
India,Madhya Pradesh,Indore,"Chhoti Gwaltoli, Indore - MPPCB",21-02-2026 08:00:00,22.4310,75.5213,SO2,12,22,18
India,Madhya Pradesh,Indore,"Chhoti Gwaltoli, Indore - MPPCB",21-02-2026 08:00:00,22.4310,75.5213,OZONE,3,47,13
India,Madhya Pradesh,Indore,"Maguda Nagar, Indore - IMC",21-02-2026 08:00:00,22.7524,75.8872,NO2,8,23,12
India,Madhya Pradesh,Bhopal,"T T Nagar, Bhopal - MPPCB",21-02-2026 08:00:00,23.233584,77.400574,SO2,8,18,14
India,Madhya Pradesh,Damoh,"Shrivastav Colony, Damoh - MPPCB",21-02-2026 08:00:00,23.81748678,79.446246,PM2.5,1,17,7
India,Karnataka,Tumakuru,"Thimmalapura, Tumakuru - KSPCB",21-02-2026 08:00:00,13.377516,77.099072,PM10,79,131,101
India,Karnataka,Tumakuru,"Thimmalapura, Tumakuru - KSPCB",21-02-2026 08:00:00,13.377516,77.099072,SO2,26,27,26
India,Karnataka,Tumakuru,"Thimmalapura, Tumakuru - KSPCB",21-02-2026 08:00:00,13.377516,77.099072,CO,53,54,54
India,Madhya Pradesh,Bhopal,"Paryavaran Parisar, Bhopal - MPPCB",21-02-2026 08:00:00,23.210494,77.425409,OZONE,19,47,22
India,Karnataka,Vijayapura,"Ibrahimpur, Vijayapura - KSPCB",21-02-2026 08:00:00,16.802639,75.722694,SO2,3,6,3
India,Maharashtra,Badlapur,"Katrap, Badlapur - MPCB",21-02-2026 08:00:00,19.16485,73.23409,PM2.5,26,228,133
India,Maharashtra,Badlapur,"Katrap, Badlapur - MPCB",21-02-2026 08:00:00,19.16485,73.23409,PM10,35,179,130
India,Maharashtra,Badlapur,"Katrap, Badlapur - MPCB",21-02-2026 08:00:00,19.16485,73.23409,OZONE,7,83,10
India,Maharashtra,Belapur,"CBD Belapur, Belapur - MPCB",21-02-2026 08:00:00,19.0243902,73.0406721,PM10,85,181,133
India,Maharashtra,Belapur,"CBD Belapur, Belapur - MPCB",21-02-2026 08:00:00,19.0243902,73.0406721,SO2,18,35,26
India,Maharashtra,Bhiwandi,"Gokul Nagar, Bhiwandi - MPCB",21-02-2026 08:00:00,19.309073,73.057223,PM2.5,84,205,126
India,Maharashtra,Boisar,"Khaira, Boisar - MPCB",21-02-2026 08:00:00,19.786089,72.757971,PM2.5,NA,NA,NA
India,Maharashtra,Boisar,"Khaira, Boisar - MPCB",21-02-2026 08:00:00,19.786089,72.757971,SO2,3,47,15
India,Maharashtra,Jalna,"Old MIDC, Jalna - MPCB",21-02-2026 08:00:00,19.854616,75.905894,NH3,3,5,4
India,Maharashtra,Jalna,"Old MIDC, Jalna - MPCB",21-02-2026 08:00:00,19.854616,75.905894,CO,20,76,33
India,Maharashtra,Kalyan,"Khadakpada, Kalyan - MPCB",21-02-2026 08:00:00,19.25292,73.142019,OZONE,8,8,8
India,Maharashtra,Kalyan,"Pimpleshwar Mandir, Kalyan - MPCB",21-02-2026 08:00:00,19.192056,72.9585188,NH3,NA,NA,NA
India,Maharashtra,Kolhapur,"Sinchan Bhavan, Kolhapur - MPCB",21-02-2026 08:00:00,16.7143745,74.2426398,NO2,NA,NA,NA
India,Maharashtra,Kolhapur,"Sinchan Bhavan, Kolhapur - MPCB",21-02-2026 08:00:00,16.7143745,74.2426398,NH3,NA,NA,NA
India,Madhya Pradesh,Jabalpur,"Suhagi, Jabalpur - JMC",21-02-2026 08:00:00,23.218135,79.957770,NO2,29,82,48
India,Madhya Pradesh,Jabalpur,"Suhagi, Jabalpur - JMC",21-02-2026 08:00:00,23.218135,79.957770,OZONE,23,45,25
India,Madhya Pradesh,Katni,"Gole Bazar, Katni - MPPCB",21-02-2026 08:00:00,23.50016,80.23284,NH3,3,8,5
India,Madhya Pradesh,Katni,"Gole Bazar, Katni - MPPCB",21-02-2026 08:00:00,23.50016,80.23284,SO2,14,103,45
India,Madhya Pradesh,Mandideep,"Sector-D Industrial Area, Mandideep - MPPCB",21-02-2026 08:00:00,23.108440,77.511428,SO2,36,128,92
India,Maharashtra,Amravati,"Shri Shivaji Science College, Amravati - MPCB",21-02-2026 08:00:00,20.939198,77.765701,CO,34,98,39
India,Maharashtra,Aurangabad,"MIDC Chilkalthana, Aurangabad - MPCB",21-02-2026 08:00:00,19.875620,75.387310,OZONE,13,74,32
India,Maharashtra,Aurangabad,"More Chowk Waluj, Aurangabad - MPCB",21-02-2026 08:00:00,19.8389439,75.244448,PM10,1,95,55
India,Maharashtra,Chandrapur,"MIDC Khutala, Chandrapur - MPCB",21-02-2026 08:00:00,19.9775302,79.2337086,SO2,8,9,9
India,Maharashtra,Jalgaon,"Prabhat Colony, Jalgaon - MPCB",21-02-2026 08:00:00,21.001264,75.565602,PM2.5,31,99,59
India,Maharashtra,Amravati,"Shivneri Colony, Amravati - MPCB",21-02-2026 08:00:00,20.9402359,77.7895248,OZONE,36,106,51
India,Maharashtra,Amravati,"Shri Shivaji Science College, Amravati - MPCB",21-02-2026 08:00:00,20.939198,77.765701,NO2,6,76,20
India,Madhya Pradesh,Ujjain,"Mahashweta Nagar, Ujjain - MPPCB",21-02-2026 08:00:00,23.1633321,75.800225,NO2,13,40,31
India,Madhya Pradesh,Ujjain,"Mahashweta Nagar, Ujjain - MPPCB",21-02-2026 08:00:00,23.1633321,75.800225,OZONE,24,171,56
India,Maharashtra,Aurangabad,"Rachnakar Colony, Aurangabad - MPCB",21-02-2026 08:00:00,19.863756,75.321188,CO,32,58,37
India,Madhya Pradesh,Sagar,"Civil Lines, Sagar - MPPCB",21-02-2026 08:00:00,23.838586,78.759431,NH3,6,15,9
India,Maharashtra,Mumbai,"Chakala-Andheri East, Mumbai - IITM",21-02-2026 08:00:00,19.11074,72.86084,SO2,2,23,11
India,Maharashtra,Mumbai,"Chakala-Andheri East, Mumbai - IITM",21-02-2026 08:00:00,19.11074,72.86084,CO,2,52,22
India,Maharashtra,Mumbai,"Chembur, Mumbai - MPCB",21-02-2026 08:00:00,19.0364585,72.8954371,PM10,108,123,116
India,Maharashtra,Mumbai,"Chhatrapati Shivaji Intl. Airport (T2), Mumbai - MPCB",21-02-2026 08:00:00,19.10078,72.87462,PM10,110,146,126
India,Maharashtra,Mumbai,"Colaba, Mumbai - MPCB",21-02-2026 08:00:00,18.910000,72.820000,PM10,79,144,114
India,Maharashtra,Mumbai,"Deonar, Mumbai - IITM",21-02-2026 08:00:00,19.04946,72.9230,NO2,15,52,31
India,Maharashtra,Mumbai,"Deonar, Mumbai - IITM",21-02-2026 08:00:00,19.04946,72.9230,OZONE,2,91,7
India,Maharashtra,Mumbai,"Kandivali West, Mumbai - BMC",21-02-2026 08:00:00,19.215859,72.831718,PM10,35,177,142
India,Maharashtra,Mumbai,"Kandivali West, Mumbai - BMC",21-02-2026 08:00:00,19.215859,72.831718,NH3,NA,NA,NA
India,Maharashtra,Mumbai,"Kherwadi_Bandra East, Mumbai - MPCB",21-02-2026 08:00:00,19.0632143,72.8456324,PM2.5,91,152,116
India,Maharashtra,Mumbai,"Kherwadi_Bandra East, Mumbai - MPCB",21-02-2026 08:00:00,19.0632143,72.8456324,PM10,101,148,126
India,Maharashtra,Mumbai,"Khindipada-Bhandup West, Mumbai - IITM",21-02-2026 08:00:00,19.1653323,72.922099,NH3,3,4,4
India,Maharashtra,Mumbai,"Kurla, Mumbai - MPCB",21-02-2026 08:00:00,19.0863,72.8888,PM2.5,NA,NA,NA
India,Maharashtra,Mahad,"Kamble Tarf Birwadi, Mahad - MPCB",21-02-2026 08:00:00,18.1023399,73.4783687,NO2,25,50,37
India,Maharashtra,Malegaon,"Mahesh Nagar, Malegaon - MPCB",21-02-2026 08:00:00,20.555712,74.529236,PM2.5,82,153,103
India,Maharashtra,Malegaon,"Mahesh Nagar, Malegaon - MPCB",21-02-2026 08:00:00,20.555712,74.529236,NH3,1,1,1
India,Maharashtra,Malegaon,"Mahesh Nagar, Malegaon - MPCB",21-02-2026 08:00:00,20.555712,74.529236,OZONE,20,88,54
India,Maharashtra,Mira-Bhayandar,"Bhayandar West, Mira-Bhayandar - MPCB",21-02-2026 08:00:00,19.296481,72.840923,CO,38,98,61
India,Maharashtra,Mumbai,"Kurla, Mumbai - MPCB",21-02-2026 08:00:00,19.0863,72.8888,NH3,NA,NA,NA
India,Maharashtra,Mumbai,"Kurla, Mumbai - MPCB",21-02-2026 08:00:00,19.0863,72.8888,CO,NA,NA,NA
India,Maharashtra,Mumbai,"Malad West, Mumbai - IITM",21-02-2026 08:00:00,19.19709,72.82204,PM2.5,NA,NA,NA
India,Maharashtra,Mumbai,"Malad West, Mumbai - IITM",21-02-2026 08:00:00,19.19709,72.82204,PM10,97,197,163
India,Maharashtra,Mumbai,"Malad West, Mumbai - IITM",21-02-2026 08:00:00,19.19709,72.82204,SO2,6,54,24
India,Maharashtra,Mumbai,"Mazgaon, Mumbai - IITM",21-02-2026 08:00:00,18.96702,72.84214,NH3,10,13,12
India,Maharashtra,Mumbai,"Bandra Kurla Complex, Mumbai - MPCB",21-02-2026 08:00:00,19.065931,72.862131,NO2,29,108,72
India,Maharashtra,Mumbai,"Bandra Kurla Complex, Mumbai - MPCB",21-02-2026 08:00:00,19.065931,72.862131,SO2,5,10,8
India,Maharashtra,Mumbai,"Bandra Kurla Complex, Mumbai - MPCB",21-02-2026 08:00:00,19.065931,72.862131,CO,8,13,11
India,Maharashtra,Mumbai,"Borivali East, Mumbai - MPCB",21-02-2026 08:00:00,19.2243333,72.8658113,PM2.5,NA,NA,NA
India,Maharashtra,Mumbai,"Mulund West, Mumbai - MPCB",21-02-2026 08:00:00,19.1750,72.9419,SO2,NA,NA,NA
India,Maharashtra,Mumbai,"Navy Nagar-Colaba, Mumbai - IITM",21-02-2026 08:00:00,18.897756,72.813320,NO2,28,51,42
India,Maharashtra,Mumbai,"Navy Nagar-Colaba, Mumbai - IITM",21-02-2026 08:00:00,18.897756,72.813320,CO,50,96,89
India,Maharashtra,Mumbai,"Sewri, Mumbai - BMC",21-02-2026 08:00:00,19.000084,72.856730,NO2,11,93,52
India,Maharashtra,Mumbai,"Mazgaon, Mumbai - IITM",21-02-2026 08:00:00,18.96702,72.84214,CO,NA,NA,NA
India,Maharashtra,Mumbai,"Mindspace-Malad West, Mumbai - MPCB",21-02-2026 08:00:00,19.1878657,72.8304069,PM10,98,155,121
India,Maharashtra,Mumbai,"Mindspace-Malad West, Mumbai - MPCB",21-02-2026 08:00:00,19.1878657,72.8304069,SO2,12,54,29
India,Maharashtra,Kolhapur,"Sinchan Bhavan, Kolhapur - MPCB",21-02-2026 08:00:00,16.7143745,74.2426398,CO,34,46,45
India,Maharashtra,Latur,"Sawe Wadi, Latur - MPCB",21-02-2026 08:00:00,18.39963,76.57452,NH3,5,16,10
India,Maharashtra,Navi Mumbai,"Mahape, Navi Mumbai - MPCB",21-02-2026 08:00:00,19.1135051,73.008978,PM2.5,59,88,75
India,Maharashtra,Navi Mumbai,"Mahape, Navi Mumbai - MPCB",21-02-2026 08:00:00,19.1135051,73.008978,SO2,19,21,20
India,Maharashtra,Navi Mumbai,"Mahape, Navi Mumbai - MPCB",21-02-2026 08:00:00,19.1135051,73.008978,OZONE,8,13,10
India,Maharashtra,Navi Mumbai,"Nerul, Navi Mumbai - MPCB",21-02-2026 08:00:00,19.008751,73.016620,PM2.5,115,235,174
India,Maharashtra,Navi Mumbai,"Nerul, Navi Mumbai - MPCB",21-02-2026 08:00:00,19.008751,73.016620,SO2,NA,NA,NA
India,Maharashtra,Navi Mumbai,"Sector-2E Kalamboli, Navi Mumbai - MPCB",21-02-2026 08:00:00,19.02579,73.10297,SO2,1,21,7
India,Maharashtra,Navi Mumbai,"Sector-2E Kalamboli, Navi Mumbai - MPCB",21-02-2026 08:00:00,19.02579,73.10297,CO,24,58,47
India,Maharashtra,Navi Mumbai,"Sector-2E Kalamboli, Navi Mumbai - MPCB",21-02-2026 08:00:00,19.02579,73.10297,OZONE,1,84,1
India,Maharashtra,Pimpri-Chinchwad,"Thergaon, Pimpri Chinchwad - MPCB",21-02-2026 08:00:00,18.616318,73.765797,SO2,1,3,2
India,Maharashtra,Pune,"Bhosari, Pune - IITM",21-02-2026 08:00:00,18.640051,73.848956,PM2.5,54,296,143
India,Maharashtra,Pune,"Bhosari, Pune - IITM",21-02-2026 08:00:00,18.640051,73.848956,PM10,82,146,117
India,Maharashtra,Pune,"Dhankawadi, Pune - IITM",21-02-2026 08:00:00,18.459883,73.852193,NO2,20,123,71
India,Maharashtra,Pune,"Dhankawadi, Pune - IITM",21-02-2026 08:00:00,18.459883,73.852193,OZONE,6,84,17
India,Maharashtra,Pune,"Hadapsar, Pune - IITM",21-02-2026 08:00:00,18.501793,73.927532,PM2.5,NA,NA,NA
India,Maharashtra,Pune,"Hadapsar, Pune - IITM",21-02-2026 08:00:00,18.501793,73.927532,OZONE,1,85,2
India,Maharashtra,Sangli,"Vijay Nagar, Sangli - MPCB",21-02-2026 08:00:00, 16.5038,74.3623,PM10,62,154,87
India,Maharashtra,Sangli,"Vijay Nagar, Sangli - MPCB",21-02-2026 08:00:00, 16.5038,74.3623,SO2,10,45,17
India,Maharashtra,Sangli,"Vijay Nagar, Sangli - MPCB",21-02-2026 08:00:00, 16.5038,74.3623,CO,22,100,39
India,Maharashtra,Solapur,"Dnyaneshwar Nagar, Solapur - MPCB",21-02-2026 08:00:00,17.6336264,75.9132495,NO2,4,112,28
India,Maharashtra,Solapur,"Ratandeep Housing Society, Solapur - MPCB",21-02-2026 08:00:00,17.65439,75.90649,NO2,11,146,44
India,Maharashtra,Nashik,"Gangapur Road, Nashik - MPCB",21-02-2026 08:00:00,20.0073285,73.7762427,SO2,1,5,2
India,Maharashtra,Nashik,"Hirawadi, Nashik - MPCB",21-02-2026 08:00:00,20.021503,73.813844,PM2.5,60,106,83
India,Maharashtra,Nashik,"MIDC Ambad, Nashik - MPCB",21-02-2026 08:00:00,19.950220,73.731480,PM2.5,44,89,64
India,Maharashtra,Navi Mumbai,"Kopripada-Vashi, Navi Mumbai - MPCB",21-02-2026 08:00:00,19.090337,73.014232,SO2,5,8,6
India,Maharashtra,Parbhani,"Masoom Colony, Parbhani - MPCB",21-02-2026 08:00:00,19.265594,76.761463,NO2,13,17,14
India,Maharashtra,Parbhani,"Masoom Colony, Parbhani - MPCB",21-02-2026 08:00:00,19.265594,76.761463,CO,8,15,12
India,Maharashtra,Pimpri-Chinchwad,"Gavalinagar, Pimpri Chinchwad - MPCB",21-02-2026 08:00:00,18.63673,73.82487,PM10,109,144,126
India,Maharashtra,Pimpri-Chinchwad,"Park Street Wakad, Pimpri Chinchwad - MPCB",21-02-2026 08:00:00,18.59051,73.77946,NO2,45,108,75
India,Maharashtra,Pune,"Katraj Dairy, Pune - MPCB",21-02-2026 08:00:00,18.454450,73.854155,SO2,2,4,3
India,Maharashtra,Pune,"Mhada Colony, Pune - IITM",21-02-2026 08:00:00,18.573040,73.927715,NO2,NA,NA,NA
India,Maharashtra,Pune,"Mhada Colony, Pune - IITM",21-02-2026 08:00:00,18.573040,73.927715,OZONE,NA,NA,NA
India,Maharashtra,Pune,"Revenue Colony-Shivajinagar, Pune - IITM",21-02-2026 08:00:00,18.530085,73.849598,PM2.5,66,264,136
India,Maharashtra,Nagpur,"Ram Nagar, Nagpur - MPCB",21-02-2026 08:00:00,21.143383,79.048912,PM10,113,238,154
India,Maharashtra,Nagpur,"Ram Nagar, Nagpur - MPCB",21-02-2026 08:00:00,21.143383,79.048912,SO2,20,59,36
India,Maharashtra,Nanded,"Sneh Nagar, Nanded - MPCB",21-02-2026 08:00:00,19.173852,77.296291,OZONE,41,89,50
India,Maharashtra,Nagpur,"Mahal, Nagpur - MPCB",21-02-2026 08:00:00,21.14472,79.107595,PM2.5,3,309,226
India,Maharashtra,Nagpur,"Mahal, Nagpur - MPCB",21-02-2026 08:00:00,21.14472,79.107595,NH3,3,10,8
India,Maharashtra,Mumbai,"Sion, Mumbai - MPCB",21-02-2026 08:00:00,19.047000,72.874600,SO2,1,1,1
India,Maharashtra,Mumbai,"Sion, Mumbai - MPCB",21-02-2026 08:00:00,19.047000,72.874600,OZONE,2,5,4
India,Nagaland,Kohima,"PWD Junction, Kohima - NPCB",21-02-2026 08:00:00,25.6635413,94.0989878,NO2,3,5,4
India,Nagaland,Kohima,"PWD Junction, Kohima - NPCB",21-02-2026 08:00:00,25.6635413,94.0989878,SO2,76,81,78
India,Odisha,Balasore,"Kalidaspur, Balasore - OSPCB",21-02-2026 08:00:00,21.51161,86.89088,CO,34,67,57
India,Odisha,Barbil,"Forest Office, Barbil - OSPCB",21-02-2026 08:00:00,22.1166054,85.3945546,PM2.5,78,447,180
India,Odisha,Barbil,"Forest Office, Barbil - OSPCB",21-02-2026 08:00:00,22.1166054,85.3945546,OZONE,8,136,17
India,Odisha,Baripada,"Meher Colony, Baripada - OSPCB",21-02-2026 08:00:00,21.941841,86.728318,NO2,2,69,24
India,Odisha,Baripada,"Meher Colony, Baripada - OSPCB",21-02-2026 08:00:00,21.941841,86.728318,CO,34,100,41
India,Odisha,Baripada,"Meher Colony, Baripada - OSPCB",21-02-2026 08:00:00,21.941841,86.728318,OZONE,11,138,37
India,Odisha,Rairangpur,"Divisional Forest Office, Rairangpur - OSPCB",21-02-2026 08:00:00,22.265816,86.174829,CO,18,82,31
India,Odisha,Rourkela,"Fertilizer Township, Rourkela - OSPCB",21-02-2026 08:00:00,22.18972222,84.86277778,PM2.5,78,111,83
India,Odisha,Rourkela,"Fertilizer Township, Rourkela - OSPCB",21-02-2026 08:00:00,22.18972222,84.86277778,NO2,11,11,11
India,Odisha,Rourkela,"Fertilizer Township, Rourkela - OSPCB",21-02-2026 08:00:00,22.18972222,84.86277778,SO2,8,11,9
India,Odisha,Rourkela,"Fertilizer Township, Rourkela - OSPCB",21-02-2026 08:00:00,22.18972222,84.86277778,CO,8,34,13
India,Odisha,Rourkela,"Raghunathpali, Rourkela - OSPCB",21-02-2026 08:00:00,22.220833,84.809444,PM10,102,400,161
India,Odisha,Rourkela,"Sector-2, Rourkela - OSPCB",21-02-2026 08:00:00,22.24500000,84.88111111,PM10,NA,NA,NA
India,Odisha,Rourkela,"Sector-2, Rourkela - OSPCB",21-02-2026 08:00:00,22.24500000,84.88111111,CO,NA,NA,NA
India,Odisha,Brajrajnagar,"GM Office, Brajrajnagar - OSPCB",21-02-2026 08:00:00,21.8004996,83.8396977,PM2.5,49,282,125
India,Odisha,Byasanagar,"Ferro Chrome Colony, Byasanagar - OSPCB",21-02-2026 08:00:00,20.94185,86.11510,PM2.5,77,283,181
India,Odisha,Byasanagar,"Ferro Chrome Colony, Byasanagar - OSPCB",21-02-2026 08:00:00,20.94185,86.11510,NO2,12,36,23
India,Odisha,Byasanagar,"Ferro Chrome Colony, Byasanagar - OSPCB",21-02-2026 08:00:00,20.94185,86.11510,NH3,2,3,3
India,Odisha,Talcher,"Talcher Coalfields,Talcher - OSPCB",21-02-2026 08:00:00,20.9360711,85.1707021,CO,2,52,32
India,Odisha,Tensa,"Barsua Iron Ore Mines, Tensa - OSPCB",21-02-2026 08:00:00,21.869985,85.167016,CO,NA,NA,NA
India,Punjab,Amritsar,"Golden Temple, Amritsar - PPCB",21-02-2026 08:00:00,31.620000,74.876512,SO2,22,38,29
India,Maharashtra,Ulhasnagar,"Sidhi Vinayak Nagar, Ulhasnagar - MPCB",21-02-2026 08:00:00,19.235581,73.159121,NH3,4,8,6
India,Maharashtra,Virar,"Bolinj, Virar - MPCB",21-02-2026 08:00:00,19.4458210,72.7988231,PM10,83,173,112
India,Maharashtra,Thane,"Kasarvadavali, Thane - MPCB",21-02-2026 08:00:00,19.26777,72.97182,SO2,NA,NA,NA
India,Maharashtra,Thane,"Upvan Fort, Thane - MPCB",21-02-2026 08:00:00,19.222279,72.957979,PM10,74,200,119
India,Odisha,Keonjhar,"Jagamohanpur, Keonjhar - OSPCB",21-02-2026 08:00:00,21.643900,85.599355,CO,112,113,113
India,Odisha,Nayagarh,"Dabuna, Nayagarh - OSPCB",21-02-2026 08:00:00,21.847279,85.416905,PM2.5,54,129,86
India,Nagaland,Kohima,"PWD Junction, Kohima - NPCB",21-02-2026 08:00:00,25.6635413,94.0989878,PM2.5,1,77,43
India,Maharashtra,Thane,"Upvan Fort, Thane - MPCB",21-02-2026 08:00:00,19.222279,72.957979,NH3,3,4,3
India,Punjab,Jalandhar,"Civil Line, Jalandhar - PPCB",21-02-2026 08:00:00,31.321907,75.578914,SO2,17,19,18
India,Punjab,Jalandhar,"Civil Line, Jalandhar - PPCB",21-02-2026 08:00:00,31.321907,75.578914,OZONE,65,108,70
India,Punjab,Khanna,"Kalal Majra, Khanna - PPCB",21-02-2026 08:00:00,30.736056 ,76.209694,PM2.5,65,145,88
India,Punjab,Khanna,"Kalal Majra, Khanna - PPCB",21-02-2026 08:00:00,30.736056 ,76.209694,NH3,7,8,7
India,Punjab,Khanna,"Kalal Majra, Khanna - PPCB",21-02-2026 08:00:00,30.736056 ,76.209694,CO,17,53,28
India,Punjab,Mandi Gobindgarh,"RIMT University, Mandi Gobindgarh - PPCB",21-02-2026 08:00:00,30.649961,76.331442,PM10,40,296,136
India,Punjab,Mandi Gobindgarh,"RIMT University, Mandi Gobindgarh - PPCB",21-02-2026 08:00:00,30.649961,76.331442,SO2,2,71,25
India,Rajasthan,Jaipur,"Mansarovar Sector-12, Jaipur - RSPCB",21-02-2026 08:00:00,26.843698,75.766894,PM2.5,58,358,122
India,Rajasthan,Jaipur,"Mansarovar Sector-12, Jaipur - RSPCB",21-02-2026 08:00:00,26.843698,75.766894,NH3,9,15,12
India,Rajasthan,Jaipur,"Mansarovar Sector-12, Jaipur - RSPCB",21-02-2026 08:00:00,26.843698,75.766894,CO,2,120,20
India,Rajasthan,Jaipur,"Mansarovar Sector-12, Jaipur - RSPCB",21-02-2026 08:00:00,26.843698,75.766894,OZONE,4,166,43
India,Rajasthan,Jaipur,"Police Commissionerate, Jaipur - RSPCB",21-02-2026 08:00:00,26.9164092,75.7994901,PM10,55,195,107
India,Rajasthan,Jaipur,"Police Commissionerate, Jaipur - RSPCB",21-02-2026 08:00:00,26.9164092,75.7994901,NH3,1,11,3
India,Rajasthan,Jaipur,"RIICO Sitapura, Jaipur - RSPCB",21-02-2026 08:00:00,26.786682,75.827928,PM2.5,50,386,139
India,Rajasthan,Chittorgarh,"Shastri Nagar, Chittorgarh - RSPCB",21-02-2026 08:00:00,24.892047,74.623527,CO,10,52,32
India,Rajasthan,Churu,"Subash Chowk, Churu - RSPCB",21-02-2026 08:00:00,28.296139,74.961696,PM2.5,42,257,99
India,Rajasthan,Churu,"Subash Chowk, Churu - RSPCB",21-02-2026 08:00:00,28.296139,74.961696,NO2,9,62,29
India,Rajasthan,Churu,"Subash Chowk, Churu - RSPCB",21-02-2026 08:00:00,28.296139,74.961696,OZONE,18,155,31
India,Rajasthan,Dausa,"Khatikan Mohalla, Dausa - RSPCB",21-02-2026 08:00:00,26.895552,76.334753,PM2.5,43,210,82
India,Rajasthan,Barmer,"Railway Colony, Barmer - RSPCB",21-02-2026 08:00:00,25.747299,71.393989,OZONE,14,30,16
India,Rajasthan,Bharatpur,"Krishna Nagar, Bharatpur - RSPCB",21-02-2026 08:00:00,27.215415,77.50873,PM2.5,32,172,83
India,Rajasthan,Bharatpur,"Krishna Nagar, Bharatpur - RSPCB",21-02-2026 08:00:00,27.215415,77.50873,OZONE,10,164,63
India,Rajasthan,Bhilwara,"Pratap Nagar, Bhilwara - RSPCB",21-02-2026 08:00:00,25.339605,74.618883,PM10,64,125,89
India,Rajasthan,Ajmer,"Civil Lines,  Ajmer - RSPCB",21-02-2026 08:00:00,26.470859,74.646594,PM10,63,132,99
India,Rajasthan,Ajmer,"Civil Lines,  Ajmer - RSPCB",21-02-2026 08:00:00,26.470859,74.646594,NO2,26,34,30
India,Rajasthan,Baran,"Bamboliya, Baran - RSPCB",21-02-2026 08:00:00,25.106006,76.469948,PM10,52,123,85
India,Rajasthan,Baran,"Bamboliya, Baran - RSPCB",21-02-2026 08:00:00,25.106006,76.469948,SO2,6,15,10
India,Rajasthan,Baran,"Bamboliya, Baran - RSPCB",21-02-2026 08:00:00,25.106006,76.469948,CO,20,46,38
India,Rajasthan,Jaipur,"Sector-2 Murlipura, Jaipur - RSPCB",21-02-2026 08:00:00,26.960669,75.771817,PM10,37,180,90
India,Rajasthan,Jaipur,"Sector-2 Murlipura, Jaipur - RSPCB",21-02-2026 08:00:00,26.960669,75.771817,OZONE,9,98,29
India,Rajasthan,Jaipur,"Shastri Nagar, Jaipur - RSPCB",21-02-2026 08:00:00,26.9502929,75.730943,PM2.5,42,189,114
India,Rajasthan,Bhiwadi,"Vasundhara Nagar_UIT, Bhiwadi - RSPCB",21-02-2026 08:00:00,28.207266,76.829265,NH3,4,18,7
India,Rajasthan,Bikaner,"MM Ground, Bikaner - RSPCB",21-02-2026 08:00:00,28.018792,73.292658,CO,28,125,32
India,Rajasthan,Dungarpur,"Bhoiwada, Dungarpur - RSPCB",21-02-2026 08:00:00,23.837789,73.714926,CO,33,42,40
India,Rajasthan,Hanumangarh,"Housing Board, Hanumangarh - RSPCB",21-02-2026 08:00:00,29.610750,74.283608,OZONE,11,78,34
India,Rajasthan,Jaipur,"Adarsh Nagar, Jaipur - RSPCB",21-02-2026 08:00:00,26.902909,75.836858,CO,40,109,46
India,Rajasthan,Jodhpur,"Mandor, Jodhpur - RSPCB",21-02-2026 08:00:00,26.358805,73.047444,CO,14,30,27
India,Rajasthan,Jodhpur,"Samrat Ashok Udhyan, Jodhpur - RSPCB",21-02-2026 08:00:00,26.253384,72.976571,PM10,53,143,87
India,Rajasthan,Jodhpur,"Samrat Ashok Udhyan, Jodhpur - RSPCB",21-02-2026 08:00:00,26.253384,72.976571,CO,19,37,25
India,Rajasthan,Karauli,"Satyawati Vihar, Karauli - RSPCB",21-02-2026 08:00:00,26.506177,77.025989,NH3,13,18,14
India,Rajasthan,Kota,"Dhanmandi, Kota - RSPCB",21-02-2026 08:00:00,25.164090,75.858137,OZONE,6,99,8
India,Rajasthan,Jaipur,"Shastri Nagar, Jaipur - RSPCB",21-02-2026 08:00:00,26.9502929,75.730943,CO,2,170,170
India,Rajasthan,Jaisalmer,"Sadar Bazar, Jaisalmer - RSPCB",21-02-2026 08:00:00,26.912329,70.909168,PM2.5,43,123,59
India,Rajasthan,Jaisalmer,"Sadar Bazar, Jaisalmer - RSPCB",21-02-2026 08:00:00,26.912329,70.909168,NH3,15,27,20
India,Rajasthan,Jalore,"Mudtra Sili, Jalore - RSPCB",21-02-2026 08:00:00,25.344694,72.626208,PM2.5,57,147,87
India,Rajasthan,Nagaur,"Karni Colony, Nagaur - RSPCB",21-02-2026 08:00:00,27.213494,73.734444,CO,15,34,21
India,Rajasthan,Nagaur,"Karni Colony, Nagaur - RSPCB",21-02-2026 08:00:00,27.213494,73.734444,OZONE,41,98,64
India,Rajasthan,Pali,"Indira Colony Vistar, Pali - RSPCB",21-02-2026 08:00:00,25.771061, 73.340227,PM2.5,44,148,87
India,Rajasthan,Jodhpur,"Collectorate, Jodhpur - RSPCB",21-02-2026 08:00:00,26.268249,73.0193853,OZONE,17,84,46
India,Rajasthan,Jodhpur,"Jhalamand, Jodhpur - RSPCB",21-02-2026 08:00:00,26.215415,73.070156,OZONE,24,88,36
India,Rajasthan,Jodhpur,"Mandor, Jodhpur - RSPCB",21-02-2026 08:00:00,26.358805,73.047444,NO2,13,58,20
India,Rajasthan,Pali,"Indira Colony Vistar, Pali - RSPCB",21-02-2026 08:00:00,25.771061, 73.340227,NH3,3,11,6
India,Rajasthan,Pali,"Indira Colony Vistar, Pali - RSPCB",21-02-2026 08:00:00,25.771061, 73.340227,OZONE,5,68,7
India,Rajasthan,Jhalawar,"Rajlaxmi Nagar, Jhalawar - RSPCB",21-02-2026 08:00:00,24.588397,76.172782,OZONE,2,107,12
India,Rajasthan,Jalore,"Mudtra Sili, Jalore - RSPCB",21-02-2026 08:00:00,25.344694,72.626208,SO2,4,11,7
India,Rajasthan,Kota,"Shrinath Puram, Kota - RSPCB",21-02-2026 08:00:00,25.14389,75.821256,SO2,2,93,16
India,Rajasthan,Kota,"Nayapura, Kota - RSPCB",21-02-2026 08:00:00,25.196024,75.855668,CO,15,110,40
India,TamilNadu,Chennai,"Perungudi, Chennai - TNPCB",21-02-2026 08:00:00,12.9533,80.2357,OZONE,3,8,4
India,TamilNadu,Chennai,"Royapuram, Chennai - TNPCB",21-02-2026 08:00:00,13.1036,80.2909,SO2,4,7,6
India,TamilNadu,Chennai,"Velachery Res. Area, Chennai - CPCB",21-02-2026 08:00:00,13.0052189,80.2398125,OZONE,5,10,5
India,TamilNadu,Coimbatore,"SIDCO Kurichi, Coimbatore - TNPCB",21-02-2026 08:00:00,10.942451,76.978996,CO,15,24,17
India,TamilNadu,Gummidipoondi,"Anthoni Pillai Nagar, Gummidipoondi - TNPCB",21-02-2026 08:00:00,13.4127,80.1081,PM2.5,62,424,179
India,TamilNadu,Gummidipoondi,"Anthoni Pillai Nagar, Gummidipoondi - TNPCB",21-02-2026 08:00:00,13.4127,80.1081,NH3,1,1,1
India,TamilNadu,Madurai,"Uchapatti, Madurai - TNPCB",21-02-2026 08:00:00,9.865935,78.022669,SO2,NA,NA,NA
India,TamilNadu,Perundurai,"SIPCOT Industrial Park, Perundurai - TNPCB",21-02-2026 08:00:00,11.258242,77.552761,NH3,2,8,4
India,TamilNadu,Perundurai,"SIPCOT Industrial Park, Perundurai - TNPCB",21-02-2026 08:00:00,11.258242,77.552761,CO,36,51,40
India,TamilNadu,Thoothukudi,"Meelavittan, Thoothukudi - TNPCB",21-02-2026 08:00:00,8.816428 ,78.099039,CO,30,36,32
India,Telangana,Hyderabad,"Bollaram Industrial Area, Hyderabad - TSPCB",21-02-2026 08:00:00,17.540891,78.358528,OZONE,38,47,39
India,Telangana,Hyderabad,"Central University, Hyderabad - TSPCB",21-02-2026 08:00:00,17.460103,78.334361,PM2.5,36,63,50
India,Telangana,Hyderabad,"Central University, Hyderabad - TSPCB",21-02-2026 08:00:00,17.460103,78.334361,PM10,24,42,34
India,Telangana,Hyderabad,"IITH Kandi, Hyderabad - TSPCB",21-02-2026 08:00:00,17.585705,78.126199,PM2.5,56,71,61
India,Telangana,Hyderabad,"Kokapet, Hyderabad - TSPCB",21-02-2026 08:00:00,17.393559,78.339194,CO,26,40,26
India,Telangana,Hyderabad,"Kokapet, Hyderabad - TSPCB",21-02-2026 08:00:00,17.393559,78.339194,OZONE,18,30,18
India,Telangana,Hyderabad,"Kompally Municipal Office, Hyderabad - TSPCB",21-02-2026 08:00:00,17.544899,78.486949,PM2.5,46,64,51
India,Telangana,Hyderabad,"Kompally Municipal Office, Hyderabad - TSPCB",21-02-2026 08:00:00,17.544899,78.486949,NO2,13,17,16
India,Telangana,Hyderabad,"Kompally Municipal Office, Hyderabad - TSPCB",21-02-2026 08:00:00,17.544899,78.486949,NH3,3,5,5
India,Telangana,Hyderabad,"Nacharam_TSIIC IALA, Hyderabad - TSPCB",21-02-2026 08:00:00,17.429398,78.569354,SO2,10,16,12
India,TamilNadu,Chennai,"Kodungaiyur, Chennai - TNPCB",21-02-2026 08:00:00,13.1278,80.2642,PM2.5,45,301,87
India,TamilNadu,Chennai,"Kodungaiyur, Chennai - TNPCB",21-02-2026 08:00:00,13.1278,80.2642,PM10,58,196,112
India,TamilNadu,Chennai,"Kodungaiyur, Chennai - TNPCB",21-02-2026 08:00:00,13.1278,80.2642,NH3,3,5,4
India,TamilNadu,Chennai,"Manali Village, Chennai - TNPCB",21-02-2026 08:00:00,13.1662,80.2584,SO2,13,19,16
India,TamilNadu,Chennai,"Manali Village, Chennai - TNPCB",21-02-2026 08:00:00,13.1662,80.2584,OZONE,14,32,29
India,TamilNadu,Chennai,"Manali, Chennai - CPCB",21-02-2026 08:00:00,13.164544,80.26285,NO2,9,12,11
India,Rajasthan,Sri Ganganagar,"Old City, Sri Ganganagar - RSPCB",21-02-2026 08:00:00,29.931624,73.864511,SO2,2,12,5
India,Rajasthan,Tonk,"Shastri Nagar, Tonk - RSPCB",21-02-2026 08:00:00,26.159933,75.780517,NH3,NA,NA,NA
India,Rajasthan,Udaipur,"Ashok Nagar, Udaipur - RSPCB",21-02-2026 08:00:00,24.5886166,73.6321397,PM2.5,NA,NA,NA
India,Rajasthan,Udaipur,"Ashok Nagar, Udaipur - RSPCB",21-02-2026 08:00:00,24.5886166,73.6321397,NO2,NA,NA,NA
India,Rajasthan,Udaipur,"Ashok Nagar, Udaipur - RSPCB",21-02-2026 08:00:00,24.5886166,73.6321397,NH3,NA,NA,NA
India,Telangana,Hyderabad,"ECIL Kapra, Hyderabad - TSPCB",21-02-2026 08:00:00,17.470431,78.566959,CO,14,26,25
India,Telangana,Hyderabad,"ICRISAT Patancheru, Hyderabad - TSPCB",21-02-2026 08:00:00,17.518400,78.278777,NO2,5,18,14
India,Telangana,Hyderabad,"ICRISAT Patancheru, Hyderabad - TSPCB",21-02-2026 08:00:00,17.518400,78.278777,OZONE,20,76,43
India,Telangana,Hyderabad,"IDA Pashamylaram, Hyderabad - TSPCB",21-02-2026 08:00:00,17.5316895,78.218939,CO,26,56,34
India,Telangana,Hyderabad,"IDA Pashamylaram, Hyderabad - TSPCB",21-02-2026 08:00:00,17.5316895,78.218939,OZONE,17,18,17
India,Telangana,Hyderabad,"New Malakpet, Hyderabad - TSPCB",21-02-2026 08:00:00,17.37206,78.50864,NO2,13,19,16
India,Telangana,Hyderabad,"New Malakpet, Hyderabad - TSPCB",21-02-2026 08:00:00,17.37206,78.50864,NH3,3,4,3
India,Telangana,Hyderabad,"Ramachandrapuram, Hyderabad - TSPCB",21-02-2026 08:00:00,17.528544,78.286195,NO2,14,18,16
India,Telangana,Hyderabad,"Ramachandrapuram, Hyderabad - TSPCB",21-02-2026 08:00:00,17.528544,78.286195,NH3,4,5,4
India,Telangana,Hyderabad,"Central University, Hyderabad - TSPCB",21-02-2026 08:00:00,17.460103,78.334361,CO,20,38,30
India,Telangana,Hyderabad,"Central University, Hyderabad - TSPCB",21-02-2026 08:00:00,17.460103,78.334361,OZONE,14,19,14
India,Telangana,Hyderabad,"ECIL Kapra, Hyderabad - TSPCB",21-02-2026 08:00:00,17.470431,78.566959,PM2.5,54,107,74
India,Rajasthan,Rajsamand,"Dhoinda, Rajsamand - RSPCB",21-02-2026 08:00:00,25.036360,73.883502,OZONE,13,125,24
India,Rajasthan,Sirohi,"Vedhaynath Colony, Sirohi - RSPCB",21-02-2026 08:00:00,24.885261,72.857549,NH3,NA,NA,NA
India,Uttar_Pradesh,Agra,"Manoharpur, Agra - UPPCB",21-02-2026 08:00:00,27.23711,78.01936,SO2,5,111,76
India,Uttar_Pradesh,Agra,"Manoharpur, Agra - UPPCB",21-02-2026 08:00:00,27.23711,78.01936,CO,19,24,20
India,Uttar_Pradesh,Agra,"Manoharpur, Agra - UPPCB",21-02-2026 08:00:00,27.23711,78.01936,OZONE,7,7,7
India,Uttar_Pradesh,Agra,"Rohta, Agra - UPPCB",21-02-2026 08:00:00,27.106972,78.000111,NH3,5,5,5
India,Uttar_Pradesh,Agra,"Sanjay Palace, Agra - UPPCB",21-02-2026 08:00:00,27.19865833,78.00598056,NO2,2,8,5
India,Uttar_Pradesh,Agra,"Sector-3B Avas Vikas Colony, Agra - UPPCB",21-02-2026 08:00:00,27.19412,77.96237,PM2.5,41,121,69
India,Uttar_Pradesh,Agra,"Sector-3B Avas Vikas Colony, Agra - UPPCB",21-02-2026 08:00:00,27.19412,77.96237,PM10,65,149,102
India,Uttar_Pradesh,Agra,"Sector-3B Avas Vikas Colony, Agra - UPPCB",21-02-2026 08:00:00,27.19412,77.96237,SO2,14,14,14
India,Uttar_Pradesh,Agra,"Sector-3B Avas Vikas Colony, Agra - UPPCB",21-02-2026 08:00:00,27.19412,77.96237,CO,6,21,12
India,Uttar_Pradesh,Agra,"Sector-3B Avas Vikas Colony, Agra - UPPCB",21-02-2026 08:00:00,27.19412,77.96237,OZONE,NA,NA,NA
India,Uttar_Pradesh,Agra,"Shahjahan Garden, Agra - UPPCB",21-02-2026 08:00:00,27.169338,78.03582,NO2,11,16,14
India,Uttar_Pradesh,Agra,"Shahjahan Garden, Agra - UPPCB",21-02-2026 08:00:00,27.169338,78.03582,CO,6,24,12
India,Uttar_Pradesh,Agra,"Shastripuram, Agra - UPPCB",21-02-2026 08:00:00,27.19862,77.92066,NO2,56,58,57
India,Uttar_Pradesh,Baghpat,"Sardar Patel Inter College, Baghpat - UPPCB",21-02-2026 08:00:00,28.964949,77.278761,PM2.5,72,322,205
India,Uttar_Pradesh,Bareilly,"Civil Lines, Bareilly - UPPCB",21-02-2026 08:00:00,28.359581,79.414455,SO2,43,75,57
India,Uttar_Pradesh,Bareilly,"Rajendra Nagar, Bareilly - UPPCB",21-02-2026 08:00:00,28.38910936,79.42963708,PM2.5,19,52,38
India,Uttar_Pradesh,Bareilly,"Rajendra Nagar, Bareilly - UPPCB",21-02-2026 08:00:00,28.38910936,79.42963708,NO2,9,10,9
India,Uttar_Pradesh,Bareilly,"Rajendra Nagar, Bareilly - UPPCB",21-02-2026 08:00:00,28.38910936,79.42963708,CO,1,17,2
India,Uttar_Pradesh,Greater Noida,"Knowledge Park - III, Greater Noida - UPPCB",21-02-2026 08:00:00,28.47272,77.482000,PM2.5,62,267,137
India,Uttar_Pradesh,Greater Noida,"Knowledge Park - III, Greater Noida - UPPCB",21-02-2026 08:00:00,28.47272,77.482000,NH3,9,19,13
India,Uttar_Pradesh,Greater Noida,"Knowledge Park - V, Greater Noida - UPPCB",21-02-2026 08:00:00,28.557054,77.453663,PM2.5,83,323,206
India,Uttar_Pradesh,Greater Noida,"Knowledge Park - V, Greater Noida - UPPCB",21-02-2026 08:00:00,28.557054,77.453663,NH3,9,15,12
India,Uttar_Pradesh,Greater Noida,"Knowledge Park - V, Greater Noida - UPPCB",21-02-2026 08:00:00,28.557054,77.453663,CO,34,96,53
India,Uttar_Pradesh,Hapur,"Anand Vihar, Hapur - UPPCB",21-02-2026 08:00:00,28.725645,77.749675,PM2.5,67,313,166
India,Uttar_Pradesh,Hapur,"Anand Vihar, Hapur - UPPCB",21-02-2026 08:00:00,28.725645,77.749675,CO,24,68,54
India,Uttar_Pradesh,Jhansi,"Shivaji Nagar, Jhansi - UPPCB",21-02-2026 08:00:00,25.4547,78.6039,NH3,4,4,4
India,Uttar_Pradesh,Jhansi,"Shivaji Nagar, Jhansi - UPPCB",21-02-2026 08:00:00,25.4547,78.6039,SO2,14,24,20
India,Uttar_Pradesh,Kanpur,"FTI Kidwai Nagar, Kanpur - UPPCB",21-02-2026 08:00:00,26.428282,80.327067,PM10,32,147,85
India,Uttar_Pradesh,Kanpur,"Nehru Nagar, Kanpur - UPPCB",21-02-2026 08:00:00,26.4703136,80.3229863,PM10,26,94,52
India,Uttar_Pradesh,Firozabad,"Vibhab Nagar, Firozabad - UPPCB",21-02-2026 08:00:00,27.1594,78.3953,PM10,21,58,35
India,Uttar_Pradesh,Firozabad,"Vibhab Nagar, Firozabad - UPPCB",21-02-2026 08:00:00,27.1594,78.3953,NH3,1,2,2
India,Uttar_Pradesh,Firozabad,"Vibhab Nagar, Firozabad - UPPCB",21-02-2026 08:00:00,27.1594,78.3953,CO,6,8,6
India,Uttar_Pradesh,Ghaziabad,"Indirapuram, Ghaziabad - UPPCB",21-02-2026 08:00:00,28.646233,77.358075,PM10,125,370,182
India,Uttar_Pradesh,Ghaziabad,"Loni, Ghaziabad - UPPCB",21-02-2026 08:00:00,28.757294,77.278792,PM10,155,332,213
India,Uttar_Pradesh,Ghaziabad,"Loni, Ghaziabad - UPPCB",21-02-2026 08:00:00,28.757294,77.278792,NH3,1,10,5
India,Tripura,Agartala,"Bardowali, Agartala - Tripura SPCB",21-02-2026 08:00:00,23.8175497,91.2726974,NO2,13,13,13
India,Tripura,Agartala,"Bardowali, Agartala - Tripura SPCB",21-02-2026 08:00:00,23.8175497,91.2726974,NH3,3,8,5
India,Uttar_Pradesh,Agra,"Manoharpur, Agra - UPPCB",21-02-2026 08:00:00,27.23711,78.01936,PM10,43,112,84
India,Uttar_Pradesh,Agra,"Manoharpur, Agra - UPPCB",21-02-2026 08:00:00,27.23711,78.01936,NO2,26,26,26
India,Uttar_Pradesh,Ghaziabad,"Sanjay Nagar, Ghaziabad - UPPCB",21-02-2026 08:00:00,28.685382,77.453839,NO2,44,111,80
India,Uttar_Pradesh,Ghaziabad,"Sanjay Nagar, Ghaziabad - UPPCB",21-02-2026 08:00:00,28.685382,77.453839,OZONE,20,74,29
India,Uttar_Pradesh,Ghaziabad,"Vasundhara, Ghaziabad - UPPCB",21-02-2026 08:00:00,28.6603346,77.3572563,CO,26,118,42
India,Uttar_Pradesh,Ghaziabad,"Vasundhara, Ghaziabad - UPPCB",21-02-2026 08:00:00,28.6603346,77.3572563,OZONE,2,89,4
India,Uttar_Pradesh,Ghaziabad,"Loni, Ghaziabad - UPPCB",21-02-2026 08:00:00,28.757294,77.278792,OZONE,4,79,11
India,Telangana,Hyderabad,"Zoo Park, Hyderabad - TSPCB",21-02-2026 08:00:00,17.349694,78.451437,OZONE,23,27,24
India,Uttar_Pradesh,Noida,"Sector-1, Noida - UPPCB",21-02-2026 08:00:00,28.5898,77.3101,CO,18,90,63
India,Uttar_Pradesh,Noida,"Sector-116, Noida - UPPCB",21-02-2026 08:00:00,28.569230,77.393848,NO2,5,193,81
India,Uttar_Pradesh,Noida,"Sector-116, Noida - UPPCB",21-02-2026 08:00:00,28.569230,77.393848,OZONE,7,144,8
India,Uttar_Pradesh,Prayagraj,"Jhunsi, Prayagraj - UPPCB",21-02-2026 08:00:00,25.425602,81.917152,NO2,6,6,6
India,Uttar_Pradesh,Prayagraj,"Jhunsi, Prayagraj - UPPCB",21-02-2026 08:00:00,25.425602,81.917152,SO2,15,20,17
India,Uttar_Pradesh,Prayagraj,"Motilal Nehru NIT, Prayagraj - UPPCB",21-02-2026 08:00:00,25.494,81.863,PM10,38,75,55
India,Uttar_Pradesh,Prayagraj,"Motilal Nehru NIT, Prayagraj - UPPCB",21-02-2026 08:00:00,25.494,81.863,NH3,8,10,9
India,Uttar_Pradesh,Prayagraj,"Nagar Nigam, Prayagraj - UPPCB",21-02-2026 08:00:00,25.44919916 ,81.82735986 ,PM2.5,27,61,45
India,Uttar_Pradesh,Prayagraj,"Nagar Nigam, Prayagraj - UPPCB",21-02-2026 08:00:00,25.44919916 ,81.82735986 ,OZONE,11,13,12
India,Uttar_Pradesh,Varanasi,"Ardhali Bazar, Varanasi - UPPCB",21-02-2026 08:00:00,25.3505986,82.9083074,PM2.5,27,59,42
India,Uttar_Pradesh,Varanasi,"Ardhali Bazar, Varanasi - UPPCB",21-02-2026 08:00:00,25.3505986,82.9083074,SO2,10,11,11
India,Uttar_Pradesh,Varanasi,"Ardhali Bazar, Varanasi - UPPCB",21-02-2026 08:00:00,25.3505986,82.9083074,CO,3,22,14
India,Uttar_Pradesh,Moradabad,"Kashiram Nagar, Moradabad - UPPCB",21-02-2026 08:00:00,28.849399,78.742362,NO2,25,25,25
India,Uttar_Pradesh,Moradabad,"Transport Nagar, Moradabad - UPPCB",21-02-2026 08:00:00,28.802625,78.753728,PM10,30,97,65
India,Uttar_Pradesh,Moradabad,"Transport Nagar, Moradabad - UPPCB",21-02-2026 08:00:00,28.802625,78.753728,SO2,39,42,41
India,Uttar_Pradesh,Muzaffarnagar,"New Mandi, Muzaffarnagar - UPPCB",21-02-2026 08:00:00,29.4723508,77.7194031,PM10,71,178,122
India,Uttar_Pradesh,Muzaffarnagar,"New Mandi, Muzaffarnagar - UPPCB",21-02-2026 08:00:00,29.4723508,77.7194031,NH3,9,14,12
India,Uttar_Pradesh,Muzaffarnagar,"New Mandi, Muzaffarnagar - UPPCB",21-02-2026 08:00:00,29.4723508,77.7194031,SO2,12,27,17
India,Uttar_Pradesh,Noida,"Sector - 125, Noida - UPPCB",21-02-2026 08:00:00,28.5447608,77.3231257,NO2,32,134,79
India,Uttar_Pradesh,Noida,"Sector - 125, Noida - UPPCB",21-02-2026 08:00:00,28.5447608,77.3231257,OZONE,8,13,8
India,Uttar_Pradesh,Noida,"Sector-1, Noida - UPPCB",21-02-2026 08:00:00,28.5898,77.3101,PM2.5,67,392,213
India,Uttar_Pradesh,Moradabad,"Buddhi Vihar, Moradabad - UPPCB",21-02-2026 08:00:00,28.83526,78.74460,OZONE,10,19,13
India,Uttar_Pradesh,Moradabad,"Eco Herbal Park, Moradabad - UPPCB",21-02-2026 08:00:00,28.840739,78.697531,PM10,32,108,81
India,Uttar_Pradesh,Moradabad,"Eco Herbal Park, Moradabad - UPPCB",21-02-2026 08:00:00,28.840739,78.697531,NH3,4,6,5
India,Uttar_Pradesh,Moradabad,"Employment Office, Moradabad - UPPCB",21-02-2026 08:00:00,28.88528,78.73880,PM2.5,23,127,83
India,Uttar_Pradesh,Moradabad,"Employment Office, Moradabad - UPPCB",21-02-2026 08:00:00,28.88528,78.73880,SO2,25,29,25
India,Uttar_Pradesh,Moradabad,"Jigar Colony, Moradabad - UPPCB",21-02-2026 08:00:00,28.856664,78.772638,NO2,24,25,25
India,Uttar_Pradesh,Moradabad,"Jigar Colony, Moradabad - UPPCB",21-02-2026 08:00:00,28.856664,78.772638,CO,40,40,40
India,Uttar_Pradesh,Moradabad,"Jigar Colony, Moradabad - UPPCB",21-02-2026 08:00:00,28.856664,78.772638,OZONE,16,24,17
India,Uttar_Pradesh,Lucknow,"Kendriya Vidyalaya, Lucknow - CPCB",21-02-2026 08:00:00,26.906111,80.948222,PM2.5,49,142,90
India,Uttar_Pradesh,Lucknow,"Kendriya Vidyalaya, Lucknow - CPCB",21-02-2026 08:00:00,26.906111,80.948222,SO2,9,22,16
India,Uttar_Pradesh,Lucknow,"Kukrail Picnic Spot-1, Lucknow - UPPCB",21-02-2026 08:00:00,26.90723,80.98579,NH3,6,6,6
India,Uttar_Pradesh,Lucknow,"Kukrail Picnic Spot-1, Lucknow - UPPCB",21-02-2026 08:00:00,26.90723,80.98579,OZONE,12,45,19
India,Uttar_Pradesh,Lucknow,"Lalbagh, Lucknow - CPCB",21-02-2026 08:00:00,26.8458805,80.9365541,NO2,33,44,38
India,Uttar_Pradesh,Lucknow,"Lalbagh, Lucknow - CPCB",21-02-2026 08:00:00,26.8458805,80.9365541,NH3,13,21,17
India,Uttar_Pradesh,Lucknow,"Talkatora District Industries Center, Lucknow - CPCB",21-02-2026 08:00:00,26.83399722,80.8917361,PM2.5,10,166,109
India,Uttar_Pradesh,Varanasi,"Bhelupur, Varanasi - UPPCB",21-02-2026 08:00:00,25.301778,82.996789,PM2.5,31,80,54
India,Uttar_Pradesh,Varanasi,"Bhelupur, Varanasi - UPPCB",21-02-2026 08:00:00,25.301778,82.996789,NO2,8,8,8
India,Uttar_Pradesh,Varanasi,"Bhelupur, Varanasi - UPPCB",21-02-2026 08:00:00,25.301778,82.996789,SO2,28,29,29
India,Uttar_Pradesh,Varanasi,"IESD Banaras Hindu University, Varanasi - UPPCB",21-02-2026 08:00:00,25.262326,82.995408,PM10,34,93,64
India,Uttar_Pradesh,Lucknow,"Talkatora District Industries Center, Lucknow - CPCB",21-02-2026 08:00:00,26.83399722,80.8917361,SO2,2,17,6
India,Uttar_Pradesh,Meerut,"Ganga Nagar, Meerut - UPPCB",21-02-2026 08:00:00,28.999264,77.7590354,NO2,99,130,119
India,Uttar_Pradesh,Meerut,"Ganga Nagar, Meerut - UPPCB",21-02-2026 08:00:00,28.999264,77.7590354,SO2,18,21,19
India,Uttar_Pradesh,Meerut,"Jai Bhim Nagar, Meerut - UPPCB",21-02-2026 08:00:00,28.9535882,77.7622941,NH3,10,29,16
India,Uttar_Pradesh,Moradabad,"Buddhi Vihar, Moradabad - UPPCB",21-02-2026 08:00:00,28.83526,78.74460,SO2,35,61,48
India,Uttarakhand,Dehradun,"Doon University, Dehradun - UKPCB",21-02-2026 08:00:00,30.269444,78.044167,PM10,38,101,67
India,Uttarakhand,Dehradun,"Doon University, Dehradun - UKPCB",21-02-2026 08:00:00,30.269444,78.044167,SO2,1,2,1
India,Uttarakhand,Dehradun,"Doon University, Dehradun - UKPCB",21-02-2026 08:00:00,30.269444,78.044167,CO,8,8,8
India,Uttar_Pradesh,Varanasi,"IESD Banaras Hindu University, Varanasi - UPPCB",21-02-2026 08:00:00,25.262326,82.995408,OZONE,2,16,9
India,Uttarakhand,Kashipur,"Govt. Girls Inter College, Kashipur - UKPCB",21-02-2026 08:00:00,29.2124114,78.9611753,NO2,NA,NA,NA
India,Uttarakhand,Rishikesh,"Shivaji Nagar, Rishikesh - UKPCB",21-02-2026 08:00:00,30.075911,78.2859547,PM10,48,48,48
India,Uttarakhand,Rishikesh,"Shivaji Nagar, Rishikesh - UKPCB",21-02-2026 08:00:00,30.075911,78.2859547,NO2,21,21,21
India,Uttarakhand,Rishikesh,"Shivaji Nagar, Rishikesh - UKPCB",21-02-2026 08:00:00,30.075911,78.2859547,OZONE,80,80,80
India,West_Bengal,Asansol,"Asansol Court Area, Asansol - WBPCB",21-02-2026 08:00:00,23.685297,86.945968,NO2,15,28,23
India,West_Bengal,Asansol,"Asansol Court Area, Asansol - WBPCB",21-02-2026 08:00:00,23.685297,86.945968,NH3,2,9,5
India,West_Bengal,Asansol,"Evelyn Lodge, Asansol - WBPCB",21-02-2026 08:00:00,23.6979360,86.9443950,CO,2,62,51
India,West_Bengal,Howrah,"Dasnagar, Howrah - WBPCB",21-02-2026 08:00:00,22.6025571,88.3105664,PM10,70,202,136
India,West_Bengal,Howrah,"Dasnagar, Howrah - WBPCB",21-02-2026 08:00:00,22.6025571,88.3105664,NH3,6,8,7
India,West_Bengal,Howrah,"Dasnagar, Howrah - WBPCB",21-02-2026 08:00:00,22.6025571,88.3105664,SO2,7,105,28
India,West_Bengal,Howrah,"Ghusuri, Howrah - WBPCB",21-02-2026 08:00:00,22.611968,88.347422,CO,54,124,112
India,West_Bengal,Howrah,"Padmapukur, Howrah - WBPCB",21-02-2026 08:00:00,22.5687319,88.2797276,PM2.5,79,309,178
India,West_Bengal,Howrah,"Padmapukur, Howrah - WBPCB",21-02-2026 08:00:00,22.5687319,88.2797276,CO,18,122,92
India,West_Bengal,Kolkata,"Bidhannagar, Kolkata - WBPCB",21-02-2026 08:00:00,22.58157048,88.41002457,PM10,78,154,117
India,West_Bengal,Kolkata,"Bidhannagar, Kolkata - WBPCB",21-02-2026 08:00:00,22.58157048,88.41002457,SO2,8,54,12
India,West_Bengal,Kolkata,"Fort William, Kolkata - WBPCB",21-02-2026 08:00:00,22.556640,88.342674,PM2.5,82,306,176
India,West_Bengal,Asansol,"Mahabir Colliery, Asansol - WBPCB",21-02-2026 08:00:00,23.6181830,87.1057180,OZONE,5,49,6
India,West_Bengal,Asansol,"Trivenidevi Bhalotia College, Asansol - WBPCB",21-02-2026 08:00:00,23.616515,87.119133,OZONE,6,36,10
India,West_Bengal,Barrackpore,"SVSPA Campus, Barrackpore - WBPCB",21-02-2026 08:00:00,22.7605581,88.3617589,OZONE,4,53,4
India,West_Bengal,Durgapur,"Mahishkapur Road_B-Zone, Durgapur - WBPCB",21-02-2026 08:00:00,23.567923,87.306843,NO2,16,78,37
India,West_Bengal,Durgapur,"Mahishkapur Road_B-Zone, Durgapur - WBPCB",21-02-2026 08:00:00,23.567923,87.306843,CO,28,84,69
India,West_Bengal,Durgapur,"PCBL Residential Complex, Durgapur - WBPCB",21-02-2026 08:00:00,23.5087640,87.3544400,NO2,27,69,47
India,West_Bengal,Howrah,"Belur Math, Howrah - WBPCB",21-02-2026 08:00:00,22.629801,88.352017,NH3,9,16,12
India,West_Bengal,Howrah,"Botanical Garden, Howrah - WBPCB",21-02-2026 08:00:00,22.554954,88.292568,NH3,NA,NA,NA
India,West_Bengal,Haldia,"Priyambada Housing Estate, Haldia - WBPCB",21-02-2026 08:00:00,22.06047,88.109737,PM2.5,82,208,141
India,West_Bengal,Haldia,"Priyambada Housing Estate, Haldia - WBPCB",21-02-2026 08:00:00,22.06047,88.109737,PM10,70,199,114
India,West_Bengal,Howrah,"Botanical Garden, Howrah - WBPCB",21-02-2026 08:00:00,22.554954,88.292568,OZONE,8,36,9
India,West_Bengal,Kolkata,"Jadavpur, Kolkata - WBPCB",21-02-2026 08:00:00,22.49929,88.36917,PM2.5,145,351,250
India,West_Bengal,Kolkata,"Rabindra Bharati University, Kolkata - WBPCB",21-02-2026 08:00:00,22.627847,88.380669,PM2.5,164,500,270
India,West_Bengal,Kolkata,"Rabindra Bharati University, Kolkata - WBPCB",21-02-2026 08:00:00,22.627847,88.380669,OZONE,9,48,12
India,West_Bengal,Kolkata,"Rabindra Sarobar, Kolkata - WBPCB",21-02-2026 08:00:00,22.51106,88.35142,PM2.5,95,303,194
India,West_Bengal,Kolkata,"Victoria, Kolkata - WBPCB",21-02-2026 08:00:00,22.5448082,88.3403691,PM2.5,109,303,200
India,West_Bengal,Kolkata,"Victoria, Kolkata - WBPCB",21-02-2026 08:00:00,22.5448082,88.3403691,PM10,84,450,214
India,West_Bengal,Siliguri,"Ward-32 Bapupara, Siliguri - WBPCB",21-02-2026 08:00:00,26.6879226,88.4152495,NH3,10,10,10
India,Andhra_Pradesh,Vijayawada,"Kanuru, Vijayawada - APPCB",21-02-2026 08:00:00,16.486692,80.699436,CO,42,62,48
India,Andhra_Pradesh,Vijayawada,"Rajiv Nagar, Vijayawada - APPCB",21-02-2026 08:00:00,16.554731,80.649110,PM2.5,NA,NA,NA
India,Andhra_Pradesh,Vijayawada,"Rajiv Nagar, Vijayawada - APPCB",21-02-2026 08:00:00,16.554731,80.649110,CO,23,53,41
India,Andhra_Pradesh,Visakhapatnam,"GVM Corporation, Visakhapatnam - APPCB",21-02-2026 08:00:00,17.72,83.3,NO2,NA,NA,NA
India,Andhra_Pradesh,Visakhapatnam,"GVM Corporation, Visakhapatnam - APPCB",21-02-2026 08:00:00,17.72,83.3,NH3,NA,NA,NA
India,Arunachal_Pradesh,Naharlagun,"Naharlagun, Naharlagun - APSPCB",21-02-2026 08:00:00,27.103358,93.679645,PM10,100,500,208
India,Arunachal_Pradesh,Naharlagun,"Naharlagun, Naharlagun - APSPCB",21-02-2026 08:00:00,27.103358,93.679645,SO2,10,11,10
India,Arunachal_Pradesh,Naharlagun,"Naharlagun, Naharlagun - APSPCB",21-02-2026 08:00:00,27.103358,93.679645,OZONE,6,7,6
India,Andaman and Nicobar,Sri Vijaya Puram,"Police Line, Sri Vijaya Puram - ANPCC",21-02-2026 08:00:00,11.654054,92.734055,PM2.5,NA,NA,NA
India,Andaman and Nicobar,Sri Vijaya Puram,"Police Line, Sri Vijaya Puram - ANPCC",21-02-2026 08:00:00,11.654054,92.734055,NO2,NA,NA,NA
India,Andaman and Nicobar,Sri Vijaya Puram,"Police Line, Sri Vijaya Puram - ANPCC",21-02-2026 08:00:00,11.654054,92.734055,OZONE,NA,NA,NA
India,Andhra_Pradesh,Amaravati,"Secretariat, Amaravati - APPCB",21-02-2026 08:00:00,16.5150833,80.5181667,PM2.5,59,147,87
India,Andhra_Pradesh,Amaravati,"Secretariat, Amaravati - APPCB",21-02-2026 08:00:00,16.5150833,80.5181667,PM10,97,230,130
India,Andhra_Pradesh,Amaravati,"Secretariat, Amaravati - APPCB",21-02-2026 08:00:00,16.5150833,80.5181667,NH3,3,5,3
India,Andhra_Pradesh,Amaravati,"Secretariat, Amaravati - APPCB",21-02-2026 08:00:00,16.5150833,80.5181667,OZONE,1,63,18
India,Andhra_Pradesh,Chittoor,"Gangineni Cheruvu, Chittoor - APPCB",21-02-2026 08:00:00,13.204880,79.097889,NH3,5,7,6
India,Andhra_Pradesh,Tirupati,"Vaikuntapuram, Tirupati - APPCB",21-02-2026 08:00:00,13.615387,79.409230,NH3,6,6,6
India,Andhra_Pradesh,Tirupati,"Vaikuntapuram, Tirupati - APPCB",21-02-2026 08:00:00,13.615387,79.409230,CO,27,36,28
India,Andhra_Pradesh,Vijayawada,"HB Colony, Vijayawada - APPCB",21-02-2026 08:00:00,16.536107,80.594233,PM10,46,103,70
India,Andhra_Pradesh,Vijayawada,"HB Colony, Vijayawada - APPCB",21-02-2026 08:00:00,16.536107,80.594233,NO2,22,25,24
India,Andhra_Pradesh,Vijayawada,"HB Colony, Vijayawada - APPCB",21-02-2026 08:00:00,16.536107,80.594233,NH3,4,6,5
India,Andhra_Pradesh,Vijayawada,"HB Colony, Vijayawada - APPCB",21-02-2026 08:00:00,16.536107,80.594233,OZONE,25,25,25
India,Andhra_Pradesh,Vijayawada,"Kanuru, Vijayawada - APPCB",21-02-2026 08:00:00,16.486692,80.699436,PM2.5,46,66,52
India,Bihar,Gaya,"Collectorate, Gaya - BSPCB",21-02-2026 08:00:00,24.7955,84.9994,OZONE,17,19,18
India,Bihar,Gaya,"Kareemganj, Gaya - BSPCB",21-02-2026 08:00:00,24.792403,84.992416,PM2.5,72,207,111
India,Bihar,Gaya,"SFTI Kusdihra, Gaya - BSPCB",21-02-2026 08:00:00,24.762518,84.982348,NO2,24,73,43
India,Bihar,Gaya,"SFTI Kusdihra, Gaya - BSPCB",21-02-2026 08:00:00,24.762518,84.982348,CO,30,67,37
India,Bihar,Gaya,"SFTI Kusdihra, Gaya - BSPCB",21-02-2026 08:00:00,24.762518,84.982348,OZONE,10,54,12
India,Bihar,Hajipur,"Industrial Area, Hajipur - BSPCB",21-02-2026 08:00:00,25.697189,85.245900,PM10,74,124,88
India,Assam,Silchar,"Tarapur, Silchar - PCBA",21-02-2026 08:00:00,24.82827,92.79525,CO,24,66,31
India,Bihar,Arrah,"New DM Office, Arrah - BSPCB",21-02-2026 08:00:00,25.5626095,84.663264,PM2.5,50,153,82
India,Bihar,Arrah,"New DM Office, Arrah - BSPCB",21-02-2026 08:00:00,25.5626095,84.663264,NH3,1,2,2
India,Bihar,Aurangabad,"Gurdeo Nagar, Aurangabad - BSPCB",21-02-2026 08:00:00,24.75746,84.366208,OZONE,4,47,6
India,Assam,Guwahati,"Pan Bazaar, Guwahati - PCBA",21-02-2026 08:00:00,26.187500,91.744194,NH3,1,1,1
India,Assam,Guwahati,"Railway Colony, Guwahati - PCBA",21-02-2026 08:00:00,26.181742,91.78063,CO,1,28,18
India,Assam,Nagaon,"Christianpatty, Nagaon - PCBA",21-02-2026 08:00:00,26.349082,92.68449,PM2.5,93,257,142
India,Assam,Nagaon,"Christianpatty, Nagaon - PCBA",21-02-2026 08:00:00,26.349082,92.68449,OZONE,8,9,9
India,Bihar,Buxar,"Charitra Van, Buxar - BSPCB",21-02-2026 08:00:00,25.567520,83.966379,PM2.5,50,88,71
India,Bihar,Buxar,"Charitra Van, Buxar - BSPCB",21-02-2026 08:00:00,25.567520,83.966379,PM10,46,88,69
India,Bihar,Buxar,"Charitra Van, Buxar - BSPCB",21-02-2026 08:00:00,25.567520,83.966379,OZONE,6,23,9
India,Bihar,Chhapra,"Darshan Nagar, Chhapra - BSPCB",21-02-2026 08:00:00,25.7808257,84.7446768,CO,27,50,44
India,Andhra_Pradesh,Kadapa,"Yerramukkapalli, Kadapa - APPCB",21-02-2026 08:00:00,14.465052,78.824187,PM2.5,NA,NA,NA
India,Andhra_Pradesh,Kadapa,"Yerramukkapalli, Kadapa - APPCB",21-02-2026 08:00:00,14.465052,78.824187,SO2,NA,NA,NA
India,Andhra_Pradesh,Rajamahendravaram,"Anand Kala Kshetram, Rajamahendravaram - APPCB",21-02-2026 08:00:00,16.9872867,81.7363176,NO2,19,57,30
India,Bihar,Bettiah,"Kamalnath Nagar, Bettiah - BSPCB",21-02-2026 08:00:00,26.80365,84.51954,NH3,1,1,1
India,Bihar,Bettiah,"Kamalnath Nagar, Bettiah - BSPCB",21-02-2026 08:00:00,26.80365,84.51954,OZONE,20,23,23
India,Bihar,Bhagalpur,"Mayaganj, Bhagalpur - BSPCB",21-02-2026 08:00:00,25.265194,87.012947,NH3,6,8,7
India,Bihar,Kishanganj,"SDM Office_Khagra, Kishanganj - BSPCB",21-02-2026 08:00:00,26.0881305,87.93840336,PM2.5,50,237,91
India,Bihar,Patna,"Govt. High School Shikarpur, Patna - BSPCB",21-02-2026 08:00:00,25.592539,85.227158,SO2,4,7,5
India,Bihar,Patna,"Govt. High School Shikarpur, Patna - BSPCB",21-02-2026 08:00:00,25.592539,85.227158,OZONE,8,13,11
India,Bihar,Patna,"IGSC Planetarium Complex, Patna - BSPCB",21-02-2026 08:00:00,25.610369,85.132568,NO2,NA,NA,NA
India,Bihar,Patna,"IGSC Planetarium Complex, Patna - BSPCB",21-02-2026 08:00:00,25.610369,85.132568,SO2,NA,NA,NA
India,Bihar,Patna,"Muradpur, Patna - BSPCB",21-02-2026 08:00:00,25.619651,85.147382,PM2.5,75,151,94
India,Bihar,Patna,"Muradpur, Patna - BSPCB",21-02-2026 08:00:00,25.619651,85.147382,NO2,10,12,11
India,Bihar,Muzaffarpur,"MIT-Daudpur Kothi, Muzaffarpur - BSPCB",21-02-2026 08:00:00,26.1403345,85.3650192,PM10,60,72,67
India,Bihar,Muzaffarpur,"Muzaffarpur Collectorate, Muzaffarpur - BSPCB",21-02-2026 08:00:00,26.1209,85.3647,PM2.5,87,123,98
India,Bihar,Muzaffarpur,"Muzaffarpur Collectorate, Muzaffarpur - BSPCB",21-02-2026 08:00:00,26.1209,85.3647,NO2,8,20,11
India,Bihar,Rajgir,"Dangi Tola, Rajgir - BSPCB",21-02-2026 08:00:00,25.03280,85.41948,CO,38,47,41
India,Bihar,Saharsa,"Police Line, Saharsa - BSPCB",21-02-2026 08:00:00,25.892357,86.590325,PM2.5,43,163,93
India,Bihar,Saharsa,"Police Line, Saharsa - BSPCB",21-02-2026 08:00:00,25.892357,86.590325,PM10,74,149,114
India,Bihar,Patna,"Rajbansi Nagar, Patna - BSPCB",21-02-2026 08:00:00,25.599486,85.113666,OZONE,5,28,10
India,Bihar,Patna,"Samanpura, Patna - BSPCB",21-02-2026 08:00:00,25.596727,85.085624,NO2,36,46,40
India,Bihar,Purnia,"Mariam Nagar, Purnia - BSPCB",21-02-2026 08:00:00,25.366336,87.117468,OZONE,3,46,18
India,Bihar,Manguraha,"Forest Rest House, Manguraha - BSPCB",21-02-2026 08:00:00,27.308328,84.531742,NO2,4,12,6
India,Bihar,Manguraha,"Forest Rest House, Manguraha - BSPCB",21-02-2026 08:00:00,27.308328,84.531742,NH3,1,2,1
India,Bihar,Manguraha,"Forest Rest House, Manguraha - BSPCB",21-02-2026 08:00:00,27.308328,84.531742,OZONE,9,11,10
India,Bihar,Samastipur,"DM Office_Kasipur, Samastipur - BSPCB",21-02-2026 08:00:00,25.859655,85.77944,PM10,22,99,61
India,Bihar,Samastipur,"DM Office_Kasipur, Samastipur - BSPCB",21-02-2026 08:00:00,25.859655,85.77944,OZONE,6,9,8
India,Bihar,Patna,"DRM Office Danapur, Patna - BSPCB",21-02-2026 08:00:00,25.586562,85.043586,PM10,95,134,110
India,Bihar,Patna,"DRM Office Danapur, Patna - BSPCB",21-02-2026 08:00:00,25.586562,85.043586,NO2,47,55,51
India,Bihar,Motihari,"Gandak Colony, Motihari - BSPCB",21-02-2026 08:00:00,26.63086,84.90051,SO2,NA,NA,NA
India,Chhattisgarh,Korba,"Urja Nagar, Korba - CECB",21-02-2026 08:00:00,22.348441,82.549611,NH3,1,1,1
India,Chhattisgarh,Kunjemura,"OP Jindal School, Kunjemura - CECB",21-02-2026 08:00:00,22.126650,83.483212,NH3,2,2,2
India,Chhattisgarh,Kunjemura,"OP Jindal School, Kunjemura - CECB",21-02-2026 08:00:00,22.126650,83.483212,OZONE,1,89,1
India,Chhattisgarh,Milupara,"Govt. Higher Secondary School, Milupara - CECB",21-02-2026 08:00:00,22.1910172,83.5197009,PM10,NA,NA,NA
India,Chhattisgarh,Chhal,"Nawapara SECL Colony, Chhal - CECB",21-02-2026 08:00:00,22.118125,83.140608,SO2,1,103,26
India,Chhattisgarh,Korba,"Rampur, Korba - CECB",21-02-2026 08:00:00,22.368195,82.746431,PM2.5,NA,NA,NA
India,Chhattisgarh,Korba,"Rampur, Korba - CECB",21-02-2026 08:00:00,22.368195,82.746431,NO2,5,12,9
India,Chhattisgarh,Korba,"Rampur, Korba - CECB",21-02-2026 08:00:00,22.368195,82.746431,NH3,1,1,1
India,Chhattisgarh,Korba,"Urja Nagar, Korba - CECB",21-02-2026 08:00:00,22.348441,82.549611,PM2.5,1,431,92
India,Chhattisgarh,Bhilai,"Civic Center, Bhilai - Bhilai Steel Plant",21-02-2026 08:00:00,21.185571,81.343175,SO2,6,12,8
India,Chhattisgarh,Bhilai,"Hathkhoj, Bhilai - CECB",21-02-2026 08:00:00,21.224231,81.408350,NO2,22,69,40
India,Chhattisgarh,Bhilai,"Hathkhoj, Bhilai - CECB",21-02-2026 08:00:00,21.224231,81.408350,NH3,4,5,5
India,Chhattisgarh,Bhilai,"Hathkhoj, Bhilai - CECB",21-02-2026 08:00:00,21.224231,81.408350,SO2,11,104,51
India,Chhattisgarh,Bhilai,"Hathkhoj, Bhilai - CECB",21-02-2026 08:00:00,21.224231,81.408350,OZONE,9,31,11
India,Chhattisgarh,Bhilai,"32Bungalows, Bhilai - CECB",21-02-2026 08:00:00,21.194815,81.314770,NO2,36,53,42
India,Chhattisgarh,Bhilai,"32Bungalows, Bhilai - CECB",21-02-2026 08:00:00,21.194815,81.314770,NH3,1,2,2
India,Chhattisgarh,Bhilai,"32Bungalows, Bhilai - CECB",21-02-2026 08:00:00,21.194815,81.314770,OZONE,2,37,4
India,Chhattisgarh,Bhilai,"Civic Center, Bhilai - Bhilai Steel Plant",21-02-2026 08:00:00,21.185571,81.343175,PM2.5,23,91,53
India,Chandigarh,Chandigarh,"Sector-25, Chandigarh - CPCC",21-02-2026 08:00:00,30.751462,76.762879,NH3,9,10,9
India,Chandigarh,Chandigarh,"Sector-25, Chandigarh - CPCC",21-02-2026 08:00:00,30.751462,76.762879,SO2,3,20,8
India,Chandigarh,Chandigarh,"Sector-25, Chandigarh - CPCC",21-02-2026 08:00:00,30.751462,76.762879,CO,14,32,22
India,Chhattisgarh,Raipur,"Siltara Phase-II, Raipur - CECB",21-02-2026 08:00:00,21.371751,81.664929,PM10,67,145,108
India,Chhattisgarh,Raipur,"Siltara Phase-II, Raipur - CECB",21-02-2026 08:00:00,21.371751,81.664929,SO2,2,4,3
India,Chhattisgarh,Raipur,"AIIMS, Raipur - CECB",21-02-2026 08:00:00,21.258815,81.578979,PM10,57,139,97
India,Chhattisgarh,Raipur,"AIIMS, Raipur - CECB",21-02-2026 08:00:00,21.258815,81.578979,NO2,41,53,49
India,Chhattisgarh,Raipur,"Krishak Nagar, Raipur - CECB",21-02-2026 08:00:00,21.237755,81.705301,CO,23,43,38
India,Chandigarh,Chandigarh,"Sector 22, Chandigarh - CPCC",21-02-2026 08:00:00,30.735567,76.775714,NH3,12,21,17
India,Delhi,Delhi,"Anand Vihar, Delhi - DPCC",21-02-2026 08:00:00,28.647622,77.3158090,PM2.5,13,346,227
India,Delhi,Delhi,"Anand Vihar, Delhi - DPCC",21-02-2026 08:00:00,28.647622,77.3158090,PM10,61,428,244
India,Delhi,Delhi,"Anand Vihar, Delhi - DPCC",21-02-2026 08:00:00,28.647622,77.3158090,SO2,9,40,26
India,Delhi,Delhi,"Ashok Vihar, Delhi - DPCC",21-02-2026 08:00:00,28.695381,77.181665,PM10,102,268,159
India,Delhi,Delhi,"Ashok Vihar, Delhi - DPCC",21-02-2026 08:00:00,28.695381,77.181665,NH3,7,9,8
India,Delhi,Delhi,"Ashok Vihar, Delhi - DPCC",21-02-2026 08:00:00,28.695381,77.181665,SO2,9,29,16
India,Delhi,Delhi,"Aya Nagar, Delhi - IMD",21-02-2026 08:00:00,28.4706914,77.1099364,PM2.5,79,204,112
India,Delhi,Delhi,"Aya Nagar, Delhi - IMD",21-02-2026 08:00:00,28.4706914,77.1099364,PM10,93,175,138
India,Delhi,Delhi,"IHBAS, Dilshad Garden, Delhi - CPCB",21-02-2026 08:00:00,28.6811736,77.3025234,NO2,15,96,55
India,Delhi,Delhi,"IIT Delhi, Delhi - IITM",21-02-2026 08:00:00,28.542460,77.191651,PM2.5,84,254,141
India,Delhi,Delhi,"ITO, Delhi - CPCB",21-02-2026 08:00:00,28.628624,77.241060,NH3,2,5,4
India,Delhi,Delhi,"Jahangirpuri, Delhi - DPCC",21-02-2026 08:00:00,28.732820,77.170633,PM10,109,267,173
India,Delhi,Delhi,"Jahangirpuri, Delhi - DPCC",21-02-2026 08:00:00,28.732820,77.170633,NH3,14,38,25
India,Delhi,Delhi,"CRRI Mathura Road, Delhi - IMD",21-02-2026 08:00:00,28.5512005,77.2735737,PM2.5,75,263,161
India,Delhi,Delhi,"DTU, Delhi - CPCB",21-02-2026 08:00:00,28.7500499,77.1112615,PM2.5,58,322,189
India,Delhi,Delhi,"DTU, Delhi - CPCB",21-02-2026 08:00:00,28.7500499,77.1112615,NO2,35,71,41
India,Delhi,Delhi,"DTU, Delhi - CPCB",21-02-2026 08:00:00,28.7500499,77.1112615,NH3,7,14,12
India,Delhi,Delhi,"DTU, Delhi - CPCB",21-02-2026 08:00:00,28.7500499,77.1112615,CO,15,42,40
India,Chhattisgarh,Tumidih,"OP Jindal Industrial Park, Tumidih - CECB",21-02-2026 08:00:00,22.06631475,83.33820077,SO2,5,27,9
India,Delhi,Delhi,"Alipur, Delhi - DPCC",21-02-2026 08:00:00,28.815329,77.153010,PM2.5,67,352,189
India,Delhi,Delhi,"Dr. Karni Singh Shooting Range, Delhi - DPCC",21-02-2026 08:00:00,28.498571,77.264840,PM10,97,252,168
India,Delhi,Delhi,"Dr. Karni Singh Shooting Range, Delhi - DPCC",21-02-2026 08:00:00,28.498571,77.264840,NO2,7,112,53
India,Delhi,Delhi,"Dr. Karni Singh Shooting Range, Delhi - DPCC",21-02-2026 08:00:00,28.498571,77.264840,CO,1,92,64
India,Delhi,Delhi,"Jahangirpuri, Delhi - DPCC",21-02-2026 08:00:00,28.732820,77.170633,CO,31,102,55
India,Delhi,Delhi,"Jawaharlal Nehru Stadium, Delhi - DPCC",21-02-2026 08:00:00,28.580280,77.233829,NO2,27,119,81
India,Delhi,Delhi,"IHBAS, Dilshad Garden, Delhi - CPCB",21-02-2026 08:00:00,28.6811736,77.3025234,PM2.5,74,314,173
India,Delhi,Delhi,"Burari Crossing, Delhi - IMD",21-02-2026 08:00:00,28.7256504,77.2011573,NO2,74,190,111
India,Delhi,Delhi,"Bawana, Delhi - DPCC",21-02-2026 08:00:00,28.776200,77.051074,OZONE,3,70,4
India,Delhi,Delhi,"Lodhi Road, Delhi - IMD",21-02-2026 08:00:00,28.5918245,77.2273074,NO2,14,46,26
India,Delhi,Delhi,"Lodhi Road, Delhi - IMD",21-02-2026 08:00:00,28.5918245,77.2273074,OZONE,2,155,4
India,Delhi,Delhi,"Major Dhyan Chand National Stadium, Delhi - DPCC",21-02-2026 08:00:00,28.611281,77.237738,NH3,17,24,21
India,Delhi,Delhi,"Mandir Marg, Delhi - DPCC",21-02-2026 08:00:00,28.636429,77.201067,OZONE,5,105,6
India,Delhi,Delhi,"Mundka, Delhi - DPCC",21-02-2026 08:00:00,28.684678,77.076574,NO2,60,104,76
India,Delhi,Delhi,"Mundka, Delhi - DPCC",21-02-2026 08:00:00,28.684678,77.076574,NH3,11,13,12
India,Delhi,Delhi,"Mundka, Delhi - DPCC",21-02-2026 08:00:00,28.684678,77.076574,OZONE,5,81,5
India,Delhi,Delhi,"NSIT Dwarka, Delhi - CPCB",21-02-2026 08:00:00,28.60909,77.0325413,SO2,9,21,15
India,Delhi,Delhi,"Sri Aurobindo Marg, Delhi - DPCC",21-02-2026 08:00:00,28.531346,77.190156,OZONE,NA,NA,NA
India,Delhi,Delhi,"Vivek Vihar, Delhi - DPCC",21-02-2026 08:00:00,28.672342,77.315260,PM10,106,237,164
India,Delhi,Delhi,"Vivek Vihar, Delhi - DPCC",21-02-2026 08:00:00,28.672342,77.315260,NO2,27,92,56
India,Delhi,Delhi,"Vivek Vihar, Delhi - DPCC",21-02-2026 08:00:00,28.672342,77.315260,NH3,5,11,8
India,Delhi,Delhi,"Wazirpur, Delhi - DPCC",21-02-2026 08:00:00,28.699793,77.165453,PM10,129,300,185
India,Delhi,Delhi,"Wazirpur, Delhi - DPCC",21-02-2026 08:00:00,28.699793,77.165453,OZONE,16,20,19
India,Delhi,Delhi,"Narela, Delhi - DPCC",21-02-2026 08:00:00,28.822836,77.101981,SO2,8,54,15
India,Delhi,Delhi,"Narela, Delhi - DPCC",21-02-2026 08:00:00,28.822836,77.101981,CO,33,62,48
India,Delhi,Delhi,"Nehru Nagar, Delhi - DPCC",21-02-2026 08:00:00,28.567890,77.250515,OZONE,1,148,2
India,Delhi,Delhi,"North Campus, DU, Delhi - IMD",21-02-2026 08:00:00,28.6573814,77.1585447,PM2.5,87,308,180
India,Delhi,Delhi,"North Campus, DU, Delhi - IMD",21-02-2026 08:00:00,28.6573814,77.1585447,PM10,102,191,143
India,Delhi,Delhi,"Punjabi Bagh, Delhi - DPCC",21-02-2026 08:00:00,28.674045,77.131023,NH3,5,6,6
India,Delhi,Delhi,"Punjabi Bagh, Delhi - DPCC",21-02-2026 08:00:00,28.674045,77.131023,OZONE,4,74,10
India,Delhi,Delhi,"Pusa, Delhi - DPCC",21-02-2026 08:00:00,28.639652,77.146275,PM10,125,339,178
India,Delhi,Delhi,"R K Puram, Delhi - DPCC",21-02-2026 08:00:00,28.563262,77.186937,SO2,18,51,31
India,Delhi,Delhi,"Shadipur, Delhi - CPCB",21-02-2026 08:00:00,28.6514781,77.1473105,SO2,5,20,16
India,Delhi,Delhi,"Sirifort, Delhi - CPCB",21-02-2026 08:00:00,28.5504249,77.2159377,NH3,9,11,10
India,Delhi,Delhi,"Sirifort, Delhi - CPCB",21-02-2026 08:00:00,28.5504249,77.2159377,CO,18,78,52
India,Delhi,Delhi,"Sonia Vihar, Delhi - DPCC",21-02-2026 08:00:00,28.710508,77.249485,SO2,33,66,47
India,Gujarat,Ahmedabad,"Chandkheda, Ahmedabad - IITM",21-02-2026 08:00:00,23.107969,72.574648,OZONE,21,51,25
India,Gujarat,Ahmedabad,"Gyaspur, Ahmedabad - IITM",21-02-2026 08:00:00,22.977134,72.553024,PM2.5,71,146,107
India,Gujarat,Ahmedabad,"Gyaspur, Ahmedabad - IITM",21-02-2026 08:00:00,22.977134,72.553024,NO2,36,88,62
India,Delhi,Delhi,"Okhla Phase-2, Delhi - DPCC",21-02-2026 08:00:00,28.530785,77.271255,NO2,33,104,69
India,Delhi,Delhi,"Patparganj, Delhi - DPCC",21-02-2026 08:00:00,28.623763,77.287209,PM2.5,73,342,219
India,Delhi,Delhi,"Najafgarh, Delhi - DPCC",21-02-2026 08:00:00,28.570173,76.933762,SO2,16,83,22
India,Delhi,Delhi,"Najafgarh, Delhi - DPCC",21-02-2026 08:00:00,28.570173,76.933762,CO,4,102,21
India,Delhi,Delhi,"Shadipur, Delhi - CPCB",21-02-2026 08:00:00,28.6514781,77.1473105,PM10,80,145,114
India,Delhi,Delhi,"Shadipur, Delhi - CPCB",21-02-2026 08:00:00,28.6514781,77.1473105,NO2,57,102,78
India,Gujarat,Gandhinagar,"GIFT City, Gandhinagar - IITM",21-02-2026 08:00:00,23.163798,72.677768,PM2.5,77,146,100
India,Gujarat,Gandhinagar,"IIPHG Lekawada, Gandhinagar - IITM",21-02-2026 08:00:00,23.243639,72.68994,NO2,10,31,15
India,Gujarat,Gandhinagar,"IIPHG Lekawada, Gandhinagar - IITM",21-02-2026 08:00:00,23.243639,72.68994,NH3,4,8,5
India,Gujarat,Gandhinagar,"Sector-10, Gandhinagar - GPCB",21-02-2026 08:00:00,23.221714,72.654328,NO2,23,32,26
India,Gujarat,Mehsana,"Sadanand Nagar, Mehsana - Nexteng Enviro",21-02-2026 08:00:00,23.593150,72.372792,PM2.5,40,279,135
India,Gujarat,Mehsana,"Sadanand Nagar, Mehsana - Nexteng Enviro",21-02-2026 08:00:00,23.593150,72.372792,PM10,53,190,116
India,Gujarat,Nandesari,"GIDC, Nandesari - Nandesari Ind. Association",21-02-2026 08:00:00,22.410802,73.097923,PM2.5,141,288,187
India,Gujarat,Vapi,"Phase-1 GIDC, Vapi - GPCB",21-02-2026 08:00:00,20.362421,72.918013,SO2,17,31,21
India,Gujarat,Vatva,"Phase-4 GIDC, Vatva - GPCB",21-02-2026 08:00:00,22.969611,72.643500,SO2,18,48,33
India,Haryana,Ambala,"Patti Mehar, Ambala - HSPCB",21-02-2026 08:00:00,30.379589,76.778328,NH3,7,8,8
India,Haryana,Bahadurgarh,"Arya Nagar, Bahadurgarh - HSPCB",21-02-2026 08:00:00,28.6701,76.9254,CO,46,52,48
India,Haryana,Ballabgarh,"Nathu Colony, Ballabgarh - HSPCB",21-02-2026 08:00:00,28.3419248,77.319699,NH3,3,3,3
India,Haryana,Ballabgarh,"Nathu Colony, Ballabgarh - HSPCB",21-02-2026 08:00:00,28.3419248,77.319699,SO2,1,7,4
India,Haryana,Ballabgarh,"Nathu Colony, Ballabgarh - HSPCB",21-02-2026 08:00:00,28.3419248,77.319699,CO,16,65,33
India,Gujarat,Ahmedabad,"SAC ISRO Bopal, Ahmedabad - IITM",21-02-2026 08:00:00,23.041137,72.456691,NH3,10,15,12
India,Gujarat,Ahmedabad,"SAC ISRO Bopal, Ahmedabad - IITM",21-02-2026 08:00:00,23.041137,72.456691,CO,11,22,13
India,Gujarat,Ahmedabad,"SAC ISRO Satellite, Ahmedabad - IITM",21-02-2026 08:00:00,23.023389,72.515201,CO,40,86,52
India,Gujarat,Ankleshwar,"GIDC, Ankleshwar - GPCB",21-02-2026 08:00:00,21.613267,73.010555,PM2.5,69,116,86
India,Gujarat,Ankleshwar,"GIDC, Ankleshwar - GPCB",21-02-2026 08:00:00,21.613267,73.010555,NH3,6,7,7
India,Gujarat,Bhavnagar,"Vidhyanagar, Bhavnagar - Nexteng Enviro",21-02-2026 08:00:00,21.755417,72.139056,NH3,3,8,5
India,Gujarat,Bhavnagar,"Vidhyanagar, Bhavnagar - Nexteng Enviro",21-02-2026 08:00:00,21.755417,72.139056,CO,121,125,122
India,Haryana,Faridabad,"Sector 30, Faridabad - HSPCB",21-02-2026 08:00:00,28.4417,77.3217,PM10,83,120,106
India,Haryana,Faridabad,"Sector 30, Faridabad - HSPCB",21-02-2026 08:00:00,28.4417,77.3217,NO2,36,39,37
India,Haryana,Faridabad,"Sector 30, Faridabad - HSPCB",21-02-2026 08:00:00,28.4417,77.3217,SO2,6,6,6
India,Haryana,Fatehabad,"Huda Sector, Fatehabad - HSPCB",21-02-2026 08:00:00,29.503664,75.467934,NH3,13,15,14
India,Haryana,Fatehabad,"Huda Sector, Fatehabad - HSPCB",21-02-2026 08:00:00,29.503664,75.467934,CO,26,35,29
India,Haryana,Gurugram,"NISE Gwal Pahari, Gurugram - IMD",21-02-2026 08:00:00,28.422681,77.148944,PM2.5,69,251,153
India,Haryana,Bhiwani,"H.B. Colony, Bhiwani - HSPCB",21-02-2026 08:00:00,28.806223,76.141105,SO2,1,10,4
India,Haryana,Bhiwani,"H.B. Colony, Bhiwani - HSPCB",21-02-2026 08:00:00,28.806223,76.141105,OZONE,10,19,15
India,Haryana,Charkhi Dadri,"Mini Secretariat, Charkhi Dadri - HSPCB",21-02-2026 08:00:00,28.593883,76.270653,NH3,5,8,6
India,Haryana,Faridabad,"New Industrial Town, Faridabad - HSPCB",21-02-2026 08:00:00,28.39072,77.30059,PM10,129,137,134
India,Haryana,Faridabad,"New Industrial Town, Faridabad - HSPCB",21-02-2026 08:00:00,28.39072,77.30059,SO2,8,8,8
India,Gujarat,Rajkot,"Mavdi, Rajkot - Nexteng Enviro ",21-02-2026 08:00:00,22.248853,70.776774,SO2,10,31,21
India,Gujarat,Surat,"Katargam, Surat - Nexteng Enviro",21-02-2026 08:00:00,21.217779 ,72.834787 ,NO2,17,50,32
India,Gujarat,Surat,"Science Center, Surat - SMC",21-02-2026 08:00:00,21.170046,72.795405,PM10,126,211,156
India,Haryana,Gurugram,"Teri Gram, Gurugram - HSPCB",21-02-2026 08:00:00,28.4275,77.1465,SO2,9,24,17
India,Haryana,Gurugram,"Vikas Sadan, Gurugram - HSPCB",21-02-2026 08:00:00,28.4501238,77.0263051,PM2.5,154,312,228
India,Haryana,Gurugram,"Vikas Sadan, Gurugram - HSPCB",21-02-2026 08:00:00,28.4501238,77.0263051,CO,60,115,97
India,Gujarat,Ahmedabad,"Maninagar, Ahmedabad - GPCB",21-02-2026 08:00:00,23.002657,72.591912,CO,18,26,21
India,Gujarat,Ahmedabad,"Rakhial, Ahmedabad - IITM",21-02-2026 08:00:00,23.016834,72.625775,NH3,7,12,9
India,Haryana,Gurugram,"Sector-51, Gurugram - HSPCB",21-02-2026 08:00:00,28.4227,77.0667,CO,20,60,45
India,Himachal Pradesh,Baddi,"HIMUDA Complex Phase-1, Baddi - HPPCB",21-02-2026 08:00:00,30.943887,76.801991,OZONE,13,127,28
India,Jammu_and_Kashmir,Pampore,"Khrew, Pampore - JKPCC",21-02-2026 08:00:00,34.031606,75.009712,SO2,2,3,2
India,Jammu_and_Kashmir,Srinagar,"Khunmoh, Srinagar - JKPCC",21-02-2026 08:00:00,34.06313,74.96017,NO2,8,56,22
India,Jammu_and_Kashmir,Srinagar,"Khunmoh, Srinagar - JKPCC",21-02-2026 08:00:00,34.06313,74.96017,SO2,2,4,3
India,Jammu_and_Kashmir,Srinagar,"Rajbagh, Srinagar - JKPCC",21-02-2026 08:00:00,34.066206,74.819820,PM10,NA,NA,NA
India,Jharkhand,Dhanbad,"Sardar Patel Nagar, Dhanbad - JSPCB",21-02-2026 08:00:00,23.80569,86.44268,OZONE,1,24,3
India,Karnataka,Bagalkot,"Vidayagiri, Bagalkot - KSPCB",21-02-2026 08:00:00,16.172806,75.659694,NH3,1,2,1
India,Karnataka,Bagalkot,"Vidayagiri, Bagalkot - KSPCB",21-02-2026 08:00:00,16.172806,75.659694,CO,6,43,22
India,Haryana,Hisar,"Urban Estate-II, Hisar - HSPCB",21-02-2026 08:00:00,29.140560,75.744941,SO2,6,15,10
India,Haryana,Hisar,"Urban Estate-II, Hisar - HSPCB",21-02-2026 08:00:00,29.140560,75.744941,CO,28,55,30
India,Haryana,Hisar,"Urban Estate-II, Hisar - HSPCB",21-02-2026 08:00:00,29.140560,75.744941,OZONE,14,110,32
India,Haryana,Jind,"Police Lines, Jind - HSPCB",21-02-2026 08:00:00,29.307814,76.337619,NO2,38,52,45
India,Haryana,Jind,"Police Lines, Jind - HSPCB",21-02-2026 08:00:00,29.307814,76.337619,NH3,2,3,2
India,Haryana,Jind,"Police Lines, Jind - HSPCB",21-02-2026 08:00:00,29.307814,76.337619,SO2,2,8,4
India,Haryana,Kaithal,"Rishi Nagar, Kaithal - HSPCB",21-02-2026 08:00:00,29.8006,76.4155,PM10,67,123,91
India,Haryana,Kaithal,"Rishi Nagar, Kaithal - HSPCB",21-02-2026 08:00:00,29.8006,76.4155,NO2,22,33,31
India,Haryana,Kaithal,"Rishi Nagar, Kaithal - HSPCB",21-02-2026 08:00:00,29.8006,76.4155,CO,14,66,31
India,Haryana,Panchkula,"Sector-6, Panchkula - HSPCB ",21-02-2026 08:00:00,30.7057778,76.8531805555555,OZONE,1,10,4
India,Haryana,Rohtak,"MD University, Rohtak - HSPCB",21-02-2026 08:00:00,28.52123,76.37138,PM10,30,76,56
India,Haryana,Rohtak,"MD University, Rohtak - HSPCB",21-02-2026 08:00:00,28.52123,76.37138,NO2,11,13,12
India,Haryana,Rohtak,"MD University, Rohtak - HSPCB",21-02-2026 08:00:00,28.52123,76.37138,CO,30,39,35
India,Haryana,Palwal,"Shyam Nagar, Palwal - HSPCB",21-02-2026 08:00:00,28.1485564,77.3320667,PM10,33,101,74
India,Haryana,Palwal,"Shyam Nagar, Palwal - HSPCB",21-02-2026 08:00:00,28.1485564,77.3320667,NH3,9,9,9
India,Haryana,Panchgaon,"Amity University, Panchgaon - IITM",21-02-2026 08:00:00,28.3153,76.9143,PM2.5,64,271,107
India,Haryana,Sirsa,"F-Block, Sirsa - HSPCB",21-02-2026 08:00:00,29.536400,75.015800,CO,34,92,71
India,Haryana,Sonipat,"Murthal, Sonipat - HSPCB",21-02-2026 08:00:00,29.027200,77.062100,PM10,53,113,85
India,Haryana,Sonipat,"Murthal, Sonipat - HSPCB",21-02-2026 08:00:00,29.027200,77.062100,NH3,11,11,11
India,Karnataka,Bengaluru,"BWSSB Kadabesanahalli, Bengaluru - CPCB",21-02-2026 08:00:00,12.9352049,77.6814488,SO2,3,7,5
India,Haryana,Mandikhera,"General Hospital, Mandikhera(Nuh) - HSPCB",21-02-2026 08:00:00,27.9002,76.9938,NH3,13,14,13
India,Haryana,Narnaul,"Shastri Nagar, Narnaul - HSPCB",21-02-2026 08:00:00,28.060249,76.113115,OZONE,NA,NA,NA
India,Haryana,Karnal,"Sector-12, Karnal - HSPCB",21-02-2026 08:00:00,29.695300,77.002700,OZONE,14,31,26
India,Karnataka,Bengaluru,"Bapuji Nagar, Bengaluru - KSPCB",21-02-2026 08:00:00,12.951913,77.539784,NH3,5,7,6
India,Karnataka,Bengaluru,"City Railway Station, Bengaluru - KSPCB",21-02-2026 08:00:00,12.9756843,77.5660749,PM10,106,109,107
India,Karnataka,Bengaluru,"City Railway Station, Bengaluru - KSPCB",21-02-2026 08:00:00,12.9756843,77.5660749,NO2,33,39,36
