country,state,city,station,last_update,latitude,longitude,pollutant_id,min_value,max_value,avg_value
India,Bihar,Bhagalpur,"DM Office_Kachari Chowk, Bhagalpur - BSPCB",10-09-2025 07:00:00,25.251013,86.989001,CO,14,17,16
India,Bihar,Bhagalpur,"Mayaganj, Bhagalpur - BSPCB",10-09-2025 07:00:00,25.265194,87.012947,PM2.5,12,25,18
India,Bihar,Bihar Sharif,"D M Colony, Bihar Sharif - BSPCB",10-09-2025 07:00:00,25.204762,85.514960,NO2,9,10,10
India,Bihar,Bihar Sharif,"D M Colony, Bihar Sharif - BSPCB",10-09-2025 07:00:00,25.204762,85.514960,CO,1,22,7
India,Bihar,Buxar,"Charitra Van, Buxar - BSPCB",10-09-2025 07:00:00,25.567520,83.966379,SO2,1,11,6
India,Bihar,Buxar,"Charitra Van, Buxar - BSPCB",10-09-2025 07:00:00,25.567520,83.966379,OZONE,1,71,1
India,Bihar,Chhapra,"Darshan Nagar, Chhapra - BSPCB",10-09-2025 07:00:00,25.7808257,84.7446768,CO,3,8,5
India,Bihar,Gaya,"Collectorate, Gaya - BSPCB",10-09-2025 07:00:00,24.7955,84.9994,PM2.5,25,144,87
India,Bihar,Gaya,"Collectorate, Gaya - BSPCB",10-09-2025 07:00:00,24.7955,84.9994,CO,8,72,26
India,Bihar,Gaya,"Collectorate, Gaya - BSPCB",10-09-2025 07:00:00,24.7955,84.9994,OZONE,20,21,20
India,Bihar,Muzaffarpur,"MIT-Daudpur Kothi, Muzaffarpur - BSPCB",10-09-2025 07:00:00,26.1403345,85.3650192,OZONE,31,59,34
India,Bihar,Muzaffarpur,"Muzaffarpur Collectorate, Muzaffarpur - BSPCB",10-09-2025 07:00:00,26.1209,85.3647,PM2.5,30,63,42
India,Bihar,Muzaffarpur,"Muzaffarpur Collectorate, Muzaffarpur - BSPCB",10-09-2025 07:00:00,26.1209,85.3647,SO2,4,6,6
India,Bihar,Patna,"DRM Office Danapur, Patna - BSPCB",10-09-2025 07:00:00,25.586562,85.043586,PM2.5,13,82,50
India,Bihar,Patna,"DRM Office Danapur, Patna - BSPCB",10-09-2025 07:00:00,25.586562,85.043586,SO2,7,11,9
India,Bihar,Patna,"IGSC Planetarium Complex, Patna - BSPCB",10-09-2025 07:00:00,25.610369,85.132568,SO2,1,28,22
India,Bihar,Patna,"Muradpur, Patna - BSPCB",10-09-2025 07:00:00,25.619651,85.147382,NH3,4,5,4
India,Bihar,Patna,"Muradpur, Patna - BSPCB",10-09-2025 07:00:00,25.619651,85.147382,OZONE,6,68,24
India,Bihar,Gaya,"SFTI Kusdihra, Gaya - BSPCB",10-09-2025 07:00:00,24.762518,84.982348,PM10,27,48,35
India,Bihar,Gaya,"SFTI Kusdihra, Gaya - BSPCB",10-09-2025 07:00:00,24.762518,84.982348,NO2,17,20,18
India,Bihar,Hajipur,"Industrial Area, Hajipur - BSPCB",10-09-2025 07:00:00,25.697189,85.245900,NH3,5,9,7
India,Bihar,Hajipur,"Industrial Area, Hajipur - BSPCB",10-09-2025 07:00:00,25.697189,85.245900,OZONE,9,301,24
India,Bihar,Katihar,"Mirchaibari, Katihar - BSPCB",10-09-2025 07:00:00,25.560083,87.553265,NH3,1,1,1
India,Bihar,Katihar,"Mirchaibari, Katihar - BSPCB",10-09-2025 07:00:00,25.560083,87.553265,CO,76,99,88
India,Bihar,Kishanganj,"SDM Office_Khagra, Kishanganj - BSPCB",10-09-2025 07:00:00,26.0881305,87.93840336,PM2.5,40,253,126
India,Bihar,Kishanganj,"SDM Office_Khagra, Kishanganj - BSPCB",10-09-2025 07:00:00,26.0881305,87.93840336,NH3,3,3,3
India,Bihar,Motihari,"Gandak Colony, Motihari - BSPCB",10-09-2025 07:00:00,26.63086,84.90051,OZONE,2,4,2
India,Bihar,Munger,"Town Hall, Munger - BSPCB",10-09-2025 07:00:00,25.376776,86.471523,NO2,4,5,5
India,Bihar,Munger,"Town Hall, Munger - BSPCB",10-09-2025 07:00:00,25.376776,86.471523,SO2,14,19,17
India,Bihar,Muzaffarpur,"Buddha Colony, Muzaffarpur - BSPCB",10-09-2025 07:00:00,26.11442,85.39813,NO2,5,18,11
India,Bihar,Muzaffarpur,"MIT-Daudpur Kothi, Muzaffarpur - BSPCB",10-09-2025 07:00:00,26.1403345,85.3650192,PM2.5,30,53,43
India,Bihar,Muzaffarpur,"MIT-Daudpur Kothi, Muzaffarpur - BSPCB",10-09-2025 07:00:00,26.1403345,85.3650192,NO2,7,14,9
India,Bihar,Muzaffarpur,"MIT-Daudpur Kothi, Muzaffarpur - BSPCB",10-09-2025 07:00:00,26.1403345,85.3650192,NH3,1,3,2
India,Bihar,Muzaffarpur,"MIT-Daudpur Kothi, Muzaffarpur - BSPCB",10-09-2025 07:00:00,26.1403345,85.3650192,SO2,10,15,12
India,Arunachal_Pradesh,Naharlagun,"Naharlagun, Naharlagun - APSPCB",10-09-2025 07:00:00,27.103358,93.679645,CO,4,27,11
India,Assam,Byrnihat,"Central Academy for SFS, Byrnihat - PCBA",10-09-2025 07:00:00,26.071318,91.87488,OZONE,NA,NA,NA
India,Assam,Guwahati,"LGBI Airport, Guwahati - PCBA",10-09-2025 07:00:00,26.10887,91.589544,NO2,14,24,15
India,Assam,Guwahati,"LGBI Airport, Guwahati - PCBA",10-09-2025 07:00:00,26.10887,91.589544,SO2,3,11,10
India,Assam,Guwahati,"Railway Colony, Guwahati - PCBA",10-09-2025 07:00:00,26.181742,91.78063,NH3,1,1,1
India,Assam,Guwahati,"Railway Colony, Guwahati - PCBA",10-09-2025 07:00:00,26.181742,91.78063,SO2,27,28,27
India,Andhra_Pradesh,Tirupati,"Vaikuntapuram, Tirupati - APPCB",10-09-2025 07:00:00,13.615387,79.409230,PM10,63,94,72
India,Andhra_Pradesh,Vijayawada,"Rajiv Gandhi Park, Vijayawada - APPCB",10-09-2025 07:00:00,16.509717,80.612222,OZONE,25,46,30
India,Andhra_Pradesh,Vijayawada,"Rajiv Nagar, Vijayawada - APPCB",10-09-2025 07:00:00,16.554731,80.649110,PM10,39,48,43
India,Andhra_Pradesh,Vijayawada,"Rajiv Nagar, Vijayawada - APPCB",10-09-2025 07:00:00,16.554731,80.649110,CO,19,34,25
India,Andhra_Pradesh,Visakhapatnam,"GVM Corporation, Visakhapatnam - APPCB",10-09-2025 07:00:00,17.72,83.3,NO2,8,70,34
India,Assam,Nagaon,"Christianpatty, Nagaon - PCBA",10-09-2025 07:00:00,26.349082,92.68449,NH3,2,4,4
India,Assam,Nalbari,"Bata Chowk, Nalbari - PCBA",10-09-2025 07:00:00,26.446912,91.439057,PM10,23,365,100
India,Assam,Silchar,"Tarapur, Silchar - PCBA",10-09-2025 07:00:00,24.82827,92.79525,NO2,14,15,14
India,Assam,Silchar,"Tarapur, Silchar - PCBA",10-09-2025 07:00:00,24.82827,92.79525,NH3,1,1,1
India,Assam,Sivasagar,"Girls College, Sivasagar - PCBA",10-09-2025 07:00:00,26.987634,94.636574,NH3,3,5,4
India,Bihar,Arrah,"New DM Office, Arrah - BSPCB",10-09-2025 07:00:00,25.5626095,84.663264,PM2.5,28,30,29
India,Bihar,Arrah,"New DM Office, Arrah - BSPCB",10-09-2025 07:00:00,25.5626095,84.663264,PM10,27,28,28
India,Bihar,Arrah,"New DM Office, Arrah - BSPCB",10-09-2025 07:00:00,25.5626095,84.663264,OZONE,7,9,8
India,Bihar,Aurangabad,"Gurdeo Nagar, Aurangabad - BSPCB",10-09-2025 07:00:00,24.75746,84.366208,PM10,43,446,160
India,Bihar,Bettiah,"Kamalnath Nagar, Bettiah - BSPCB",10-09-2025 07:00:00,26.80365,84.51954,CO,42,101,51
India,Andhra_Pradesh,Anantapur,"Gulzarpet, Anantapur - APPCB",10-09-2025 07:00:00,14.675886,77.593027,SO2,10,20,13
India,Andhra_Pradesh,Anantapur,"Gulzarpet, Anantapur - APPCB",10-09-2025 07:00:00,14.675886,77.593027,OZONE,10,24,12
India,Andhra_Pradesh,Kadapa,"Yerramukkapalli, Kadapa - APPCB",10-09-2025 07:00:00,14.465052,78.824187,SO2,19,22,21
India,Andhra_Pradesh,Amaravati,"Secretariat, Amaravati - APPCB",10-09-2025 07:00:00,16.5150833,80.5181667,NO2,10,36,18
India,Andhra_Pradesh,Amaravati,"Secretariat, Amaravati - APPCB",10-09-2025 07:00:00,16.5150833,80.5181667,CO,8,24,17
India,Chhattisgarh,Chhal,"Nawapara SECL Colony, Chhal - CECB",10-09-2025 07:00:00,22.118125,83.140608,PM2.5,19,152,67
India,Chhattisgarh,Chhal,"Nawapara SECL Colony, Chhal - CECB",10-09-2025 07:00:00,22.118125,83.140608,PM10,21,121,65
India,Chhattisgarh,Korba,"Rampur, Korba - CECB",10-09-2025 07:00:00,22.368195,82.746431,PM2.5,25,39,26
India,Chhattisgarh,Korba,"Rampur, Korba - CECB",10-09-2025 07:00:00,22.368195,82.746431,SO2,6,17,9
India,Chhattisgarh,Kunjemura,"OP Jindal School, Kunjemura - CECB",10-09-2025 07:00:00,22.126650,83.483212,OZONE,4,8,7
India,Chhattisgarh,Milupara,"Govt. Higher Secondary School, Milupara - CECB",10-09-2025 07:00:00,22.1910172,83.5197009,OZONE,46,100,46
India,Chhattisgarh,Raipur,"AIIMS, Raipur - CECB",10-09-2025 07:00:00,21.258815,81.578979,PM2.5,11,88,52
India,Bihar,Patna,"Samanpura, Patna - BSPCB",10-09-2025 07:00:00,25.596727,85.085624,SO2,1,1,1
India,Bihar,Purnia,"Mariam Nagar, Purnia - BSPCB",10-09-2025 07:00:00,25.366336,87.117468,PM2.5,NA,NA,NA
India,Bihar,Purnia,"Mariam Nagar, Purnia - BSPCB",10-09-2025 07:00:00,25.366336,87.117468,PM10,NA,NA,NA
India,Bihar,Purnia,"Mariam Nagar, Purnia - BSPCB",10-09-2025 07:00:00,25.366336,87.117468,NH3,3,3,3
India,Bihar,Purnia,"Mariam Nagar, Purnia - BSPCB",10-09-2025 07:00:00,25.366336,87.117468,SO2,NA,NA,NA
India,Bihar,Rajgir,"Dangi Tola, Rajgir - BSPCB",10-09-2025 07:00:00,25.03280,85.41948,PM2.5,20,58,36
India,Bihar,Rajgir,"Dangi Tola, Rajgir - BSPCB",10-09-2025 07:00:00,25.03280,85.41948,PM10,28,84,51
India,Bihar,Rajgir,"Dangi Tola, Rajgir - BSPCB",10-09-2025 07:00:00,25.03280,85.41948,SO2,18,23,21
India,Bihar,Rajgir,"Dangi Tola, Rajgir - BSPCB",10-09-2025 07:00:00,25.03280,85.41948,OZONE,26,38,32
India,Chandigarh,Chandigarh,"Sector-53, Chandigarh - CPCC",10-09-2025 07:00:00,30.719859,76.738637,SO2,9,19,14
India,Chandigarh,Chandigarh,"Sector-53, Chandigarh - CPCC",10-09-2025 07:00:00,30.719859,76.738637,CO,20,60,48
India,Chandigarh,Chandigarh,"Sector-53, Chandigarh - CPCC",10-09-2025 07:00:00,30.719859,76.738637,OZONE,5,22,8
India,Chhattisgarh,Bhilai,"32Bungalows, Bhilai - CECB",10-09-2025 07:00:00,21.194815,81.314770,PM2.5,7,66,29
India,Chhattisgarh,Bhilai,"Civic Center, Bhilai - Bhilai Steel Plant",10-09-2025 07:00:00,21.185571,81.343175,PM2.5,17,82,40
India,Chhattisgarh,Bhilai,"Hathkhoj, Bhilai - CECB",10-09-2025 07:00:00,21.224231,81.408350,NH3,3,4,3
India,Delhi,Delhi,"Anand Vihar, Delhi - DPCC",10-09-2025 07:00:00,28.647622,77.3158090,PM2.5,27,123,70
India,Delhi,Delhi,"Anand Vihar, Delhi - DPCC",10-09-2025 07:00:00,28.647622,77.3158090,NH3,2,5,4
India,Delhi,Delhi,"Anand Vihar, Delhi - DPCC",10-09-2025 07:00:00,28.647622,77.3158090,SO2,24,55,43
India,Delhi,Delhi,"Ashok Vihar, Delhi - DPCC",10-09-2025 07:00:00,28.695381,77.181665,NO2,12,43,20
India,Delhi,Delhi,"Aya Nagar, Delhi - IMD",10-09-2025 07:00:00,28.4706914,77.1099364,PM10,29,92,51
India,Delhi,Delhi,"Aya Nagar, Delhi - IMD",10-09-2025 07:00:00,28.4706914,77.1099364,CO,20,28,26
India,Delhi,Delhi,"Aya Nagar, Delhi - IMD",10-09-2025 07:00:00,28.4706914,77.1099364,OZONE,18,60,23
India,Bihar,Samastipur,"DM Office_Kasipur, Samastipur - BSPCB",10-09-2025 07:00:00,25.859655,85.77944,PM2.5,NA,NA,NA
India,Bihar,Siwan,"Chitragupta Nagar, Siwan - BSPCB",10-09-2025 07:00:00,26.2271665,84.3570427,NO2,1,1,1
India,Bihar,Siwan,"Chitragupta Nagar, Siwan - BSPCB",10-09-2025 07:00:00,26.2271665,84.3570427,OZONE,11,15,12
India,Chandigarh,Chandigarh,"Sector 22, Chandigarh - CPCC",10-09-2025 07:00:00,30.735567,76.775714,NO2,8,41,19
India,Delhi,Delhi,"Burari Crossing, Delhi - IMD",10-09-2025 07:00:00,28.7256504,77.2011573,NO2,20,54,30
India,Delhi,Delhi,"CRRI Mathura Road, Delhi - IMD",10-09-2025 07:00:00,28.5512005,77.2735737,PM2.5,16,67,39
India,Delhi,Delhi,"DTU, Delhi - CPCB",10-09-2025 07:00:00,28.7500499,77.1112615,PM10,45,90,67
India,Delhi,Delhi,"Dr. Karni Singh Shooting Range, Delhi - DPCC",10-09-2025 07:00:00,28.498571,77.264840,OZONE,7,50,13
India,Chhattisgarh,Raipur,"Bhatagaon New ISBT, Raipur - CECB",10-09-2025 07:00:00,21.219665,81.630094,OZONE,4,25,7
India,Chhattisgarh,Raipur,"Krishak Nagar, Raipur - CECB",10-09-2025 07:00:00,21.237755,81.705301,SO2,4,9,6
India,Chhattisgarh,Raipur,"Krishak Nagar, Raipur - CECB",10-09-2025 07:00:00,21.237755,81.705301,CO,9,20,19
India,Chhattisgarh,Raipur,"Siltara Phase-II, Raipur - CECB",10-09-2025 07:00:00,21.371751,81.664929,PM2.5,32,80,54
India,Chhattisgarh,Raipur,"Siltara Phase-II, Raipur - CECB",10-09-2025 07:00:00,21.371751,81.664929,NH3,3,3,3
India,Delhi,Delhi,"IHBAS, Dilshad Garden, Delhi - CPCB",10-09-2025 07:00:00,28.6811736,77.3025234,SO2,14,22,16
India,Delhi,Delhi,"IHBAS, Dilshad Garden, Delhi - CPCB",10-09-2025 07:00:00,28.6811736,77.3025234,OZONE,14,25,22
India,Delhi,Delhi,"ITO, Delhi - CPCB",10-09-2025 07:00:00,28.628624,77.241060,NH3,4,5,5
India,Delhi,Delhi,"Jahangirpuri, Delhi - DPCC",10-09-2025 07:00:00,28.732820,77.170633,PM2.5,67,223,144
India,Delhi,Delhi,"Jahangirpuri, Delhi - DPCC",10-09-2025 07:00:00,28.732820,77.170633,NH3,6,6,6
India,Delhi,Delhi,"Jawaharlal Nehru Stadium, Delhi - DPCC",10-09-2025 07:00:00,28.580280,77.233829,NH3,4,5,5
India,Delhi,Delhi,"Jawaharlal Nehru Stadium, Delhi - DPCC",10-09-2025 07:00:00,28.580280,77.233829,CO,18,38,26
India,Delhi,Delhi,"Jawaharlal Nehru Stadium, Delhi - DPCC",10-09-2025 07:00:00,28.580280,77.233829,OZONE,3,24,9
India,Delhi,Delhi,"North Campus, DU, Delhi - IMD",10-09-2025 07:00:00,28.6573814,77.1585447,PM2.5,20,99,43
India,Delhi,Delhi,"North Campus, DU, Delhi - IMD",10-09-2025 07:00:00,28.6573814,77.1585447,PM10,37,106,67
India,Delhi,Delhi,"North Campus, DU, Delhi - IMD",10-09-2025 07:00:00,28.6573814,77.1585447,NO2,3,15,7
India,Delhi,Delhi,"North Campus, DU, Delhi - IMD",10-09-2025 07:00:00,28.6573814,77.1585447,CO,12,34,21
India,Delhi,Delhi,"Okhla Phase-2, Delhi - DPCC",10-09-2025 07:00:00,28.530785,77.271255,NO2,21,47,32
India,Delhi,Delhi,"Patparganj, Delhi - DPCC",10-09-2025 07:00:00,28.623763,77.287209,OZONE,11,49,21
India,Delhi,Delhi,"Punjabi Bagh, Delhi - DPCC",10-09-2025 07:00:00,28.674045,77.131023,SO2,8,10,9
India,Delhi,Delhi,"Punjabi Bagh, Delhi - DPCC",10-09-2025 07:00:00,28.674045,77.131023,OZONE,6,44,20
India,Delhi,Delhi,"Pusa, Delhi - DPCC",10-09-2025 07:00:00,28.639652,77.146275,PM2.5,22,57,42
India,Delhi,Delhi,"Pusa, Delhi - DPCC",10-09-2025 07:00:00,28.639652,77.146275,SO2,7,8,7
India,Delhi,Delhi,"Pusa, Delhi - DPCC",10-09-2025 07:00:00,28.639652,77.146275,OZONE,6,25,10
India,Delhi,Delhi,"Pusa, Delhi - IMD",10-09-2025 07:00:00,28.636110,77.173332,NO2,2,7,5
India,Delhi,Delhi,"Pusa, Delhi - IMD",10-09-2025 07:00:00,28.636110,77.173332,CO,91,98,94
India,Delhi,Delhi,"R K Puram, Delhi - DPCC",10-09-2025 07:00:00,28.563262,77.186937,PM2.5,4,72,36
India,Delhi,Delhi,"R K Puram, Delhi - DPCC",10-09-2025 07:00:00,28.563262,77.186937,NO2,11,38,24
India,Delhi,Delhi,"R K Puram, Delhi - DPCC",10-09-2025 07:00:00,28.563262,77.186937,SO2,1,10,4
India,Delhi,Delhi,"R K Puram, Delhi - DPCC",10-09-2025 07:00:00,28.563262,77.186937,CO,21,50,27
India,Delhi,Delhi,"Rohini, Delhi - DPCC",10-09-2025 07:00:00,28.732528,77.119920,CO,6,13,11
India,Delhi,Delhi,"Rohini, Delhi - DPCC",10-09-2025 07:00:00,28.732528,77.119920,OZONE,30,170,46
India,Gujarat,Vapi,"Phase-1 GIDC, Vapi - GPCB",10-09-2025 07:00:00,20.362421,72.918013,SO2,44,53,46
India,Gujarat,Vapi,"Phase-1 GIDC, Vapi - GPCB",10-09-2025 07:00:00,20.362421,72.918013,OZONE,2,2,2
India,Haryana,Gurugram,"NISE Gwal Pahari, Gurugram - IMD",10-09-2025 07:00:00,28.422681,77.148944,NO2,2,8,5
India,Himachal Pradesh,Baddi,"HIMUDA Complex Phase-1, Baddi - HPPCB",10-09-2025 07:00:00,30.943887,76.801991,NH3,6,11,7
India,Himachal Pradesh,Baddi,"HIMUDA Complex Phase-1, Baddi - HPPCB",10-09-2025 07:00:00,30.943887,76.801991,SO2,19,111,56
India,Himachal Pradesh,Baddi,"HIMUDA Complex Phase-1, Baddi - HPPCB",10-09-2025 07:00:00,30.943887,76.801991,OZONE,5,68,8
India,Delhi,Delhi,"Vivek Vihar, Delhi - DPCC",10-09-2025 07:00:00,28.672342,77.315260,PM2.5,23,48,36
India,Delhi,Delhi,"Vivek Vihar, Delhi - DPCC",10-09-2025 07:00:00,28.672342,77.315260,CO,4,79,32
India,Gujarat,Ahmedabad,"Chandkheda, Ahmedabad - IITM",10-09-2025 07:00:00,23.107969,72.574648,PM2.5,4,56,30
India,Gujarat,Ahmedabad,"Chandkheda, Ahmedabad - IITM",10-09-2025 07:00:00,23.107969,72.574648,SO2,2,16,11
India,Gujarat,Ahmedabad,"Chandkheda, Ahmedabad - IITM",10-09-2025 07:00:00,23.107969,72.574648,OZONE,NA,NA,NA
India,Gujarat,Ahmedabad,"Gyaspur, Ahmedabad - IITM",10-09-2025 07:00:00,22.977134,72.553024,PM2.5,7,34,19
India,Gujarat,Ahmedabad,"Gyaspur, Ahmedabad - IITM",10-09-2025 07:00:00,22.977134,72.553024,NO2,67,149,105
India,Jharkhand,Dhanbad,"Sardar Patel Nagar, Dhanbad - JSPCB",10-09-2025 07:00:00,23.80569,86.44268,SO2,14,107,75
India,Karnataka,Bagalkot,"Vidayagiri, Bagalkot - KSPCB",10-09-2025 07:00:00,16.172806,75.659694,PM10,42,43,42
India,Karnataka,Bagalkot,"Vidayagiri, Bagalkot - KSPCB",10-09-2025 07:00:00,16.172806,75.659694,SO2,7,7,7
India,Karnataka,Bengaluru,"Bapuji Nagar, Bengaluru - KSPCB",10-09-2025 07:00:00,12.951913,77.539784,PM10,52,148,83
India,Karnataka,Bengaluru,"City Railway Station, Bengaluru - KSPCB",10-09-2025 07:00:00,12.9756843,77.5660749,SO2,6,16,10
India,Delhi,Delhi,"Shadipur, Delhi - CPCB",10-09-2025 07:00:00,28.6514781,77.1473105,NO2,52,102,71
India,Delhi,Delhi,"Shadipur, Delhi - CPCB",10-09-2025 07:00:00,28.6514781,77.1473105,SO2,5,15,12
India,Delhi,Delhi,"Sonia Vihar, Delhi - DPCC",10-09-2025 07:00:00,28.710508,77.249485,PM2.5,10,63,33
India,Delhi,Delhi,"Sri Aurobindo Marg, Delhi - DPCC",10-09-2025 07:00:00,28.531346,77.190156,NO2,3,30,15
India,Delhi,Delhi,"Sri Aurobindo Marg, Delhi - DPCC",10-09-2025 07:00:00,28.531346,77.190156,SO2,10,16,13
India,Delhi,Delhi,"Sri Aurobindo Marg, Delhi - DPCC",10-09-2025 07:00:00,28.531346,77.190156,CO,24,40,37
India,Gujarat,Ahmedabad,"Raikhad, Ahmedabad - IITM",10-09-2025 07:00:00,23.020509,72.579261,CO,12,33,21
India,Gujarat,Ahmedabad,"SAC ISRO Bopal, Ahmedabad - IITM",10-09-2025 07:00:00,23.041137,72.456691,OZONE,2,35,7
India,Gujarat,Ahmedabad,"SVPI Airport Hansol, Ahmedabad - IITM",10-09-2025 07:00:00,23.076793,72.627874,NO2,10,32,19
India,Gujarat,Ahmedabad,"SVPI Airport Hansol, Ahmedabad - IITM",10-09-2025 07:00:00,23.076793,72.627874,SO2,5,17,10
India,Gujarat,Ankleshwar,"GIDC, Ankleshwar - GPCB",10-09-2025 07:00:00,21.613267,73.010555,SO2,74,75,75
India,Gujarat,Gandhinagar,"GIFT City, Gandhinagar - IITM",10-09-2025 07:00:00,23.163798,72.677768,SO2,1,12,7
India,Gujarat,Nandesari,"GIDC, Nandesari - Nandesari Ind. Association",10-09-2025 07:00:00,22.410802,73.097923,PM2.5,NA,NA,NA
India,Delhi,Delhi,"Mundka, Delhi - DPCC",10-09-2025 07:00:00,28.684678,77.076574,PM10,53,211,96
India,Delhi,Delhi,"Narela, Delhi - DPCC",10-09-2025 07:00:00,28.822836,77.101981,CO,28,49,43
India,Madhya Pradesh,Gwalior,"City Center, Gwalior - MPPCB",10-09-2025 07:00:00,26.203442,78.193251,NO2,8,8,8
India,Madhya Pradesh,Gwalior,"City Center, Gwalior - MPPCB",10-09-2025 07:00:00,26.203442,78.193251,NH3,2,2,2
India,Madhya Pradesh,Gwalior,"City Center, Gwalior - MPPCB",10-09-2025 07:00:00,26.203442,78.193251,SO2,8,38,21
India,Madhya Pradesh,Gwalior,"City Center, Gwalior - MPPCB",10-09-2025 07:00:00,26.203442,78.193251,CO,8,51,30
India,Madhya Pradesh,Gwalior,"Deen Dayal Nagar, Gwalior - MPPCB",10-09-2025 07:00:00,26.259242,78.216432,NH3,3,4,3
India,Madhya Pradesh,Gwalior,"Deen Dayal Nagar, Gwalior - MPPCB",10-09-2025 07:00:00,26.259242,78.216432,CO,34,48,36
India,Madhya Pradesh,Gwalior,"Maharaj Bada, Gwalior - MPPCB",10-09-2025 07:00:00,26.200388,78.147714,NH3,1,2,2
India,Madhya Pradesh,Gwalior,"Maharaj Bada, Gwalior - MPPCB",10-09-2025 07:00:00,26.200388,78.147714,OZONE,13,54,14
India,Madhya Pradesh,Indore,"Airport Area, Indore - IMC",10-09-2025 07:00:00,22.7289,75.8076,SO2,23,27,24
India,Karnataka,Madikeri,"Stuart Hill, Madikeri - KSPCB",10-09-2025 07:00:00,12.415911,75.735050,PM2.5,17,43,24
India,Karnataka,Ramanagara,"Vijay Nagar, Ramanagara - KSPCB",10-09-2025 07:00:00,12.733409,77.298051,PM2.5,NA,NA,NA
India,Karnataka,Ramanagara,"Vijay Nagar, Ramanagara - KSPCB",10-09-2025 07:00:00,12.733409,77.298051,SO2,NA,NA,NA
India,Karnataka,Ramanagara,"Vijay Nagar, Ramanagara - KSPCB",10-09-2025 07:00:00,12.733409,77.298051,CO,14,62,23
India,Karnataka,Shivamogga,"Vinoba Nagara, Shivamogga - KSPCB",10-09-2025 07:00:00,13.940000,75.555917,NH3,2,6,4
India,Karnataka,Shivamogga,"Vinoba Nagara, Shivamogga - KSPCB",10-09-2025 07:00:00,13.940000,75.555917,SO2,3,5,5
India,Karnataka,Tumakuru,"Thimmalapura, Tumakuru - KSPCB",10-09-2025 07:00:00,13.377516,77.099072,PM2.5,NA,NA,NA
India,Karnataka,Tumakuru,"Thimmalapura, Tumakuru - KSPCB",10-09-2025 07:00:00,13.377516,77.099072,NO2,NA,NA,NA
India,Karnataka,Tumakuru,"Thimmalapura, Tumakuru - KSPCB",10-09-2025 07:00:00,13.377516,77.099072,NH3,NA,NA,NA
India,Kerala,Thiruvananthapuram,"Plammoodu, Thiruvananthapuram - Kerala PCB",10-09-2025 07:00:00,8.5149093,76.9435879,PM2.5,7,97,34
India,Kerala,Thiruvananthapuram,"Plammoodu, Thiruvananthapuram - Kerala PCB",10-09-2025 07:00:00,8.5149093,76.9435879,NO2,52,111,72
India,Kerala,Thrissur,"Corporation Ground, Thrissur - Kerala PCB",10-09-2025 07:00:00,10.532400,76.215900,PM2.5,45,58,52
India,Kerala,Thrissur,"Corporation Ground, Thrissur - Kerala PCB",10-09-2025 07:00:00,10.532400,76.215900,CO,14,30,17
India,Kerala,Thrissur,"Corporation Ground, Thrissur - Kerala PCB",10-09-2025 07:00:00,10.532400,76.215900,OZONE,29,30,29
India,Madhya Pradesh,Bhopal,"T T Nagar, Bhopal - MPPCB",10-09-2025 07:00:00,23.233584,77.400574,PM2.5,27,59,34
India,Madhya Pradesh,Bhopal,"T T Nagar, Bhopal - MPPCB",10-09-2025 07:00:00,23.233584,77.400574,NH3,5,6,5
India,Madhya Pradesh,Bhopal,"T T Nagar, Bhopal - MPPCB",10-09-2025 07:00:00,23.233584,77.400574,CO,7,114,55
India,Karnataka,Bengaluru,"Hebbal, Bengaluru - KSPCB",10-09-2025 07:00:00,13.029152,77.585901,OZONE,6,14,8
India,Karnataka,Bengaluru,"Hombegowda Nagar, Bengaluru - KSPCB",10-09-2025 07:00:00,12.938539,77.590100,SO2,5,14,9
India,Karnataka,Bengaluru,"Hombegowda Nagar, Bengaluru - KSPCB",10-09-2025 07:00:00,12.938539,77.590100,OZONE,5,76,10
India,Karnataka,Bengaluru,"Jayanagar 5th Block, Bengaluru - KSPCB",10-09-2025 07:00:00,12.920984,77.584908,PM2.5,22,104,47
India,Karnataka,Bengaluru,"Jigani, Bengaluru - KSPCB",10-09-2025 07:00:00,12.7816279,77.6299145,NH3,4,5,5
India,Karnataka,Bengaluru,"Jigani, Bengaluru - KSPCB",10-09-2025 07:00:00,12.7816279,77.6299145,SO2,17,18,17
India,Karnataka,Bengaluru,"Jigani, Bengaluru - KSPCB",10-09-2025 07:00:00,12.7816279,77.6299145,CO,32,48,32
India,Karnataka,Bengaluru,"Jigani, Bengaluru - KSPCB",10-09-2025 07:00:00,12.7816279,77.6299145,OZONE,22,27,23
India,Karnataka,Kalaburagi,"Lal Bahadur Shastri Nagar, Kalaburagi - KSPCB",10-09-2025 07:00:00,17.321993,76.822628,OZONE,20,68,26
India,Karnataka,Kalaburagi,"Mahatma Basaveswar Colony, Kalaburgi - KSPCB",10-09-2025 07:00:00,17.336318,76.847397,OZONE,8,13,8
India,Karnataka,Karwar,"KHB Colony, Karwar - KSPCB",10-09-2025 07:00:00,14.816666,74.141003,NH3,1,2,1
India,Karnataka,Koppal,"Diwator Nagar, Koppal - KSPCB",10-09-2025 07:00:00,15.347630,76.181767,PM2.5,NA,NA,NA
India,Karnataka,Koppal,"Diwator Nagar, Koppal - KSPCB",10-09-2025 07:00:00,15.347630,76.181767,NO2,NA,NA,NA
India,Kerala,Eloor,"Udyogamandal, Eloor - Kerala PCB",10-09-2025 07:00:00,10.073232,76.302765,PM2.5,43,115,68
India,Kerala,Kollam,"Polayathode, Kollam - Kerala PCB",10-09-2025 07:00:00,8.8787,76.6073,PM10,33,75,56
India,Kerala,Thiruvananthapuram,"Kariavattom, Thiruvananthapuram - Kerala PCB",10-09-2025 07:00:00,8.563700,76.886500,NO2,6,7,7
India,Karnataka,Bengaluru,"RVCE-Mailasandra, Bengaluru - KSPCB",10-09-2025 07:00:00,12.921418,77.502466,NH3,5,5,5
India,Karnataka,Bengaluru,"Shivapura_Peenya, Bengaluru - KSPCB",10-09-2025 07:00:00,13.0246342,77.5080115,NH3,4,4,4
India,Karnataka,Bengaluru,"Silk Board, Bengaluru - KSPCB",10-09-2025 07:00:00,12.917348,77.622813,NH3,1,2,2
India,Karnataka,Bengaluru,"Silk Board, Bengaluru - KSPCB",10-09-2025 07:00:00,12.917348,77.622813,CO,30,80,35
India,Karnataka,Davanagere,"Devaraj Urs Badavane, Davanagere - KSPCB",10-09-2025 07:00:00,14.475800,75.905200,PM10,NA,NA,NA
India,Karnataka,Davanagere,"Devaraj Urs Badavane, Davanagere - KSPCB",10-09-2025 07:00:00,14.475800,75.905200,CO,9,37,15
India,Karnataka,Dharwad,"Kalabhavan, Dharwad - KSPCB",10-09-2025 07:00:00,15.459706,75.008381,OZONE,NA,NA,NA
India,Karnataka,Hassan,"B.Katihalli, Hassan - KSPCB",10-09-2025 07:00:00,13.008556,76.125258,OZONE,10,32,19
India,Madhya Pradesh,Indore,"Chhoti Gwaltoli, Indore - MPPCB",10-09-2025 07:00:00,22.4310,75.5213,SO2,9,11,10
India,Madhya Pradesh,Indore,"Chhoti Gwaltoli, Indore - MPPCB",10-09-2025 07:00:00,22.4310,75.5213,CO,20,55,27
India,Madhya Pradesh,Indore,"Maguda Nagar, Indore - IMC",10-09-2025 07:00:00,22.7524,75.8872,NH3,NA,NA,NA
India,Madhya Pradesh,Indore,"Regional Park, Indore - IMC",10-09-2025 07:00:00,22.6780,75.8559,SO2,NA,NA,NA
India,Maharashtra,Kolhapur,"Sinchan Bhavan, Kolhapur - MPCB",10-09-2025 07:00:00,16.7143745,74.2426398,NO2,4,12,7
India,Maharashtra,Latur,"Sawe Wadi, Latur - MPCB",10-09-2025 07:00:00,18.39963,76.57452,PM10,25,40,32
India,Maharashtra,Mahad,"Kamble Tarf Birwadi, Mahad - MPCB",10-09-2025 07:00:00,18.1023399,73.4783687,NO2,9,30,17
India,Maharashtra,Mahad,"Kamble Tarf Birwadi, Mahad - MPCB",10-09-2025 07:00:00,18.1023399,73.4783687,SO2,4,102,16
India,Maharashtra,Mahad,"Kamble Tarf Birwadi, Mahad - MPCB",10-09-2025 07:00:00,18.1023399,73.4783687,CO,29,44,39
India,Maharashtra,Malegaon,"Mahesh Nagar, Malegaon - MPCB",10-09-2025 07:00:00,20.555712,74.529236,OZONE,18,53,50
India,Maharashtra,Mira-Bhayandar,"Bhayandar West, Mira-Bhayandar - MPCB",10-09-2025 07:00:00,19.296481,72.840923,SO2,1,4,2
India,Maharashtra,Amravati,"Shri Shivaji Science College, Amravati - MPCB",10-09-2025 07:00:00,20.939198,77.765701,PM10,36,58,48
India,Maharashtra,Amravati,"Shri Shivaji Science College, Amravati - MPCB",10-09-2025 07:00:00,20.939198,77.765701,NO2,2,17,6
India,Maharashtra,Aurangabad,"MIDC Chilkalthana, Aurangabad - MPCB",10-09-2025 07:00:00,19.875620,75.387310,PM2.5,NA,NA,NA
India,Maharashtra,Aurangabad,"MIDC Chilkalthana, Aurangabad - MPCB",10-09-2025 07:00:00,19.875620,75.387310,CO,10,107,42
India,Maharashtra,Aurangabad,"More Chowk Waluj, Aurangabad - MPCB",10-09-2025 07:00:00,19.8389439,75.244448,SO2,14,18,16
India,Maharashtra,Aurangabad,"Rachnakar Colony, Aurangabad - MPCB",10-09-2025 07:00:00,19.863756,75.321188,SO2,8,27,16
India,Maharashtra,Badlapur,"Katrap, Badlapur - MPCB",10-09-2025 07:00:00,19.16485,73.23409,SO2,8,22,13
India,Madhya Pradesh,Ratlam,"Shasthri Nagar, Ratlam - IPCA Lab",10-09-2025 07:00:00,23.331731,75.045981,SO2,26,27,26
India,Madhya Pradesh,Satna,"Bandhavgar Colony, Satna - Birla Cement",10-09-2025 07:00:00,24.58434363,80.8549414,NO2,32,41,35
India,Madhya Pradesh,Satna,"Bandhavgar Colony, Satna - Birla Cement",10-09-2025 07:00:00,24.58434363,80.8549414,CO,15,38,19
India,Madhya Pradesh,Singrauli,"Suryakiran Bhawan NCL, Singrauli - MPPCB",10-09-2025 07:00:00,24.108970,82.645580,NH3,5,6,6
India,Maharashtra,Ahmednagar,"Tarakpur, Ahmednagar - MPCB",10-09-2025 07:00:00,19.10122,74.73339,PM2.5,37,78,48
India,Maharashtra,Ahmednagar,"Tarakpur, Ahmednagar - MPCB",10-09-2025 07:00:00,19.10122,74.73339,NO2,17,26,21
India,Maharashtra,Belapur,"CBD Belapur, Belapur - MPCB",10-09-2025 07:00:00,19.0243902,73.0406721,NH3,1,4,2
India,Maharashtra,Belapur,"CBD Belapur, Belapur - MPCB",10-09-2025 07:00:00,19.0243902,73.0406721,SO2,1,7,5
India,Maharashtra,Bhiwandi,"Gokul Nagar, Bhiwandi - MPCB",10-09-2025 07:00:00,19.309073,73.057223,NH3,6,12,9
India,Maharashtra,Bhiwandi,"Gokul Nagar, Bhiwandi - MPCB",10-09-2025 07:00:00,19.309073,73.057223,SO2,8,31,18
India,Maharashtra,Boisar,"Khaira, Boisar - MPCB",10-09-2025 07:00:00,19.786089,72.757971,CO,14,102,46
India,Maharashtra,Boisar,"Khaira, Boisar - MPCB",10-09-2025 07:00:00,19.786089,72.757971,OZONE,30,31,30
India,Maharashtra,Chandrapur,"Chauhan Colony, Chandrapur - MPCB",10-09-2025 07:00:00,19.962900,79.298714,NO2,9,37,20
India,Maharashtra,Chandrapur,"Chauhan Colony, Chandrapur - MPCB",10-09-2025 07:00:00,19.962900,79.298714,NH3,2,2,2
India,Madhya Pradesh,Jabalpur,"Gupteshwar, Jabalpur - JMC",10-09-2025 07:00:00,23.142888,79.916147,SO2,NA,NA,NA
India,Madhya Pradesh,Jabalpur,"Suhagi, Jabalpur - JMC",10-09-2025 07:00:00,23.218135,79.957770,PM2.5,7,90,32
India,Madhya Pradesh,Jabalpur,"Suhagi, Jabalpur - JMC",10-09-2025 07:00:00,23.218135,79.957770,SO2,2,8,5
India,Madhya Pradesh,Katni,"Gole Bazar, Katni - MPPCB",10-09-2025 07:00:00,23.50016,80.23284,OZONE,7,44,11
India,Madhya Pradesh,Mandideep,"Sector-D Industrial Area, Mandideep - MPPCB",10-09-2025 07:00:00,23.108440,77.511428,OZONE,13,50,16
India,Madhya Pradesh,Pithampur,"Sector-2 Industrial Area, Pithampur - MPPCB",10-09-2025 07:00:00,22.624758,75.675238,NH3,NA,NA,NA
India,Maharashtra,Mumbai,"Chakala-Andheri East, Mumbai - IITM",10-09-2025 07:00:00,19.11074,72.86084,OZONE,2,36,2
India,Maharashtra,Mumbai,"Chembur, Mumbai - MPCB",10-09-2025 07:00:00,19.0364585,72.8954371,PM2.5,54,76,62
India,Maharashtra,Mumbai,"Chembur, Mumbai - MPCB",10-09-2025 07:00:00,19.0364585,72.8954371,PM10,40,71,52
India,Maharashtra,Mumbai,"Chembur, Mumbai - MPCB",10-09-2025 07:00:00,19.0364585,72.8954371,NO2,7,46,18
India,Maharashtra,Mumbai,"Chhatrapati Shivaji Intl. Airport (T2), Mumbai - MPCB",10-09-2025 07:00:00,19.10078,72.87462,SO2,20,21,20
India,Maharashtra,Mumbai,"Chhatrapati Shivaji Intl. Airport (T2), Mumbai - MPCB",10-09-2025 07:00:00,19.10078,72.87462,OZONE,7,8,7
India,Maharashtra,Mumbai,"Bandra Kurla Complex, Mumbai - IITM",10-09-2025 07:00:00,19.053536,72.84643,SO2,5,6,5
India,Maharashtra,Mumbai,"Bandra Kurla Complex, Mumbai - IITM",10-09-2025 07:00:00,19.053536,72.84643,OZONE,1,5,1
India,Maharashtra,Mumbai,"Bandra Kurla Complex, Mumbai - MPCB",10-09-2025 07:00:00,19.065931,72.862131,PM2.5,26,77,46
India,Maharashtra,Mumbai,"Borivali East, Mumbai - IITM",10-09-2025 07:00:00,19.23241,72.86895,NH3,4,5,4
India,Maharashtra,Jalgaon,"Prabhat Colony, Jalgaon - MPCB",10-09-2025 07:00:00,21.001264,75.565602,OZONE,9,34,10
India,Maharashtra,Jalna,"Old MIDC, Jalna - MPCB",10-09-2025 07:00:00,19.854616,75.905894,CO,NA,NA,NA
India,Maharashtra,Kolhapur,"Shivaji University, Kolhapur - MPCB",10-09-2025 07:00:00,16.6870449,74.2505872,NH3,7,8,8
India,Maharashtra,Akola,"Ramdaspeth, Akola - MPCB",10-09-2025 07:00:00,20.719516,77.000253,PM2.5,13,42,25
India,Maharashtra,Akola,"Ramdaspeth, Akola - MPCB",10-09-2025 07:00:00,20.719516,77.000253,NH3,4,12,8
India,Maharashtra,Akola,"Ramdaspeth, Akola - MPCB",10-09-2025 07:00:00,20.719516,77.000253,SO2,4,10,7
India,Maharashtra,Sangli,"Vijay Nagar, Sangli - MPCB",10-09-2025 07:00:00, 16.5038,74.3623,PM10,55,89,74
India,Maharashtra,Solapur,"Dnyaneshwar Nagar, Solapur - MPCB",10-09-2025 07:00:00,17.6336264,75.9132495,PM10,33,122,64
India,Maharashtra,Solapur,"Dnyaneshwar Nagar, Solapur - MPCB",10-09-2025 07:00:00,17.6336264,75.9132495,NH3,6,15,9
India,Maharashtra,Solapur,"Dnyaneshwar Nagar, Solapur - MPCB",10-09-2025 07:00:00,17.6336264,75.9132495,SO2,1,5,2
India,Maharashtra,Thane,"Kasarvadavali, Thane - MPCB",10-09-2025 07:00:00,19.26777,72.97182,PM10,51,82,72
India,Maharashtra,Thane,"Kasarvadavali, Thane - MPCB",10-09-2025 07:00:00,19.26777,72.97182,NO2,1,19,10
India,Maharashtra,Thane,"Upvan Fort, Thane - MPCB",10-09-2025 07:00:00,19.222279,72.957979,PM2.5,14,37,21
India,Maharashtra,Mumbai,"Ghatkopar, Mumbai - BMC",10-09-2025 07:00:00,19.083694,72.920967,CO,50,66,60
India,Maharashtra,Mumbai,"Kandivali West, Mumbai - BMC",10-09-2025 07:00:00,19.215859,72.831718,PM2.5,10,27,18
India,Maharashtra,Mumbai,"Kandivali West, Mumbai - BMC",10-09-2025 07:00:00,19.215859,72.831718,PM10,18,40,29
India,Maharashtra,Mumbai,"Kandivali West, Mumbai - BMC",10-09-2025 07:00:00,19.215859,72.831718,SO2,1,3,2
India,Maharashtra,Mumbai,"Kandivali West, Mumbai - BMC",10-09-2025 07:00:00,19.215859,72.831718,OZONE,3,30,3
India,Maharashtra,Mumbai,"Kherwadi_Bandra East, Mumbai - MPCB",10-09-2025 07:00:00,19.0632143,72.8456324,NO2,16,16,16
India,Maharashtra,Mumbai,"Kurla, Mumbai - MPCB",10-09-2025 07:00:00,19.0863,72.8888,PM2.5,59,82,66
India,Maharashtra,Mumbai,"Kurla, Mumbai - MPCB",10-09-2025 07:00:00,19.0863,72.8888,NH3,1,1,1
India,Maharashtra,Mumbai,"Malad West, Mumbai - IITM",10-09-2025 07:00:00,19.19709,72.82204,PM2.5,6,45,23
India,Maharashtra,Mumbai,"Malad West, Mumbai - IITM",10-09-2025 07:00:00,19.19709,72.82204,NO2,43,79,59
India,Maharashtra,Mumbai,"Malad West, Mumbai - IITM",10-09-2025 07:00:00,19.19709,72.82204,NH3,8,13,10
India,Maharashtra,Mumbai,"Malad West, Mumbai - IITM",10-09-2025 07:00:00,19.19709,72.82204,OZONE,6,14,6
India,Maharashtra,Mumbai,"Mindspace-Malad West, Mumbai - MPCB",10-09-2025 07:00:00,19.1878657,72.8304069,NH3,5,6,6
India,Maharashtra,Mumbai,"Mindspace-Malad West, Mumbai - MPCB",10-09-2025 07:00:00,19.1878657,72.8304069,SO2,6,7,6
India,Maharashtra,Mumbai,"Mindspace-Malad West, Mumbai - MPCB",10-09-2025 07:00:00,19.1878657,72.8304069,CO,30,31,30
India,Maharashtra,Nashik,"Hirawadi, Nashik - MPCB",10-09-2025 07:00:00,20.021503,73.813844,NO2,1,10,4
India,Maharashtra,Nashik,"MIDC Ambad, Nashik - MPCB",10-09-2025 07:00:00,19.950220,73.731480,NH3,2,3,2
India,Maharashtra,Nashik,"Pandav Nagari, Nashik - MPCB",10-09-2025 07:00:00,19.9591346,73.7788008,PM2.5,23,46,35
India,Maharashtra,Nashik,"Pandav Nagari, Nashik - MPCB",10-09-2025 07:00:00,19.9591346,73.7788008,PM10,31,80,62
India,Maharashtra,Nashik,"Pandav Nagari, Nashik - MPCB",10-09-2025 07:00:00,19.9591346,73.7788008,OZONE,4,33,13
India,Maharashtra,Navi Mumbai,"Kopripada-Vashi, Navi Mumbai - MPCB",10-09-2025 07:00:00,19.090337,73.014232,PM2.5,21,165,40
India,Maharashtra,Mumbai,"Sewri, Mumbai - BMC",10-09-2025 07:00:00,19.000084,72.856730,PM10,14,31,22
India,Maharashtra,Mumbai,"Sewri, Mumbai - BMC",10-09-2025 07:00:00,19.000084,72.856730,SO2,NA,NA,NA
India,Maharashtra,Mumbai,"Shivaji Nagar, Mumbai - BMC",10-09-2025 07:00:00,19.060498,72.923356,PM10,67,105,81
India,Maharashtra,Mumbai,"Shivaji Nagar, Mumbai - BMC",10-09-2025 07:00:00,19.060498,72.923356,NH3,3,4,3
India,Maharashtra,Mumbai,"Worli, Mumbai - MPCB",10-09-2025 07:00:00,18.9936162,72.8128113,PM2.5,59,79,66
India,Maharashtra,Pune,"Bhosari, Pune - IITM",10-09-2025 07:00:00,18.640051,73.848956,PM2.5,21,45,35
India,Maharashtra,Pune,"Bhosari, Pune - IITM",10-09-2025 07:00:00,18.640051,73.848956,PM10,52,92,67
India,Maharashtra,Pune,"Katraj Dairy, Pune - MPCB",10-09-2025 07:00:00,18.454450,73.854155,NH3,1,3,2
India,Maharashtra,Pune,"Mhada Colony, Pune - IITM",10-09-2025 07:00:00,18.573040,73.927715,PM10,84,114,102
India,Maharashtra,Pune,"Mhada Colony, Pune - IITM",10-09-2025 07:00:00,18.573040,73.927715,OZONE,20,56,28
India,Maharashtra,Nagpur,"Mahal, Nagpur - MPCB",10-09-2025 07:00:00,21.14472,79.107595,NO2,10,41,19
India,Maharashtra,Nagpur,"Opp GPO Civil Lines, Nagpur - MPCB",10-09-2025 07:00:00,21.152875,79.0517531,PM2.5,8,50,29
India,Maharashtra,Nagpur,"Ram Nagar, Nagpur - MPCB",10-09-2025 07:00:00,21.143383,79.048912,SO2,10,30,14
India,Maharashtra,Navi Mumbai,"Sanpada, Navi Mumbai - MPCB",10-09-2025 07:00:00,19.0575752,73.0151367,NO2,2,12,6
India,Maharashtra,Navi Mumbai,"Sanpada, Navi Mumbai - MPCB",10-09-2025 07:00:00,19.0575752,73.0151367,CO,3,68,44
India,Maharashtra,Navi Mumbai,"Sector-2E Kalamboli, Navi Mumbai - MPCB",10-09-2025 07:00:00,19.02579,73.10297,OZONE,6,42,6
India,Maharashtra,Pimpri-Chinchwad,"Gavalinagar, Pimpri Chinchwad - MPCB",10-09-2025 07:00:00,18.63673,73.82487,PM2.5,22,34,27
India,Maharashtra,Pimpri-Chinchwad,"Thergaon, Pimpri Chinchwad - MPCB",10-09-2025 07:00:00,18.616318,73.765797,NH3,1,7,2
India,Rajasthan,Bhilwara,"Pratap Nagar, Bhilwara - RSPCB",10-09-2025 07:00:00,25.339605,74.618883,NO2,17,84,29
India,Rajasthan,Bhilwara,"Pratap Nagar, Bhilwara - RSPCB",10-09-2025 07:00:00,25.339605,74.618883,NH3,4,45,8
India,Rajasthan,Bhilwara,"Pratap Nagar, Bhilwara - RSPCB",10-09-2025 07:00:00,25.339605,74.618883,SO2,10,14,12
India,Rajasthan,Bhiwadi,"RIICO Ind. Area III, Bhiwadi - RSPCB",10-09-2025 07:00:00,28.194909,76.862296,PM2.5,17,163,83
India,Rajasthan,Bhiwadi,"RIICO Ind. Area III, Bhiwadi - RSPCB",10-09-2025 07:00:00,28.194909,76.862296,NO2,6,53,25
India,Rajasthan,Bhiwadi,"RIICO Ind. Area III, Bhiwadi - RSPCB",10-09-2025 07:00:00,28.194909,76.862296,CO,1,82,1
India,Rajasthan,Bhiwadi,"Vasundhara Nagar_UIT, Bhiwadi - RSPCB",10-09-2025 07:00:00,28.207266,76.829265,NH3,3,5,4
India,Rajasthan,Bhiwadi,"Vasundhara Nagar_UIT, Bhiwadi - RSPCB",10-09-2025 07:00:00,28.207266,76.829265,SO2,2,42,13
India,Rajasthan,Bikaner,"MM Ground, Bikaner - RSPCB",10-09-2025 07:00:00,28.018792,73.292658,NH3,5,9,7
India,Rajasthan,Bikaner,"MM Ground, Bikaner - RSPCB",10-09-2025 07:00:00,28.018792,73.292658,OZONE,18,49,25
India,Rajasthan,Bundi,"New Colony, Bundi - RSPCB",10-09-2025 07:00:00,25.435774,75.644272,NH3,1,3,2
India,Odisha,Cuttack,"CDA Area, Cuttack - OSPCB",10-09-2025 07:00:00,20.48891     ,85.84768     ,NH3,1,2,1
India,Odisha,Cuttack,"CDA Area, Cuttack - OSPCB",10-09-2025 07:00:00,20.48891     ,85.84768     ,SO2,3,5,4
India,Odisha,Nayagarh,"Dabuna, Nayagarh - OSPCB",10-09-2025 07:00:00,21.847279,85.416905,NH3,5,7,6
India,Odisha,Rairangpur,"Divisional Forest Office, Rairangpur - OSPCB",10-09-2025 07:00:00,22.265816,86.174829,PM2.5,26,46,33
India,Odisha,Rairangpur,"Divisional Forest Office, Rairangpur - OSPCB",10-09-2025 07:00:00,22.265816,86.174829,OZONE,19,25,20
India,Odisha,Rourkela,"Fertilizer Township, Rourkela - OSPCB",10-09-2025 07:00:00,22.18972222,84.86277778,NO2,11,11,11
India,Odisha,Rourkela,"Raghunathpali, Rourkela - OSPCB",10-09-2025 07:00:00,22.220833,84.809444,NH3,NA,NA,NA
India,Odisha,Suakati,"OMC Colony, Suakati - OSPCB",10-09-2025 07:00:00,21.606865,85.510538,PM2.5,NA,NA,NA
India,Odisha,Suakati,"OMC Colony, Suakati - OSPCB",10-09-2025 07:00:00,21.606865,85.510538,CO,3,33,18
India,Odisha,Tensa,"Barsua Iron Ore Mines, Tensa - OSPCB",10-09-2025 07:00:00,21.869985,85.167016,PM2.5,NA,NA,NA
India,Odisha,Tensa,"Barsua Iron Ore Mines, Tensa - OSPCB",10-09-2025 07:00:00,21.869985,85.167016,SO2,1,31,16
India,Odisha,Tensa,"Barsua Iron Ore Mines, Tensa - OSPCB",10-09-2025 07:00:00,21.869985,85.167016,OZONE,9,51,17
India,Punjab,Amritsar,"Golden Temple, Amritsar - PPCB",10-09-2025 07:00:00,31.620000,74.876512,NO2,16,106,44
India,Punjab,Amritsar,"Golden Temple, Amritsar - PPCB",10-09-2025 07:00:00,31.620000,74.876512,CO,2,46,40
India,Punjab,Bathinda,"Hardev Nagar, Bathinda - PPCB",10-09-2025 07:00:00,30.233011,74.907758,PM10,9,52,23
India,Punjab,Ludhiana,"Punjab Agricultural University, Ludhiana - PPCB",10-09-2025 07:00:00,30.9028,75.8086,PM10,60,96,80
India,Punjab,Ludhiana,"Punjab Agricultural University, Ludhiana - PPCB",10-09-2025 07:00:00,30.9028,75.8086,SO2,4,8,7
India,Punjab,Ludhiana,"Punjab Agricultural University, Ludhiana - PPCB",10-09-2025 07:00:00,30.9028,75.8086,CO,8,20,18
India,Punjab,Mandi Gobindgarh,"RIMT University, Mandi Gobindgarh - PPCB",10-09-2025 07:00:00,30.649961,76.331442,OZONE,44,52,48
India,Punjab,Patiala,"Model Town, Patiala - PPCB",10-09-2025 07:00:00,30.349388,76.366642,PM10,24,46,31
India,Rajasthan,Ajmer,"Civil Lines,  Ajmer - RSPCB",10-09-2025 07:00:00,26.470859,74.646594,SO2,5,20,12
India,Rajasthan,Chittorgarh,"Shastri Nagar, Chittorgarh - RSPCB",10-09-2025 07:00:00,24.892047,74.623527,PM10,56,108,79
India,Rajasthan,Chittorgarh,"Shastri Nagar, Chittorgarh - RSPCB",10-09-2025 07:00:00,24.892047,74.623527,SO2,1,20,9
India,Rajasthan,Chittorgarh,"Shastri Nagar, Chittorgarh - RSPCB",10-09-2025 07:00:00,24.892047,74.623527,CO,2,18,10
India,Rajasthan,Chittorgarh,"Shastri Nagar, Chittorgarh - RSPCB",10-09-2025 07:00:00,24.892047,74.623527,OZONE,11,50,23
India,Rajasthan,Churu,"Subash Chowk, Churu - RSPCB",10-09-2025 07:00:00,28.296139,74.961696,PM10,51,98,71
India,Rajasthan,Dungarpur,"Bhoiwada, Dungarpur - RSPCB",10-09-2025 07:00:00,23.837789,73.714926,PM10,39,55,48
India,Rajasthan,Dungarpur,"Bhoiwada, Dungarpur - RSPCB",10-09-2025 07:00:00,23.837789,73.714926,NO2,2,11,5
India,Odisha,Angul,"Hakimapada, Angul - OSPCB",10-09-2025 07:00:00,20.832874,85.104082,PM10,31,146,70
India,Odisha,Angul,"Hakimapada, Angul - OSPCB",10-09-2025 07:00:00,20.832874,85.104082,NO2,3,13,6
India,Odisha,Angul,"Hakimapada, Angul - OSPCB",10-09-2025 07:00:00,20.832874,85.104082,NH3,2,3,2
India,Odisha,Baripada,"Meher Colony, Baripada - OSPCB",10-09-2025 07:00:00,21.941841,86.728318,CO,30,45,36
India,Odisha,Baripada,"Meher Colony, Baripada - OSPCB",10-09-2025 07:00:00,21.941841,86.728318,OZONE,5,24,9
India,Odisha,Bhubaneswar,"Lingraj Mandir, Bhubaneswar - OSPCB",10-09-2025 07:00:00,20.240790,85.836784,PM2.5,8,45,24
India,Rajasthan,Alwar,"Moti Doongri, Alwar - RSPCB",10-09-2025 07:00:00,27.554793,76.611536,NH3,8,9,8
India,Rajasthan,Baran,"Bamboliya, Baran - RSPCB",10-09-2025 07:00:00,25.106006,76.469948,PM10,44,119,81
India,Rajasthan,Baran,"Bamboliya, Baran - RSPCB",10-09-2025 07:00:00,25.106006,76.469948,NO2,5,21,8
India,Rajasthan,Baran,"Bamboliya, Baran - RSPCB",10-09-2025 07:00:00,25.106006,76.469948,OZONE,26,63,33
India,Rajasthan,Barmer,"Railway Colony, Barmer - RSPCB",10-09-2025 07:00:00,25.747299,71.393989,NO2,5,44,12
India,Maharashtra,Ulhasnagar,"Sidhi Vinayak Nagar, Ulhasnagar - MPCB",10-09-2025 07:00:00,19.235581,73.159121,NH3,4,9,6
India,Maharashtra,Ulhasnagar,"Sidhi Vinayak Nagar, Ulhasnagar - MPCB",10-09-2025 07:00:00,19.235581,73.159121,SO2,9,24,15
India,Maharashtra,Virar,"Bolinj, Virar - MPCB",10-09-2025 07:00:00,19.4458210,72.7988231,SO2,3,7,4
India,Nagaland,Kohima,"PWD Junction, Kohima - NPCB",10-09-2025 07:00:00,25.6635413,94.0989878,OZONE,7,11,9
India,Odisha,Bhubaneswar,"Patia, Bhubaneswar - OSPCB",10-09-2025 07:00:00,20.34652,85.81630,NO2,12,28,18
India,Odisha,Bileipada,"Tata Township, Bileipada - OSPCB",10-09-2025 07:00:00,22.06156703,85.47409613,PM10,70,156,115
India,Odisha,Brajrajnagar,"GM Office, Brajrajnagar - OSPCB",10-09-2025 07:00:00,21.8004996,83.8396977,SO2,16,18,17
India,Rajasthan,Jalore,"Mudtra Sili, Jalore - RSPCB",10-09-2025 07:00:00,25.344694,72.626208,OZONE,4,53,25
India,Rajasthan,Jhalawar,"Rajlaxmi Nagar, Jhalawar - RSPCB",10-09-2025 07:00:00,24.588397,76.172782,PM10,58,112,84
India,Rajasthan,Jhalawar,"Rajlaxmi Nagar, Jhalawar - RSPCB",10-09-2025 07:00:00,24.588397,76.172782,SO2,7,10,8
India,Rajasthan,Jhalawar,"Rajlaxmi Nagar, Jhalawar - RSPCB",10-09-2025 07:00:00,24.588397,76.172782,CO,12,43,18
India,Rajasthan,Jhalawar,"Rajlaxmi Nagar, Jhalawar - RSPCB",10-09-2025 07:00:00,24.588397,76.172782,OZONE,19,64,29
India,Rajasthan,Jodhpur,"Collectorate, Jodhpur - RSPCB",10-09-2025 07:00:00,26.268249,73.0193853,NH3,1,4,3
India,Rajasthan,Jodhpur,"Collectorate, Jodhpur - RSPCB",10-09-2025 07:00:00,26.268249,73.0193853,OZONE,7,19,17
India,Rajasthan,Jodhpur,"Digari Kalan, Jodhpur - RSPCB",10-09-2025 07:00:00,26.295810,73.082283,SO2,1,7,3
India,Rajasthan,Jodhpur,"Jhalamand, Jodhpur - RSPCB",10-09-2025 07:00:00,26.215415,73.070156,NO2,3,36,14
India,Rajasthan,Jodhpur,"Jhalamand, Jodhpur - RSPCB",10-09-2025 07:00:00,26.215415,73.070156,CO,9,32,25
India,Rajasthan,Jodhpur,"Jhalamand, Jodhpur - RSPCB",10-09-2025 07:00:00,26.215415,73.070156,OZONE,7,46,9
India,Rajasthan,Jodhpur,"Mandor, Jodhpur - RSPCB",10-09-2025 07:00:00,26.358805,73.047444,PM2.5,8,47,30
India,Rajasthan,Tonk,"Shastri Nagar, Tonk - RSPCB",10-09-2025 07:00:00,26.159933,75.780517,NO2,3,27,10
India,Rajasthan,Udaipur,"Ashok Nagar, Udaipur - RSPCB",10-09-2025 07:00:00,24.5886166,73.6321397,PM10,58,124,96
India,Rajasthan,Udaipur,"Ashok Nagar, Udaipur - RSPCB",10-09-2025 07:00:00,24.5886166,73.6321397,OZONE,2,76,5
India,Sikkim,Gangtok,"Zero Point GICI, Gangtok - SSPCB",10-09-2025 07:00:00,27.338530,88.614099,PM2.5,3,31,21
India,Sikkim,Gangtok,"Zero Point GICI, Gangtok - SSPCB",10-09-2025 07:00:00,27.338530,88.614099,NO2,NA,NA,NA
India,TamilNadu,Ariyalur,"Keelapalur, Ariyalur - TNPCB",10-09-2025 07:00:00,11.06825,79.07033,NO2,9,9,9
India,TamilNadu,Chengalpattu,"Crescent University, Chengalpattu - TNPCB",10-09-2025 07:00:00,12.8777316,80.0834807,PM10,NA,NA,NA
India,TamilNadu,Chengalpattu,"Crescent University, Chengalpattu - TNPCB",10-09-2025 07:00:00,12.8777316,80.0834807,NH3,NA,NA,NA
India,TamilNadu,Chengalpattu,"Crescent University, Chengalpattu - TNPCB",10-09-2025 07:00:00,12.8777316,80.0834807,SO2,NA,NA,NA
India,Rajasthan,Jodhpur,"Mandor, Jodhpur - RSPCB",10-09-2025 07:00:00,26.358805,73.047444,PM10,37,77,56
India,Rajasthan,Jodhpur,"Mandor, Jodhpur - RSPCB",10-09-2025 07:00:00,26.358805,73.047444,NH3,2,5,3
India,Rajasthan,Jodhpur,"Mandor, Jodhpur - RSPCB",10-09-2025 07:00:00,26.358805,73.047444,SO2,1,8,2
India,Rajasthan,Jodhpur,"Samrat Ashok Udhyan, Jodhpur - RSPCB",10-09-2025 07:00:00,26.253384,72.976571,CO,12,28,15
India,Rajasthan,Karauli,"Satyawati Vihar, Karauli - RSPCB",10-09-2025 07:00:00,26.506177,77.025989,PM10,30,105,66
India,Rajasthan,Karauli,"Satyawati Vihar, Karauli - RSPCB",10-09-2025 07:00:00,26.506177,77.025989,NO2,16,38,26
India,Rajasthan,Karauli,"Satyawati Vihar, Karauli - RSPCB",10-09-2025 07:00:00,26.506177,77.025989,CO,6,23,17
India,Rajasthan,Kota,"Dhanmandi, Kota - RSPCB",10-09-2025 07:00:00,25.164090,75.858137,NO2,8,45,19
India,Rajasthan,Kota,"Dhanmandi, Kota - RSPCB",10-09-2025 07:00:00,25.164090,75.858137,SO2,2,6,4
India,Rajasthan,Rajsamand,"Dhoinda, Rajsamand - RSPCB",10-09-2025 07:00:00,25.036360,73.883502,CO,20,57,38
India,Rajasthan,Rajsamand,"Dhoinda, Rajsamand - RSPCB",10-09-2025 07:00:00,25.036360,73.883502,OZONE,42,86,55
India,Rajasthan,Sawai Madhopur,"Sahu Nagar, Sawai Madhopur - RSPCB",10-09-2025 07:00:00,26.031443,76.359327,PM2.5,18,89,39
India,Rajasthan,Sawai Madhopur,"Sahu Nagar, Sawai Madhopur - RSPCB",10-09-2025 07:00:00,26.031443,76.359327,NO2,7,19,13
India,Rajasthan,Sawai Madhopur,"Sahu Nagar, Sawai Madhopur - RSPCB",10-09-2025 07:00:00,26.031443,76.359327,CO,8,54,22
India,Rajasthan,Sikar,"Radhakishan Pura, Sikar - RSPCB",10-09-2025 07:00:00,27.608912,75.153302,NO2,6,33,14
India,Rajasthan,Sikar,"Radhakishan Pura, Sikar - RSPCB",10-09-2025 07:00:00,27.608912,75.153302,OZONE,5,76,13
India,Rajasthan,Sri Ganganagar,"Old City, Sri Ganganagar - RSPCB",10-09-2025 07:00:00,29.931624,73.864511,NH3,4,6,5
India,Rajasthan,Kota,"Nayapura, Kota - RSPCB",10-09-2025 07:00:00,25.196024,75.855668,OZONE,18,73,27
India,Rajasthan,Kota,"Shrinath Puram, Kota - RSPCB",10-09-2025 07:00:00,25.14389,75.821256,PM10,58,116,81
India,Rajasthan,Kota,"Shrinath Puram, Kota - RSPCB",10-09-2025 07:00:00,25.14389,75.821256,NO2,12,14,13
India,Rajasthan,Nagaur,"Karni Colony, Nagaur - RSPCB",10-09-2025 07:00:00,27.213494,73.734444,OZONE,13,83,25
India,Rajasthan,Pali,"Indira Colony Vistar, Pali - RSPCB",10-09-2025 07:00:00,25.771061, 73.340227,NO2,29,54,41
India,Rajasthan,Pali,"Indira Colony Vistar, Pali - RSPCB",10-09-2025 07:00:00,25.771061, 73.340227,NH3,6,11,8
India,Rajasthan,Pratapgarh,"Pragati Nagar, Pratapgarh - RSPCB",10-09-2025 07:00:00,24.041198,74.780702,CO,10,28,13
India,Rajasthan,Hanumangarh,"Housing Board, Hanumangarh - RSPCB",10-09-2025 07:00:00,29.610750,74.283608,NO2,22,138,74
India,Rajasthan,Jaipur,"Mansarovar Sector-12, Jaipur - RSPCB",10-09-2025 07:00:00,26.843698,75.766894,PM10,44,150,86
India,Rajasthan,Jaipur,"Mansarovar Sector-12, Jaipur - RSPCB",10-09-2025 07:00:00,26.843698,75.766894,NH3,6,27,11
India,Rajasthan,Jaipur,"Mansarovar Sector-12, Jaipur - RSPCB",10-09-2025 07:00:00,26.843698,75.766894,CO,9,40,15
India,Rajasthan,Jaipur,"Police Commissionerate, Jaipur - RSPCB",10-09-2025 07:00:00,26.9164092,75.7994901,OZONE,12,26,14
India,TamilNadu,Chennai,"Arumbakkam, Chennai - TNPCB",10-09-2025 07:00:00,13.0664,80.2112 ,PM2.5,26,112,59
India,TamilNadu,Chennai,"Manali Village, Chennai - TNPCB",10-09-2025 07:00:00,13.1662,80.2584,NH3,1,1,1
India,TamilNadu,Chennai,"Perungudi, Chennai - TNPCB",10-09-2025 07:00:00,12.9533,80.2357,PM10,21,500,111
India,TamilNadu,Chennai,"Perungudi, Chennai - TNPCB",10-09-2025 07:00:00,12.9533,80.2357,CO,20,36,28
India,TamilNadu,Chennai,"Royapuram, Chennai - TNPCB",10-09-2025 07:00:00,13.1036,80.2909,PM10,35,154,72
India,TamilNadu,Cuddalore,"Kudikadu, Cuddalore - TNPCB",10-09-2025 07:00:00,11.6829898,79.7532099,PM2.5,18,120,43
India,TamilNadu,Cuddalore,"Kudikadu, Cuddalore - TNPCB",10-09-2025 07:00:00,11.6829898,79.7532099,PM10,20,114,46
India,Rajasthan,Jaipur,"Shastri Nagar, Jaipur - RSPCB",10-09-2025 07:00:00,26.9502929,75.730943,CO,57,106,80
India,Rajasthan,Jalore,"Mudtra Sili, Jalore - RSPCB",10-09-2025 07:00:00,25.344694,72.626208,PM2.5,22,120,41
India,Telangana,Hyderabad,"Central University, Hyderabad - TSPCB",10-09-2025 07:00:00,17.460103,78.334361,PM2.5,8,40,24
India,Telangana,Hyderabad,"Central University, Hyderabad - TSPCB",10-09-2025 07:00:00,17.460103,78.334361,CO,1,46,11
India,Telangana,Hyderabad,"ECIL Kapra, Hyderabad - TSPCB",10-09-2025 07:00:00,17.470431,78.566959,NO2,5,29,14
India,Telangana,Hyderabad,"ECIL Kapra, Hyderabad - TSPCB",10-09-2025 07:00:00,17.470431,78.566959,SO2,7,23,14
India,Telangana,Hyderabad,"ICRISAT Patancheru, Hyderabad - TSPCB",10-09-2025 07:00:00,17.518400,78.278777,PM2.5,34,190,126
India,Telangana,Hyderabad,"ICRISAT Patancheru, Hyderabad - TSPCB",10-09-2025 07:00:00,17.518400,78.278777,NO2,3,12,7
India,Telangana,Hyderabad,"ICRISAT Patancheru, Hyderabad - TSPCB",10-09-2025 07:00:00,17.518400,78.278777,CO,10,30,19
India,Telangana,Hyderabad,"ICRISAT Patancheru, Hyderabad - TSPCB",10-09-2025 07:00:00,17.518400,78.278777,OZONE,11,43,19
India,Telangana,Hyderabad,"IITH Kandi, Hyderabad - TSPCB",10-09-2025 07:00:00,17.585705,78.126199,NO2,15,22,17
India,Telangana,Hyderabad,"IITH Kandi, Hyderabad - TSPCB",10-09-2025 07:00:00,17.585705,78.126199,CO,18,26,23
India,TamilNadu,Madurai,"Uchapatti, Madurai - TNPCB",10-09-2025 07:00:00,9.865935,78.022669,SO2,12,15,13
India,TamilNadu,Madurai,"Uchapatti, Madurai - TNPCB",10-09-2025 07:00:00,9.865935,78.022669,CO,20,28,20
India,TamilNadu,Nagapattinam,"Velippalayam, Nagapattinam - TNPCB",10-09-2025 07:00:00,10.798548,79.838212,CO,NA,NA,NA
India,TamilNadu,Ooty,"Bombay Castel, Ooty - TNPCB",10-09-2025 07:00:00,11.4068288,76.7138973,PM2.5,19,54,32
India,TamilNadu,Palkalaiperur,"Bharathidasan University, Palkalaiperur - TNPCB",10-09-2025 07:00:00,10.681158,78.741746,PM2.5,20,42,29
India,TamilNadu,Perundurai,"SIPCOT Industrial Park, Perundurai - TNPCB",10-09-2025 07:00:00,11.258242,77.552761,SO2,21,22,22
India,TamilNadu,Perundurai,"SIPCOT Industrial Park, Perundurai - TNPCB",10-09-2025 07:00:00,11.258242,77.552761,CO,30,42,39
India,Uttar_Pradesh,Agra,"Sanjay Palace, Agra - UPPCB",10-09-2025 07:00:00,27.19865833,78.00598056,CO,36,79,66
India,Uttar_Pradesh,Agra,"Sector-3B Avas Vikas Colony, Agra - UPPCB",10-09-2025 07:00:00,27.19412,77.96237,PM2.5,42,85,59
India,Uttar_Pradesh,Agra,"Sector-3B Avas Vikas Colony, Agra - UPPCB",10-09-2025 07:00:00,27.19412,77.96237,PM10,89,127,105
India,Uttar_Pradesh,Agra,"Sector-3B Avas Vikas Colony, Agra - UPPCB",10-09-2025 07:00:00,27.19412,77.96237,SO2,9,11,10
India,Uttar_Pradesh,Agra,"Shahjahan Garden, Agra - UPPCB",10-09-2025 07:00:00,27.169338,78.03582,PM10,75,130,103
India,Uttar_Pradesh,Agra,"Shahjahan Garden, Agra - UPPCB",10-09-2025 07:00:00,27.169338,78.03582,NH3,1,1,1
India,Uttar_Pradesh,Agra,"Shahjahan Garden, Agra - UPPCB",10-09-2025 07:00:00,27.169338,78.03582,OZONE,4,21,9
India,Uttar_Pradesh,Agra,"Shastripuram, Agra - UPPCB",10-09-2025 07:00:00,27.19862,77.92066,NH3,3,3,3
India,Uttar_Pradesh,Bareilly,"Civil Lines, Bareilly - UPPCB",10-09-2025 07:00:00,28.359581,79.414455,NH3,2,5,3
India,Uttar_Pradesh,Bareilly,"Rajendra Nagar, Bareilly - UPPCB",10-09-2025 07:00:00,28.38910936,79.42963708,PM2.5,39,90,62
India,Uttar_Pradesh,Bareilly,"Rajendra Nagar, Bareilly - UPPCB",10-09-2025 07:00:00,28.38910936,79.42963708,SO2,46,47,47
India,Uttar_Pradesh,Bulandshahr,"Yamunapuram, Bulandshahr - UPPCB",10-09-2025 07:00:00,28.406963,77.849831,CO,21,62,34
India,Uttar_Pradesh,Firozabad,"Vibhab Nagar, Firozabad - UPPCB",10-09-2025 07:00:00,27.1594,78.3953,SO2,6,17,12
India,TamilNadu,Tirunelveli,"Municipal Corporation Office, Tirunelveli - TNPCB",10-09-2025 07:00:00,8.728442,77.6962,PM10,22,45,33
India,TamilNadu,Tirunelveli,"Municipal Corporation Office, Tirunelveli - TNPCB",10-09-2025 07:00:00,8.728442,77.6962,NO2,3,6,5
India,TamilNadu,Tirunelveli,"Municipal Corporation Office, Tirunelveli - TNPCB",10-09-2025 07:00:00,8.728442,77.6962,OZONE,6,6,6
India,TamilNadu,Vellore,"Vasanthapuram, Vellore - TNPCB",10-09-2025 07:00:00,12.909494,79.131861,SO2,18,20,19
India,TamilNadu,Vellore,"Vasanthapuram, Vellore - TNPCB",10-09-2025 07:00:00,12.909494,79.131861,CO,7,7,7
India,TamilNadu,Vellore,"Vasanthapuram, Vellore - TNPCB",10-09-2025 07:00:00,12.909494,79.131861,OZONE,1,48,15
India,Telangana,Hyderabad,"New Malakpet, Hyderabad - TSPCB",10-09-2025 07:00:00,17.37206,78.50864,PM2.5,45,97,69
India,Telangana,Hyderabad,"New Malakpet, Hyderabad - TSPCB",10-09-2025 07:00:00,17.37206,78.50864,PM10,65,90,77
India,Telangana,Hyderabad,"New Malakpet, Hyderabad - TSPCB",10-09-2025 07:00:00,17.37206,78.50864,OZONE,26,64,40
India,Telangana,Hyderabad,"Ramachandrapuram, Hyderabad - TSPCB",10-09-2025 07:00:00,17.528544,78.286195,PM2.5,NA,NA,NA
India,Telangana,Hyderabad,"Ramachandrapuram, Hyderabad - TSPCB",10-09-2025 07:00:00,17.528544,78.286195,NO2,NA,NA,NA
India,Telangana,Hyderabad,"Sanathnagar, Hyderabad - TSPCB",10-09-2025 07:00:00,17.4559458,78.4332152,CO,3,12,6
India,TamilNadu,Dindigul,"Mendonsa Colony, Dindigul - TNPCB",10-09-2025 07:00:00,10.358535,77.984321,NH3,2,3,2
India,TamilNadu,Hosur,"SIPCOT Phase-1, Hosur - TNPCB",10-09-2025 07:00:00,12.746998,77.813811,NH3,1,1,1
India,TamilNadu,Kanchipuram,"Kilambi, Kanchipuram - TNPCB",10-09-2025 07:00:00,12.864618,79.659968,PM2.5,NA,NA,NA
India,TamilNadu,Kanchipuram,"Kilambi, Kanchipuram - TNPCB",10-09-2025 07:00:00,12.864618,79.659968,NO2,1,21,7
India,TamilNadu,Salem,"Sona College of Technology, Salem - TNPCB",10-09-2025 07:00:00,11.679111,78.125052,CO,18,18,18
India,TamilNadu,Thanjavur,"Parisutham Nagar, Thanjavur - TNPCB",10-09-2025 07:00:00,10.7654824,79.1389968,PM10,21,43,32
India,TamilNadu,Thanjavur,"Parisutham Nagar, Thanjavur - TNPCB",10-09-2025 07:00:00,10.7654824,79.1389968,CO,9,10,9
India,Telangana,Hyderabad,"Somajiguda, Hyderabad - TSPCB",10-09-2025 07:00:00,17.417094,78.457437,OZONE,19,37,26
India,Uttar_Pradesh,Agra,"Rohta, Agra - UPPCB",10-09-2025 07:00:00,27.106972,78.000111,PM2.5,27,134,63
India,Uttar_Pradesh,Agra,"Rohta, Agra - UPPCB",10-09-2025 07:00:00,27.106972,78.000111,OZONE,11,12,11
India,Uttar_Pradesh,Kanpur,"NSI Kalyanpur, Kanpur - UPPCB",10-09-2025 07:00:00,26.509954,80.249612,NH3,2,2,2
India,Uttar_Pradesh,Kanpur,"NSI Kalyanpur, Kanpur - UPPCB",10-09-2025 07:00:00,26.509954,80.249612,SO2,29,44,35
India,Uttar_Pradesh,Kanpur,"Nehru Nagar, Kanpur - UPPCB",10-09-2025 07:00:00,26.4703136,80.3229863,NO2,49,65,56
India,Uttar_Pradesh,Kanpur,"Nehru Nagar, Kanpur - UPPCB",10-09-2025 07:00:00,26.4703136,80.3229863,SO2,11,14,13
India,Uttar_Pradesh,Khurja,"Kalindi Kunj, Khurja - UPPCB",10-09-2025 07:00:00,28.2348927,77.8683002,PM2.5,19,59,35
India,Uttar_Pradesh,Lucknow,"B R Ambedkar University, Lucknow - UPPCB",10-09-2025 07:00:00,26.766433,80.927299,PM2.5,25,310,73
India,Uttar_Pradesh,Lucknow,"B R Ambedkar University, Lucknow - UPPCB",10-09-2025 07:00:00,26.766433,80.927299,SO2,5,13,7
India,Uttar_Pradesh,Lucknow,"Kendriya Vidyalaya, Lucknow - CPCB",10-09-2025 07:00:00,26.906111,80.948222,PM2.5,21,54,33
India,Uttar_Pradesh,Lucknow,"Kendriya Vidyalaya, Lucknow - CPCB",10-09-2025 07:00:00,26.906111,80.948222,PM10,22,45,33
India,Uttar_Pradesh,Lucknow,"Kendriya Vidyalaya, Lucknow - CPCB",10-09-2025 07:00:00,26.906111,80.948222,NH3,12,17,15
India,Uttar_Pradesh,Varanasi,"Ardhali Bazar, Varanasi - UPPCB",10-09-2025 07:00:00,25.3505986,82.9083074,CO,5,16,10
India,Uttar_Pradesh,Varanasi,"Bhelupur, Varanasi - UPPCB",10-09-2025 07:00:00,25.301778,82.996789,PM10,37,80,61
India,Uttar_Pradesh,Varanasi,"IESD Banaras Hindu University, Varanasi - UPPCB",10-09-2025 07:00:00,25.262326,82.995408,PM10,12,73,39
India,Uttar_Pradesh,Varanasi,"IESD Banaras Hindu University, Varanasi - UPPCB",10-09-2025 07:00:00,25.262326,82.995408,SO2,24,45,33
India,Uttar_Pradesh,Varanasi,"Maldahiya, Varanasi - UPPCB",10-09-2025 07:00:00,25.32393,82.99687,OZONE,2,9,2
India,Uttar_Pradesh,Vrindavan,"Omex Eternity, Vrindavan - UPPCB",10-09-2025 07:00:00,27.5714090,77.6557570,OZONE,15,15,15
India,Uttarakhand,Dehradun,"Doon University, Dehradun - UKPCB",10-09-2025 07:00:00,30.269444,78.044167,PM10,1,71,29
India,Uttar_Pradesh,Moradabad,"Jigar Colony, Moradabad - UPPCB",10-09-2025 07:00:00,28.856664,78.772638,OZONE,18,33,19
India,Uttar_Pradesh,Moradabad,"Kashiram Nagar, Moradabad - UPPCB",10-09-2025 07:00:00,28.849399,78.742362,CO,16,27,18
India,Uttar_Pradesh,Moradabad,"Kashiram Nagar, Moradabad - UPPCB",10-09-2025 07:00:00,28.849399,78.742362,OZONE,25,57,37
India,Uttar_Pradesh,Moradabad,"Transport Nagar, Moradabad - UPPCB",10-09-2025 07:00:00,28.802625,78.753728,NO2,27,28,27
India,Uttar_Pradesh,Moradabad,"Transport Nagar, Moradabad - UPPCB",10-09-2025 07:00:00,28.802625,78.753728,CO,30,52,50
India,Uttar_Pradesh,Moradabad,"Transport Nagar, Moradabad - UPPCB",10-09-2025 07:00:00,28.802625,78.753728,OZONE,28,44,30
India,Uttar_Pradesh,Muzaffarnagar,"New Mandi, Muzaffarnagar - UPPCB",10-09-2025 07:00:00,29.4723508,77.7194031,PM10,30,82,49
India,Uttar_Pradesh,Muzaffarnagar,"New Mandi, Muzaffarnagar - UPPCB",10-09-2025 07:00:00,29.4723508,77.7194031,SO2,6,22,11
India,West_Bengal,Asansol,"Asansol Court Area, Asansol - WBPCB",10-09-2025 07:00:00,23.685297,86.945968,CO,18,64,33
India,West_Bengal,Asansol,"Evelyn Lodge, Asansol - WBPCB",10-09-2025 07:00:00,23.6979360,86.9443950,OZONE,6,47,9
India,West_Bengal,Asansol,"Mahabir Colliery, Asansol - WBPCB",10-09-2025 07:00:00,23.6181830,87.1057180,PM10,6,66,39
India,West_Bengal,Asansol,"Mahabir Colliery, Asansol - WBPCB",10-09-2025 07:00:00,23.6181830,87.1057180,NO2,7,43,19
India,West_Bengal,Asansol,"Mahabir Colliery, Asansol - WBPCB",10-09-2025 07:00:00,23.6181830,87.1057180,NH3,2,5,3
India,West_Bengal,Asansol,"Mahabir Colliery, Asansol - WBPCB",10-09-2025 07:00:00,23.6181830,87.1057180,OZONE,10,53,15
India,West_Bengal,Asansol,"Trivenidevi Bhalotia College, Asansol - WBPCB",10-09-2025 07:00:00,23.616515,87.119133,CO,49,66,59
India,Uttar_Pradesh,Noida,"Sector-1, Noida - UPPCB",10-09-2025 07:00:00,28.5898,77.3101,SO2,3,8,4
India,Uttar_Pradesh,Noida,"Sector-116, Noida - UPPCB",10-09-2025 07:00:00,28.569230,77.393848,PM2.5,21,47,35
India,Uttar_Pradesh,Noida,"Sector-116, Noida - UPPCB",10-09-2025 07:00:00,28.569230,77.393848,PM10,72,110,91
India,Uttar_Pradesh,Prayagraj,"Jhunsi, Prayagraj - UPPCB",10-09-2025 07:00:00,25.425602,81.917152,PM10,16,72,39
India,Uttar_Pradesh,Prayagraj,"Jhunsi, Prayagraj - UPPCB",10-09-2025 07:00:00,25.425602,81.917152,SO2,29,31,29
India,Uttar_Pradesh,Prayagraj,"Motilal Nehru NIT, Prayagraj - UPPCB",10-09-2025 07:00:00,25.494,81.863,NO2,12,12,12
India,Uttar_Pradesh,Prayagraj,"Motilal Nehru NIT, Prayagraj - UPPCB",10-09-2025 07:00:00,25.494,81.863,SO2,24,25,25
India,Uttar_Pradesh,Greater Noida,"Knowledge Park - III, Greater Noida - UPPCB",10-09-2025 07:00:00,28.47272,77.482000,PM10,56,177,117
India,Uttar_Pradesh,Greater Noida,"Knowledge Park - III, Greater Noida - UPPCB",10-09-2025 07:00:00,28.47272,77.482000,NH3,1,11,6
India,Uttar_Pradesh,Greater Noida,"Knowledge Park - III, Greater Noida - UPPCB",10-09-2025 07:00:00,28.47272,77.482000,SO2,4,25,15
India,Uttar_Pradesh,Jhansi,"Shivaji Nagar, Jhansi - UPPCB",10-09-2025 07:00:00,25.4547,78.6039,OZONE,2,11,4
India,Uttar_Pradesh,Kanpur,"NSI Kalyanpur, Kanpur - UPPCB",10-09-2025 07:00:00,26.509954,80.249612,PM2.5,13,66,33
India,Uttar_Pradesh,Kanpur,"NSI Kalyanpur, Kanpur - UPPCB",10-09-2025 07:00:00,26.509954,80.249612,NO2,16,17,17
India,Uttar_Pradesh,Lucknow,"Kendriya Vidyalaya, Lucknow - CPCB",10-09-2025 07:00:00,26.906111,80.948222,OZONE,10,78,14
India,Uttar_Pradesh,Lucknow,"Kukrail Picnic Spot-1, Lucknow - UPPCB",10-09-2025 07:00:00,26.90723,80.98579,OZONE,19,51,34
India,Uttar_Pradesh,Meerut,"Ganga Nagar, Meerut - UPPCB",10-09-2025 07:00:00,28.999264,77.7590354,CO,32,62,34
India,Uttar_Pradesh,Meerut,"Ganga Nagar, Meerut - UPPCB",10-09-2025 07:00:00,28.999264,77.7590354,OZONE,22,94,32
India,Uttar_Pradesh,Meerut,"Jai Bhim Nagar, Meerut - UPPCB",10-09-2025 07:00:00,28.9535882,77.7622941,NO2,9,54,20
India,Uttar_Pradesh,Ghaziabad,"Indirapuram, Ghaziabad - UPPCB",10-09-2025 07:00:00,28.646233,77.358075,SO2,NA,NA,NA
India,Uttar_Pradesh,Ghaziabad,"Loni, Ghaziabad - UPPCB",10-09-2025 07:00:00,28.757294,77.278792,PM10,56,156,99
India,Uttar_Pradesh,Ghaziabad,"Sanjay Nagar, Ghaziabad - UPPCB",10-09-2025 07:00:00,28.685382,77.453839,SO2,8,33,20
India,Uttar_Pradesh,Gorakhpur,"Madan Mohan Malaviya University of Technology, Gorakhpur - UPPCB",10-09-2025 07:00:00,26.730136,83.433859,SO2,23,24,24
India,Uttar_Pradesh,Meerut,"Jai Bhim Nagar, Meerut - UPPCB",10-09-2025 07:00:00,28.9535882,77.7622941,OZONE,18,77,28
India,Uttar_Pradesh,Moradabad,"Buddhi Vihar, Moradabad - UPPCB",10-09-2025 07:00:00,28.83526,78.74460,PM10,44,284,75
India,Uttar_Pradesh,Moradabad,"Buddhi Vihar, Moradabad - UPPCB",10-09-2025 07:00:00,28.83526,78.74460,SO2,101,101,101
India,Uttar_Pradesh,Moradabad,"Eco Herbal Park, Moradabad - UPPCB",10-09-2025 07:00:00,28.840739,78.697531,PM10,26,70,47
India,West_Bengal,Barrackpore,"SVSPA Campus, Barrackpore - WBPCB",10-09-2025 07:00:00,22.7605581,88.3617589,CO,40,46,43
India,West_Bengal,Durgapur,"Mahishkapur Road_B-Zone, Durgapur - WBPCB",10-09-2025 07:00:00,23.567923,87.306843,NO2,8,28,14
India,West_Bengal,Durgapur,"Mahishkapur Road_B-Zone, Durgapur - WBPCB",10-09-2025 07:00:00,23.567923,87.306843,SO2,11,12,11
India,West_Bengal,Durgapur,"PCBL Residential Complex, Durgapur - WBPCB",10-09-2025 07:00:00,23.5087640,87.3544400,PM10,42,117,69
India,West_Bengal,Durgapur,"Womens College_City Center, Durgapur - WBPCB (Formerly known as Sidhu Kanhu Indoor Stadium)",10-09-2025 07:00:00,23.549395,87.300496,NO2,24,33,27
India,West_Bengal,Howrah,"Belur Math, Howrah - WBPCB",10-09-2025 07:00:00,22.629801,88.352017,PM10,69,101,83
India,West_Bengal,Howrah,"Belur Math, Howrah - WBPCB",10-09-2025 07:00:00,22.629801,88.352017,OZONE,10,26,17
India,West_Bengal,Howrah,"Botanical Garden, Howrah - WBPCB",10-09-2025 07:00:00,22.554954,88.292568,NH3,2,3,2
India,West_Bengal,Howrah,"Botanical Garden, Howrah - WBPCB",10-09-2025 07:00:00,22.554954,88.292568,OZONE,20,29,21
India,West_Bengal,Howrah,"Dasnagar, Howrah - WBPCB",10-09-2025 07:00:00,22.6025571,88.3105664,CO,28,44,32
India,West_Bengal,Kolkata,"Bidhannagar, Kolkata - WBPCB",10-09-2025 07:00:00,22.58157048,88.41002457,NO2,14,20,16
India,West_Bengal,Kolkata,"Bidhannagar, Kolkata - WBPCB",10-09-2025 07:00:00,22.58157048,88.41002457,CO,34,38,35
India,West_Bengal,Kolkata,"Fort William, Kolkata - WBPCB",10-09-2025 07:00:00,22.556640,88.342674,NO2,NA,NA,NA
India,West_Bengal,Kolkata,"Jadavpur, Kolkata - WBPCB",10-09-2025 07:00:00,22.49929,88.36917,PM10,16,109,68
India,West_Bengal,Kolkata,"Rabindra Bharati University, Kolkata - WBPCB",10-09-2025 07:00:00,22.627847,88.380669,PM2.5,22,43,32
India,West_Bengal,Kolkata,"Rabindra Sarobar, Kolkata - WBPCB",10-09-2025 07:00:00,22.51106,88.35142,PM2.5,25,42,33
India,West_Bengal,Kolkata,"Victoria, Kolkata - WBPCB",10-09-2025 07:00:00,22.5448082,88.3403691,PM2.5,39,63,50
India,West_Bengal,Kolkata,"Victoria, Kolkata - WBPCB",10-09-2025 07:00:00,22.5448082,88.3403691,NO2,12,26,18
India,West_Bengal,Siliguri,"Ward-32 Bapupara, Siliguri - WBPCB",10-09-2025 07:00:00,26.6879226,88.4152495,PM10,39,66,52
India,West_Bengal,Siliguri,"Ward-32 Bapupara, Siliguri - WBPCB",10-09-2025 07:00:00,26.6879226,88.4152495,NO2,14,21,18
India,West_Bengal,Siliguri,"Ward-32 Bapupara, Siliguri - WBPCB",10-09-2025 07:00:00,26.6879226,88.4152495,NH3,12,12,12
India,West_Bengal,Siliguri,"Ward-32 Bapupara, Siliguri - WBPCB",10-09-2025 07:00:00,26.6879226,88.4152495,OZONE,26,30,29
India,Andhra_Pradesh,Visakhapatnam,"GVM Corporation, Visakhapatnam - APPCB",10-09-2025 07:00:00,17.72,83.3,PM10,62,492,199
India,Andhra_Pradesh,Visakhapatnam,"GVM Corporation, Visakhapatnam - APPCB",10-09-2025 07:00:00,17.72,83.3,SO2,5,16,10
India,Andhra_Pradesh,Visakhapatnam,"GVM Corporation, Visakhapatnam - APPCB",10-09-2025 07:00:00,17.72,83.3,CO,4,72,15
India,Arunachal_Pradesh,Naharlagun,"Naharlagun, Naharlagun - APSPCB",10-09-2025 07:00:00,27.103358,93.679645,PM10,33,83,49
India,Arunachal_Pradesh,Naharlagun,"Naharlagun, Naharlagun - APSPCB",10-09-2025 07:00:00,27.103358,93.679645,SO2,8,8,8
India,Assam,Byrnihat,"Central Academy for SFS, Byrnihat - PCBA",10-09-2025 07:00:00,26.071318,91.87488,CO,NA,NA,NA
India,Assam,Guwahati,"IITG, Guwahati - PCBA",10-09-2025 07:00:00,26.2028636,91.70046436,SO2,22,27,24
India,Assam,Guwahati,"IITG, Guwahati - PCBA",10-09-2025 07:00:00,26.2028636,91.70046436,OZONE,1,41,8
India,Assam,Guwahati,"Pan Bazaar, Guwahati - PCBA",10-09-2025 07:00:00,26.187500,91.744194,PM2.5,12,52,32
India,Andhra_Pradesh,Amaravati,"Secretariat, Amaravati - APPCB",10-09-2025 07:00:00,16.5150833,80.5181667,PM10,26,104,50
India,Andhra_Pradesh,Anantapur,"Gulzarpet, Anantapur - APPCB",10-09-2025 07:00:00,14.675886,77.593027,PM2.5,56,78,65
India,Andhra_Pradesh,Anantapur,"Gulzarpet, Anantapur - APPCB",10-09-2025 07:00:00,14.675886,77.593027,NH3,5,10,6
India,Andhra_Pradesh,Chittoor,"Gangineni Cheruvu, Chittoor - APPCB",10-09-2025 07:00:00,13.204880,79.097889,PM10,61,141,99
India,Andhra_Pradesh,Chittoor,"Gangineni Cheruvu, Chittoor - APPCB",10-09-2025 07:00:00,13.204880,79.097889,NH3,6,10,8
India,Andhra_Pradesh,Chittoor,"Gangineni Cheruvu, Chittoor - APPCB",10-09-2025 07:00:00,13.204880,79.097889,SO2,21,22,22
India,Andhra_Pradesh,Kadapa,"Yerramukkapalli, Kadapa - APPCB",10-09-2025 07:00:00,14.465052,78.824187,PM2.5,70,87,78
India,Andhra_Pradesh,Kadapa,"Yerramukkapalli, Kadapa - APPCB",10-09-2025 07:00:00,14.465052,78.824187,PM10,74,94,83
India,Andhra_Pradesh,Kadapa,"Yerramukkapalli, Kadapa - APPCB",10-09-2025 07:00:00,14.465052,78.824187,NO2,10,10,10
India,Andhra_Pradesh,Kadapa,"Yerramukkapalli, Kadapa - APPCB",10-09-2025 07:00:00,14.465052,78.824187,NH3,4,5,4
India,Assam,Nagaon,"Christianpatty, Nagaon - PCBA",10-09-2025 07:00:00,26.349082,92.68449,PM2.5,33,74,56
India,Assam,Nagaon,"Christianpatty, Nagaon - PCBA",10-09-2025 07:00:00,26.349082,92.68449,NO2,1,4,1
India,Assam,Nalbari,"Bata Chowk, Nalbari - PCBA",10-09-2025 07:00:00,26.446912,91.439057,NH3,1,3,2
India,Assam,Nalbari,"Bata Chowk, Nalbari - PCBA",10-09-2025 07:00:00,26.446912,91.439057,SO2,5,8,8
India,Assam,Nalbari,"Bata Chowk, Nalbari - PCBA",10-09-2025 07:00:00,26.446912,91.439057,CO,6,28,25
India,Assam,Nalbari,"Bata Chowk, Nalbari - PCBA",10-09-2025 07:00:00,26.446912,91.439057,OZONE,7,24,22
India,Assam,Silchar,"Tarapur, Silchar - PCBA",10-09-2025 07:00:00,24.82827,92.79525,PM10,39,64,48
India,Assam,Silchar,"Tarapur, Silchar - PCBA",10-09-2025 07:00:00,24.82827,92.79525,CO,20,30,27
India,Assam,Sivasagar,"Girls College, Sivasagar - PCBA",10-09-2025 07:00:00,26.987634,94.636574,NO2,12,22,16
India,Assam,Sivasagar,"Girls College, Sivasagar - PCBA",10-09-2025 07:00:00,26.987634,94.636574,SO2,6,11,9
India,Bihar,Kishanganj,"SDM Office_Khagra, Kishanganj - BSPCB",10-09-2025 07:00:00,26.0881305,87.93840336,NO2,7,8,8
India,Bihar,Manguraha,"Forest Rest House, Manguraha - BSPCB",10-09-2025 07:00:00,27.308328,84.531742,PM10,31,197,51
India,Bihar,Manguraha,"Forest Rest House, Manguraha - BSPCB",10-09-2025 07:00:00,27.308328,84.531742,SO2,6,20,10
India,Bihar,Motihari,"Gandak Colony, Motihari - BSPCB",10-09-2025 07:00:00,26.63086,84.90051,SO2,2,3,2
India,Bihar,Munger,"Town Hall, Munger - BSPCB",10-09-2025 07:00:00,25.376776,86.471523,PM2.5,NA,NA,NA
India,Bihar,Muzaffarpur,"Buddha Colony, Muzaffarpur - BSPCB",10-09-2025 07:00:00,26.11442,85.39813,SO2,2,7,3
India,Bihar,Patna,"Muradpur, Patna - BSPCB",10-09-2025 07:00:00,25.619651,85.147382,CO,30,65,44
India,Bihar,Patna,"Rajbansi Nagar, Patna - BSPCB",10-09-2025 07:00:00,25.599486,85.113666,OZONE,16,18,17
India,Bihar,Patna,"Samanpura, Patna - BSPCB",10-09-2025 07:00:00,25.596727,85.085624,PM10,134,191,157
India,Bihar,Patna,"Samanpura, Patna - BSPCB",10-09-2025 07:00:00,25.596727,85.085624,NO2,39,50,44
India,Bihar,Patna,"Samanpura, Patna - BSPCB",10-09-2025 07:00:00,25.596727,85.085624,NH3,6,7,6
India,Bihar,Purnia,"Mariam Nagar, Purnia - BSPCB",10-09-2025 07:00:00,25.366336,87.117468,NO2,5,7,6
India,Bihar,Rajgir,"Dangi Tola, Rajgir - BSPCB",10-09-2025 07:00:00,25.03280,85.41948,CO,78,100,88
India,Bihar,Gaya,"Kareemganj, Gaya - BSPCB",10-09-2025 07:00:00,24.792403,84.992416,PM2.5,27,70,48
India,Bihar,Gaya,"Kareemganj, Gaya - BSPCB",10-09-2025 07:00:00,24.792403,84.992416,PM10,50,122,89
India,Bihar,Gaya,"Kareemganj, Gaya - BSPCB",10-09-2025 07:00:00,24.792403,84.992416,SO2,15,18,17
India,Bihar,Gaya,"Kareemganj, Gaya - BSPCB",10-09-2025 07:00:00,24.792403,84.992416,CO,30,56,43
India,Bihar,Gaya,"Kareemganj, Gaya - BSPCB",10-09-2025 07:00:00,24.792403,84.992416,OZONE,5,90,24
India,Bihar,Gaya,"SFTI Kusdihra, Gaya - BSPCB",10-09-2025 07:00:00,24.762518,84.982348,CO,23,36,29
India,Bihar,Katihar,"Mirchaibari, Katihar - BSPCB",10-09-2025 07:00:00,25.560083,87.553265,SO2,19,24,22
India,Bihar,Katihar,"Mirchaibari, Katihar - BSPCB",10-09-2025 07:00:00,25.560083,87.553265,OZONE,1,28,4
India,Bihar,Bettiah,"Kamalnath Nagar, Bettiah - BSPCB",10-09-2025 07:00:00,26.80365,84.51954,OZONE,20,29,23
India,Bihar,Bhagalpur,"Mayaganj, Bhagalpur - BSPCB",10-09-2025 07:00:00,25.265194,87.012947,SO2,4,86,61
India,Bihar,Buxar,"Charitra Van, Buxar - BSPCB",10-09-2025 07:00:00,25.567520,83.966379,PM10,69,71,71
India,Bihar,Chhapra,"Darshan Nagar, Chhapra - BSPCB",10-09-2025 07:00:00,25.7808257,84.7446768,PM10,56,157,98
India,Bihar,Chhapra,"Darshan Nagar, Chhapra - BSPCB",10-09-2025 07:00:00,25.7808257,84.7446768,NO2,114,114,114
India,Bihar,Chhapra,"Darshan Nagar, Chhapra - BSPCB",10-09-2025 07:00:00,25.7808257,84.7446768,NH3,3,5,4
India,Bihar,Patna,"Govt. High School Shikarpur, Patna - BSPCB",10-09-2025 07:00:00,25.592539,85.227158,NO2,NA,NA,NA
India,Bihar,Patna,"Govt. High School Shikarpur, Patna - BSPCB",10-09-2025 07:00:00,25.592539,85.227158,NH3,NA,NA,NA
India,Bihar,Patna,"Govt. High School Shikarpur, Patna - BSPCB",10-09-2025 07:00:00,25.592539,85.227158,OZONE,5,12,12
India,Bihar,Patna,"IGSC Planetarium Complex, Patna - BSPCB",10-09-2025 07:00:00,25.610369,85.132568,NO2,11,16,14
India,Bihar,Patna,"Muradpur, Patna - BSPCB",10-09-2025 07:00:00,25.619651,85.147382,NO2,7,10,9
India,Andhra_Pradesh,Tirumala,"Toll Gate, Tirumala - APPCB",10-09-2025 07:00:00,13.67,79.35,PM2.5,30,61,42
India,Andhra_Pradesh,Tirumala,"Toll Gate, Tirumala - APPCB",10-09-2025 07:00:00,13.67,79.35,SO2,1,4,3
India,Andhra_Pradesh,Tirumala,"Toll Gate, Tirumala - APPCB",10-09-2025 07:00:00,13.67,79.35,CO,5,78,31
India,Andhra_Pradesh,Tirupati,"Vaikuntapuram, Tirupati - APPCB",10-09-2025 07:00:00,13.615387,79.409230,PM2.5,70,110,81
India,Bihar,Begusarai,"Lohiyanagar, Begusarai - BSPCB",10-09-2025 07:00:00,25.42742023,86.13886079,OZONE,20,72,43
India,Chhattisgarh,Bilaspur,"Mangala, Bilaspur - NTPC",10-09-2025 07:00:00,22.08815,82.13737,SO2,6,22,13
India,Chhattisgarh,Bilaspur,"Mangala, Bilaspur - NTPC",10-09-2025 07:00:00,22.08815,82.13737,CO,27,36,31
India,Chhattisgarh,Korba,"Rampur, Korba - CECB",10-09-2025 07:00:00,22.368195,82.746431,PM10,25,40,27
India,Chhattisgarh,Korba,"Rampur, Korba - CECB",10-09-2025 07:00:00,22.368195,82.746431,OZONE,2,9,2
India,Chhattisgarh,Kunjemura,"OP Jindal School, Kunjemura - CECB",10-09-2025 07:00:00,22.126650,83.483212,CO,28,44,34
India,Chhattisgarh,Milupara,"Govt. Higher Secondary School, Milupara - CECB",10-09-2025 07:00:00,22.1910172,83.5197009,PM2.5,NA,NA,NA
India,Chhattisgarh,Milupara,"Govt. Higher Secondary School, Milupara - CECB",10-09-2025 07:00:00,22.1910172,83.5197009,PM10,NA,NA,NA
India,Chhattisgarh,Milupara,"Govt. Higher Secondary School, Milupara - CECB",10-09-2025 07:00:00,22.1910172,83.5197009,NO2,NA,NA,NA
India,Chhattisgarh,Raipur,"AIIMS, Raipur - CECB",10-09-2025 07:00:00,21.258815,81.578979,NH3,5,5,5
India,Chhattisgarh,Raipur,"AIIMS, Raipur - CECB",10-09-2025 07:00:00,21.258815,81.578979,SO2,11,16,13
India,Delhi,Delhi,"Mundka, Delhi - DPCC",10-09-2025 07:00:00,28.684678,77.076574,SO2,6,9,7
India,Delhi,Delhi,"NSIT Dwarka, Delhi - CPCB",10-09-2025 07:00:00,28.60909,77.0325413,PM2.5,NA,NA,NA
India,Delhi,Delhi,"NSIT Dwarka, Delhi - CPCB",10-09-2025 07:00:00,28.60909,77.0325413,CO,NA,NA,NA
India,Delhi,Delhi,"NSIT Dwarka, Delhi - CPCB",10-09-2025 07:00:00,28.60909,77.0325413,OZONE,NA,NA,NA
India,Delhi,Delhi,"Najafgarh, Delhi - DPCC",10-09-2025 07:00:00,28.570173,76.933762,NO2,47,58,52
India,Delhi,Delhi,"Najafgarh, Delhi - DPCC",10-09-2025 07:00:00,28.570173,76.933762,CO,22,28,24
India,Delhi,Delhi,"Narela, Delhi - DPCC",10-09-2025 07:00:00,28.822836,77.101981,PM10,36,86,57
India,Delhi,Delhi,"Narela, Delhi - DPCC",10-09-2025 07:00:00,28.822836,77.101981,NH3,3,10,5
India,Delhi,Delhi,"Nehru Nagar, Delhi - DPCC",10-09-2025 07:00:00,28.567890,77.250515,NH3,3,5,4
India,Delhi,Delhi,"Nehru Nagar, Delhi - DPCC",10-09-2025 07:00:00,28.567890,77.250515,SO2,4,11,7
India,Chhattisgarh,Raipur,"Bhatagaon New ISBT, Raipur - CECB",10-09-2025 07:00:00,21.219665,81.630094,NO2,9,46,24
India,Chhattisgarh,Raipur,"Bhatagaon New ISBT, Raipur - CECB",10-09-2025 07:00:00,21.219665,81.630094,NH3,2,2,2
India,Chhattisgarh,Raipur,"Bhatagaon New ISBT, Raipur - CECB",10-09-2025 07:00:00,21.219665,81.630094,CO,14,78,43
India,Chhattisgarh,Raipur,"Krishak Nagar, Raipur - CECB",10-09-2025 07:00:00,21.237755,81.705301,NO2,14,17,15
India,Chhattisgarh,Tumidih,"OP Jindal Industrial Park, Tumidih - CECB",10-09-2025 07:00:00,22.06631475,83.33820077,PM2.5,37,74,55
India,Chhattisgarh,Tumidih,"OP Jindal Industrial Park, Tumidih - CECB",10-09-2025 07:00:00,22.06631475,83.33820077,PM10,40,91,68
India,Chhattisgarh,Tumidih,"OP Jindal Industrial Park, Tumidih - CECB",10-09-2025 07:00:00,22.06631475,83.33820077,OZONE,4,31,5
India,Delhi,Delhi,"Alipur, Delhi - DPCC",10-09-2025 07:00:00,28.815329,77.153010,PM2.5,28,55,39
India,Chandigarh,Chandigarh,"Sector-25, Chandigarh - CPCC",10-09-2025 07:00:00,30.751462,76.762879,PM2.5,29,62,46
India,Chandigarh,Chandigarh,"Sector-25, Chandigarh - CPCC",10-09-2025 07:00:00,30.751462,76.762879,NO2,1,6,4
India,Chandigarh,Chandigarh,"Sector-25, Chandigarh - CPCC",10-09-2025 07:00:00,30.751462,76.762879,NH3,9,30,18
India,Chandigarh,Chandigarh,"Sector-25, Chandigarh - CPCC",10-09-2025 07:00:00,30.751462,76.762879,OZONE,3,63,36
India,Chandigarh,Chandigarh,"Sector-53, Chandigarh - CPCC",10-09-2025 07:00:00,30.719859,76.738637,NH3,1,8,3
India,Chhattisgarh,Bhilai,"32Bungalows, Bhilai - CECB",10-09-2025 07:00:00,21.194815,81.314770,NH3,3,4,3
India,Chhattisgarh,Bhilai,"32Bungalows, Bhilai - CECB",10-09-2025 07:00:00,21.194815,81.314770,CO,9,43,21
India,Chhattisgarh,Bhilai,"Civic Center, Bhilai - Bhilai Steel Plant",10-09-2025 07:00:00,21.185571,81.343175,NH3,3,3,3
India,Bihar,Samastipur,"DM Office_Kasipur, Samastipur - BSPCB",10-09-2025 07:00:00,25.859655,85.77944,PM10,NA,NA,NA
India,Bihar,Samastipur,"DM Office_Kasipur, Samastipur - BSPCB",10-09-2025 07:00:00,25.859655,85.77944,NH3,NA,NA,NA
India,Bihar,Sasaram,"Dada Peer, Sasaram - BSPCB",10-09-2025 07:00:00,24.952822,84.002396,PM10,NA,NA,NA
India,Bihar,Sasaram,"Dada Peer, Sasaram - BSPCB",10-09-2025 07:00:00,24.952822,84.002396,NO2,2,7,2
India,Bihar,Sasaram,"Dada Peer, Sasaram - BSPCB",10-09-2025 07:00:00,24.952822,84.002396,NH3,2,6,3
India,Bihar,Sasaram,"Dada Peer, Sasaram - BSPCB",10-09-2025 07:00:00,24.952822,84.002396,CO,42,100,52
India,Chandigarh,Chandigarh,"Sector 22, Chandigarh - CPCC",10-09-2025 07:00:00,30.735567,76.775714,PM2.5,2,40,21
India,Chandigarh,Chandigarh,"Sector 22, Chandigarh - CPCC",10-09-2025 07:00:00,30.735567,76.775714,CO,34,71,60
India,Delhi,Delhi,"Dwarka-Sector 8, Delhi - DPCC ",10-09-2025 07:00:00,28.5710274,77.0719006,CO,37,78,44
India,Delhi,Delhi,"IGI Airport (T3), Delhi - IMD",10-09-2025 07:00:00,28.5627763,77.1180053,PM2.5,14,71,33
India,Delhi,Delhi,"IGI Airport (T3), Delhi - IMD",10-09-2025 07:00:00,28.5627763,77.1180053,PM10,38,119,75
India,Delhi,Delhi,"IHBAS, Dilshad Garden, Delhi - CPCB",10-09-2025 07:00:00,28.6811736,77.3025234,NO2,48,53,51
India,Delhi,Delhi,"ITO, Delhi - CPCB",10-09-2025 07:00:00,28.628624,77.241060,OZONE,7,10,8
India,Delhi,Delhi,"Jahangirpuri, Delhi - DPCC",10-09-2025 07:00:00,28.732820,77.170633,SO2,1,14,5
India,Delhi,Delhi,"Lodhi Road, Delhi - IITM",10-09-2025 07:00:00,28.588333,77.221667,NO2,NA,NA,NA
India,Delhi,Delhi,"Lodhi Road, Delhi - IITM",10-09-2025 07:00:00,28.588333,77.221667,SO2,NA,NA,NA
India,Delhi,Delhi,"Major Dhyan Chand National Stadium, Delhi - DPCC",10-09-2025 07:00:00,28.611281,77.237738,PM10,48,111,75
India,Delhi,Delhi,"Major Dhyan Chand National Stadium, Delhi - DPCC",10-09-2025 07:00:00,28.611281,77.237738,SO2,2,13,5
India,Delhi,Delhi,"Major Dhyan Chand National Stadium, Delhi - DPCC",10-09-2025 07:00:00,28.611281,77.237738,CO,16,40,23
India,Delhi,Delhi,"Mandir Marg, Delhi - DPCC",10-09-2025 07:00:00,28.636429,77.201067,PM2.5,8,167,61
India,Delhi,Delhi,"Mandir Marg, Delhi - DPCC",10-09-2025 07:00:00,28.636429,77.201067,SO2,1,20,12
India,Delhi,Delhi,"Alipur, Delhi - DPCC",10-09-2025 07:00:00,28.815329,77.153010,PM10,28,107,67
India,Delhi,Delhi,"Alipur, Delhi - DPCC",10-09-2025 07:00:00,28.815329,77.153010,SO2,2,7,5
India,Delhi,Delhi,"Bawana, Delhi - DPCC",10-09-2025 07:00:00,28.776200,77.051074,PM10,35,105,67
India,Delhi,Delhi,"Bawana, Delhi - DPCC",10-09-2025 07:00:00,28.776200,77.051074,NO2,1,12,5
India,Delhi,Delhi,"Bawana, Delhi - DPCC",10-09-2025 07:00:00,28.776200,77.051074,CO,82,102,88
India,Delhi,Delhi,"Burari Crossing, Delhi - IMD",10-09-2025 07:00:00,28.7256504,77.2011573,PM2.5,4,65,38
India,Delhi,Delhi,"DTU, Delhi - CPCB",10-09-2025 07:00:00,28.7500499,77.1112615,NO2,NA,NA,NA
India,Delhi,Delhi,"Dr. Karni Singh Shooting Range, Delhi - DPCC",10-09-2025 07:00:00,28.498571,77.264840,SO2,6,14,10
India,Delhi,Delhi,"Dwarka-Sector 8, Delhi - DPCC ",10-09-2025 07:00:00,28.5710274,77.0719006,NO2,14,47,27
India,Karnataka,Bagalkot,"Vidayagiri, Bagalkot - KSPCB",10-09-2025 07:00:00,16.172806,75.659694,NO2,9,11,9
India,Karnataka,Bengaluru,"BTM Layout, Bengaluru - CPCB",10-09-2025 07:00:00,12.9135218,77.5950804,PM10,47,49,48
India,Karnataka,Bengaluru,"BTM Layout, Bengaluru - CPCB",10-09-2025 07:00:00,12.9135218,77.5950804,CO,17,28,20
India,Karnataka,Bengaluru,"BTM Layout, Bengaluru - CPCB",10-09-2025 07:00:00,12.9135218,77.5950804,OZONE,20,21,20
India,Karnataka,Bengaluru,"Bapuji Nagar, Bengaluru - KSPCB",10-09-2025 07:00:00,12.951913,77.539784,PM2.5,35,131,59
India,Karnataka,Bengaluru,"Bapuji Nagar, Bengaluru - KSPCB",10-09-2025 07:00:00,12.951913,77.539784,NH3,1,3,1
India,Karnataka,Bengaluru,"Bapuji Nagar, Bengaluru - KSPCB",10-09-2025 07:00:00,12.951913,77.539784,SO2,4,24,9
India,Karnataka,Bengaluru,"Bapuji Nagar, Bengaluru - KSPCB",10-09-2025 07:00:00,12.951913,77.539784,OZONE,6,43,16
India,Karnataka,Bengaluru,"City Railway Station, Bengaluru - KSPCB",10-09-2025 07:00:00,12.9756843,77.5660749,PM10,86,102,95
India,Karnataka,Bengaluru,"Hebbal, Bengaluru - KSPCB",10-09-2025 07:00:00,13.029152,77.585901,PM10,27,106,52
India,Haryana,Panchgaon,"Amity University, Panchgaon - IITM",10-09-2025 07:00:00,28.3153,76.9143,PM2.5,32,54,42
India,Haryana,Panchgaon,"Amity University, Panchgaon - IITM",10-09-2025 07:00:00,28.3153,76.9143,PM10,39,79,56
India,Haryana,Panchgaon,"Amity University, Panchgaon - IITM",10-09-2025 07:00:00,28.3153,76.9143,NO2,4,23,13
India,Himachal Pradesh,Baddi,"HIMUDA Complex Phase-1, Baddi - HPPCB",10-09-2025 07:00:00,30.943887,76.801991,CO,42,64,52
India,Jharkhand,Dhanbad,"Sardar Patel Nagar, Dhanbad - JSPCB",10-09-2025 07:00:00,23.80569,86.44268,PM2.5,8,65,37
India,Jharkhand,Dhanbad,"Sardar Patel Nagar, Dhanbad - JSPCB",10-09-2025 07:00:00,23.80569,86.44268,PM10,6,119,81
India,Karnataka,Bagalkot,"Vidayagiri, Bagalkot - KSPCB",10-09-2025 07:00:00,16.172806,75.659694,PM2.5,33,34,34
India,Gujarat,Gandhinagar,"GIFT City, Gandhinagar - IITM",10-09-2025 07:00:00,23.163798,72.677768,PM10,41,86,64
India,Gujarat,Gandhinagar,"GIFT City, Gandhinagar - IITM",10-09-2025 07:00:00,23.163798,72.677768,NO2,11,35,19
India,Gujarat,Gandhinagar,"GIFT City, Gandhinagar - IITM",10-09-2025 07:00:00,23.163798,72.677768,NH3,2,8,4
India,Gujarat,Gandhinagar,"IIPHG Lekawada, Gandhinagar - IITM",10-09-2025 07:00:00,23.243639,72.68994,SO2,8,13,10
India,Gujarat,Gandhinagar,"IIPHG Lekawada, Gandhinagar - IITM",10-09-2025 07:00:00,23.243639,72.68994,OZONE,1,29,1
India,Gujarat,Gandhinagar,"Sector-10, Gandhinagar - GPCB",10-09-2025 07:00:00,23.221714,72.654328,NO2,9,17,14
India,Gujarat,Gandhinagar,"Sector-10, Gandhinagar - GPCB",10-09-2025 07:00:00,23.221714,72.654328,OZONE,6,15,6
India,Gujarat,Vapi,"Phase-1 GIDC, Vapi - GPCB",10-09-2025 07:00:00,20.362421,72.918013,PM2.5,40,190,75
India,Karnataka,Bengaluru,"Jayanagar 5th Block, Bengaluru - KSPCB",10-09-2025 07:00:00,12.920984,77.584908,PM10,31,135,70
India,Karnataka,Bengaluru,"Peenya, Bengaluru - CPCB",10-09-2025 07:00:00,13.0270199,77.494094,PM10,NA,NA,NA
India,Karnataka,Bengaluru,"Peenya, Bengaluru - CPCB",10-09-2025 07:00:00,13.0270199,77.494094,SO2,NA,NA,NA
India,Karnataka,Bengaluru,"RVCE-Mailasandra, Bengaluru - KSPCB",10-09-2025 07:00:00,12.921418,77.502466,PM10,71,89,78
India,Karnataka,Bengaluru,"RVCE-Mailasandra, Bengaluru - KSPCB",10-09-2025 07:00:00,12.921418,77.502466,NO2,30,32,31
India,Karnataka,Bengaluru,"RVCE-Mailasandra, Bengaluru - KSPCB",10-09-2025 07:00:00,12.921418,77.502466,OZONE,21,22,21
India,Karnataka,Bengaluru,"Sanegurava Halli, Bengaluru - KSPCB",10-09-2025 07:00:00,12.990328,77.5431385,PM10,39,44,40
India,Delhi,Delhi,"Sirifort, Delhi - CPCB",10-09-2025 07:00:00,28.5504249,77.2159377,PM2.5,28,57,37
India,Delhi,Delhi,"Sonia Vihar, Delhi - DPCC",10-09-2025 07:00:00,28.710508,77.249485,SO2,14,18,15
India,Delhi,Delhi,"Sonia Vihar, Delhi - DPCC",10-09-2025 07:00:00,28.710508,77.249485,CO,39,64,57
India,Delhi,Delhi,"Sonia Vihar, Delhi - DPCC",10-09-2025 07:00:00,28.710508,77.249485,OZONE,3,38,5
India,Delhi,Delhi,"Sri Aurobindo Marg, Delhi - DPCC",10-09-2025 07:00:00,28.531346,77.190156,PM2.5,13,33,24
India,Delhi,Delhi,"Sri Aurobindo Marg, Delhi - DPCC",10-09-2025 07:00:00,28.531346,77.190156,NH3,4,5,5
India,Delhi,Delhi,"Vivek Vihar, Delhi - DPCC",10-09-2025 07:00:00,28.672342,77.315260,SO2,5,16,7
India,Gujarat,Ahmedabad,"Rakhial, Ahmedabad - IITM",10-09-2025 07:00:00,23.016834,72.625775,PM10,NA,NA,NA
India,Gujarat,Ahmedabad,"Rakhial, Ahmedabad - IITM",10-09-2025 07:00:00,23.016834,72.625775,OZONE,NA,NA,NA
India,Gujarat,Ahmedabad,"SAC ISRO Bopal, Ahmedabad - IITM",10-09-2025 07:00:00,23.041137,72.456691,SO2,1,1,1
India,Gujarat,Ahmedabad,"SAC ISRO Bopal, Ahmedabad - IITM",10-09-2025 07:00:00,23.041137,72.456691,CO,6,42,28
India,Gujarat,Ahmedabad,"SAC ISRO Satellite, Ahmedabad - IITM",10-09-2025 07:00:00,23.023389,72.515201,SO2,1,5,3
India,Gujarat,Ahmedabad,"SVPI Airport Hansol, Ahmedabad - IITM",10-09-2025 07:00:00,23.076793,72.627874,PM2.5,15,39,27
India,Gujarat,Ahmedabad,"SVPI Airport Hansol, Ahmedabad - IITM",10-09-2025 07:00:00,23.076793,72.627874,PM10,34,61,49
India,Delhi,Delhi,"North Campus, DU, Delhi - IMD",10-09-2025 07:00:00,28.6573814,77.1585447,OZONE,15,88,34
India,Delhi,Delhi,"Patparganj, Delhi - DPCC",10-09-2025 07:00:00,28.623763,77.287209,PM2.5,20,73,44
India,Delhi,Delhi,"Patparganj, Delhi - DPCC",10-09-2025 07:00:00,28.623763,77.287209,SO2,6,12,9
India,Delhi,Delhi,"Punjabi Bagh, Delhi - DPCC",10-09-2025 07:00:00,28.674045,77.131023,PM10,58,144,87
India,Delhi,Delhi,"Punjabi Bagh, Delhi - DPCC",10-09-2025 07:00:00,28.674045,77.131023,NH3,3,4,3
India,Delhi,Delhi,"Punjabi Bagh, Delhi - DPCC",10-09-2025 07:00:00,28.674045,77.131023,CO,38,52,44
India,Delhi,Delhi,"Wazirpur, Delhi - DPCC",10-09-2025 07:00:00,28.699793,77.165453,PM10,68,170,129
India,Delhi,Delhi,"Wazirpur, Delhi - DPCC",10-09-2025 07:00:00,28.699793,77.165453,CO,14,26,19
India,Gujarat,Ahmedabad,"Chandkheda, Ahmedabad - IITM",10-09-2025 07:00:00,23.107969,72.574648,NO2,NA,NA,NA
India,Gujarat,Ahmedabad,"Chandkheda, Ahmedabad - IITM",10-09-2025 07:00:00,23.107969,72.574648,CO,18,63,52
India,Gujarat,Ahmedabad,"Gyaspur, Ahmedabad - IITM",10-09-2025 07:00:00,22.977134,72.553024,OZONE,1,12,2
India,Delhi,Delhi,"R K Puram, Delhi - DPCC",10-09-2025 07:00:00,28.563262,77.186937,PM10,29,109,67
India,Delhi,Delhi,"R K Puram, Delhi - DPCC",10-09-2025 07:00:00,28.563262,77.186937,NH3,3,6,4
India,Delhi,Delhi,"Shadipur, Delhi - CPCB",10-09-2025 07:00:00,28.6514781,77.1473105,PM2.5,54,134,88
India,Madhya Pradesh,Indore,"Regional Park, Indore - IMC",10-09-2025 07:00:00,22.6780,75.8559,NH3,NA,NA,NA
India,Madhya Pradesh,Indore,"Regional Park, Indore - IMC",10-09-2025 07:00:00,22.6780,75.8559,OZONE,1,7,6
India,Madhya Pradesh,Indore,"Residency Area, Indore - IMC",10-09-2025 07:00:00,22.7084,75.8815,PM2.5,29,68,37
India,Madhya Pradesh,Jabalpur,"Govindh Bhavan Colony, Jabalpur - JMC",10-09-2025 07:00:00,23.163174,79.973061,NO2,36,37,36
India,Madhya Pradesh,Jabalpur,"Govindh Bhavan Colony, Jabalpur - JMC",10-09-2025 07:00:00,23.163174,79.973061,CO,20,32,24
India,Madhya Pradesh,Jabalpur,"Govindh Bhavan Colony, Jabalpur - JMC",10-09-2025 07:00:00,23.163174,79.973061,OZONE,5,8,5
India,Madhya Pradesh,Jabalpur,"Gupteshwar, Jabalpur - JMC",10-09-2025 07:00:00,23.142888,79.916147,PM10,NA,NA,NA
India,Madhya Pradesh,Jabalpur,"Gupteshwar, Jabalpur - JMC",10-09-2025 07:00:00,23.142888,79.916147,CO,NA,NA,NA
India,Madhya Pradesh,Jabalpur,"Suhagi, Jabalpur - JMC",10-09-2025 07:00:00,23.218135,79.957770,NO2,24,43,30
India,Madhya Pradesh,Katni,"Gole Bazar, Katni - MPPCB",10-09-2025 07:00:00,23.50016,80.23284,NH3,3,3,3
India,Madhya Pradesh,Katni,"Gole Bazar, Katni - MPPCB",10-09-2025 07:00:00,23.50016,80.23284,SO2,13,28,19
India,Madhya Pradesh,Katni,"Gole Bazar, Katni - MPPCB",10-09-2025 07:00:00,23.50016,80.23284,CO,20,36,34
India,Kerala,Eloor,"Udyogamandal, Eloor - Kerala PCB",10-09-2025 07:00:00,10.073232,76.302765,OZONE,10,25,20
India,Kerala,Kollam,"Polayathode, Kollam - Kerala PCB",10-09-2025 07:00:00,8.8787,76.6073,OZONE,30,35,31
India,Kerala,Thiruvananthapuram,"Kariavattom, Thiruvananthapuram - Kerala PCB",10-09-2025 07:00:00,8.563700,76.886500,PM2.5,41,47,43
India,Kerala,Thiruvananthapuram,"Kariavattom, Thiruvananthapuram - Kerala PCB",10-09-2025 07:00:00,8.563700,76.886500,PM10,63,73,67
India,Kerala,Thiruvananthapuram,"Kariavattom, Thiruvananthapuram - Kerala PCB",10-09-2025 07:00:00,8.563700,76.886500,SO2,1,16,4
India,Kerala,Thiruvananthapuram,"Plammoodu, Thiruvananthapuram - Kerala PCB",10-09-2025 07:00:00,8.5149093,76.9435879,PM10,1,81,26
India,Kerala,Thiruvananthapuram,"Plammoodu, Thiruvananthapuram - Kerala PCB",10-09-2025 07:00:00,8.5149093,76.9435879,SO2,13,27,19
India,Kerala,Thiruvananthapuram,"Plammoodu, Thiruvananthapuram - Kerala PCB",10-09-2025 07:00:00,8.5149093,76.9435879,CO,6,68,8
India,Kerala,Thrissur,"Corporation Ground, Thrissur - Kerala PCB",10-09-2025 07:00:00,10.532400,76.215900,NO2,5,10,6
India,Madhya Pradesh,Bhopal,"Idgah Hills, Bhopal - MPPCB",10-09-2025 07:00:00,23.264759,77.381568,PM10,23,54,37
India,Karnataka,Chikkamagaluru,"Kalyana Nagara, Chikkamagaluru - KSPCB",10-09-2025 07:00:00,13.328028,75.797056,CO,NA,NA,NA
India,Karnataka,Davanagere,"Devaraj Urs Badavane, Davanagere - KSPCB",10-09-2025 07:00:00,14.475800,75.905200,NO2,6,28,16
India,Karnataka,Dharwad,"Kalabhavan, Dharwad - KSPCB",10-09-2025 07:00:00,15.459706,75.008381,PM10,NA,NA,NA
India,Karnataka,Hassan,"B.Katihalli, Hassan - KSPCB",10-09-2025 07:00:00,13.008556,76.125258,NO2,10,28,18
India,Karnataka,Hassan,"B.Katihalli, Hassan - KSPCB",10-09-2025 07:00:00,13.008556,76.125258,CO,4,15,10
India,Karnataka,Haveri,"Ashwini Nagar, Haveri - KSPCB",10-09-2025 07:00:00,14.791800,75.389600,CO,NA,NA,NA
India,Karnataka,Haveri,"Ashwini Nagar, Haveri - KSPCB",10-09-2025 07:00:00,14.791800,75.389600,OZONE,NA,NA,NA
India,Karnataka,Hubballi,"Lingaraj Nagar, Hubballi - KSPCB",10-09-2025 07:00:00,15.3714823,75.1160168,SO2,NA,NA,NA
India,Karnataka,Kalaburagi,"Lal Bahadur Shastri Nagar, Kalaburagi - KSPCB",10-09-2025 07:00:00,17.321993,76.822628,NO2,11,12,12
India,Karnataka,Bengaluru,"Shivapura_Peenya, Bengaluru - KSPCB",10-09-2025 07:00:00,13.0246342,77.5080115,CO,27,67,49
India,Karnataka,Bengaluru,"Silk Board, Bengaluru - KSPCB",10-09-2025 07:00:00,12.917348,77.622813,PM2.5,22,74,46
India,Karnataka,Bidar,"Naubad, Bidar - KSPCB",10-09-2025 07:00:00,17.930306,77.482194,CO,NA,NA,NA
India,Karnataka,Chamarajanagar,"Urban, Chamarajanagar - KSPCB",10-09-2025 07:00:00,11.55358,76.55521,PM2.5,NA,NA,NA
India,Karnataka,Chamarajanagar,"Urban, Chamarajanagar - KSPCB",10-09-2025 07:00:00,11.55358,76.55521,NH3,NA,NA,NA
India,Karnataka,Chamarajanagar,"Urban, Chamarajanagar - KSPCB",10-09-2025 07:00:00,11.55358,76.55521,SO2,NA,NA,NA
India,Karnataka,Chamarajanagar,"Urban, Chamarajanagar - KSPCB",10-09-2025 07:00:00,11.55358,76.55521,CO,NA,NA,NA
India,Karnataka,Chikkaballapur,"Chikkaballapur Rural, Chikkaballapur - KSPCB",10-09-2025 07:00:00,13.428828,77.731418,PM2.5,15,49,26
India,Karnataka,Chikkaballapur,"Chikkaballapur Rural, Chikkaballapur - KSPCB",10-09-2025 07:00:00,13.428828,77.731418,OZONE,18,23,19
India,Karnataka,Chikkamagaluru,"Kalyana Nagara, Chikkamagaluru - KSPCB",10-09-2025 07:00:00,13.328028,75.797056,NH3,NA,NA,NA
India,Karnataka,Kalaburagi,"Lal Bahadur Shastri Nagar, Kalaburagi - KSPCB",10-09-2025 07:00:00,17.321993,76.822628,SO2,48,52,51
India,Karnataka,Kalaburagi,"Mahatma Basaveswar Colony, Kalaburgi - KSPCB",10-09-2025 07:00:00,17.336318,76.847397,SO2,2,5,3
India,Karnataka,Karwar,"KHB Colony, Karwar - KSPCB",10-09-2025 07:00:00,14.816666,74.141003,PM10,NA,NA,NA
India,Karnataka,Madikeri,"Stuart Hill, Madikeri - KSPCB",10-09-2025 07:00:00,12.415911,75.735050,OZONE,4,6,5
India,Karnataka,Mangalore,"Kadri, Mangalore - KSPCB",10-09-2025 07:00:00,12.889250,74.853000,PM2.5,29,42,34
India,Karnataka,Mangalore,"Kadri, Mangalore - KSPCB",10-09-2025 07:00:00,12.889250,74.853000,NO2,3,28,22
India,Karnataka,Mysuru,"Hebbal 1st Stage, Mysuru - KSPCB",10-09-2025 07:00:00,12.21041,76.37376,PM2.5,19,38,26
India,Madhya Pradesh,Bhopal,"Idgah Hills, Bhopal - MPPCB",10-09-2025 07:00:00,23.264759,77.381568,NO2,8,32,17
India,Madhya Pradesh,Bhopal,"Idgah Hills, Bhopal - MPPCB",10-09-2025 07:00:00,23.264759,77.381568,NH3,2,4,3
India,Madhya Pradesh,Bhopal,"Idgah Hills, Bhopal - MPPCB",10-09-2025 07:00:00,23.264759,77.381568,SO2,9,10,10
India,Madhya Pradesh,Bhopal,"Paryavaran Parisar, Bhopal - MPPCB",10-09-2025 07:00:00,23.210494,77.425409,NO2,7,43,18
India,Madhya Pradesh,Bhopal,"Paryavaran Parisar, Bhopal - MPPCB",10-09-2025 07:00:00,23.210494,77.425409,NH3,3,4,3
India,Madhya Pradesh,Bhopal,"Paryavaran Parisar, Bhopal - MPPCB",10-09-2025 07:00:00,23.210494,77.425409,SO2,13,14,14
India,Madhya Pradesh,Damoh,"Shrivastav Colony, Damoh - MPPCB",10-09-2025 07:00:00,23.81748678,79.446246,PM2.5,NA,NA,NA
India,Madhya Pradesh,Damoh,"Shrivastav Colony, Damoh - MPPCB",10-09-2025 07:00:00,23.81748678,79.446246,SO2,NA,NA,NA
India,Madhya Pradesh,Dewas,"Bhopal Chauraha, Dewas - MPPCB",10-09-2025 07:00:00,22.9682591,76.064118,NH3,3,4,3
India,Madhya Pradesh,Gwalior,"City Center, Gwalior - MPPCB",10-09-2025 07:00:00,26.203442,78.193251,OZONE,21,60,23
India,Madhya Pradesh,Gwalior,"Deen Dayal Nagar, Gwalior - MPPCB",10-09-2025 07:00:00,26.259242,78.216432,PM10,15,81,51
India,Madhya Pradesh,Indore,"Airport Area, Indore - IMC",10-09-2025 07:00:00,22.7289,75.8076,PM2.5,20,29,24
India,Madhya Pradesh,Indore,"Chhoti Gwaltoli, Indore - MPPCB",10-09-2025 07:00:00,22.4310,75.5213,PM2.5,28,58,38
India,Madhya Pradesh,Indore,"Chhoti Gwaltoli, Indore - MPPCB",10-09-2025 07:00:00,22.4310,75.5213,NO2,57,81,67
India,Madhya Pradesh,Indore,"Regional Park, Indore - IMC",10-09-2025 07:00:00,22.6780,75.8559,PM2.5,7,45,26
India,Madhya Pradesh,Maihar,"Sahilara, Maihar - KJS Cements",10-09-2025 07:00:00,24.2613009,80.7231783,PM10,NA,NA,NA
India,Madhya Pradesh,Mandideep,"Sector-D Industrial Area, Mandideep - MPPCB",10-09-2025 07:00:00,23.108440,77.511428,PM2.5,26,84,49
India,Madhya Pradesh,Mandideep,"Sector-D Industrial Area, Mandideep - MPPCB",10-09-2025 07:00:00,23.108440,77.511428,SO2,9,120,48
India,Madhya Pradesh,Mandideep,"Sector-D Industrial Area, Mandideep - MPPCB",10-09-2025 07:00:00,23.108440,77.511428,CO,13,72,17
India,Madhya Pradesh,Singrauli,"Suryakiran Bhawan NCL, Singrauli - MPPCB",10-09-2025 07:00:00,24.108970,82.645580,NO2,19,23,21
India,Karnataka,Shivamogga,"Vinoba Nagara, Shivamogga - KSPCB",10-09-2025 07:00:00,13.940000,75.555917,PM2.5,2,29,20
India,Karnataka,Tumakuru,"Thimmalapura, Tumakuru - KSPCB",10-09-2025 07:00:00,13.377516,77.099072,SO2,NA,NA,NA
India,Karnataka,Yadgir,"Collector Office, Yadgir - KSPCB",10-09-2025 07:00:00,16.7602,77.1428,PM10,9,80,36
India,Karnataka,Yadgir,"Collector Office, Yadgir - KSPCB",10-09-2025 07:00:00,16.7602,77.1428,NO2,24,52,36
India,Maharashtra,Mumbai,"Borivali East, Mumbai - MPCB",10-09-2025 07:00:00,19.2243333,72.8658113,OZONE,2,8,4
India,Maharashtra,Mumbai,"Byculla, Mumbai - BMC",10-09-2025 07:00:00,18.9767,72.8380,PM10,24,57,45
India,Maharashtra,Mumbai,"Byculla, Mumbai - BMC",10-09-2025 07:00:00,18.9767,72.8380,NH3,3,9,5
India,Maharashtra,Mumbai,"Byculla, Mumbai - BMC",10-09-2025 07:00:00,18.9767,72.8380,SO2,NA,NA,NA
India,Maharashtra,Mumbai,"Byculla, Mumbai - BMC",10-09-2025 07:00:00,18.9767,72.8380,CO,2,12,7
India,Maharashtra,Mumbai,"Chakala-Andheri East, Mumbai - IITM",10-09-2025 07:00:00,19.11074,72.86084,PM10,49,118,80
India,Maharashtra,Mumbai,"Chakala-Andheri East, Mumbai - IITM",10-09-2025 07:00:00,19.11074,72.86084,CO,11,47,29
India,Maharashtra,Mumbai,"Chembur, Mumbai - MPCB",10-09-2025 07:00:00,19.0364585,72.8954371,NH3,4,8,6
India,Maharashtra,Mumbai,"Chembur, Mumbai - MPCB",10-09-2025 07:00:00,19.0364585,72.8954371,SO2,1,54,9
India,Maharashtra,Mumbai,"Chhatrapati Shivaji Intl. Airport (T2), Mumbai - MPCB",10-09-2025 07:00:00,19.10078,72.87462,PM2.5,39,47,42
India,Maharashtra,Malegaon,"Mahesh Nagar, Malegaon - MPCB",10-09-2025 07:00:00,20.555712,74.529236,NH3,4,5,4
India,Maharashtra,Malegaon,"Mahesh Nagar, Malegaon - MPCB",10-09-2025 07:00:00,20.555712,74.529236,CO,22,48,26
India,Maharashtra,Mira-Bhayandar,"Bhayandar West, Mira-Bhayandar - MPCB",10-09-2025 07:00:00,19.296481,72.840923,PM10,26,65,46
India,Maharashtra,Mira-Bhayandar,"Bhayandar West, Mira-Bhayandar - MPCB",10-09-2025 07:00:00,19.296481,72.840923,NH3,1,4,2
India,Maharashtra,Mira-Bhayandar,"Bhayandar West, Mira-Bhayandar - MPCB",10-09-2025 07:00:00,19.296481,72.840923,OZONE,NA,NA,NA
India,Maharashtra,Mumbai,"Bandra Kurla Complex, Mumbai - MPCB",10-09-2025 07:00:00,19.065931,72.862131,NO2,13,26,19
India,Maharashtra,Mumbai,"Bandra Kurla Complex, Mumbai - MPCB",10-09-2025 07:00:00,19.065931,72.862131,NH3,2,16,6
India,Maharashtra,Mumbai,"Borivali East, Mumbai - IITM",10-09-2025 07:00:00,19.23241,72.86895,NO2,16,95,40
India,Maharashtra,Mumbai,"Borivali East, Mumbai - MPCB",10-09-2025 07:00:00,19.2243333,72.8658113,PM2.5,15,50,23
India,Maharashtra,Chandrapur,"Chauhan Colony, Chandrapur - MPCB",10-09-2025 07:00:00,19.962900,79.298714,PM2.5,4,30,11
India,Maharashtra,Chandrapur,"Chauhan Colony, Chandrapur - MPCB",10-09-2025 07:00:00,19.962900,79.298714,SO2,28,28,28
India,Maharashtra,Chandrapur,"Chauhan Colony, Chandrapur - MPCB",10-09-2025 07:00:00,19.962900,79.298714,CO,20,38,24
India,Maharashtra,Chandrapur,"MIDC Khutala, Chandrapur - MPCB",10-09-2025 07:00:00,19.9775302,79.2337086,PM2.5,17,99,45
India,Maharashtra,Chandrapur,"MIDC Khutala, Chandrapur - MPCB",10-09-2025 07:00:00,19.9775302,79.2337086,NH3,1,7,2
India,Maharashtra,Dhule,"Deopur, Dhule - MPCB",10-09-2025 07:00:00,20.918946,74.776388,SO2,6,11,9
India,Maharashtra,Jalgaon,"Prabhat Colony, Jalgaon - MPCB",10-09-2025 07:00:00,21.001264,75.565602,NH3,2,3,3
India,Maharashtra,Jalgaon,"Prabhat Colony, Jalgaon - MPCB",10-09-2025 07:00:00,21.001264,75.565602,SO2,1,15,7
India,Maharashtra,Jalna,"Old MIDC, Jalna - MPCB",10-09-2025 07:00:00,19.854616,75.905894,PM2.5,NA,NA,NA
India,Maharashtra,Ahmednagar,"Tarakpur, Ahmednagar - MPCB",10-09-2025 07:00:00,19.10122,74.73339,SO2,3,12,7
India,Maharashtra,Amravati,"Shivneri Colony, Amravati - MPCB",10-09-2025 07:00:00,20.9402359,77.7895248,NH3,1,2,2
India,Maharashtra,Amravati,"Shivneri Colony, Amravati - MPCB",10-09-2025 07:00:00,20.9402359,77.7895248,OZONE,4,40,8
India,Maharashtra,Amravati,"Shri Shivaji Science College, Amravati - MPCB",10-09-2025 07:00:00,20.939198,77.765701,PM2.5,15,53,29
India,Maharashtra,Amravati,"Shri Shivaji Science College, Amravati - MPCB",10-09-2025 07:00:00,20.939198,77.765701,CO,18,37,24
India,Maharashtra,Aurangabad,"MIDC Chilkalthana, Aurangabad - MPCB",10-09-2025 07:00:00,19.875620,75.387310,PM10,NA,NA,NA
India,Maharashtra,Aurangabad,"More Chowk Waluj, Aurangabad - MPCB",10-09-2025 07:00:00,19.8389439,75.244448,NO2,12,23,18
India,Maharashtra,Aurangabad,"Rachnakar Colony, Aurangabad - MPCB",10-09-2025 07:00:00,19.863756,75.321188,PM2.5,20,50,39
India,Maharashtra,Aurangabad,"Rachnakar Colony, Aurangabad - MPCB",10-09-2025 07:00:00,19.863756,75.321188,NO2,16,22,19
India,Maharashtra,Badlapur,"Katrap, Badlapur - MPCB",10-09-2025 07:00:00,19.16485,73.23409,OZONE,13,39,15
India,Maharashtra,Belapur,"CBD Belapur, Belapur - MPCB",10-09-2025 07:00:00,19.0243902,73.0406721,PM2.5,3,56,38
India,Maharashtra,Belapur,"CBD Belapur, Belapur - MPCB",10-09-2025 07:00:00,19.0243902,73.0406721,OZONE,8,26,8
India,Maharashtra,Bhiwandi,"Gokul Nagar, Bhiwandi - MPCB",10-09-2025 07:00:00,19.309073,73.057223,PM10,53,92,73
India,Maharashtra,Bhiwandi,"Gokul Nagar, Bhiwandi - MPCB",10-09-2025 07:00:00,19.309073,73.057223,CO,23,42,35
India,Maharashtra,Mumbai,"Kurla, Mumbai - MPCB",10-09-2025 07:00:00,19.0863,72.8888,NO2,3,5,4
India,Maharashtra,Mumbai,"Kurla, Mumbai - MPCB",10-09-2025 07:00:00,19.0863,72.8888,SO2,36,37,37
India,Maharashtra,Mumbai,"Malad West, Mumbai - IITM",10-09-2025 07:00:00,19.19709,72.82204,CO,10,58,30
India,Maharashtra,Mumbai,"Mazgaon, Mumbai - IITM",10-09-2025 07:00:00,18.96702,72.84214,NO2,NA,NA,NA
India,Maharashtra,Mumbai,"Mazgaon, Mumbai - IITM",10-09-2025 07:00:00,18.96702,72.84214,NH3,NA,NA,NA
India,Maharashtra,Mumbai,"Mazgaon, Mumbai - IITM",10-09-2025 07:00:00,18.96702,72.84214,OZONE,3,17,4
India,Maharashtra,Mumbai,"Mulund West, Mumbai - MPCB",10-09-2025 07:00:00,19.1750,72.9419,PM2.5,26,58,43
India,Maharashtra,Kolhapur,"Shivaji University, Kolhapur - MPCB",10-09-2025 07:00:00,16.6870449,74.2505872,PM10,22,46,30
India,Maharashtra,Kolhapur,"Shivaji University, Kolhapur - MPCB",10-09-2025 07:00:00,16.6870449,74.2505872,NO2,6,27,16
India,Maharashtra,Kolhapur,"Sinchan Bhavan, Kolhapur - MPCB",10-09-2025 07:00:00,16.7143745,74.2426398,NH3,NA,NA,NA
India,Maharashtra,Kolhapur,"Sinchan Bhavan, Kolhapur - MPCB",10-09-2025 07:00:00,16.7143745,74.2426398,OZONE,NA,NA,NA
India,Maharashtra,Latur,"Sawe Wadi, Latur - MPCB",10-09-2025 07:00:00,18.39963,76.57452,OZONE,17,45,19
India,Maharashtra,Mumbai,"Colaba, Mumbai - MPCB",10-09-2025 07:00:00,18.910000,72.820000,OZONE,10,12,11
India,Maharashtra,Mumbai,"Ghatkopar, Mumbai - BMC",10-09-2025 07:00:00,19.083694,72.920967,NO2,9,21,14
India,Maharashtra,Mumbai,"Kandivali East, Mumbai - MPCB",10-09-2025 07:00:00,19.205800,72.868200,NO2,6,15,9
India,Maharashtra,Mumbai,"Kandivali West, Mumbai - BMC",10-09-2025 07:00:00,19.215859,72.831718,NH3,1,3,2
India,Madhya Pradesh,Singrauli,"Suryakiran Bhawan NCL, Singrauli - MPPCB",10-09-2025 07:00:00,24.108970,82.645580,CO,12,14,13
India,Maharashtra,Thane,"Upvan Fort, Thane - MPCB",10-09-2025 07:00:00,19.222279,72.957979,SO2,1,5,3
India,Maharashtra,Ulhasnagar,"Sidhi Vinayak Nagar, Ulhasnagar - MPCB",10-09-2025 07:00:00,19.235581,73.159121,NO2,28,59,42
India,Maharashtra,Virar,"Bolinj, Virar - MPCB",10-09-2025 07:00:00,19.4458210,72.7988231,NH3,1,1,1
India,Maharashtra,Virar,"Bolinj, Virar - MPCB",10-09-2025 07:00:00,19.4458210,72.7988231,OZONE,2,35,3
India,Meghalaya,Shillong,"Lumpyngngad, Shillong - Meghalaya PCB",10-09-2025 07:00:00,25.5586,91.8985,NO2,NA,NA,NA
India,Nagaland,Kohima,"PWD Junction, Kohima - NPCB",10-09-2025 07:00:00,25.6635413,94.0989878,PM2.5,5,84,44
India,Nagaland,Kohima,"PWD Junction, Kohima - NPCB",10-09-2025 07:00:00,25.6635413,94.0989878,PM10,5,96,46
India,Nagaland,Kohima,"PWD Junction, Kohima - NPCB",10-09-2025 07:00:00,25.6635413,94.0989878,NO2,3,4,4
India,Nagaland,Kohima,"PWD Junction, Kohima - NPCB",10-09-2025 07:00:00,25.6635413,94.0989878,CO,1,16,7
India,Odisha,Angul,"Hakimapada, Angul - OSPCB",10-09-2025 07:00:00,20.832874,85.104082,PM2.5,7,98,42
India,Maharashtra,Pimpri-Chinchwad,"Thergaon, Pimpri Chinchwad - MPCB",10-09-2025 07:00:00,18.616318,73.765797,CO,15,66,22
India,Maharashtra,Pune,"Bhumkar Nagar, Pune - IITM",10-09-2025 07:00:00,18.605770,73.749976,PM10,56,92,71
India,Maharashtra,Pune,"Katraj Dairy, Pune - MPCB",10-09-2025 07:00:00,18.454450,73.854155,PM2.5,8,56,29
India,Maharashtra,Pune,"Katraj Dairy, Pune - MPCB",10-09-2025 07:00:00,18.454450,73.854155,PM10,24,53,41
India,Maharashtra,Pune,"Katraj Dairy, Pune - MPCB",10-09-2025 07:00:00,18.454450,73.854155,NO2,1,10,6
India,Maharashtra,Pune,"Mhada Colony, Pune - IITM",10-09-2025 07:00:00,18.573040,73.927715,PM2.5,36,64,50
India,Maharashtra,Pune,"Panchawati_Pashan, Pune - IITM",10-09-2025 07:00:00,18.536457,73.805454,PM2.5,22,50,34
India,Maharashtra,Pune,"Panchawati_Pashan, Pune - IITM",10-09-2025 07:00:00,18.536457,73.805454,PM10,31,82,58
