country,state,city,station,last_update,latitude,longitude,pollutant_id,min_value,max_value,avg_value
India,Bihar,Patna,"Muradpur, Patna - BSPCB",22-09-2025 07:00:00,25.619651,85.147382,OZONE,4,40,6
India,Bihar,Patna,"Rajbansi Nagar, Patna - BSPCB",22-09-2025 07:00:00,25.599486,85.113666,CO,31,66,47
India,Bihar,Patna,"Rajbansi Nagar, Patna - BSPCB",22-09-2025 07:00:00,25.599486,85.113666,OZONE,1,76,1
India,Bihar,Purnia,"Mariam Nagar, Purnia - BSPCB",22-09-2025 07:00:00,25.366336,87.117468,NO2,5,6,6
India,Bihar,Rajgir,"Dangi Tola, Rajgir - BSPCB",22-09-2025 07:00:00,25.03280,85.41948,NH3,2,10,7
India,Bihar,Samastipur,"DM Office_Kasipur, Samastipur - BSPCB",22-09-2025 07:00:00,25.859655,85.77944,NO2,NA,NA,NA
India,Bihar,Samastipur,"DM Office_Kasipur, Samastipur - BSPCB",22-09-2025 07:00:00,25.859655,85.77944,SO2,27,30,29
India,Bihar,Samastipur,"DM Office_Kasipur, Samastipur - BSPCB",22-09-2025 07:00:00,25.859655,85.77944,OZONE,9,14,12
India,Bihar,Siwan,"Chitragupta Nagar, Siwan - BSPCB",22-09-2025 07:00:00,26.2271665,84.3570427,SO2,2,9,7
India,Bihar,Siwan,"Chitragupta Nagar, Siwan - BSPCB",22-09-2025 07:00:00,26.2271665,84.3570427,CO,54,107,92
India,Bihar,Siwan,"Chitragupta Nagar, Siwan - BSPCB",22-09-2025 07:00:00,26.2271665,84.3570427,OZONE,4,16,13
India,Bihar,Muzaffarpur,"MIT-Daudpur Kothi, Muzaffarpur - BSPCB",22-09-2025 07:00:00,26.1403345,85.3650192,CO,12,13,12
India,Bihar,Muzaffarpur,"Muzaffarpur Collectorate, Muzaffarpur - BSPCB",22-09-2025 07:00:00,26.1209,85.3647,OZONE,12,54,18
India,Bihar,Patna,"DRM Office Danapur, Patna - BSPCB",22-09-2025 07:00:00,25.586562,85.043586,PM10,55,248,118
India,Bihar,Patna,"DRM Office Danapur, Patna - BSPCB",22-09-2025 07:00:00,25.586562,85.043586,NO2,29,35,32
India,Bihar,Patna,"DRM Office Danapur, Patna - BSPCB",22-09-2025 07:00:00,25.586562,85.043586,NH3,2,3,3
India,Bihar,Patna,"Govt. High School Shikarpur, Patna - BSPCB",22-09-2025 07:00:00,25.592539,85.227158,PM10,40,75,55
India,Bihar,Patna,"IGSC Planetarium Complex, Patna - BSPCB",22-09-2025 07:00:00,25.610369,85.132568,OZONE,46,47,46
India,Bihar,Patna,"Muradpur, Patna - BSPCB",22-09-2025 07:00:00,25.619651,85.147382,PM2.5,16,78,53
India,Bihar,Patna,"Muradpur, Patna - BSPCB",22-09-2025 07:00:00,25.619651,85.147382,PM10,44,296,102
India,Bihar,Manguraha,"Forest Rest House, Manguraha - BSPCB",22-09-2025 07:00:00,27.308328,84.531742,PM2.5,23,213,49
India,Bihar,Manguraha,"Forest Rest House, Manguraha - BSPCB",22-09-2025 07:00:00,27.308328,84.531742,PM10,25,177,51
India,Bihar,Manguraha,"Forest Rest House, Manguraha - BSPCB",22-09-2025 07:00:00,27.308328,84.531742,NO2,3,11,6
India,Bihar,Motihari,"Gandak Colony, Motihari - BSPCB",22-09-2025 07:00:00,26.63086,84.90051,PM2.5,NA,NA,NA
India,Bihar,Motihari,"Gandak Colony, Motihari - BSPCB",22-09-2025 07:00:00,26.63086,84.90051,NO2,NA,NA,NA
India,Bihar,Munger,"Town Hall, Munger - BSPCB",22-09-2025 07:00:00,25.376776,86.471523,OZONE,10,14,10
India,Bihar,Muzaffarpur,"MIT-Daudpur Kothi, Muzaffarpur - BSPCB",22-09-2025 07:00:00,26.1403345,85.3650192,PM2.5,28,40,33
India,Bihar,Gaya,"Collectorate, Gaya - BSPCB",22-09-2025 07:00:00,24.7955,84.9994,PM2.5,34,190,74
India,Bihar,Gaya,"Collectorate, Gaya - BSPCB",22-09-2025 07:00:00,24.7955,84.9994,NO2,8,10,9
India,Bihar,Gaya,"Collectorate, Gaya - BSPCB",22-09-2025 07:00:00,24.7955,84.9994,OZONE,20,21,20
India,Bihar,Gaya,"SFTI Kusdihra, Gaya - BSPCB",22-09-2025 07:00:00,24.762518,84.982348,CO,20,40,34
India,Bihar,Gaya,"SFTI Kusdihra, Gaya - BSPCB",22-09-2025 07:00:00,24.762518,84.982348,OZONE,9,18,10
India,Bihar,Hajipur,"Industrial Area, Hajipur - BSPCB",22-09-2025 07:00:00,25.697189,85.245900,SO2,NA,NA,NA
India,Bihar,Hajipur,"Industrial Area, Hajipur - BSPCB",22-09-2025 07:00:00,25.697189,85.245900,OZONE,NA,NA,NA
India,Assam,Silchar,"Tarapur, Silchar - PCBA",22-09-2025 07:00:00,24.82827,92.79525,SO2,1,12,5
India,Assam,Sivasagar,"Girls College, Sivasagar - PCBA",22-09-2025 07:00:00,26.987634,94.636574,CO,4,26,22
India,Bihar,Araria,"Kharahiya Basti, Araria - BSPCB",22-09-2025 07:00:00,26.146529,87.454184,PM10,NA,NA,NA
India,Bihar,Begusarai,"Lohiyanagar, Begusarai - BSPCB",22-09-2025 07:00:00,25.42742023,86.13886079,PM2.5,11,36,20
India,Chandigarh,Chandigarh,"Sector 22, Chandigarh - CPCC",22-09-2025 07:00:00,30.735567,76.775714,PM2.5,30,65,44
India,Chandigarh,Chandigarh,"Sector 22, Chandigarh - CPCC",22-09-2025 07:00:00,30.735567,76.775714,SO2,2,4,3
India,Chandigarh,Chandigarh,"Sector-25, Chandigarh - CPCC",22-09-2025 07:00:00,30.751462,76.762879,PM10,61,106,87
India,Chhattisgarh,Bhilai,"Civic Center, Bhilai - Bhilai Steel Plant",22-09-2025 07:00:00,21.185571,81.343175,PM2.5,NA,NA,NA
India,Chhattisgarh,Bhilai,"Civic Center, Bhilai - Bhilai Steel Plant",22-09-2025 07:00:00,21.185571,81.343175,NH3,NA,NA,NA
India,Assam,Guwahati,"IITG, Guwahati - PCBA",22-09-2025 07:00:00,26.2028636,91.70046436,OZONE,NA,NA,NA
India,Assam,Guwahati,"Pan Bazaar, Guwahati - PCBA",22-09-2025 07:00:00,26.187500,91.744194,OZONE,17,19,18
India,Assam,Guwahati,"Railway Colony, Guwahati - PCBA",22-09-2025 07:00:00,26.181742,91.78063,NO2,3,4,3
India,Assam,Nalbari,"Bata Chowk, Nalbari - PCBA",22-09-2025 07:00:00,26.446912,91.439057,CO,14,28,26
India,Andhra_Pradesh,Tirupati,"Vaikuntapuram, Tirupati - APPCB",22-09-2025 07:00:00,13.615387,79.409230,PM10,46,100,64
India,Assam,Byrnihat,"Central Academy for SFS, Byrnihat - PCBA",22-09-2025 07:00:00,26.071318,91.87488,PM2.5,NA,NA,NA
India,Assam,Byrnihat,"Central Academy for SFS, Byrnihat - PCBA",22-09-2025 07:00:00,26.071318,91.87488,SO2,NA,NA,NA
India,Assam,Byrnihat,"Central Academy for SFS, Byrnihat - PCBA",22-09-2025 07:00:00,26.071318,91.87488,OZONE,NA,NA,NA
India,Andhra_Pradesh,Anantapur,"Gulzarpet, Anantapur - APPCB",22-09-2025 07:00:00,14.675886,77.593027,NO2,22,22,22
India,Andhra_Pradesh,Anantapur,"Gulzarpet, Anantapur - APPCB",22-09-2025 07:00:00,14.675886,77.593027,OZONE,7,14,8
India,Andhra_Pradesh,Kadapa,"Yerramukkapalli, Kadapa - APPCB",22-09-2025 07:00:00,14.465052,78.824187,NH3,4,5,5
India,Andhra_Pradesh,Kadapa,"Yerramukkapalli, Kadapa - APPCB",22-09-2025 07:00:00,14.465052,78.824187,SO2,19,21,20
India,Bihar,Bettiah,"Kamalnath Nagar, Bettiah - BSPCB",22-09-2025 07:00:00,26.80365,84.51954,PM10,13,109,45
India,Bihar,Bettiah,"Kamalnath Nagar, Bettiah - BSPCB",22-09-2025 07:00:00,26.80365,84.51954,CO,38,102,75
India,Bihar,Buxar,"Charitra Van, Buxar - BSPCB",22-09-2025 07:00:00,25.567520,83.966379,OZONE,1,141,2
India,Delhi,Delhi,"Major Dhyan Chand National Stadium, Delhi - DPCC",22-09-2025 07:00:00,28.611281,77.237738,NO2,16,74,42
India,Delhi,Delhi,"Major Dhyan Chand National Stadium, Delhi - DPCC",22-09-2025 07:00:00,28.611281,77.237738,NH3,15,17,16
India,Delhi,Delhi,"Major Dhyan Chand National Stadium, Delhi - DPCC",22-09-2025 07:00:00,28.611281,77.237738,OZONE,4,64,9
India,Delhi,Delhi,"Mandir Marg, Delhi - DPCC",22-09-2025 07:00:00,28.636429,77.201067,PM2.5,15,220,79
India,Delhi,Delhi,"Mandir Marg, Delhi - DPCC",22-09-2025 07:00:00,28.636429,77.201067,PM10,27,148,107
India,Delhi,Delhi,"Mundka, Delhi - DPCC",22-09-2025 07:00:00,28.684678,77.076574,NO2,19,47,30
India,Delhi,Delhi,"Mundka, Delhi - DPCC",22-09-2025 07:00:00,28.684678,77.076574,NH3,3,4,3
India,Delhi,Delhi,"Mundka, Delhi - DPCC",22-09-2025 07:00:00,28.684678,77.076574,OZONE,2,64,8
India,Delhi,Delhi,"Najafgarh, Delhi - DPCC",22-09-2025 07:00:00,28.570173,76.933762,PM2.5,20,73,50
India,Delhi,Delhi,"CRRI Mathura Road, Delhi - IMD",22-09-2025 07:00:00,28.5512005,77.2735737,OZONE,18,78,19
India,Delhi,Delhi,"Chandni Chowk, Delhi - IITM",22-09-2025 07:00:00,28.656756,77.227234,CO,57,72,66
India,Delhi,Delhi,"DTU, Delhi - CPCB",22-09-2025 07:00:00,28.7500499,77.1112615,NH3,5,11,8
India,Delhi,Delhi,"Dr. Karni Singh Shooting Range, Delhi - DPCC",22-09-2025 07:00:00,28.498571,77.264840,PM10,115,135,128
India,Delhi,Delhi,"Dr. Karni Singh Shooting Range, Delhi - DPCC",22-09-2025 07:00:00,28.498571,77.264840,NH3,5,7,6
India,Delhi,Delhi,"Dr. Karni Singh Shooting Range, Delhi - DPCC",22-09-2025 07:00:00,28.498571,77.264840,CO,13,59,32
India,Delhi,Delhi,"IGI Airport (T3), Delhi - IMD",22-09-2025 07:00:00,28.5627763,77.1180053,PM2.5,44,92,60
India,Delhi,Delhi,"IGI Airport (T3), Delhi - IMD",22-09-2025 07:00:00,28.5627763,77.1180053,PM10,104,148,122
India,Delhi,Delhi,"ITO, Delhi - CPCB",22-09-2025 07:00:00,28.628624,77.241060,PM10,86,121,107
India,Delhi,Delhi,"ITO, Delhi - CPCB",22-09-2025 07:00:00,28.628624,77.241060,NO2,79,98,86
India,Delhi,Delhi,"Jahangirpuri, Delhi - DPCC",22-09-2025 07:00:00,28.732820,77.170633,SO2,5,24,13
India,Chhattisgarh,Bhilai,"Hathkhoj, Bhilai - CECB",22-09-2025 07:00:00,21.224231,81.408350,NH3,3,5,4
India,Chhattisgarh,Chhal,"Nawapara SECL Colony, Chhal - CECB",22-09-2025 07:00:00,22.118125,83.140608,PM10,NA,NA,NA
India,Chhattisgarh,Chhal,"Nawapara SECL Colony, Chhal - CECB",22-09-2025 07:00:00,22.118125,83.140608,NO2,NA,NA,NA
India,Chhattisgarh,Chhal,"Nawapara SECL Colony, Chhal - CECB",22-09-2025 07:00:00,22.118125,83.140608,CO,10,21,10
India,Chhattisgarh,Korba,"Rampur, Korba - CECB",22-09-2025 07:00:00,22.368195,82.746431,NH3,1,1,1
India,Delhi,Delhi,"Punjabi Bagh, Delhi - DPCC",22-09-2025 07:00:00,28.674045,77.131023,CO,36,50,46
India,Delhi,Delhi,"Pusa, Delhi - DPCC",22-09-2025 07:00:00,28.639652,77.146275,CO,24,99,42
India,Delhi,Delhi,"R K Puram, Delhi - DPCC",22-09-2025 07:00:00,28.563262,77.186937,SO2,13,23,17
India,Delhi,Delhi,"Rohini, Delhi - DPCC",22-09-2025 07:00:00,28.732528,77.119920,SO2,3,4,3
India,Delhi,Delhi,"Alipur, Delhi - DPCC",22-09-2025 07:00:00,28.815329,77.153010,OZONE,6,52,11
India,Delhi,Delhi,"Anand Vihar, Delhi - DPCC",22-09-2025 07:00:00,28.647622,77.3158090,PM2.5,18,334,221
India,Delhi,Delhi,"Ashok Vihar, Delhi - DPCC",22-09-2025 07:00:00,28.695381,77.181665,PM10,115,153,137
India,Delhi,Delhi,"Ashok Vihar, Delhi - DPCC",22-09-2025 07:00:00,28.695381,77.181665,OZONE,4,63,15
India,Chhattisgarh,Milupara,"Govt. Higher Secondary School, Milupara - CECB",22-09-2025 07:00:00,22.1910172,83.5197009,SO2,NA,NA,NA
India,Chhattisgarh,Milupara,"Govt. Higher Secondary School, Milupara - CECB",22-09-2025 07:00:00,22.1910172,83.5197009,CO,16,27,18
India,Chhattisgarh,Raipur,"Bhatagaon New ISBT, Raipur - CECB",22-09-2025 07:00:00,21.219665,81.630094,NH3,2,2,2
India,Delhi,Delhi,"Najafgarh, Delhi - DPCC",22-09-2025 07:00:00,28.570173,76.933762,NO2,2,8,5
India,Delhi,Delhi,"North Campus, DU, Delhi - IMD",22-09-2025 07:00:00,28.6573814,77.1585447,PM2.5,45,83,61
India,Delhi,Delhi,"Okhla Phase-2, Delhi - DPCC",22-09-2025 07:00:00,28.530785,77.271255,NO2,38,73,52
India,Chhattisgarh,Raipur,"Siltara Phase-II, Raipur - CECB",22-09-2025 07:00:00,21.371751,81.664929,SO2,NA,NA,NA
India,Chhattisgarh,Raipur,"Siltara Phase-II, Raipur - CECB",22-09-2025 07:00:00,21.371751,81.664929,CO,22,73,49
India,Karnataka,Bengaluru,"Hebbal, Bengaluru - KSPCB",22-09-2025 07:00:00,13.029152,77.585901,NO2,17,20,19
India,Karnataka,Bengaluru,"Hombegowda Nagar, Bengaluru - KSPCB",22-09-2025 07:00:00,12.938539,77.590100,PM10,21,52,34
India,Karnataka,Bengaluru,"Hombegowda Nagar, Bengaluru - KSPCB",22-09-2025 07:00:00,12.938539,77.590100,SO2,8,16,11
India,Karnataka,Bengaluru,"Jayanagar 5th Block, Bengaluru - KSPCB",22-09-2025 07:00:00,12.920984,77.584908,PM10,10,50,31
India,Karnataka,Bengaluru,"Jayanagar 5th Block, Bengaluru - KSPCB",22-09-2025 07:00:00,12.920984,77.584908,NH3,1,1,1
India,Karnataka,Bengaluru,"Jayanagar 5th Block, Bengaluru - KSPCB",22-09-2025 07:00:00,12.920984,77.584908,SO2,4,9,6
India,Karnataka,Bengaluru,"Jayanagar 5th Block, Bengaluru - KSPCB",22-09-2025 07:00:00,12.920984,77.584908,OZONE,5,33,17
India,Karnataka,Bengaluru,"Shivapura_Peenya, Bengaluru - KSPCB",22-09-2025 07:00:00,13.0246342,77.5080115,PM10,49,81,63
India,Karnataka,Bengaluru,"Shivapura_Peenya, Bengaluru - KSPCB",22-09-2025 07:00:00,13.0246342,77.5080115,NO2,23,26,24
India,Karnataka,Bengaluru,"Shivapura_Peenya, Bengaluru - KSPCB",22-09-2025 07:00:00,13.0246342,77.5080115,CO,26,32,28
India,Karnataka,Bengaluru,"Shivapura_Peenya, Bengaluru - KSPCB",22-09-2025 07:00:00,13.0246342,77.5080115,OZONE,24,25,24
India,Karnataka,Bengaluru,"Silk Board, Bengaluru - KSPCB",22-09-2025 07:00:00,12.917348,77.622813,OZONE,10,16,16
India,Delhi,Delhi,"Vivek Vihar, Delhi - DPCC",22-09-2025 07:00:00,28.672342,77.315260,SO2,16,26,20
India,Delhi,Delhi,"Vivek Vihar, Delhi - DPCC",22-09-2025 07:00:00,28.672342,77.315260,CO,35,60,53
India,Delhi,Delhi,"Wazirpur, Delhi - DPCC",22-09-2025 07:00:00,28.699793,77.165453,NH3,5,7,6
India,Delhi,Delhi,"Wazirpur, Delhi - DPCC",22-09-2025 07:00:00,28.699793,77.165453,SO2,17,29,24
India,Gujarat,Ahmedabad,"Chandkheda, Ahmedabad - IITM",22-09-2025 07:00:00,23.107969,72.574648,NO2,6,35,19
India,Gujarat,Ahmedabad,"Chandkheda, Ahmedabad - IITM",22-09-2025 07:00:00,23.107969,72.574648,CO,32,64,42
India,Gujarat,Ahmedabad,"Gyaspur, Ahmedabad - IITM",22-09-2025 07:00:00,22.977134,72.553024,PM2.5,11,55,28
India,Gujarat,Ahmedabad,"Gyaspur, Ahmedabad - IITM",22-09-2025 07:00:00,22.977134,72.553024,PM10,50,110,79
India,Gujarat,Ahmedabad,"Gyaspur, Ahmedabad - IITM",22-09-2025 07:00:00,22.977134,72.553024,SO2,9,17,13
India,Gujarat,Ahmedabad,"Maninagar, Ahmedabad - GPCB",22-09-2025 07:00:00,23.002657,72.591912,PM10,15,35,24
India,Gujarat,Ahmedabad,"SVPI Airport Hansol, Ahmedabad - IITM",22-09-2025 07:00:00,23.076793,72.627874,CO,14,47,31
India,Gujarat,Ankleshwar,"GIDC, Ankleshwar - GPCB",22-09-2025 07:00:00,21.613267,73.010555,PM2.5,28,83,61
India,Gujarat,Ankleshwar,"GIDC, Ankleshwar - GPCB",22-09-2025 07:00:00,21.613267,73.010555,SO2,51,52,51
India,Gujarat,Ankleshwar,"GIDC, Ankleshwar - GPCB",22-09-2025 07:00:00,21.613267,73.010555,CO,25,64,40
India,Gujarat,Gandhinagar,"GIFT City, Gandhinagar - IITM",22-09-2025 07:00:00,23.163798,72.677768,PM2.5,22,63,33
India,Gujarat,Gandhinagar,"GIFT City, Gandhinagar - IITM",22-09-2025 07:00:00,23.163798,72.677768,PM10,46,67,60
India,Gujarat,Gandhinagar,"IIPHG Lekawada, Gandhinagar - IITM",22-09-2025 07:00:00,23.243639,72.68994,OZONE,NA,NA,NA
India,Gujarat,Gandhinagar,"Sector-10, Gandhinagar - GPCB",22-09-2025 07:00:00,23.221714,72.654328,NO2,11,18,14
India,Himachal Pradesh,Baddi,"HIMUDA Complex Phase-1, Baddi - HPPCB",22-09-2025 07:00:00,30.943887,76.801991,NO2,10,81,35
India,Jharkhand,Dhanbad,"Sardar Patel Nagar, Dhanbad - JSPCB",22-09-2025 07:00:00,23.80569,86.44268,PM10,5,75,48
India,Karnataka,Bagalkot,"Vidayagiri, Bagalkot - KSPCB",22-09-2025 07:00:00,16.172806,75.659694,PM2.5,33,34,34
India,Karnataka,Bagalkot,"Vidayagiri, Bagalkot - KSPCB",22-09-2025 07:00:00,16.172806,75.659694,NH3,1,2,1
India,Karnataka,Bagalkot,"Vidayagiri, Bagalkot - KSPCB",22-09-2025 07:00:00,16.172806,75.659694,SO2,7,7,7
India,Karnataka,Bengaluru,"BTM Layout, Bengaluru - CPCB",22-09-2025 07:00:00,12.9135218,77.5950804,SO2,15,16,16
India,Delhi,Delhi,"Shadipur, Delhi - CPCB",22-09-2025 07:00:00,28.6514781,77.1473105,NO2,63,123,83
India,Delhi,Delhi,"Shadipur, Delhi - CPCB",22-09-2025 07:00:00,28.6514781,77.1473105,NH3,6,8,7
India,Delhi,Delhi,"Sirifort, Delhi - CPCB",22-09-2025 07:00:00,28.5504249,77.2159377,PM2.5,30,68,54
India,Delhi,Delhi,"Sirifort, Delhi - CPCB",22-09-2025 07:00:00,28.5504249,77.2159377,OZONE,10,35,19
India,Delhi,Delhi,"Sonia Vihar, Delhi - DPCC",22-09-2025 07:00:00,28.710508,77.249485,PM2.5,37,83,59
India,Delhi,Delhi,"Sonia Vihar, Delhi - DPCC",22-09-2025 07:00:00,28.710508,77.249485,SO2,25,34,28
India,Delhi,Delhi,"Sri Aurobindo Marg, Delhi - DPCC",22-09-2025 07:00:00,28.531346,77.190156,NH3,5,6,5
India,Gujarat,Ahmedabad,"Raikhad, Ahmedabad - IITM",22-09-2025 07:00:00,23.020509,72.579261,PM10,51,77,64
India,Gujarat,Ahmedabad,"Raikhad, Ahmedabad - IITM",22-09-2025 07:00:00,23.020509,72.579261,NH3,12,15,14
India,Gujarat,Ahmedabad,"Raikhad, Ahmedabad - IITM",22-09-2025 07:00:00,23.020509,72.579261,OZONE,8,23,9
India,Gujarat,Ahmedabad,"Rakhial, Ahmedabad - IITM",22-09-2025 07:00:00,23.016834,72.625775,NH3,6,7,6
India,Gujarat,Ahmedabad,"SAC ISRO Bopal, Ahmedabad - IITM",22-09-2025 07:00:00,23.041137,72.456691,NO2,19,29,23
India,Gujarat,Ahmedabad,"SAC ISRO Bopal, Ahmedabad - IITM",22-09-2025 07:00:00,23.041137,72.456691,NH3,2,3,3
India,Gujarat,Gandhinagar,"Sector-10, Gandhinagar - GPCB",22-09-2025 07:00:00,23.221714,72.654328,CO,16,32,22
India,Gujarat,Vatva,"Phase-4 GIDC, Vatva - GPCB",22-09-2025 07:00:00,22.969611,72.643500,NH3,2,4,3
India,Gujarat,Vatva,"Phase-4 GIDC, Vatva - GPCB",22-09-2025 07:00:00,22.969611,72.643500,CO,8,12,9
India,Haryana,Panchgaon,"Amity University, Panchgaon - IITM",22-09-2025 07:00:00,28.3153,76.9143,PM10,65,117,82
India,Karnataka,Chamarajanagar,"Urban, Chamarajanagar - KSPCB",22-09-2025 07:00:00,11.55358,76.55521,SO2,2,4,4
India,Karnataka,Davanagere,"Devaraj Urs Badavane, Davanagere - KSPCB",22-09-2025 07:00:00,14.475800,75.905200,PM2.5,11,38,22
India,Karnataka,Davanagere,"Devaraj Urs Badavane, Davanagere - KSPCB",22-09-2025 07:00:00,14.475800,75.905200,CO,12,22,18
India,Karnataka,Hassan,"B.Katihalli, Hassan - KSPCB",22-09-2025 07:00:00,13.008556,76.125258,NH3,1,2,2
India,Haryana,Panchgaon,"Amity University, Panchgaon - IITM",22-09-2025 07:00:00,28.3153,76.9143,NH3,3,6,4
India,Himachal Pradesh,Baddi,"HIMUDA Complex Phase-1, Baddi - HPPCB",22-09-2025 07:00:00,30.943887,76.801991,PM2.5,57,227,93
India,Madhya Pradesh,Jabalpur,"Govindh Bhavan Colony, Jabalpur - JMC",22-09-2025 07:00:00,23.163174,79.973061,PM2.5,25,50,39
India,Madhya Pradesh,Jabalpur,"Govindh Bhavan Colony, Jabalpur - JMC",22-09-2025 07:00:00,23.163174,79.973061,CO,17,44,28
India,Madhya Pradesh,Jabalpur,"Gupteshwar, Jabalpur - JMC",22-09-2025 07:00:00,23.142888,79.916147,PM2.5,20,40,27
India,Madhya Pradesh,Jabalpur,"Gupteshwar, Jabalpur - JMC",22-09-2025 07:00:00,23.142888,79.916147,OZONE,17,53,31
India,Madhya Pradesh,Jabalpur,"Marhatal, Jabalpur - MPPCB",22-09-2025 07:00:00,23.168606,79.932247,PM2.5,21,63,40
India,Madhya Pradesh,Jabalpur,"Marhatal, Jabalpur - MPPCB",22-09-2025 07:00:00,23.168606,79.932247,PM10,42,108,70
India,Madhya Pradesh,Jabalpur,"Marhatal, Jabalpur - MPPCB",22-09-2025 07:00:00,23.168606,79.932247,NO2,15,67,27
India,Madhya Pradesh,Jabalpur,"Marhatal, Jabalpur - MPPCB",22-09-2025 07:00:00,23.168606,79.932247,NH3,2,3,3
India,Madhya Pradesh,Jabalpur,"Suhagi, Jabalpur - JMC",22-09-2025 07:00:00,23.218135,79.957770,NO2,25,60,33
India,Madhya Pradesh,Katni,"Gole Bazar, Katni - MPPCB",22-09-2025 07:00:00,23.50016,80.23284,OZONE,12,87,15
India,Karnataka,Madikeri,"Stuart Hill, Madikeri - KSPCB",22-09-2025 07:00:00,12.415911,75.735050,CO,7,7,7
India,Karnataka,Mangalore,"Kadri, Mangalore - KSPCB",22-09-2025 07:00:00,12.889250,74.853000,PM2.5,34,57,45
India,Karnataka,Mysuru,"Hebbal 1st Stage, Mysuru - KSPCB",22-09-2025 07:00:00,12.21041,76.37376,PM10,24,47,30
India,Karnataka,Mysuru,"Hebbal 1st Stage, Mysuru - KSPCB",22-09-2025 07:00:00,12.21041,76.37376,NO2,10,28,19
India,Karnataka,Ramanagara,"Vijay Nagar, Ramanagara - KSPCB",22-09-2025 07:00:00,12.733409,77.298051,NO2,NA,NA,NA
India,Karnataka,Shivamogga,"Vinoba Nagara, Shivamogga - KSPCB",22-09-2025 07:00:00,13.940000,75.555917,CO,10,27,23
India,Karnataka,Tumakuru,"Thimmalapura, Tumakuru - KSPCB",22-09-2025 07:00:00,13.377516,77.099072,PM10,NA,NA,NA
India,Kerala,Thiruvananthapuram,"Plammoodu, Thiruvananthapuram - Kerala PCB",22-09-2025 07:00:00,8.5149093,76.9435879,NO2,49,81,67
India,Kerala,Thiruvananthapuram,"Plammoodu, Thiruvananthapuram - Kerala PCB",22-09-2025 07:00:00,8.5149093,76.9435879,NH3,8,10,8
India,Kerala,Thrissur,"Corporation Ground, Thrissur - Kerala PCB",22-09-2025 07:00:00,10.532400,76.215900,CO,18,23,20
India,Madhya Pradesh,Bhopal,"Idgah Hills, Bhopal - MPPCB",22-09-2025 07:00:00,23.264759,77.381568,SO2,8,11,9
India,Madhya Pradesh,Bhopal,"Idgah Hills, Bhopal - MPPCB",22-09-2025 07:00:00,23.264759,77.381568,OZONE,17,53,29
India,Madhya Pradesh,Bhopal,"Paryavaran Parisar, Bhopal - MPPCB",22-09-2025 07:00:00,23.210494,77.425409,NH3,2,3,2
India,Madhya Pradesh,Bhopal,"Paryavaran Parisar, Bhopal - MPPCB",22-09-2025 07:00:00,23.210494,77.425409,CO,16,24,17
India,Madhya Pradesh,Maihar,"Sahilara, Maihar - KJS Cements",22-09-2025 07:00:00,24.2613009,80.7231783,NO2,13,14,13
India,Madhya Pradesh,Mandideep,"Sector-D Industrial Area, Mandideep - MPPCB",22-09-2025 07:00:00,23.108440,77.511428,PM2.5,NA,NA,NA
India,Madhya Pradesh,Mandideep,"Sector-D Industrial Area, Mandideep - MPPCB",22-09-2025 07:00:00,23.108440,77.511428,CO,NA,NA,NA
India,Madhya Pradesh,Pithampur,"Sector-2 Industrial Area, Pithampur - MPPCB",22-09-2025 07:00:00,22.624758,75.675238,SO2,13,20,17
India,Madhya Pradesh,Ratlam,"Shasthri Nagar, Ratlam - IPCA Lab",22-09-2025 07:00:00,23.331731,75.045981,NO2,34,36,35
India,Madhya Pradesh,Satna,"Bandhavgar Colony, Satna - Birla Cement",22-09-2025 07:00:00,24.58434363,80.8549414,SO2,18,20,19
India,Madhya Pradesh,Bhopal,"T T Nagar, Bhopal - MPPCB",22-09-2025 07:00:00,23.233584,77.400574,NH3,5,6,5
India,Madhya Pradesh,Dewas,"Bhopal Chauraha, Dewas - MPPCB",22-09-2025 07:00:00,22.9682591,76.064118,PM2.5,23,64,36
India,Madhya Pradesh,Dewas,"Bhopal Chauraha, Dewas - MPPCB",22-09-2025 07:00:00,22.9682591,76.064118,NO2,12,55,26
India,Madhya Pradesh,Gwalior,"City Center, Gwalior - MPPCB",22-09-2025 07:00:00,26.203442,78.193251,PM2.5,30,110,48
India,Madhya Pradesh,Gwalior,"City Center, Gwalior - MPPCB",22-09-2025 07:00:00,26.203442,78.193251,NH3,2,2,2
India,Madhya Pradesh,Gwalior,"Deen Dayal Nagar, Gwalior - MPPCB",22-09-2025 07:00:00,26.259242,78.216432,SO2,5,23,8
India,Karnataka,Vijayapura,"Ibrahimpur, Vijayapura - KSPCB",22-09-2025 07:00:00,16.802639,75.722694,CO,12,119,33
India,Karnataka,Yadgir,"Collector Office, Yadgir - KSPCB",22-09-2025 07:00:00,16.7602,77.1428,NO2,23,41,32
India,Kerala,Kannur,"Thavakkara, Kannur - Kerala PCB",22-09-2025 07:00:00,11.875000,75.373200,PM10,58,66,61
India,Kerala,Kannur,"Thavakkara, Kannur - Kerala PCB",22-09-2025 07:00:00,11.875000,75.373200,CO,13,17,14
India,Kerala,Kollam,"Polayathode, Kollam - Kerala PCB",22-09-2025 07:00:00,8.8787,76.6073,NO2,NA,NA,NA
India,Karnataka,Hubballi,"Lingaraj Nagar, Hubballi - KSPCB",22-09-2025 07:00:00,15.3714823,75.1160168,CO,6,14,13
India,Karnataka,Kalaburagi,"Lal Bahadur Shastri Nagar, Kalaburagi - KSPCB",22-09-2025 07:00:00,17.321993,76.822628,PM2.5,28,60,47
India,Karnataka,Kalaburagi,"Lal Bahadur Shastri Nagar, Kalaburagi - KSPCB",22-09-2025 07:00:00,17.321993,76.822628,OZONE,20,68,26
India,Karnataka,Madikeri,"Stuart Hill, Madikeri - KSPCB",22-09-2025 07:00:00,12.415911,75.735050,PM2.5,18,31,25
India,Madhya Pradesh,Indore,"Chhoti Gwaltoli, Indore - MPPCB",22-09-2025 07:00:00,22.4310,75.5213,PM2.5,26,66,43
India,Madhya Pradesh,Indore,"Chhoti Gwaltoli, Indore - MPPCB",22-09-2025 07:00:00,22.4310,75.5213,SO2,7,11,10
India,Madhya Pradesh,Indore,"Regional Park, Indore - IMC",22-09-2025 07:00:00,22.6780,75.8559,CO,18,27,23
India,Madhya Pradesh,Indore,"Residency Area, Indore - IMC",22-09-2025 07:00:00,22.7084,75.8815,PM10,17,43,27
India,Madhya Pradesh,Gwalior,"Maharaj Bada, Gwalior - MPPCB",22-09-2025 07:00:00,26.200388,78.147714,NO2,6,21,11
India,Madhya Pradesh,Gwalior,"Maharaj Bada, Gwalior - MPPCB",22-09-2025 07:00:00,26.200388,78.147714,SO2,4,10,7
India,Madhya Pradesh,Indore,"Airport Area, Indore - IMC",22-09-2025 07:00:00,22.7289,75.8076,PM10,11,40,21
India,Maharashtra,Mahad,"Kamble Tarf Birwadi, Mahad - MPCB",22-09-2025 07:00:00,18.1023399,73.4783687,NO2,21,58,39
India,Maharashtra,Mahad,"Kamble Tarf Birwadi, Mahad - MPCB",22-09-2025 07:00:00,18.1023399,73.4783687,CO,25,62,39
India,Maharashtra,Malegaon,"Mahesh Nagar, Malegaon - MPCB",22-09-2025 07:00:00,20.555712,74.529236,NH3,1,2,2
India,Maharashtra,Mira-Bhayandar,"Bhayandar West, Mira-Bhayandar - MPCB",22-09-2025 07:00:00,19.296481,72.840923,PM10,3,31,12
India,Maharashtra,Mira-Bhayandar,"Bhayandar West, Mira-Bhayandar - MPCB",22-09-2025 07:00:00,19.296481,72.840923,OZONE,1,28,3
India,Maharashtra,Mumbai,"Bandra Kurla Complex, Mumbai - IITM",22-09-2025 07:00:00,19.053536,72.84643,PM2.5,9,89,33
India,Maharashtra,Mumbai,"Bandra Kurla Complex, Mumbai - IITM",22-09-2025 07:00:00,19.053536,72.84643,PM10,30,107,52
India,Maharashtra,Mumbai,"Bandra Kurla Complex, Mumbai - IITM",22-09-2025 07:00:00,19.053536,72.84643,NO2,12,23,17
India,Maharashtra,Mumbai,"Bandra Kurla Complex, Mumbai - MPCB",22-09-2025 07:00:00,19.065931,72.862131,OZONE,1,16,1
India,Maharashtra,Mumbai,"Borivali East, Mumbai - IITM",22-09-2025 07:00:00,19.23241,72.86895,PM2.5,12,45,27
India,Maharashtra,Aurangabad,"Rachnakar Colony, Aurangabad - MPCB",22-09-2025 07:00:00,19.863756,75.321188,NH3,2,5,4
India,Maharashtra,Badlapur,"Katrap, Badlapur - MPCB",22-09-2025 07:00:00,19.16485,73.23409,CO,10,38,30
India,Maharashtra,Belapur,"CBD Belapur, Belapur - MPCB",22-09-2025 07:00:00,19.0243902,73.0406721,PM2.5,20,39,28
India,Maharashtra,Belapur,"CBD Belapur, Belapur - MPCB",22-09-2025 07:00:00,19.0243902,73.0406721,CO,6,22,13
India,Maharashtra,Belapur,"CBD Belapur, Belapur - MPCB",22-09-2025 07:00:00,19.0243902,73.0406721,OZONE,15,26,15
India,Maharashtra,Bhiwandi,"Gokul Nagar, Bhiwandi - MPCB",22-09-2025 07:00:00,19.309073,73.057223,NO2,23,50,33
India,Maharashtra,Jalna,"Old MIDC, Jalna - MPCB",22-09-2025 07:00:00,19.854616,75.905894,SO2,4,21,15
India,Maharashtra,Kalyan,"Khadakpada, Kalyan - MPCB",22-09-2025 07:00:00,19.25292,73.142019,NH3,1,2,1
India,Maharashtra,Kolhapur,"Shivaji University, Kolhapur - MPCB",22-09-2025 07:00:00,16.6870449,74.2505872,PM10,23,75,52
India,Maharashtra,Kolhapur,"Shivaji University, Kolhapur - MPCB",22-09-2025 07:00:00,16.6870449,74.2505872,CO,4,24,9
India,Maharashtra,Kolhapur,"Sinchan Bhavan, Kolhapur - MPCB",22-09-2025 07:00:00,16.7143745,74.2426398,NH3,NA,NA,NA
India,Maharashtra,Kolhapur,"Sinchan Bhavan, Kolhapur - MPCB",22-09-2025 07:00:00,16.7143745,74.2426398,OZONE,8,25,14
India,Madhya Pradesh,Singrauli,"Suryakiran Bhawan NCL, Singrauli - MPPCB",22-09-2025 07:00:00,24.108970,82.645580,SO2,25,58,34
India,Maharashtra,Ahmednagar,"Tarakpur, Ahmednagar - MPCB",22-09-2025 07:00:00,19.10122,74.73339,OZONE,9,38,17
India,Maharashtra,Akola,"Ramdaspeth, Akola - MPCB",22-09-2025 07:00:00,20.719516,77.000253,NO2,12,30,18
India,Maharashtra,Amravati,"Shri Shivaji Science College, Amravati - MPCB",22-09-2025 07:00:00,20.939198,77.765701,CO,24,77,30
India,Maharashtra,Mumbai,"Deonar, Mumbai - IITM",22-09-2025 07:00:00,19.04946,72.9230,NO2,NA,NA,NA
India,Maharashtra,Mumbai,"Deonar, Mumbai - IITM",22-09-2025 07:00:00,19.04946,72.9230,SO2,NA,NA,NA
India,Maharashtra,Mumbai,"Deonar, Mumbai - IITM",22-09-2025 07:00:00,19.04946,72.9230,OZONE,NA,NA,NA
India,Maharashtra,Mumbai,"Ghatkopar, Mumbai - BMC",22-09-2025 07:00:00,19.083694,72.920967,PM2.5,3,30,10
India,Maharashtra,Mumbai,"Ghatkopar, Mumbai - BMC",22-09-2025 07:00:00,19.083694,72.920967,SO2,8,9,8
India,Maharashtra,Mumbai,"Kherwadi_Bandra East, Mumbai - MPCB",22-09-2025 07:00:00,19.0632143,72.8456324,PM2.5,10,79,33
India,Maharashtra,Boisar,"Khaira, Boisar - MPCB",22-09-2025 07:00:00,19.786089,72.757971,CO,8,50,15
India,Maharashtra,Chandrapur,"MIDC Khutala, Chandrapur - MPCB",22-09-2025 07:00:00,19.9775302,79.2337086,NH3,6,6,6
India,Maharashtra,Jalgaon,"Prabhat Colony, Jalgaon - MPCB",22-09-2025 07:00:00,21.001264,75.565602,PM10,48,88,63
India,Maharashtra,Mumbai,"Chakala-Andheri East, Mumbai - IITM",22-09-2025 07:00:00,19.11074,72.86084,NH3,7,13,9
India,Maharashtra,Mumbai,"Chembur, Mumbai - MPCB",22-09-2025 07:00:00,19.0364585,72.8954371,CO,16,28,25
India,Maharashtra,Mumbai,"Colaba, Mumbai - MPCB",22-09-2025 07:00:00,18.910000,72.820000,PM2.5,10,37,19
India,Maharashtra,Mumbai,"Byculla, Mumbai - BMC",22-09-2025 07:00:00,18.9767,72.8380,CO,4,20,11
India,Maharashtra,Mumbai,"Chakala-Andheri East, Mumbai - IITM",22-09-2025 07:00:00,19.11074,72.86084,PM2.5,13,45,25
India,Maharashtra,Mumbai,"Chakala-Andheri East, Mumbai - IITM",22-09-2025 07:00:00,19.11074,72.86084,NO2,21,34,27
India,Maharashtra,Mumbai,"Borivali East, Mumbai - IITM",22-09-2025 07:00:00,19.23241,72.86895,NH3,7,8,7
India,Maharashtra,Mumbai,"Borivali East, Mumbai - IITM",22-09-2025 07:00:00,19.23241,72.86895,OZONE,4,24,5
India,Maharashtra,Mumbai,"Byculla, Mumbai - BMC",22-09-2025 07:00:00,18.9767,72.8380,PM2.5,6,22,13
India,Maharashtra,Pune,"Katraj Dairy, Pune - MPCB",22-09-2025 07:00:00,18.454450,73.854155,SO2,2,4,3
India,Maharashtra,Pune,"Katraj Dairy, Pune - MPCB",22-09-2025 07:00:00,18.454450,73.854155,OZONE,9,19,12
India,Maharashtra,Pune,"Mhada Colony, Pune - IITM",22-09-2025 07:00:00,18.573040,73.927715,PM2.5,17,60,34
India,Maharashtra,Pune,"Mhada Colony, Pune - IITM",22-09-2025 07:00:00,18.573040,73.927715,CO,2,79,16
India,Maharashtra,Pune,"Mhada Colony, Pune - IITM",22-09-2025 07:00:00,18.573040,73.927715,OZONE,10,54,15
India,Maharashtra,Pune,"Transport Nagar-Nigdi, Pune - IITM",22-09-2025 07:00:00,18.664282,73.763966,CO,46,78,55
India,Maharashtra,Pune,"Transport Nagar-Nigdi, Pune - IITM",22-09-2025 07:00:00,18.664282,73.763966,OZONE,13,54,28
India,Maharashtra,Solapur,"Dnyaneshwar Nagar, Solapur - MPCB",22-09-2025 07:00:00,17.6336264,75.9132495,NH3,4,21,8
India,Maharashtra,Solapur,"Ratandeep Housing Society, Solapur - MPCB",22-09-2025 07:00:00,17.65439,75.90649,PM10,9,41,23
India,Maharashtra,Solapur,"Ratandeep Housing Society, Solapur - MPCB",22-09-2025 07:00:00,17.65439,75.90649,SO2,1,2,1
India,Maharashtra,Nanded,"Sneh Nagar, Nanded - MPCB",22-09-2025 07:00:00,19.173852,77.296291,SO2,10,11,10
India,Maharashtra,Nanded,"Sneh Nagar, Nanded - MPCB",22-09-2025 07:00:00,19.173852,77.296291,OZONE,16,53,32
India,Maharashtra,Nashik,"Gangapur Road, Nashik - MPCB",22-09-2025 07:00:00,20.0073285,73.7762427,SO2,1,5,2
India,Maharashtra,Nashik,"MIDC Ambad, Nashik - MPCB",22-09-2025 07:00:00,19.950220,73.731480,NH3,2,3,2
India,Maharashtra,Nashik,"MIDC Ambad, Nashik - MPCB",22-09-2025 07:00:00,19.950220,73.731480,OZONE,14,36,20
India,Maharashtra,Nashik,"Pandav Nagari, Nashik - MPCB",22-09-2025 07:00:00,19.9591346,73.7788008,PM2.5,8,64,36
India,Maharashtra,Nashik,"Pandav Nagari, Nashik - MPCB",22-09-2025 07:00:00,19.9591346,73.7788008,NH3,2,4,3
India,Maharashtra,Nashik,"Pandav Nagari, Nashik - MPCB",22-09-2025 07:00:00,19.9591346,73.7788008,SO2,3,8,5
India,Maharashtra,Navi Mumbai,"Kopripada-Vashi, Navi Mumbai - MPCB",22-09-2025 07:00:00,19.090337,73.014232,PM2.5,7,25,15
India,Maharashtra,Navi Mumbai,"Kopripada-Vashi, Navi Mumbai - MPCB",22-09-2025 07:00:00,19.090337,73.014232,PM10,25,48,31
India,Maharashtra,Mumbai,"Worli, Mumbai - MPCB",22-09-2025 07:00:00,18.9936162,72.8128113,CO,4,15,6
India,Maharashtra,Mumbai,"Worli, Mumbai - MPCB",22-09-2025 07:00:00,18.9936162,72.8128113,OZONE,20,20,20
India,Maharashtra,Nagpur,"Ambazari, Nagpur - MPCB",22-09-2025 07:00:00,21.121801,79.04952,NO2,3,22,14
India,Maharashtra,Nagpur,"Ambazari, Nagpur - MPCB",22-09-2025 07:00:00,21.121801,79.04952,SO2,10,15,14
India,Maharashtra,Nagpur,"Mahal, Nagpur - MPCB",22-09-2025 07:00:00,21.14472,79.107595,PM10,46,107,65
India,Maharashtra,Nagpur,"Mahal, Nagpur - MPCB",22-09-2025 07:00:00,21.14472,79.107595,NO2,12,45,23
India,Maharashtra,Nagpur,"Mahal, Nagpur - MPCB",22-09-2025 07:00:00,21.14472,79.107595,SO2,4,51,28
India,Maharashtra,Nagpur,"Opp GPO Civil Lines, Nagpur - MPCB",22-09-2025 07:00:00,21.152875,79.0517531,NO2,9,27,17
India,Maharashtra,Nagpur,"Ram Nagar, Nagpur - MPCB",22-09-2025 07:00:00,21.143383,79.048912,NO2,16,16,16
India,Maharashtra,Nagpur,"Ram Nagar, Nagpur - MPCB",22-09-2025 07:00:00,21.143383,79.048912,SO2,5,16,10
India,Maharashtra,Mumbai,"Kherwadi_Bandra East, Mumbai - MPCB",22-09-2025 07:00:00,19.0632143,72.8456324,OZONE,1,11,1
India,Maharashtra,Mumbai,"Khindipada-Bhandup West, Mumbai - IITM",22-09-2025 07:00:00,19.1653323,72.922099,PM10,3,55,17
India,Maharashtra,Mumbai,"Malad West, Mumbai - IITM",22-09-2025 07:00:00,19.19709,72.82204,SO2,3,5,4
India,Maharashtra,Mumbai,"Malad West, Mumbai - IITM",22-09-2025 07:00:00,19.19709,72.82204,OZONE,6,13,6
India,Maharashtra,Mumbai,"Mulund West, Mumbai - MPCB",22-09-2025 07:00:00,19.1750,72.9419,PM2.5,14,45,26
India,Maharashtra,Mumbai,"Mulund West, Mumbai - MPCB",22-09-2025 07:00:00,19.1750,72.9419,NO2,12,12,12
India,Maharashtra,Mumbai,"Navy Nagar-Colaba, Mumbai - IITM",22-09-2025 07:00:00,18.897756,72.813320,NO2,13,79,37
India,Maharashtra,Mumbai,"Powai, Mumbai - MPCB",22-09-2025 07:00:00,19.137500,72.915056,NO2,7,8,8
India,Maharashtra,Parbhani,"Masoom Colony, Parbhani - MPCB",22-09-2025 07:00:00,19.265594,76.761463,NO2,2,3,3
India,Maharashtra,Parbhani,"Masoom Colony, Parbhani - MPCB",22-09-2025 07:00:00,19.265594,76.761463,SO2,2,4,3
India,Maharashtra,Pimpri-Chinchwad,"Gavalinagar, Pimpri Chinchwad - MPCB",22-09-2025 07:00:00,18.63673,73.82487,NH3,7,8,8
India,Maharashtra,Pimpri-Chinchwad,"Savta Mali Nagar, Pimpri-Chinchwad - IITM",22-09-2025 07:00:00,18.614767,73.799516,NO2,18,35,26
India,Maharashtra,Pimpri-Chinchwad,"Savta Mali Nagar, Pimpri-Chinchwad - IITM",22-09-2025 07:00:00,18.614767,73.799516,CO,46,73,58
India,Maharashtra,Pune,"Dhankawadi, Pune - IITM",22-09-2025 07:00:00,18.459883,73.852193,PM2.5,7,157,34
India,Maharashtra,Pune,"Dhankawadi, Pune - IITM",22-09-2025 07:00:00,18.459883,73.852193,PM10,10,148,43
India,Odisha,Angul,"Hakimapada, Angul - OSPCB",22-09-2025 07:00:00,20.832874,85.104082,PM2.5,33,167,83
India,Odisha,Angul,"Hakimapada, Angul - OSPCB",22-09-2025 07:00:00,20.832874,85.104082,NH3,3,6,4
India,Odisha,Balasore,"Kalidaspur, Balasore - OSPCB",22-09-2025 07:00:00,21.51161,86.89088,PM10,NA,NA,NA
India,Odisha,Balasore,"Kalidaspur, Balasore - OSPCB",22-09-2025 07:00:00,21.51161,86.89088,SO2,5,9,7
India,Odisha,Balasore,"Kalidaspur, Balasore - OSPCB",22-09-2025 07:00:00,21.51161,86.89088,OZONE,2,40,11
India,Odisha,Baripada,"Meher Colony, Baripada - OSPCB",22-09-2025 07:00:00,21.941841,86.728318,NH3,1,2,1
India,Odisha,Baripada,"Meher Colony, Baripada - OSPCB",22-09-2025 07:00:00,21.941841,86.728318,CO,37,66,41
India,Maharashtra,Navi Mumbai,"Kopripada-Vashi, Navi Mumbai - MPCB",22-09-2025 07:00:00,19.090337,73.014232,SO2,22,28,23
India,Maharashtra,Navi Mumbai,"Sanpada, Navi Mumbai - MPCB",22-09-2025 07:00:00,19.0575752,73.0151367,PM2.5,6,25,16
India,Maharashtra,Navi Mumbai,"Sanpada, Navi Mumbai - MPCB",22-09-2025 07:00:00,19.0575752,73.0151367,CO,10,53,26
India,Maharashtra,Navi Mumbai,"Sector-2E Kalamboli, Navi Mumbai - MPCB",22-09-2025 07:00:00,19.02579,73.10297,PM2.5,20,56,32
India,Maharashtra,Navi Mumbai,"Sector-2E Kalamboli, Navi Mumbai - MPCB",22-09-2025 07:00:00,19.02579,73.10297,CO,6,14,8
India,Maharashtra,Navi Mumbai,"Sector-2E Kalamboli, Navi Mumbai - MPCB",22-09-2025 07:00:00,19.02579,73.10297,OZONE,3,35,4
India,Maharashtra,Thane,"Kasarvadavali, Thane - MPCB",22-09-2025 07:00:00,19.26777,72.97182,SO2,1,6,1
India,Maharashtra,Thane,"Upvan Fort, Thane - MPCB",22-09-2025 07:00:00,19.222279,72.957979,NO2,2,23,12
India,Maharashtra,Virar,"Bolinj, Virar - MPCB",22-09-2025 07:00:00,19.4458210,72.7988231,PM2.5,7,33,17
India,Maharashtra,Virar,"Bolinj, Virar - MPCB",22-09-2025 07:00:00,19.4458210,72.7988231,CO,12,88,35
India,Meghalaya,Shillong,"Lumpyngngad, Shillong - Meghalaya PCB",22-09-2025 07:00:00,25.5586,91.8985,CO,2,6,2
India,Maharashtra,Mumbai,"Shivaji Nagar, Mumbai - BMC",22-09-2025 07:00:00,19.060498,72.923356,NH3,1,4,3
India,Maharashtra,Mumbai,"Vasai West, Mumbai - MPCB",22-09-2025 07:00:00,19.383200,72.820400,NO2,21,36,32
India,Maharashtra,Mumbai,"Vile Parle West, Mumbai - MPCB",22-09-2025 07:00:00,19.10861,72.83622,PM10,14,46,23
India,Odisha,Talcher,"Talcher Coalfields,Talcher - OSPCB",22-09-2025 07:00:00,20.9360711,85.1707021,NH3,6,7,6
India,Odisha,Talcher,"Talcher Coalfields,Talcher - OSPCB",22-09-2025 07:00:00,20.9360711,85.1707021,SO2,1,14,6
India,Odisha,Tensa,"Barsua Iron Ore Mines, Tensa - OSPCB",22-09-2025 07:00:00,21.869985,85.167016,SO2,16,30,20
India,Punjab,Amritsar,"Golden Temple, Amritsar - PPCB",22-09-2025 07:00:00,31.620000,74.876512,SO2,17,21,19
India,Punjab,Bathinda,"Hardev Nagar, Bathinda - PPCB",22-09-2025 07:00:00,30.233011,74.907758,NO2,18,20,19
India,Punjab,Bathinda,"Hardev Nagar, Bathinda - PPCB",22-09-2025 07:00:00,30.233011,74.907758,SO2,2,23,11
India,Punjab,Bathinda,"Hardev Nagar, Bathinda - PPCB",22-09-2025 07:00:00,30.233011,74.907758,CO,1,40,15
India,Punjab,Jalandhar,"Civil Line, Jalandhar - PPCB",22-09-2025 07:00:00,31.321907,75.578914,PM2.5,52,76,67
India,Punjab,Jalandhar,"Civil Line, Jalandhar - PPCB",22-09-2025 07:00:00,31.321907,75.578914,NO2,23,29,26
India,Punjab,Jalandhar,"Civil Line, Jalandhar - PPCB",22-09-2025 07:00:00,31.321907,75.578914,CO,34,41,40
India,Punjab,Jalandhar,"Civil Line, Jalandhar - PPCB",22-09-2025 07:00:00,31.321907,75.578914,OZONE,32,40,33
India,Punjab,Khanna,"Kalal Majra, Khanna - PPCB",22-09-2025 07:00:00,30.736056 ,76.209694,PM2.5,60,127,81
India,Punjab,Khanna,"Kalal Majra, Khanna - PPCB",22-09-2025 07:00:00,30.736056 ,76.209694,NH3,7,8,7
India,Punjab,Khanna,"Kalal Majra, Khanna - PPCB",22-09-2025 07:00:00,30.736056 ,76.209694,SO2,5,8,6
India,Punjab,Khanna,"Kalal Majra, Khanna - PPCB",22-09-2025 07:00:00,30.736056 ,76.209694,CO,NA,NA,NA
India,Punjab,Ludhiana,"Punjab Agricultural University, Ludhiana - PPCB",22-09-2025 07:00:00,30.9028,75.8086,PM10,50,75,62
India,Punjab,Ludhiana,"Punjab Agricultural University, Ludhiana - PPCB",22-09-2025 07:00:00,30.9028,75.8086,SO2,7,13,10
India,Punjab,Mandi Gobindgarh,"RIMT University, Mandi Gobindgarh - PPCB",22-09-2025 07:00:00,30.649961,76.331442,PM10,57,391,140
India,Punjab,Patiala,"Model Town, Patiala - PPCB",22-09-2025 07:00:00,30.349388,76.366642,PM2.5,28,51,40
India,Punjab,Rupnagar,"Ratanpura, Rupnagar - Ambuja Cements",22-09-2025 07:00:00,31.0325454,76.5623046,PM2.5,24,182,68
India,Punjab,Rupnagar,"Ratanpura, Rupnagar - Ambuja Cements",22-09-2025 07:00:00,31.0325454,76.5623046,NO2,3,5,5
India,Rajasthan,Ajmer,"Civil Lines,  Ajmer - RSPCB",22-09-2025 07:00:00,26.470859,74.646594,PM10,60,112,83
India,Rajasthan,Ajmer,"Civil Lines,  Ajmer - RSPCB",22-09-2025 07:00:00,26.470859,74.646594,NO2,5,7,6
India,Rajasthan,Jaipur,"Police Commissionerate, Jaipur - RSPCB",22-09-2025 07:00:00,26.9164092,75.7994901,CO,13,124,56
India,Rajasthan,Jaipur,"RIICO Sitapura, Jaipur - RSPCB",22-09-2025 07:00:00,26.786682,75.827928,PM10,64,155,102
India,Rajasthan,Jaipur,"Sector-2 Murlipura, Jaipur - RSPCB",22-09-2025 07:00:00,26.960669,75.771817,PM2.5,23,151,56
India,Rajasthan,Jaipur,"Sector-2 Murlipura, Jaipur - RSPCB",22-09-2025 07:00:00,26.960669,75.771817,NH3,NA,NA,NA
India,Rajasthan,Jaipur,"Shastri Nagar, Jaipur - RSPCB",22-09-2025 07:00:00,26.9502929,75.730943,NH3,1,20,10
India,Rajasthan,Jaisalmer,"Sadar Bazar, Jaisalmer - RSPCB",22-09-2025 07:00:00,26.912329,70.909168,PM10,71,116,94
India,Rajasthan,Jaisalmer,"Sadar Bazar, Jaisalmer - RSPCB",22-09-2025 07:00:00,26.912329,70.909168,NH3,3,7,5
India,Rajasthan,Jalore,"Mudtra Sili, Jalore - RSPCB",22-09-2025 07:00:00,25.344694,72.626208,PM2.5,12,50,29
India,Rajasthan,Jalore,"Mudtra Sili, Jalore - RSPCB",22-09-2025 07:00:00,25.344694,72.626208,PM10,55,116,89
India,Rajasthan,Jalore,"Mudtra Sili, Jalore - RSPCB",22-09-2025 07:00:00,25.344694,72.626208,NO2,1,26,10
India,Odisha,Bhubaneswar,"Lingraj Mandir, Bhubaneswar - OSPCB",22-09-2025 07:00:00,20.240790,85.836784,PM10,21,119,40
India,Odisha,Bhubaneswar,"Patia, Bhubaneswar - OSPCB",22-09-2025 07:00:00,20.34652,85.81630,PM2.5,10,97,34
India,Odisha,Bhubaneswar,"Patia, Bhubaneswar - OSPCB",22-09-2025 07:00:00,20.34652,85.81630,PM10,30,109,54
India,Odisha,Bileipada,"Tata Township, Bileipada - OSPCB",22-09-2025 07:00:00,22.06156703,85.47409613,NH3,4,4,4
India,Odisha,Brajrajnagar,"GM Office, Brajrajnagar - OSPCB",22-09-2025 07:00:00,21.8004996,83.8396977,NO2,14,27,18
India,Odisha,Byasanagar,"Ferro Chrome Colony, Byasanagar - OSPCB",22-09-2025 07:00:00,20.94185,86.11510,PM2.5,13,93,50
India,Odisha,Byasanagar,"Ferro Chrome Colony, Byasanagar - OSPCB",22-09-2025 07:00:00,20.94185,86.11510,PM10,17,114,63
India,Odisha,Byasanagar,"Ferro Chrome Colony, Byasanagar - OSPCB",22-09-2025 07:00:00,20.94185,86.11510,NH3,2,3,2
India,Odisha,Cuttack,"CDA Area, Cuttack - OSPCB",22-09-2025 07:00:00,20.48891     ,85.84768     ,PM10,NA,NA,NA
India,Rajasthan,Bhilwara,"Pratap Nagar, Bhilwara - RSPCB",22-09-2025 07:00:00,25.339605,74.618883,NO2,5,17,11
India,Rajasthan,Bhiwadi,"Vasundhara Nagar_UIT, Bhiwadi - RSPCB",22-09-2025 07:00:00,28.207266,76.829265,PM10,92,150,114
India,Rajasthan,Bikaner,"MM Ground, Bikaner - RSPCB",22-09-2025 07:00:00,28.018792,73.292658,NH3,7,10,8
India,Rajasthan,Bikaner,"MM Ground, Bikaner - RSPCB",22-09-2025 07:00:00,28.018792,73.292658,SO2,1,3,2
India,Rajasthan,Bundi,"New Colony, Bundi - RSPCB",22-09-2025 07:00:00,25.435774,75.644272,SO2,3,11,5
India,Rajasthan,Banswara,"Rati Talai, Banswara - RSPCB",22-09-2025 07:00:00,23.555190,74.440010,PM10,37,191,89
India,Rajasthan,Baran,"Bamboliya, Baran - RSPCB",22-09-2025 07:00:00,25.106006,76.469948,NO2,3,36,11
India,Rajasthan,Barmer,"Railway Colony, Barmer - RSPCB",22-09-2025 07:00:00,25.747299,71.393989,NO2,3,17,7
India,Rajasthan,Bharatpur,"Krishna Nagar, Bharatpur - RSPCB",22-09-2025 07:00:00,27.215415,77.50873,CO,10,49,28
India,Odisha,Keonjhar,"Jagamohanpur, Keonjhar - OSPCB",22-09-2025 07:00:00,21.643900,85.599355,CO,2,109,36
India,Odisha,Nayagarh,"Dabuna, Nayagarh - OSPCB",22-09-2025 07:00:00,21.847279,85.416905,PM10,23,53,36
India,Odisha,Nayagarh,"Dabuna, Nayagarh - OSPCB",22-09-2025 07:00:00,21.847279,85.416905,CO,21,28,24
India,Odisha,Rairangpur,"Divisional Forest Office, Rairangpur - OSPCB",22-09-2025 07:00:00,22.265816,86.174829,CO,28,32,28
India,Odisha,Rairangpur,"Divisional Forest Office, Rairangpur - OSPCB",22-09-2025 07:00:00,22.265816,86.174829,OZONE,19,25,20
India,Rajasthan,Chittorgarh,"Shastri Nagar, Chittorgarh - RSPCB",22-09-2025 07:00:00,24.892047,74.623527,PM2.5,11,62,38
India,Rajasthan,Chittorgarh,"Shastri Nagar, Chittorgarh - RSPCB",22-09-2025 07:00:00,24.892047,74.623527,NO2,7,27,13
India,Rajasthan,Chittorgarh,"Shastri Nagar, Chittorgarh - RSPCB",22-09-2025 07:00:00,24.892047,74.623527,NH3,2,2,2
India,Rajasthan,Chittorgarh,"Shastri Nagar, Chittorgarh - RSPCB",22-09-2025 07:00:00,24.892047,74.623527,SO2,1,19,2
India,Rajasthan,Dholpur,"Raja Ganj, Dholpur - RSPCB",22-09-2025 07:00:00,26.699557,77.898881,PM2.5,NA,NA,NA
India,Rajasthan,Hanumangarh,"Housing Board, Hanumangarh - RSPCB",22-09-2025 07:00:00,29.610750,74.283608,PM2.5,27,75,48
India,Rajasthan,Udaipur,"Ashok Nagar, Udaipur - RSPCB",22-09-2025 07:00:00,24.5886166,73.6321397,SO2,NA,NA,NA
India,Rajasthan,Udaipur,"Ashok Nagar, Udaipur - RSPCB",22-09-2025 07:00:00,24.5886166,73.6321397,OZONE,NA,NA,NA
India,Sikkim,Gangtok,"Zero Point GICI, Gangtok - SSPCB",22-09-2025 07:00:00,27.338530,88.614099,NH3,1,8,2
India,Sikkim,Gangtok,"Zero Point GICI, Gangtok - SSPCB",22-09-2025 07:00:00,27.338530,88.614099,CO,2,24,6
India,TamilNadu,Ariyalur,"Keelapalur, Ariyalur - TNPCB",22-09-2025 07:00:00,11.06825,79.07033,SO2,12,13,12
India,TamilNadu,Chengalpattu,"Crescent University, Chengalpattu - TNPCB",22-09-2025 07:00:00,12.8777316,80.0834807,PM2.5,42,67,53
India,TamilNadu,Chengalpattu,"Crescent University, Chengalpattu - TNPCB",22-09-2025 07:00:00,12.8777316,80.0834807,NO2,3,4,4
India,TamilNadu,Chengalpattu,"Crescent University, Chengalpattu - TNPCB",22-09-2025 07:00:00,12.8777316,80.0834807,SO2,16,16,16
India,TamilNadu,Chengalpattu,"Crescent University, Chengalpattu - TNPCB",22-09-2025 07:00:00,12.8777316,80.0834807,CO,5,6,5
India,TamilNadu,Chengalpattu,"Crescent University, Chengalpattu - TNPCB",22-09-2025 07:00:00,12.8777316,80.0834807,OZONE,7,22,8
India,TamilNadu,Chennai,"Kodungaiyur, Chennai - TNPCB",22-09-2025 07:00:00,13.1278,80.2642,PM10,14,90,46
India,TamilNadu,Chennai,"Kodungaiyur, Chennai - TNPCB",22-09-2025 07:00:00,13.1278,80.2642,NO2,4,11,7
India,TamilNadu,Chennai,"Kodungaiyur, Chennai - TNPCB",22-09-2025 07:00:00,13.1278,80.2642,CO,8,78,25
India,TamilNadu,Perundurai,"SIPCOT Industrial Park, Perundurai - TNPCB",22-09-2025 07:00:00,11.258242,77.552761,PM2.5,13,41,26
India,TamilNadu,Perundurai,"SIPCOT Industrial Park, Perundurai - TNPCB",22-09-2025 07:00:00,11.258242,77.552761,SO2,21,23,22
India,TamilNadu,Pudukottai,"SIPCOT Nathampannai, Pudukottai - TNPCB",22-09-2025 07:00:00,10.423417,78.784889,PM10,26,67,47
India,TamilNadu,Pudukottai,"SIPCOT Nathampannai, Pudukottai - TNPCB",22-09-2025 07:00:00,10.423417,78.784889,SO2,11,13,12
India,TamilNadu,Ramanathapuram,"Chalai Bazaar, Ramanathapuram - TNPCB",22-09-2025 07:00:00,9.36399,78.831977,NO2,13,13,13
India,TamilNadu,Ramanathapuram,"Chalai Bazaar, Ramanathapuram - TNPCB",22-09-2025 07:00:00,9.36399,78.831977,SO2,12,19,14
India,TamilNadu,Salem,"Sona College of Technology, Salem - TNPCB",22-09-2025 07:00:00,11.679111,78.125052,NH3,3,3,3
India,TamilNadu,Salem,"Sona College of Technology, Salem - TNPCB",22-09-2025 07:00:00,11.679111,78.125052,SO2,30,31,31
India,TamilNadu,Thoothukudi,"Meelavittan, Thoothukudi - TNPCB",22-09-2025 07:00:00,8.816428 ,78.099039,NO2,16,29,21
India,TamilNadu,Thoothukudi,"Meelavittan, Thoothukudi - TNPCB",22-09-2025 07:00:00,8.816428 ,78.099039,SO2,2,11,7
India,TamilNadu,Coimbatore,"SIDCO Kurichi, Coimbatore - TNPCB",22-09-2025 07:00:00,10.942451,76.978996,PM2.5,NA,NA,NA
India,TamilNadu,Coimbatore,"SIDCO Kurichi, Coimbatore - TNPCB",22-09-2025 07:00:00,10.942451,76.978996,NO2,17,21,18
India,TamilNadu,Coimbatore,"SIDCO Kurichi, Coimbatore - TNPCB",22-09-2025 07:00:00,10.942451,76.978996,OZONE,1,9,3
India,TamilNadu,Cuddalore,"Kudikadu, Cuddalore - TNPCB",22-09-2025 07:00:00,11.6829898,79.7532099,PM2.5,10,70,38
India,TamilNadu,Cuddalore,"Kudikadu, Cuddalore - TNPCB",22-09-2025 07:00:00,11.6829898,79.7532099,SO2,19,20,19
India,TamilNadu,Cuddalore,"Kudikadu, Cuddalore - TNPCB",22-09-2025 07:00:00,11.6829898,79.7532099,OZONE,3,6,4
India,TamilNadu,Cuddalore,"Semmandalam, Cuddalore - TNPCB",22-09-2025 07:00:00,11.7637683,79.7499835,PM10,4,103,29
India,TamilNadu,Cuddalore,"Semmandalam, Cuddalore - TNPCB",22-09-2025 07:00:00,11.7637683,79.7499835,NH3,2,3,3
India,TamilNadu,Dindigul,"Mendonsa Colony, Dindigul - TNPCB",22-09-2025 07:00:00,10.358535,77.984321,SO2,3,14,8
India,TamilNadu,Hosur,"SIPCOT Phase-1, Hosur - TNPCB",22-09-2025 07:00:00,12.746998,77.813811,PM10,33,136,57
India,TamilNadu,Hosur,"SIPCOT Phase-1, Hosur - TNPCB",22-09-2025 07:00:00,12.746998,77.813811,NH3,1,1,1
India,TamilNadu,Hosur,"SIPCOT Phase-1, Hosur - TNPCB",22-09-2025 07:00:00,12.746998,77.813811,SO2,52,54,53
India,TamilNadu,Hosur,"SIPCOT Phase-1, Hosur - TNPCB",22-09-2025 07:00:00,12.746998,77.813811,CO,16,19,17
India,TamilNadu,Karur,"Kamadenu Nagar, Karur - TNPCB",22-09-2025 07:00:00,10.967820,78.080882,PM2.5,12,39,21
India,TamilNadu,Karur,"Kamadenu Nagar, Karur - TNPCB",22-09-2025 07:00:00,10.967820,78.080882,NH3,3,3,3
India,TamilNadu,Karur,"Kamadenu Nagar, Karur - TNPCB",22-09-2025 07:00:00,10.967820,78.080882,CO,6,8,8
India,TamilNadu,Karur,"Kamadenu Nagar, Karur - TNPCB",22-09-2025 07:00:00,10.967820,78.080882,OZONE,7,8,8
India,TamilNadu,Madurai,"Uchapatti, Madurai - TNPCB",22-09-2025 07:00:00,9.865935,78.022669,PM10,18,48,32
India,TamilNadu,Madurai,"Uchapatti, Madurai - TNPCB",22-09-2025 07:00:00,9.865935,78.022669,SO2,13,13,13
India,TamilNadu,Nagapattinam,"Velippalayam, Nagapattinam - TNPCB",22-09-2025 07:00:00,10.798548,79.838212,PM10,NA,NA,NA
India,TamilNadu,Nagapattinam,"Velippalayam, Nagapattinam - TNPCB",22-09-2025 07:00:00,10.798548,79.838212,CO,8,18,14
India,Rajasthan,Jalore,"Mudtra Sili, Jalore - RSPCB",22-09-2025 07:00:00,25.344694,72.626208,CO,12,41,14
India,Rajasthan,Jhalawar,"Rajlaxmi Nagar, Jhalawar - RSPCB",22-09-2025 07:00:00,24.588397,76.172782,PM10,35,60,47
India,Rajasthan,Jhalawar,"Rajlaxmi Nagar, Jhalawar - RSPCB",22-09-2025 07:00:00,24.588397,76.172782,SO2,5,10,7
India,Rajasthan,Jhunjhunu,"Indra Nagar, Jhunjhunu - RSPCB",22-09-2025 07:00:00,28.108988,75.386577,PM10,56,120,86
India,Rajasthan,Jodhpur,"Collectorate, Jodhpur - RSPCB",22-09-2025 07:00:00,26.268249,73.0193853,PM10,18,135,64
India,Rajasthan,Jodhpur,"Digari Kalan, Jodhpur - RSPCB",22-09-2025 07:00:00,26.295810,73.082283,NO2,NA,NA,NA
India,Rajasthan,Jodhpur,"Digari Kalan, Jodhpur - RSPCB",22-09-2025 07:00:00,26.295810,73.082283,SO2,NA,NA,NA
India,Rajasthan,Jodhpur,"Jhalamand, Jodhpur - RSPCB",22-09-2025 07:00:00,26.215415,73.070156,PM2.5,12,58,30
India,Rajasthan,Jodhpur,"Jhalamand, Jodhpur - RSPCB",22-09-2025 07:00:00,26.215415,73.070156,CO,8,18,11
India,Rajasthan,Jodhpur,"Mandor, Jodhpur - RSPCB",22-09-2025 07:00:00,26.358805,73.047444,NH3,2,3,2
India,Rajasthan,Jodhpur,"Mandor, Jodhpur - RSPCB",22-09-2025 07:00:00,26.358805,73.047444,CO,13,27,15
India,Rajasthan,Jodhpur,"Samrat Ashok Udhyan, Jodhpur - RSPCB",22-09-2025 07:00:00,26.253384,72.976571,NH3,2,3,2
India,Rajasthan,Jodhpur,"Samrat Ashok Udhyan, Jodhpur - RSPCB",22-09-2025 07:00:00,26.253384,72.976571,OZONE,12,47,19
India,Rajasthan,Karauli,"Satyawati Vihar, Karauli - RSPCB",22-09-2025 07:00:00,26.506177,77.025989,CO,16,30,21
India,Rajasthan,Kota,"Dhanmandi, Kota - RSPCB",22-09-2025 07:00:00,25.164090,75.858137,NH3,NA,NA,NA
India,Rajasthan,Kota,"Dhanmandi, Kota - RSPCB",22-09-2025 07:00:00,25.164090,75.858137,OZONE,NA,NA,NA
India,Rajasthan,Kota,"Shrinath Puram, Kota - RSPCB",22-09-2025 07:00:00,25.14389,75.821256,SO2,3,12,7
India,Rajasthan,Pali,"Indira Colony Vistar, Pali - RSPCB",22-09-2025 07:00:00,25.771061, 73.340227,SO2,6,12,9
India,Rajasthan,Pratapgarh,"Pragati Nagar, Pratapgarh - RSPCB",22-09-2025 07:00:00,24.041198,74.780702,SO2,1,4,2
India,Rajasthan,Rajsamand,"Dhoinda, Rajsamand - RSPCB",22-09-2025 07:00:00,25.036360,73.883502,PM2.5,10,60,25
India,TamilNadu,Chennai,"Manali Village, Chennai - TNPCB",22-09-2025 07:00:00,13.1662,80.2584,PM2.5,2,95,29
India,TamilNadu,Chennai,"Royapuram, Chennai - TNPCB",22-09-2025 07:00:00,13.1036,80.2909,OZONE,4,11,7
India,TamilNadu,Chennai,"Velachery Res. Area, Chennai - CPCB",22-09-2025 07:00:00,13.0052189,80.2398125,PM2.5,30,63,45
India,TamilNadu,Chennai,"Velachery Res. Area, Chennai - CPCB",22-09-2025 07:00:00,13.0052189,80.2398125,CO,55,66,59
India,Rajasthan,Sawai Madhopur,"Sahu Nagar, Sawai Madhopur - RSPCB",22-09-2025 07:00:00,26.031443,76.359327,CO,24,74,32
India,Rajasthan,Sikar,"Radhakishan Pura, Sikar - RSPCB",22-09-2025 07:00:00,27.608912,75.153302,NO2,9,43,16
India,Telangana,Hyderabad,"Kompally Municipal Office, Hyderabad - TSPCB",22-09-2025 07:00:00,17.544899,78.486949,PM10,76,95,82
India,Telangana,Hyderabad,"Kompally Municipal Office, Hyderabad - TSPCB",22-09-2025 07:00:00,17.544899,78.486949,NH3,2,4,3
India,Telangana,Hyderabad,"Nacharam_TSIIC IALA, Hyderabad - TSPCB",22-09-2025 07:00:00,17.429398,78.569354,PM2.5,53,55,54
India,Telangana,Hyderabad,"Nacharam_TSIIC IALA, Hyderabad - TSPCB",22-09-2025 07:00:00,17.429398,78.569354,NH3,5,6,5
India,Telangana,Hyderabad,"New Malakpet, Hyderabad - TSPCB",22-09-2025 07:00:00,17.37206,78.50864,PM2.5,42,59,47
India,Telangana,Hyderabad,"New Malakpet, Hyderabad - TSPCB",22-09-2025 07:00:00,17.37206,78.50864,PM10,63,74,66
India,Telangana,Hyderabad,"Ramachandrapuram, Hyderabad - TSPCB",22-09-2025 07:00:00,17.528544,78.286195,NO2,NA,NA,NA
India,Telangana,Hyderabad,"Ramachandrapuram, Hyderabad - TSPCB",22-09-2025 07:00:00,17.528544,78.286195,SO2,NA,NA,NA
India,Telangana,Hyderabad,"Ramachandrapuram, Hyderabad - TSPCB",22-09-2025 07:00:00,17.528544,78.286195,CO,NA,NA,NA
India,Telangana,Hyderabad,"Sanathnagar, Hyderabad - TSPCB",22-09-2025 07:00:00,17.4559458,78.4332152,PM2.5,19,68,37
India,Uttar_Pradesh,Agra,"Sanjay Palace, Agra - UPPCB",22-09-2025 07:00:00,27.19865833,78.00598056,CO,30,44,36
India,Uttar_Pradesh,Agra,"Sector-3B Avas Vikas Colony, Agra - UPPCB",22-09-2025 07:00:00,27.19412,77.96237,NO2,20,24,22
India,Uttar_Pradesh,Agra,"Sector-3B Avas Vikas Colony, Agra - UPPCB",22-09-2025 07:00:00,27.19412,77.96237,CO,20,40,32
India,Uttar_Pradesh,Agra,"Shahjahan Garden, Agra - UPPCB",22-09-2025 07:00:00,27.169338,78.03582,NO2,33,33,33
India,Uttar_Pradesh,Agra,"Shahjahan Garden, Agra - UPPCB",22-09-2025 07:00:00,27.169338,78.03582,SO2,31,44,38
India,Uttar_Pradesh,Agra,"Shastripuram, Agra - UPPCB",22-09-2025 07:00:00,27.19862,77.92066,SO2,4,15,6
India,Uttar_Pradesh,Baghpat,"Sardar Patel Inter College, Baghpat - UPPCB",22-09-2025 07:00:00,28.964949,77.278761,OZONE,14,107,34
India,Uttar_Pradesh,Bareilly,"Civil Lines, Bareilly - UPPCB",22-09-2025 07:00:00,28.359581,79.414455,NH3,2,4,3
India,Telangana,Hyderabad,"Central University, Hyderabad - TSPCB",22-09-2025 07:00:00,17.460103,78.334361,NO2,32,70,48
India,Telangana,Hyderabad,"Central University, Hyderabad - TSPCB",22-09-2025 07:00:00,17.460103,78.334361,CO,2,345,8
India,Telangana,Hyderabad,"Central University, Hyderabad - TSPCB",22-09-2025 07:00:00,17.460103,78.334361,OZONE,6,314,73
India,Telangana,Hyderabad,"ECIL Kapra, Hyderabad - TSPCB",22-09-2025 07:00:00,17.470431,78.566959,PM10,80,95,85
India,Telangana,Hyderabad,"ECIL Kapra, Hyderabad - TSPCB",22-09-2025 07:00:00,17.470431,78.566959,NO2,10,21,16
India,Telangana,Hyderabad,"ECIL Kapra, Hyderabad - TSPCB",22-09-2025 07:00:00,17.470431,78.566959,OZONE,14,44,18
India,Telangana,Hyderabad,"IDA Pashamylaram, Hyderabad - TSPCB",22-09-2025 07:00:00,17.5316895,78.218939,NO2,15,25,20
India,Telangana,Hyderabad,"Kokapet, Hyderabad - TSPCB",22-09-2025 07:00:00,17.393559,78.339194,PM2.5,46,51,48
India,Telangana,Hyderabad,"Kokapet, Hyderabad - TSPCB",22-09-2025 07:00:00,17.393559,78.339194,NH3,2,2,2
India,Telangana,Hyderabad,"Kokapet, Hyderabad - TSPCB",22-09-2025 07:00:00,17.393559,78.339194,SO2,9,11,10
India,Uttar_Pradesh,Bareilly,"Rajendra Nagar, Bareilly - UPPCB",22-09-2025 07:00:00,28.38910936,79.42963708,NO2,9,10,9
India,Uttar_Pradesh,Bulandshahr,"Yamunapuram, Bulandshahr - UPPCB",22-09-2025 07:00:00,28.406963,77.849831,PM2.5,55,159,83
India,Uttar_Pradesh,Bulandshahr,"Yamunapuram, Bulandshahr - UPPCB",22-09-2025 07:00:00,28.406963,77.849831,OZONE,3,40,4
India,Uttar_Pradesh,Firozabad,"Nagla Bhau, Firozabad - UPPCB",22-09-2025 07:00:00,27.168897,78.376960,PM2.5,13,42,25
India,Uttar_Pradesh,Firozabad,"Vibhab Nagar, Firozabad - UPPCB",22-09-2025 07:00:00,27.1594,78.3953,PM10,63,105,80
India,Uttar_Pradesh,Firozabad,"Vibhab Nagar, Firozabad - UPPCB",22-09-2025 07:00:00,27.1594,78.3953,SO2,9,82,22
India,Uttar_Pradesh,Ghaziabad,"Indirapuram, Ghaziabad - UPPCB",22-09-2025 07:00:00,28.646233,77.358075,PM2.5,49,92,67
India,Uttar_Pradesh,Ghaziabad,"Indirapuram, Ghaziabad - UPPCB",22-09-2025 07:00:00,28.646233,77.358075,PM10,112,167,144
India,TamilNadu,Tiruchirappalli,"St Joseph College, Tiruchirappalli - TNPCB",22-09-2025 07:00:00,10.830158,78.691849,PM10,23,44,32
India,TamilNadu,Tiruchirappalli,"St Joseph College, Tiruchirappalli - TNPCB",22-09-2025 07:00:00,10.830158,78.691849,SO2,16,16,16
India,TamilNadu,Tirunelveli,"Municipal Corporation Office, Tirunelveli - TNPCB",22-09-2025 07:00:00,8.728442,77.6962,PM2.5,8,23,16
India,TamilNadu,Tirupur,"Kumaran College, Tirupur - TNPCB",22-09-2025 07:00:00,11.0973603,77.3228673,PM10,NA,NA,NA
India,TamilNadu,Virudhunagar,"Collectorate Office, Virudhunagar - TNPCB",22-09-2025 07:00:00,9.559382,77.948828,NO2,19,20,19
India,TamilNadu,Virudhunagar,"Collectorate Office, Virudhunagar - TNPCB",22-09-2025 07:00:00,9.559382,77.948828,CO,16,23,18
India,Telangana,Hyderabad,"Bollaram Industrial Area, Hyderabad - TSPCB",22-09-2025 07:00:00,17.540891,78.358528,PM10,16,69,31
India,Uttar_Pradesh,Ghaziabad,"Indirapuram, Ghaziabad - UPPCB",22-09-2025 07:00:00,28.646233,77.358075,SO2,10,19,15
India,Uttar_Pradesh,Ghaziabad,"Indirapuram, Ghaziabad - UPPCB",22-09-2025 07:00:00,28.646233,77.358075,OZONE,1,90,10
India,Uttar_Pradesh,Ghaziabad,"Loni, Ghaziabad - UPPCB",22-09-2025 07:00:00,28.757294,77.278792,OZONE,9,63,16
India,Uttar_Pradesh,Ghaziabad,"Sanjay Nagar, Ghaziabad - UPPCB",22-09-2025 07:00:00,28.685382,77.453839,PM2.5,43,167,68
India,Uttar_Pradesh,Ghaziabad,"Sanjay Nagar, Ghaziabad - UPPCB",22-09-2025 07:00:00,28.685382,77.453839,CO,24,60,36
India,Uttar_Pradesh,Ghaziabad,"Vasundhara, Ghaziabad - UPPCB",22-09-2025 07:00:00,28.6603346,77.3572563,SO2,14,18,16
India,Uttar_Pradesh,Ghaziabad,"Vasundhara, Ghaziabad - UPPCB",22-09-2025 07:00:00,28.6603346,77.3572563,CO,11,40,31
India,Uttar_Pradesh,Gorakhpur,"Madan Mohan Malaviya University of Technology, Gorakhpur - UPPCB",22-09-2025 07:00:00,26.730136,83.433859,NO2,11,12,11
India,Uttar_Pradesh,Greater Noida,"Knowledge Park - III, Greater Noida - UPPCB",22-09-2025 07:00:00,28.47272,77.482000,SO2,9,16,13
India,Uttar_Pradesh,Greater Noida,"Knowledge Park - III, Greater Noida - UPPCB",22-09-2025 07:00:00,28.47272,77.482000,CO,28,78,52
India,Uttar_Pradesh,Greater Noida,"Knowledge Park - V, Greater Noida - UPPCB",22-09-2025 07:00:00,28.557054,77.453663,SO2,7,12,10
India,Uttar_Pradesh,Hapur,"Anand Vihar, Hapur - UPPCB",22-09-2025 07:00:00,28.725645,77.749675,PM10,115,152,128
India,Uttar_Pradesh,Hapur,"Anand Vihar, Hapur - UPPCB",22-09-2025 07:00:00,28.725645,77.749675,SO2,7,17,9
India,Uttar_Pradesh,Kanpur,"FTI Kidwai Nagar, Kanpur - UPPCB",22-09-2025 07:00:00,26.428282,80.327067,PM2.5,23,77,51
India,Uttar_Pradesh,Kanpur,"FTI Kidwai Nagar, Kanpur - UPPCB",22-09-2025 07:00:00,26.428282,80.327067,NO2,16,17,17
India,Telangana,Hyderabad,"Zoo Park, Hyderabad - TSPCB",22-09-2025 07:00:00,17.349694,78.451437,PM2.5,48,102,75
India,Tripura,Agartala,"Bardowali, Agartala - Tripura SPCB",22-09-2025 07:00:00,23.8175497,91.2726974,PM10,NA,NA,NA
India,Tripura,Agartala,"Bardowali, Agartala - Tripura SPCB",22-09-2025 07:00:00,23.8175497,91.2726974,NH3,2,4,3
India,Uttar_Pradesh,Agra,"Rohta, Agra - UPPCB",22-09-2025 07:00:00,27.106972,78.000111,PM10,41,153,97
India,Uttar_Pradesh,Agra,"Rohta, Agra - UPPCB",22-09-2025 07:00:00,27.106972,78.000111,SO2,13,22,17
India,Uttar_Pradesh,Agra,"Rohta, Agra - UPPCB",22-09-2025 07:00:00,27.106972,78.000111,CO,24,40,32
India,Uttar_Pradesh,Agra,"Rohta, Agra - UPPCB",22-09-2025 07:00:00,27.106972,78.000111,OZONE,11,12,11
India,Uttar_Pradesh,Kanpur,"Nehru Nagar, Kanpur - UPPCB",22-09-2025 07:00:00,26.4703136,80.3229863,PM10,32,110,74
India,Uttar_Pradesh,Khurja,"Kalindi Kunj, Khurja - UPPCB",22-09-2025 07:00:00,28.2348927,77.8683002,NO2,3,4,4
India,Uttar_Pradesh,Meerut,"Jai Bhim Nagar, Meerut - UPPCB",22-09-2025 07:00:00,28.9535882,77.7622941,SO2,8,14,10
India,Uttar_Pradesh,Meerut,"Jai Bhim Nagar, Meerut - UPPCB",22-09-2025 07:00:00,28.9535882,77.7622941,OZONE,19,146,38
India,Uttar_Pradesh,Meerut,"Pallavpuram Phase 2, Meerut - UPPCB",22-09-2025 07:00:00,29.063510,77.709723,PM10,120,184,141
India,Uttar_Pradesh,Meerut,"Pallavpuram Phase 2, Meerut - UPPCB",22-09-2025 07:00:00,29.063510,77.709723,NH3,3,5,4
India,Uttar_Pradesh,Meerut,"Pallavpuram Phase 2, Meerut - UPPCB",22-09-2025 07:00:00,29.063510,77.709723,CO,26,44,35
India,Uttar_Pradesh,Moradabad,"Eco Herbal Park, Moradabad - UPPCB",22-09-2025 07:00:00,28.840739,78.697531,PM2.5,NA,NA,NA
India,Uttar_Pradesh,Moradabad,"Eco Herbal Park, Moradabad - UPPCB",22-09-2025 07:00:00,28.840739,78.697531,NO2,10,21,14
India,Uttar_Pradesh,Moradabad,"Jigar Colony, Moradabad - UPPCB",22-09-2025 07:00:00,28.856664,78.772638,PM10,81,119,99
India,West_Bengal,Asansol,"Trivenidevi Bhalotia College, Asansol - WBPCB",22-09-2025 07:00:00,23.616515,87.119133,NO2,10,45,20
India,West_Bengal,Asansol,"Trivenidevi Bhalotia College, Asansol - WBPCB",22-09-2025 07:00:00,23.616515,87.119133,OZONE,14,76,24
India,West_Bengal,Durgapur,"Mahishkapur Road_B-Zone, Durgapur - WBPCB",22-09-2025 07:00:00,23.567923,87.306843,PM10,36,76,54
India,West_Bengal,Durgapur,"Mahishkapur Road_B-Zone, Durgapur - WBPCB",22-09-2025 07:00:00,23.567923,87.306843,NH3,1,1,1
India,West_Bengal,Durgapur,"PCBL Residential Complex, Durgapur - WBPCB",22-09-2025 07:00:00,23.5087640,87.3544400,PM2.5,12,72,46
India,West_Bengal,Durgapur,"Womens College_City Center, Durgapur - WBPCB (Formerly known as Sidhu Kanhu Indoor Stadium)",22-09-2025 07:00:00,23.549395,87.300496,NH3,2,2,2
India,Uttarakhand,Dehradun,"Doon University, Dehradun - UKPCB",22-09-2025 07:00:00,30.269444,78.044167,OZONE,13,30,18
India,West_Bengal,Asansol,"Asansol Court Area, Asansol - WBPCB",22-09-2025 07:00:00,23.685297,86.945968,PM10,38,93,63
India,West_Bengal,Asansol,"Asansol Court Area, Asansol - WBPCB",22-09-2025 07:00:00,23.685297,86.945968,CO,6,111,42
India,West_Bengal,Asansol,"Asansol Court Area, Asansol - WBPCB",22-09-2025 07:00:00,23.685297,86.945968,OZONE,11,27,15
India,West_Bengal,Asansol,"Evelyn Lodge, Asansol - WBPCB",22-09-2025 07:00:00,23.6979360,86.9443950,PM2.5,32,64,47
India,West_Bengal,Asansol,"Evelyn Lodge, Asansol - WBPCB",22-09-2025 07:00:00,23.6979360,86.9443950,PM10,39,71,56
India,West_Bengal,Asansol,"Evelyn Lodge, Asansol - WBPCB",22-09-2025 07:00:00,23.6979360,86.9443950,CO,19,69,34
India,West_Bengal,Asansol,"Evelyn Lodge, Asansol - WBPCB",22-09-2025 07:00:00,23.6979360,86.9443950,OZONE,7,42,13
India,West_Bengal,Howrah,"Padmapukur, Howrah - WBPCB",22-09-2025 07:00:00,22.5687319,88.2797276,SO2,4,8,6
India,West_Bengal,Kolkata,"Ballygunge, Kolkata - WBPCB",22-09-2025 07:00:00,22.5367507,88.3638022,OZONE,18,37,22
India,West_Bengal,Kolkata,"Bidhannagar, Kolkata - WBPCB",22-09-2025 07:00:00,22.58157048,88.41002457,PM2.5,35,72,55
India,West_Bengal,Kolkata,"Fort William, Kolkata - WBPCB",22-09-2025 07:00:00,22.556640,88.342674,PM2.5,36,62,50
India,West_Bengal,Kolkata,"Fort William, Kolkata - WBPCB",22-09-2025 07:00:00,22.556640,88.342674,PM10,46,79,64
India,West_Bengal,Kolkata,"Rabindra Bharati University, Kolkata - WBPCB",22-09-2025 07:00:00,22.627847,88.380669,PM2.5,39,67,54
India,Uttar_Pradesh,Noida,"Sector - 62, Noida - IMD",22-09-2025 07:00:00,28.6245479,77.3577104,OZONE,16,91,25
India,Uttar_Pradesh,Noida,"Sector-1, Noida - UPPCB",22-09-2025 07:00:00,28.5898,77.3101,SO2,6,11,8
India,Uttar_Pradesh,Prayagraj,"Jhunsi, Prayagraj - UPPCB",22-09-2025 07:00:00,25.425602,81.917152,CO,10,28,21
India,Uttar_Pradesh,Prayagraj,"Motilal Nehru NIT, Prayagraj - UPPCB",22-09-2025 07:00:00,25.494,81.863,NH3,8,8,8
India,Uttar_Pradesh,Prayagraj,"Nagar Nigam, Prayagraj - UPPCB",22-09-2025 07:00:00,25.44919916 ,81.82735986 ,PM10,55,131,86
India,Uttar_Pradesh,Prayagraj,"Nagar Nigam, Prayagraj - UPPCB",22-09-2025 07:00:00,25.44919916 ,81.82735986 ,CO,12,36,25
India,Uttar_Pradesh,Moradabad,"Jigar Colony, Moradabad - UPPCB",22-09-2025 07:00:00,28.856664,78.772638,CO,26,40,40
India,Uttar_Pradesh,Moradabad,"Transport Nagar, Moradabad - UPPCB",22-09-2025 07:00:00,28.802625,78.753728,PM2.5,57,164,80
India,Uttar_Pradesh,Muzaffarnagar,"New Mandi, Muzaffarnagar - UPPCB",22-09-2025 07:00:00,29.4723508,77.7194031,PM2.5,73,163,95
India,Uttar_Pradesh,Muzaffarnagar,"New Mandi, Muzaffarnagar - UPPCB",22-09-2025 07:00:00,29.4723508,77.7194031,SO2,14,30,18
India,Uttar_Pradesh,Noida,"Sector - 125, Noida - UPPCB",22-09-2025 07:00:00,28.5447608,77.3231257,PM2.5,38,277,83
India,Uttar_Pradesh,Noida,"Sector - 125, Noida - UPPCB",22-09-2025 07:00:00,28.5447608,77.3231257,OZONE,15,79,22
India,West_Bengal,Haldia,"Priyambada Housing Estate, Haldia - WBPCB",22-09-2025 07:00:00,22.06047,88.109737,NO2,8,21,12
India,West_Bengal,Haldia,"Priyambada Housing Estate, Haldia - WBPCB",22-09-2025 07:00:00,22.06047,88.109737,CO,23,34,28
India,West_Bengal,Howrah,"Belur Math, Howrah - WBPCB",22-09-2025 07:00:00,22.629801,88.352017,NH3,4,8,5
India,West_Bengal,Howrah,"Dasnagar, Howrah - WBPCB",22-09-2025 07:00:00,22.6025571,88.3105664,NO2,9,21,14
India,West_Bengal,Howrah,"Dasnagar, Howrah - WBPCB",22-09-2025 07:00:00,22.6025571,88.3105664,NH3,NA,NA,NA
India,West_Bengal,Howrah,"Ghusuri, Howrah - WBPCB",22-09-2025 07:00:00,22.611968,88.347422,NH3,9,10,10
India,Uttar_Pradesh,Lucknow,"Kendriya Vidyalaya, Lucknow - CPCB",22-09-2025 07:00:00,26.906111,80.948222,NH3,8,14,12
India,Uttar_Pradesh,Lucknow,"Kukrail Picnic Spot-1, Lucknow - UPPCB",22-09-2025 07:00:00,26.90723,80.98579,PM10,50,75,65
India,Uttar_Pradesh,Meerut,"Ganga Nagar, Meerut - UPPCB",22-09-2025 07:00:00,28.999264,77.7590354,NO2,28,36,31
India,Uttar_Pradesh,Varanasi,"Ardhali Bazar, Varanasi - UPPCB",22-09-2025 07:00:00,25.3505986,82.9083074,PM2.5,31,62,46
India,Uttar_Pradesh,Varanasi,"Ardhali Bazar, Varanasi - UPPCB",22-09-2025 07:00:00,25.3505986,82.9083074,SO2,17,19,18
India,Uttar_Pradesh,Vrindavan,"Omex Eternity, Vrindavan - UPPCB",22-09-2025 07:00:00,27.5714090,77.6557570,NH3,2,2,2
India,West_Bengal,Kolkata,"Rabindra Bharati University, Kolkata - WBPCB",22-09-2025 07:00:00,22.627847,88.380669,PM10,40,67,57
India,West_Bengal,Kolkata,"Rabindra Bharati University, Kolkata - WBPCB",22-09-2025 07:00:00,22.627847,88.380669,NO2,29,57,43
India,West_Bengal,Kolkata,"Rabindra Bharati University, Kolkata - WBPCB",22-09-2025 07:00:00,22.627847,88.380669,OZONE,NA,NA,NA
India,West_Bengal,Kolkata,"Rabindra Sarobar, Kolkata - WBPCB",22-09-2025 07:00:00,22.51106,88.35142,NH3,7,11,8
India,West_Bengal,Kolkata,"Victoria, Kolkata - WBPCB",22-09-2025 07:00:00,22.5448082,88.3403691,PM10,62,99,81
India,West_Bengal,Kolkata,"Victoria, Kolkata - WBPCB",22-09-2025 07:00:00,22.5448082,88.3403691,NO2,12,25,18
India,West_Bengal,Kolkata,"Victoria, Kolkata - WBPCB",22-09-2025 07:00:00,22.5448082,88.3403691,SO2,4,16,9
India,West_Bengal,Kolkata,"Victoria, Kolkata - WBPCB",22-09-2025 07:00:00,22.5448082,88.3403691,CO,34,50,40
India,Assam,Nalbari,"Bata Chowk, Nalbari - PCBA",22-09-2025 07:00:00,26.446912,91.439057,NO2,2,10,5
India,Assam,Nalbari,"Bata Chowk, Nalbari - PCBA",22-09-2025 07:00:00,26.446912,91.439057,OZONE,27,39,29
India,Assam,Silchar,"Tarapur, Silchar - PCBA",22-09-2025 07:00:00,24.82827,92.79525,CO,33,48,39
India,Assam,Silchar,"Tarapur, Silchar - PCBA",22-09-2025 07:00:00,24.82827,92.79525,OZONE,1,15,1
India,Assam,Sivasagar,"Girls College, Sivasagar - PCBA",22-09-2025 07:00:00,26.987634,94.636574,NH3,3,4,4
India,Assam,Sivasagar,"Girls College, Sivasagar - PCBA",22-09-2025 07:00:00,26.987634,94.636574,OZONE,2,8,2
India,Bihar,Araria,"Kharahiya Basti, Araria - BSPCB",22-09-2025 07:00:00,26.146529,87.454184,OZONE,8,12,10
India,Bihar,Arrah,"New DM Office, Arrah - BSPCB",22-09-2025 07:00:00,25.5626095,84.663264,PM2.5,28,30,29
India,Bihar,Arrah,"New DM Office, Arrah - BSPCB",22-09-2025 07:00:00,25.5626095,84.663264,NO2,6,9,7
India,Bihar,Arrah,"New DM Office, Arrah - BSPCB",22-09-2025 07:00:00,25.5626095,84.663264,NH3,1,1,1
India,Bihar,Arrah,"New DM Office, Arrah - BSPCB",22-09-2025 07:00:00,25.5626095,84.663264,SO2,8,10,9
India,Bihar,Aurangabad,"Gurdeo Nagar, Aurangabad - BSPCB",22-09-2025 07:00:00,24.75746,84.366208,PM10,42,409,108
India,Bihar,Aurangabad,"Gurdeo Nagar, Aurangabad - BSPCB",22-09-2025 07:00:00,24.75746,84.366208,NO2,7,8,8
India,Andhra_Pradesh,Kadapa,"Yerramukkapalli, Kadapa - APPCB",22-09-2025 07:00:00,14.465052,78.824187,CO,16,44,22
India,Andhra_Pradesh,Kadapa,"Yerramukkapalli, Kadapa - APPCB",22-09-2025 07:00:00,14.465052,78.824187,OZONE,37,48,42
India,Andhra_Pradesh,Tirumala,"Toll Gate, Tirumala - APPCB",22-09-2025 07:00:00,13.67,79.35,OZONE,9,19,15
India,Andhra_Pradesh,Tirupati,"Vaikuntapuram, Tirupati - APPCB",22-09-2025 07:00:00,13.615387,79.409230,NH3,5,5,5
India,Andhra_Pradesh,Visakhapatnam,"GVM Corporation, Visakhapatnam - APPCB",22-09-2025 07:00:00,17.72,83.3,NO2,NA,NA,NA
India,Andhra_Pradesh,Visakhapatnam,"GVM Corporation, Visakhapatnam - APPCB",22-09-2025 07:00:00,17.72,83.3,OZONE,7,12,7
India,Arunachal_Pradesh,Naharlagun,"Naharlagun, Naharlagun - APSPCB",22-09-2025 07:00:00,27.103358,93.679645,PM2.5,11,50,33
India,Assam,Byrnihat,"Central Academy for SFS, Byrnihat - PCBA",22-09-2025 07:00:00,26.071318,91.87488,PM10,NA,NA,NA
India,Assam,Guwahati,"IITG, Guwahati - PCBA",22-09-2025 07:00:00,26.2028636,91.70046436,PM10,12,69,37
India,Assam,Guwahati,"IITG, Guwahati - PCBA",22-09-2025 07:00:00,26.2028636,91.70046436,SO2,22,28,24
India,Assam,Guwahati,"LGBI Airport, Guwahati - PCBA",22-09-2025 07:00:00,26.10887,91.589544,SO2,6,14,12
India,Assam,Guwahati,"LGBI Airport, Guwahati - PCBA",22-09-2025 07:00:00,26.10887,91.589544,CO,32,113,34
India,Assam,Guwahati,"LGBI Airport, Guwahati - PCBA",22-09-2025 07:00:00,26.10887,91.589544,OZONE,12,19,16
India,Assam,Guwahati,"Pan Bazaar, Guwahati - PCBA",22-09-2025 07:00:00,26.187500,91.744194,PM2.5,12,121,38
India,Assam,Guwahati,"Railway Colony, Guwahati - PCBA",22-09-2025 07:00:00,26.181742,91.78063,PM2.5,17,70,46
India,Assam,Nagaon,"Christianpatty, Nagaon - PCBA",22-09-2025 07:00:00,26.349082,92.68449,CO,11,76,36
India,Assam,Nalbari,"Bata Chowk, Nalbari - PCBA",22-09-2025 07:00:00,26.446912,91.439057,PM2.5,37,45,40
India,Bihar,Hajipur,"Industrial Area, Hajipur - BSPCB",22-09-2025 07:00:00,25.697189,85.245900,CO,NA,NA,NA
India,Bihar,Katihar,"Mirchaibari, Katihar - BSPCB",22-09-2025 07:00:00,25.560083,87.553265,NO2,11,18,14
India,Bihar,Katihar,"Mirchaibari, Katihar - BSPCB",22-09-2025 07:00:00,25.560083,87.553265,SO2,19,26,23
India,Bihar,Kishanganj,"SDM Office_Khagra, Kishanganj - BSPCB",22-09-2025 07:00:00,26.0881305,87.93840336,OZONE,16,17,16
India,Bihar,Manguraha,"Forest Rest House, Manguraha - BSPCB",22-09-2025 07:00:00,27.308328,84.531742,NH3,1,2,1
India,Bihar,Motihari,"Gandak Colony, Motihari - BSPCB",22-09-2025 07:00:00,26.63086,84.90051,SO2,NA,NA,NA
India,Bihar,Motihari,"Gandak Colony, Motihari - BSPCB",22-09-2025 07:00:00,26.63086,84.90051,OZONE,NA,NA,NA
India,Bihar,Munger,"Town Hall, Munger - BSPCB",22-09-2025 07:00:00,25.376776,86.471523,NO2,4,5,5
India,Bihar,Buxar,"Charitra Van, Buxar - BSPCB",22-09-2025 07:00:00,25.567520,83.966379,CO,14,28,25
India,Bihar,Chhapra,"Darshan Nagar, Chhapra - BSPCB",22-09-2025 07:00:00,25.7808257,84.7446768,NO2,1,1,1
India,Bihar,Chhapra,"Darshan Nagar, Chhapra - BSPCB",22-09-2025 07:00:00,25.7808257,84.7446768,NH3,3,4,4
India,Bihar,Chhapra,"Darshan Nagar, Chhapra - BSPCB",22-09-2025 07:00:00,25.7808257,84.7446768,OZONE,1,32,8
India,Bihar,Gaya,"Kareemganj, Gaya - BSPCB",22-09-2025 07:00:00,24.792403,84.992416,PM2.5,12,333,56
India,Bihar,Gaya,"Kareemganj, Gaya - BSPCB",22-09-2025 07:00:00,24.792403,84.992416,NO2,3,7,5
India,Bihar,Gaya,"SFTI Kusdihra, Gaya - BSPCB",22-09-2025 07:00:00,24.762518,84.982348,PM2.5,5,24,16
India,Bihar,Hajipur,"Industrial Area, Hajipur - BSPCB",22-09-2025 07:00:00,25.697189,85.245900,PM10,NA,NA,NA
India,Bihar,Aurangabad,"Gurdeo Nagar, Aurangabad - BSPCB",22-09-2025 07:00:00,24.75746,84.366208,SO2,10,19,15
India,Bihar,Bhagalpur,"DM Office_Kachari Chowk, Bhagalpur - BSPCB",22-09-2025 07:00:00,25.251013,86.989001,OZONE,14,21,17
India,Bihar,Bhagalpur,"Mayaganj, Bhagalpur - BSPCB",22-09-2025 07:00:00,25.265194,87.012947,PM10,12,384,113
India,Bihar,Bhagalpur,"Mayaganj, Bhagalpur - BSPCB",22-09-2025 07:00:00,25.265194,87.012947,NO2,6,11,10
India,Bihar,Bihar Sharif,"D M Colony, Bihar Sharif - BSPCB",22-09-2025 07:00:00,25.204762,85.514960,CO,2,16,3
India,Bihar,Bihar Sharif,"D M Colony, Bihar Sharif - BSPCB",22-09-2025 07:00:00,25.204762,85.514960,OZONE,14,48,29
India,Chandigarh,Chandigarh,"Sector-25, Chandigarh - CPCC",22-09-2025 07:00:00,30.751462,76.762879,PM2.5,62,97,84
India,Chandigarh,Chandigarh,"Sector-25, Chandigarh - CPCC",22-09-2025 07:00:00,30.751462,76.762879,NO2,6,12,8
India,Chandigarh,Chandigarh,"Sector-25, Chandigarh - CPCC",22-09-2025 07:00:00,30.751462,76.762879,SO2,1,6,2
India,Chandigarh,Chandigarh,"Sector-53, Chandigarh - CPCC",22-09-2025 07:00:00,30.719859,76.738637,SO2,15,21,18
India,Chandigarh,Chandigarh,"Sector-53, Chandigarh - CPCC",22-09-2025 07:00:00,30.719859,76.738637,OZONE,4,40,7
India,Chhattisgarh,Bhilai,"32Bungalows, Bhilai - CECB",22-09-2025 07:00:00,21.194815,81.314770,SO2,6,9,8
India,Chhattisgarh,Bhilai,"32Bungalows, Bhilai - CECB",22-09-2025 07:00:00,21.194815,81.314770,OZONE,1,34,3
India,Bihar,Purnia,"Mariam Nagar, Purnia - BSPCB",22-09-2025 07:00:00,25.366336,87.117468,NH3,3,3,3
India,Bihar,Purnia,"Mariam Nagar, Purnia - BSPCB",22-09-2025 07:00:00,25.366336,87.117468,SO2,1,8,3
India,Bihar,Samastipur,"DM Office_Kasipur, Samastipur - BSPCB",22-09-2025 07:00:00,25.859655,85.77944,PM2.5,25,331,100
India,Bihar,Siwan,"Chitragupta Nagar, Siwan - BSPCB",22-09-2025 07:00:00,26.2271665,84.3570427,PM10,20,431,104
India,Andhra_Pradesh,Anantapur,"Gulzarpet, Anantapur - APPCB",22-09-2025 07:00:00,14.675886,77.593027,PM10,50,66,56
India,Andhra_Pradesh,Chittoor,"Gangineni Cheruvu, Chittoor - APPCB",22-09-2025 07:00:00,13.204880,79.097889,PM2.5,72,113,86
India,Andhra_Pradesh,Chittoor,"Gangineni Cheruvu, Chittoor - APPCB",22-09-2025 07:00:00,13.204880,79.097889,NO2,28,34,32
India,Andhra_Pradesh,Kadapa,"Yerramukkapalli, Kadapa - APPCB",22-09-2025 07:00:00,14.465052,78.824187,NO2,10,17,11
India,Bihar,Muzaffarpur,"MIT-Daudpur Kothi, Muzaffarpur - BSPCB",22-09-2025 07:00:00,26.1403345,85.3650192,SO2,5,14,9
India,Bihar,Muzaffarpur,"Muzaffarpur Collectorate, Muzaffarpur - BSPCB",22-09-2025 07:00:00,26.1209,85.3647,SO2,3,6,4
India,Bihar,Patna,"DRM Office Danapur, Patna - BSPCB",22-09-2025 07:00:00,25.586562,85.043586,PM2.5,26,72,47
India,Chhattisgarh,Tumidih,"OP Jindal Industrial Park, Tumidih - CECB",22-09-2025 07:00:00,22.06631475,83.33820077,NO2,7,76,26
India,Chhattisgarh,Tumidih,"OP Jindal Industrial Park, Tumidih - CECB",22-09-2025 07:00:00,22.06631475,83.33820077,NH3,1,2,2
India,Chhattisgarh,Tumidih,"OP Jindal Industrial Park, Tumidih - CECB",22-09-2025 07:00:00,22.06631475,83.33820077,SO2,5,19,7
India,Delhi,Delhi,"Alipur, Delhi - DPCC",22-09-2025 07:00:00,28.815329,77.153010,PM10,103,148,128
India,Delhi,Delhi,"Alipur, Delhi - DPCC",22-09-2025 07:00:00,28.815329,77.153010,NH3,3,4,3
India,Delhi,Delhi,"Anand Vihar, Delhi - DPCC",22-09-2025 07:00:00,28.647622,77.3158090,NO2,21,56,43
India,Delhi,Delhi,"Anand Vihar, Delhi - DPCC",22-09-2025 07:00:00,28.647622,77.3158090,NH3,4,7,5
India,Delhi,Delhi,"Ashok Vihar, Delhi - DPCC",22-09-2025 07:00:00,28.695381,77.181665,PM2.5,33,77,62
India,Delhi,Delhi,"Ashok Vihar, Delhi - DPCC",22-09-2025 07:00:00,28.695381,77.181665,SO2,11,22,16
India,Delhi,Delhi,"Aya Nagar, Delhi - IMD",22-09-2025 07:00:00,28.4706914,77.1099364,PM10,80,138,105
India,Delhi,Delhi,"Aya Nagar, Delhi - IMD",22-09-2025 07:00:00,28.4706914,77.1099364,CO,28,44,41
India,Delhi,Delhi,"Dwarka-Sector 8, Delhi - DPCC ",22-09-2025 07:00:00,28.5710274,77.0719006,SO2,10,16,13
India,Delhi,Delhi,"Dwarka-Sector 8, Delhi - DPCC ",22-09-2025 07:00:00,28.5710274,77.0719006,OZONE,8,44,10
India,Delhi,Delhi,"IGI Airport (T3), Delhi - IMD",22-09-2025 07:00:00,28.5627763,77.1180053,OZONE,1,2,1
India,Delhi,Delhi,"IHBAS, Dilshad Garden, Delhi - CPCB",22-09-2025 07:00:00,28.6811736,77.3025234,NO2,44,49,47
India,Delhi,Delhi,"IHBAS, Dilshad Garden, Delhi - CPCB",22-09-2025 07:00:00,28.6811736,77.3025234,CO,37,72,53
India,Delhi,Delhi,"ITO, Delhi - CPCB",22-09-2025 07:00:00,28.628624,77.241060,NH3,4,6,5
India,Delhi,Delhi,"ITO, Delhi - CPCB",22-09-2025 07:00:00,28.628624,77.241060,SO2,4,17,10
India,Delhi,Delhi,"ITO, Delhi - CPCB",22-09-2025 07:00:00,28.628624,77.241060,CO,32,57,50
India,Delhi,Delhi,"Jahangirpuri, Delhi - DPCC",22-09-2025 07:00:00,28.732820,77.170633,PM2.5,133,313,220
India,Delhi,Delhi,"Jahangirpuri, Delhi - DPCC",22-09-2025 07:00:00,28.732820,77.170633,PM10,115,194,149
India,Delhi,Delhi,"Jahangirpuri, Delhi - DPCC",22-09-2025 07:00:00,28.732820,77.170633,NH3,6,7,7
India,Chhattisgarh,Korba,"Urja Nagar, Korba - CECB",22-09-2025 07:00:00,22.348441,82.549611,CO,14,50,42
India,Chhattisgarh,Milupara,"Govt. Higher Secondary School, Milupara - CECB",22-09-2025 07:00:00,22.1910172,83.5197009,OZONE,4,32,5
India,Chhattisgarh,Raipur,"AIIMS, Raipur - CECB",22-09-2025 07:00:00,21.258815,81.578979,PM10,23,53,40
India,Chhattisgarh,Raipur,"AIIMS, Raipur - CECB",22-09-2025 07:00:00,21.258815,81.578979,NO2,9,12,10
India,Chhattisgarh,Raipur,"AIIMS, Raipur - CECB",22-09-2025 07:00:00,21.258815,81.578979,NH3,5,5,5
India,Chhattisgarh,Raipur,"AIIMS, Raipur - CECB",22-09-2025 07:00:00,21.258815,81.578979,SO2,10,14,12
India,Chhattisgarh,Raipur,"AIIMS, Raipur - CECB",22-09-2025 07:00:00,21.258815,81.578979,OZONE,6,19,6
India,Chhattisgarh,Raipur,"Krishak Nagar, Raipur - CECB",22-09-2025 07:00:00,21.237755,81.705301,NH3,3,7,3
India,Chhattisgarh,Raipur,"Krishak Nagar, Raipur - CECB",22-09-2025 07:00:00,21.237755,81.705301,OZONE,2,3,2
India,Chhattisgarh,Raipur,"Siltara Phase-II, Raipur - CECB",22-09-2025 07:00:00,21.371751,81.664929,NO2,9,50,23
India,Delhi,Delhi,"Najafgarh, Delhi - DPCC",22-09-2025 07:00:00,28.570173,76.933762,OZONE,4,20,4
India,Delhi,Delhi,"Narela, Delhi - DPCC",22-09-2025 07:00:00,28.822836,77.101981,PM2.5,50,177,70
India,Delhi,Delhi,"Nehru Nagar, Delhi - DPCC",22-09-2025 07:00:00,28.567890,77.250515,CO,2,20,12
India,Delhi,Delhi,"North Campus, DU, Delhi - IMD",22-09-2025 07:00:00,28.6573814,77.1585447,PM10,117,150,133
India,Delhi,Delhi,"North Campus, DU, Delhi - IMD",22-09-2025 07:00:00,28.6573814,77.1585447,OZONE,10,119,35
India,Delhi,Delhi,"Okhla Phase-2, Delhi - DPCC",22-09-2025 07:00:00,28.530785,77.271255,PM2.5,28,77,53
India,Delhi,Delhi,"Okhla Phase-2, Delhi - DPCC",22-09-2025 07:00:00,28.530785,77.271255,PM10,121,155,142
India,Delhi,Delhi,"Okhla Phase-2, Delhi - DPCC",22-09-2025 07:00:00,28.530785,77.271255,NH3,5,7,6
India,Delhi,Delhi,"Bawana, Delhi - DPCC",22-09-2025 07:00:00,28.776200,77.051074,PM2.5,57,163,82
India,Delhi,Delhi,"Bawana, Delhi - DPCC",22-09-2025 07:00:00,28.776200,77.051074,CO,84,104,94
India,Delhi,Delhi,"Bawana, Delhi - DPCC",22-09-2025 07:00:00,28.776200,77.051074,OZONE,7,60,10
India,Delhi,Delhi,"DTU, Delhi - CPCB",22-09-2025 07:00:00,28.7500499,77.1112615,PM2.5,30,127,45
India,Delhi,Delhi,"DTU, Delhi - CPCB",22-09-2025 07:00:00,28.7500499,77.1112615,NO2,47,93,67
India,Delhi,Delhi,"Dr. Karni Singh Shooting Range, Delhi - DPCC",22-09-2025 07:00:00,28.498571,77.264840,SO2,11,15,13
India,Delhi,Delhi,"Dwarka-Sector 8, Delhi - DPCC ",22-09-2025 07:00:00,28.5710274,77.0719006,PM10,111,179,144
India,Delhi,Delhi,"Punjabi Bagh, Delhi - DPCC",22-09-2025 07:00:00,28.674045,77.131023,NH3,3,17,5
India,Delhi,Delhi,"Punjabi Bagh, Delhi - DPCC",22-09-2025 07:00:00,28.674045,77.131023,OZONE,5,38,11
India,Delhi,Delhi,"Pusa, Delhi - DPCC",22-09-2025 07:00:00,28.639652,77.146275,PM10,95,191,149
India,Delhi,Delhi,"Pusa, Delhi - DPCC",22-09-2025 07:00:00,28.639652,77.146275,NH3,2,13,8
India,Delhi,Delhi,"Pusa, Delhi - DPCC",22-09-2025 07:00:00,28.639652,77.146275,OZONE,3,50,5
India,Delhi,Delhi,"R K Puram, Delhi - DPCC",22-09-2025 07:00:00,28.563262,77.186937,NO2,10,77,37
India,Delhi,Delhi,"R K Puram, Delhi - DPCC",22-09-2025 07:00:00,28.563262,77.186937,NH3,4,8,5
India,Delhi,Delhi,"Rohini, Delhi - DPCC",22-09-2025 07:00:00,28.732528,77.119920,OZONE,2,38,5
India,Chhattisgarh,Bhilai,"Civic Center, Bhilai - Bhilai Steel Plant",22-09-2025 07:00:00,21.185571,81.343175,NO2,NA,NA,NA
India,Chhattisgarh,Bhilai,"Hathkhoj, Bhilai - CECB",22-09-2025 07:00:00,21.224231,81.408350,OZONE,8,27,10
India,Chhattisgarh,Bilaspur,"Mangala, Bilaspur - NTPC",22-09-2025 07:00:00,22.08815,82.13737,CO,18,23,20
India,Chhattisgarh,Korba,"Rampur, Korba - CECB",22-09-2025 07:00:00,22.368195,82.746431,PM10,13,14,13
India,Chhattisgarh,Korba,"Rampur, Korba - CECB",22-09-2025 07:00:00,22.368195,82.746431,NO2,3,10,6
India,Chhattisgarh,Korba,"Rampur, Korba - CECB",22-09-2025 07:00:00,22.368195,82.746431,OZONE,2,8,2
India,Delhi,Delhi,"Major Dhyan Chand National Stadium, Delhi - DPCC",22-09-2025 07:00:00,28.611281,77.237738,SO2,3,13,8
India,Delhi,Delhi,"Mandir Marg, Delhi - DPCC",22-09-2025 07:00:00,28.636429,77.201067,NO2,8,32,18
India,Delhi,Delhi,"Mandir Marg, Delhi - DPCC",22-09-2025 07:00:00,28.636429,77.201067,SO2,2,50,26
India,Delhi,Delhi,"NSIT Dwarka, Delhi - CPCB",22-09-2025 07:00:00,28.60909,77.0325413,PM2.5,24,58,40
India,Delhi,Delhi,"NSIT Dwarka, Delhi - CPCB",22-09-2025 07:00:00,28.60909,77.0325413,CO,12,68,37
India,Delhi,Delhi,"NSIT Dwarka, Delhi - CPCB",22-09-2025 07:00:00,28.60909,77.0325413,OZONE,5,33,13
India,Chhattisgarh,Raipur,"Siltara Phase-II, Raipur - CECB",22-09-2025 07:00:00,21.371751,81.664929,NH3,3,3,3
India,Jharkhand,Dhanbad,"Sardar Patel Nagar, Dhanbad - JSPCB",22-09-2025 07:00:00,23.80569,86.44268,OZONE,NA,NA,NA
India,Jharkhand,Jorapokhar,"Tata Stadium, Jorapokhar - JSPCB",22-09-2025 07:00:00,23.707909,86.414670,PM10,NA,NA,NA
India,Jharkhand,Jorapokhar,"Tata Stadium, Jorapokhar - JSPCB",22-09-2025 07:00:00,23.707909,86.414670,SO2,NA,NA,NA
India,Karnataka,Bagalkot,"Vidayagiri, Bagalkot - KSPCB",22-09-2025 07:00:00,16.172806,75.659694,PM10,42,43,42
India,Karnataka,Bengaluru,"BTM Layout, Bengaluru - CPCB",22-09-2025 07:00:00,12.9135218,77.5950804,PM2.5,23,32,28
India,Karnataka,Bengaluru,"BTM Layout, Bengaluru - CPCB",22-09-2025 07:00:00,12.9135218,77.5950804,PM10,52,54,53
India,Karnataka,Bengaluru,"Bapuji Nagar, Bengaluru - KSPCB",22-09-2025 07:00:00,12.951913,77.539784,PM2.5,15,74,42
India,Karnataka,Bengaluru,"Bapuji Nagar, Bengaluru - KSPCB",22-09-2025 07:00:00,12.951913,77.539784,PM10,23,107,62
India,Karnataka,Bengaluru,"Bapuji Nagar, Bengaluru - KSPCB",22-09-2025 07:00:00,12.951913,77.539784,SO2,2,6,4
India,Karnataka,Bengaluru,"Hebbal, Bengaluru - KSPCB",22-09-2025 07:00:00,13.029152,77.585901,PM2.5,3,25,10
India,Gujarat,Ahmedabad,"Raikhad, Ahmedabad - IITM",22-09-2025 07:00:00,23.020509,72.579261,NO2,13,38,23
India,Gujarat,Ahmedabad,"Rakhial, Ahmedabad - IITM",22-09-2025 07:00:00,23.016834,72.625775,CO,NA,NA,NA
India,Gujarat,Ahmedabad,"Rakhial, Ahmedabad - IITM",22-09-2025 07:00:00,23.016834,72.625775,OZONE,5,17,10
India,Gujarat,Ahmedabad,"SAC ISRO Bopal, Ahmedabad - IITM",22-09-2025 07:00:00,23.041137,72.456691,PM2.5,24,77,48
India,Gujarat,Ahmedabad,"SAC ISRO Bopal, Ahmedabad - IITM",22-09-2025 07:00:00,23.041137,72.456691,PM10,26,77,51
India,Gujarat,Ahmedabad,"SAC ISRO Bopal, Ahmedabad - IITM",22-09-2025 07:00:00,23.041137,72.456691,CO,11,28,16
India,Gujarat,Ahmedabad,"SAC ISRO Satellite, Ahmedabad - IITM",22-09-2025 07:00:00,23.023389,72.515201,NH3,3,4,3
India,Gujarat,Ahmedabad,"SVPI Airport Hansol, Ahmedabad - IITM",22-09-2025 07:00:00,23.076793,72.627874,PM2.5,15,50,27
India,Gujarat,Ahmedabad,"SVPI Airport Hansol, Ahmedabad - IITM",22-09-2025 07:00:00,23.076793,72.627874,NO2,5,33,19
India,Gujarat,Ahmedabad,"SVPI Airport Hansol, Ahmedabad - IITM",22-09-2025 07:00:00,23.076793,72.627874,OZONE,3,19,4
India,Gujarat,Ankleshwar,"GIDC, Ankleshwar - GPCB",22-09-2025 07:00:00,21.613267,73.010555,PM10,60,61,60
India,Gujarat,Ankleshwar,"GIDC, Ankleshwar - GPCB",22-09-2025 07:00:00,21.613267,73.010555,OZONE,38,52,47
India,Gujarat,Gandhinagar,"GIFT City, Gandhinagar - IITM",22-09-2025 07:00:00,23.163798,72.677768,NH3,2,5,3
India,Gujarat,Gandhinagar,"GIFT City, Gandhinagar - IITM",22-09-2025 07:00:00,23.163798,72.677768,SO2,1,6,2
India,Gujarat,Gandhinagar,"IIPHG Lekawada, Gandhinagar - IITM",22-09-2025 07:00:00,23.243639,72.68994,PM10,54,83,70
India,Gujarat,Gandhinagar,"IIPHG Lekawada, Gandhinagar - IITM",22-09-2025 07:00:00,23.243639,72.68994,SO2,NA,NA,NA
India,Gujarat,Gandhinagar,"Sector-10, Gandhinagar - GPCB",22-09-2025 07:00:00,23.221714,72.654328,PM10,23,63,39
India,Karnataka,Bengaluru,"Hebbal, Bengaluru - KSPCB",22-09-2025 07:00:00,13.029152,77.585901,CO,12,24,14
India,Karnataka,Bengaluru,"Jayanagar 5th Block, Bengaluru - KSPCB",22-09-2025 07:00:00,12.920984,77.584908,PM2.5,12,39,21
India,Karnataka,Bengaluru,"Shivapura_Peenya, Bengaluru - KSPCB",22-09-2025 07:00:00,13.0246342,77.5080115,SO2,5,7,6
India,Karnataka,Bengaluru,"Silk Board, Bengaluru - KSPCB",22-09-2025 07:00:00,12.917348,77.622813,NH3,1,1,1
India,Karnataka,Chamarajanagar,"Urban, Chamarajanagar - KSPCB",22-09-2025 07:00:00,11.55358,76.55521,NO2,16,30,27
India,Karnataka,Chamarajanagar,"Urban, Chamarajanagar - KSPCB",22-09-2025 07:00:00,11.55358,76.55521,CO,14,120,30
India,Karnataka,Chamarajanagar,"Urban, Chamarajanagar - KSPCB",22-09-2025 07:00:00,11.55358,76.55521,OZONE,15,26,21
India,Delhi,Delhi,"Vivek Vihar, Delhi - DPCC",22-09-2025 07:00:00,28.672342,77.315260,OZONE,2,7,3
India,Delhi,Delhi,"Wazirpur, Delhi - DPCC",22-09-2025 07:00:00,28.699793,77.165453,PM2.5,52,97,68
India,Delhi,Delhi,"Wazirpur, Delhi - DPCC",22-09-2025 07:00:00,28.699793,77.165453,PM10,135,216,167
India,Delhi,Delhi,"Wazirpur, Delhi - DPCC",22-09-2025 07:00:00,28.699793,77.165453,CO,28,46,40
India,Gujarat,Ahmedabad,"Chandkheda, Ahmedabad - IITM",22-09-2025 07:00:00,23.107969,72.574648,PM2.5,20,49,37
India,Gujarat,Ahmedabad,"Gyaspur, Ahmedabad - IITM",22-09-2025 07:00:00,22.977134,72.553024,NH3,1,3,2
India,Gujarat,Ahmedabad,"Maninagar, Ahmedabad - GPCB",22-09-2025 07:00:00,23.002657,72.591912,SO2,20,30,26
India,Karnataka,Chikkaballapur,"Chikkaballapur Rural, Chikkaballapur - KSPCB",22-09-2025 07:00:00,13.428828,77.731418,CO,6,23,14
India,Karnataka,Chikkamagaluru,"Kalyana Nagara, Chikkamagaluru - KSPCB",22-09-2025 07:00:00,13.328028,75.797056,NH3,2,3,3
India,Karnataka,Davanagere,"Devaraj Urs Badavane, Davanagere - KSPCB",22-09-2025 07:00:00,14.475800,75.905200,NO2,9,18,13
India,Karnataka,Haveri,"Ashwini Nagar, Haveri - KSPCB",22-09-2025 07:00:00,14.791800,75.389600,PM10,NA,NA,NA
India,Karnataka,Haveri,"Ashwini Nagar, Haveri - KSPCB",22-09-2025 07:00:00,14.791800,75.389600,NO2,NA,NA,NA
India,Karnataka,Haveri,"Ashwini Nagar, Haveri - KSPCB",22-09-2025 07:00:00,14.791800,75.389600,CO,26,28,27
India,Karnataka,Haveri,"Ashwini Nagar, Haveri - KSPCB",22-09-2025 07:00:00,14.791800,75.389600,OZONE,10,29,16
India,Delhi,Delhi,"Sonia Vihar, Delhi - DPCC",22-09-2025 07:00:00,28.710508,77.249485,PM10,89,141,116
India,Delhi,Delhi,"Sri Aurobindo Marg, Delhi - DPCC",22-09-2025 07:00:00,28.531346,77.190156,NO2,3,17,10
India,Delhi,Delhi,"Sri Aurobindo Marg, Delhi - DPCC",22-09-2025 07:00:00,28.531346,77.190156,OZONE,4,50,5
India,Gujarat,Vatva,"Phase-4 GIDC, Vatva - GPCB",22-09-2025 07:00:00,22.969611,72.643500,NO2,7,13,9
India,Haryana,Gurugram,"NISE Gwal Pahari, Gurugram - IMD",22-09-2025 07:00:00,28.422681,77.148944,PM10,NA,NA,NA
India,Himachal Pradesh,Baddi,"HIMUDA Complex Phase-1, Baddi - HPPCB",22-09-2025 07:00:00,30.943887,76.801991,PM10,109,277,153
India,Madhya Pradesh,Pithampur,"Sector-2 Industrial Area, Pithampur - MPPCB",22-09-2025 07:00:00,22.624758,75.675238,OZONE,25,51,30
India,Madhya Pradesh,Ratlam,"Shasthri Nagar, Ratlam - IPCA Lab",22-09-2025 07:00:00,23.331731,75.045981,PM2.5,1,57,29
India,Madhya Pradesh,Ratlam,"Shasthri Nagar, Ratlam - IPCA Lab",22-09-2025 07:00:00,23.331731,75.045981,PM10,20,76,39
India,Madhya Pradesh,Sagar,"Civil Lines, Sagar - MPPCB",22-09-2025 07:00:00,23.838586,78.759431,PM2.5,47,109,71
India,Madhya Pradesh,Sagar,"Civil Lines, Sagar - MPPCB",22-09-2025 07:00:00,23.838586,78.759431,NO2,3,5,4
India,Madhya Pradesh,Sagar,"Civil Lines, Sagar - MPPCB",22-09-2025 07:00:00,23.838586,78.759431,NH3,1,1,1
India,Madhya Pradesh,Sagar,"Civil Lines, Sagar - MPPCB",22-09-2025 07:00:00,23.838586,78.759431,SO2,8,11,9
India,Madhya Pradesh,Sagar,"Civil Lines, Sagar - MPPCB",22-09-2025 07:00:00,23.838586,78.759431,OZONE,23,74,38
India,Madhya Pradesh,Satna,"Bandhavgar Colony, Satna - Birla Cement",22-09-2025 07:00:00,24.58434363,80.8549414,OZONE,6,10,8
India,Madhya Pradesh,Singrauli,"Suryakiran Bhawan NCL, Singrauli - MPPCB",22-09-2025 07:00:00,24.108970,82.645580,PM10,34,144,96
India,Madhya Pradesh,Singrauli,"Suryakiran Bhawan NCL, Singrauli - MPPCB",22-09-2025 07:00:00,24.108970,82.645580,NH3,6,6,6
India,Maharashtra,Ahmednagar,"Tarakpur, Ahmednagar - MPCB",22-09-2025 07:00:00,19.10122,74.73339,NH3,4,7,6
India,Madhya Pradesh,Indore,"Chhoti Gwaltoli, Indore - MPPCB",22-09-2025 07:00:00,22.4310,75.5213,CO,30,67,41
India,Madhya Pradesh,Indore,"Chhoti Gwaltoli, Indore - MPPCB",22-09-2025 07:00:00,22.4310,75.5213,OZONE,21,57,29
India,Madhya Pradesh,Indore,"Regional Park, Indore - IMC",22-09-2025 07:00:00,22.6780,75.8559,NH3,NA,NA,NA
India,Madhya Pradesh,Indore,"Regional Park, Indore - IMC",22-09-2025 07:00:00,22.6780,75.8559,OZONE,10,21,15
India,Madhya Pradesh,Indore,"Residency Area, Indore - IMC",22-09-2025 07:00:00,22.7084,75.8815,SO2,25,55,34
India,Madhya Pradesh,Indore,"Residency Area, Indore - IMC",22-09-2025 07:00:00,22.7084,75.8815,OZONE,7,14,10
India,Madhya Pradesh,Jabalpur,"Govindh Bhavan Colony, Jabalpur - JMC",22-09-2025 07:00:00,23.163174,79.973061,NH3,1,2,1
India,Madhya Pradesh,Jabalpur,"Gupteshwar, Jabalpur - JMC",22-09-2025 07:00:00,23.142888,79.916147,PM10,35,92,58
India,Madhya Pradesh,Jabalpur,"Gupteshwar, Jabalpur - JMC",22-09-2025 07:00:00,23.142888,79.916147,NO2,9,46,17
India,Madhya Pradesh,Jabalpur,"Gupteshwar, Jabalpur - JMC",22-09-2025 07:00:00,23.142888,79.916147,SO2,5,28,16
India,Maharashtra,Akola,"Ramdaspeth, Akola - MPCB",22-09-2025 07:00:00,20.719516,77.000253,PM10,28,56,44
India,Maharashtra,Akola,"Ramdaspeth, Akola - MPCB",22-09-2025 07:00:00,20.719516,77.000253,SO2,3,6,4
India,Maharashtra,Amravati,"Shivneri Colony, Amravati - MPCB",22-09-2025 07:00:00,20.9402359,77.7895248,PM2.5,17,57,36
India,Maharashtra,Amravati,"Shivneri Colony, Amravati - MPCB",22-09-2025 07:00:00,20.9402359,77.7895248,PM10,31,76,52
India,Maharashtra,Amravati,"Shivneri Colony, Amravati - MPCB",22-09-2025 07:00:00,20.9402359,77.7895248,CO,14,40,17
India,Maharashtra,Amravati,"Shri Shivaji Science College, Amravati - MPCB",22-09-2025 07:00:00,20.939198,77.765701,PM2.5,17,52,32
India,Maharashtra,Amravati,"Shri Shivaji Science College, Amravati - MPCB",22-09-2025 07:00:00,20.939198,77.765701,NO2,3,31,9
India,Maharashtra,Amravati,"Shri Shivaji Science College, Amravati - MPCB",22-09-2025 07:00:00,20.939198,77.765701,OZONE,4,51,12
India,Maharashtra,Aurangabad,"MIDC Chilkalthana, Aurangabad - MPCB",22-09-2025 07:00:00,19.875620,75.387310,OZONE,18,82,47
India,Karnataka,Hubballi,"Lingaraj Nagar, Hubballi - KSPCB",22-09-2025 07:00:00,15.3714823,75.1160168,NH3,1,1,1
India,Karnataka,Hubballi,"Lingaraj Nagar, Hubballi - KSPCB",22-09-2025 07:00:00,15.3714823,75.1160168,OZONE,10,15,10
India,Karnataka,Kalaburagi,"Mahatma Basaveswar Colony, Kalaburgi - KSPCB",22-09-2025 07:00:00,17.336318,76.847397,NO2,11,20,16
India,Karnataka,Kalaburagi,"Mahatma Basaveswar Colony, Kalaburgi - KSPCB",22-09-2025 07:00:00,17.336318,76.847397,OZONE,8,13,12
India,Karnataka,Karwar,"KHB Colony, Karwar - KSPCB",22-09-2025 07:00:00,14.816666,74.141003,PM10,3,16,7
India,Karnataka,Madikeri,"Stuart Hill, Madikeri - KSPCB",22-09-2025 07:00:00,12.415911,75.735050,PM10,22,43,32
India,Karnataka,Mangalore,"Kadri, Mangalore - KSPCB",22-09-2025 07:00:00,12.889250,74.853000,PM10,44,67,55
India,Madhya Pradesh,Jabalpur,"Suhagi, Jabalpur - JMC",22-09-2025 07:00:00,23.218135,79.957770,PM10,33,105,67
India,Madhya Pradesh,Katni,"Gole Bazar, Katni - MPPCB",22-09-2025 07:00:00,23.50016,80.23284,PM10,52,198,116
India,Madhya Pradesh,Katni,"Gole Bazar, Katni - MPPCB",22-09-2025 07:00:00,23.50016,80.23284,CO,30,54,39
India,Madhya Pradesh,Maihar,"Sahilara, Maihar - KJS Cements",22-09-2025 07:00:00,24.2613009,80.7231783,SO2,6,6,6
India,Madhya Pradesh,Mandideep,"Sector-D Industrial Area, Mandideep - MPPCB",22-09-2025 07:00:00,23.108440,77.511428,PM10,NA,NA,NA
India,Madhya Pradesh,Mandideep,"Sector-D Industrial Area, Mandideep - MPPCB",22-09-2025 07:00:00,23.108440,77.511428,NH3,NA,NA,NA
India,Madhya Pradesh,Mandideep,"Sector-D Industrial Area, Mandideep - MPPCB",22-09-2025 07:00:00,23.108440,77.511428,SO2,NA,NA,NA
India,Madhya Pradesh,Mandideep,"Sector-D Industrial Area, Mandideep - MPPCB",22-09-2025 07:00:00,23.108440,77.511428,OZONE,NA,NA,NA
India,Karnataka,Yadgir,"Collector Office, Yadgir - KSPCB",22-09-2025 07:00:00,16.7602,77.1428,SO2,14,22,18
India,Kerala,Kannur,"Thavakkara, Kannur - Kerala PCB",22-09-2025 07:00:00,11.875000,75.373200,PM2.5,56,63,59
India,Kerala,Kannur,"Thavakkara, Kannur - Kerala PCB",22-09-2025 07:00:00,11.875000,75.373200,NH3,2,2,2
India,Kerala,Kannur,"Thavakkara, Kannur - Kerala PCB",22-09-2025 07:00:00,11.875000,75.373200,OZONE,28,33,29
India,Kerala,Kollam,"Polayathode, Kollam - Kerala PCB",22-09-2025 07:00:00,8.8787,76.6073,SO2,NA,NA,NA
India,Kerala,Kollam,"Polayathode, Kollam - Kerala PCB",22-09-2025 07:00:00,8.8787,76.6073,CO,NA,NA,NA
India,Kerala,Thiruvananthapuram,"Kariavattom, Thiruvananthapuram - Kerala PCB",22-09-2025 07:00:00,8.563700,76.886500,PM2.5,42,49,45
India,Madhya Pradesh,Dewas,"Bhopal Chauraha, Dewas - MPPCB",22-09-2025 07:00:00,22.9682591,76.064118,CO,8,34,18
India,Madhya Pradesh,Gwalior,"City Center, Gwalior - MPPCB",22-09-2025 07:00:00,26.203442,78.193251,SO2,11,29,22
India,Madhya Pradesh,Gwalior,"City Center, Gwalior - MPPCB",22-09-2025 07:00:00,26.203442,78.193251,CO,3,83,16
India,Madhya Pradesh,Gwalior,"City Center, Gwalior - MPPCB",22-09-2025 07:00:00,26.203442,78.193251,OZONE,21,60,35
India,Madhya Pradesh,Gwalior,"Deen Dayal Nagar, Gwalior - MPPCB",22-09-2025 07:00:00,26.259242,78.216432,PM10,6,136,78
India,Madhya Pradesh,Gwalior,"Maharaj Bada, Gwalior - MPPCB",22-09-2025 07:00:00,26.200388,78.147714,NH3,2,3,2
India,Karnataka,Mysuru,"Hebbal 1st Stage, Mysuru - KSPCB",22-09-2025 07:00:00,12.21041,76.37376,PM2.5,11,27,17
India,Karnataka,Mysuru,"Hebbal 1st Stage, Mysuru - KSPCB",22-09-2025 07:00:00,12.21041,76.37376,SO2,1,12,5
India,Karnataka,Mysuru,"Hebbal 1st Stage, Mysuru - KSPCB",22-09-2025 07:00:00,12.21041,76.37376,CO,5,20,7
India,Karnataka,Ramanagara,"Vijay Nagar, Ramanagara - KSPCB",22-09-2025 07:00:00,12.733409,77.298051,NH3,NA,NA,NA
India,Karnataka,Vijayapura,"Ibrahimpur, Vijayapura - KSPCB",22-09-2025 07:00:00,16.802639,75.722694,PM10,43,44,44
India,Karnataka,Vijayapura,"Ibrahimpur, Vijayapura - KSPCB",22-09-2025 07:00:00,16.802639,75.722694,NO2,9,10,9
India,Madhya Pradesh,Bhopal,"Paryavaran Parisar, Bhopal - MPPCB",22-09-2025 07:00:00,23.210494,77.425409,PM2.5,25,38,32
India,Madhya Pradesh,Bhopal,"T T Nagar, Bhopal - MPPCB",22-09-2025 07:00:00,23.233584,77.400574,PM2.5,30,52,42
India,Madhya Pradesh,Bhopal,"T T Nagar, Bhopal - MPPCB",22-09-2025 07:00:00,23.233584,77.400574,CO,28,81,32
India,Madhya Pradesh,Damoh,"Shrivastav Colony, Damoh - MPPCB",22-09-2025 07:00:00,23.81748678,79.446246,SO2,25,29,26
India,Maharashtra,Kolhapur,"Sinchan Bhavan, Kolhapur - MPCB",22-09-2025 07:00:00,16.7143745,74.2426398,NO2,1,2,1
India,Maharashtra,Kolhapur,"Sinchan Bhavan, Kolhapur - MPCB",22-09-2025 07:00:00,16.7143745,74.2426398,CO,6,12,10
India,Maharashtra,Latur,"Sawe Wadi, Latur - MPCB",22-09-2025 07:00:00,18.39963,76.57452,NH3,1,12,4
India,Maharashtra,Latur,"Sawe Wadi, Latur - MPCB",22-09-2025 07:00:00,18.39963,76.57452,CO,8,40,15
India,Maharashtra,Mahad,"Kamble Tarf Birwadi, Mahad - MPCB",22-09-2025 07:00:00,18.1023399,73.4783687,NH3,3,8,7
India,Maharashtra,Mahad,"Kamble Tarf Birwadi, Mahad - MPCB",22-09-2025 07:00:00,18.1023399,73.4783687,SO2,24,102,48
India,Maharashtra,Mahad,"Kamble Tarf Birwadi, Mahad - MPCB",22-09-2025 07:00:00,18.1023399,73.4783687,OZONE,13,51,20
India,Maharashtra,Malegaon,"Mahesh Nagar, Malegaon - MPCB",22-09-2025 07:00:00,20.555712,74.529236,NO2,3,19,13
India,Maharashtra,Malegaon,"Mahesh Nagar, Malegaon - MPCB",22-09-2025 07:00:00,20.555712,74.529236,CO,8,50,13
India,Maharashtra,Malegaon,"Mahesh Nagar, Malegaon - MPCB",22-09-2025 07:00:00,20.555712,74.529236,OZONE,17,37,19
India,Maharashtra,Mira-Bhayandar,"Bhayandar West, Mira-Bhayandar - MPCB",22-09-2025 07:00:00,19.296481,72.840923,NH3,1,4,2
India,Maharashtra,Mira-Bhayandar,"Bhayandar West, Mira-Bhayandar - MPCB",22-09-2025 07:00:00,19.296481,72.840923,SO2,1,2,1
India,Maharashtra,Mumbai,"Mindspace-Malad West, Mumbai - MPCB",22-09-2025 07:00:00,19.1878657,72.8304069,NH3,5,6,6
India,Maharashtra,Mumbai,"Mindspace-Malad West, Mumbai - MPCB",22-09-2025 07:00:00,19.1878657,72.8304069,SO2,6,7,6
India,Maharashtra,Mumbai,"Navy Nagar-Colaba, Mumbai - IITM",22-09-2025 07:00:00,18.897756,72.813320,SO2,4,9,6
India,Maharashtra,Mumbai,"Powai, Mumbai - MPCB",22-09-2025 07:00:00,19.137500,72.915056,NH3,2,2,2
India,Maharashtra,Mumbai,"Powai, Mumbai - MPCB",22-09-2025 07:00:00,19.137500,72.915056,SO2,15,15,15
India,Maharashtra,Mumbai,"Shivaji Nagar, Mumbai - BMC",22-09-2025 07:00:00,19.060498,72.923356,PM2.5,7,48,23
India,Maharashtra,Mumbai,"Shivaji Nagar, Mumbai - BMC",22-09-2025 07:00:00,19.060498,72.923356,NO2,18,65,31
India,Maharashtra,Mumbai,"Shivaji Nagar, Mumbai - BMC",22-09-2025 07:00:00,19.060498,72.923356,SO2,11,14,13
India,Maharashtra,Mumbai,"Shivaji Nagar, Mumbai - BMC",22-09-2025 07:00:00,19.060498,72.923356,OZONE,NA,NA,NA
India,Maharashtra,Mumbai,"Siddharth Nagar-Worli, Mumbai - IITM",22-09-2025 07:00:00,19.000083,72.813993,NH3,4,5,5
India,Maharashtra,Mumbai,"Siddharth Nagar-Worli, Mumbai - IITM",22-09-2025 07:00:00,19.000083,72.813993,CO,24,65,38
India,Maharashtra,Mumbai,"Siddharth Nagar-Worli, Mumbai - IITM",22-09-2025 07:00:00,19.000083,72.813993,OZONE,1,21,2
India,Maharashtra,Jalgaon,"Prabhat Colony, Jalgaon - MPCB",22-09-2025 07:00:00,21.001264,75.565602,NH3,2,3,3
India,Maharashtra,Jalgaon,"Prabhat Colony, Jalgaon - MPCB",22-09-2025 07:00:00,21.001264,75.565602,SO2,6,8,7
India,Maharashtra,Jalgaon,"Prabhat Colony, Jalgaon - MPCB",22-09-2025 07:00:00,21.001264,75.565602,CO,15,28,16
India,Maharashtra,Jalna,"Old MIDC, Jalna - MPCB",22-09-2025 07:00:00,19.854616,75.905894,NO2,40,50,45
India,Maharashtra,Jalna,"Old MIDC, Jalna - MPCB",22-09-2025 07:00:00,19.854616,75.905894,NH3,2,5,4
India,Maharashtra,Jalna,"Old MIDC, Jalna - MPCB",22-09-2025 07:00:00,19.854616,75.905894,OZONE,7,56,20
India,Maharashtra,Kalyan,"Khadakpada, Kalyan - MPCB",22-09-2025 07:00:00,19.25292,73.142019,NO2,7,9,8
India,Maharashtra,Kalyan,"Khadakpada, Kalyan - MPCB",22-09-2025 07:00:00,19.25292,73.142019,SO2,6,8,7
India,Maharashtra,Kolhapur,"Shivaji University, Kolhapur - MPCB",22-09-2025 07:00:00,16.6870449,74.2505872,NO2,4,25,12
India,Maharashtra,Kolhapur,"Shivaji University, Kolhapur - MPCB",22-09-2025 07:00:00,16.6870449,74.2505872,NH3,3,3,3
India,Maharashtra,Mumbai,"Kandivali East, Mumbai - MPCB",22-09-2025 07:00:00,19.205800,72.868200,NO2,6,10,8
India,Maharashtra,Mumbai,"Kandivali West, Mumbai - BMC",22-09-2025 07:00:00,19.215859,72.831718,PM2.5,2,15,8
India,Maharashtra,Mumbai,"Kandivali West, Mumbai - BMC",22-09-2025 07:00:00,19.215859,72.831718,OZONE,NA,NA,NA
India,Maharashtra,Mumbai,"Kherwadi_Bandra East, Mumbai - MPCB",22-09-2025 07:00:00,19.0632143,72.8456324,PM10,11,84,35
India,Maharashtra,Mumbai,"Kherwadi_Bandra East, Mumbai - MPCB",22-09-2025 07:00:00,19.0632143,72.8456324,NH3,4,23,13
India,Maharashtra,Mumbai,"Khindipada-Bhandup West, Mumbai - IITM",22-09-2025 07:00:00,19.1653323,72.922099,NO2,4,11,7
India,Maharashtra,Mumbai,"Khindipada-Bhandup West, Mumbai - IITM",22-09-2025 07:00:00,19.1653323,72.922099,CO,18,26,19
India,Maharashtra,Mumbai,"Malad West, Mumbai - IITM",22-09-2025 07:00:00,19.19709,72.82204,PM10,15,52,31
India,Maharashtra,Badlapur,"Katrap, Badlapur - MPCB",22-09-2025 07:00:00,19.16485,73.23409,NH3,4,10,7
India,Maharashtra,Badlapur,"Katrap, Badlapur - MPCB",22-09-2025 07:00:00,19.16485,73.23409,OZONE,12,38,14
India,Maharashtra,Belapur,"CBD Belapur, Belapur - MPCB",22-09-2025 07:00:00,19.0243902,73.0406721,SO2,1,3,2
India,Maharashtra,Bhiwandi,"Gokul Nagar, Bhiwandi - MPCB",22-09-2025 07:00:00,19.309073,73.057223,PM2.5,8,50,30
India,Maharashtra,Bhiwandi,"Gokul Nagar, Bhiwandi - MPCB",22-09-2025 07:00:00,19.309073,73.057223,SO2,6,22,13
India,Maharashtra,Bhiwandi,"Gokul Nagar, Bhiwandi - MPCB",22-09-2025 07:00:00,19.309073,73.057223,OZONE,11,39,13
India,Maharashtra,Chandrapur,"Chauhan Colony, Chandrapur - MPCB",22-09-2025 07:00:00,19.962900,79.298714,OZONE,23,23,23
India,Maharashtra,Mumbai,"Bandra Kurla Complex, Mumbai - MPCB",22-09-2025 07:00:00,19.065931,72.862131,PM2.5,9,43,24
India,Maharashtra,Mumbai,"Bandra Kurla Complex, Mumbai - MPCB",22-09-2025 07:00:00,19.065931,72.862131,SO2,2,4,3
India,Maharashtra,Mumbai,"Borivali East, Mumbai - MPCB",22-09-2025 07:00:00,19.2243333,72.8658113,PM2.5,NA,NA,NA
India,Maharashtra,Mumbai,"Borivali East, Mumbai - MPCB",22-09-2025 07:00:00,19.2243333,72.8658113,NO2,NA,NA,NA
India,Maharashtra,Mumbai,"Borivali East, Mumbai - MPCB",22-09-2025 07:00:00,19.2243333,72.8658113,NH3,NA,NA,NA
India,Maharashtra,Mumbai,"Borivali East, Mumbai - MPCB",22-09-2025 07:00:00,19.2243333,72.8658113,SO2,NA,NA,NA
India,Maharashtra,Mumbai,"Byculla, Mumbai - BMC",22-09-2025 07:00:00,18.9767,72.8380,PM10,11,30,17
India,Maharashtra,Mumbai,"Byculla, Mumbai - BMC",22-09-2025 07:00:00,18.9767,72.8380,NO2,4,25,14
India,Maharashtra,Mumbai,"Chakala-Andheri East, Mumbai - IITM",22-09-2025 07:00:00,19.11074,72.86084,CO,2,23,6
India,Maharashtra,Mumbai,"Chembur, Mumbai - MPCB",22-09-2025 07:00:00,19.0364585,72.8954371,OZONE,1,64,12
India,Maharashtra,Mumbai,"Colaba, Mumbai - MPCB",22-09-2025 07:00:00,18.910000,72.820000,PM10,19,114,40
India,Maharashtra,Mumbai,"Colaba, Mumbai - MPCB",22-09-2025 07:00:00,18.910000,72.820000,SO2,NA,NA,NA
