country,state,city,station,last_update,latitude,longitude,pollutant_id,min_value,max_value,avg_value
India,Assam,Sivasagar,"Girls College, Sivasagar - PCBA",20-11-2025 07:00:00,26.987634,94.636574,SO2,7,12,10
India,Assam,Sivasagar,"Girls College, Sivasagar - PCBA",20-11-2025 07:00:00,26.987634,94.636574,CO,10,40,33
India,Bihar,Araria,"Kharahiya Basti, Araria - BSPCB",20-11-2025 07:00:00,26.146529,87.454184,PM10,14,131,64
India,Bihar,Araria,"Kharahiya Basti, Araria - BSPCB",20-11-2025 07:00:00,26.146529,87.454184,NH3,9,11,10
India,Bihar,Arrah,"New DM Office, Arrah - BSPCB",20-11-2025 07:00:00,25.5626095,84.663264,NH3,1,1,1
India,Bihar,Arrah,"New DM Office, Arrah - BSPCB",20-11-2025 07:00:00,25.5626095,84.663264,CO,37,68,57
India,Assam,Nalbari,"Bata Chowk, Nalbari - PCBA",20-11-2025 07:00:00,26.446912,91.439057,PM2.5,23,220,50
India,Assam,Silchar,"Tarapur, Silchar - PCBA",20-11-2025 07:00:00,24.82827,92.79525,PM2.5,35,81,53
India,Assam,Silchar,"Tarapur, Silchar - PCBA",20-11-2025 07:00:00,24.82827,92.79525,PM10,41,57,49
India,Assam,Silchar,"Tarapur, Silchar - PCBA",20-11-2025 07:00:00,24.82827,92.79525,NO2,15,19,17
India,Assam,Sivasagar,"Girls College, Sivasagar - PCBA",20-11-2025 07:00:00,26.987634,94.636574,NO2,22,40,28
India,Assam,Sivasagar,"Girls College, Sivasagar - PCBA",20-11-2025 07:00:00,26.987634,94.636574,NH3,6,16,10
India,Andhra_Pradesh,Tirupati,"Vaikuntapuram, Tirupati - APPCB",20-11-2025 07:00:00,13.615387,79.409230,SO2,NA,NA,NA
India,Andhra_Pradesh,Vijayawada,"HB Colony, Vijayawada - APPCB",20-11-2025 07:00:00,16.536107,80.594233,PM2.5,54,93,66
India,Andhra_Pradesh,Vijayawada,"HB Colony, Vijayawada - APPCB",20-11-2025 07:00:00,16.536107,80.594233,NH3,4,6,6
India,Andhra_Pradesh,Vijayawada,"Rajiv Gandhi Park, Vijayawada - APPCB",20-11-2025 07:00:00,16.509717,80.612222,PM2.5,60,77,68
India,Andhra_Pradesh,Vijayawada,"Rajiv Nagar, Vijayawada - APPCB",20-11-2025 07:00:00,16.554731,80.649110,PM10,35,83,53
India,Arunachal_Pradesh,Naharlagun,"Naharlagun, Naharlagun - APSPCB",20-11-2025 07:00:00,27.103358,93.679645,PM10,NA,NA,NA
India,Arunachal_Pradesh,Naharlagun,"Naharlagun, Naharlagun - APSPCB",20-11-2025 07:00:00,27.103358,93.679645,OZONE,NA,NA,NA
India,Assam,Byrnihat,"Central Academy for SFS, Byrnihat - PCBA",20-11-2025 07:00:00,26.071318,91.87488,PM2.5,81,133,95
India,Assam,Byrnihat,"Central Academy for SFS, Byrnihat - PCBA",20-11-2025 07:00:00,26.071318,91.87488,NH3,4,4,4
India,Assam,Byrnihat,"Central Academy for SFS, Byrnihat - PCBA",20-11-2025 07:00:00,26.071318,91.87488,SO2,5,8,6
India,Andhra_Pradesh,Amaravati,"Secretariat, Amaravati - APPCB",20-11-2025 07:00:00,16.5150833,80.5181667,NO2,21,69,38
India,Andhra_Pradesh,Amaravati,"Secretariat, Amaravati - APPCB",20-11-2025 07:00:00,16.5150833,80.5181667,NH3,1,4,3
India,Andhra_Pradesh,Amaravati,"Secretariat, Amaravati - APPCB",20-11-2025 07:00:00,16.5150833,80.5181667,OZONE,5,59,14
India,Andhra_Pradesh,Anantapur,"Gulzarpet, Anantapur - APPCB",20-11-2025 07:00:00,14.675886,77.593027,NH3,4,4,4
India,Assam,Guwahati,"IITG, Guwahati - PCBA",20-11-2025 07:00:00,26.2028636,91.70046436,PM10,40,127,83
India,Assam,Guwahati,"IITG, Guwahati - PCBA",20-11-2025 07:00:00,26.2028636,91.70046436,NH3,5,5,5
India,Assam,Guwahati,"Pan Bazaar, Guwahati - PCBA",20-11-2025 07:00:00,26.187500,91.744194,PM2.5,14,114,61
India,Assam,Guwahati,"Pan Bazaar, Guwahati - PCBA",20-11-2025 07:00:00,26.187500,91.744194,OZONE,17,18,18
India,Bihar,Bettiah,"Kamalnath Nagar, Bettiah - BSPCB",20-11-2025 07:00:00,26.80365,84.51954,NO2,6,10,8
India,Bihar,Bettiah,"Kamalnath Nagar, Bettiah - BSPCB",20-11-2025 07:00:00,26.80365,84.51954,NH3,1,1,1
India,Bihar,Bettiah,"Kamalnath Nagar, Bettiah - BSPCB",20-11-2025 07:00:00,26.80365,84.51954,SO2,1,14,7
India,Bihar,Bhagalpur,"DM Office_Kachari Chowk, Bhagalpur - BSPCB",20-11-2025 07:00:00,25.251013,86.989001,NH3,1,1,1
India,Andhra_Pradesh,Rajamahendravaram,"Anand Kala Kshetram, Rajamahendravaram - APPCB",20-11-2025 07:00:00,16.9872867,81.7363176,NO2,10,52,25
India,Andhra_Pradesh,Tirumala,"Toll Gate, Tirumala - APPCB",20-11-2025 07:00:00,13.67,79.35,NO2,13,21,17
India,Andhra_Pradesh,Chittoor,"Gangineni Cheruvu, Chittoor - APPCB",20-11-2025 07:00:00,13.204880,79.097889,PM10,10,142,61
India,Andhra_Pradesh,Kadapa,"Yerramukkapalli, Kadapa - APPCB",20-11-2025 07:00:00,14.465052,78.824187,PM2.5,47,62,53
India,Assam,Guwahati,"Railway Colony, Guwahati - PCBA",20-11-2025 07:00:00,26.181742,91.78063,NO2,2,3,3
India,Assam,Guwahati,"Railway Colony, Guwahati - PCBA",20-11-2025 07:00:00,26.181742,91.78063,SO2,31,34,32
India,Bihar,Purnia,"Mariam Nagar, Purnia - BSPCB",20-11-2025 07:00:00,25.366336,87.117468,OZONE,19,28,21
India,Bihar,Rajgir,"Dangi Tola, Rajgir - BSPCB",20-11-2025 07:00:00,25.03280,85.41948,NO2,7,10,9
India,Bihar,Rajgir,"Dangi Tola, Rajgir - BSPCB",20-11-2025 07:00:00,25.03280,85.41948,SO2,17,24,21
India,Bihar,Rajgir,"Dangi Tola, Rajgir - BSPCB",20-11-2025 07:00:00,25.03280,85.41948,CO,74,100,85
India,Bihar,Saharsa,"Police Line, Saharsa - BSPCB",20-11-2025 07:00:00,25.892357,86.590325,PM10,23,170,102
India,Bihar,Samastipur,"DM Office_Kasipur, Samastipur - BSPCB",20-11-2025 07:00:00,25.859655,85.77944,NH3,2,2,2
India,Bihar,Sasaram,"Dada Peer, Sasaram - BSPCB",20-11-2025 07:00:00,24.952822,84.002396,PM2.5,26,88,51
India,Bihar,Sasaram,"Dada Peer, Sasaram - BSPCB",20-11-2025 07:00:00,24.952822,84.002396,PM10,74,292,141
India,Bihar,Muzaffarpur,"Buddha Colony, Muzaffarpur - BSPCB",20-11-2025 07:00:00,26.11442,85.39813,OZONE,17,111,20
India,Bihar,Muzaffarpur,"MIT-Daudpur Kothi, Muzaffarpur - BSPCB",20-11-2025 07:00:00,26.1403345,85.3650192,PM2.5,77,98,87
India,Bihar,Muzaffarpur,"MIT-Daudpur Kothi, Muzaffarpur - BSPCB",20-11-2025 07:00:00,26.1403345,85.3650192,PM10,67,77,74
India,Bihar,Muzaffarpur,"MIT-Daudpur Kothi, Muzaffarpur - BSPCB",20-11-2025 07:00:00,26.1403345,85.3650192,NO2,16,18,17
India,Bihar,Patna,"DRM Office Danapur, Patna - BSPCB",20-11-2025 07:00:00,25.586562,85.043586,NH3,6,13,9
India,Bihar,Hajipur,"Industrial Area, Hajipur - BSPCB",20-11-2025 07:00:00,25.697189,85.245900,PM10,45,159,105
India,Bihar,Hajipur,"Industrial Area, Hajipur - BSPCB",20-11-2025 07:00:00,25.697189,85.245900,NH3,6,9,8
India,Bihar,Hajipur,"Industrial Area, Hajipur - BSPCB",20-11-2025 07:00:00,25.697189,85.245900,SO2,3,7,4
India,Bihar,Katihar,"Mirchaibari, Katihar - BSPCB",20-11-2025 07:00:00,25.560083,87.553265,NO2,11,19,16
India,Bihar,Kishanganj,"SDM Office_Khagra, Kishanganj - BSPCB",20-11-2025 07:00:00,26.0881305,87.93840336,NO2,9,11,10
India,Bihar,Bhagalpur,"DM Office_Kachari Chowk, Bhagalpur - BSPCB",20-11-2025 07:00:00,25.251013,86.989001,OZONE,11,26,16
India,Bihar,Bihar Sharif,"D M Colony, Bihar Sharif - BSPCB",20-11-2025 07:00:00,25.204762,85.514960,CO,22,82,40
India,Bihar,Buxar,"Charitra Van, Buxar - BSPCB",20-11-2025 07:00:00,25.567520,83.966379,PM2.5,68,230,166
India,Bihar,Chhapra,"Darshan Nagar, Chhapra - BSPCB",20-11-2025 07:00:00,25.7808257,84.7446768,PM2.5,NA,NA,NA
India,Bihar,Manguraha,"Forest Rest House, Manguraha - BSPCB",20-11-2025 07:00:00,27.308328,84.531742,NO2,3,10,5
India,Bihar,Motihari,"Gandak Colony, Motihari - BSPCB",20-11-2025 07:00:00,26.63086,84.90051,PM2.5,13,110,52
India,Bihar,Motihari,"Gandak Colony, Motihari - BSPCB",20-11-2025 07:00:00,26.63086,84.90051,PM10,15,117,61
India,Bihar,Munger,"Town Hall, Munger - BSPCB",20-11-2025 07:00:00,25.376776,86.471523,PM10,38,159,91
India,Bihar,Munger,"Town Hall, Munger - BSPCB",20-11-2025 07:00:00,25.376776,86.471523,NO2,4,5,5
India,Bihar,Patna,"Rajbansi Nagar, Patna - BSPCB",20-11-2025 07:00:00,25.599486,85.113666,PM10,31,129,73
India,Bihar,Patna,"Rajbansi Nagar, Patna - BSPCB",20-11-2025 07:00:00,25.599486,85.113666,NH3,1,9,7
India,Bihar,Patna,"Rajbansi Nagar, Patna - BSPCB",20-11-2025 07:00:00,25.599486,85.113666,OZONE,6,6,6
India,Bihar,Patna,"Samanpura, Patna - BSPCB",20-11-2025 07:00:00,25.596727,85.085624,NH3,5,7,6
India,Bihar,Patna,"Samanpura, Patna - BSPCB",20-11-2025 07:00:00,25.596727,85.085624,CO,4,165,46
India,Bihar,Purnia,"Mariam Nagar, Purnia - BSPCB",20-11-2025 07:00:00,25.366336,87.117468,PM10,4,54,30
India,Bihar,Patna,"DRM Office Danapur, Patna - BSPCB",20-11-2025 07:00:00,25.586562,85.043586,OZONE,7,42,8
India,Bihar,Patna,"Govt. High School Shikarpur, Patna - BSPCB",20-11-2025 07:00:00,25.592539,85.227158,PM10,88,127,111
India,Bihar,Patna,"Muradpur, Patna - BSPCB",20-11-2025 07:00:00,25.619651,85.147382,NH3,4,5,5
India,Bihar,Patna,"Muradpur, Patna - BSPCB",20-11-2025 07:00:00,25.619651,85.147382,SO2,8,9,9
India,Bihar,Siwan,"Chitragupta Nagar, Siwan - BSPCB",20-11-2025 07:00:00,26.2271665,84.3570427,SO2,NA,NA,NA
India,Bihar,Siwan,"Chitragupta Nagar, Siwan - BSPCB",20-11-2025 07:00:00,26.2271665,84.3570427,OZONE,10,11,10
India,Chandigarh,Chandigarh,"Sector 22, Chandigarh - CPCC",20-11-2025 07:00:00,30.735567,76.775714,OZONE,5,174,21
India,Bihar,Chhapra,"Darshan Nagar, Chhapra - BSPCB",20-11-2025 07:00:00,25.7808257,84.7446768,NH3,3,6,5
India,Bihar,Chhapra,"Darshan Nagar, Chhapra - BSPCB",20-11-2025 07:00:00,25.7808257,84.7446768,OZONE,11,42,29
India,Bihar,Gaya,"SFTI Kusdihra, Gaya - BSPCB",20-11-2025 07:00:00,24.762518,84.982348,NH3,4,5,4
India,Delhi,Delhi,"Ashok Vihar, Delhi - DPCC",20-11-2025 07:00:00,28.695381,77.181665,NO2,76,194,135
India,Delhi,Delhi,"Ashok Vihar, Delhi - DPCC",20-11-2025 07:00:00,28.695381,77.181665,NH3,1,2,1
India,Delhi,Delhi,"Ashok Vihar, Delhi - DPCC",20-11-2025 07:00:00,28.695381,77.181665,SO2,8,46,22
India,Delhi,Delhi,"Ashok Vihar, Delhi - DPCC",20-11-2025 07:00:00,28.695381,77.181665,OZONE,1,190,1
India,Delhi,Delhi,"Bawana, Delhi - DPCC",20-11-2025 07:00:00,28.776200,77.051074,NO2,14,130,69
India,Delhi,Delhi,"Burari Crossing, Delhi - IMD",20-11-2025 07:00:00,28.7256504,77.2011573,CO,54,179,148
India,Delhi,Delhi,"Burari Crossing, Delhi - IMD",20-11-2025 07:00:00,28.7256504,77.2011573,OZONE,13,302,15
India,Delhi,Delhi,"CRRI Mathura Road, Delhi - IMD",20-11-2025 07:00:00,28.5512005,77.2735737,PM2.5,306,452,392
India,Chhattisgarh,Tumidih,"OP Jindal Industrial Park, Tumidih - CECB",20-11-2025 07:00:00,22.06631475,83.33820077,PM2.5,36,353,91
India,Chhattisgarh,Tumidih,"OP Jindal Industrial Park, Tumidih - CECB",20-11-2025 07:00:00,22.06631475,83.33820077,NO2,22,89,49
India,Chhattisgarh,Tumidih,"OP Jindal Industrial Park, Tumidih - CECB",20-11-2025 07:00:00,22.06631475,83.33820077,OZONE,3,125,5
India,Delhi,Delhi,"Alipur, Delhi - DPCC",20-11-2025 07:00:00,28.815329,77.153010,PM2.5,332,332,332
India,Delhi,Delhi,"Anand Vihar, Delhi - DPCC",20-11-2025 07:00:00,28.647622,77.3158090,PM2.5,322,500,420
India,Chandigarh,Chandigarh,"Sector-25, Chandigarh - CPCC",20-11-2025 07:00:00,30.751462,76.762879,OZONE,1,59,2
India,Chandigarh,Chandigarh,"Sector-53, Chandigarh - CPCC",20-11-2025 07:00:00,30.719859,76.738637,NO2,23,171,79
India,Chhattisgarh,Bhilai,"32Bungalows, Bhilai - CECB",20-11-2025 07:00:00,21.194815,81.314770,NO2,37,112,60
India,Chhattisgarh,Bhilai,"Civic Center, Bhilai - Bhilai Steel Plant",20-11-2025 07:00:00,21.185571,81.343175,PM2.5,73,169,106
India,Chhattisgarh,Bhilai,"Civic Center, Bhilai - Bhilai Steel Plant",20-11-2025 07:00:00,21.185571,81.343175,NO2,10,11,11
India,Chhattisgarh,Bhilai,"Civic Center, Bhilai - Bhilai Steel Plant",20-11-2025 07:00:00,21.185571,81.343175,NH3,3,3,3
India,Chhattisgarh,Bhilai,"Hathkhoj, Bhilai - CECB",20-11-2025 07:00:00,21.224231,81.408350,OZONE,2,70,7
India,Chhattisgarh,Bilaspur,"Mangala, Bilaspur - NTPC",20-11-2025 07:00:00,22.08815,82.13737,PM2.5,71,196,107
India,Chhattisgarh,Raipur,"AIIMS, Raipur - CECB",20-11-2025 07:00:00,21.258815,81.578979,OZONE,1,6,4
India,Chhattisgarh,Raipur,"Bhatagaon New ISBT, Raipur - CECB",20-11-2025 07:00:00,21.219665,81.630094,CO,31,88,61
India,Chhattisgarh,Raipur,"Siltara Phase-II, Raipur - CECB",20-11-2025 07:00:00,21.371751,81.664929,NO2,8,26,14
India,Delhi,Delhi,"Chandni Chowk, Delhi - IITM",20-11-2025 07:00:00,28.656756,77.227234,OZONE,5,156,7
India,Delhi,Delhi,"Dr. Karni Singh Shooting Range, Delhi - DPCC",20-11-2025 07:00:00,28.498571,77.264840,PM2.5,325,487,399
India,Delhi,Delhi,"Dr. Karni Singh Shooting Range, Delhi - DPCC",20-11-2025 07:00:00,28.498571,77.264840,NH3,10,12,11
India,Chhattisgarh,Chhal,"Nawapara SECL Colony, Chhal - CECB",20-11-2025 07:00:00,22.118125,83.140608,PM10,31,195,85
India,Chhattisgarh,Korba,"Urja Nagar, Korba - CECB",20-11-2025 07:00:00,22.348441,82.549611,NH3,1,2,2
India,Chhattisgarh,Milupara,"Govt. Higher Secondary School, Milupara - CECB",20-11-2025 07:00:00,22.1910172,83.5197009,NH3,NA,NA,NA
India,Chhattisgarh,Kunjemura,"OP Jindal School, Kunjemura - CECB",20-11-2025 07:00:00,22.126650,83.483212,PM2.5,32,51,41
India,Gujarat,Ahmedabad,"Maninagar, Ahmedabad - GPCB",20-11-2025 07:00:00,23.002657,72.591912,PM2.5,48,213,103
India,Gujarat,Ahmedabad,"Raikhad, Ahmedabad - IITM",20-11-2025 07:00:00,23.020509,72.579261,PM10,133,326,179
India,Gujarat,Ahmedabad,"Rakhial, Ahmedabad - IITM",20-11-2025 07:00:00,23.016834,72.625775,PM10,97,196,132
India,Gujarat,Ahmedabad,"SAC ISRO Bopal, Ahmedabad - IITM",20-11-2025 07:00:00,23.041137,72.456691,NH3,NA,NA,NA
India,Gujarat,Ahmedabad,"SAC ISRO Bopal, Ahmedabad - IITM",20-11-2025 07:00:00,23.041137,72.456691,SO2,2,29,6
India,Delhi,Delhi,"Dwarka-Sector 8, Delhi - DPCC ",20-11-2025 07:00:00,28.5710274,77.0719006,PM10,207,448,384
India,Delhi,Delhi,"Dwarka-Sector 8, Delhi - DPCC ",20-11-2025 07:00:00,28.5710274,77.0719006,CO,62,159,135
India,Delhi,Delhi,"IGI Airport (T3), Delhi - IMD",20-11-2025 07:00:00,28.5627763,77.1180053,NO2,115,385,267
India,Delhi,Delhi,"IHBAS, Dilshad Garden, Delhi - CPCB",20-11-2025 07:00:00,28.6811736,77.3025234,NO2,48,54,52
India,Delhi,Delhi,"Jahangirpuri, Delhi - DPCC",20-11-2025 07:00:00,28.732820,77.170633,PM10,243,500,429
India,Delhi,Delhi,"Jawaharlal Nehru Stadium, Delhi - DPCC",20-11-2025 07:00:00,28.580280,77.233829,PM10,252,462,392
India,Delhi,Delhi,"Jawaharlal Nehru Stadium, Delhi - DPCC",20-11-2025 07:00:00,28.580280,77.233829,OZONE,2,278,3
India,Delhi,Delhi,"Lodhi Road, Delhi - IMD",20-11-2025 07:00:00,28.5918245,77.2273074,OZONE,7,179,8
India,Delhi,Delhi,"Nehru Nagar, Delhi - DPCC",20-11-2025 07:00:00,28.567890,77.250515,CO,111,189,160
India,Delhi,Delhi,"Nehru Nagar, Delhi - DPCC",20-11-2025 07:00:00,28.567890,77.250515,OZONE,3,305,4
India,Delhi,Delhi,"North Campus, DU, Delhi - IMD",20-11-2025 07:00:00,28.6573814,77.1585447,PM10,231,500,394
India,Delhi,Delhi,"Okhla Phase-2, Delhi - DPCC",20-11-2025 07:00:00,28.530785,77.271255,PM10,212,500,402
India,Delhi,Delhi,"Sirifort, Delhi - CPCB",20-11-2025 07:00:00,28.5504249,77.2159377,NH3,6,12,10
India,Delhi,Delhi,"Sri Aurobindo Marg, Delhi - DPCC",20-11-2025 07:00:00,28.531346,77.190156,CO,40,118,101
India,Delhi,Delhi,"Vivek Vihar, Delhi - DPCC",20-11-2025 07:00:00,28.672342,77.315260,PM2.5,330,500,436
India,Delhi,Delhi,"R K Puram, Delhi - DPCC",20-11-2025 07:00:00,28.563262,77.186937,PM10,227,454,380
India,Delhi,Delhi,"R K Puram, Delhi - DPCC",20-11-2025 07:00:00,28.563262,77.186937,NH3,5,9,7
India,Delhi,Delhi,"Rohini, Delhi - DPCC",20-11-2025 07:00:00,28.732528,77.119920,SO2,1,25,9
India,Delhi,Delhi,"Rohini, Delhi - DPCC",20-11-2025 07:00:00,28.732528,77.119920,CO,33,183,147
India,Delhi,Delhi,"Wazirpur, Delhi - DPCC",20-11-2025 07:00:00,28.699793,77.165453,CO,96,141,129
India,Delhi,Delhi,"Wazirpur, Delhi - DPCC",20-11-2025 07:00:00,28.699793,77.165453,OZONE,4,267,7
India,Gujarat,Ahmedabad,"Gyaspur, Ahmedabad - IITM",20-11-2025 07:00:00,22.977134,72.553024,PM10,128,391,232
India,Delhi,Delhi,"Patparganj, Delhi - DPCC",20-11-2025 07:00:00,28.623763,77.287209,NH3,13,17,15
India,Delhi,Delhi,"Punjabi Bagh, Delhi - DPCC",20-11-2025 07:00:00,28.674045,77.131023,PM2.5,342,500,439
India,Delhi,Delhi,"Pusa, Delhi - IMD",20-11-2025 07:00:00,28.636110,77.173332,PM2.5,319,410,369
India,Delhi,Delhi,"Major Dhyan Chand National Stadium, Delhi - DPCC",20-11-2025 07:00:00,28.611281,77.237738,OZONE,7,302,7
India,Delhi,Delhi,"Mandir Marg, Delhi - DPCC",20-11-2025 07:00:00,28.636429,77.201067,PM10,174,431,266
India,Delhi,Delhi,"Mandir Marg, Delhi - DPCC",20-11-2025 07:00:00,28.636429,77.201067,CO,24,123,74
India,Haryana,Kaithal,"Rishi Nagar, Kaithal - HSPCB",20-11-2025 07:00:00,29.8006,76.4155,SO2,29,34,32
India,Haryana,Kaithal,"Rishi Nagar, Kaithal - HSPCB",20-11-2025 07:00:00,29.8006,76.4155,OZONE,10,25,15
India,Haryana,Karnal,"Sector-12, Karnal - HSPCB",20-11-2025 07:00:00,29.695300,77.002700,CO,7,59,14
India,Haryana,Kurukshetra,"Sector-7, Kurukshetra - HSPCB",20-11-2025 07:00:00,29.966942,76.875879,CO,13,101,49
India,Haryana,Kurukshetra,"Sector-7, Kurukshetra - HSPCB",20-11-2025 07:00:00,29.966942,76.875879,OZONE,7,87,7
India,Haryana,Mandikhera,"General Hospital, Mandikhera - HSPCB",20-11-2025 07:00:00,27.9002,76.9938,PM2.5,48,339,223
India,Haryana,Mandikhera,"General Hospital, Mandikhera - HSPCB",20-11-2025 07:00:00,27.9002,76.9938,PM10,61,311,185
India,Gujarat,Ahmedabad,"SAC ISRO Satellite, Ahmedabad - IITM",20-11-2025 07:00:00,23.023389,72.515201,NH3,NA,NA,NA
India,Gujarat,Ahmedabad,"SVPI Airport Hansol, Ahmedabad - IITM",20-11-2025 07:00:00,23.076793,72.627874,PM2.5,91,292,155
India,Gujarat,Ahmedabad,"SVPI Airport Hansol, Ahmedabad - IITM",20-11-2025 07:00:00,23.076793,72.627874,NH3,2,6,5
India,Gujarat,Ahmedabad,"SVPI Airport Hansol, Ahmedabad - IITM",20-11-2025 07:00:00,23.076793,72.627874,OZONE,2,70,21
India,Gujarat,Ankleshwar,"GIDC, Ankleshwar - GPCB",20-11-2025 07:00:00,21.613267,73.010555,NH3,6,7,7
India,Gujarat,Gandhinagar,"GIFT City, Gandhinagar - IITM",20-11-2025 07:00:00,23.163798,72.677768,PM10,147,230,170
India,Gujarat,Gandhinagar,"GIFT City, Gandhinagar - IITM",20-11-2025 07:00:00,23.163798,72.677768,NO2,13,73,36
India,Gujarat,Surat,"Science Center, Surat - SMC",20-11-2025 07:00:00,21.170046,72.795405,SO2,34,41,37
India,Gujarat,Vapi,"Phase-1 GIDC, Vapi - GPCB",20-11-2025 07:00:00,20.362421,72.918013,PM2.5,43,310,147
India,Gujarat,Vapi,"Phase-1 GIDC, Vapi - GPCB",20-11-2025 07:00:00,20.362421,72.918013,PM10,34,125,85
India,Gujarat,Vapi,"Phase-1 GIDC, Vapi - GPCB",20-11-2025 07:00:00,20.362421,72.918013,SO2,46,49,48
India,Haryana,Ambala,"Patti Mehar, Ambala - HSPCB",20-11-2025 07:00:00,30.379589,76.778328,NO2,19,25,22
India,Haryana,Ballabgarh,"Nathu Colony, Ballabgarh - HSPCB",20-11-2025 07:00:00,28.3419248,77.319699,PM2.5,64,197,101
India,Haryana,Dharuhera,"Municipal Corporation Office, Dharuhera -  HSPCB",20-11-2025 07:00:00,28.206800,76.799700,CO,NA,NA,NA
India,Haryana,Dharuhera,"Municipal Corporation Office, Dharuhera -  HSPCB",20-11-2025 07:00:00,28.206800,76.799700,OZONE,NA,NA,NA
India,Haryana,Faridabad,"New Industrial Town, Faridabad - HSPCB",20-11-2025 07:00:00,28.39072,77.30059,PM2.5,281,301,297
India,Haryana,Faridabad,"New Industrial Town, Faridabad - HSPCB",20-11-2025 07:00:00,28.39072,77.30059,PM10,188,197,193
India,Haryana,Faridabad,"New Industrial Town, Faridabad - HSPCB",20-11-2025 07:00:00,28.39072,77.30059,OZONE,22,34,30
India,Haryana,Faridabad,"Sector 30, Faridabad - HSPCB",20-11-2025 07:00:00,28.4417,77.3217,PM10,162,172,166
India,Haryana,Faridabad,"Sector 30, Faridabad - HSPCB",20-11-2025 07:00:00,28.4417,77.3217,CO,60,65,62
India,Gujarat,Gandhinagar,"GIFT City, Gandhinagar - IITM",20-11-2025 07:00:00,23.163798,72.677768,CO,46,87,63
India,Gujarat,Gandhinagar,"IIPHG Lekawada, Gandhinagar - IITM",20-11-2025 07:00:00,23.243639,72.68994,NH3,2,4,3
India,Gujarat,Gandhinagar,"IIPHG Lekawada, Gandhinagar - IITM",20-11-2025 07:00:00,23.243639,72.68994,OZONE,5,60,5
India,Gujarat,Gandhinagar,"Sector-10, Gandhinagar - GPCB",20-11-2025 07:00:00,23.221714,72.654328,PM10,63,158,93
India,Gujarat,Gandhinagar,"Sector-10, Gandhinagar - GPCB",20-11-2025 07:00:00,23.221714,72.654328,NH3,2,3,2
India,Haryana,Gurugram,"Vikas Sadan, Gurugram - HSPCB",20-11-2025 07:00:00,28.4501238,77.0263051,SO2,2,8,5
India,Haryana,Hisar,"Urban Estate-II, Hisar - HSPCB",20-11-2025 07:00:00,29.140560,75.744941,SO2,10,12,11
India,Haryana,Jind,"Police Lines, Jind - HSPCB",20-11-2025 07:00:00,29.307814,76.337619,PM10,94,189,146
India,Haryana,Jind,"Police Lines, Jind - HSPCB",20-11-2025 07:00:00,29.307814,76.337619,NH3,4,5,5
India,Haryana,Fatehabad,"Huda Sector, Fatehabad - HSPCB",20-11-2025 07:00:00,29.503664,75.467934,OZONE,19,27,26
India,Haryana,Gurugram,"NISE Gwal Pahari, Gurugram - IMD",20-11-2025 07:00:00,28.422681,77.148944,PM2.5,307,425,361
India,Haryana,Gurugram,"Sector-51, Gurugram - HSPCB",20-11-2025 07:00:00,28.4227,77.0667,PM10,150,467,268
India,Haryana,Bhiwani,"H.B. Colony, Bhiwani - HSPCB",20-11-2025 07:00:00,28.806223,76.141105,NO2,NA,NA,NA
India,Haryana,Charkhi Dadri,"Mini Secretariat, Charkhi Dadri - HSPCB",20-11-2025 07:00:00,28.593883,76.270653,PM10,107,425,244
India,Haryana,Charkhi Dadri,"Mini Secretariat, Charkhi Dadri - HSPCB",20-11-2025 07:00:00,28.593883,76.270653,NO2,9,23,15
India,Haryana,Charkhi Dadri,"Mini Secretariat, Charkhi Dadri - HSPCB",20-11-2025 07:00:00,28.593883,76.270653,SO2,NA,NA,NA
India,Haryana,Gurugram,"Sector-51, Gurugram - HSPCB",20-11-2025 07:00:00,28.4227,77.0667,CO,25,50,40
India,Haryana,Palwal,"Shyam Nagar, Palwal - HSPCB",20-11-2025 07:00:00,28.1485564,77.3320667,OZONE,23,25,24
India,Haryana,Panchgaon,"Amity University, Panchgaon - IITM",20-11-2025 07:00:00,28.3153,76.9143,NO2,35,107,55
India,Haryana,Panchgaon,"Amity University, Panchgaon - IITM",20-11-2025 07:00:00,28.3153,76.9143,NH3,11,19,15
India,Haryana,Panchkula,"Sector-6, Panchkula - HSPCB ",20-11-2025 07:00:00,30.7057778,76.8531805555555,NO2,24,27,25
India,Haryana,Panchkula,"Sector-6, Panchkula - HSPCB ",20-11-2025 07:00:00,30.7057778,76.8531805555555,SO2,8,9,9
India,Haryana,Panipat,"Sector-18, Panipat - HSPCB",20-11-2025 07:00:00,29.432304,76.972765,PM10,23,276,159
India,Haryana,Rohtak,"MD University, Rohtak - HSPCB",20-11-2025 07:00:00,28.52123,76.37138,PM2.5,223,378,293
India,Karnataka,Bengaluru,"Sanegurava Halli, Bengaluru - KSPCB",20-11-2025 07:00:00,12.990328,77.5431385,NO2,19,21,20
India,Karnataka,Bengaluru,"Shivapura_Peenya, Bengaluru - KSPCB",20-11-2025 07:00:00,13.0246342,77.5080115,SO2,9,12,10
India,Karnataka,Bengaluru,"Silk Board, Bengaluru - KSPCB",20-11-2025 07:00:00,12.917348,77.622813,SO2,8,10,9
India,Karnataka,Chamarajanagar,"Urban, Chamarajanagar - KSPCB",20-11-2025 07:00:00,11.55358,76.55521,NO2,14,35,21
India,Karnataka,Chamarajanagar,"Urban, Chamarajanagar - KSPCB",20-11-2025 07:00:00,11.55358,76.55521,NH3,1,3,2
India,Karnataka,Chamarajanagar,"Urban, Chamarajanagar - KSPCB",20-11-2025 07:00:00,11.55358,76.55521,CO,14,119,26
India,Haryana,Sirsa,"F-Block, Sirsa - HSPCB",20-11-2025 07:00:00,29.536400,75.015800,CO,40,84,73
India,Haryana,Sonipat,"Murthal, Sonipat - HSPCB",20-11-2025 07:00:00,29.027200,77.062100,PM2.5,154,420,311
India,Himachal Pradesh,Baddi,"HIMUDA Complex Phase-1, Baddi - HPPCB",20-11-2025 07:00:00,30.943887,76.801991,PM2.5,47,260,122
India,Himachal Pradesh,Baddi,"HIMUDA Complex Phase-1, Baddi - HPPCB",20-11-2025 07:00:00,30.943887,76.801991,NH3,6,8,6
India,Haryana,Mandikhera,"General Hospital, Mandikhera - HSPCB",20-11-2025 07:00:00,27.9002,76.9938,CO,60,93,75
India,Haryana,Manesar,"Sector-2 IMT, Manesar - HSPCB",20-11-2025 07:00:00,28.360699,76.936090,CO,32,102,76
India,Haryana,Palwal,"Shyam Nagar, Palwal - HSPCB",20-11-2025 07:00:00,28.1485564,77.3320667,PM2.5,65,350,119
India,Haryana,Palwal,"Shyam Nagar, Palwal - HSPCB",20-11-2025 07:00:00,28.1485564,77.3320667,PM10,78,326,123
India,Karnataka,Bengaluru,"Hombegowda Nagar, Bengaluru - KSPCB",20-11-2025 07:00:00,12.938539,77.590100,NO2,10,53,25
India,Karnataka,Bengaluru,"Hombegowda Nagar, Bengaluru - KSPCB",20-11-2025 07:00:00,12.938539,77.590100,SO2,10,16,13
India,Karnataka,Bengaluru,"Jigani, Bengaluru - KSPCB",20-11-2025 07:00:00,12.7816279,77.6299145,PM2.5,41,42,41
India,Jharkhand,Dhanbad,"Sardar Patel Nagar, Dhanbad - JSPCB",20-11-2025 07:00:00,23.80569,86.44268,OZONE,1,32,1
India,Karnataka,Belgaum,"Ramteerth Nagar, Belgaum - KSPCB",20-11-2025 07:00:00,15.888653,74.541751,NO2,25,89,41
India,Karnataka,Bengaluru,"City Railway Station, Bengaluru - KSPCB",20-11-2025 07:00:00,12.9756843,77.5660749,SO2,11,19,15
India,Karnataka,Bengaluru,"Hebbal, Bengaluru - KSPCB",20-11-2025 07:00:00,13.029152,77.585901,PM2.5,23,81,49
India,Karnataka,Bengaluru,"Peenya, Bengaluru - CPCB",20-11-2025 07:00:00,13.0270199,77.494094,PM2.5,18,53,30
India,Karnataka,Bengaluru,"Peenya, Bengaluru - CPCB",20-11-2025 07:00:00,13.0270199,77.494094,SO2,5,16,9
India,Himachal Pradesh,Baddi,"HIMUDA Complex Phase-1, Baddi - HPPCB",20-11-2025 07:00:00,30.943887,76.801991,SO2,28,123,56
India,Madhya Pradesh,Indore,"Maguda Nagar, Indore - IMC",20-11-2025 07:00:00,22.7524,75.8872,PM10,25,114,70
India,Madhya Pradesh,Indore,"Maguda Nagar, Indore - IMC",20-11-2025 07:00:00,22.7524,75.8872,NO2,2,2,2
India,Madhya Pradesh,Indore,"Maguda Nagar, Indore - IMC",20-11-2025 07:00:00,22.7524,75.8872,NH3,NA,NA,NA
India,Madhya Pradesh,Indore,"Maguda Nagar, Indore - IMC",20-11-2025 07:00:00,22.7524,75.8872,SO2,32,38,36
India,Madhya Pradesh,Indore,"Maguda Nagar, Indore - IMC",20-11-2025 07:00:00,22.7524,75.8872,CO,16,38,36
India,Madhya Pradesh,Indore,"Regional Park, Indore - IMC",20-11-2025 07:00:00,22.6780,75.8559,PM2.5,47,295,126
India,Madhya Pradesh,Indore,"Regional Park, Indore - IMC",20-11-2025 07:00:00,22.6780,75.8559,PM10,41,167,108
India,Madhya Pradesh,Indore,"Regional Park, Indore - IMC",20-11-2025 07:00:00,22.6780,75.8559,NO2,4,10,7
India,Madhya Pradesh,Indore,"Residency Area, Indore - IMC",20-11-2025 07:00:00,22.7084,75.8815,PM2.5,48,164,88
India,Madhya Pradesh,Indore,"Residency Area, Indore - IMC",20-11-2025 07:00:00,22.7084,75.8815,OZONE,13,31,14
India,Madhya Pradesh,Jabalpur,"Govindh Bhavan Colony, Jabalpur - JMC",20-11-2025 07:00:00,23.163174,79.973061,NO2,18,29,23
India,Karnataka,Hubballi,"Lingaraj Nagar, Hubballi - KSPCB",20-11-2025 07:00:00,15.3714823,75.1160168,SO2,1,2,1
India,Karnataka,Hubballi,"Lingaraj Nagar, Hubballi - KSPCB",20-11-2025 07:00:00,15.3714823,75.1160168,CO,16,48,21
India,Karnataka,Hubballi,"Lingaraj Nagar, Hubballi - KSPCB",20-11-2025 07:00:00,15.3714823,75.1160168,OZONE,14,20,16
India,Karnataka,Kalaburagi,"Lal Bahadur Shastri Nagar, Kalaburagi - KSPCB",20-11-2025 07:00:00,17.321993,76.822628,PM2.5,33,62,48
India,Karnataka,Kalaburagi,"Lal Bahadur Shastri Nagar, Kalaburagi - KSPCB",20-11-2025 07:00:00,17.321993,76.822628,PM10,36,74,56
India,Karnataka,Kalaburagi,"Lal Bahadur Shastri Nagar, Kalaburagi - KSPCB",20-11-2025 07:00:00,17.321993,76.822628,NO2,12,12,12
India,Karnataka,Kalaburagi,"Mahatma Basaveswar Colony, Kalaburgi - KSPCB",20-11-2025 07:00:00,17.336318,76.847397,NO2,12,18,15
India,Karnataka,Kalaburagi,"Mahatma Basaveswar Colony, Kalaburgi - KSPCB",20-11-2025 07:00:00,17.336318,76.847397,NH3,2,3,3
India,Karnataka,Kalaburagi,"Mahatma Basaveswar Colony, Kalaburgi - KSPCB",20-11-2025 07:00:00,17.336318,76.847397,OZONE,13,18,14
India,Karnataka,Udupi,"Brahmagiri, Udupi - KSPCB",20-11-2025 07:00:00,13.34194444,74.74694444,NH3,NA,NA,NA
India,Karnataka,Udupi,"Brahmagiri, Udupi - KSPCB",20-11-2025 07:00:00,13.34194444,74.74694444,OZONE,NA,NA,NA
India,Karnataka,Vijayapura,"Ibrahimpur, Vijayapura - KSPCB",20-11-2025 07:00:00,16.802639,75.722694,OZONE,NA,NA,NA
India,Karnataka,Yadgir,"Collector Office, Yadgir - KSPCB",20-11-2025 07:00:00,16.7602,77.1428,CO,16,30,25
India,Kerala,Eloor,"Udyogamandal, Eloor - Kerala PCB",20-11-2025 07:00:00,10.073232,76.302765,NO2,6,7,7
India,Kerala,Eloor,"Udyogamandal, Eloor - Kerala PCB",20-11-2025 07:00:00,10.073232,76.302765,SO2,1,1,1
India,Kerala,Kannur,"Thavakkara, Kannur - Kerala PCB",20-11-2025 07:00:00,11.875000,75.373200,PM2.5,NA,NA,NA
India,Kerala,Kannur,"Thavakkara, Kannur - Kerala PCB",20-11-2025 07:00:00,11.875000,75.373200,SO2,NA,NA,NA
India,Kerala,Kollam,"Polayathode, Kollam - Kerala PCB",20-11-2025 07:00:00,8.8787,76.6073,PM2.5,4,183,42
India,Kerala,Kollam,"Polayathode, Kollam - Kerala PCB",20-11-2025 07:00:00,8.8787,76.6073,PM10,1,105,54
India,Kerala,Kollam,"Polayathode, Kollam - Kerala PCB",20-11-2025 07:00:00,8.8787,76.6073,CO,14,16,16
India,Kerala,Thiruvananthapuram,"Kariavattom, Thiruvananthapuram - Kerala PCB",20-11-2025 07:00:00,8.563700,76.886500,SO2,1,12,4
India,Kerala,Thiruvananthapuram,"Kariavattom, Thiruvananthapuram - Kerala PCB",20-11-2025 07:00:00,8.563700,76.886500,OZONE,36,36,36
India,Kerala,Thiruvananthapuram,"Plammoodu, Thiruvananthapuram - Kerala PCB",20-11-2025 07:00:00,8.5149093,76.9435879,PM10,2,26,16
India,Karnataka,Madikeri,"Stuart Hill, Madikeri - KSPCB",20-11-2025 07:00:00,12.415911,75.735050,PM2.5,4,58,39
India,Karnataka,Mangalore,"Kadri, Mangalore - KSPCB",20-11-2025 07:00:00,12.889250,74.853000,PM2.5,31,58,43
India,Karnataka,Mangalore,"Kadri, Mangalore - KSPCB",20-11-2025 07:00:00,12.889250,74.853000,NH3,1,1,1
India,Karnataka,Mysuru,"Hebbal 1st Stage, Mysuru - KSPCB",20-11-2025 07:00:00,12.21041,76.37376,PM2.5,10,38,22
India,Karnataka,Mysuru,"Hebbal 1st Stage, Mysuru - KSPCB",20-11-2025 07:00:00,12.21041,76.37376,SO2,4,7,5
India,Karnataka,Shivamogga,"Vinoba Nagara, Shivamogga - KSPCB",20-11-2025 07:00:00,13.940000,75.555917,PM10,31,62,55
India,Kerala,Thiruvananthapuram,"Plammoodu, Thiruvananthapuram - Kerala PCB",20-11-2025 07:00:00,8.5149093,76.9435879,NO2,6,77,33
India,Kerala,Thrissur,"Corporation Ground, Thrissur - Kerala PCB",20-11-2025 07:00:00,10.532400,76.215900,PM10,50,63,55
India,Madhya Pradesh,Bhopal,"Paryavaran Parisar, Bhopal - MPPCB",20-11-2025 07:00:00,23.210494,77.425409,PM10,136,428,247
India,Madhya Pradesh,Bhopal,"T T Nagar, Bhopal - MPPCB",20-11-2025 07:00:00,23.233584,77.400574,PM2.5,NA,NA,NA
India,Karnataka,Chikkamagaluru,"Kalyana Nagara, Chikkamagaluru - KSPCB",20-11-2025 07:00:00,13.328028,75.797056,SO2,6,6,6
India,Karnataka,Chikkamagaluru,"Kalyana Nagara, Chikkamagaluru - KSPCB",20-11-2025 07:00:00,13.328028,75.797056,OZONE,11,37,37
India,Karnataka,Dharwad,"Kalabhavan, Dharwad - KSPCB",20-11-2025 07:00:00,15.459706,75.008381,OZONE,18,25,20
India,Karnataka,Gadag,"Panchal Nagar, Gadag - KSPCB",20-11-2025 07:00:00,15.411456,75.638133,NH3,4,5,4
India,Madhya Pradesh,Gwalior,"Deen Dayal Nagar, Gwalior - MPPCB",20-11-2025 07:00:00,26.259242,78.216432,NO2,29,173,80
India,Madhya Pradesh,Indore,"Airport Area, Indore - IMC",20-11-2025 07:00:00,22.7289,75.8076,PM10,59,163,117
India,Madhya Pradesh,Indore,"Airport Area, Indore - IMC",20-11-2025 07:00:00,22.7289,75.8076,NO2,2,2,2
India,Madhya Pradesh,Bhopal,"T T Nagar, Bhopal - MPPCB",20-11-2025 07:00:00,23.233584,77.400574,CO,NA,NA,NA
India,Madhya Pradesh,Dewas,"Bhopal Chauraha, Dewas - MPPCB",20-11-2025 07:00:00,22.9682591,76.064118,PM10,120,226,170
India,Madhya Pradesh,Singrauli,"Suryakiran Bhawan NCL, Singrauli - MPPCB",20-11-2025 07:00:00,24.108970,82.645580,OZONE,1,58,2
India,Maharashtra,Ahmednagar,"Tarakpur, Ahmednagar - MPCB",20-11-2025 07:00:00,19.10122,74.73339,NO2,17,26,21
India,Maharashtra,Ahmednagar,"Tarakpur, Ahmednagar - MPCB",20-11-2025 07:00:00,19.10122,74.73339,OZONE,6,153,19
India,Maharashtra,Akola,"Ramdaspeth, Akola - MPCB",20-11-2025 07:00:00,20.719516,77.000253,NH3,4,18,9
India,Maharashtra,Amravati,"Shivneri Colony, Amravati - MPCB",20-11-2025 07:00:00,20.9402359,77.7895248,NH3,2,2,2
India,Maharashtra,Amravati,"Shri Shivaji Science College, Amravati - MPCB",20-11-2025 07:00:00,20.939198,77.765701,PM2.5,76,260,158
India,Maharashtra,Badlapur,"Katrap, Badlapur - MPCB",20-11-2025 07:00:00,19.16485,73.23409,PM10,101,251,152
India,Maharashtra,Badlapur,"Katrap, Badlapur - MPCB",20-11-2025 07:00:00,19.16485,73.23409,SO2,3,37,8
India,Maharashtra,Belapur,"CBD Belapur, Belapur - MPCB",20-11-2025 07:00:00,19.0243902,73.0406721,PM2.5,86,247,179
India,Maharashtra,Belapur,"CBD Belapur, Belapur - MPCB",20-11-2025 07:00:00,19.0243902,73.0406721,PM10,118,209,162
India,Maharashtra,Bhiwandi,"Gokul Nagar, Bhiwandi - MPCB",20-11-2025 07:00:00,19.309073,73.057223,PM10,77,185,143
India,Maharashtra,Bhiwandi,"Gokul Nagar, Bhiwandi - MPCB",20-11-2025 07:00:00,19.309073,73.057223,OZONE,17,138,19
India,Maharashtra,Boisar,"Khaira, Boisar - MPCB",20-11-2025 07:00:00,19.786089,72.757971,NH3,5,9,6
India,Madhya Pradesh,Katni,"Gole Bazar, Katni - MPPCB",20-11-2025 07:00:00,23.50016,80.23284,OZONE,10,155,12
India,Madhya Pradesh,Maihar,"Sahilara, Maihar - KJS Cements",20-11-2025 07:00:00,24.2613009,80.7231783,NO2,41,225,91
India,Madhya Pradesh,Ratlam,"Shasthri Nagar, Ratlam - IPCA Lab",20-11-2025 07:00:00,23.331731,75.045981,PM2.5,75,269,146
India,Madhya Pradesh,Ratlam,"Shasthri Nagar, Ratlam - IPCA Lab",20-11-2025 07:00:00,23.331731,75.045981,SO2,1,2,1
India,Madhya Pradesh,Sagar,"Civil Lines, Sagar - MPPCB",20-11-2025 07:00:00,23.838586,78.759431,PM2.5,231,343,303
India,Madhya Pradesh,Sagar,"Civil Lines, Sagar - MPPCB",20-11-2025 07:00:00,23.838586,78.759431,PM10,118,190,152
India,Madhya Pradesh,Sagar,"Civil Lines, Sagar - MPPCB",20-11-2025 07:00:00,23.838586,78.759431,NH3,1,4,2
India,Madhya Pradesh,Sagar,"Deen Dayal Nagar, Sagar - MPPCB",20-11-2025 07:00:00,23.8640158,78.80289321,PM10,93,200,142
India,Madhya Pradesh,Sagar,"Deen Dayal Nagar, Sagar - MPPCB",20-11-2025 07:00:00,23.8640158,78.80289321,SO2,6,9,7
India,Maharashtra,Jalna,"Old MIDC, Jalna - MPCB",20-11-2025 07:00:00,19.854616,75.905894,NO2,NA,NA,NA
India,Maharashtra,Kalyan,"Khadakpada, Kalyan - MPCB",20-11-2025 07:00:00,19.25292,73.142019,NO2,NA,NA,NA
India,Maharashtra,Kalyan,"Khadakpada, Kalyan - MPCB",20-11-2025 07:00:00,19.25292,73.142019,CO,NA,NA,NA
India,Maharashtra,Kalyan,"Pimpleshwar Mandir, Kalyan - MPCB",20-11-2025 07:00:00,19.192056,72.9585188,PM10,100,257,168
India,Maharashtra,Aurangabad,"MIDC Chilkalthana, Aurangabad - MPCB",20-11-2025 07:00:00,19.875620,75.387310,PM2.5,30,177,94
India,Maharashtra,Aurangabad,"MIDC Chilkalthana, Aurangabad - MPCB",20-11-2025 07:00:00,19.875620,75.387310,PM10,37,143,102
India,Maharashtra,Aurangabad,"MIDC Chilkalthana, Aurangabad - MPCB",20-11-2025 07:00:00,19.875620,75.387310,SO2,1,2,1
India,Maharashtra,Aurangabad,"Rachnakar Colony, Aurangabad - MPCB",20-11-2025 07:00:00,19.863756,75.321188,SO2,8,27,17
India,Maharashtra,Kolhapur,"Sinchan Bhavan, Kolhapur - MPCB",20-11-2025 07:00:00,16.7143745,74.2426398,PM2.5,42,172,111
India,Maharashtra,Latur,"Sawe Wadi, Latur - MPCB",20-11-2025 07:00:00,18.39963,76.57452,NH3,5,28,11
India,Maharashtra,Chandrapur,"Chauhan Colony, Chandrapur - MPCB",20-11-2025 07:00:00,19.962900,79.298714,PM10,113,153,134
India,Maharashtra,Chandrapur,"Chauhan Colony, Chandrapur - MPCB",20-11-2025 07:00:00,19.962900,79.298714,SO2,30,30,30
India,Madhya Pradesh,Jabalpur,"Suhagi, Jabalpur - JMC",20-11-2025 07:00:00,23.218135,79.957770,PM2.5,70,335,198
India,Madhya Pradesh,Jabalpur,"Suhagi, Jabalpur - JMC",20-11-2025 07:00:00,23.218135,79.957770,NH3,2,7,5
India,Maharashtra,Mumbai,"Vile Parle West, Mumbai - MPCB",20-11-2025 07:00:00,19.10861,72.83622,CO,24,26,25
India,Maharashtra,Mumbai,"Worli, Mumbai - MPCB",20-11-2025 07:00:00,18.9936162,72.8128113,PM2.5,66,76,71
India,Maharashtra,Mumbai,"Worli, Mumbai - MPCB",20-11-2025 07:00:00,18.9936162,72.8128113,SO2,17,25,20
India,Maharashtra,Nagpur,"Ambazari, Nagpur - MPCB",20-11-2025 07:00:00,21.121801,79.04952,CO,22,95,47
India,Maharashtra,Nagpur,"Opp GPO Civil Lines, Nagpur - MPCB",20-11-2025 07:00:00,21.152875,79.0517531,PM10,125,197,158
India,Maharashtra,Nagpur,"Opp GPO Civil Lines, Nagpur - MPCB",20-11-2025 07:00:00,21.152875,79.0517531,NH3,2,12,4
India,Maharashtra,Nagpur,"Opp GPO Civil Lines, Nagpur - MPCB",20-11-2025 07:00:00,21.152875,79.0517531,SO2,6,122,32
India,Maharashtra,Nagpur,"Opp GPO Civil Lines, Nagpur - MPCB",20-11-2025 07:00:00,21.152875,79.0517531,CO,22,125,52
India,Maharashtra,Nagpur,"Ram Nagar, Nagpur - MPCB",20-11-2025 07:00:00,21.143383,79.048912,SO2,3,116,42
India,Maharashtra,Nanded,"Sneh Nagar, Nanded - MPCB",20-11-2025 07:00:00,19.173852,77.296291,PM10,111,168,146
India,Maharashtra,Nanded,"Sneh Nagar, Nanded - MPCB",20-11-2025 07:00:00,19.173852,77.296291,SO2,1,1,1
India,Maharashtra,Malegaon,"Mahesh Nagar, Malegaon - MPCB",20-11-2025 07:00:00,20.555712,74.529236,NO2,17,74,32
India,Maharashtra,Malegaon,"Mahesh Nagar, Malegaon - MPCB",20-11-2025 07:00:00,20.555712,74.529236,CO,41,47,42
India,Maharashtra,Mira-Bhayandar,"Bhayandar West, Mira-Bhayandar - MPCB",20-11-2025 07:00:00,19.296481,72.840923,CO,15,104,50
India,Maharashtra,Mumbai,"Bandra Kurla Complex, Mumbai - MPCB",20-11-2025 07:00:00,19.065931,72.862131,CO,7,82,46
India,Maharashtra,Mumbai,"Bandra Kurla Complex, Mumbai - MPCB",20-11-2025 07:00:00,19.065931,72.862131,OZONE,2,134,14
India,Maharashtra,Mumbai,"Chembur, Mumbai - MPCB",20-11-2025 07:00:00,19.0364585,72.8954371,SO2,2,18,10
India,Maharashtra,Mumbai,"Chhatrapati Shivaji Intl. Airport (T2), Mumbai - MPCB",20-11-2025 07:00:00,19.10078,72.87462,PM10,106,175,137
India,Maharashtra,Mumbai,"Chhatrapati Shivaji Intl. Airport (T2), Mumbai - MPCB",20-11-2025 07:00:00,19.10078,72.87462,OZONE,7,8,7
India,Maharashtra,Mumbai,"Colaba, Mumbai - MPCB",20-11-2025 07:00:00,18.910000,72.820000,NO2,28,33,30
India,Maharashtra,Mumbai,"Colaba, Mumbai - MPCB",20-11-2025 07:00:00,18.910000,72.820000,OZONE,10,11,11
India,Maharashtra,Mumbai,"Mindspace-Malad West, Mumbai - MPCB",20-11-2025 07:00:00,19.1878657,72.8304069,SO2,15,16,15
India,Maharashtra,Mumbai,"Navy Nagar-Colaba, Mumbai - IITM",20-11-2025 07:00:00,18.897756,72.813320,PM10,118,163,144
India,Maharashtra,Mumbai,"Powai, Mumbai - MPCB",20-11-2025 07:00:00,19.137500,72.915056,PM10,115,168,144
India,Maharashtra,Mumbai,"Powai, Mumbai - MPCB",20-11-2025 07:00:00,19.137500,72.915056,SO2,28,28,28
India,Maharashtra,Mumbai,"Khindipada-Bhandup West, Mumbai - IITM",20-11-2025 07:00:00,19.1653323,72.922099,NO2,NA,NA,NA
India,Maharashtra,Mumbai,"Khindipada-Bhandup West, Mumbai - IITM",20-11-2025 07:00:00,19.1653323,72.922099,SO2,NA,NA,NA
India,Maharashtra,Mumbai,"Kurla, Mumbai - MPCB",20-11-2025 07:00:00,19.0863,72.8888,PM2.5,71,132,90
India,Maharashtra,Mumbai,"Mazgaon, Mumbai - IITM",20-11-2025 07:00:00,18.96702,72.84214,PM10,117,167,145
India,Maharashtra,Mumbai,"Shivaji Nagar, Mumbai - BMC",20-11-2025 07:00:00,19.060498,72.923356,SO2,9,20,15
India,Maharashtra,Mumbai,"Siddharth Nagar-Worli, Mumbai - IITM",20-11-2025 07:00:00,19.000083,72.813993,PM10,72,139,115
India,Maharashtra,Mumbai,"Siddharth Nagar-Worli, Mumbai - IITM",20-11-2025 07:00:00,19.000083,72.813993,NH3,4,8,6
India,Maharashtra,Mumbai,"Sion, Mumbai - MPCB",20-11-2025 07:00:00,19.047000,72.874600,PM2.5,16,72,26
India,Maharashtra,Mumbai,"Byculla, Mumbai - BMC",20-11-2025 07:00:00,18.9767,72.8380,PM2.5,36,99,68
India,Maharashtra,Mumbai,"Chakala-Andheri East, Mumbai - IITM",20-11-2025 07:00:00,19.11074,72.86084,PM10,114,212,152
India,Maharashtra,Mumbai,"Chakala-Andheri East, Mumbai - IITM",20-11-2025 07:00:00,19.11074,72.86084,NO2,45,170,99
India,Maharashtra,Mumbai,"Chakala-Andheri East, Mumbai - IITM",20-11-2025 07:00:00,19.11074,72.86084,CO,14,103,41
India,Maharashtra,Mumbai,"Kandivali East, Mumbai - MPCB",20-11-2025 07:00:00,19.205800,72.868200,PM2.5,65,302,127
India,Maharashtra,Mumbai,"Kherwadi_Bandra East, Mumbai - MPCB",20-11-2025 07:00:00,19.0632143,72.8456324,PM10,92,185,139
India,Maharashtra,Mumbai,"Kherwadi_Bandra East, Mumbai - MPCB",20-11-2025 07:00:00,19.0632143,72.8456324,SO2,3,4,3
India,Meghalaya,Shillong,"Lumpyngngad, Shillong - Meghalaya PCB",20-11-2025 07:00:00,25.5586,91.8985,PM10,2,153,39
India,Meghalaya,Shillong,"Lumpyngngad, Shillong - Meghalaya PCB",20-11-2025 07:00:00,25.5586,91.8985,SO2,5,6,6
India,Meghalaya,Shillong,"Lumpyngngad, Shillong - Meghalaya PCB",20-11-2025 07:00:00,25.5586,91.8985,OZONE,6,25,22
India,Nagaland,Kohima,"PWD Junction, Kohima - NPCB",20-11-2025 07:00:00,25.6635413,94.0989878,PM10,10,195,86
India,Odisha,Angul,"Hakimapada, Angul - OSPCB",20-11-2025 07:00:00,20.832874,85.104082,SO2,9,47,20
India,Odisha,Angul,"Hakimapada, Angul - OSPCB",20-11-2025 07:00:00,20.832874,85.104082,OZONE,8,130,16
India,Odisha,Balasore,"Kalidaspur, Balasore - OSPCB",20-11-2025 07:00:00,21.51161,86.89088,PM2.5,40,253,103
India,Maharashtra,Pimpri-Chinchwad,"Gavalinagar, Pimpri Chinchwad - MPCB",20-11-2025 07:00:00,18.63673,73.82487,CO,29,114,106
India,Maharashtra,Pimpri-Chinchwad,"Park Street Wakad, Pimpri Chinchwad - MPCB",20-11-2025 07:00:00,18.59051,73.77946,PM2.5,139,350,278
India,Maharashtra,Pimpri-Chinchwad,"Park Street Wakad, Pimpri Chinchwad - MPCB",20-11-2025 07:00:00,18.59051,73.77946,PM10,111,359,174
India,Maharashtra,Pimpri-Chinchwad,"Savta Mali Nagar, Pimpri-Chinchwad - IITM",20-11-2025 07:00:00,18.614767,73.799516,PM10,114,255,170
India,Maharashtra,Pimpri-Chinchwad,"Thergaon, Pimpri Chinchwad - MPCB",20-11-2025 07:00:00,18.616318,73.765797,PM2.5,68,329,215
India,Maharashtra,Pimpri-Chinchwad,"Thergaon, Pimpri Chinchwad - MPCB",20-11-2025 07:00:00,18.616318,73.765797,NO2,12,86,41
India,Maharashtra,Thane,"Kasarvadavali, Thane - MPCB",20-11-2025 07:00:00,19.26777,72.97182,OZONE,1,105,24
India,Maharashtra,Thane,"Upvan Fort, Thane - MPCB",20-11-2025 07:00:00,19.222279,72.957979,PM10,69,104,88
India,Maharashtra,Thane,"Upvan Fort, Thane - MPCB",20-11-2025 07:00:00,19.222279,72.957979,NO2,17,72,39
India,Maharashtra,Thane,"Upvan Fort, Thane - MPCB",20-11-2025 07:00:00,19.222279,72.957979,NH3,1,2,1
India,Maharashtra,Ulhasnagar,"Sidhi Vinayak Nagar, Ulhasnagar - MPCB",20-11-2025 07:00:00,19.235581,73.159121,CO,18,51,42
India,Maharashtra,Navi Mumbai,"Sector-2E Kalamboli, Navi Mumbai - MPCB",20-11-2025 07:00:00,19.02579,73.10297,PM10,55,279,145
India,Maharashtra,Navi Mumbai,"Sector-2E Kalamboli, Navi Mumbai - MPCB",20-11-2025 07:00:00,19.02579,73.10297,NO2,16,167,47
India,Maharashtra,Navi Mumbai,"Sector-2E Kalamboli, Navi Mumbai - MPCB",20-11-2025 07:00:00,19.02579,73.10297,CO,9,94,29
India,Maharashtra,Parbhani,"Masoom Colony, Parbhani - MPCB",20-11-2025 07:00:00,19.265594,76.761463,SO2,2,18,8
India,Maharashtra,Navi Mumbai,"Kopripada-Vashi, Navi Mumbai - MPCB",20-11-2025 07:00:00,19.090337,73.014232,PM10,63,274,117
India,Maharashtra,Navi Mumbai,"Mahape, Navi Mumbai - MPCB",20-11-2025 07:00:00,19.1135051,73.008978,CO,16,20,19
India,Maharashtra,Navi Mumbai,"Nerul, Navi Mumbai - MPCB",20-11-2025 07:00:00,19.008751,73.016620,PM10,99,253,173
India,Maharashtra,Navi Mumbai,"Nerul, Navi Mumbai - MPCB",20-11-2025 07:00:00,19.008751,73.016620,SO2,NA,NA,NA
India,Maharashtra,Nashik,"Gangapur Road, Nashik - MPCB",20-11-2025 07:00:00,20.0073285,73.7762427,OZONE,10,13,13
India,Maharashtra,Nashik,"Hirawadi, Nashik - MPCB",20-11-2025 07:00:00,20.021503,73.813844,PM10,103,187,143
India,Maharashtra,Nashik,"Pandav Nagari, Nashik - MPCB",20-11-2025 07:00:00,19.9591346,73.7788008,NO2,9,59,28
India,Maharashtra,Pune,"Bhumkar Nagar, Pune - IITM",20-11-2025 07:00:00,18.605770,73.749976,CO,36,140,93
India,Maharashtra,Pune,"Katraj Dairy, Pune - MPCB",20-11-2025 07:00:00,18.454450,73.854155,PM2.5,NA,NA,NA
India,Maharashtra,Pune,"Katraj Dairy, Pune - MPCB",20-11-2025 07:00:00,18.454450,73.854155,NO2,NA,NA,NA
India,Maharashtra,Pune,"Katraj Dairy, Pune - MPCB",20-11-2025 07:00:00,18.454450,73.854155,NH3,NA,NA,NA
India,Maharashtra,Pune,"Katraj Dairy, Pune - MPCB",20-11-2025 07:00:00,18.454450,73.854155,CO,NA,NA,NA
India,Maharashtra,Pune,"Panchawati_Pashan, Pune - IITM",20-11-2025 07:00:00,18.536457,73.805454,CO,24,53,40
India,Maharashtra,Pune,"Savitribai Phule Pune University, Pune - MPCB",20-11-2025 07:00:00,18.547056,73.826908,PM2.5,68,215,157
India,Maharashtra,Pune,"Savitribai Phule Pune University, Pune - MPCB",20-11-2025 07:00:00,18.547056,73.826908,NH3,1,6,3
India,Maharashtra,Thane,"Kasarvadavali, Thane - MPCB",20-11-2025 07:00:00,19.26777,72.97182,PM10,83,161,121
India,Rajasthan,Bharatpur,"Krishna Nagar, Bharatpur - RSPCB",20-11-2025 07:00:00,27.215415,77.50873,CO,42,162,98
India,Rajasthan,Bhilwara,"Pratap Nagar, Bhilwara - RSPCB",20-11-2025 07:00:00,25.339605,74.618883,PM2.5,83,361,207
India,Rajasthan,Bhiwadi,"RIICO Ind. Area III, Bhiwadi - RSPCB",20-11-2025 07:00:00,28.194909,76.862296,PM2.5,228,422,346
India,Rajasthan,Bhiwadi,"RIICO Ind. Area III, Bhiwadi - RSPCB",20-11-2025 07:00:00,28.194909,76.862296,NO2,15,67,38
India,Rajasthan,Bhiwadi,"Vasundhara Nagar_UIT, Bhiwadi - RSPCB",20-11-2025 07:00:00,28.207266,76.829265,NH3,1,9,5
India,Rajasthan,Bikaner,"MM Ground, Bikaner - RSPCB",20-11-2025 07:00:00,28.018792,73.292658,PM2.5,47,337,144
India,Rajasthan,Bikaner,"MM Ground, Bikaner - RSPCB",20-11-2025 07:00:00,28.018792,73.292658,PM10,97,500,226
India,Rajasthan,Banswara,"Rati Talai, Banswara - RSPCB",20-11-2025 07:00:00,23.555190,74.440010,CO,21,109,26
India,Rajasthan,Baran,"Bamboliya, Baran - RSPCB",20-11-2025 07:00:00,25.106006,76.469948,PM2.5,65,355,189
India,Rajasthan,Baran,"Bamboliya, Baran - RSPCB",20-11-2025 07:00:00,25.106006,76.469948,NO2,17,49,28
India,Rajasthan,Barmer,"Railway Colony, Barmer - RSPCB",20-11-2025 07:00:00,25.747299,71.393989,PM2.5,35,308,88
India,Rajasthan,Bharatpur,"Krishna Nagar, Bharatpur - RSPCB",20-11-2025 07:00:00,27.215415,77.50873,NH3,1,12,4
India,Rajasthan,Bharatpur,"Krishna Nagar, Bharatpur - RSPCB",20-11-2025 07:00:00,27.215415,77.50873,SO2,1,21,8
India,Odisha,Rairangpur,"Divisional Forest Office, Rairangpur - OSPCB",20-11-2025 07:00:00,22.265816,86.174829,OZONE,17,31,18
India,Odisha,Rourkela,"Fertilizer Township, Rourkela - OSPCB",20-11-2025 07:00:00,22.18972222,84.86277778,NO2,11,11,11
India,Odisha,Rourkela,"Raghunathpali, Rourkela - OSPCB",20-11-2025 07:00:00,22.220833,84.809444,SO2,4,9,5
India,Odisha,Rourkela,"Raghunathpali, Rourkela - OSPCB",20-11-2025 07:00:00,22.220833,84.809444,OZONE,19,26,21
India,Odisha,Talcher,"Talcher Coalfields,Talcher - OSPCB",20-11-2025 07:00:00,20.9360711,85.1707021,PM2.5,58,375,221
India,Odisha,Bileipada,"Tata Township, Bileipada - OSPCB",20-11-2025 07:00:00,22.06156703,85.47409613,SO2,7,8,8
India,Odisha,Brajrajnagar,"GM Office, Brajrajnagar - OSPCB",20-11-2025 07:00:00,21.8004996,83.8396977,OZONE,26,28,26
India,Odisha,Byasanagar,"Ferro Chrome Colony, Byasanagar - OSPCB",20-11-2025 07:00:00,20.94185,86.11510,SO2,9,25,18
India,Odisha,Byasanagar,"Ferro Chrome Colony, Byasanagar - OSPCB",20-11-2025 07:00:00,20.94185,86.11510,CO,10,47,19
India,Odisha,Balasore,"Kalidaspur, Balasore - OSPCB",20-11-2025 07:00:00,21.51161,86.89088,CO,8,54,28
India,Odisha,Barbil,"Forest Office, Barbil - OSPCB",20-11-2025 07:00:00,22.1166054,85.3945546,PM10,77,325,124
India,Odisha,Bhubaneswar,"Lingraj Mandir, Bhubaneswar - OSPCB",20-11-2025 07:00:00,20.240790,85.836784,PM10,55,216,112
India,Odisha,Bhubaneswar,"Lingraj Mandir, Bhubaneswar - OSPCB",20-11-2025 07:00:00,20.240790,85.836784,OZONE,12,200,72
India,Odisha,Cuttack,"CDA Area, Cuttack - OSPCB",20-11-2025 07:00:00,20.48891     ,85.84768     ,SO2,2,24,6
India,Odisha,Nayagarh,"Dabuna, Nayagarh - OSPCB",20-11-2025 07:00:00,21.847279,85.416905,PM2.5,31,62,48
India,Odisha,Nayagarh,"Dabuna, Nayagarh - OSPCB",20-11-2025 07:00:00,21.847279,85.416905,NO2,1,2,1
India,Odisha,Nayagarh,"Dabuna, Nayagarh - OSPCB",20-11-2025 07:00:00,21.847279,85.416905,NH3,7,8,7
India,Odisha,Nayagarh,"Dabuna, Nayagarh - OSPCB",20-11-2025 07:00:00,21.847279,85.416905,CO,18,28,23
India,Odisha,Tensa,"Barsua Iron Ore Mines, Tensa - OSPCB",20-11-2025 07:00:00,21.869985,85.167016,OZONE,7,47,18
India,Puducherry,Puducherry,"Jawahar Nagar, Puducherry - PPCC",20-11-2025 07:00:00,11.9309,79.8027,PM10,31,69,52
India,Punjab,Bathinda,"Hardev Nagar, Bathinda - PPCB",20-11-2025 07:00:00,30.233011,74.907758,PM10,NA,NA,NA
India,Punjab,Patiala,"Model Town, Patiala - PPCB",20-11-2025 07:00:00,30.349388,76.366642,NO2,16,19,18
India,Rajasthan,Alwar,"Moti Doongri, Alwar - RSPCB",20-11-2025 07:00:00,27.554793,76.611536,PM10,93,147,119
India,Rajasthan,Alwar,"Moti Doongri, Alwar - RSPCB",20-11-2025 07:00:00,27.554793,76.611536,CO,46,101,59
India,Punjab,Ludhiana,"Punjab Agricultural University, Ludhiana - PPCB",20-11-2025 07:00:00,30.9028,75.8086,CO,25,78,42
India,Punjab,Mandi Gobindgarh,"RIMT University, Mandi Gobindgarh - PPCB",20-11-2025 07:00:00,30.649961,76.331442,OZONE,33,36,34
India,Rajasthan,Jalore,"Mudtra Sili, Jalore - RSPCB",20-11-2025 07:00:00,25.344694,72.626208,OZONE,2,146,20
India,Rajasthan,Jhalawar,"Rajlaxmi Nagar, Jhalawar - RSPCB",20-11-2025 07:00:00,24.588397,76.172782,NH3,3,7,5
India,Rajasthan,Jhalawar,"Rajlaxmi Nagar, Jhalawar - RSPCB",20-11-2025 07:00:00,24.588397,76.172782,CO,38,121,68
India,Rajasthan,Jhunjhunu,"Indra Nagar, Jhunjhunu - RSPCB",20-11-2025 07:00:00,28.108988,75.386577,PM2.5,96,326,240
India,Rajasthan,Jhunjhunu,"Indra Nagar, Jhunjhunu - RSPCB",20-11-2025 07:00:00,28.108988,75.386577,PM10,112,418,214
India,Rajasthan,Jhunjhunu,"Indra Nagar, Jhunjhunu - RSPCB",20-11-2025 07:00:00,28.108988,75.386577,NO2,22,180,83
India,Rajasthan,Jhunjhunu,"Indra Nagar, Jhunjhunu - RSPCB",20-11-2025 07:00:00,28.108988,75.386577,SO2,2,36,12
India,Rajasthan,Jodhpur,"Collectorate, Jodhpur - RSPCB",20-11-2025 07:00:00,26.268249,73.0193853,PM10,100,444,197
India,Rajasthan,Jaipur,"Adarsh Nagar, Jaipur - RSPCB",20-11-2025 07:00:00,26.902909,75.836858,PM2.5,113,302,223
India,Rajasthan,Jaipur,"Adarsh Nagar, Jaipur - RSPCB",20-11-2025 07:00:00,26.902909,75.836858,NO2,19,136,75
India,Rajasthan,Jaipur,"Police Commissionerate, Jaipur - RSPCB",20-11-2025 07:00:00,26.9164092,75.7994901,CO,28,137,59
India,Rajasthan,Jaipur,"RIICO Sitapura, Jaipur - RSPCB",20-11-2025 07:00:00,26.786682,75.827928,PM2.5,110,500,300
India,Rajasthan,Jaipur,"RIICO Sitapura, Jaipur - RSPCB",20-11-2025 07:00:00,26.786682,75.827928,PM10,125,500,249
India,Rajasthan,Jaipur,"RIICO Sitapura, Jaipur - RSPCB",20-11-2025 07:00:00,26.786682,75.827928,CO,22,135,77
India,Rajasthan,Kota,"Shrinath Puram, Kota - RSPCB",20-11-2025 07:00:00,25.14389,75.821256,NO2,14,17,16
India,Rajasthan,Kota,"Shrinath Puram, Kota - RSPCB",20-11-2025 07:00:00,25.14389,75.821256,NH3,2,8,4
India,Rajasthan,Nagaur,"Karni Colony, Nagaur - RSPCB",20-11-2025 07:00:00,27.213494,73.734444,OZONE,7,81,21
India,Rajasthan,Pali,"Indira Colony Vistar, Pali - RSPCB",20-11-2025 07:00:00,25.771061, 73.340227,NO2,23,83,38
India,Rajasthan,Bundi,"New Colony, Bundi - RSPCB",20-11-2025 07:00:00,25.435774,75.644272,NH3,3,6,4
India,Rajasthan,Bundi,"New Colony, Bundi - RSPCB",20-11-2025 07:00:00,25.435774,75.644272,SO2,5,9,7
India,Rajasthan,Bundi,"New Colony, Bundi - RSPCB",20-11-2025 07:00:00,25.435774,75.644272,CO,26,80,30
India,Rajasthan,Churu,"Subash Chowk, Churu - RSPCB",20-11-2025 07:00:00,28.296139,74.961696,PM10,123,500,262
India,Rajasthan,Churu,"Subash Chowk, Churu - RSPCB",20-11-2025 07:00:00,28.296139,74.961696,NO2,18,182,73
India,Rajasthan,Jodhpur,"Digari Kalan, Jodhpur - RSPCB",20-11-2025 07:00:00,26.295810,73.082283,NH3,9,45,15
India,Rajasthan,Jodhpur,"Digari Kalan, Jodhpur - RSPCB",20-11-2025 07:00:00,26.295810,73.082283,SO2,3,8,5
India,Rajasthan,Jodhpur,"Jhalamand, Jodhpur - RSPCB",20-11-2025 07:00:00,26.215415,73.070156,CO,12,99,41
India,Rajasthan,Jodhpur,"Mandor, Jodhpur - RSPCB",20-11-2025 07:00:00,26.358805,73.047444,SO2,3,30,9
India,Rajasthan,Hanumangarh,"Housing Board, Hanumangarh - RSPCB",20-11-2025 07:00:00,29.610750,74.283608,PM2.5,50,325,228
India,Rajasthan,Hanumangarh,"Housing Board, Hanumangarh - RSPCB",20-11-2025 07:00:00,29.610750,74.283608,PM10,40,336,166
India,Rajasthan,Hanumangarh,"Housing Board, Hanumangarh - RSPCB",20-11-2025 07:00:00,29.610750,74.283608,CO,37,144,49
India,Rajasthan,Hanumangarh,"Housing Board, Hanumangarh - RSPCB",20-11-2025 07:00:00,29.610750,74.283608,OZONE,6,92,32
India,Rajasthan,Karauli,"Satyawati Vihar, Karauli - RSPCB",20-11-2025 07:00:00,26.506177,77.025989,NO2,16,108,37
India,Rajasthan,Karauli,"Satyawati Vihar, Karauli - RSPCB",20-11-2025 07:00:00,26.506177,77.025989,SO2,2,8,6
India,Rajasthan,Kota,"Dhanmandi, Kota - RSPCB",20-11-2025 07:00:00,25.164090,75.858137,NO2,23,132,60
India,Rajasthan,Jaisalmer,"Sadar Bazar, Jaisalmer - RSPCB",20-11-2025 07:00:00,26.912329,70.909168,PM2.5,35,297,110
India,Rajasthan,Jaisalmer,"Sadar Bazar, Jaisalmer - RSPCB",20-11-2025 07:00:00,26.912329,70.909168,NH3,10,16,13
India,Rajasthan,Jodhpur,"Collectorate, Jodhpur - RSPCB",20-11-2025 07:00:00,26.268249,73.0193853,NH3,7,69,27
India,TamilNadu,Nagapattinam,"Velippalayam, Nagapattinam - TNPCB",20-11-2025 07:00:00,10.798548,79.838212,PM10,22,157,61
India,TamilNadu,Nagapattinam,"Velippalayam, Nagapattinam - TNPCB",20-11-2025 07:00:00,10.798548,79.838212,SO2,1,1,1
India,TamilNadu,Ooty,"Bombay Castel, Ooty - TNPCB",20-11-2025 07:00:00,11.4068288,76.7138973,PM10,NA,NA,NA
India,TamilNadu,Ooty,"Bombay Castel, Ooty - TNPCB",20-11-2025 07:00:00,11.4068288,76.7138973,SO2,NA,NA,NA
India,TamilNadu,Perundurai,"SIPCOT Industrial Park, Perundurai - TNPCB",20-11-2025 07:00:00,11.258242,77.552761,CO,14,18,17
India,TamilNadu,Chennai,"Arumbakkam, Chennai - TNPCB",20-11-2025 07:00:00,13.0664,80.2112 ,PM10,54,132,93
India,TamilNadu,Chennai,"Kodungaiyur, Chennai - TNPCB",20-11-2025 07:00:00,13.1278,80.2642,NO2,10,47,20
India,TamilNadu,Chennai,"Manali Village, Chennai - TNPCB",20-11-2025 07:00:00,13.1662,80.2584,NO2,4,6,5
India,TamilNadu,Chennai,"Manali Village, Chennai - TNPCB",20-11-2025 07:00:00,13.1662,80.2584,NH3,1,2,1
India,TamilNadu,Chennai,"Manali, Chennai - CPCB",20-11-2025 07:00:00,13.164544,80.26285,NO2,8,29,17
India,TamilNadu,Cuddalore,"Semmandalam, Cuddalore - TNPCB",20-11-2025 07:00:00,11.7637683,79.7499835,PM2.5,48,93,72
India,TamilNadu,Cuddalore,"Semmandalam, Cuddalore - TNPCB",20-11-2025 07:00:00,11.7637683,79.7499835,NO2,2,22,8
India,TamilNadu,Karur,"Kamadenu Nagar, Karur - TNPCB",20-11-2025 07:00:00,10.967820,78.080882,NO2,NA,NA,NA
India,TamilNadu,Madurai,"Uchapatti, Madurai - TNPCB",20-11-2025 07:00:00,9.865935,78.022669,PM10,NA,NA,NA
India,TamilNadu,Madurai,"Uchapatti, Madurai - TNPCB",20-11-2025 07:00:00,9.865935,78.022669,CO,11,14,13
India,Rajasthan,Sawai Madhopur,"Sahu Nagar, Sawai Madhopur - RSPCB",20-11-2025 07:00:00,26.031443,76.359327,PM2.5,33,370,154
India,Rajasthan,Sawai Madhopur,"Sahu Nagar, Sawai Madhopur - RSPCB",20-11-2025 07:00:00,26.031443,76.359327,PM10,78,388,156
India,Rajasthan,Sikar,"Radhakishan Pura, Sikar - RSPCB",20-11-2025 07:00:00,27.608912,75.153302,NO2,14,153,57
India,Rajasthan,Sikar,"Radhakishan Pura, Sikar - RSPCB",20-11-2025 07:00:00,27.608912,75.153302,NH3,9,19,14
India,Rajasthan,Sikar,"Radhakishan Pura, Sikar - RSPCB",20-11-2025 07:00:00,27.608912,75.153302,OZONE,8,145,40
India,TamilNadu,Thoothukudi,"Meelavittan, Thoothukudi - TNPCB",20-11-2025 07:00:00,8.816428 ,78.099039,NO2,6,17,12
India,TamilNadu,Tirupur,"Kumaran College, Tirupur - TNPCB",20-11-2025 07:00:00,11.0973603,77.3228673,PM2.5,NA,NA,NA
India,TamilNadu,Tirupur,"Kumaran College, Tirupur - TNPCB",20-11-2025 07:00:00,11.0973603,77.3228673,SO2,NA,NA,NA
India,Telangana,Hyderabad,"Bollaram Industrial Area, Hyderabad - TSPCB",20-11-2025 07:00:00,17.540891,78.358528,CO,18,37,28
India,TamilNadu,Chennai,"Velachery Res. Area, Chennai - CPCB",20-11-2025 07:00:00,13.0052189,80.2398125,SO2,15,16,15
India,TamilNadu,Chennai,"Velachery Res. Area, Chennai - CPCB",20-11-2025 07:00:00,13.0052189,80.2398125,CO,39,46,40
India,TamilNadu,Coimbatore,"SIDCO Kurichi, Coimbatore - TNPCB",20-11-2025 07:00:00,10.942451,76.978996,PM2.5,13,91,52
India,TamilNadu,Cuddalore,"Kudikadu, Cuddalore - TNPCB",20-11-2025 07:00:00,11.6829898,79.7532099,PM2.5,NA,NA,NA
India,Rajasthan,Pali,"Indira Colony Vistar, Pali - RSPCB",20-11-2025 07:00:00,25.771061, 73.340227,CO,12,57,42
India,Rajasthan,Pratapgarh,"Pragati Nagar, Pratapgarh - RSPCB",20-11-2025 07:00:00,24.041198,74.780702,CO,26,51,31
India,Rajasthan,Sri Ganganagar,"Old City, Sri Ganganagar - RSPCB",20-11-2025 07:00:00,29.931624,73.864511,NH3,8,81,21
India,Sikkim,Gangtok,"Zero Point GICI, Gangtok - SSPCB",20-11-2025 07:00:00,27.338530,88.614099,CO,1,38,3
India,Uttar_Pradesh,Firozabad,"Vibhab Nagar, Firozabad - UPPCB",20-11-2025 07:00:00,27.1594,78.3953,SO2,NA,NA,NA
India,Uttar_Pradesh,Firozabad,"Vibhab Nagar, Firozabad - UPPCB",20-11-2025 07:00:00,27.1594,78.3953,CO,18,70,46
India,Uttar_Pradesh,Ghaziabad,"Indirapuram, Ghaziabad - UPPCB",20-11-2025 07:00:00,28.646233,77.358075,PM2.5,262,434,379
India,Uttar_Pradesh,Ghaziabad,"Indirapuram, Ghaziabad - UPPCB",20-11-2025 07:00:00,28.646233,77.358075,NO2,48,162,99
India,Uttar_Pradesh,Ghaziabad,"Indirapuram, Ghaziabad - UPPCB",20-11-2025 07:00:00,28.646233,77.358075,OZONE,16,189,24
India,Uttar_Pradesh,Ghaziabad,"Loni, Ghaziabad - UPPCB",20-11-2025 07:00:00,28.757294,77.278792,PM10,214,500,419
India,Uttar_Pradesh,Ghaziabad,"Loni, Ghaziabad - UPPCB",20-11-2025 07:00:00,28.757294,77.278792,SO2,11,32,17
India,Uttar_Pradesh,Bareilly,"Rajendra Nagar, Bareilly - UPPCB",20-11-2025 07:00:00,28.38910936,79.42963708,NO2,9,10,9
India,Uttar_Pradesh,Bareilly,"Rajendra Nagar, Bareilly - UPPCB",20-11-2025 07:00:00,28.38910936,79.42963708,NH3,1,1,1
India,Uttar_Pradesh,Bareilly,"Rajendra Nagar, Bareilly - UPPCB",20-11-2025 07:00:00,28.38910936,79.42963708,OZONE,NA,NA,NA
India,Uttar_Pradesh,Bulandshahr,"Yamunapuram, Bulandshahr - UPPCB",20-11-2025 07:00:00,28.406963,77.849831,NO2,22,163,96
India,Uttar_Pradesh,Firozabad,"Nagla Bhau, Firozabad - UPPCB",20-11-2025 07:00:00,27.168897,78.376960,PM2.5,36,112,69
India,Uttar_Pradesh,Greater Noida,"Knowledge Park - III, Greater Noida - UPPCB",20-11-2025 07:00:00,28.47272,77.482000,SO2,20,43,30
India,Uttar_Pradesh,Greater Noida,"Knowledge Park - III, Greater Noida - UPPCB",20-11-2025 07:00:00,28.47272,77.482000,OZONE,3,161,4
India,Uttar_Pradesh,Greater Noida,"Knowledge Park - V, Greater Noida - UPPCB",20-11-2025 07:00:00,28.557054,77.453663,NO2,109,255,143
India,Uttar_Pradesh,Hapur,"Anand Vihar, Hapur - UPPCB",20-11-2025 07:00:00,28.725645,77.749675,NH3,6,11,9
India,Uttar_Pradesh,Hapur,"Anand Vihar, Hapur - UPPCB",20-11-2025 07:00:00,28.725645,77.749675,CO,36,120,101
India,Telangana,Hyderabad,"Zoo Park, Hyderabad - TSPCB",20-11-2025 07:00:00,17.349694,78.451437,PM10,81,157,129
India,Telangana,Hyderabad,"Zoo Park, Hyderabad - TSPCB",20-11-2025 07:00:00,17.349694,78.451437,OZONE,22,25,24
India,Tripura,Agartala,"Bardowali, Agartala - Tripura SPCB",20-11-2025 07:00:00,23.8175497,91.2726974,SO2,27,28,28
India,Uttar_Pradesh,Agra,"Manoharpur, Agra - UPPCB",20-11-2025 07:00:00,27.23711,78.01936,PM10,102,193,142
India,Uttar_Pradesh,Agra,"Manoharpur, Agra - UPPCB",20-11-2025 07:00:00,27.23711,78.01936,NH3,2,2,2
India,Uttar_Pradesh,Agra,"Rohta, Agra - UPPCB",20-11-2025 07:00:00,27.106972,78.000111,NO2,15,19,18
India,Uttar_Pradesh,Agra,"Sanjay Palace, Agra - UPPCB",20-11-2025 07:00:00,27.19865833,78.00598056,PM10,61,162,122
India,Uttar_Pradesh,Agra,"Sanjay Palace, Agra - UPPCB",20-11-2025 07:00:00,27.19865833,78.00598056,SO2,15,17,16
India,Uttar_Pradesh,Agra,"Sanjay Palace, Agra - UPPCB",20-11-2025 07:00:00,27.19865833,78.00598056,CO,31,124,72
India,Telangana,Hyderabad,"New Malakpet, Hyderabad - TSPCB",20-11-2025 07:00:00,17.37206,78.50864,PM2.5,49,79,64
India,Telangana,Hyderabad,"Ramachandrapuram, Hyderabad - TSPCB",20-11-2025 07:00:00,17.528544,78.286195,CO,30,57,42
India,Telangana,Hyderabad,"Ramachandrapuram, Hyderabad - TSPCB",20-11-2025 07:00:00,17.528544,78.286195,OZONE,22,28,22
India,Telangana,Hyderabad,"Sanathnagar, Hyderabad - TSPCB",20-11-2025 07:00:00,17.4559458,78.4332152,CO,10,24,18
India,Telangana,Hyderabad,"ECIL Kapra, Hyderabad - TSPCB",20-11-2025 07:00:00,17.470431,78.566959,NO2,25,60,38
India,Telangana,Hyderabad,"ICRISAT Patancheru, Hyderabad - TSPCB",20-11-2025 07:00:00,17.518400,78.278777,SO2,7,45,18
India,Telangana,Hyderabad,"IDA Pashamylaram, Hyderabad - TSPCB",20-11-2025 07:00:00,17.5316895,78.218939,PM2.5,NA,NA,NA
India,Telangana,Hyderabad,"IDA Pashamylaram, Hyderabad - TSPCB",20-11-2025 07:00:00,17.5316895,78.218939,NH3,NA,NA,NA
India,Uttar_Pradesh,Agra,"Shahjahan Garden, Agra - UPPCB",20-11-2025 07:00:00,27.169338,78.03582,OZONE,2,26,2
India,Uttar_Pradesh,Agra,"Shastripuram, Agra - UPPCB",20-11-2025 07:00:00,27.19862,77.92066,SO2,12,22,17
India,Uttar_Pradesh,Baghpat,"Sardar Patel Inter College, Baghpat - UPPCB",20-11-2025 07:00:00,28.964949,77.278761,SO2,18,53,36
India,Telangana,Hyderabad,"Kokapet, Hyderabad - TSPCB",20-11-2025 07:00:00,17.393559,78.339194,NH3,2,3,2
India,Telangana,Hyderabad,"Kokapet, Hyderabad - TSPCB",20-11-2025 07:00:00,17.393559,78.339194,OZONE,13,31,13
India,Telangana,Hyderabad,"Nacharam_TSIIC IALA, Hyderabad - TSPCB",20-11-2025 07:00:00,17.429398,78.569354,NO2,10,17,14
India,Uttar_Pradesh,Kanpur,"Nehru Nagar, Kanpur - UPPCB",20-11-2025 07:00:00,26.4703136,80.3229863,NO2,19,46,31
India,Uttar_Pradesh,Kanpur,"Nehru Nagar, Kanpur - UPPCB",20-11-2025 07:00:00,26.4703136,80.3229863,CO,36,72,67
India,Uttar_Pradesh,Khurja,"Kalindi Kunj, Khurja - UPPCB",20-11-2025 07:00:00,28.2348927,77.8683002,CO,31,98,76
India,Uttar_Pradesh,Khurja,"Kalindi Kunj, Khurja - UPPCB",20-11-2025 07:00:00,28.2348927,77.8683002,OZONE,88,322,187
India,Uttar_Pradesh,Lucknow,"B R Ambedkar University, Lucknow - UPPCB",20-11-2025 07:00:00,26.766433,80.927299,CO,NA,NA,NA
India,Uttar_Pradesh,Meerut,"Pallavpuram Phase 2, Meerut - UPPCB",20-11-2025 07:00:00,29.063510,77.709723,NH3,1,9,6
India,Uttar_Pradesh,Moradabad,"Buddhi Vihar, Moradabad - UPPCB",20-11-2025 07:00:00,28.83526,78.74460,OZONE,9,19,10
India,Uttar_Pradesh,Moradabad,"Eco Herbal Park, Moradabad - UPPCB",20-11-2025 07:00:00,28.840739,78.697531,OZONE,3,90,3
India,Uttar_Pradesh,Moradabad,"Employment Office, Moradabad - UPPCB",20-11-2025 07:00:00,28.88528,78.73880,SO2,19,22,20
India,Uttar_Pradesh,Moradabad,"Employment Office, Moradabad - UPPCB",20-11-2025 07:00:00,28.88528,78.73880,OZONE,14,17,14
India,Uttar_Pradesh,Moradabad,"Kashiram Nagar, Moradabad - UPPCB",20-11-2025 07:00:00,28.849399,78.742362,PM2.5,28,257,111
India,Uttar_Pradesh,Moradabad,"Kashiram Nagar, Moradabad - UPPCB",20-11-2025 07:00:00,28.849399,78.742362,NO2,25,25,25
India,Uttar_Pradesh,Moradabad,"Transport Nagar, Moradabad - UPPCB",20-11-2025 07:00:00,28.802625,78.753728,PM10,45,229,102
India,Uttar_Pradesh,Moradabad,"Transport Nagar, Moradabad - UPPCB",20-11-2025 07:00:00,28.802625,78.753728,NO2,29,30,30
India,Uttar_Pradesh,Jhansi,"Shivaji Nagar, Jhansi - UPPCB",20-11-2025 07:00:00,25.4547,78.6039,PM2.5,45,153,94
India,Uttar_Pradesh,Jhansi,"Shivaji Nagar, Jhansi - UPPCB",20-11-2025 07:00:00,25.4547,78.6039,NO2,6,6,6
India,Uttar_Pradesh,Jhansi,"Shivaji Nagar, Jhansi - UPPCB",20-11-2025 07:00:00,25.4547,78.6039,SO2,11,18,14
India,Uttar_Pradesh,Kanpur,"FTI Kidwai Nagar, Kanpur - UPPCB",20-11-2025 07:00:00,26.428282,80.327067,NH3,2,2,2
India,Uttar_Pradesh,Kanpur,"FTI Kidwai Nagar, Kanpur - UPPCB",20-11-2025 07:00:00,26.428282,80.327067,CO,38,82,73
India,Uttar_Pradesh,Lucknow,"Talkatora District Industries Center, Lucknow - CPCB",20-11-2025 07:00:00,26.83399722,80.8917361,SO2,1,47,7
India,Uttar_Pradesh,Meerut,"Pallavpuram Phase 2, Meerut - UPPCB",20-11-2025 07:00:00,29.063510,77.709723,PM10,126,452,287
India,Uttar_Pradesh,Meerut,"Pallavpuram Phase 2, Meerut - UPPCB",20-11-2025 07:00:00,29.063510,77.709723,NO2,34,144,94
India,Uttar_Pradesh,Moradabad,"Transport Nagar, Moradabad - UPPCB",20-11-2025 07:00:00,28.802625,78.753728,CO,40,56,54
India,Uttar_Pradesh,Muzaffarnagar,"New Mandi, Muzaffarnagar - UPPCB",20-11-2025 07:00:00,29.4723508,77.7194031,PM2.5,119,409,315
India,Uttar_Pradesh,Muzaffarnagar,"New Mandi, Muzaffarnagar - UPPCB",20-11-2025 07:00:00,29.4723508,77.7194031,SO2,8,68,23
India,Uttar_Pradesh,Noida,"Sector-1, Noida - UPPCB",20-11-2025 07:00:00,28.5898,77.3101,NH3,19,31,26
India,Uttar_Pradesh,Noida,"Sector-116, Noida - UPPCB",20-11-2025 07:00:00,28.569230,77.393848,PM10,264,500,432
India,Uttar_Pradesh,Noida,"Sector-116, Noida - UPPCB",20-11-2025 07:00:00,28.569230,77.393848,NH3,5,8,6
India,Uttar_Pradesh,Noida,"Sector-116, Noida - UPPCB",20-11-2025 07:00:00,28.569230,77.393848,SO2,7,23,12
India,Uttar_Pradesh,Lucknow,"Kendriya Vidyalaya, Lucknow - CPCB",20-11-2025 07:00:00,26.906111,80.948222,PM2.5,88,307,215
India,Uttar_Pradesh,Lucknow,"Kendriya Vidyalaya, Lucknow - CPCB",20-11-2025 07:00:00,26.906111,80.948222,SO2,1,17,9
India,Uttar_Pradesh,Lucknow,"Lalbagh, Lucknow - CPCB",20-11-2025 07:00:00,26.8458805,80.9365541,PM10,NA,NA,NA
India,Uttar_Pradesh,Prayagraj,"Jhunsi, Prayagraj - UPPCB",20-11-2025 07:00:00,25.425602,81.917152,NO2,NA,NA,NA
India,Uttar_Pradesh,Prayagraj,"Motilal Nehru NIT, Prayagraj - UPPCB",20-11-2025 07:00:00,25.494,81.863,PM2.5,77,295,190
India,West_Bengal,Barrackpore,"SVSPA Campus, Barrackpore - WBPCB",20-11-2025 07:00:00,22.7605581,88.3617589,PM10,42,143,101
India,West_Bengal,Barrackpore,"SVSPA Campus, Barrackpore - WBPCB",20-11-2025 07:00:00,22.7605581,88.3617589,NH3,3,7,6
India,West_Bengal,Barrackpore,"SVSPA Campus, Barrackpore - WBPCB",20-11-2025 07:00:00,22.7605581,88.3617589,CO,31,84,77
India,West_Bengal,Durgapur,"Mahishkapur Road_B-Zone, Durgapur - WBPCB",20-11-2025 07:00:00,23.567923,87.306843,PM10,67,146,114
India,West_Bengal,Durgapur,"Mahishkapur Road_B-Zone, Durgapur - WBPCB",20-11-2025 07:00:00,23.567923,87.306843,CO,39,100,81
India,West_Bengal,Durgapur,"PCBL Residential Complex, Durgapur - WBPCB",20-11-2025 07:00:00,23.5087640,87.3544400,CO,45,114,97
India,Uttar_Pradesh,Varanasi,"Maldahiya, Varanasi - UPPCB",20-11-2025 07:00:00,25.32393,82.99687,SO2,27,29,28
India,Uttar_Pradesh,Vrindavan,"Omex Eternity, Vrindavan - UPPCB",20-11-2025 07:00:00,27.5714090,77.6557570,NH3,1,4,3
India,Uttar_Pradesh,Vrindavan,"Omex Eternity, Vrindavan - UPPCB",20-11-2025 07:00:00,27.5714090,77.6557570,SO2,11,22,14
India,Uttarakhand,Dehradun,"Doon University, Dehradun - UKPCB",20-11-2025 07:00:00,30.269444,78.044167,PM10,16,108,49
India,Uttarakhand,Dehradun,"Doon University, Dehradun - UKPCB",20-11-2025 07:00:00,30.269444,78.044167,SO2,2,3,2
India,Uttar_Pradesh,Prayagraj,"Motilal Nehru NIT, Prayagraj - UPPCB",20-11-2025 07:00:00,25.494,81.863,OZONE,4,50,6
India,Uttar_Pradesh,Prayagraj,"Nagar Nigam, Prayagraj - UPPCB",20-11-2025 07:00:00,25.44919916 ,81.82735986 ,PM10,59,125,98
India,Uttar_Pradesh,Prayagraj,"Nagar Nigam, Prayagraj - UPPCB",20-11-2025 07:00:00,25.44919916 ,81.82735986 ,SO2,51,113,80
India,Uttar_Pradesh,Varanasi,"IESD Banaras Hindu University, Varanasi - UPPCB",20-11-2025 07:00:00,25.262326,82.995408,PM2.5,45,212,112
India,West_Bengal,Haldia,"Priyambada Housing Estate, Haldia - WBPCB",20-11-2025 07:00:00,22.06047,88.109737,NO2,10,49,26
India,West_Bengal,Haldia,"Priyambada Housing Estate, Haldia - WBPCB",20-11-2025 07:00:00,22.06047,88.109737,CO,21,65,43
India,West_Bengal,Howrah,"Botanical Garden, Howrah - WBPCB",20-11-2025 07:00:00,22.554954,88.292568,PM10,25,139,83
India,West_Bengal,Howrah,"Botanical Garden, Howrah - WBPCB",20-11-2025 07:00:00,22.554954,88.292568,SO2,10,17,12
India,West_Bengal,Asansol,"Evelyn Lodge, Asansol - WBPCB",20-11-2025 07:00:00,23.6979360,86.9443950,PM10,42,137,100
India,West_Bengal,Asansol,"Evelyn Lodge, Asansol - WBPCB",20-11-2025 07:00:00,23.6979360,86.9443950,NH3,3,4,3
India,West_Bengal,Asansol,"Mahabir Colliery, Asansol - WBPCB",20-11-2025 07:00:00,23.6181830,87.1057180,PM10,7,160,95
India,West_Bengal,Howrah,"Dasnagar, Howrah - WBPCB",20-11-2025 07:00:00,22.6025571,88.3105664,PM2.5,29,309,150
India,West_Bengal,Howrah,"Dasnagar, Howrah - WBPCB",20-11-2025 07:00:00,22.6025571,88.3105664,NO2,10,60,39
India,West_Bengal,Howrah,"Padmapukur, Howrah - WBPCB",20-11-2025 07:00:00,22.5687319,88.2797276,PM2.5,NA,NA,NA
India,Uttarakhand,Kashipur,"Govt. Girls Inter College, Kashipur - UKPCB",20-11-2025 07:00:00,29.2124114,78.9611753,NO2,9,44,18
India,Uttarakhand,Kashipur,"Govt. Girls Inter College, Kashipur - UKPCB",20-11-2025 07:00:00,29.2124114,78.9611753,NH3,3,14,6
India,Uttarakhand,Kashipur,"Govt. Girls Inter College, Kashipur - UKPCB",20-11-2025 07:00:00,29.2124114,78.9611753,SO2,NA,NA,NA
India,West_Bengal,Howrah,"Padmapukur, Howrah - WBPCB",20-11-2025 07:00:00,22.5687319,88.2797276,CO,36,88,56
India,West_Bengal,Kolkata,"Ballygunge, Kolkata - WBPCB",20-11-2025 07:00:00,22.5367507,88.3638022,PM10,56,173,130
India,West_Bengal,Kolkata,"Ballygunge, Kolkata - WBPCB",20-11-2025 07:00:00,22.5367507,88.3638022,NO2,28,67,48
India,West_Bengal,Kolkata,"Ballygunge, Kolkata - WBPCB",20-11-2025 07:00:00,22.5367507,88.3638022,NH3,7,13,9
India,West_Bengal,Kolkata,"Ballygunge, Kolkata - WBPCB",20-11-2025 07:00:00,22.5367507,88.3638022,OZONE,6,26,8
India,West_Bengal,Kolkata,"Fort William, Kolkata - WBPCB",20-11-2025 07:00:00,22.556640,88.342674,NO2,15,21,18
India,West_Bengal,Kolkata,"Fort William, Kolkata - WBPCB",20-11-2025 07:00:00,22.556640,88.342674,NH3,9,11,10
India,West_Bengal,Kolkata,"Jadavpur, Kolkata - WBPCB",20-11-2025 07:00:00,22.49929,88.36917,PM2.5,59,349,243
India,West_Bengal,Kolkata,"Jadavpur, Kolkata - WBPCB",20-11-2025 07:00:00,22.49929,88.36917,NH3,3,5,4
India,West_Bengal,Kolkata,"Jadavpur, Kolkata - WBPCB",20-11-2025 07:00:00,22.49929,88.36917,SO2,1,4,2
India,West_Bengal,Kolkata,"Rabindra Bharati University, Kolkata - WBPCB",20-11-2025 07:00:00,22.627847,88.380669,NH3,12,13,12
India,West_Bengal,Kolkata,"Rabindra Sarobar, Kolkata - WBPCB",20-11-2025 07:00:00,22.51106,88.35142,PM2.5,27,167,77
India,West_Bengal,Kolkata,"Rabindra Sarobar, Kolkata - WBPCB",20-11-2025 07:00:00,22.51106,88.35142,NO2,41,226,144
India,West_Bengal,Siliguri,"Ward-32 Bapupara, Siliguri - WBPCB",20-11-2025 07:00:00,26.6879226,88.4152495,NO2,16,24,19
India,West_Bengal,Siliguri,"Ward-32 Bapupara, Siliguri - WBPCB",20-11-2025 07:00:00,26.6879226,88.4152495,NH3,11,11,11
India,West_Bengal,Siliguri,"Ward-32 Bapupara, Siliguri - WBPCB",20-11-2025 07:00:00,26.6879226,88.4152495,OZONE,13,82,16
India,Andhra_Pradesh,Tirumala,"Toll Gate, Tirumala - APPCB",20-11-2025 07:00:00,13.67,79.35,PM2.5,58,98,81
India,Andhra_Pradesh,Tirumala,"Toll Gate, Tirumala - APPCB",20-11-2025 07:00:00,13.67,79.35,PM10,49,76,59
India,Andhra_Pradesh,Tirumala,"Toll Gate, Tirumala - APPCB",20-11-2025 07:00:00,13.67,79.35,SO2,6,7,6
India,Andhra_Pradesh,Tirumala,"Toll Gate, Tirumala - APPCB",20-11-2025 07:00:00,13.67,79.35,OZONE,26,335,310
India,Andhra_Pradesh,Tirupati,"Vaikuntapuram, Tirupati - APPCB",20-11-2025 07:00:00,13.615387,79.409230,PM10,NA,NA,NA
India,Andhra_Pradesh,Tirupati,"Vaikuntapuram, Tirupati - APPCB",20-11-2025 07:00:00,13.615387,79.409230,NO2,NA,NA,NA
India,Andhra_Pradesh,Vijayawada,"HB Colony, Vijayawada - APPCB",20-11-2025 07:00:00,16.536107,80.594233,NO2,21,24,23
India,Andhra_Pradesh,Vijayawada,"Kanuru, Vijayawada - APPCB",20-11-2025 07:00:00,16.486692,80.699436,PM2.5,NA,NA,NA
India,Arunachal_Pradesh,Naharlagun,"Naharlagun, Naharlagun - APSPCB",20-11-2025 07:00:00,27.103358,93.679645,SO2,NA,NA,NA
India,Assam,Byrnihat,"Central Academy for SFS, Byrnihat - PCBA",20-11-2025 07:00:00,26.071318,91.87488,NO2,6,8,7
India,Assam,Guwahati,"IITG, Guwahati - PCBA",20-11-2025 07:00:00,26.2028636,91.70046436,SO2,22,25,24
India,Assam,Guwahati,"IITG, Guwahati - PCBA",20-11-2025 07:00:00,26.2028636,91.70046436,CO,7,20,15
India,Bihar,Bettiah,"Kamalnath Nagar, Bettiah - BSPCB",20-11-2025 07:00:00,26.80365,84.51954,PM2.5,20,92,53
India,Bihar,Bettiah,"Kamalnath Nagar, Bettiah - BSPCB",20-11-2025 07:00:00,26.80365,84.51954,PM10,23,105,61
India,Bihar,Bettiah,"Kamalnath Nagar, Bettiah - BSPCB",20-11-2025 07:00:00,26.80365,84.51954,CO,44,105,98
India,Bihar,Bhagalpur,"DM Office_Kachari Chowk, Bhagalpur - BSPCB",20-11-2025 07:00:00,25.251013,86.989001,PM2.5,8,217,46
India,Bihar,Bhagalpur,"DM Office_Kachari Chowk, Bhagalpur - BSPCB",20-11-2025 07:00:00,25.251013,86.989001,CO,6,28,17
India,Assam,Nalbari,"Bata Chowk, Nalbari - PCBA",20-11-2025 07:00:00,26.446912,91.439057,SO2,2,9,8
India,Assam,Nalbari,"Bata Chowk, Nalbari - PCBA",20-11-2025 07:00:00,26.446912,91.439057,CO,16,82,22
India,Assam,Nalbari,"Bata Chowk, Nalbari - PCBA",20-11-2025 07:00:00,26.446912,91.439057,OZONE,4,24,20
India,Bihar,Araria,"Kharahiya Basti, Araria - BSPCB",20-11-2025 07:00:00,26.146529,87.454184,NO2,4,98,27
India,Bihar,Araria,"Kharahiya Basti, Araria - BSPCB",20-11-2025 07:00:00,26.146529,87.454184,CO,23,34,32
India,Andhra_Pradesh,Amaravati,"Secretariat, Amaravati - APPCB",20-11-2025 07:00:00,16.5150833,80.5181667,PM10,55,157,112
India,Andhra_Pradesh,Amaravati,"Secretariat, Amaravati - APPCB",20-11-2025 07:00:00,16.5150833,80.5181667,SO2,6,27,8
India,Andhra_Pradesh,Anantapur,"Gulzarpet, Anantapur - APPCB",20-11-2025 07:00:00,14.675886,77.593027,PM10,43,103,64
India,Andhra_Pradesh,Anantapur,"Gulzarpet, Anantapur - APPCB",20-11-2025 07:00:00,14.675886,77.593027,OZONE,23,53,35
India,Andhra_Pradesh,Vijayawada,"Kanuru, Vijayawada - APPCB",20-11-2025 07:00:00,16.486692,80.699436,PM10,NA,NA,NA
India,Andhra_Pradesh,Vijayawada,"Rajiv Nagar, Vijayawada - APPCB",20-11-2025 07:00:00,16.554731,80.649110,CO,22,55,33
India,Andhra_Pradesh,Visakhapatnam,"GVM Corporation, Visakhapatnam - APPCB",20-11-2025 07:00:00,17.72,83.3,PM2.5,58,154,93
India,Andhra_Pradesh,Chittoor,"Gangineni Cheruvu, Chittoor - APPCB",20-11-2025 07:00:00,13.204880,79.097889,OZONE,52,58,55
India,Andhra_Pradesh,Kadapa,"Yerramukkapalli, Kadapa - APPCB",20-11-2025 07:00:00,14.465052,78.824187,CO,28,44,41
India,Andhra_Pradesh,Kadapa,"Yerramukkapalli, Kadapa - APPCB",20-11-2025 07:00:00,14.465052,78.824187,OZONE,22,25,23
India,Bihar,Arrah,"New DM Office, Arrah - BSPCB",20-11-2025 07:00:00,25.5626095,84.663264,NO2,5,9,7
India,Bihar,Arrah,"New DM Office, Arrah - BSPCB",20-11-2025 07:00:00,25.5626095,84.663264,OZONE,5,12,9
India,Bihar,Aurangabad,"Gurdeo Nagar, Aurangabad - BSPCB",20-11-2025 07:00:00,24.75746,84.366208,OZONE,1,31,4
India,Assam,Nagaon,"Christianpatty, Nagaon - PCBA",20-11-2025 07:00:00,26.349082,92.68449,NO2,1,1,1
India,Assam,Nagaon,"Christianpatty, Nagaon - PCBA",20-11-2025 07:00:00,26.349082,92.68449,SO2,10,14,12
India,Assam,Guwahati,"LGBI Airport, Guwahati - PCBA",20-11-2025 07:00:00,26.10887,91.589544,OZONE,14,16,16
India,Bihar,Patna,"IGSC Planetarium Complex, Patna - BSPCB",20-11-2025 07:00:00,25.610369,85.132568,PM2.5,5,250,111
India,Bihar,Patna,"Muradpur, Patna - BSPCB",20-11-2025 07:00:00,25.619651,85.147382,PM2.5,54,196,105
India,Bihar,Patna,"Muradpur, Patna - BSPCB",20-11-2025 07:00:00,25.619651,85.147382,PM10,53,118,96
India,Bihar,Patna,"Muradpur, Patna - BSPCB",20-11-2025 07:00:00,25.619651,85.147382,NO2,9,12,11
India,Bihar,Patna,"Muradpur, Patna - BSPCB",20-11-2025 07:00:00,25.619651,85.147382,CO,36,80,50
India,Bihar,Patna,"Muradpur, Patna - BSPCB",20-11-2025 07:00:00,25.619651,85.147382,OZONE,5,40,5
India,Bihar,Patna,"Rajbansi Nagar, Patna - BSPCB",20-11-2025 07:00:00,25.599486,85.113666,NO2,66,213,110
India,Bihar,Patna,"Samanpura, Patna - BSPCB",20-11-2025 07:00:00,25.596727,85.085624,PM10,74,161,120
India,Bihar,Katihar,"Mirchaibari, Katihar - BSPCB",20-11-2025 07:00:00,25.560083,87.553265,PM10,9,66,42
India,Bihar,Katihar,"Mirchaibari, Katihar - BSPCB",20-11-2025 07:00:00,25.560083,87.553265,NH3,1,1,1
India,Bihar,Katihar,"Mirchaibari, Katihar - BSPCB",20-11-2025 07:00:00,25.560083,87.553265,OZONE,4,10,5
India,Bihar,Kishanganj,"SDM Office_Khagra, Kishanganj - BSPCB",20-11-2025 07:00:00,26.0881305,87.93840336,PM10,26,429,98
India,Bihar,Kishanganj,"SDM Office_Khagra, Kishanganj - BSPCB",20-11-2025 07:00:00,26.0881305,87.93840336,CO,16,21,18
India,Bihar,Manguraha,"Forest Rest House, Manguraha - BSPCB",20-11-2025 07:00:00,27.308328,84.531742,PM2.5,7,123,45
India,Chandigarh,Chandigarh,"Sector 22, Chandigarh - CPCC",20-11-2025 07:00:00,30.735567,76.775714,PM2.5,48,283,101
India,Chandigarh,Chandigarh,"Sector-25, Chandigarh - CPCC",20-11-2025 07:00:00,30.751462,76.762879,PM2.5,63,238,120
India,Chandigarh,Chandigarh,"Sector-25, Chandigarh - CPCC",20-11-2025 07:00:00,30.751462,76.762879,PM10,55,172,104
India,Chandigarh,Chandigarh,"Sector-25, Chandigarh - CPCC",20-11-2025 07:00:00,30.751462,76.762879,NO2,14,56,31
India,Chandigarh,Chandigarh,"Sector-25, Chandigarh - CPCC",20-11-2025 07:00:00,30.751462,76.762879,NH3,7,15,10
India,Chandigarh,Chandigarh,"Sector-25, Chandigarh - CPCC",20-11-2025 07:00:00,30.751462,76.762879,SO2,7,12,9
India,Chandigarh,Chandigarh,"Sector-53, Chandigarh - CPCC",20-11-2025 07:00:00,30.719859,76.738637,PM2.5,47,150,80
India,Bihar,Motihari,"Gandak Colony, Motihari - BSPCB",20-11-2025 07:00:00,26.63086,84.90051,SO2,3,3,3
India,Bihar,Munger,"Town Hall, Munger - BSPCB",20-11-2025 07:00:00,25.376776,86.471523,NH3,5,7,6
India,Bihar,Muzaffarpur,"Buddha Colony, Muzaffarpur - BSPCB",20-11-2025 07:00:00,26.11442,85.39813,NH3,7,11,9
India,Bihar,Samastipur,"DM Office_Kasipur, Samastipur - BSPCB",20-11-2025 07:00:00,25.859655,85.77944,SO2,13,29,25
India,Bihar,Sasaram,"Dada Peer, Sasaram - BSPCB",20-11-2025 07:00:00,24.952822,84.002396,NO2,2,5,2
India,Bihar,Patna,"DRM Office Danapur, Patna - BSPCB",20-11-2025 07:00:00,25.586562,85.043586,PM2.5,69,208,146
India,Bihar,Patna,"DRM Office Danapur, Patna - BSPCB",20-11-2025 07:00:00,25.586562,85.043586,NO2,40,97,56
India,Bihar,Patna,"DRM Office Danapur, Patna - BSPCB",20-11-2025 07:00:00,25.586562,85.043586,SO2,8,10,9
India,Bihar,Purnia,"Mariam Nagar, Purnia - BSPCB",20-11-2025 07:00:00,25.366336,87.117468,CO,22,71,53
India,Bihar,Rajgir,"Dangi Tola, Rajgir - BSPCB",20-11-2025 07:00:00,25.03280,85.41948,PM10,48,121,81
India,Bihar,Buxar,"Charitra Van, Buxar - BSPCB",20-11-2025 07:00:00,25.567520,83.966379,NO2,9,10,9
India,Bihar,Chhapra,"Darshan Nagar, Chhapra - BSPCB",20-11-2025 07:00:00,25.7808257,84.7446768,NO2,2,4,3
India,Bihar,Gaya,"SFTI Kusdihra, Gaya - BSPCB",20-11-2025 07:00:00,24.762518,84.982348,PM10,41,74,51
India,Bihar,Gaya,"SFTI Kusdihra, Gaya - BSPCB",20-11-2025 07:00:00,24.762518,84.982348,OZONE,12,50,14
India,Chhattisgarh,Korba,"Rampur, Korba - CECB",20-11-2025 07:00:00,22.368195,82.746431,NH3,2,2,2
India,Chhattisgarh,Korba,"Rampur, Korba - CECB",20-11-2025 07:00:00,22.368195,82.746431,CO,26,42,35
India,Chhattisgarh,Korba,"Rampur, Korba - CECB",20-11-2025 07:00:00,22.368195,82.746431,OZONE,2,5,2
India,Chhattisgarh,Korba,"Urja Nagar, Korba - CECB",20-11-2025 07:00:00,22.348441,82.549611,PM2.5,53,71,55
India,Chhattisgarh,Korba,"Urja Nagar, Korba - CECB",20-11-2025 07:00:00,22.348441,82.549611,PM10,72,73,72
India,Chhattisgarh,Korba,"Urja Nagar, Korba - CECB",20-11-2025 07:00:00,22.348441,82.549611,CO,22,52,36
India,Chhattisgarh,Kunjemura,"OP Jindal School, Kunjemura - CECB",20-11-2025 07:00:00,22.126650,83.483212,PM10,43,116,65
India,Chhattisgarh,Milupara,"Govt. Higher Secondary School, Milupara - CECB",20-11-2025 07:00:00,22.1910172,83.5197009,PM2.5,49,79,68
India,Delhi,Delhi,"Alipur, Delhi - DPCC",20-11-2025 07:00:00,28.815329,77.153010,NO2,33,136,82
India,Delhi,Delhi,"Alipur, Delhi - DPCC",20-11-2025 07:00:00,28.815329,77.153010,OZONE,7,82,7
India,Delhi,Delhi,"Anand Vihar, Delhi - DPCC",20-11-2025 07:00:00,28.647622,77.3158090,OZONE,5,7,6
India,Delhi,Delhi,"Ashok Vihar, Delhi - DPCC",20-11-2025 07:00:00,28.695381,77.181665,PM2.5,345,500,444
India,Delhi,Delhi,"Ashok Vihar, Delhi - DPCC",20-11-2025 07:00:00,28.695381,77.181665,PM10,354,500,436
India,Delhi,Delhi,"Ashok Vihar, Delhi - DPCC",20-11-2025 07:00:00,28.695381,77.181665,CO,34,179,138
India,Delhi,Delhi,"Aya Nagar, Delhi - IMD",20-11-2025 07:00:00,28.4706914,77.1099364,CO,36,116,94
India,Chhattisgarh,Milupara,"Govt. Higher Secondary School, Milupara - CECB",20-11-2025 07:00:00,22.1910172,83.5197009,NO2,15,65,27
India,Chhattisgarh,Raipur,"AIIMS, Raipur - CECB",20-11-2025 07:00:00,21.258815,81.578979,NO2,60,81,69
India,Chhattisgarh,Raipur,"AIIMS, Raipur - CECB",20-11-2025 07:00:00,21.258815,81.578979,NH3,4,5,4
India,Chhattisgarh,Raipur,"Bhatagaon New ISBT, Raipur - CECB",20-11-2025 07:00:00,21.219665,81.630094,PM10,32,111,68
India,Chandigarh,Chandigarh,"Sector-53, Chandigarh - CPCC",20-11-2025 07:00:00,30.719859,76.738637,OZONE,1,95,2
India,Chhattisgarh,Bhilai,"Civic Center, Bhilai - Bhilai Steel Plant",20-11-2025 07:00:00,21.185571,81.343175,CO,28,31,29
India,Chhattisgarh,Bhilai,"Hathkhoj, Bhilai - CECB",20-11-2025 07:00:00,21.224231,81.408350,PM2.5,52,171,96
India,Delhi,Delhi,"DTU, Delhi - CPCB",20-11-2025 07:00:00,28.7500499,77.1112615,OZONE,17,38,17
India,Delhi,Delhi,"Dr. Karni Singh Shooting Range, Delhi - DPCC",20-11-2025 07:00:00,28.498571,77.264840,OZONE,6,169,60
India,Delhi,Delhi,"IGI Airport (T3), Delhi - IMD",20-11-2025 07:00:00,28.5627763,77.1180053,OZONE,1,9,6
India,Chhattisgarh,Bilaspur,"Mangala, Bilaspur - NTPC",20-11-2025 07:00:00,22.08815,82.13737,PM10,86,149,109
India,Chhattisgarh,Chhal,"Nawapara SECL Colony, Chhal - CECB",20-11-2025 07:00:00,22.118125,83.140608,NH3,5,6,5
India,Chhattisgarh,Chhal,"Nawapara SECL Colony, Chhal - CECB",20-11-2025 07:00:00,22.118125,83.140608,SO2,2,69,16
India,Chhattisgarh,Raipur,"Krishak Nagar, Raipur - CECB",20-11-2025 07:00:00,21.237755,81.705301,SO2,6,9,7
India,Chhattisgarh,Tumidih,"OP Jindal Industrial Park, Tumidih - CECB",20-11-2025 07:00:00,22.06631475,83.33820077,PM10,30,465,122
India,Delhi,Delhi,"Bawana, Delhi - DPCC",20-11-2025 07:00:00,28.776200,77.051074,CO,40,147,100
India,Delhi,Delhi,"Burari Crossing, Delhi - IMD",20-11-2025 07:00:00,28.7256504,77.2011573,PM10,204,500,401
India,Delhi,Delhi,"Burari Crossing, Delhi - IMD",20-11-2025 07:00:00,28.7256504,77.2011573,NO2,4,249,81
India,Delhi,Delhi,"DTU, Delhi - CPCB",20-11-2025 07:00:00,28.7500499,77.1112615,PM2.5,315,500,434
India,Delhi,Delhi,"DTU, Delhi - CPCB",20-11-2025 07:00:00,28.7500499,77.1112615,NO2,47,94,65
India,Delhi,Delhi,"Rohini, Delhi - DPCC",20-11-2025 07:00:00,28.732528,77.119920,NO2,42,154,91
India,Delhi,Delhi,"Rohini, Delhi - DPCC",20-11-2025 07:00:00,28.732528,77.119920,OZONE,6,298,8
India,Delhi,Delhi,"Shadipur, Delhi - CPCB",20-11-2025 07:00:00,28.6514781,77.1473105,PM2.5,256,362,298
India,Delhi,Delhi,"Shadipur, Delhi - CPCB",20-11-2025 07:00:00,28.6514781,77.1473105,CO,51,144,118
India,Delhi,Delhi,"Sirifort, Delhi - CPCB",20-11-2025 07:00:00,28.5504249,77.2159377,PM10,213,453,386
India,Delhi,Delhi,"Sirifort, Delhi - CPCB",20-11-2025 07:00:00,28.5504249,77.2159377,SO2,24,31,28
India,Delhi,Delhi,"Sonia Vihar, Delhi - DPCC",20-11-2025 07:00:00,28.710508,77.249485,CO,63,167,133
India,Delhi,Delhi,"Okhla Phase-2, Delhi - DPCC",20-11-2025 07:00:00,28.530785,77.271255,NH3,13,27,18
India,Delhi,Delhi,"Okhla Phase-2, Delhi - DPCC",20-11-2025 07:00:00,28.530785,77.271255,SO2,19,36,28
India,Delhi,Delhi,"Patparganj, Delhi - DPCC",20-11-2025 07:00:00,28.623763,77.287209,CO,18,190,126
India,Delhi,Delhi,"Punjabi Bagh, Delhi - DPCC",20-11-2025 07:00:00,28.674045,77.131023,PM10,259,500,424
India,Delhi,Delhi,"Punjabi Bagh, Delhi - DPCC",20-11-2025 07:00:00,28.674045,77.131023,NH3,5,7,6
India,Gujarat,Ahmedabad,"Chandkheda, Ahmedabad - IITM",20-11-2025 07:00:00,23.107969,72.574648,NH3,NA,NA,NA
India,Gujarat,Ahmedabad,"Gyaspur, Ahmedabad - IITM",20-11-2025 07:00:00,22.977134,72.553024,PM2.5,97,304,192
India,Gujarat,Ahmedabad,"Maninagar, Ahmedabad - GPCB",20-11-2025 07:00:00,23.002657,72.591912,CO,21,55,36
India,Delhi,Delhi,"IHBAS, Dilshad Garden, Delhi - CPCB",20-11-2025 07:00:00,28.6811736,77.3025234,PM10,183,500,308
India,Delhi,Delhi,"IHBAS, Dilshad Garden, Delhi - CPCB",20-11-2025 07:00:00,28.6811736,77.3025234,NH3,5,7,5
India,Delhi,Delhi,"Jahangirpuri, Delhi - DPCC",20-11-2025 07:00:00,28.732820,77.170633,NH3,8,12,10
India,Delhi,Delhi,"Pusa, Delhi - DPCC",20-11-2025 07:00:00,28.639652,77.146275,CO,70,107,102
India,Delhi,Delhi,"R K Puram, Delhi - DPCC",20-11-2025 07:00:00,28.563262,77.186937,PM2.5,328,500,423
India,Delhi,Delhi,"Rohini, Delhi - DPCC",20-11-2025 07:00:00,28.732528,77.119920,PM2.5,331,500,449
India,Delhi,Delhi,"Mundka, Delhi - DPCC",20-11-2025 07:00:00,28.684678,77.076574,NO2,82,188,139
India,Delhi,Delhi,"Mundka, Delhi - DPCC",20-11-2025 07:00:00,28.684678,77.076574,CO,43,139,102
India,Delhi,Delhi,"NSIT Dwarka, Delhi - CPCB",20-11-2025 07:00:00,28.60909,77.0325413,CO,27,56,33
India,Delhi,Delhi,"Narela, Delhi - DPCC",20-11-2025 07:00:00,28.822836,77.101981,SO2,1,37,12
India,Delhi,Delhi,"Narela, Delhi - DPCC",20-11-2025 07:00:00,28.822836,77.101981,CO,9,107,66
India,Delhi,Delhi,"Nehru Nagar, Delhi - DPCC",20-11-2025 07:00:00,28.567890,77.250515,PM10,139,490,358
India,Delhi,Delhi,"Lodhi Road, Delhi - IITM",20-11-2025 07:00:00,28.588333,77.221667,PM2.5,198,320,271
India,Delhi,Delhi,"Major Dhyan Chand National Stadium, Delhi - DPCC",20-11-2025 07:00:00,28.611281,77.237738,PM10,235,426,335
India,Delhi,Delhi,"Sri Aurobindo Marg, Delhi - DPCC",20-11-2025 07:00:00,28.531346,77.190156,NH3,5,7,6
India,Delhi,Delhi,"Sri Aurobindo Marg, Delhi - DPCC",20-11-2025 07:00:00,28.531346,77.190156,OZONE,1,171,2
India,Haryana,Gurugram,"Vikas Sadan, Gurugram - HSPCB",20-11-2025 07:00:00,28.4501238,77.0263051,OZONE,8,35,17
India,Haryana,Hisar,"Urban Estate-II, Hisar - HSPCB",20-11-2025 07:00:00,29.140560,75.744941,PM2.5,70,209,140
India,Haryana,Hisar,"Urban Estate-II, Hisar - HSPCB",20-11-2025 07:00:00,29.140560,75.744941,PM10,117,265,193
India,Haryana,Jind,"Police Lines, Jind - HSPCB",20-11-2025 07:00:00,29.307814,76.337619,CO,2,144,85
India,Haryana,Kaithal,"Rishi Nagar, Kaithal - HSPCB",20-11-2025 07:00:00,29.8006,76.4155,PM2.5,111,258,176
India,Haryana,Kaithal,"Rishi Nagar, Kaithal - HSPCB",20-11-2025 07:00:00,29.8006,76.4155,NO2,29,33,31
India,Haryana,Kaithal,"Rishi Nagar, Kaithal - HSPCB",20-11-2025 07:00:00,29.8006,76.4155,NH3,5,6,6
India,Haryana,Karnal,"Sector-12, Karnal - HSPCB",20-11-2025 07:00:00,29.695300,77.002700,PM2.5,6,396,252
India,Haryana,Karnal,"Sector-12, Karnal - HSPCB",20-11-2025 07:00:00,29.695300,77.002700,PM10,6,339,170
India,Gujarat,Vatva,"Phase-4 GIDC, Vatva - GPCB",20-11-2025 07:00:00,22.969611,72.643500,PM10,77,263,115
India,Gujarat,Vatva,"Phase-4 GIDC, Vatva - GPCB",20-11-2025 07:00:00,22.969611,72.643500,CO,10,44,14
India,Haryana,Ambala,"Patti Mehar, Ambala - HSPCB",20-11-2025 07:00:00,30.379589,76.778328,OZONE,48,53,50
India,Haryana,Ballabgarh,"Nathu Colony, Ballabgarh - HSPCB",20-11-2025 07:00:00,28.3419248,77.319699,PM10,80,145,103
India,Haryana,Bhiwani,"H.B. Colony, Bhiwani - HSPCB",20-11-2025 07:00:00,28.806223,76.141105,PM2.5,NA,NA,NA
India,Haryana,Bhiwani,"H.B. Colony, Bhiwani - HSPCB",20-11-2025 07:00:00,28.806223,76.141105,NH3,NA,NA,NA
India,Haryana,Faridabad,"Sector 11, Faridabad - HSPCB",20-11-2025 07:00:00,28.376058,77.315741,PM10,126,238,168
India,Haryana,Faridabad,"Sector 30, Faridabad - HSPCB",20-11-2025 07:00:00,28.4417,77.3217,PM2.5,206,229,215
India,Haryana,Fatehabad,"Huda Sector, Fatehabad - HSPCB",20-11-2025 07:00:00,29.503664,75.467934,PM2.5,135,329,237
India,Haryana,Fatehabad,"Huda Sector, Fatehabad - HSPCB",20-11-2025 07:00:00,29.503664,75.467934,CO,25,38,30
India,Gujarat,Gandhinagar,"Sector-10, Gandhinagar - GPCB",20-11-2025 07:00:00,23.221714,72.654328,PM2.5,56,107,76
India,Gujarat,Gandhinagar,"Sector-10, Gandhinagar - GPCB",20-11-2025 07:00:00,23.221714,72.654328,NO2,16,43,22
India,Gujarat,Vapi,"Phase-1 GIDC, Vapi - GPCB",20-11-2025 07:00:00,20.362421,72.918013,NH3,5,5,5
India,Gujarat,Vatva,"Phase-4 GIDC, Vatva - GPCB",20-11-2025 07:00:00,22.969611,72.643500,PM2.5,68,280,125
India,Haryana,Gurugram,"NISE Gwal Pahari, Gurugram - IMD",20-11-2025 07:00:00,28.422681,77.148944,CO,46,105,73
India,Haryana,Gurugram,"NISE Gwal Pahari, Gurugram - IMD",20-11-2025 07:00:00,28.422681,77.148944,OZONE,4,122,7
India,Haryana,Gurugram,"Sector-51, Gurugram - HSPCB",20-11-2025 07:00:00,28.4227,77.0667,NO2,4,10,6
India,Haryana,Gurugram,"Sector-51, Gurugram - HSPCB",20-11-2025 07:00:00,28.4227,77.0667,NH3,6,10,8
India,Haryana,Bhiwani,"H.B. Colony, Bhiwani - HSPCB",20-11-2025 07:00:00,28.806223,76.141105,OZONE,NA,NA,NA
India,Haryana,Charkhi Dadri,"Mini Secretariat, Charkhi Dadri - HSPCB",20-11-2025 07:00:00,28.593883,76.270653,PM2.5,NA,NA,NA
India,Haryana,Dharuhera,"Municipal Corporation Office, Dharuhera -  HSPCB",20-11-2025 07:00:00,28.206800,76.799700,NH3,NA,NA,NA
India,Haryana,Mandikhera,"General Hospital, Mandikhera - HSPCB",20-11-2025 07:00:00,27.9002,76.9938,NO2,20,23,22
India,Haryana,Manesar,"Sector-2 IMT, Manesar - HSPCB",20-11-2025 07:00:00,28.360699,76.936090,PM10,104,404,214
India,Haryana,Manesar,"Sector-2 IMT, Manesar - HSPCB",20-11-2025 07:00:00,28.360699,76.936090,NH3,14,19,17
India,Gujarat,Ankleshwar,"GIDC, Ankleshwar - GPCB",20-11-2025 07:00:00,21.613267,73.010555,PM2.5,88,328,247
India,Gujarat,Ankleshwar,"GIDC, Ankleshwar - GPCB",20-11-2025 07:00:00,21.613267,73.010555,CO,66,108,103
India,Gujarat,Gandhinagar,"IIPHG Lekawada, Gandhinagar - IITM",20-11-2025 07:00:00,23.243639,72.68994,SO2,2,10,5
India,Gujarat,Ahmedabad,"Rakhial, Ahmedabad - IITM",20-11-2025 07:00:00,23.016834,72.625775,PM2.5,100,326,196
India,Gujarat,Ahmedabad,"Rakhial, Ahmedabad - IITM",20-11-2025 07:00:00,23.016834,72.625775,OZONE,2,95,25
India,Gujarat,Ahmedabad,"SAC ISRO Bopal, Ahmedabad - IITM",20-11-2025 07:00:00,23.041137,72.456691,CO,27,67,53
India,Haryana,Sonipat,"Murthal, Sonipat - HSPCB",20-11-2025 07:00:00,29.027200,77.062100,SO2,6,12,8
India,Haryana,Yamuna Nagar,"Gobind Pura, Yamuna Nagar - HSPCB",20-11-2025 07:00:00,30.1480566,77.2893471,PM10,106,307,172
India,Haryana,Yamuna Nagar,"Gobind Pura, Yamuna Nagar - HSPCB",20-11-2025 07:00:00,30.1480566,77.2893471,SO2,9,15,12
India,Haryana,Yamuna Nagar,"Gobind Pura, Yamuna Nagar - HSPCB",20-11-2025 07:00:00,30.1480566,77.2893471,OZONE,38,44,38
India,Himachal Pradesh,Baddi,"HIMUDA Complex Phase-1, Baddi - HPPCB",20-11-2025 07:00:00,30.943887,76.801991,NO2,12,94,41
India,Himachal Pradesh,Baddi,"HIMUDA Complex Phase-1, Baddi - HPPCB",20-11-2025 07:00:00,30.943887,76.801991,OZONE,20,173,86
India,Jammu_and_Kashmir,Srinagar,"Rajbagh, Srinagar - JKSPCB",20-11-2025 07:00:00,34.066206,74.819820,PM2.5,69,348,143
India,Karnataka,Bengaluru,"Hombegowda Nagar, Bengaluru - KSPCB",20-11-2025 07:00:00,12.938539,77.590100,CO,13,42,20
India,Karnataka,Bengaluru,"Hombegowda Nagar, Bengaluru - KSPCB",20-11-2025 07:00:00,12.938539,77.590100,OZONE,1,37,17
India,Karnataka,Bengaluru,"Jayanagar 5th Block, Bengaluru - KSPCB",20-11-2025 07:00:00,12.920984,77.584908,PM2.5,23,76,50
India,Karnataka,Bengaluru,"Jayanagar 5th Block, Bengaluru - KSPCB",20-11-2025 07:00:00,12.920984,77.584908,SO2,2,38,12
India,Karnataka,Bengaluru,"Jayanagar 5th Block, Bengaluru - KSPCB",20-11-2025 07:00:00,12.920984,77.584908,CO,2,84,13
India,Karnataka,Bengaluru,"Jayanagar 5th Block, Bengaluru - KSPCB",20-11-2025 07:00:00,12.920984,77.584908,OZONE,7,37,28
India,Karnataka,Bengaluru,"Jigani, Bengaluru - KSPCB",20-11-2025 07:00:00,12.7816279,77.6299145,NH3,3,3,3
India,Karnataka,Bengaluru,"Kasturi Nagar, Bengaluru - KSPCB",20-11-2025 07:00:00,13.003872,77.664217,OZONE,20,21,20
India,Karnataka,Bengaluru,"BWSSB Kadabesanahalli, Bengaluru - CPCB",20-11-2025 07:00:00,12.9352049,77.6814488,CO,18,95,33
India,Karnataka,Bengaluru,"BWSSB Kadabesanahalli, Bengaluru - CPCB",20-11-2025 07:00:00,12.9352049,77.6814488,OZONE,29,29,29
India,Karnataka,Bengaluru,"City Railway Station, Bengaluru - KSPCB",20-11-2025 07:00:00,12.9756843,77.5660749,PM10,97,107,102
India,Karnataka,Bengaluru,"City Railway Station, Bengaluru - KSPCB",20-11-2025 07:00:00,12.9756843,77.5660749,NO2,42,48,45
India,Karnataka,Bengaluru,"Hebbal, Bengaluru - KSPCB",20-11-2025 07:00:00,13.029152,77.585901,SO2,2,7,4
India,Karnataka,Bengaluru,"Hombegowda Nagar, Bengaluru - KSPCB",20-11-2025 07:00:00,12.938539,77.590100,PM10,30,90,63
India,Haryana,Manesar,"Sector-2 IMT, Manesar - HSPCB",20-11-2025 07:00:00,28.360699,76.936090,OZONE,6,51,12
India,Haryana,Narnaul,"Shastri Nagar, Narnaul - HSPCB",20-11-2025 07:00:00,28.060249,76.113115,NO2,21,104,62
India,Haryana,Palwal,"Shyam Nagar, Palwal - HSPCB",20-11-2025 07:00:00,28.1485564,77.3320667,NH3,2,9,5
India,Haryana,Panchgaon,"Amity University, Panchgaon - IITM",20-11-2025 07:00:00,28.3153,76.9143,PM2.5,63,187,108
India,Haryana,Panchgaon,"Amity University, Panchgaon - IITM",20-11-2025 07:00:00,28.3153,76.9143,CO,11,50,38
India,Karnataka,Bengaluru,"Silk Board, Bengaluru - KSPCB",20-11-2025 07:00:00,12.917348,77.622813,CO,31,56,39
India,Karnataka,Bengaluru,"Silk Board, Bengaluru - KSPCB",20-11-2025 07:00:00,12.917348,77.622813,OZONE,10,21,21
India,Karnataka,Chamarajanagar,"Urban, Chamarajanagar - KSPCB",20-11-2025 07:00:00,11.55358,76.55521,PM2.5,19,49,26
India,Karnataka,Chikkamagaluru,"Kalyana Nagara, Chikkamagaluru - KSPCB",20-11-2025 07:00:00,13.328028,75.797056,PM10,30,49,45
India,Karnataka,Davanagere,"Devaraj Urs Badavane, Davanagere - KSPCB",20-11-2025 07:00:00,14.475800,75.905200,NO2,17,35,28
India,Karnataka,Bengaluru,"RVCE-Mailasandra, Bengaluru - KSPCB",20-11-2025 07:00:00,12.921418,77.502466,NH3,3,3,3
India,Karnataka,Bengaluru,"Shivapura_Peenya, Bengaluru - KSPCB",20-11-2025 07:00:00,13.0246342,77.5080115,PM10,53,138,94
India,Karnataka,Bengaluru,"Shivapura_Peenya, Bengaluru - KSPCB",20-11-2025 07:00:00,13.0246342,77.5080115,OZONE,19,20,20
India,Karnataka,Bengaluru,"Silk Board, Bengaluru - KSPCB",20-11-2025 07:00:00,12.917348,77.622813,PM2.5,33,263,77
India,Karnataka,Bengaluru,"Silk Board, Bengaluru - KSPCB",20-11-2025 07:00:00,12.917348,77.622813,PM10,33,222,111
India,Haryana,Rohtak,"MD University, Rohtak - HSPCB",20-11-2025 07:00:00,28.52123,76.37138,NO2,4,7,6
India,Haryana,Rohtak,"MD University, Rohtak - HSPCB",20-11-2025 07:00:00,28.52123,76.37138,SO2,4,6,5
India,Haryana,Rohtak,"MD University, Rohtak - HSPCB",20-11-2025 07:00:00,28.52123,76.37138,CO,17,67,61
India,Haryana,Sirsa,"F-Block, Sirsa - HSPCB",20-11-2025 07:00:00,29.536400,75.015800,OZONE,52,65,56
India,Haryana,Sonipat,"Murthal, Sonipat - HSPCB",20-11-2025 07:00:00,29.027200,77.062100,NO2,15,64,44
India,Karnataka,Bagalkot,"Vidayagiri, Bagalkot - KSPCB",20-11-2025 07:00:00,16.172806,75.659694,PM2.5,35,36,35
India,Karnataka,Belgaum,"Ramteerth Nagar, Belgaum - KSPCB",20-11-2025 07:00:00,15.888653,74.541751,PM10,44,144,76
India,Karnataka,Bengaluru,"BTM Layout, Bengaluru - CPCB",20-11-2025 07:00:00,12.9135218,77.5950804,NO2,62,76,68
India,Karnataka,Bengaluru,"BTM Layout, Bengaluru - CPCB",20-11-2025 07:00:00,12.9135218,77.5950804,CO,40,52,49
India,Jammu_and_Kashmir,Srinagar,"Rajbagh, Srinagar - JKSPCB",20-11-2025 07:00:00,34.066206,74.819820,CO,12,19,13
India,Jharkhand,Dhanbad,"Sardar Patel Nagar, Dhanbad - JSPCB",20-11-2025 07:00:00,23.80569,86.44268,PM10,57,405,114
India,Karnataka,Mysuru,"Hebbal 1st Stage, Mysuru - KSPCB",20-11-2025 07:00:00,12.21041,76.37376,PM10,30,72,52
India,Karnataka,Mysuru,"Hebbal 1st Stage, Mysuru - KSPCB",20-11-2025 07:00:00,12.21041,76.37376,NO2,7,32,21
India,Karnataka,Shivamogga,"Vinoba Nagara, Shivamogga - KSPCB",20-11-2025 07:00:00,13.940000,75.555917,PM2.5,20,37,33
India,Karnataka,Shivamogga,"Vinoba Nagara, Shivamogga - KSPCB",20-11-2025 07:00:00,13.940000,75.555917,NO2,15,124,22
India,Karnataka,Shivamogga,"Vinoba Nagara, Shivamogga - KSPCB",20-11-2025 07:00:00,13.940000,75.555917,NH3,3,36,5
India,Karnataka,Shivamogga,"Vinoba Nagara, Shivamogga - KSPCB",20-11-2025 07:00:00,13.940000,75.555917,CO,15,34,21
India,Karnataka,Udupi,"Brahmagiri, Udupi - KSPCB",20-11-2025 07:00:00,13.34194444,74.74694444,PM2.5,NA,NA,NA
India,Karnataka,Yadgir,"Collector Office, Yadgir - KSPCB",20-11-2025 07:00:00,16.7602,77.1428,PM10,62,128,95
India,Madhya Pradesh,Gwalior,"City Center, Gwalior - MPPCB",20-11-2025 07:00:00,26.203442,78.193251,PM10,114,239,158
India,Madhya Pradesh,Gwalior,"City Center, Gwalior - MPPCB",20-11-2025 07:00:00,26.203442,78.193251,OZONE,28,68,46
India,Madhya Pradesh,Gwalior,"Deen Dayal Nagar, Gwalior - MPPCB",20-11-2025 07:00:00,26.259242,78.216432,SO2,3,50,17
India,Madhya Pradesh,Gwalior,"Maharaj Bada, Gwalior - MPPCB",20-11-2025 07:00:00,26.200388,78.147714,PM2.5,193,409,282
India,Madhya Pradesh,Gwalior,"Maharaj Bada, Gwalior - MPPCB",20-11-2025 07:00:00,26.200388,78.147714,NO2,35,167,84
India,Madhya Pradesh,Gwalior,"Maharaj Bada, Gwalior - MPPCB",20-11-2025 07:00:00,26.200388,78.147714,NH3,4,4,4
India,Madhya Pradesh,Gwalior,"Maharaj Bada, Gwalior - MPPCB",20-11-2025 07:00:00,26.200388,78.147714,CO,4,168,41
India,Madhya Pradesh,Gwalior,"Maharaj Bada, Gwalior - MPPCB",20-11-2025 07:00:00,26.200388,78.147714,OZONE,2,115,6
India,Kerala,Kollam,"Polayathode, Kollam - Kerala PCB",20-11-2025 07:00:00,8.8787,76.6073,SO2,2,3,2
India,Kerala,Thiruvananthapuram,"Kariavattom, Thiruvananthapuram - Kerala PCB",20-11-2025 07:00:00,8.563700,76.886500,PM10,39,46,43
India,Kerala,Thiruvananthapuram,"Kariavattom, Thiruvananthapuram - Kerala PCB",20-11-2025 07:00:00,8.563700,76.886500,NO2,6,7,7
India,Kerala,Thiruvananthapuram,"Plammoodu, Thiruvananthapuram - Kerala PCB",20-11-2025 07:00:00,8.5149093,76.9435879,PM2.5,5,18,11
India,Kerala,Thiruvananthapuram,"Plammoodu, Thiruvananthapuram - Kerala PCB",20-11-2025 07:00:00,8.5149093,76.9435879,NH3,1,10,4
India,Kerala,Thrissur,"Corporation Ground, Thrissur - Kerala PCB",20-11-2025 07:00:00,10.532400,76.215900,OZONE,29,31,29
India,Karnataka,Koppal,"Diwator Nagar, Koppal - KSPCB",20-11-2025 07:00:00,15.347630,76.181767,PM10,38,94,62
India,Karnataka,Koppal,"Diwator Nagar, Koppal - KSPCB",20-11-2025 07:00:00,15.347630,76.181767,NH3,7,7,7
India,Karnataka,Madikeri,"Stuart Hill, Madikeri - KSPCB",20-11-2025 07:00:00,12.415911,75.735050,PM10,8,40,29
India,Karnataka,Madikeri,"Stuart Hill, Madikeri - KSPCB",20-11-2025 07:00:00,12.415911,75.735050,SO2,7,7,7
India,Karnataka,Mangalore,"Kadri, Mangalore - KSPCB",20-11-2025 07:00:00,12.889250,74.853000,NO2,2,6,4
India,Karnataka,Mangalore,"Kadri, Mangalore - KSPCB",20-11-2025 07:00:00,12.889250,74.853000,SO2,15,15,15
India,Karnataka,Mangalore,"Kadri, Mangalore - KSPCB",20-11-2025 07:00:00,12.889250,74.853000,OZONE,4,43,24
India,Madhya Pradesh,Jabalpur,"Govindh Bhavan Colony, Jabalpur - JMC",20-11-2025 07:00:00,23.163174,79.973061,PM2.5,82,309,178
India,Madhya Pradesh,Jabalpur,"Gupteshwar, Jabalpur - JMC",20-11-2025 07:00:00,23.142888,79.916147,PM2.5,57,357,216
India,Madhya Pradesh,Jabalpur,"Gupteshwar, Jabalpur - JMC",20-11-2025 07:00:00,23.142888,79.916147,PM10,83,321,165
India,Madhya Pradesh,Jabalpur,"Gupteshwar, Jabalpur - JMC",20-11-2025 07:00:00,23.142888,79.916147,NH3,9,21,14
India,Madhya Pradesh,Jabalpur,"Marhatal, Jabalpur - MPPCB",20-11-2025 07:00:00,23.168606,79.932247,PM10,93,395,199
India,Madhya Pradesh,Jabalpur,"Marhatal, Jabalpur - MPPCB",20-11-2025 07:00:00,23.168606,79.932247,NO2,27,193,89
India,Madhya Pradesh,Bhopal,"Idgah Hills, Bhopal - MPPCB",20-11-2025 07:00:00,23.264759,77.381568,NO2,20,46,30
India,Madhya Pradesh,Bhopal,"Paryavaran Parisar, Bhopal - MPPCB",20-11-2025 07:00:00,23.210494,77.425409,PM2.5,113,366,244
India,Madhya Pradesh,Bhopal,"T T Nagar, Bhopal - MPPCB",20-11-2025 07:00:00,23.233584,77.400574,NH3,NA,NA,NA
India,Madhya Pradesh,Bhopal,"T T Nagar, Bhopal - MPPCB",20-11-2025 07:00:00,23.233584,77.400574,OZONE,NA,NA,NA
India,Madhya Pradesh,Damoh,"Shrivastav Colony, Damoh - MPPCB",20-11-2025 07:00:00,23.81748678,79.446246,CO,22,24,23
India,Karnataka,Yadgir,"Collector Office, Yadgir - KSPCB",20-11-2025 07:00:00,16.7602,77.1428,SO2,6,17,13
India,Kerala,Kannur,"Thavakkara, Kannur - Kerala PCB",20-11-2025 07:00:00,11.875000,75.373200,PM10,NA,NA,NA
India,Kerala,Kannur,"Thavakkara, Kannur - Kerala PCB",20-11-2025 07:00:00,11.875000,75.373200,OZONE,28,29,28
India,Madhya Pradesh,Indore,"Chhoti Gwaltoli, Indore - MPPCB",20-11-2025 07:00:00,22.4310,75.5213,PM2.5,85,306,223
India,Madhya Pradesh,Indore,"Maguda Nagar, Indore - IMC",20-11-2025 07:00:00,22.7524,75.8872,OZONE,8,19,13
India,Karnataka,Hubballi,"Lingaraj Nagar, Hubballi - KSPCB",20-11-2025 07:00:00,15.3714823,75.1160168,PM10,59,63,60
India,Maharashtra,Kalyan,"Pimpleshwar Mandir, Kalyan - MPCB",20-11-2025 07:00:00,19.192056,72.9585188,CO,44,46,45
India,Maharashtra,Kalyan,"Pimpleshwar Mandir, Kalyan - MPCB",20-11-2025 07:00:00,19.192056,72.9585188,OZONE,6,155,15
India,Maharashtra,Kolhapur,"Shivaji University, Kolhapur - MPCB",20-11-2025 07:00:00,16.6870449,74.2505872,SO2,5,7,6
India,Maharashtra,Kolhapur,"Shivaji University, Kolhapur - MPCB",20-11-2025 07:00:00,16.6870449,74.2505872,CO,16,68,34
India,Maharashtra,Kolhapur,"Shivaji University, Kolhapur - MPCB",20-11-2025 07:00:00,16.6870449,74.2505872,OZONE,1,40,6
India,Maharashtra,Kolhapur,"Sinchan Bhavan, Kolhapur - MPCB",20-11-2025 07:00:00,16.7143745,74.2426398,NO2,22,68,46
India,Maharashtra,Kolhapur,"Sinchan Bhavan, Kolhapur - MPCB",20-11-2025 07:00:00,16.7143745,74.2426398,SO2,1,6,3
India,Maharashtra,Kolhapur,"Sinchan Bhavan, Kolhapur - MPCB",20-11-2025 07:00:00,16.7143745,74.2426398,OZONE,1,50,12
India,Maharashtra,Latur,"Sawe Wadi, Latur - MPCB",20-11-2025 07:00:00,18.39963,76.57452,PM10,70,110,93
India,Maharashtra,Chandrapur,"MIDC Khutala, Chandrapur - MPCB",20-11-2025 07:00:00,19.9775302,79.2337086,OZONE,NA,NA,NA
