country,state,city,station,last_update,latitude,longitude,pollutant_id,min_value,max_value,avg_value
India,Assam,Guwahati,"LGBI Airport, Guwahati - PCBA",10-12-2025 08:00:00,26.10887,91.589544,PM2.5,55,133,98
India,Assam,Guwahati,"LGBI Airport, Guwahati - PCBA",10-12-2025 08:00:00,26.10887,91.589544,PM10,62,124,105
India,Assam,Guwahati,"LGBI Airport, Guwahati - PCBA",10-12-2025 08:00:00,26.10887,91.589544,SO2,5,24,13
India,Assam,Guwahati,"LGBI Airport, Guwahati - PCBA",10-12-2025 08:00:00,26.10887,91.589544,CO,22,63,37
India,Assam,Guwahati,"Railway Colony, Guwahati - PCBA",10-12-2025 08:00:00,26.181742,91.78063,PM2.5,18,351,172
India,Assam,Guwahati,"Railway Colony, Guwahati - PCBA",10-12-2025 08:00:00,26.181742,91.78063,SO2,32,34,33
India,Assam,Nagaon,"Christianpatty, Nagaon - PCBA",10-12-2025 08:00:00,26.349082,92.68449,CO,16,24,23
India,Andaman and Nicobar,Sri Vijaya Puram,"Police Line, Sri Vijaya Puram - ANPCC",10-12-2025 08:00:00,11.654054,92.734055,OZONE,NA,NA,NA
India,Andhra_Pradesh,Amaravati,"Secretariat, Amaravati - APPCB",10-12-2025 08:00:00,16.5150833,80.5181667,PM2.5,95,356,260
India,Andhra_Pradesh,Anantapur,"Gulzarpet, Anantapur - APPCB",10-12-2025 08:00:00,14.675886,77.593027,PM10,41,155,92
India,Andhra_Pradesh,Anantapur,"Gulzarpet, Anantapur - APPCB",10-12-2025 08:00:00,14.675886,77.593027,NH3,5,6,6
India,Andhra_Pradesh,Anantapur,"Gulzarpet, Anantapur - APPCB",10-12-2025 08:00:00,14.675886,77.593027,CO,21,38,30
India,Andhra_Pradesh,Chittoor,"Gangineni Cheruvu, Chittoor - APPCB",10-12-2025 08:00:00,13.204880,79.097889,SO2,NA,NA,NA
India,Andhra_Pradesh,Kadapa,"Yerramukkapalli, Kadapa - APPCB",10-12-2025 08:00:00,14.465052,78.824187,CO,33,52,42
India,Andhra_Pradesh,Rajamahendravaram,"Anand Kala Kshetram, Rajamahendravaram - APPCB",10-12-2025 08:00:00,16.9872867,81.7363176,SO2,11,60,33
India,Andhra_Pradesh,Tirumala,"Toll Gate, Tirumala - APPCB",10-12-2025 08:00:00,13.67,79.35,PM2.5,111,245,181
India,Assam,Nalbari,"Bata Chowk, Nalbari - PCBA",10-12-2025 08:00:00,26.446912,91.439057,SO2,4,8,8
India,Assam,Nalbari,"Bata Chowk, Nalbari - PCBA",10-12-2025 08:00:00,26.446912,91.439057,OZONE,8,16,16
India,Assam,Sivasagar,"Girls College, Sivasagar - PCBA",10-12-2025 08:00:00,26.987634,94.636574,PM2.5,18,97,58
India,Assam,Sivasagar,"Girls College, Sivasagar - PCBA",10-12-2025 08:00:00,26.987634,94.636574,SO2,14,18,16
India,Bihar,Araria,"Kharahiya Basti, Araria - BSPCB",10-12-2025 08:00:00,26.146529,87.454184,NO2,1,57,14
India,Bihar,Araria,"Kharahiya Basti, Araria - BSPCB",10-12-2025 08:00:00,26.146529,87.454184,OZONE,9,10,10
India,Bihar,Aurangabad,"Gurdeo Nagar, Aurangabad - BSPCB",10-12-2025 08:00:00,24.75746,84.366208,NO2,7,8,8
India,Bihar,Begusarai,"Lohiyanagar, Begusarai - BSPCB",10-12-2025 08:00:00,25.42742023,86.13886079,CO,12,43,33
India,Andhra_Pradesh,Visakhapatnam,"GVM Corporation, Visakhapatnam - APPCB",10-12-2025 08:00:00,17.72,83.3,NH3,3,4,3
India,Assam,Byrnihat,"Central Academy for SFS, Byrnihat - PCBA",10-12-2025 08:00:00,26.071318,91.87488,NH3,4,4,4
India,Assam,Guwahati,"IITG, Guwahati - PCBA",10-12-2025 08:00:00,26.2028636,91.70046436,NH3,5,5,5
India,Bihar,Bhagalpur,"DM Office_Kachari Chowk, Bhagalpur - BSPCB",10-12-2025 08:00:00,25.251013,86.989001,NH3,1,1,1
India,Bihar,Bhagalpur,"DM Office_Kachari Chowk, Bhagalpur - BSPCB",10-12-2025 08:00:00,25.251013,86.989001,SO2,46,67,57
India,Bihar,Bhagalpur,"Mayaganj, Bhagalpur - BSPCB",10-12-2025 08:00:00,25.265194,87.012947,CO,38,104,88
India,Bihar,Gaya,"SFTI Kusdihra, Gaya - BSPCB",10-12-2025 08:00:00,24.762518,84.982348,PM10,44,101,75
India,Bihar,Gaya,"SFTI Kusdihra, Gaya - BSPCB",10-12-2025 08:00:00,24.762518,84.982348,SO2,8,10,8
India,Bihar,Katihar,"Mirchaibari, Katihar - BSPCB",10-12-2025 08:00:00,25.560083,87.553265,SO2,15,23,19
India,Bihar,Chhapra,"Darshan Nagar, Chhapra - BSPCB",10-12-2025 08:00:00,25.7808257,84.7446768,NH3,6,9,8
India,Bihar,Gaya,"Collectorate, Gaya - BSPCB",10-12-2025 08:00:00,24.7955,84.9994,SO2,8,28,13
India,Andhra_Pradesh,Tirupati,"Vaikuntapuram, Tirupati - APPCB",10-12-2025 08:00:00,13.615387,79.409230,SO2,12,19,18
India,Andhra_Pradesh,Vijayawada,"Kanuru, Vijayawada - APPCB",10-12-2025 08:00:00,16.486692,80.699436,CO,24,66,51
India,Bihar,Rajgir,"Dangi Tola, Rajgir - BSPCB",10-12-2025 08:00:00,25.03280,85.41948,NO2,8,10,9
India,Bihar,Rajgir,"Dangi Tola, Rajgir - BSPCB",10-12-2025 08:00:00,25.03280,85.41948,OZONE,29,35,32
India,Bihar,Saharsa,"Police Line, Saharsa - BSPCB",10-12-2025 08:00:00,25.892357,86.590325,NH3,4,4,4
India,Bihar,Saharsa,"Police Line, Saharsa - BSPCB",10-12-2025 08:00:00,25.892357,86.590325,CO,32,46,35
India,Bihar,Samastipur,"DM Office_Kasipur, Samastipur - BSPCB",10-12-2025 08:00:00,25.859655,85.77944,PM2.5,62,332,177
India,Bihar,Samastipur,"DM Office_Kasipur, Samastipur - BSPCB",10-12-2025 08:00:00,25.859655,85.77944,PM10,51,169,102
India,Bihar,Samastipur,"DM Office_Kasipur, Samastipur - BSPCB",10-12-2025 08:00:00,25.859655,85.77944,NO2,7,10,8
India,Bihar,Samastipur,"DM Office_Kasipur, Samastipur - BSPCB",10-12-2025 08:00:00,25.859655,85.77944,NH3,1,2,1
India,Chandigarh,Chandigarh,"Sector-53, Chandigarh - CPCC",10-12-2025 08:00:00,30.719859,76.738637,PM10,88,161,116
India,Chandigarh,Chandigarh,"Sector-53, Chandigarh - CPCC",10-12-2025 08:00:00,30.719859,76.738637,SO2,10,18,14
India,Chhattisgarh,Bhilai,"32Bungalows, Bhilai - CECB",10-12-2025 08:00:00,21.194815,81.314770,PM2.5,12,42,27
India,Chhattisgarh,Bhilai,"32Bungalows, Bhilai - CECB",10-12-2025 08:00:00,21.194815,81.314770,PM10,24,103,61
India,Chhattisgarh,Bhilai,"32Bungalows, Bhilai - CECB",10-12-2025 08:00:00,21.194815,81.314770,NO2,19,107,53
India,Chhattisgarh,Bhilai,"Civic Center, Bhilai - Bhilai Steel Plant",10-12-2025 08:00:00,21.185571,81.343175,NH3,5,67,17
India,Chhattisgarh,Bhilai,"Hathkhoj, Bhilai - CECB",10-12-2025 08:00:00,21.224231,81.408350,PM2.5,25,148,67
India,Bihar,Sasaram,"Dada Peer, Sasaram - BSPCB",10-12-2025 08:00:00,24.952822,84.002396,SO2,3,6,5
India,Bihar,Sasaram,"Dada Peer, Sasaram - BSPCB",10-12-2025 08:00:00,24.952822,84.002396,OZONE,16,31,17
India,Bihar,Siwan,"Chitragupta Nagar, Siwan - BSPCB",10-12-2025 08:00:00,26.2271665,84.3570427,NO2,1,3,1
India,Chandigarh,Chandigarh,"Sector 22, Chandigarh - CPCC",10-12-2025 08:00:00,30.735567,76.775714,PM2.5,98,308,216
India,Chandigarh,Chandigarh,"Sector 22, Chandigarh - CPCC",10-12-2025 08:00:00,30.735567,76.775714,SO2,8,18,12
India,Chandigarh,Chandigarh,"Sector-25, Chandigarh - CPCC",10-12-2025 08:00:00,30.751462,76.762879,NO2,NA,NA,NA
India,Chandigarh,Chandigarh,"Sector-25, Chandigarh - CPCC",10-12-2025 08:00:00,30.751462,76.762879,OZONE,8,80,13
India,Bihar,Patna,"Govt. High School Shikarpur, Patna - BSPCB",10-12-2025 08:00:00,25.592539,85.227158,NO2,21,45,31
India,Bihar,Patna,"IGSC Planetarium Complex, Patna - BSPCB",10-12-2025 08:00:00,25.610369,85.132568,PM2.5,142,336,232
India,Bihar,Patna,"IGSC Planetarium Complex, Patna - BSPCB",10-12-2025 08:00:00,25.610369,85.132568,OZONE,28,30,29
India,Bihar,Patna,"Muradpur, Patna - BSPCB",10-12-2025 08:00:00,25.619651,85.147382,NO2,5,9,7
India,Bihar,Patna,"Muradpur, Patna - BSPCB",10-12-2025 08:00:00,25.619651,85.147382,SO2,8,10,9
India,Bihar,Patna,"Muradpur, Patna - BSPCB",10-12-2025 08:00:00,25.619651,85.147382,CO,36,84,53
India,Bihar,Patna,"Muradpur, Patna - BSPCB",10-12-2025 08:00:00,25.619651,85.147382,OZONE,5,23,5
India,Chhattisgarh,Kunjemura,"OP Jindal School, Kunjemura - CECB",10-12-2025 08:00:00,22.126650,83.483212,SO2,1,37,15
India,Chhattisgarh,Kunjemura,"OP Jindal School, Kunjemura - CECB",10-12-2025 08:00:00,22.126650,83.483212,CO,11,51,42
India,Chhattisgarh,Milupara,"Govt. Higher Secondary School, Milupara - CECB",10-12-2025 08:00:00,22.1910172,83.5197009,PM2.5,34,116,70
India,Chhattisgarh,Raipur,"AIIMS, Raipur - CECB",10-12-2025 08:00:00,21.258815,81.578979,NO2,66,91,77
India,Chhattisgarh,Chhal,"Nawapara SECL Colony, Chhal - CECB",10-12-2025 08:00:00,22.118125,83.140608,PM2.5,44,90,60
India,Chhattisgarh,Chhal,"Nawapara SECL Colony, Chhal - CECB",10-12-2025 08:00:00,22.118125,83.140608,NO2,9,23,13
India,Chhattisgarh,Chhal,"Nawapara SECL Colony, Chhal - CECB",10-12-2025 08:00:00,22.118125,83.140608,NH3,6,6,6
India,Chhattisgarh,Korba,"Rampur, Korba - CECB",10-12-2025 08:00:00,22.368195,82.746431,NO2,19,36,24
India,Chhattisgarh,Korba,"Rampur, Korba - CECB",10-12-2025 08:00:00,22.368195,82.746431,OZONE,2,13,2
India,Bihar,Kishanganj,"SDM Office_Khagra, Kishanganj - BSPCB",10-12-2025 08:00:00,26.0881305,87.93840336,CO,16,25,18
India,Bihar,Manguraha,"Forest Rest House, Manguraha - BSPCB",10-12-2025 08:00:00,27.308328,84.531742,NO2,4,13,7
India,Bihar,Motihari,"Gandak Colony, Motihari - BSPCB",10-12-2025 08:00:00,26.63086,84.90051,SO2,2,3,3
India,Bihar,Muzaffarpur,"MIT-Daudpur Kothi, Muzaffarpur - BSPCB",10-12-2025 08:00:00,26.1403345,85.3650192,NO2,1,4,1
India,Bihar,Muzaffarpur,"MIT-Daudpur Kothi, Muzaffarpur - BSPCB",10-12-2025 08:00:00,26.1403345,85.3650192,CO,46,68,68
India,Bihar,Muzaffarpur,"Muzaffarpur Collectorate, Muzaffarpur - BSPCB",10-12-2025 08:00:00,26.1209,85.3647,NO2,9,19,11
India,Bihar,Patna,"Rajbansi Nagar, Patna - BSPCB",10-12-2025 08:00:00,25.599486,85.113666,PM10,103,192,145
India,Bihar,Patna,"Samanpura, Patna - BSPCB",10-12-2025 08:00:00,25.596727,85.085624,NO2,20,21,21
India,Bihar,Patna,"Samanpura, Patna - BSPCB",10-12-2025 08:00:00,25.596727,85.085624,NH3,5,5,5
India,Delhi,Delhi,"Ashok Vihar, Delhi - DPCC",10-12-2025 08:00:00,28.695381,77.181665,SO2,10,31,18
India,Delhi,Delhi,"Ashok Vihar, Delhi - DPCC",10-12-2025 08:00:00,28.695381,77.181665,CO,23,115,40
India,Delhi,Delhi,"Ashok Vihar, Delhi - DPCC",10-12-2025 08:00:00,28.695381,77.181665,OZONE,4,96,18
India,Delhi,Delhi,"Aya Nagar, Delhi - IMD",10-12-2025 08:00:00,28.4706914,77.1099364,PM10,133,234,173
India,Delhi,Delhi,"Aya Nagar, Delhi - IMD",10-12-2025 08:00:00,28.4706914,77.1099364,NO2,2,27,14
India,Delhi,Delhi,"Bawana, Delhi - DPCC",10-12-2025 08:00:00,28.776200,77.051074,NH3,3,5,4
India,Delhi,Delhi,"Bawana, Delhi - DPCC",10-12-2025 08:00:00,28.776200,77.051074,SO2,10,34,20
India,Delhi,Delhi,"Burari Crossing, Delhi - IMD",10-12-2025 08:00:00,28.7256504,77.2011573,NO2,42,123,82
India,Delhi,Delhi,"Burari Crossing, Delhi - IMD",10-12-2025 08:00:00,28.7256504,77.2011573,CO,12,109,34
India,Delhi,Delhi,"CRRI Mathura Road, Delhi - IMD",10-12-2025 08:00:00,28.5512005,77.2735737,NO2,38,47,41
India,Delhi,Delhi,"Chandni Chowk, Delhi - IITM",10-12-2025 08:00:00,28.656756,77.227234,PM10,140,429,270
India,Delhi,Delhi,"DTU, Delhi - CPCB",10-12-2025 08:00:00,28.7500499,77.1112615,PM2.5,83,438,299
India,Delhi,Delhi,"DTU, Delhi - CPCB",10-12-2025 08:00:00,28.7500499,77.1112615,PM10,108,400,197
India,Delhi,Delhi,"DTU, Delhi - CPCB",10-12-2025 08:00:00,28.7500499,77.1112615,NH3,9,13,10
India,Delhi,Delhi,"DTU, Delhi - CPCB",10-12-2025 08:00:00,28.7500499,77.1112615,CO,13,64,43
India,Delhi,Delhi,"Dwarka-Sector 8, Delhi - DPCC ",10-12-2025 08:00:00,28.5710274,77.0719006,PM2.5,103,338,272
India,Delhi,Delhi,"Dwarka-Sector 8, Delhi - DPCC ",10-12-2025 08:00:00,28.5710274,77.0719006,NH3,16,20,18
India,Delhi,Delhi,"Dwarka-Sector 8, Delhi - DPCC ",10-12-2025 08:00:00,28.5710274,77.0719006,SO2,22,49,32
India,Chhattisgarh,Raipur,"AIIMS, Raipur - CECB",10-12-2025 08:00:00,21.258815,81.578979,SO2,4,10,6
India,Chhattisgarh,Raipur,"Bhatagaon New ISBT, Raipur - CECB",10-12-2025 08:00:00,21.219665,81.630094,OZONE,3,16,3
India,Chhattisgarh,Raipur,"Krishak Nagar, Raipur - CECB",10-12-2025 08:00:00,21.237755,81.705301,SO2,5,9,7
India,Chhattisgarh,Raipur,"Krishak Nagar, Raipur - CECB",10-12-2025 08:00:00,21.237755,81.705301,OZONE,NA,NA,NA
India,Chhattisgarh,Raipur,"Siltara Phase-II, Raipur - CECB",10-12-2025 08:00:00,21.371751,81.664929,SO2,4,5,4
India,Delhi,Delhi,"Patparganj, Delhi - DPCC",10-12-2025 08:00:00,28.623763,77.287209,SO2,2,12,7
India,Delhi,Delhi,"Patparganj, Delhi - DPCC",10-12-2025 08:00:00,28.623763,77.287209,CO,2,109,31
India,Delhi,Delhi,"Patparganj, Delhi - DPCC",10-12-2025 08:00:00,28.623763,77.287209,OZONE,2,147,11
India,Delhi,Delhi,"Punjabi Bagh, Delhi - DPCC",10-12-2025 08:00:00,28.674045,77.131023,OZONE,5,67,14
India,Delhi,Delhi,"Pusa, Delhi - DPCC",10-12-2025 08:00:00,28.639652,77.146275,NH3,4,19,11
India,Delhi,Delhi,"Pusa, Delhi - DPCC",10-12-2025 08:00:00,28.639652,77.146275,OZONE,13,20,17
India,Delhi,Delhi,"Lodhi Road, Delhi - IITM",10-12-2025 08:00:00,28.588333,77.221667,PM10,113,192,147
India,Delhi,Delhi,"Lodhi Road, Delhi - IMD",10-12-2025 08:00:00,28.5918245,77.2273074,CO,16,56,33
India,Delhi,Delhi,"Lodhi Road, Delhi - IMD",10-12-2025 08:00:00,28.5918245,77.2273074,OZONE,4,92,7
India,Delhi,Delhi,"Major Dhyan Chand National Stadium, Delhi - DPCC",10-12-2025 08:00:00,28.611281,77.237738,PM10,125,258,192
India,Delhi,Delhi,"Alipur, Delhi - DPCC",10-12-2025 08:00:00,28.815329,77.153010,NH3,7,10,8
India,Delhi,Delhi,"Anand Vihar, Delhi - DPCC",10-12-2025 08:00:00,28.647622,77.3158090,NO2,48,170,107
India,Delhi,Delhi,"Anand Vihar, Delhi - DPCC",10-12-2025 08:00:00,28.647622,77.3158090,NH3,10,14,12
India,Delhi,Delhi,"Ashok Vihar, Delhi - DPCC",10-12-2025 08:00:00,28.695381,77.181665,PM10,142,361,216
India,Delhi,Delhi,"Nehru Nagar, Delhi - DPCC",10-12-2025 08:00:00,28.567890,77.250515,PM10,133,476,231
India,Delhi,Delhi,"Nehru Nagar, Delhi - DPCC",10-12-2025 08:00:00,28.567890,77.250515,CO,106,124,111
India,Delhi,Delhi,"North Campus, DU, Delhi - IMD",10-12-2025 08:00:00,28.6573814,77.1585447,PM2.5,84,353,250
India,Delhi,Delhi,"North Campus, DU, Delhi - IMD",10-12-2025 08:00:00,28.6573814,77.1585447,PM10,122,295,183
India,Delhi,Delhi,"IHBAS, Dilshad Garden, Delhi - CPCB",10-12-2025 08:00:00,28.6811736,77.3025234,CO,36,109,46
India,Delhi,Delhi,"ITO, Delhi - CPCB",10-12-2025 08:00:00,28.628624,77.241060,NH3,2,4,3
India,Delhi,Delhi,"Jahangirpuri, Delhi - DPCC",10-12-2025 08:00:00,28.732820,77.170633,PM10,175,408,241
India,Delhi,Delhi,"Mundka, Delhi - DPCC",10-12-2025 08:00:00,28.684678,77.076574,PM2.5,80,417,311
India,Delhi,Delhi,"Mundka, Delhi - DPCC",10-12-2025 08:00:00,28.684678,77.076574,CO,46,105,65
India,Delhi,Delhi,"NSIT Dwarka, Delhi - CPCB",10-12-2025 08:00:00,28.60909,77.0325413,OZONE,7,65,7
India,Delhi,Delhi,"Sirifort, Delhi - CPCB",10-12-2025 08:00:00,28.5504249,77.2159377,PM10,136,412,214
India,Delhi,Delhi,"Sonia Vihar, Delhi - DPCC",10-12-2025 08:00:00,28.710508,77.249485,PM10,129,341,204
India,Delhi,Delhi,"Sonia Vihar, Delhi - DPCC",10-12-2025 08:00:00,28.710508,77.249485,SO2,13,38,21
India,Delhi,Delhi,"Sri Aurobindo Marg, Delhi - DPCC",10-12-2025 08:00:00,28.531346,77.190156,CO,54,86,70
India,Delhi,Delhi,"Vivek Vihar, Delhi - DPCC",10-12-2025 08:00:00,28.672342,77.315260,NO2,43,128,76
India,Delhi,Delhi,"Vivek Vihar, Delhi - DPCC",10-12-2025 08:00:00,28.672342,77.315260,SO2,12,35,18
India,Delhi,Delhi,"Vivek Vihar, Delhi - DPCC",10-12-2025 08:00:00,28.672342,77.315260,CO,46,112,68
India,Delhi,Delhi,"Wazirpur, Delhi - DPCC",10-12-2025 08:00:00,28.699793,77.165453,PM2.5,130,401,305
India,Gujarat,Surat,"Science Center, Surat - SMC",10-12-2025 08:00:00,21.170046,72.795405,PM10,11,113,61
India,Gujarat,Vapi,"Phase-1 GIDC, Vapi - GPCB",10-12-2025 08:00:00,20.362421,72.918013,PM10,15,156,70
India,Gujarat,Vapi,"Phase-1 GIDC, Vapi - GPCB",10-12-2025 08:00:00,20.362421,72.918013,NO2,1,23,13
India,Gujarat,Vatva,"Phase-4 GIDC, Vatva - GPCB",10-12-2025 08:00:00,22.969611,72.643500,PM10,47,134,89
India,Gujarat,Vatva,"Phase-4 GIDC, Vatva - GPCB",10-12-2025 08:00:00,22.969611,72.643500,CO,8,22,13
India,Haryana,Ambala,"Patti Mehar, Ambala - HSPCB",10-12-2025 08:00:00,30.379589,76.778328,PM10,67,103,81
India,Haryana,Ambala,"Patti Mehar, Ambala - HSPCB",10-12-2025 08:00:00,30.379589,76.778328,NH3,9,11,10
India,Haryana,Ambala,"Patti Mehar, Ambala - HSPCB",10-12-2025 08:00:00,30.379589,76.778328,OZONE,48,52,50
India,Haryana,Ballabgarh,"Nathu Colony, Ballabgarh - HSPCB",10-12-2025 08:00:00,28.3419248,77.319699,OZONE,14,16,15
India,Haryana,Bhiwani,"H.B. Colony, Bhiwani - HSPCB",10-12-2025 08:00:00,28.806223,76.141105,PM10,114,122,118
India,Haryana,Bhiwani,"H.B. Colony, Bhiwani - HSPCB",10-12-2025 08:00:00,28.806223,76.141105,OZONE,10,20,14
India,Haryana,Charkhi Dadri,"Mini Secretariat, Charkhi Dadri - HSPCB",10-12-2025 08:00:00,28.593883,76.270653,PM2.5,119,347,189
India,Haryana,Charkhi Dadri,"Mini Secretariat, Charkhi Dadri - HSPCB",10-12-2025 08:00:00,28.593883,76.270653,NO2,9,22,15
India,Haryana,Charkhi Dadri,"Mini Secretariat, Charkhi Dadri - HSPCB",10-12-2025 08:00:00,28.593883,76.270653,NH3,5,8,6
India,Gujarat,Ahmedabad,"SVPI Airport Hansol, Ahmedabad - IITM",10-12-2025 08:00:00,23.076793,72.627874,NO2,21,127,68
India,Gujarat,Ankleshwar,"GIDC, Ankleshwar - GPCB",10-12-2025 08:00:00,21.613267,73.010555,NO2,23,28,25
India,Gujarat,Ankleshwar,"GIDC, Ankleshwar - GPCB",10-12-2025 08:00:00,21.613267,73.010555,NH3,7,8,7
India,Gujarat,Gandhinagar,"Sector-10, Gandhinagar - GPCB",10-12-2025 08:00:00,23.221714,72.654328,PM10,62,116,85
India,Gujarat,Nandesari,"GIDC, Nandesari - Nandesari Ind. Association",10-12-2025 08:00:00,22.410802,73.097923,PM2.5,57,320,170
India,Haryana,Fatehabad,"Huda Sector, Fatehabad - HSPCB",10-12-2025 08:00:00,29.503664,75.467934,PM10,114,175,138
India,Haryana,Fatehabad,"Huda Sector, Fatehabad - HSPCB",10-12-2025 08:00:00,29.503664,75.467934,NH3,13,15,14
India,Haryana,Gurugram,"NISE Gwal Pahari, Gurugram - IMD",10-12-2025 08:00:00,28.422681,77.148944,PM10,137,358,202
India,Haryana,Gurugram,"Teri Gram, Gurugram - HSPCB",10-12-2025 08:00:00,28.4275,77.1465,NH3,11,20,14
India,Haryana,Gurugram,"Teri Gram, Gurugram - HSPCB",10-12-2025 08:00:00,28.4275,77.1465,SO2,NA,NA,NA
India,Gujarat,Ahmedabad,"Rakhial, Ahmedabad - IITM",10-12-2025 08:00:00,23.016834,72.625775,OZONE,1,75,8
India,Gujarat,Ahmedabad,"SAC ISRO Bopal, Ahmedabad - IITM",10-12-2025 08:00:00,23.041137,72.456691,PM10,92,168,124
India,Gujarat,Ahmedabad,"SAC ISRO Bopal, Ahmedabad - IITM",10-12-2025 08:00:00,23.041137,72.456691,CO,2,30,19
India,Gujarat,Ahmedabad,"SAC ISRO Satellite, Ahmedabad - IITM",10-12-2025 08:00:00,23.023389,72.515201,NO2,16,75,37
India,Gujarat,Ahmedabad,"SAC ISRO Satellite, Ahmedabad - IITM",10-12-2025 08:00:00,23.023389,72.515201,CO,7,88,52
India,Haryana,Charkhi Dadri,"Mini Secretariat, Charkhi Dadri - HSPCB",10-12-2025 08:00:00,28.593883,76.270653,CO,6,25,17
India,Haryana,Faridabad,"New Industrial Town, Faridabad - HSPCB",10-12-2025 08:00:00,28.39072,77.30059,OZONE,27,34,30
India,Haryana,Faridabad,"Sector 11, Faridabad - HSPCB",10-12-2025 08:00:00,28.376058,77.315741,OZONE,14,15,14
India,Delhi,Delhi,"Wazirpur, Delhi - DPCC",10-12-2025 08:00:00,28.699793,77.165453,NO2,53,124,84
India,Gujarat,Ahmedabad,"Chandkheda, Ahmedabad - IITM",10-12-2025 08:00:00,23.107969,72.574648,CO,27,103,49
India,Gujarat,Ahmedabad,"Gyaspur, Ahmedabad - IITM",10-12-2025 08:00:00,22.977134,72.553024,CO,48,126,75
India,Delhi,Delhi,"Pusa, Delhi - IMD",10-12-2025 08:00:00,28.636110,77.173332,NO2,9,121,60
India,Delhi,Delhi,"R K Puram, Delhi - DPCC",10-12-2025 08:00:00,28.563262,77.186937,PM10,146,238,182
India,Delhi,Delhi,"R K Puram, Delhi - DPCC",10-12-2025 08:00:00,28.563262,77.186937,SO2,1,10,4
India,Haryana,Gurugram,"Vikas Sadan, Gurugram - HSPCB",10-12-2025 08:00:00,28.4501238,77.0263051,NO2,9,46,26
India,Haryana,Gurugram,"Vikas Sadan, Gurugram - HSPCB",10-12-2025 08:00:00,28.4501238,77.0263051,SO2,2,8,5
India,Haryana,Gurugram,"Vikas Sadan, Gurugram - HSPCB",10-12-2025 08:00:00,28.4501238,77.0263051,OZONE,8,55,18
India,Haryana,Hisar,"Urban Estate-II, Hisar - HSPCB",10-12-2025 08:00:00,29.140560,75.744941,CO,55,72,56
India,Haryana,Jind,"Police Lines, Jind - HSPCB",10-12-2025 08:00:00,29.307814,76.337619,PM2.5,132,500,288
India,Haryana,Jind,"Police Lines, Jind - HSPCB",10-12-2025 08:00:00,29.307814,76.337619,NH3,1,3,2
India,Haryana,Jind,"Police Lines, Jind - HSPCB",10-12-2025 08:00:00,29.307814,76.337619,SO2,NA,NA,NA
India,Haryana,Kaithal,"Rishi Nagar, Kaithal - HSPCB",10-12-2025 08:00:00,29.8006,76.4155,SO2,28,34,31
India,Haryana,Kaithal,"Rishi Nagar, Kaithal - HSPCB",10-12-2025 08:00:00,29.8006,76.4155,OZONE,6,17,9
India,Haryana,Sonipat,"Murthal, Sonipat - HSPCB",10-12-2025 08:00:00,29.027200,77.062100,NO2,24,50,42
India,Haryana,Sonipat,"Murthal, Sonipat - HSPCB",10-12-2025 08:00:00,29.027200,77.062100,SO2,7,10,8
India,Haryana,Yamuna Nagar,"Gobind Pura, Yamuna Nagar - HSPCB",10-12-2025 08:00:00,30.1480566,77.2893471,SO2,10,15,12
India,Haryana,Yamuna Nagar,"Gobind Pura, Yamuna Nagar - HSPCB",10-12-2025 08:00:00,30.1480566,77.2893471,OZONE,8,35,9
India,Himachal Pradesh,Baddi,"HIMUDA Complex Phase-1, Baddi - HPPCB",10-12-2025 08:00:00,30.943887,76.801991,PM2.5,52,317,231
India,Himachal Pradesh,Baddi,"HIMUDA Complex Phase-1, Baddi - HPPCB",10-12-2025 08:00:00,30.943887,76.801991,NO2,46,105,72
India,Himachal Pradesh,Baddi,"HIMUDA Complex Phase-1, Baddi - HPPCB",10-12-2025 08:00:00,30.943887,76.801991,OZONE,16,185,32
India,Haryana,Panchkula,"Sector-6, Panchkula - HSPCB ",10-12-2025 08:00:00,30.7057778,76.8531805555555,CO,20,22,20
India,Haryana,Panipat,"Sector-18, Panipat - HSPCB",10-12-2025 08:00:00,29.432304,76.972765,PM10,NA,NA,NA
India,Haryana,Panipat,"Sector-18, Panipat - HSPCB",10-12-2025 08:00:00,29.432304,76.972765,OZONE,NA,NA,NA
India,Haryana,Rohtak,"MD University, Rohtak - HSPCB",10-12-2025 08:00:00,28.52123,76.37138,NO2,10,12,11
India,Haryana,Sirsa,"F-Block, Sirsa - HSPCB",10-12-2025 08:00:00,29.536400,75.015800,NO2,13,20,16
India,Haryana,Sirsa,"F-Block, Sirsa - HSPCB",10-12-2025 08:00:00,29.536400,75.015800,SO2,11,21,14
India,Haryana,Sirsa,"F-Block, Sirsa - HSPCB",10-12-2025 08:00:00,29.536400,75.015800,CO,26,54,43
India,Haryana,Sirsa,"F-Block, Sirsa - HSPCB",10-12-2025 08:00:00,29.536400,75.015800,OZONE,20,29,22
India,Haryana,Palwal,"Shyam Nagar, Palwal - HSPCB",10-12-2025 08:00:00,28.1485564,77.3320667,CO,12,41,29
India,Haryana,Palwal,"Shyam Nagar, Palwal - HSPCB",10-12-2025 08:00:00,28.1485564,77.3320667,OZONE,24,25,24
India,Haryana,Panchgaon,"Amity University, Panchgaon - IITM",10-12-2025 08:00:00,28.3153,76.9143,SO2,NA,NA,NA
India,Haryana,Panchgaon,"Amity University, Panchgaon - IITM",10-12-2025 08:00:00,28.3153,76.9143,CO,NA,NA,NA
India,Haryana,Panchkula,"Sector-6, Panchkula - HSPCB ",10-12-2025 08:00:00,30.7057778,76.8531805555555,PM2.5,57,245,126
India,Karnataka,Bengaluru,"City Railway Station, Bengaluru - KSPCB",10-12-2025 08:00:00,12.9756843,77.5660749,PM10,87,88,88
India,Karnataka,Bengaluru,"Hebbal, Bengaluru - KSPCB",10-12-2025 08:00:00,13.029152,77.585901,PM10,64,118,86
India,Karnataka,Bengaluru,"Hebbal, Bengaluru - KSPCB",10-12-2025 08:00:00,13.029152,77.585901,SO2,5,9,7
India,Karnataka,Bengaluru,"Jayanagar 5th Block, Bengaluru - KSPCB",10-12-2025 08:00:00,12.920984,77.584908,PM2.5,33,87,64
India,Haryana,Karnal,"Sector-12, Karnal - HSPCB",10-12-2025 08:00:00,29.695300,77.002700,NH3,6,6,6
India,Haryana,Karnal,"Sector-12, Karnal - HSPCB",10-12-2025 08:00:00,29.695300,77.002700,SO2,6,43,26
India,Haryana,Kurukshetra,"Sector-7, Kurukshetra - HSPCB",10-12-2025 08:00:00,29.966942,76.875879,NH3,5,5,5
India,Haryana,Manesar,"Sector-2 IMT, Manesar - HSPCB",10-12-2025 08:00:00,28.360699,76.936090,CO,20,47,30
India,Karnataka,Bengaluru,"BTM Layout, Bengaluru - CPCB",10-12-2025 08:00:00,12.9135218,77.5950804,PM2.5,73,111,90
India,Karnataka,Bengaluru,"BTM Layout, Bengaluru - CPCB",10-12-2025 08:00:00,12.9135218,77.5950804,PM10,85,87,86
India,Karnataka,Bengaluru,"BTM Layout, Bengaluru - CPCB",10-12-2025 08:00:00,12.9135218,77.5950804,NO2,51,60,53
India,Karnataka,Bengaluru,"BTM Layout, Bengaluru - CPCB",10-12-2025 08:00:00,12.9135218,77.5950804,SO2,15,16,16
India,Karnataka,Bengaluru,"Kasturi Nagar, Bengaluru - KSPCB",10-12-2025 08:00:00,13.003872,77.664217,PM2.5,20,66,62
India,Karnataka,Bengaluru,"Kasturi Nagar, Bengaluru - KSPCB",10-12-2025 08:00:00,13.003872,77.664217,NH3,2,2,2
India,Karnataka,Bengaluru,"Peenya, Bengaluru - CPCB",10-12-2025 08:00:00,13.0270199,77.494094,CO,26,54,35
India,Kerala,Thrissur,"Corporation Ground, Thrissur - Kerala PCB",10-12-2025 08:00:00,10.532400,76.215900,SO2,1,1,1
India,Kerala,Thrissur,"Corporation Ground, Thrissur - Kerala PCB",10-12-2025 08:00:00,10.532400,76.215900,CO,21,34,32
India,Kerala,Thrissur,"Corporation Ground, Thrissur - Kerala PCB",10-12-2025 08:00:00,10.532400,76.215900,OZONE,31,32,31
India,Madhya Pradesh,Bhopal,"Idgah Hills, Bhopal - MPPCB",10-12-2025 08:00:00,23.264759,77.381568,NO2,NA,NA,NA
India,Madhya Pradesh,Bhopal,"Idgah Hills, Bhopal - MPPCB",10-12-2025 08:00:00,23.264759,77.381568,NH3,NA,NA,NA
India,Madhya Pradesh,Bhopal,"Paryavaran Parisar, Bhopal - MPPCB",10-12-2025 08:00:00,23.210494,77.425409,PM2.5,13,277,95
India,Madhya Pradesh,Bhopal,"T T Nagar, Bhopal - MPPCB",10-12-2025 08:00:00,23.233584,77.400574,PM10,64,270,141
India,Madhya Pradesh,Indore,"Regional Park, Indore - IMC",10-12-2025 08:00:00,22.6780,75.8559,NO2,9,16,12
India,Madhya Pradesh,Indore,"Regional Park, Indore - IMC",10-12-2025 08:00:00,22.6780,75.8559,NH3,NA,NA,NA
India,Madhya Pradesh,Jabalpur,"Govindh Bhavan Colony, Jabalpur - JMC",10-12-2025 08:00:00,23.163174,79.973061,PM2.5,30,55,41
India,Madhya Pradesh,Jabalpur,"Govindh Bhavan Colony, Jabalpur - JMC",10-12-2025 08:00:00,23.163174,79.973061,PM10,27,74,47
India,Madhya Pradesh,Jabalpur,"Govindh Bhavan Colony, Jabalpur - JMC",10-12-2025 08:00:00,23.163174,79.973061,NH3,1,2,2
India,Madhya Pradesh,Jabalpur,"Govindh Bhavan Colony, Jabalpur - JMC",10-12-2025 08:00:00,23.163174,79.973061,SO2,13,16,15
India,Madhya Pradesh,Jabalpur,"Gupteshwar, Jabalpur - JMC",10-12-2025 08:00:00,23.142888,79.916147,CO,39,128,103
India,Kerala,Kannur,"Thavakkara, Kannur - Kerala PCB",10-12-2025 08:00:00,11.875000,75.373200,NO2,15,17,16
India,Kerala,Kannur,"Thavakkara, Kannur - Kerala PCB",10-12-2025 08:00:00,11.875000,75.373200,OZONE,27,32,28
India,Kerala,Kollam,"Polayathode, Kollam - Kerala PCB",10-12-2025 08:00:00,8.8787,76.6073,PM2.5,109,263,178
India,Kerala,Kollam,"Polayathode, Kollam - Kerala PCB",10-12-2025 08:00:00,8.8787,76.6073,NH3,1,1,1
India,Kerala,Thiruvananthapuram,"Kariavattom, Thiruvananthapuram - Kerala PCB",10-12-2025 08:00:00,8.563700,76.886500,SO2,1,23,6
India,Karnataka,Mysuru,"Hebbal 1st Stage, Mysuru - KSPCB",10-12-2025 08:00:00,12.21041,76.37376,CO,3,40,22
India,Karnataka,Shivamogga,"Vinoba Nagara, Shivamogga - KSPCB",10-12-2025 08:00:00,13.940000,75.555917,PM2.5,19,48,30
India,Karnataka,Yadgir,"Collector Office, Yadgir - KSPCB",10-12-2025 08:00:00,16.7602,77.1428,NO2,6,18,12
India,Karnataka,Yadgir,"Collector Office, Yadgir - KSPCB",10-12-2025 08:00:00,16.7602,77.1428,SO2,2,17,11
India,Karnataka,Yadgir,"Collector Office, Yadgir - KSPCB",10-12-2025 08:00:00,16.7602,77.1428,OZONE,18,21,19
India,Karnataka,Kalaburagi,"Mahatma Basaveswar Colony, Kalaburgi - KSPCB",10-12-2025 08:00:00,17.336318,76.847397,PM10,28,86,49
India,Karnataka,Koppal,"Diwator Nagar, Koppal - KSPCB",10-12-2025 08:00:00,15.347630,76.181767,NH3,7,8,7
India,Karnataka,Madikeri,"Stuart Hill, Madikeri - KSPCB",10-12-2025 08:00:00,12.415911,75.735050,PM2.5,24,64,41
India,Karnataka,Madikeri,"Stuart Hill, Madikeri - KSPCB",10-12-2025 08:00:00,12.415911,75.735050,OZONE,3,6,4
India,Karnataka,Bengaluru,"RVCE-Mailasandra, Bengaluru - KSPCB",10-12-2025 08:00:00,12.921418,77.502466,NO2,18,23,23
India,Karnataka,Bengaluru,"Sanegurava Halli, Bengaluru - KSPCB",10-12-2025 08:00:00,12.990328,77.5431385,NO2,15,21,20
India,Karnataka,Chamarajanagar,"Urban, Chamarajanagar - KSPCB",10-12-2025 08:00:00,11.55358,76.55521,PM2.5,16,32,23
India,Madhya Pradesh,Gwalior,"Maharaj Bada, Gwalior - MPPCB",10-12-2025 08:00:00,26.200388,78.147714,PM2.5,22,331,101
India,Madhya Pradesh,Gwalior,"Maharaj Bada, Gwalior - MPPCB",10-12-2025 08:00:00,26.200388,78.147714,CO,2,136,15
India,Madhya Pradesh,Indore,"Chhoti Gwaltoli, Indore - MPPCB",10-12-2025 08:00:00,22.4310,75.5213,CO,38,110,100
India,Madhya Pradesh,Dewas,"Bhopal Chauraha, Dewas - MPPCB",10-12-2025 08:00:00,22.9682591,76.064118,PM10,41,184,83
India,Madhya Pradesh,Gwalior,"City Center, Gwalior - MPPCB",10-12-2025 08:00:00,26.203442,78.193251,NO2,15,139,56
India,Madhya Pradesh,Gwalior,"City Center, Gwalior - MPPCB",10-12-2025 08:00:00,26.203442,78.193251,CO,8,120,28
India,Karnataka,Haveri,"Ashwini Nagar, Haveri - KSPCB",10-12-2025 08:00:00,14.791800,75.389600,PM10,NA,NA,NA
India,Karnataka,Haveri,"Ashwini Nagar, Haveri - KSPCB",10-12-2025 08:00:00,14.791800,75.389600,SO2,NA,NA,NA
India,Maharashtra,Amravati,"Shri Shivaji Science College, Amravati - MPCB",10-12-2025 08:00:00,20.939198,77.765701,PM10,31,194,97
India,Maharashtra,Amravati,"Shri Shivaji Science College, Amravati - MPCB",10-12-2025 08:00:00,20.939198,77.765701,NO2,8,103,36
India,Maharashtra,Amravati,"Shri Shivaji Science College, Amravati - MPCB",10-12-2025 08:00:00,20.939198,77.765701,NH3,1,24,5
India,Maharashtra,Aurangabad,"MIDC Chilkalthana, Aurangabad - MPCB",10-12-2025 08:00:00,19.875620,75.387310,PM10,48,105,77
India,Maharashtra,Aurangabad,"MIDC Chilkalthana, Aurangabad - MPCB",10-12-2025 08:00:00,19.875620,75.387310,NH3,1,2,2
India,Maharashtra,Aurangabad,"MIDC Chilkalthana, Aurangabad - MPCB",10-12-2025 08:00:00,19.875620,75.387310,SO2,1,2,1
India,Maharashtra,Aurangabad,"MIDC Chilkalthana, Aurangabad - MPCB",10-12-2025 08:00:00,19.875620,75.387310,CO,7,100,68
India,Maharashtra,Aurangabad,"More Chowk Waluj, Aurangabad - MPCB",10-12-2025 08:00:00,19.8389439,75.244448,NO2,15,21,18
India,Maharashtra,Aurangabad,"More Chowk Waluj, Aurangabad - MPCB",10-12-2025 08:00:00,19.8389439,75.244448,SO2,9,26,16
India,Maharashtra,Aurangabad,"More Chowk Waluj, Aurangabad - MPCB",10-12-2025 08:00:00,19.8389439,75.244448,CO,6,115,63
India,Maharashtra,Aurangabad,"More Chowk Waluj, Aurangabad - MPCB",10-12-2025 08:00:00,19.8389439,75.244448,OZONE,26,30,27
India,Maharashtra,Aurangabad,"Rachnakar Colony, Aurangabad - MPCB",10-12-2025 08:00:00,19.863756,75.321188,NH3,2,5,4
India,Maharashtra,Chandrapur,"MIDC Khutala, Chandrapur - MPCB",10-12-2025 08:00:00,19.9775302,79.2337086,NO2,12,50,24
India,Maharashtra,Chandrapur,"MIDC Khutala, Chandrapur - MPCB",10-12-2025 08:00:00,19.9775302,79.2337086,NH3,2,14,6
India,Maharashtra,Jalgaon,"Prabhat Colony, Jalgaon - MPCB",10-12-2025 08:00:00,21.001264,75.565602,PM2.5,63,324,184
India,Maharashtra,Jalgaon,"Prabhat Colony, Jalgaon - MPCB",10-12-2025 08:00:00,21.001264,75.565602,SO2,NA,NA,NA
India,Maharashtra,Jalna,"Old MIDC, Jalna - MPCB",10-12-2025 08:00:00,19.854616,75.905894,PM2.5,34,99,54
India,Maharashtra,Badlapur,"Katrap, Badlapur - MPCB",10-12-2025 08:00:00,19.16485,73.23409,OZONE,13,128,15
India,Maharashtra,Bhiwandi,"Gokul Nagar, Bhiwandi - MPCB",10-12-2025 08:00:00,19.309073,73.057223,PM2.5,22,190,125
India,Maharashtra,Bhiwandi,"Gokul Nagar, Bhiwandi - MPCB",10-12-2025 08:00:00,19.309073,73.057223,SO2,6,93,11
India,Maharashtra,Boisar,"Khaira, Boisar - MPCB",10-12-2025 08:00:00,19.786089,72.757971,NH3,4,14,7
India,Maharashtra,Boisar,"Khaira, Boisar - MPCB",10-12-2025 08:00:00,19.786089,72.757971,CO,1,69,23
India,Madhya Pradesh,Singrauli,"Suryakiran Bhawan NCL, Singrauli - MPPCB",10-12-2025 08:00:00,24.108970,82.645580,PM10,112,410,166
India,Maharashtra,Ahmednagar,"Tarakpur, Ahmednagar - MPCB",10-12-2025 08:00:00,19.10122,74.73339,PM10,46,482,128
India,Maharashtra,Akola,"Ramdaspeth, Akola - MPCB",10-12-2025 08:00:00,20.719516,77.000253,PM2.5,17,138,70
India,Maharashtra,Akola,"Ramdaspeth, Akola - MPCB",10-12-2025 08:00:00,20.719516,77.000253,PM10,34,128,87
India,Madhya Pradesh,Jabalpur,"Marhatal, Jabalpur - MPPCB",10-12-2025 08:00:00,23.168606,79.932247,PM2.5,51,394,129
India,Madhya Pradesh,Jabalpur,"Marhatal, Jabalpur - MPPCB",10-12-2025 08:00:00,23.168606,79.932247,NH3,1,2,2
India,Madhya Pradesh,Jabalpur,"Marhatal, Jabalpur - MPPCB",10-12-2025 08:00:00,23.168606,79.932247,SO2,26,53,32
India,Madhya Pradesh,Jabalpur,"Marhatal, Jabalpur - MPPCB",10-12-2025 08:00:00,23.168606,79.932247,CO,22,114,41
India,Madhya Pradesh,Jabalpur,"Suhagi, Jabalpur - JMC",10-12-2025 08:00:00,23.218135,79.957770,SO2,5,7,7
India,Madhya Pradesh,Jabalpur,"Suhagi, Jabalpur - JMC",10-12-2025 08:00:00,23.218135,79.957770,CO,3,118,40
India,Maharashtra,Jalna,"Old MIDC, Jalna - MPCB",10-12-2025 08:00:00,19.854616,75.905894,OZONE,1,24,4
India,Maharashtra,Kolhapur,"Shivaji University, Kolhapur - MPCB",10-12-2025 08:00:00,16.6870449,74.2505872,PM10,106,408,209
India,Maharashtra,Kolhapur,"Shivaji University, Kolhapur - MPCB",10-12-2025 08:00:00,16.6870449,74.2505872,CO,8,60,36
India,Maharashtra,Kolhapur,"Shivaji University, Kolhapur - MPCB",10-12-2025 08:00:00,16.6870449,74.2505872,OZONE,5,109,15
India,Maharashtra,Kolhapur,"Sinchan Bhavan, Kolhapur - MPCB",10-12-2025 08:00:00,16.7143745,74.2426398,NO2,NA,NA,NA
India,Maharashtra,Latur,"Sawe Wadi, Latur - MPCB",10-12-2025 08:00:00,18.39963,76.57452,PM10,37,126,68
India,Maharashtra,Mahad,"Kamble Tarf Birwadi, Mahad - MPCB",10-12-2025 08:00:00,18.1023399,73.4783687,PM2.5,35,86,54
India,Madhya Pradesh,Pithampur,"Sector-2 Industrial Area, Pithampur - MPPCB",10-12-2025 08:00:00,22.624758,75.675238,NO2,25,36,32
India,Madhya Pradesh,Satna,"Bandhavgar Colony, Satna - Birla Cement",10-12-2025 08:00:00,24.58434363,80.8549414,CO,NA,NA,NA
India,Madhya Pradesh,Katni,"Gole Bazar, Katni - MPPCB",10-12-2025 08:00:00,23.50016,80.23284,CO,14,121,44
India,Maharashtra,Mira-Bhayandar,"Bhayandar West, Mira-Bhayandar - MPCB",10-12-2025 08:00:00,19.296481,72.840923,NO2,22,91,54
India,Maharashtra,Mira-Bhayandar,"Bhayandar West, Mira-Bhayandar - MPCB",10-12-2025 08:00:00,19.296481,72.840923,SO2,4,4,4
India,Maharashtra,Mira-Bhayandar,"Bhayandar West, Mira-Bhayandar - MPCB",10-12-2025 08:00:00,19.296481,72.840923,OZONE,1,82,5
India,Maharashtra,Mumbai,"Bandra Kurla Complex, Mumbai - MPCB",10-12-2025 08:00:00,19.065931,72.862131,SO2,5,15,9
India,Maharashtra,Mumbai,"Bandra Kurla Complex, Mumbai - MPCB",10-12-2025 08:00:00,19.065931,72.862131,CO,2,68,37
India,Maharashtra,Mumbai,"Borivali East, Mumbai - IITM",10-12-2025 08:00:00,19.23241,72.86895,NH3,3,9,5
India,Maharashtra,Mumbai,"Borivali East, Mumbai - MPCB",10-12-2025 08:00:00,19.2243333,72.8658113,NO2,NA,NA,NA
India,Maharashtra,Mumbai,"Borivali East, Mumbai - MPCB",10-12-2025 08:00:00,19.2243333,72.8658113,NH3,1,2,1
India,Maharashtra,Mumbai,"Borivali East, Mumbai - MPCB",10-12-2025 08:00:00,19.2243333,72.8658113,SO2,15,20,18
India,Maharashtra,Mumbai,"Borivali East, Mumbai - MPCB",10-12-2025 08:00:00,19.2243333,72.8658113,OZONE,13,15,15
India,Maharashtra,Mumbai,"Navy Nagar-Colaba, Mumbai - IITM",10-12-2025 08:00:00,18.897756,72.813320,NH3,7,26,16
India,Maharashtra,Mumbai,"Navy Nagar-Colaba, Mumbai - IITM",10-12-2025 08:00:00,18.897756,72.813320,CO,2,68,45
India,Maharashtra,Mumbai,"Navy Nagar-Colaba, Mumbai - IITM",10-12-2025 08:00:00,18.897756,72.813320,OZONE,6,119,13
India,Maharashtra,Mumbai,"Powai, Mumbai - MPCB",10-12-2025 08:00:00,19.137500,72.915056,PM2.5,19,43,28
India,Maharashtra,Mumbai,"Powai, Mumbai - MPCB",10-12-2025 08:00:00,19.137500,72.915056,OZONE,9,9,9
India,Maharashtra,Mumbai,"Sewri, Mumbai - BMC",10-12-2025 08:00:00,19.000084,72.856730,PM2.5,1,334,42
India,Maharashtra,Mumbai,"Sewri, Mumbai - BMC",10-12-2025 08:00:00,19.000084,72.856730,SO2,1,63,18
India,Maharashtra,Mumbai,"Sewri, Mumbai - BMC",10-12-2025 08:00:00,19.000084,72.856730,CO,1,138,40
India,Maharashtra,Mumbai,"Kurla, Mumbai - MPCB",10-12-2025 08:00:00,19.0863,72.8888,OZONE,28,29,28
India,Maharashtra,Mumbai,"Malad West, Mumbai - IITM",10-12-2025 08:00:00,19.19709,72.82204,OZONE,2,82,44
India,Maharashtra,Mumbai,"Mazgaon, Mumbai - IITM",10-12-2025 08:00:00,18.96702,72.84214,PM2.5,42,92,62
India,Maharashtra,Mumbai,"Mindspace-Malad West, Mumbai - MPCB",10-12-2025 08:00:00,19.1878657,72.8304069,PM2.5,22,101,59
India,Maharashtra,Mumbai,"Mindspace-Malad West, Mumbai - MPCB",10-12-2025 08:00:00,19.1878657,72.8304069,SO2,11,27,17
India,Maharashtra,Mumbai,"Mulund West, Mumbai - MPCB",10-12-2025 08:00:00,19.1750,72.9419,PM10,NA,NA,NA
India,Maharashtra,Mumbai,"Siddharth Nagar-Worli, Mumbai - IITM",10-12-2025 08:00:00,19.000083,72.813993,NH3,4,10,7
India,Maharashtra,Mumbai,"Sion, Mumbai - MPCB",10-12-2025 08:00:00,19.047000,72.874600,OZONE,4,10,9
India,Maharashtra,Mumbai,"Vile Parle West, Mumbai - MPCB",10-12-2025 08:00:00,19.10861,72.83622,NO2,11,11,11
India,Maharashtra,Mumbai,"Vile Parle West, Mumbai - MPCB",10-12-2025 08:00:00,19.10861,72.83622,NH3,6,6,6
India,Maharashtra,Mumbai,"Vile Parle West, Mumbai - MPCB",10-12-2025 08:00:00,19.10861,72.83622,CO,32,39,37
India,Maharashtra,Mumbai,"Worli, Mumbai - MPCB",10-12-2025 08:00:00,18.9936162,72.8128113,PM2.5,65,86,73
India,Maharashtra,Nagpur,"Ram Nagar, Nagpur - MPCB",10-12-2025 08:00:00,21.143383,79.048912,PM10,66,116,85
India,Maharashtra,Nagpur,"Ram Nagar, Nagpur - MPCB",10-12-2025 08:00:00,21.143383,79.048912,NO2,8,46,23
India,Maharashtra,Nanded,"Sneh Nagar, Nanded - MPCB",10-12-2025 08:00:00,19.173852,77.296291,PM2.5,55,193,88
India,Maharashtra,Nanded,"Sneh Nagar, Nanded - MPCB",10-12-2025 08:00:00,19.173852,77.296291,PM10,57,136,96
India,Maharashtra,Nanded,"Sneh Nagar, Nanded - MPCB",10-12-2025 08:00:00,19.173852,77.296291,SO2,1,1,1
India,Maharashtra,Nashik,"Gangapur Road, Nashik - MPCB",10-12-2025 08:00:00,20.0073285,73.7762427,OZONE,10,73,66
India,Maharashtra,Mumbai,"Deonar, Mumbai - IITM",10-12-2025 08:00:00,19.04946,72.9230,SO2,2,13,8
India,Maharashtra,Mumbai,"Kherwadi_Bandra East, Mumbai - MPCB",10-12-2025 08:00:00,19.0632143,72.8456324,NO2,NA,NA,NA
India,Maharashtra,Mumbai,"Kherwadi_Bandra East, Mumbai - MPCB",10-12-2025 08:00:00,19.0632143,72.8456324,SO2,NA,NA,NA
India,Maharashtra,Mumbai,"Kherwadi_Bandra East, Mumbai - MPCB",10-12-2025 08:00:00,19.0632143,72.8456324,OZONE,NA,NA,NA
India,Maharashtra,Nagpur,"Mahal, Nagpur - MPCB",10-12-2025 08:00:00,21.14472,79.107595,OZONE,7,32,17
India,Maharashtra,Nagpur,"Opp GPO Civil Lines, Nagpur - MPCB",10-12-2025 08:00:00,21.152875,79.0517531,SO2,4,23,13
India,Maharashtra,Nagpur,"Opp GPO Civil Lines, Nagpur - MPCB",10-12-2025 08:00:00,21.152875,79.0517531,OZONE,2,49,5
India,Maharashtra,Mumbai,"Chakala-Andheri East, Mumbai - IITM",10-12-2025 08:00:00,19.11074,72.86084,NO2,32,100,69
India,Maharashtra,Mumbai,"Chhatrapati Shivaji Intl. Airport (T2), Mumbai - MPCB",10-12-2025 08:00:00,19.10078,72.87462,NO2,1,19,8
India,Maharashtra,Mumbai,"Worli, Mumbai - MPCB",10-12-2025 08:00:00,18.9936162,72.8128113,OZONE,20,20,20
India,Maharashtra,Ulhasnagar,"Sidhi Vinayak Nagar, Ulhasnagar - MPCB",10-12-2025 08:00:00,19.235581,73.159121,PM2.5,32,256,123
India,Maharashtra,Ulhasnagar,"Sidhi Vinayak Nagar, Ulhasnagar - MPCB",10-12-2025 08:00:00,19.235581,73.159121,NH3,3,7,5
India,Maharashtra,Virar,"Bolinj, Virar - MPCB",10-12-2025 08:00:00,19.4458210,72.7988231,PM10,36,244,83
India,Maharashtra,Virar,"Bolinj, Virar - MPCB",10-12-2025 08:00:00,19.4458210,72.7988231,NH3,9,9,9
India,Meghalaya,Shillong,"JN Stadium, Shillong - Meghalaya PCB",10-12-2025 08:00:00,25.5803419,91.8942571,PM2.5,NA,NA,NA
India,Meghalaya,Shillong,"JN Stadium, Shillong - Meghalaya PCB",10-12-2025 08:00:00,25.5803419,91.8942571,SO2,12,24,18
India,Meghalaya,Shillong,"Lumpyngngad, Shillong - Meghalaya PCB",10-12-2025 08:00:00,25.5586,91.8985,PM10,5,37,16
India,Maharashtra,Nashik,"Hirawadi, Nashik - MPCB",10-12-2025 08:00:00,20.021503,73.813844,OZONE,9,66,26
India,Maharashtra,Nashik,"MIDC Ambad, Nashik - MPCB",10-12-2025 08:00:00,19.950220,73.731480,PM10,75,130,106
India,Maharashtra,Nashik,"MIDC Ambad, Nashik - MPCB",10-12-2025 08:00:00,19.950220,73.731480,NH3,9,12,10
India,Maharashtra,Nashik,"MIDC Ambad, Nashik - MPCB",10-12-2025 08:00:00,19.950220,73.731480,SO2,9,26,14
India,Maharashtra,Nashik,"Pandav Nagari, Nashik - MPCB",10-12-2025 08:00:00,19.9591346,73.7788008,NO2,7,51,18
India,Maharashtra,Nashik,"Pandav Nagari, Nashik - MPCB",10-12-2025 08:00:00,19.9591346,73.7788008,NH3,4,14,6
India,Maharashtra,Navi Mumbai,"Kopripada-Vashi, Navi Mumbai - MPCB",10-12-2025 08:00:00,19.090337,73.014232,NO2,16,69,39
India,Maharashtra,Pimpri-Chinchwad,"Park Street Wakad, Pimpri Chinchwad - MPCB",10-12-2025 08:00:00,18.59051,73.77946,CO,4,116,101
India,Maharashtra,Pimpri-Chinchwad,"Savta Mali Nagar, Pimpri-Chinchwad - IITM",10-12-2025 08:00:00,18.614767,73.799516,PM10,68,158,118
India,Maharashtra,Pimpri-Chinchwad,"Savta Mali Nagar, Pimpri-Chinchwad - IITM",10-12-2025 08:00:00,18.614767,73.799516,CO,31,84,51
India,Maharashtra,Pune,"Bhumkar Nagar, Pune - IITM",10-12-2025 08:00:00,18.605770,73.749976,CO,6,135,73
India,Maharashtra,Pune,"Katraj Dairy, Pune - MPCB",10-12-2025 08:00:00,18.454450,73.854155,OZONE,3,83,13
India,Maharashtra,Solapur,"Dnyaneshwar Nagar, Solapur - MPCB",10-12-2025 08:00:00,17.6336264,75.9132495,NH3,4,17,8
India,Maharashtra,Solapur,"Ratandeep Housing Society, Solapur - MPCB",10-12-2025 08:00:00,17.65439,75.90649,PM2.5,37,310,81
India,Maharashtra,Thane,"Kasarvadavali, Thane - MPCB",10-12-2025 08:00:00,19.26777,72.97182,NO2,15,71,42
India,Maharashtra,Thane,"Kasarvadavali, Thane - MPCB",10-12-2025 08:00:00,19.26777,72.97182,OZONE,1,71,4
India,Maharashtra,Thane,"Upvan Fort, Thane - MPCB",10-12-2025 08:00:00,19.222279,72.957979,PM10,55,112,79
India,Odisha,Barbil,"Forest Office, Barbil - OSPCB",10-12-2025 08:00:00,22.1166054,85.3945546,NO2,NA,NA,NA
India,Odisha,Baripada,"Meher Colony, Baripada - OSPCB",10-12-2025 08:00:00,21.941841,86.728318,CO,96,114,100
India,Odisha,Bhubaneswar,"Lingraj Mandir, Bhubaneswar - OSPCB",10-12-2025 08:00:00,20.240790,85.836784,PM2.5,150,391,289
India,Odisha,Bhubaneswar,"Lingraj Mandir, Bhubaneswar - OSPCB",10-12-2025 08:00:00,20.240790,85.836784,OZONE,4,305,28
India,Odisha,Bhubaneswar,"Patia, Bhubaneswar - OSPCB",10-12-2025 08:00:00,20.34652,85.81630,NO2,21,109,48
India,Odisha,Brajrajnagar,"GM Office, Brajrajnagar - OSPCB",10-12-2025 08:00:00,21.8004996,83.8396977,CO,8,34,20
India,Odisha,Byasanagar,"Ferro Chrome Colony, Byasanagar - OSPCB",10-12-2025 08:00:00,20.94185,86.11510,PM2.5,183,352,256
India,Odisha,Byasanagar,"Ferro Chrome Colony, Byasanagar - OSPCB",10-12-2025 08:00:00,20.94185,86.11510,NO2,11,73,25
India,Odisha,Byasanagar,"Ferro Chrome Colony, Byasanagar - OSPCB",10-12-2025 08:00:00,20.94185,86.11510,NH3,2,4,3
India,Odisha,Cuttack,"CDA Area, Cuttack - OSPCB",10-12-2025 08:00:00,20.48891     ,85.84768     ,CO,30,134,48
India,Maharashtra,Pune,"Panchawati_Pashan, Pune - IITM",10-12-2025 08:00:00,18.536457,73.805454,OZONE,NA,NA,NA
India,Maharashtra,Pune,"Revenue Colony-Shivajinagar, Pune - IITM",10-12-2025 08:00:00,18.530085,73.849598,OZONE,3,51,9
India,Maharashtra,Pune,"Savitribai Phule Pune University, Pune - MPCB",10-12-2025 08:00:00,18.547056,73.826908,NO2,7,36,17
India,Maharashtra,Pune,"Savitribai Phule Pune University, Pune - MPCB",10-12-2025 08:00:00,18.547056,73.826908,NH3,1,11,3
India,Maharashtra,Pune,"Savitribai Phule Pune University, Pune - MPCB",10-12-2025 08:00:00,18.547056,73.826908,SO2,1,5,3
India,Maharashtra,Parbhani,"Masoom Colony, Parbhani - MPCB",10-12-2025 08:00:00,19.265594,76.761463,CO,8,16,12
India,Maharashtra,Parbhani,"Masoom Colony, Parbhani - MPCB",10-12-2025 08:00:00,19.265594,76.761463,OZONE,10,10,10
India,Maharashtra,Pimpri-Chinchwad,"Gavalinagar, Pimpri Chinchwad - MPCB",10-12-2025 08:00:00,18.63673,73.82487,NH3,7,19,10
India,Maharashtra,Navi Mumbai,"Mahape, Navi Mumbai - MPCB",10-12-2025 08:00:00,19.1135051,73.008978,CO,23,26,24
India,Maharashtra,Navi Mumbai,"Sanpada, Navi Mumbai - MPCB",10-12-2025 08:00:00,19.0575752,73.0151367,CO,6,107,86
India,Rajasthan,Dungarpur,"Bhoiwada, Dungarpur - RSPCB",10-12-2025 08:00:00,23.837789,73.714926,CO,2,62,18
India,Rajasthan,Jaipur,"Adarsh Nagar, Jaipur - RSPCB",10-12-2025 08:00:00,26.902909,75.836858,PM10,65,193,125
India,Rajasthan,Jaipur,"Adarsh Nagar, Jaipur - RSPCB",10-12-2025 08:00:00,26.902909,75.836858,NH3,22,67,40
India,Rajasthan,Jaipur,"Adarsh Nagar, Jaipur - RSPCB",10-12-2025 08:00:00,26.902909,75.836858,SO2,16,30,22
India,Rajasthan,Jaipur,"Mansarovar Sector-12, Jaipur - RSPCB",10-12-2025 08:00:00,26.843698,75.766894,PM2.5,30,345,194
India,Rajasthan,Jaipur,"Mansarovar Sector-12, Jaipur - RSPCB",10-12-2025 08:00:00,26.843698,75.766894,PM10,82,455,239
India,Rajasthan,Jaipur,"Mansarovar Sector-12, Jaipur - RSPCB",10-12-2025 08:00:00,26.843698,75.766894,NH3,11,71,18
India,Rajasthan,Jaipur,"Mansarovar Sector-12, Jaipur - RSPCB",10-12-2025 08:00:00,26.843698,75.766894,CO,8,129,40
India,Rajasthan,Jaipur,"Police Commissionerate, Jaipur - RSPCB",10-12-2025 08:00:00,26.9164092,75.7994901,PM10,47,200,139
India,Rajasthan,Jaipur,"Police Commissionerate, Jaipur - RSPCB",10-12-2025 08:00:00,26.9164092,75.7994901,NO2,46,167,114
India,Punjab,Patiala,"Model Town, Patiala - PPCB",10-12-2025 08:00:00,30.349388,76.366642,PM10,11,147,121
India,Punjab,Patiala,"Model Town, Patiala - PPCB",10-12-2025 08:00:00,30.349388,76.366642,NH3,6,7,6
India,Punjab,Patiala,"Model Town, Patiala - PPCB",10-12-2025 08:00:00,30.349388,76.366642,SO2,11,88,32
India,Punjab,Patiala,"Model Town, Patiala - PPCB",10-12-2025 08:00:00,30.349388,76.366642,CO,34,88,51
India,Punjab,Patiala,"Model Town, Patiala - PPCB",10-12-2025 08:00:00,30.349388,76.366642,OZONE,10,42,12
India,Rajasthan,Ajmer,"Civil Lines,  Ajmer - RSPCB",10-12-2025 08:00:00,26.470859,74.646594,PM10,49,146,101
India,Rajasthan,Ajmer,"Civil Lines,  Ajmer - RSPCB",10-12-2025 08:00:00,26.470859,74.646594,SO2,12,25,19
India,Rajasthan,Alwar,"Moti Doongri, Alwar - RSPCB",10-12-2025 08:00:00,27.554793,76.611536,NH3,9,17,14
India,Rajasthan,Banswara,"Rati Talai, Banswara - RSPCB",10-12-2025 08:00:00,23.555190,74.440010,NO2,NA,NA,NA
India,Punjab,Khanna,"Kalal Majra, Khanna - PPCB",10-12-2025 08:00:00,30.736056 ,76.209694,PM2.5,69,242,140
India,Punjab,Khanna,"Kalal Majra, Khanna - PPCB",10-12-2025 08:00:00,30.736056 ,76.209694,NO2,26,30,28
India,Punjab,Khanna,"Kalal Majra, Khanna - PPCB",10-12-2025 08:00:00,30.736056 ,76.209694,SO2,16,58,28
India,Punjab,Khanna,"Kalal Majra, Khanna - PPCB",10-12-2025 08:00:00,30.736056 ,76.209694,CO,20,65,47
India,Punjab,Ludhiana,"Punjab Agricultural University, Ludhiana - PPCB",10-12-2025 08:00:00,30.9028,75.8086,PM2.5,80,119,94
India,Punjab,Ludhiana,"Punjab Agricultural University, Ludhiana - PPCB",10-12-2025 08:00:00,30.9028,75.8086,CO,42,88,66
India,Punjab,Mandi Gobindgarh,"RIMT University, Mandi Gobindgarh - PPCB",10-12-2025 08:00:00,30.649961,76.331442,PM10,123,358,202
India,Punjab,Mandi Gobindgarh,"RIMT University, Mandi Gobindgarh - PPCB",10-12-2025 08:00:00,30.649961,76.331442,NH3,6,6,6
India,Rajasthan,Chittorgarh,"Shastri Nagar, Chittorgarh - RSPCB",10-12-2025 08:00:00,24.892047,74.623527,NH3,1,5,3
India,Rajasthan,Churu,"Subash Chowk, Churu - RSPCB",10-12-2025 08:00:00,28.296139,74.961696,PM10,78,473,206
India,Rajasthan,Dausa,"Khatikan Mohalla, Dausa - RSPCB",10-12-2025 08:00:00,26.895552,76.334753,OZONE,2,75,14
India,Rajasthan,Dholpur,"Raja Ganj, Dholpur - RSPCB",10-12-2025 08:00:00,26.699557,77.898881,SO2,7,14,9
India,Rajasthan,Dungarpur,"Bhoiwada, Dungarpur - RSPCB",10-12-2025 08:00:00,23.837789,73.714926,NO2,13,76,29
India,Rajasthan,Baran,"Bamboliya, Baran - RSPCB",10-12-2025 08:00:00,25.106006,76.469948,SO2,9,16,12
India,Rajasthan,Baran,"Bamboliya, Baran - RSPCB",10-12-2025 08:00:00,25.106006,76.469948,OZONE,4,143,6
India,Rajasthan,Barmer,"Railway Colony, Barmer - RSPCB",10-12-2025 08:00:00,25.747299,71.393989,NH3,2,25,11
India,Rajasthan,Barmer,"Railway Colony, Barmer - RSPCB",10-12-2025 08:00:00,25.747299,71.393989,CO,4,107,16
India,Rajasthan,Barmer,"Railway Colony, Barmer - RSPCB",10-12-2025 08:00:00,25.747299,71.393989,OZONE,4,72,28
India,Rajasthan,Bhilwara,"Pratap Nagar, Bhilwara - RSPCB",10-12-2025 08:00:00,25.339605,74.618883,PM10,29,281,126
India,Odisha,Talcher,"Talcher Coalfields,Talcher - OSPCB",10-12-2025 08:00:00,20.9360711,85.1707021,NO2,41,105,74
India,Odisha,Talcher,"Talcher Coalfields,Talcher - OSPCB",10-12-2025 08:00:00,20.9360711,85.1707021,NH3,6,7,6
India,Puducherry,Puducherry,"Jawahar Nagar, Puducherry - PPCC",10-12-2025 08:00:00,11.9309,79.8027,PM10,63,115,88
India,Puducherry,Puducherry,"Jawahar Nagar, Puducherry - PPCC",10-12-2025 08:00:00,11.9309,79.8027,NO2,8,41,21
India,Puducherry,Puducherry,"Jawahar Nagar, Puducherry - PPCC",10-12-2025 08:00:00,11.9309,79.8027,NH3,1,3,2
India,Puducherry,Puducherry,"Jawahar Nagar, Puducherry - PPCC",10-12-2025 08:00:00,11.9309,79.8027,SO2,5,10,8
India,Rajasthan,Bhiwadi,"RIICO Ind. Area III, Bhiwadi - RSPCB",10-12-2025 08:00:00,28.194909,76.862296,NO2,16,66,40
India,Rajasthan,Bundi,"New Colony, Bundi - RSPCB",10-12-2025 08:00:00,25.435774,75.644272,PM2.5,20,90,61
India,Rajasthan,Bundi,"New Colony, Bundi - RSPCB",10-12-2025 08:00:00,25.435774,75.644272,NO2,11,71,27
India,Rajasthan,Bundi,"New Colony, Bundi - RSPCB",10-12-2025 08:00:00,25.435774,75.644272,NH3,5,34,9
India,Rajasthan,Bundi,"New Colony, Bundi - RSPCB",10-12-2025 08:00:00,25.435774,75.644272,CO,16,62,27
India,Rajasthan,Bundi,"New Colony, Bundi - RSPCB",10-12-2025 08:00:00,25.435774,75.644272,OZONE,36,138,70
India,Odisha,Keonjhar,"Jagamohanpur, Keonjhar - OSPCB",10-12-2025 08:00:00,21.643900,85.599355,PM2.5,50,79,62
India,Odisha,Keonjhar,"Jagamohanpur, Keonjhar - OSPCB",10-12-2025 08:00:00,21.643900,85.599355,CO,2,113,43
India,Odisha,Nayagarh,"Dabuna, Nayagarh - OSPCB",10-12-2025 08:00:00,21.847279,85.416905,SO2,8,39,13
India,Odisha,Rourkela,"Fertilizer Township, Rourkela - OSPCB",10-12-2025 08:00:00,22.18972222,84.86277778,SO2,8,13,9
India,Punjab,Patiala,"Model Town, Patiala - PPCB",10-12-2025 08:00:00,30.349388,76.366642,PM2.5,16,209,85
India,TamilNadu,Chennai,"Manali, Chennai - CPCB",10-12-2025 08:00:00,13.164544,80.26285,NO2,10,25,15
India,TamilNadu,Chennai,"Manali, Chennai - CPCB",10-12-2025 08:00:00,13.164544,80.26285,CO,11,52,29
India,TamilNadu,Chennai,"Manali, Chennai - CPCB",10-12-2025 08:00:00,13.164544,80.26285,OZONE,10,13,11
India,TamilNadu,Chennai,"Perungudi, Chennai - TNPCB",10-12-2025 08:00:00,12.9533,80.2357,PM10,90,143,120
India,TamilNadu,Chennai,"Perungudi, Chennai - TNPCB",10-12-2025 08:00:00,12.9533,80.2357,NO2,3,13,6
India,TamilNadu,Chennai,"Perungudi, Chennai - TNPCB",10-12-2025 08:00:00,12.9533,80.2357,NH3,3,4,3
India,TamilNadu,Chennai,"Perungudi, Chennai - TNPCB",10-12-2025 08:00:00,12.9533,80.2357,SO2,1,8,5
India,TamilNadu,Chennai,"Velachery Res. Area, Chennai - CPCB",10-12-2025 08:00:00,13.0052189,80.2398125,PM2.5,35,70,51
India,TamilNadu,Chennai,"Velachery Res. Area, Chennai - CPCB",10-12-2025 08:00:00,13.0052189,80.2398125,NH3,3,3,3
India,TamilNadu,Coimbatore,"PSG College of Arts and Science, Coimbatore - TNPCB",10-12-2025 08:00:00,11.0328,77.0349,SO2,3,5,4
India,TamilNadu,Coimbatore,"PSG College of Arts and Science, Coimbatore - TNPCB",10-12-2025 08:00:00,11.0328,77.0349,OZONE,4,6,5
India,Rajasthan,Kota,"Dhanmandi, Kota - RSPCB",10-12-2025 08:00:00,25.164090,75.858137,SO2,1,96,11
India,Rajasthan,Kota,"Dhanmandi, Kota - RSPCB",10-12-2025 08:00:00,25.164090,75.858137,OZONE,4,153,9
India,Rajasthan,Kota,"Nayapura, Kota - RSPCB",10-12-2025 08:00:00,25.196024,75.855668,PM2.5,18,315,116
India,Rajasthan,Kota,"Nayapura, Kota - RSPCB",10-12-2025 08:00:00,25.196024,75.855668,NO2,27,119,69
India,Rajasthan,Kota,"Nayapura, Kota - RSPCB",10-12-2025 08:00:00,25.196024,75.855668,OZONE,4,153,6
India,Rajasthan,Kota,"Shrinath Puram, Kota - RSPCB",10-12-2025 08:00:00,25.14389,75.821256,SO2,10,72,18
India,Rajasthan,Kota,"Shrinath Puram, Kota - RSPCB",10-12-2025 08:00:00,25.14389,75.821256,OZONE,1,23,14
India,Rajasthan,Nagaur,"Karni Colony, Nagaur - RSPCB",10-12-2025 08:00:00,27.213494,73.734444,NO2,13,106,57
India,Rajasthan,Nagaur,"Karni Colony, Nagaur - RSPCB",10-12-2025 08:00:00,27.213494,73.734444,NH3,9,26,17
India,Rajasthan,Nagaur,"Karni Colony, Nagaur - RSPCB",10-12-2025 08:00:00,27.213494,73.734444,OZONE,2,74,3
India,Rajasthan,Pratapgarh,"Pragati Nagar, Pratapgarh - RSPCB",10-12-2025 08:00:00,24.041198,74.780702,PM2.5,13,217,69
India,Rajasthan,Pratapgarh,"Pragati Nagar, Pratapgarh - RSPCB",10-12-2025 08:00:00,24.041198,74.780702,NO2,15,81,31
India,Rajasthan,Pratapgarh,"Pragati Nagar, Pratapgarh - RSPCB",10-12-2025 08:00:00,24.041198,74.780702,OZONE,12,91,54
India,Rajasthan,Rajsamand,"Dhoinda, Rajsamand - RSPCB",10-12-2025 08:00:00,25.036360,73.883502,NO2,12,78,31
India,Rajasthan,Sawai Madhopur,"Sahu Nagar, Sawai Madhopur - RSPCB",10-12-2025 08:00:00,26.031443,76.359327,CO,6,128,32
India,Rajasthan,Sikar,"Radhakishan Pura, Sikar - RSPCB",10-12-2025 08:00:00,27.608912,75.153302,PM2.5,47,447,222
India,Rajasthan,Sikar,"Radhakishan Pura, Sikar - RSPCB",10-12-2025 08:00:00,27.608912,75.153302,NH3,15,31,20
India,Rajasthan,Sikar,"Radhakishan Pura, Sikar - RSPCB",10-12-2025 08:00:00,27.608912,75.153302,CO,18,163,49
India,TamilNadu,Coimbatore,"SIDCO Kurichi, Coimbatore - TNPCB",10-12-2025 08:00:00,10.942451,76.978996,SO2,21,23,22
India,TamilNadu,Coimbatore,"SIDCO Kurichi, Coimbatore - TNPCB",10-12-2025 08:00:00,10.942451,76.978996,OZONE,20,50,29
India,TamilNadu,Cuddalore,"Semmandalam, Cuddalore - TNPCB",10-12-2025 08:00:00,11.7637683,79.7499835,PM2.5,70,244,151
India,TamilNadu,Cuddalore,"Semmandalam, Cuddalore - TNPCB",10-12-2025 08:00:00,11.7637683,79.7499835,OZONE,1,2,2
India,TamilNadu,Gummidipoondi,"Anthoni Pillai Nagar, Gummidipoondi - TNPCB",10-12-2025 08:00:00,13.4127,80.1081,PM10,NA,NA,NA
India,TamilNadu,Gummidipoondi,"Anthoni Pillai Nagar, Gummidipoondi - TNPCB",10-12-2025 08:00:00,13.4127,80.1081,SO2,29,75,53
India,TamilNadu,Karur,"Kamadenu Nagar, Karur - TNPCB",10-12-2025 08:00:00,10.967820,78.080882,NH3,3,3,3
India,Rajasthan,Sikar,"Radhakishan Pura, Sikar - RSPCB",10-12-2025 08:00:00,27.608912,75.153302,OZONE,6,81,8
India,Rajasthan,Sirohi,"Vedhaynath Colony, Sirohi - RSPCB",10-12-2025 08:00:00,24.885261,72.857549,NO2,11,110,46
India,Rajasthan,Sirohi,"Vedhaynath Colony, Sirohi - RSPCB",10-12-2025 08:00:00,24.885261,72.857549,CO,12,51,26
India,Rajasthan,Sri Ganganagar,"Old City, Sri Ganganagar - RSPCB",10-12-2025 08:00:00,29.931624,73.864511,NH3,1,30,8
India,Rajasthan,Udaipur,"Ashok Nagar, Udaipur - RSPCB",10-12-2025 08:00:00,24.5886166,73.6321397,NO2,9,88,44
India,Rajasthan,Jhunjhunu,"Indra Nagar, Jhunjhunu - RSPCB",10-12-2025 08:00:00,28.108988,75.386577,PM10,59,409,158
India,Rajasthan,Jhunjhunu,"Indra Nagar, Jhunjhunu - RSPCB",10-12-2025 08:00:00,28.108988,75.386577,SO2,4,20,8
India,Rajasthan,Jodhpur,"Collectorate, Jodhpur - RSPCB",10-12-2025 08:00:00,26.268249,73.0193853,PM10,76,307,179
India,Rajasthan,Jodhpur,"Collectorate, Jodhpur - RSPCB",10-12-2025 08:00:00,26.268249,73.0193853,CO,5,166,71
India,Rajasthan,Jodhpur,"Digari Kalan, Jodhpur - RSPCB",10-12-2025 08:00:00,26.295810,73.082283,SO2,4,11,7
India,Rajasthan,Jaipur,"RIICO Sitapura, Jaipur - RSPCB",10-12-2025 08:00:00,26.786682,75.827928,NO2,19,160,87
India,Rajasthan,Jaipur,"Shastri Nagar, Jaipur - RSPCB",10-12-2025 08:00:00,26.9502929,75.730943,PM2.5,NA,NA,NA
India,Rajasthan,Jaipur,"Shastri Nagar, Jaipur - RSPCB",10-12-2025 08:00:00,26.9502929,75.730943,NH3,NA,NA,NA
India,Rajasthan,Jaipur,"Shastri Nagar, Jaipur - RSPCB",10-12-2025 08:00:00,26.9502929,75.730943,OZONE,16,51,18
India,Rajasthan,Jaisalmer,"Sadar Bazar, Jaisalmer - RSPCB",10-12-2025 08:00:00,26.912329,70.909168,CO,24,124,48
India,TamilNadu,Chennai,"Arumbakkam, Chennai - TNPCB",10-12-2025 08:00:00,13.0664,80.2112 ,NH3,1,2,1
India,TamilNadu,Chennai,"Arumbakkam, Chennai - TNPCB",10-12-2025 08:00:00,13.0664,80.2112 ,SO2,1,4,2
India,TamilNadu,Chennai,"Kodungaiyur, Chennai - TNPCB",10-12-2025 08:00:00,13.1278,80.2642,NH3,2,4,3
India,TamilNadu,Chennai,"Manali Village, Chennai - TNPCB",10-12-2025 08:00:00,13.1662,80.2584,PM2.5,41,305,126
India,TamilNadu,Chennai,"Manali Village, Chennai - TNPCB",10-12-2025 08:00:00,13.1662,80.2584,NH3,1,2,2
India,Rajasthan,Jodhpur,"Mandor, Jodhpur - RSPCB",10-12-2025 08:00:00,26.358805,73.047444,PM10,29,148,85
India,Rajasthan,Jodhpur,"Mandor, Jodhpur - RSPCB",10-12-2025 08:00:00,26.358805,73.047444,NH3,2,6,4
India,Rajasthan,Karauli,"Satyawati Vihar, Karauli - RSPCB",10-12-2025 08:00:00,26.506177,77.025989,NH3,4,12,6
India,Telangana,Hyderabad,"Nacharam_TSIIC IALA, Hyderabad - TSPCB",10-12-2025 08:00:00,17.429398,78.569354,OZONE,15,41,15
India,Telangana,Hyderabad,"New Malakpet, Hyderabad - TSPCB",10-12-2025 08:00:00,17.37206,78.50864,PM2.5,35,83,54
India,Telangana,Hyderabad,"New Malakpet, Hyderabad - TSPCB",10-12-2025 08:00:00,17.37206,78.50864,PM10,77,88,82
India,Telangana,Hyderabad,"New Malakpet, Hyderabad - TSPCB",10-12-2025 08:00:00,17.37206,78.50864,OZONE,10,47,10
India,Telangana,Hyderabad,"Ramachandrapuram, Hyderabad - TSPCB",10-12-2025 08:00:00,17.528544,78.286195,NO2,15,15,15
India,Telangana,Hyderabad,"Ramachandrapuram, Hyderabad - TSPCB",10-12-2025 08:00:00,17.528544,78.286195,CO,22,57,43
India,Telangana,Hyderabad,"Ramachandrapuram, Hyderabad - TSPCB",10-12-2025 08:00:00,17.528544,78.286195,OZONE,21,28,22
India,Telangana,Hyderabad,"Somajiguda, Hyderabad - TSPCB",10-12-2025 08:00:00,17.417094,78.457437,PM2.5,38,103,80
India,Telangana,Hyderabad,"Somajiguda, Hyderabad - TSPCB",10-12-2025 08:00:00,17.417094,78.457437,NO2,15,20,16
India,Uttar_Pradesh,Bareilly,"Civil Lines, Bareilly - UPPCB",10-12-2025 08:00:00,28.359581,79.414455,SO2,1,11,5
India,Uttar_Pradesh,Bareilly,"Civil Lines, Bareilly - UPPCB",10-12-2025 08:00:00,28.359581,79.414455,CO,58,113,74
India,Uttar_Pradesh,Bulandshahr,"Yamunapuram, Bulandshahr - UPPCB",10-12-2025 08:00:00,28.406963,77.849831,PM2.5,81,297,187
India,Uttar_Pradesh,Firozabad,"Nagla Bhau, Firozabad - UPPCB",10-12-2025 08:00:00,27.168897,78.376960,NO2,NA,NA,NA
India,Uttar_Pradesh,Firozabad,"Nagla Bhau, Firozabad - UPPCB",10-12-2025 08:00:00,27.168897,78.376960,NH3,NA,NA,NA
India,Uttar_Pradesh,Firozabad,"Vibhab Nagar, Firozabad - UPPCB",10-12-2025 08:00:00,27.1594,78.3953,PM2.5,NA,NA,NA
India,Uttar_Pradesh,Agra,"Sanjay Palace, Agra - UPPCB",10-12-2025 08:00:00,27.19865833,78.00598056,PM10,101,191,138
India,Uttar_Pradesh,Agra,"Sector-3B Avas Vikas Colony, Agra - UPPCB",10-12-2025 08:00:00,27.19412,77.96237,PM10,102,208,141
India,Uttar_Pradesh,Agra,"Sector-3B Avas Vikas Colony, Agra - UPPCB",10-12-2025 08:00:00,27.19412,77.96237,SO2,9,13,10
India,Uttar_Pradesh,Agra,"Shahjahan Garden, Agra - UPPCB",10-12-2025 08:00:00,27.169338,78.03582,CO,21,100,34
India,Uttar_Pradesh,Baghpat,"Sardar Patel Inter College, Baghpat - UPPCB",10-12-2025 08:00:00,28.964949,77.278761,PM10,126,289,176
India,TamilNadu,Vellore,"Vasanthapuram, Vellore - TNPCB",10-12-2025 08:00:00,12.909494,79.131861,SO2,NA,NA,NA
India,TamilNadu,Vellore,"Vasanthapuram, Vellore - TNPCB",10-12-2025 08:00:00,12.909494,79.131861,CO,NA,NA,NA
India,TamilNadu,Virudhunagar,"Collectorate Office, Virudhunagar - TNPCB",10-12-2025 08:00:00,9.559382,77.948828,PM2.5,NA,NA,NA
India,Telangana,Hyderabad,"Bollaram Industrial Area, Hyderabad - TSPCB",10-12-2025 08:00:00,17.540891,78.358528,PM2.5,NA,NA,NA
India,Telangana,Hyderabad,"ECIL Kapra, Hyderabad - TSPCB",10-12-2025 08:00:00,17.470431,78.566959,NO2,23,61,40
India,Telangana,Hyderabad,"ECIL Kapra, Hyderabad - TSPCB",10-12-2025 08:00:00,17.470431,78.566959,SO2,5,37,23
India,Telangana,Hyderabad,"IITH Kandi, Hyderabad - TSPCB",10-12-2025 08:00:00,17.585705,78.126199,PM2.5,54,96,77
India,Telangana,Hyderabad,"IITH Kandi, Hyderabad - TSPCB",10-12-2025 08:00:00,17.585705,78.126199,NH3,3,5,4
India,Telangana,Hyderabad,"IITH Kandi, Hyderabad - TSPCB",10-12-2025 08:00:00,17.585705,78.126199,CO,14,36,32
India,Telangana,Hyderabad,"IITH Kandi, Hyderabad - TSPCB",10-12-2025 08:00:00,17.585705,78.126199,OZONE,15,36,16
India,Telangana,Hyderabad,"Kokapet, Hyderabad - TSPCB",10-12-2025 08:00:00,17.393559,78.339194,OZONE,16,29,17
India,Telangana,Hyderabad,"Kompally Municipal Office, Hyderabad - TSPCB",10-12-2025 08:00:00,17.544899,78.486949,PM2.5,44,64,49
India,Telangana,Hyderabad,"Kompally Municipal Office, Hyderabad - TSPCB",10-12-2025 08:00:00,17.544899,78.486949,CO,9,18,16
India,Telangana,Hyderabad,"Zoo Park, Hyderabad - TSPCB",10-12-2025 08:00:00,17.349694,78.451437,NH3,3,6,4
India,Telangana,Hyderabad,"Zoo Park, Hyderabad - TSPCB",10-12-2025 08:00:00,17.349694,78.451437,CO,4,107,17
India,Telangana,Hyderabad,"Zoo Park, Hyderabad - TSPCB",10-12-2025 08:00:00,17.349694,78.451437,OZONE,21,24,22
India,Tripura,Agartala,"Bardowali, Agartala - Tripura SPCB",10-12-2025 08:00:00,23.8175497,91.2726974,PM2.5,NA,NA,NA
India,Uttar_Pradesh,Agra,"Rohta, Agra - UPPCB",10-12-2025 08:00:00,27.106972,78.000111,PM2.5,39,152,69
India,TamilNadu,Thanjavur,"Parisutham Nagar, Thanjavur - TNPCB",10-12-2025 08:00:00,10.7654824,79.1389968,NH3,1,1,1
India,TamilNadu,Thanjavur,"Parisutham Nagar, Thanjavur - TNPCB",10-12-2025 08:00:00,10.7654824,79.1389968,SO2,16,17,17
India,TamilNadu,Tirunelveli,"Municipal Corporation Office, Tirunelveli - TNPCB",10-12-2025 08:00:00,8.728442,77.6962,OZONE,6,7,6
India,TamilNadu,Tirupur,"Kumaran College, Tirupur - TNPCB",10-12-2025 08:00:00,11.0973603,77.3228673,NO2,9,17,11
India,TamilNadu,Nagapattinam,"Velippalayam, Nagapattinam - TNPCB",10-12-2025 08:00:00,10.798548,79.838212,PM10,31,118,72
India,TamilNadu,Ooty,"Bombay Castel, Ooty - TNPCB",10-12-2025 08:00:00,11.4068288,76.7138973,OZONE,5,8,5
India,TamilNadu,Perundurai,"SIPCOT Industrial Park, Perundurai - TNPCB",10-12-2025 08:00:00,11.258242,77.552761,NH3,2,3,2
India,Uttar_Pradesh,Ghaziabad,"Indirapuram, Ghaziabad - UPPCB",10-12-2025 08:00:00,28.646233,77.358075,PM10,160,384,234
India,Uttar_Pradesh,Ghaziabad,"Loni, Ghaziabad - UPPCB",10-12-2025 08:00:00,28.757294,77.278792,PM10,161,441,268
India,Uttar_Pradesh,Greater Noida,"Knowledge Park - III, Greater Noida - UPPCB",10-12-2025 08:00:00,28.47272,77.482000,NH3,5,13,10
India,Uttar_Pradesh,Greater Noida,"Knowledge Park - V, Greater Noida - UPPCB",10-12-2025 08:00:00,28.557054,77.453663,PM10,138,338,230
India,Uttar_Pradesh,Hapur,"Anand Vihar, Hapur - UPPCB",10-12-2025 08:00:00,28.725645,77.749675,PM10,74,129,106
India,Uttar_Pradesh,Hapur,"Anand Vihar, Hapur - UPPCB",10-12-2025 08:00:00,28.725645,77.749675,NO2,18,60,31
India,Uttar_Pradesh,Jhansi,"Shivaji Nagar, Jhansi - UPPCB",10-12-2025 08:00:00,25.4547,78.6039,OZONE,1,18,1
India,Uttar_Pradesh,Kanpur,"NSI Kalyanpur, Kanpur - UPPCB",10-12-2025 08:00:00,26.509954,80.249612,NH3,3,3,3
India,Uttar_Pradesh,Kanpur,"Nehru Nagar, Kanpur - UPPCB",10-12-2025 08:00:00,26.4703136,80.3229863,NO2,13,45,28
India,Uttar_Pradesh,Kanpur,"Nehru Nagar, Kanpur - UPPCB",10-12-2025 08:00:00,26.4703136,80.3229863,SO2,10,16,13
India,Uttar_Pradesh,Khurja,"Kalindi Kunj, Khurja - UPPCB",10-12-2025 08:00:00,28.2348927,77.8683002,PM10,124,192,158
India,Uttar_Pradesh,Lucknow,"B R Ambedkar University, Lucknow - UPPCB",10-12-2025 08:00:00,26.766433,80.927299,CO,36,39,38
India,Uttar_Pradesh,Lucknow,"Gomti Nagar, Lucknow - UPPCB",10-12-2025 08:00:00,26.868120,81.005119,PM10,66,132,99
India,Uttar_Pradesh,Lucknow,"Gomti Nagar, Lucknow - UPPCB",10-12-2025 08:00:00,26.868120,81.005119,NO2,6,9,7
India,Uttar_Pradesh,Lucknow,"Kendriya Vidyalaya, Lucknow - CPCB",10-12-2025 08:00:00,26.906111,80.948222,CO,16,66,49
India,Uttar_Pradesh,Lucknow,"Kendriya Vidyalaya, Lucknow - CPCB",10-12-2025 08:00:00,26.906111,80.948222,OZONE,10,79,14
India,Uttar_Pradesh,Lucknow,"Kukrail Picnic Spot-1, Lucknow - UPPCB",10-12-2025 08:00:00,26.90723,80.98579,SO2,51,58,53
India,Uttar_Pradesh,Lucknow,"Talkatora District Industries Center, Lucknow - CPCB",10-12-2025 08:00:00,26.83399722,80.8917361,NH3,9,13,11
India,Uttar_Pradesh,Meerut,"Ganga Nagar, Meerut - UPPCB",10-12-2025 08:00:00,28.999264,77.7590354,OZONE,19,115,29
India,Uttar_Pradesh,Meerut,"Pallavpuram Phase 2, Meerut - UPPCB",10-12-2025 08:00:00,29.063510,77.709723,PM2.5,82,349,263
India,Uttar_Pradesh,Meerut,"Pallavpuram Phase 2, Meerut - UPPCB",10-12-2025 08:00:00,29.063510,77.709723,NO2,20,73,40
India,Uttar_Pradesh,Moradabad,"Buddhi Vihar, Moradabad - UPPCB",10-12-2025 08:00:00,28.83526,78.74460,OZONE,10,51,14
India,Uttar_Pradesh,Moradabad,"Eco Herbal Park, Moradabad - UPPCB",10-12-2025 08:00:00,28.840739,78.697531,SO2,8,31,15
India,Uttar_Pradesh,Moradabad,"Eco Herbal Park, Moradabad - UPPCB",10-12-2025 08:00:00,28.840739,78.697531,CO,3,101,24
India,Uttar_Pradesh,Moradabad,"Transport Nagar, Moradabad - UPPCB",10-12-2025 08:00:00,28.802625,78.753728,PM2.5,53,159,87
India,Uttar_Pradesh,Muzaffarnagar,"New Mandi, Muzaffarnagar - UPPCB",10-12-2025 08:00:00,29.4723508,77.7194031,OZONE,14,142,42
India,Uttar_Pradesh,Noida,"Sector - 125, Noida - UPPCB",10-12-2025 08:00:00,28.5447608,77.3231257,PM2.5,153,349,296
India,Uttar_Pradesh,Noida,"Sector - 125, Noida - UPPCB",10-12-2025 08:00:00,28.5447608,77.3231257,NH3,2,3,3
India,Uttar_Pradesh,Noida,"Sector-116, Noida - UPPCB",10-12-2025 08:00:00,28.569230,77.393848,NH3,14,20,18
India,Uttar_Pradesh,Prayagraj,"Jhunsi, Prayagraj - UPPCB",10-12-2025 08:00:00,25.425602,81.917152,NH3,5,5,5
India,Uttar_Pradesh,Prayagraj,"Jhunsi, Prayagraj - UPPCB",10-12-2025 08:00:00,25.425602,81.917152,OZONE,15,45,16
India,Uttar_Pradesh,Prayagraj,"Motilal Nehru NIT, Prayagraj - UPPCB",10-12-2025 08:00:00,25.494,81.863,NH3,8,8,8
India,Uttar_Pradesh,Prayagraj,"Motilal Nehru NIT, Prayagraj - UPPCB",10-12-2025 08:00:00,25.494,81.863,CO,20,50,28
India,Uttar_Pradesh,Prayagraj,"Nagar Nigam, Prayagraj - UPPCB",10-12-2025 08:00:00,25.44919916 ,81.82735986 ,NO2,5,5,5
India,Uttar_Pradesh,Prayagraj,"Nagar Nigam, Prayagraj - UPPCB",10-12-2025 08:00:00,25.44919916 ,81.82735986 ,CO,28,80,34
India,Andhra_Pradesh,Chittoor,"Gangineni Cheruvu, Chittoor - APPCB",10-12-2025 08:00:00,13.204880,79.097889,CO,NA,NA,NA
India,Andhra_Pradesh,Kadapa,"Yerramukkapalli, Kadapa - APPCB",10-12-2025 08:00:00,14.465052,78.824187,PM2.5,36,181,85
India,Andhra_Pradesh,Kadapa,"Yerramukkapalli, Kadapa - APPCB",10-12-2025 08:00:00,14.465052,78.824187,PM10,33,130,78
India,Andhra_Pradesh,Kadapa,"Yerramukkapalli, Kadapa - APPCB",10-12-2025 08:00:00,14.465052,78.824187,SO2,7,14,12
India,Andhra_Pradesh,Kadapa,"Yerramukkapalli, Kadapa - APPCB",10-12-2025 08:00:00,14.465052,78.824187,OZONE,14,26,25
India,Andhra_Pradesh,Rajamahendravaram,"Anand Kala Kshetram, Rajamahendravaram - APPCB",10-12-2025 08:00:00,16.9872867,81.7363176,PM10,97,176,132
India,Andhra_Pradesh,Tirumala,"Toll Gate, Tirumala - APPCB",10-12-2025 08:00:00,13.67,79.35,NH3,1,1,1
India,Andhra_Pradesh,Tirumala,"Toll Gate, Tirumala - APPCB",10-12-2025 08:00:00,13.67,79.35,CO,22,38,30
India,Andaman and Nicobar,Sri Vijaya Puram,"Police Line, Sri Vijaya Puram - ANPCC",10-12-2025 08:00:00,11.654054,92.734055,NH3,NA,NA,NA
India,Andaman and Nicobar,Sri Vijaya Puram,"Police Line, Sri Vijaya Puram - ANPCC",10-12-2025 08:00:00,11.654054,92.734055,SO2,NA,NA,NA
India,Andaman and Nicobar,Sri Vijaya Puram,"Police Line, Sri Vijaya Puram - ANPCC",10-12-2025 08:00:00,11.654054,92.734055,CO,NA,NA,NA
India,Andhra_Pradesh,Amaravati,"Secretariat, Amaravati - APPCB",10-12-2025 08:00:00,16.5150833,80.5181667,NH3,1,4,2
India,Andhra_Pradesh,Amaravati,"Secretariat, Amaravati - APPCB",10-12-2025 08:00:00,16.5150833,80.5181667,SO2,3,106,17
India,Andhra_Pradesh,Amaravati,"Secretariat, Amaravati - APPCB",10-12-2025 08:00:00,16.5150833,80.5181667,OZONE,4,69,12
India,Andhra_Pradesh,Anantapur,"Gulzarpet, Anantapur - APPCB",10-12-2025 08:00:00,14.675886,77.593027,SO2,9,16,15
India,Andhra_Pradesh,Chittoor,"Gangineni Cheruvu, Chittoor - APPCB",10-12-2025 08:00:00,13.204880,79.097889,PM2.5,NA,NA,NA
India,Bihar,Arrah,"New DM Office, Arrah - BSPCB",10-12-2025 08:00:00,25.5626095,84.663264,CO,42,62,55
India,Bihar,Aurangabad,"Gurdeo Nagar, Aurangabad - BSPCB",10-12-2025 08:00:00,24.75746,84.366208,SO2,NA,NA,NA
India,Bihar,Begusarai,"Lohiyanagar, Begusarai - BSPCB",10-12-2025 08:00:00,25.42742023,86.13886079,PM10,86,171,130
India,Bihar,Begusarai,"Lohiyanagar, Begusarai - BSPCB",10-12-2025 08:00:00,25.42742023,86.13886079,NH3,4,6,5
India,Bihar,Begusarai,"Lohiyanagar, Begusarai - BSPCB",10-12-2025 08:00:00,25.42742023,86.13886079,SO2,32,113,60
India,Bihar,Bettiah,"Kamalnath Nagar, Bettiah - BSPCB",10-12-2025 08:00:00,26.80365,84.51954,PM2.5,33,267,126
India,Bihar,Bettiah,"Kamalnath Nagar, Bettiah - BSPCB",10-12-2025 08:00:00,26.80365,84.51954,NH3,1,1,1
India,Assam,Silchar,"Tarapur, Silchar - PCBA",10-12-2025 08:00:00,24.82827,92.79525,CO,8,36,30
India,Assam,Sivasagar,"Girls College, Sivasagar - PCBA",10-12-2025 08:00:00,26.987634,94.636574,NO2,26,45,32
India,Assam,Sivasagar,"Girls College, Sivasagar - PCBA",10-12-2025 08:00:00,26.987634,94.636574,OZONE,4,75,4
India,Bihar,Araria,"Kharahiya Basti, Araria - BSPCB",10-12-2025 08:00:00,26.146529,87.454184,PM2.5,48,336,216
India,Bihar,Araria,"Kharahiya Basti, Araria - BSPCB",10-12-2025 08:00:00,26.146529,87.454184,PM10,42,200,128
India,Bihar,Araria,"Kharahiya Basti, Araria - BSPCB",10-12-2025 08:00:00,26.146529,87.454184,CO,14,34,26
India,Bihar,Bhagalpur,"DM Office_Kachari Chowk, Bhagalpur - BSPCB",10-12-2025 08:00:00,25.251013,86.989001,PM2.5,127,326,278
India,Bihar,Bhagalpur,"DM Office_Kachari Chowk, Bhagalpur - BSPCB",10-12-2025 08:00:00,25.251013,86.989001,NO2,7,12,9
India,Bihar,Bhagalpur,"Mayaganj, Bhagalpur - BSPCB",10-12-2025 08:00:00,25.265194,87.012947,SO2,27,74,50
India,Bihar,Bihar Sharif,"D M Colony, Bihar Sharif - BSPCB",10-12-2025 08:00:00,25.204762,85.514960,NO2,9,10,9
India,Bihar,Bihar Sharif,"D M Colony, Bihar Sharif - BSPCB",10-12-2025 08:00:00,25.204762,85.514960,CO,4,44,16
India,Bihar,Bihar Sharif,"D M Colony, Bihar Sharif - BSPCB",10-12-2025 08:00:00,25.204762,85.514960,OZONE,1,17,2
India,Assam,Guwahati,"IITG, Guwahati - PCBA",10-12-2025 08:00:00,26.2028636,91.70046436,CO,8,36,23
India,Assam,Guwahati,"Pan Bazaar, Guwahati - PCBA",10-12-2025 08:00:00,26.187500,91.744194,PM2.5,25,181,110
India,Assam,Nagaon,"Christianpatty, Nagaon - PCBA",10-12-2025 08:00:00,26.349082,92.68449,NH3,4,4,4
India,Assam,Nalbari,"Bata Chowk, Nalbari - PCBA",10-12-2025 08:00:00,26.446912,91.439057,PM10,110,122,116
India,Andhra_Pradesh,Visakhapatnam,"GVM Corporation, Visakhapatnam - APPCB",10-12-2025 08:00:00,17.72,83.3,OZONE,4,93,16
India,Arunachal_Pradesh,Naharlagun,"Naharlagun, Naharlagun - APSPCB",10-12-2025 08:00:00,27.103358,93.679645,SO2,8,10,9
India,Assam,Byrnihat,"Central Academy for SFS, Byrnihat - PCBA",10-12-2025 08:00:00,26.071318,91.87488,NO2,3,8,7
India,Bihar,Chhapra,"Darshan Nagar, Chhapra - BSPCB",10-12-2025 08:00:00,25.7808257,84.7446768,CO,8,16,9
India,Bihar,Gaya,"Collectorate, Gaya - BSPCB",10-12-2025 08:00:00,24.7955,84.9994,PM2.5,61,349,180
India,Bihar,Gaya,"Kareemganj, Gaya - BSPCB",10-12-2025 08:00:00,24.792403,84.992416,PM10,135,355,221
India,Bihar,Gaya,"Kareemganj, Gaya - BSPCB",10-12-2025 08:00:00,24.792403,84.992416,NO2,2,8,5
India,Andhra_Pradesh,Vijayawada,"HB Colony, Vijayawada - APPCB",10-12-2025 08:00:00,16.536107,80.594233,NO2,29,37,35
India,Andhra_Pradesh,Vijayawada,"Kanuru, Vijayawada - APPCB",10-12-2025 08:00:00,16.486692,80.699436,PM10,35,69,55
India,Andhra_Pradesh,Vijayawada,"Kanuru, Vijayawada - APPCB",10-12-2025 08:00:00,16.486692,80.699436,NO2,25,75,39
India,Andhra_Pradesh,Vijayawada,"Rajiv Nagar, Vijayawada - APPCB",10-12-2025 08:00:00,16.554731,80.649110,NO2,14,22,20
India,Bihar,Hajipur,"Industrial Area, Hajipur - BSPCB",10-12-2025 08:00:00,25.697189,85.245900,NH3,6,13,10
India,Bihar,Katihar,"Mirchaibari, Katihar - BSPCB",10-12-2025 08:00:00,25.560083,87.553265,PM2.5,65,253,162
India,Bihar,Katihar,"Mirchaibari, Katihar - BSPCB",10-12-2025 08:00:00,25.560083,87.553265,NO2,14,18,16
India,Chhattisgarh,Bhilai,"Hathkhoj, Bhilai - CECB",10-12-2025 08:00:00,21.224231,81.408350,SO2,4,49,17
India,Chhattisgarh,Bhilai,"Hathkhoj, Bhilai - CECB",10-12-2025 08:00:00,21.224231,81.408350,CO,16,80,49
India,Chhattisgarh,Bilaspur,"Mangala, Bilaspur - NTPC",10-12-2025 08:00:00,22.08815,82.13737,PM2.5,8,112,57
India,Chhattisgarh,Bilaspur,"Mangala, Bilaspur - NTPC",10-12-2025 08:00:00,22.08815,82.13737,SO2,9,34,17
India,Chhattisgarh,Chhal,"Nawapara SECL Colony, Chhal - CECB",10-12-2025 08:00:00,22.118125,83.140608,PM10,49,123,79
India,Chhattisgarh,Korba,"Rampur, Korba - CECB",10-12-2025 08:00:00,22.368195,82.746431,PM10,72,86,85
India,Chhattisgarh,Korba,"Rampur, Korba - CECB",10-12-2025 08:00:00,22.368195,82.746431,CO,16,34,24
India,Bihar,Rajgir,"Dangi Tola, Rajgir - BSPCB",10-12-2025 08:00:00,25.03280,85.41948,PM2.5,45,395,238
India,Bihar,Rajgir,"Dangi Tola, Rajgir - BSPCB",10-12-2025 08:00:00,25.03280,85.41948,NH3,6,7,6
India,Bihar,Saharsa,"Police Line, Saharsa - BSPCB",10-12-2025 08:00:00,25.892357,86.590325,PM2.5,88,317,184
India,Bihar,Saharsa,"Police Line, Saharsa - BSPCB",10-12-2025 08:00:00,25.892357,86.590325,NO2,3,9,7
India,Bihar,Samastipur,"DM Office_Kasipur, Samastipur - BSPCB",10-12-2025 08:00:00,25.859655,85.77944,CO,22,126,42
India,Bihar,Sasaram,"Dada Peer, Sasaram - BSPCB",10-12-2025 08:00:00,24.952822,84.002396,PM10,54,260,134
India,Chhattisgarh,Korba,"Urja Nagar, Korba - CECB",10-12-2025 08:00:00,22.348441,82.549611,PM10,92,93,92
India,Chhattisgarh,Korba,"Urja Nagar, Korba - CECB",10-12-2025 08:00:00,22.348441,82.549611,NH3,1,2,2
India,Chhattisgarh,Korba,"Urja Nagar, Korba - CECB",10-12-2025 08:00:00,22.348441,82.549611,CO,14,104,34
India,Chhattisgarh,Korba,"Urja Nagar, Korba - CECB",10-12-2025 08:00:00,22.348441,82.549611,OZONE,34,36,35
India,Chhattisgarh,Kunjemura,"OP Jindal School, Kunjemura - CECB",10-12-2025 08:00:00,22.126650,83.483212,NO2,19,76,39
India,Chhattisgarh,Milupara,"Govt. Higher Secondary School, Milupara - CECB",10-12-2025 08:00:00,22.1910172,83.5197009,SO2,12,19,14
India,Bihar,Manguraha,"Forest Rest House, Manguraha - BSPCB",10-12-2025 08:00:00,27.308328,84.531742,PM2.5,38,267,77
India,Bihar,Manguraha,"Forest Rest House, Manguraha - BSPCB",10-12-2025 08:00:00,27.308328,84.531742,PM10,45,202,87
India,Bihar,Manguraha,"Forest Rest House, Manguraha - BSPCB",10-12-2025 08:00:00,27.308328,84.531742,OZONE,10,16,11
India,Bihar,Motihari,"Gandak Colony, Motihari - BSPCB",10-12-2025 08:00:00,26.63086,84.90051,PM10,35,174,106
India,Bihar,Munger,"Town Hall, Munger - BSPCB",10-12-2025 08:00:00,25.376776,86.471523,PM2.5,207,321,270
India,Bihar,Patna,"Rajbansi Nagar, Patna - BSPCB",10-12-2025 08:00:00,25.599486,85.113666,OZONE,21,30,25
India,Bihar,Patna,"Samanpura, Patna - BSPCB",10-12-2025 08:00:00,25.596727,85.085624,SO2,1,6,2
India,Bihar,Patna,"Samanpura, Patna - BSPCB",10-12-2025 08:00:00,25.596727,85.085624,OZONE,25,81,34
India,Bihar,Purnia,"Mariam Nagar, Purnia - BSPCB",10-12-2025 08:00:00,25.366336,87.117468,PM2.5,30,187,137
India,Bihar,Purnia,"Mariam Nagar, Purnia - BSPCB",10-12-2025 08:00:00,25.366336,87.117468,PM10,27,117,96
India,Bihar,Purnia,"Mariam Nagar, Purnia - BSPCB",10-12-2025 08:00:00,25.366336,87.117468,SO2,14,17,16
India,Chandigarh,Chandigarh,"Sector-53, Chandigarh - CPCC",10-12-2025 08:00:00,30.719859,76.738637,PM2.5,92,305,176
India,Chhattisgarh,Bhilai,"32Bungalows, Bhilai - CECB",10-12-2025 08:00:00,21.194815,81.314770,SO2,6,16,10
India,Chhattisgarh,Bhilai,"Civic Center, Bhilai - Bhilai Steel Plant",10-12-2025 08:00:00,21.185571,81.343175,PM2.5,15,102,52
India,Chhattisgarh,Bhilai,"Civic Center, Bhilai - Bhilai Steel Plant",10-12-2025 08:00:00,21.185571,81.343175,SO2,7,10,8
India,Bihar,Sasaram,"Dada Peer, Sasaram - BSPCB",10-12-2025 08:00:00,24.952822,84.002396,NH3,3,6,3
India,Chandigarh,Chandigarh,"Sector 22, Chandigarh - CPCC",10-12-2025 08:00:00,30.735567,76.775714,NH3,11,17,15
India,Chandigarh,Chandigarh,"Sector 22, Chandigarh - CPCC",10-12-2025 08:00:00,30.735567,76.775714,OZONE,2,99,39
India,Bihar,Patna,"DRM Office Danapur, Patna - BSPCB",10-12-2025 08:00:00,25.586562,85.043586,NH3,7,26,13
India,Bihar,Patna,"DRM Office Danapur, Patna - BSPCB",10-12-2025 08:00:00,25.586562,85.043586,CO,20,146,66
India,Bihar,Patna,"Muradpur, Patna - BSPCB",10-12-2025 08:00:00,25.619651,85.147382,PM10,109,189,140
India,Bihar,Patna,"DRM Office Danapur, Patna - BSPCB",10-12-2025 08:00:00,25.586562,85.043586,PM10,119,191,153
India,Chhattisgarh,Raipur,"Siltara Phase-II, Raipur - CECB",10-12-2025 08:00:00,21.371751,81.664929,OZONE,3,9,3
India,Chhattisgarh,Tumidih,"OP Jindal Industrial Park, Tumidih - CECB",10-12-2025 08:00:00,22.06631475,83.33820077,NO2,43,91,67
India,Chhattisgarh,Tumidih,"OP Jindal Industrial Park, Tumidih - CECB",10-12-2025 08:00:00,22.06631475,83.33820077,SO2,5,11,6
India,Delhi,Delhi,"Alipur, Delhi - DPCC",10-12-2025 08:00:00,28.815329,77.153010,PM10,118,412,219
India,Delhi,Delhi,"Alipur, Delhi - DPCC",10-12-2025 08:00:00,28.815329,77.153010,OZONE,7,53,15
India,Delhi,Delhi,"Ashok Vihar, Delhi - DPCC",10-12-2025 08:00:00,28.695381,77.181665,PM2.5,98,372,287
India,Delhi,Delhi,"Aya Nagar, Delhi - IMD",10-12-2025 08:00:00,28.4706914,77.1099364,PM2.5,75,307,183
India,Delhi,Delhi,"Aya Nagar, Delhi - IMD",10-12-2025 08:00:00,28.4706914,77.1099364,OZONE,28,81,42
India,Delhi,Delhi,"Bawana, Delhi - DPCC",10-12-2025 08:00:00,28.776200,77.051074,OZONE,4,95,9
India,Delhi,Delhi,"Burari Crossing, Delhi - IMD",10-12-2025 08:00:00,28.7256504,77.2011573,PM2.5,91,330,271
India,Delhi,Delhi,"Burari Crossing, Delhi - IMD",10-12-2025 08:00:00,28.7256504,77.2011573,PM10,138,215,168
India,Delhi,Delhi,"CRRI Mathura Road, Delhi - IMD",10-12-2025 08:00:00,28.5512005,77.2735737,OZONE,8,82,10
India,Delhi,Delhi,"Najafgarh, Delhi - DPCC",10-12-2025 08:00:00,28.570173,76.933762,NH3,14,18,16
India,Delhi,Delhi,"Narela, Delhi - DPCC",10-12-2025 08:00:00,28.822836,77.101981,SO2,8,22,15
India,Delhi,Delhi,"Nehru Nagar, Delhi - DPCC",10-12-2025 08:00:00,28.567890,77.250515,NH3,15,28,20
India,Delhi,Delhi,"Nehru Nagar, Delhi - DPCC",10-12-2025 08:00:00,28.567890,77.250515,OZONE,1,290,16
India,Delhi,Delhi,"North Campus, DU, Delhi - IMD",10-12-2025 08:00:00,28.6573814,77.1585447,NO2,59,202,124
India,Delhi,Delhi,"North Campus, DU, Delhi - IMD",10-12-2025 08:00:00,28.6573814,77.1585447,CO,38,135,71
India,Delhi,Delhi,"Jahangirpuri, Delhi - DPCC",10-12-2025 08:00:00,28.732820,77.170633,NO2,59,129,89
India,Delhi,Delhi,"Jahangirpuri, Delhi - DPCC",10-12-2025 08:00:00,28.732820,77.170633,CO,34,124,91
India,Delhi,Delhi,"Jahangirpuri, Delhi - DPCC",10-12-2025 08:00:00,28.732820,77.170633,OZONE,6,126,12
India,Delhi,Delhi,"Jawaharlal Nehru Stadium, Delhi - DPCC",10-12-2025 08:00:00,28.580280,77.233829,NH3,5,5,5
India,Delhi,Delhi,"Jawaharlal Nehru Stadium, Delhi - DPCC",10-12-2025 08:00:00,28.580280,77.233829,OZONE,7,254,21
India,Delhi,Delhi,"Lodhi Road, Delhi - IMD",10-12-2025 08:00:00,28.5918245,77.2273074,PM2.5,85,327,229
India,Delhi,Delhi,"Dwarka-Sector 8, Delhi - DPCC ",10-12-2025 08:00:00,28.5710274,77.0719006,OZONE,4,111,7
India,Delhi,Delhi,"IGI Airport (T3), Delhi - IMD",10-12-2025 08:00:00,28.5627763,77.1180053,PM10,123,197,160
India,Delhi,Delhi,"IGI Airport (T3), Delhi - IMD",10-12-2025 08:00:00,28.5627763,77.1180053,NO2,43,110,82
India,Delhi,Delhi,"IGI Airport (T3), Delhi - IMD",10-12-2025 08:00:00,28.5627763,77.1180053,OZONE,5,61,8
India,Delhi,Delhi,"ITO, Delhi - CPCB",10-12-2025 08:00:00,28.628624,77.241060,SO2,8,26,16
India,Delhi,Delhi,"Mandir Marg, Delhi - DPCC",10-12-2025 08:00:00,28.636429,77.201067,NO2,62,117,85
India,Delhi,Delhi,"Mandir Marg, Delhi - DPCC",10-12-2025 08:00:00,28.636429,77.201067,OZONE,3,91,8
India,Delhi,Delhi,"Mundka, Delhi - DPCC",10-12-2025 08:00:00,28.684678,77.076574,PM10,138,500,300
India,Delhi,Delhi,"Mundka, Delhi - DPCC",10-12-2025 08:00:00,28.684678,77.076574,NO2,62,142,93
India,Delhi,Delhi,"NSIT Dwarka, Delhi - CPCB",10-12-2025 08:00:00,28.60909,77.0325413,PM2.5,141,372,260
India,Chhattisgarh,Raipur,"Bhatagaon New ISBT, Raipur - CECB",10-12-2025 08:00:00,21.219665,81.630094,NH3,2,2,2
India,Chhattisgarh,Raipur,"Siltara Phase-II, Raipur - CECB",10-12-2025 08:00:00,21.371751,81.664929,PM10,37,161,99
India,Chhattisgarh,Raipur,"Siltara Phase-II, Raipur - CECB",10-12-2025 08:00:00,21.371751,81.664929,NO2,10,35,21
India,Chhattisgarh,Raipur,"Siltara Phase-II, Raipur - CECB",10-12-2025 08:00:00,21.371751,81.664929,CO,34,36,35
India,Delhi,Delhi,"DTU, Delhi - CPCB",10-12-2025 08:00:00,28.7500499,77.1112615,NO2,23,69,44
India,Delhi,Delhi,"Dr. Karni Singh Shooting Range, Delhi - DPCC",10-12-2025 08:00:00,28.498571,77.264840,NO2,50,130,94
India,Delhi,Delhi,"Dwarka-Sector 8, Delhi - DPCC ",10-12-2025 08:00:00,28.5710274,77.0719006,NO2,49,134,89
India,Delhi,Delhi,"Okhla Phase-2, Delhi - DPCC",10-12-2025 08:00:00,28.530785,77.271255,NO2,132,284,204
India,Delhi,Delhi,"Okhla Phase-2, Delhi - DPCC",10-12-2025 08:00:00,28.530785,77.271255,CO,87,125,104
India,Delhi,Delhi,"Okhla Phase-2, Delhi - DPCC",10-12-2025 08:00:00,28.530785,77.271255,OZONE,6,156,11
India,Delhi,Delhi,"Sirifort, Delhi - CPCB",10-12-2025 08:00:00,28.5504249,77.2159377,PM2.5,109,332,288
India,Delhi,Delhi,"Sirifort, Delhi - CPCB",10-12-2025 08:00:00,28.5504249,77.2159377,SO2,19,33,27
India,Delhi,Delhi,"Sirifort, Delhi - CPCB",10-12-2025 08:00:00,28.5504249,77.2159377,OZONE,12,26,12
India,Delhi,Delhi,"Sonia Vihar, Delhi - DPCC",10-12-2025 08:00:00,28.710508,77.249485,NH3,8,10,9
India,Delhi,Delhi,"Sonia Vihar, Delhi - DPCC",10-12-2025 08:00:00,28.710508,77.249485,CO,50,132,99
India,Delhi,Delhi,"Sri Aurobindo Marg, Delhi - DPCC",10-12-2025 08:00:00,28.531346,77.190156,PM10,151,329,187
India,Delhi,Delhi,"Sri Aurobindo Marg, Delhi - DPCC",10-12-2025 08:00:00,28.531346,77.190156,NO2,24,97,55
India,Delhi,Delhi,"Sri Aurobindo Marg, Delhi - DPCC",10-12-2025 08:00:00,28.531346,77.190156,NH3,6,8,7
India,Delhi,Delhi,"Sri Aurobindo Marg, Delhi - DPCC",10-12-2025 08:00:00,28.531346,77.190156,SO2,2,14,9
India,Delhi,Delhi,"Vivek Vihar, Delhi - DPCC",10-12-2025 08:00:00,28.672342,77.315260,PM10,153,359,210
India,Delhi,Delhi,"Vivek Vihar, Delhi - DPCC",10-12-2025 08:00:00,28.672342,77.315260,NH3,11,13,12
India,Gujarat,Ahmedabad,"SVPI Airport Hansol, Ahmedabad - IITM",10-12-2025 08:00:00,23.076793,72.627874,PM2.5,38,74,55
India,Gujarat,Ahmedabad,"SVPI Airport Hansol, Ahmedabad - IITM",10-12-2025 08:00:00,23.076793,72.627874,NH3,4,5,5
India,Gujarat,Ahmedabad,"SVPI Airport Hansol, Ahmedabad - IITM",10-12-2025 08:00:00,23.076793,72.627874,SO2,5,13,7
India,Gujarat,Ankleshwar,"GIDC, Ankleshwar - GPCB",10-12-2025 08:00:00,21.613267,73.010555,OZONE,48,53,49
India,Gujarat,Gandhinagar,"IIPHG Lekawada, Gandhinagar - IITM",10-12-2025 08:00:00,23.243639,72.68994,NO2,7,8,7
India,Gujarat,Gandhinagar,"IIPHG Lekawada, Gandhinagar - IITM",10-12-2025 08:00:00,23.243639,72.68994,CO,5,84,29
India,Gujarat,Gandhinagar,"Sector-10, Gandhinagar - GPCB",10-12-2025 08:00:00,23.221714,72.654328,NO2,16,41,24
India,Gujarat,Gandhinagar,"Sector-10, Gandhinagar - GPCB",10-12-2025 08:00:00,23.221714,72.654328,SO2,8,17,13
India,Haryana,Faridabad,"Sector 30, Faridabad - HSPCB",10-12-2025 08:00:00,28.4417,77.3217,NH3,10,12,11
India,Haryana,Fatehabad,"Huda Sector, Fatehabad - HSPCB",10-12-2025 08:00:00,29.503664,75.467934,OZONE,16,19,16
India,Haryana,Gurugram,"NISE Gwal Pahari, Gurugram - IMD",10-12-2025 08:00:00,28.422681,77.148944,NO2,22,55,36
India,Haryana,Gurugram,"NISE Gwal Pahari, Gurugram - IMD",10-12-2025 08:00:00,28.422681,77.148944,CO,8,52,34
India,Haryana,Gurugram,"Sector-51, Gurugram - HSPCB",10-12-2025 08:00:00,28.4227,77.0667,PM2.5,133,318,228
India,Haryana,Gurugram,"Sector-51, Gurugram - HSPCB",10-12-2025 08:00:00,28.4227,77.0667,PM10,117,208,153
India,Haryana,Gurugram,"Sector-51, Gurugram - HSPCB",10-12-2025 08:00:00,28.4227,77.0667,SO2,2,8,4
India,Haryana,Charkhi Dadri,"Mini Secretariat, Charkhi Dadri - HSPCB",10-12-2025 08:00:00,28.593883,76.270653,SO2,10,11,11
India,Haryana,Dharuhera,"Municipal Corporation Office, Dharuhera -  HSPCB",10-12-2025 08:00:00,28.206800,76.799700,NH3,NA,NA,NA
India,Haryana,Faridabad,"New Industrial Town, Faridabad - HSPCB",10-12-2025 08:00:00,28.39072,77.30059,NO2,23,27,25
India,Haryana,Faridabad,"New Industrial Town, Faridabad - HSPCB",10-12-2025 08:00:00,28.39072,77.30059,SO2,8,8,8
India,Haryana,Faridabad,"Sector 11, Faridabad - HSPCB",10-12-2025 08:00:00,28.376058,77.315741,NH3,10,10,10
India,Haryana,Faridabad,"Sector 11, Faridabad - HSPCB",10-12-2025 08:00:00,28.376058,77.315741,CO,12,43,14
India,Gujarat,Ahmedabad,"Raikhad, Ahmedabad - IITM",10-12-2025 08:00:00,23.020509,72.579261,CO,8,68,24
India,Gujarat,Ahmedabad,"Rakhial, Ahmedabad - IITM",10-12-2025 08:00:00,23.016834,72.625775,SO2,18,41,28
India,Gujarat,Ahmedabad,"Rakhial, Ahmedabad - IITM",10-12-2025 08:00:00,23.016834,72.625775,CO,10,107,46
India,Gujarat,Ahmedabad,"SAC ISRO Bopal, Ahmedabad - IITM",10-12-2025 08:00:00,23.041137,72.456691,NH3,10,16,13
India,Gujarat,Ahmedabad,"SAC ISRO Bopal, Ahmedabad - IITM",10-12-2025 08:00:00,23.041137,72.456691,OZONE,1,58,2
India,Gujarat,Ahmedabad,"SAC ISRO Satellite, Ahmedabad - IITM",10-12-2025 08:00:00,23.023389,72.515201,NH3,8,21,13
India,Haryana,Bahadurgarh,"Arya Nagar, Bahadurgarh - HSPCB",10-12-2025 08:00:00,28.6701,76.9254,CO,44,50,48
India,Haryana,Ballabgarh,"Nathu Colony, Ballabgarh - HSPCB",10-12-2025 08:00:00,28.3419248,77.319699,CO,15,110,25
India,Haryana,Bhiwani,"H.B. Colony, Bhiwani - HSPCB",10-12-2025 08:00:00,28.806223,76.141105,PM2.5,214,246,229
India,Haryana,Charkhi Dadri,"Mini Secretariat, Charkhi Dadri - HSPCB",10-12-2025 08:00:00,28.593883,76.270653,PM10,104,240,131
India,Delhi,Delhi,"Wazirpur, Delhi - DPCC",10-12-2025 08:00:00,28.699793,77.165453,PM10,174,459,273
India,Gujarat,Ahmedabad,"Chandkheda, Ahmedabad - IITM",10-12-2025 08:00:00,23.107969,72.574648,PM10,86,186,123
India,Gujarat,Ahmedabad,"Chandkheda, Ahmedabad - IITM",10-12-2025 08:00:00,23.107969,72.574648,NO2,17,128,65
India,Gujarat,Ahmedabad,"Maninagar, Ahmedabad - GPCB",10-12-2025 08:00:00,23.002657,72.591912,NO2,63,64,64
India,Gujarat,Ahmedabad,"Maninagar, Ahmedabad - GPCB",10-12-2025 08:00:00,23.002657,72.591912,OZONE,36,82,42
India,Delhi,Delhi,"Pusa, Delhi - IMD",10-12-2025 08:00:00,28.636110,77.173332,PM10,95,350,201
India,Delhi,Delhi,"Rohini, Delhi - DPCC",10-12-2025 08:00:00,28.732528,77.119920,NH3,10,17,14
India,Delhi,Delhi,"Rohini, Delhi - DPCC",10-12-2025 08:00:00,28.732528,77.119920,OZONE,5,136,21
India,Delhi,Delhi,"Shadipur, Delhi - CPCB",10-12-2025 08:00:00,28.6514781,77.1473105,NO2,50,145,76
India,Gujarat,Surat,"Science Center, Surat - SMC",10-12-2025 08:00:00,21.170046,72.795405,SO2,36,46,40
India,Gujarat,Vapi,"Phase-1 GIDC, Vapi - GPCB",10-12-2025 08:00:00,20.362421,72.918013,PM2.5,13,212,62
India,Gujarat,Vatva,"Phase-4 GIDC, Vatva - GPCB",10-12-2025 08:00:00,22.969611,72.643500,NH3,5,6,6
India,Jharkhand,Dhanbad,"Sardar Patel Nagar, Dhanbad - JSPCB",10-12-2025 08:00:00,23.80569,86.44268,PM2.5,132,313,227
India,Jharkhand,Dhanbad,"Sardar Patel Nagar, Dhanbad - JSPCB",10-12-2025 08:00:00,23.80569,86.44268,PM10,87,313,196
India,Jharkhand,Jorapokhar,"Tata Stadium, Jorapokhar - JSPCB",10-12-2025 08:00:00,23.707909,86.414670,SO2,NA,NA,NA
India,Jharkhand,Jorapokhar,"Tata Stadium, Jorapokhar - JSPCB",10-12-2025 08:00:00,23.707909,86.414670,OZONE,2,16,2
India,Karnataka,Bagalkot,"Vidayagiri, Bagalkot - KSPCB",10-12-2025 08:00:00,16.172806,75.659694,PM2.5,35,36,35
India,Karnataka,Bagalkot,"Vidayagiri, Bagalkot - KSPCB",10-12-2025 08:00:00,16.172806,75.659694,NO2,11,12,12
India,Karnataka,Bengaluru,"BTM Layout, Bengaluru - CPCB",10-12-2025 08:00:00,12.9135218,77.5950804,NH3,5,8,6
India,Karnataka,Bengaluru,"BTM Layout, Bengaluru - CPCB",10-12-2025 08:00:00,12.9135218,77.5950804,CO,42,50,44
India,Karnataka,Bengaluru,"BTM Layout, Bengaluru - CPCB",10-12-2025 08:00:00,12.9135218,77.5950804,OZONE,23,24,23
India,Karnataka,Bengaluru,"BWSSB Kadabesanahalli, Bengaluru - CPCB",10-12-2025 08:00:00,12.9352049,77.6814488,PM2.5,68,190,127
India,Karnataka,Bengaluru,"BWSSB Kadabesanahalli, Bengaluru - CPCB",10-12-2025 08:00:00,12.9352049,77.6814488,NO2,13,31,21
India,Karnataka,Bengaluru,"City Railway Station, Bengaluru - KSPCB",10-12-2025 08:00:00,12.9756843,77.5660749,SO2,12,19,15
India,Karnataka,Bengaluru,"Hebbal, Bengaluru - KSPCB",10-12-2025 08:00:00,13.029152,77.585901,PM2.5,38,161,78
India,Karnataka,Bengaluru,"Hombegowda Nagar, Bengaluru - KSPCB",10-12-2025 08:00:00,12.938539,77.590100,PM2.5,35,64,49
India,Karnataka,Bengaluru,"Hombegowda Nagar, Bengaluru - KSPCB",10-12-2025 08:00:00,12.938539,77.590100,NO2,13,33,21
India,Karnataka,Bengaluru,"Hombegowda Nagar, Bengaluru - KSPCB",10-12-2025 08:00:00,12.938539,77.590100,SO2,6,17,10
India,Karnataka,Bengaluru,"Hombegowda Nagar, Bengaluru - KSPCB",10-12-2025 08:00:00,12.938539,77.590100,OZONE,28,42,36
India,Karnataka,Bengaluru,"Jayanagar 5th Block, Bengaluru - KSPCB",10-12-2025 08:00:00,12.920984,77.584908,NO2,15,64,37
India,Haryana,Sonipat,"Murthal, Sonipat - HSPCB",10-12-2025 08:00:00,29.027200,77.062100,CO,24,36,27
India,Haryana,Sonipat,"Murthal, Sonipat - HSPCB",10-12-2025 08:00:00,29.027200,77.062100,OZONE,25,26,26
India,Haryana,Yamuna Nagar,"Gobind Pura, Yamuna Nagar - HSPCB",10-12-2025 08:00:00,30.1480566,77.2893471,PM2.5,144,381,227
India,Haryana,Yamuna Nagar,"Gobind Pura, Yamuna Nagar - HSPCB",10-12-2025 08:00:00,30.1480566,77.2893471,NH3,1,6,4
India,Himachal Pradesh,Baddi,"HIMUDA Complex Phase-1, Baddi - HPPCB",10-12-2025 08:00:00,30.943887,76.801991,PM10,101,227,170
India,Jammu_and_Kashmir,Srinagar,"Rajbagh, Srinagar - JKSPCB",10-12-2025 08:00:00,34.066206,74.819820,PM10,57,135,83
India,Haryana,Manesar,"Sector-2 IMT, Manesar - HSPCB",10-12-2025 08:00:00,28.360699,76.936090,SO2,11,21,16
India,Haryana,Narnaul,"Shastri Nagar, Narnaul - HSPCB",10-12-2025 08:00:00,28.060249,76.113115,NH3,18,36,29
India,Haryana,Narnaul,"Shastri Nagar, Narnaul - HSPCB",10-12-2025 08:00:00,28.060249,76.113115,SO2,6,7,7
India,Haryana,Narnaul,"Shastri Nagar, Narnaul - HSPCB",10-12-2025 08:00:00,28.060249,76.113115,CO,15,56,27
India,Haryana,Palwal,"Shyam Nagar, Palwal - HSPCB",10-12-2025 08:00:00,28.1485564,77.3320667,NH3,9,9,9
India,Haryana,Palwal,"Shyam Nagar, Palwal - HSPCB",10-12-2025 08:00:00,28.1485564,77.3320667,SO2,12,13,13
India,Haryana,Panchgaon,"Amity University, Panchgaon - IITM",10-12-2025 08:00:00,28.3153,76.9143,OZONE,NA,NA,NA
India,Haryana,Gurugram,"Vikas Sadan, Gurugram - HSPCB",10-12-2025 08:00:00,28.4501238,77.0263051,PM2.5,162,302,236
India,Haryana,Gurugram,"Vikas Sadan, Gurugram - HSPCB",10-12-2025 08:00:00,28.4501238,77.0263051,PM10,138,150,144
India,Haryana,Hisar,"Urban Estate-II, Hisar - HSPCB",10-12-2025 08:00:00,29.140560,75.744941,NO2,19,19,19
India,Haryana,Hisar,"Urban Estate-II, Hisar - HSPCB",10-12-2025 08:00:00,29.140560,75.744941,SO2,6,15,11
India,Haryana,Kaithal,"Rishi Nagar, Kaithal - HSPCB",10-12-2025 08:00:00,29.8006,76.4155,PM10,46,139,116
India,Karnataka,Bengaluru,"Jayanagar 5th Block, Bengaluru - KSPCB",10-12-2025 08:00:00,12.920984,77.584908,SO2,1,25,9
India,Karnataka,Bengaluru,"Jayanagar 5th Block, Bengaluru - KSPCB",10-12-2025 08:00:00,12.920984,77.584908,CO,8,50,17
India,Karnataka,Bengaluru,"Jigani, Bengaluru - KSPCB",10-12-2025 08:00:00,12.7816279,77.6299145,SO2,17,17,17
India,Karnataka,Bengaluru,"Kasturi Nagar, Bengaluru - KSPCB",10-12-2025 08:00:00,13.003872,77.664217,CO,30,56,51
India,Karnataka,Bengaluru,"Peenya, Bengaluru - CPCB",10-12-2025 08:00:00,13.0270199,77.494094,PM2.5,18,56,33
India,Haryana,Panipat,"Sector-18, Panipat - HSPCB",10-12-2025 08:00:00,29.432304,76.972765,PM2.5,NA,NA,NA
India,Haryana,Panipat,"Sector-18, Panipat - HSPCB",10-12-2025 08:00:00,29.432304,76.972765,CO,NA,NA,NA
India,Haryana,Rohtak,"MD University, Rohtak - HSPCB",10-12-2025 08:00:00,28.52123,76.37138,PM2.5,26,76,50
India,Haryana,Rohtak,"MD University, Rohtak - HSPCB",10-12-2025 08:00:00,28.52123,76.37138,SO2,9,14,12
India,Haryana,Sonipat,"Murthal, Sonipat - HSPCB",10-12-2025 08:00:00,29.027200,77.062100,PM2.5,126,401,287
India,Haryana,Kurukshetra,"Sector-7, Kurukshetra - HSPCB",10-12-2025 08:00:00,29.966942,76.875879,PM2.5,105,208,151
India,Haryana,Kurukshetra,"Sector-7, Kurukshetra - HSPCB",10-12-2025 08:00:00,29.966942,76.875879,PM10,117,162,138
India,Haryana,Kurukshetra,"Sector-7, Kurukshetra - HSPCB",10-12-2025 08:00:00,29.966942,76.875879,NO2,15,21,19
India,Haryana,Mandikhera,"General Hospital, Mandikhera(Nuh) - HSPCB",10-12-2025 08:00:00,27.9002,76.9938,PM2.5,47,307,121
India,Karnataka,Bengaluru,"Peenya, Bengaluru - CPCB",10-12-2025 08:00:00,13.0270199,77.494094,SO2,5,17,8
India,Karnataka,Hubballi,"Lingaraj Nagar, Hubballi - KSPCB",10-12-2025 08:00:00,15.3714823,75.1160168,OZONE,18,24,18
India,Karnataka,Kalaburagi,"Lal Bahadur Shastri Nagar, Kalaburagi - KSPCB",10-12-2025 08:00:00,17.321993,76.822628,PM2.5,NA,NA,NA
India,Karnataka,Kalaburagi,"Lal Bahadur Shastri Nagar, Kalaburagi - KSPCB",10-12-2025 08:00:00,17.321993,76.822628,SO2,NA,NA,NA
India,Karnataka,Kalaburagi,"Mahatma Basaveswar Colony, Kalaburgi - KSPCB",10-12-2025 08:00:00,17.336318,76.847397,NO2,9,19,13
India,Karnataka,Kalaburagi,"Mahatma Basaveswar Colony, Kalaburgi - KSPCB",10-12-2025 08:00:00,17.336318,76.847397,SO2,2,7,3
India,Karnataka,Koppal,"Diwator Nagar, Koppal - KSPCB",10-12-2025 08:00:00,15.347630,76.181767,CO,25,30,25
India,Karnataka,Madikeri,"Stuart Hill, Madikeri - KSPCB",10-12-2025 08:00:00,12.415911,75.735050,SO2,7,8,7
India,Madhya Pradesh,Bhopal,"T T Nagar, Bhopal - MPPCB",10-12-2025 08:00:00,23.233584,77.400574,OZONE,4,159,24
India,Madhya Pradesh,Dewas,"Bhopal Chauraha, Dewas - MPPCB",10-12-2025 08:00:00,22.9682591,76.064118,NO2,7,8,7
India,Madhya Pradesh,Dewas,"Bhopal Chauraha, Dewas - MPPCB",10-12-2025 08:00:00,22.9682591,76.064118,OZONE,23,27,25
India,Madhya Pradesh,Gwalior,"City Center, Gwalior - MPPCB",10-12-2025 08:00:00,26.203442,78.193251,PM2.5,23,309,121
India,Madhya Pradesh,Gwalior,"City Center, Gwalior - MPPCB",10-12-2025 08:00:00,26.203442,78.193251,NH3,2,4,3
India,Madhya Pradesh,Gwalior,"City Center, Gwalior - MPPCB",10-12-2025 08:00:00,26.203442,78.193251,SO2,15,24,18
India,Madhya Pradesh,Gwalior,"City Center, Gwalior - MPPCB",10-12-2025 08:00:00,26.203442,78.193251,OZONE,56,68,63
India,Madhya Pradesh,Gwalior,"Deen Dayal Nagar, Gwalior - MPPCB",10-12-2025 08:00:00,26.259242,78.216432,NH3,8,12,10
India,Kerala,Eloor,"Udyogamandal, Eloor - Kerala PCB",10-12-2025 08:00:00,10.073232,76.302765,SO2,1,1,1
India,Kerala,Kannur,"Thavakkara, Kannur - Kerala PCB",10-12-2025 08:00:00,11.875000,75.373200,PM10,63,68,64
India,Kerala,Kollam,"Polayathode, Kollam - Kerala PCB",10-12-2025 08:00:00,8.8787,76.6073,CO,14,18,16
India,Kerala,Thiruvananthapuram,"Kariavattom, Thiruvananthapuram - Kerala PCB",10-12-2025 08:00:00,8.563700,76.886500,PM2.5,52,305,160
India,Kerala,Thiruvananthapuram,"Kariavattom, Thiruvananthapuram - Kerala PCB",10-12-2025 08:00:00,8.563700,76.886500,CO,22,50,34
India,Kerala,Thiruvananthapuram,"Kariavattom, Thiruvananthapuram - Kerala PCB",10-12-2025 08:00:00,8.563700,76.886500,OZONE,36,37,36
India,Karnataka,Chamarajanagar,"Urban, Chamarajanagar - KSPCB",10-12-2025 08:00:00,11.55358,76.55521,SO2,2,5,3
India,Karnataka,Chikkamagaluru,"Kalyana Nagara, Chikkamagaluru - KSPCB",10-12-2025 08:00:00,13.328028,75.797056,NH3,2,2,2
India,Karnataka,Dharwad,"Kalabhavan, Dharwad - KSPCB",10-12-2025 08:00:00,15.459706,75.008381,PM10,62,88,82
India,Karnataka,Haveri,"Ashwini Nagar, Haveri - KSPCB",10-12-2025 08:00:00,14.791800,75.389600,PM2.5,NA,NA,NA
India,Karnataka,Hubballi,"Lingaraj Nagar, Hubballi - KSPCB",10-12-2025 08:00:00,15.3714823,75.1160168,CO,16,24,19
India,Madhya Pradesh,Gwalior,"Deen Dayal Nagar, Gwalior - MPPCB",10-12-2025 08:00:00,26.259242,78.216432,CO,18,135,44
India,Madhya Pradesh,Indore,"Airport Area, Indore - IMC",10-12-2025 08:00:00,22.7289,75.8076,PM10,21,118,69
India,Madhya Pradesh,Indore,"Airport Area, Indore - IMC",10-12-2025 08:00:00,22.7289,75.8076,CO,6,11,9
India,Madhya Pradesh,Indore,"Chhoti Gwaltoli, Indore - MPPCB",10-12-2025 08:00:00,22.4310,75.5213,NH3,NA,NA,NA
India,Madhya Pradesh,Indore,"Maguda Nagar, Indore - IMC",10-12-2025 08:00:00,22.7524,75.8872,NO2,2,2,2
India,Karnataka,Bengaluru,"RVCE-Mailasandra, Bengaluru - KSPCB",10-12-2025 08:00:00,12.921418,77.502466,PM2.5,49,81,52
India,Karnataka,Bengaluru,"RVCE-Mailasandra, Bengaluru - KSPCB",10-12-2025 08:00:00,12.921418,77.502466,SO2,5,6,6
India,Karnataka,Bengaluru,"Sanegurava Halli, Bengaluru - KSPCB",10-12-2025 08:00:00,12.990328,77.5431385,PM10,54,57,54
India,Karnataka,Bengaluru,"Shivapura_Peenya, Bengaluru - KSPCB",10-12-2025 08:00:00,13.0246342,77.5080115,NH3,4,4,4
India,Karnataka,Bengaluru,"Silk Board, Bengaluru - KSPCB",10-12-2025 08:00:00,12.917348,77.622813,NO2,10,17,12
India,Kerala,Thiruvananthapuram,"Plammoodu, Thiruvananthapuram - Kerala PCB",10-12-2025 08:00:00,8.5149093,76.9435879,NO2,2,37,20
India,Kerala,Thiruvananthapuram,"Plammoodu, Thiruvananthapuram - Kerala PCB",10-12-2025 08:00:00,8.5149093,76.9435879,SO2,11,24,17
India,Kerala,Thrissur,"Corporation Ground, Thrissur - Kerala PCB",10-12-2025 08:00:00,10.532400,76.215900,PM2.5,50,62,56
India,Madhya Pradesh,Bhopal,"Paryavaran Parisar, Bhopal - MPPCB",10-12-2025 08:00:00,23.210494,77.425409,SO2,2,10,8
India,Madhya Pradesh,Indore,"Maguda Nagar, Indore - IMC",10-12-2025 08:00:00,22.7524,75.8872,NH3,NA,NA,NA
India,Madhya Pradesh,Indore,"Maguda Nagar, Indore - IMC",10-12-2025 08:00:00,22.7524,75.8872,OZONE,8,21,16
India,Madhya Pradesh,Indore,"Regional Park, Indore - IMC",10-12-2025 08:00:00,22.6780,75.8559,SO2,28,37,31
India,Madhya Pradesh,Jabalpur,"Gupteshwar, Jabalpur - JMC",10-12-2025 08:00:00,23.142888,79.916147,PM2.5,24,154,57
India,Karnataka,Shivamogga,"Vinoba Nagara, Shivamogga - KSPCB",10-12-2025 08:00:00,13.940000,75.555917,SO2,2,6,4
India,Karnataka,Shivamogga,"Vinoba Nagara, Shivamogga - KSPCB",10-12-2025 08:00:00,13.940000,75.555917,CO,8,24,11
India,Maharashtra,Badlapur,"Katrap, Badlapur - MPCB",10-12-2025 08:00:00,19.16485,73.23409,PM10,66,172,118
India,Maharashtra,Badlapur,"Katrap, Badlapur - MPCB",10-12-2025 08:00:00,19.16485,73.23409,NH3,2,7,5
India,Maharashtra,Belapur,"CBD Belapur, Belapur - MPCB",10-12-2025 08:00:00,19.0243902,73.0406721,PM10,54,165,106
India,Maharashtra,Belapur,"CBD Belapur, Belapur - MPCB",10-12-2025 08:00:00,19.0243902,73.0406721,NH3,1,2,1
India,Maharashtra,Belapur,"CBD Belapur, Belapur - MPCB",10-12-2025 08:00:00,19.0243902,73.0406721,SO2,8,25,16
India,Maharashtra,Bhiwandi,"Gokul Nagar, Bhiwandi - MPCB",10-12-2025 08:00:00,19.309073,73.057223,PM10,64,185,140
India,Maharashtra,Boisar,"Khaira, Boisar - MPCB",10-12-2025 08:00:00,19.786089,72.757971,PM2.5,41,123,80
India,Maharashtra,Boisar,"Khaira, Boisar - MPCB",10-12-2025 08:00:00,19.786089,72.757971,SO2,7,34,22
India,Maharashtra,Jalna,"Old MIDC, Jalna - MPCB",10-12-2025 08:00:00,19.854616,75.905894,NH3,2,5,4
India,Maharashtra,Jalna,"Old MIDC, Jalna - MPCB",10-12-2025 08:00:00,19.854616,75.905894,CO,28,32,29
India,Maharashtra,Kalyan,"Khadakpada, Kalyan - MPCB",10-12-2025 08:00:00,19.25292,73.142019,NH3,NA,NA,NA
India,Maharashtra,Kalyan,"Khadakpada, Kalyan - MPCB",10-12-2025 08:00:00,19.25292,73.142019,OZONE,8,9,9
India,Maharashtra,Kalyan,"Pimpleshwar Mandir, Kalyan - MPCB",10-12-2025 08:00:00,19.192056,72.9585188,PM2.5,22,214,103
India,Maharashtra,Kalyan,"Pimpleshwar Mandir, Kalyan - MPCB",10-12-2025 08:00:00,19.192056,72.9585188,PM10,91,243,160
India,Maharashtra,Kalyan,"Pimpleshwar Mandir, Kalyan - MPCB",10-12-2025 08:00:00,19.192056,72.9585188,NH3,2,10,6
India,Maharashtra,Kalyan,"Pimpleshwar Mandir, Kalyan - MPCB",10-12-2025 08:00:00,19.192056,72.9585188,SO2,14,70,34
India,Maharashtra,Latur,"Sawe Wadi, Latur - MPCB",10-12-2025 08:00:00,18.39963,76.57452,NH3,3,24,9
India,Maharashtra,Latur,"Sawe Wadi, Latur - MPCB",10-12-2025 08:00:00,18.39963,76.57452,SO2,3,18,8
India,Maharashtra,Mahad,"Kamble Tarf Birwadi, Mahad - MPCB",10-12-2025 08:00:00,18.1023399,73.4783687,NO2,14,179,46
India,Maharashtra,Mahad,"Kamble Tarf Birwadi, Mahad - MPCB",10-12-2025 08:00:00,18.1023399,73.4783687,NH3,3,5,4
India,Maharashtra,Malegaon,"Mahesh Nagar, Malegaon - MPCB",10-12-2025 08:00:00,20.555712,74.529236,PM10,NA,NA,NA
India,Maharashtra,Malegaon,"Mahesh Nagar, Malegaon - MPCB",10-12-2025 08:00:00,20.555712,74.529236,NH3,1,5,4
India,Maharashtra,Malegaon,"Mahesh Nagar, Malegaon - MPCB",10-12-2025 08:00:00,20.555712,74.529236,SO2,NA,NA,NA
India,Maharashtra,Malegaon,"Mahesh Nagar, Malegaon - MPCB",10-12-2025 08:00:00,20.555712,74.529236,CO,16,136,32
India,Madhya Pradesh,Satna,"Bandhavgar Colony, Satna - Birla Cement",10-12-2025 08:00:00,24.58434363,80.8549414,SO2,18,21,19
India,Madhya Pradesh,Singrauli,"Suryakiran Bhawan NCL, Singrauli - MPPCB",10-12-2025 08:00:00,24.108970,82.645580,NO2,41,119,95
India,Madhya Pradesh,Singrauli,"Suryakiran Bhawan NCL, Singrauli - MPPCB",10-12-2025 08:00:00,24.108970,82.645580,SO2,6,40,27
India,Maharashtra,Ahmednagar,"Tarakpur, Ahmednagar - MPCB",10-12-2025 08:00:00,19.10122,74.73339,SO2,1,8,4
