country,state,city,station,last_update,latitude,longitude,pollutant_id,min_value,max_value,avg_value
India,Assam,Guwahati,"Pan Bazaar, Guwahati - PCBA",24-02-2026 08:00:00,26.187500,91.744194,CO,14,69,39
India,Assam,Nagaon,"Christianpatty, Nagaon - PCBA",24-02-2026 08:00:00,26.349082,92.68449,PM2.5,49,213,112
India,Assam,Nagaon,"Christianpatty, Nagaon - PCBA",24-02-2026 08:00:00,26.349082,92.68449,NO2,1,1,1
India,Assam,Nalbari,"Bata Chowk, Nalbari - PCBA",24-02-2026 08:00:00,26.446912,91.439057,NH3,NA,NA,NA
India,Assam,Nalbari,"Bata Chowk, Nalbari - PCBA",24-02-2026 08:00:00,26.446912,91.439057,SO2,NA,NA,NA
India,Assam,Nalbari,"Bata Chowk, Nalbari - PCBA",24-02-2026 08:00:00,26.446912,91.439057,OZONE,14,17,15
India,Assam,Silchar,"Tarapur, Silchar - PCBA",24-02-2026 08:00:00,24.82827,92.79525,CO,27,50,43
India,Assam,Sivasagar,"Girls College, Sivasagar - PCBA",24-02-2026 08:00:00,26.987634,94.636574,PM2.5,42,99,72
India,Assam,Sivasagar,"Girls College, Sivasagar - PCBA",24-02-2026 08:00:00,26.987634,94.636574,PM10,26,97,65
India,Bihar,Araria,"Kharahiya Basti, Araria - BSPCB",24-02-2026 08:00:00,26.146529,87.454184,PM10,25,124,76
India,Bihar,Araria,"Kharahiya Basti, Araria - BSPCB",24-02-2026 08:00:00,26.146529,87.454184,NO2,1,9,3
India,Bihar,Araria,"Kharahiya Basti, Araria - BSPCB",24-02-2026 08:00:00,26.146529,87.454184,SO2,19,59,39
India,Bihar,Aurangabad,"Gurdeo Nagar, Aurangabad - BSPCB",24-02-2026 08:00:00,24.75746,84.366208,PM2.5,NA,NA,NA
India,Bihar,Aurangabad,"Gurdeo Nagar, Aurangabad - BSPCB",24-02-2026 08:00:00,24.75746,84.366208,CO,101,103,102
India,Bihar,Begusarai,"Lohiyanagar, Begusarai - BSPCB",24-02-2026 08:00:00,25.42742023,86.13886079,NO2,5,14,8
India,Bihar,Begusarai,"Lohiyanagar, Begusarai - BSPCB",24-02-2026 08:00:00,25.42742023,86.13886079,NH3,5,6,5
India,Bihar,Begusarai,"Lohiyanagar, Begusarai - BSPCB",24-02-2026 08:00:00,25.42742023,86.13886079,SO2,19,27,24
India,Bihar,Bettiah,"Kamalnath Nagar, Bettiah - BSPCB",24-02-2026 08:00:00,26.80365,84.51954,PM10,37,141,75
India,Bihar,Bhagalpur,"DM Office_Kachari Chowk, Bhagalpur - BSPCB",24-02-2026 08:00:00,25.251013,86.989001,NH3,1,1,1
India,Bihar,Bhagalpur,"Mayaganj, Bhagalpur - BSPCB",24-02-2026 08:00:00,25.265194,87.012947,NO2,6,55,9
India,Bihar,Buxar,"Charitra Van, Buxar - BSPCB",24-02-2026 08:00:00,25.567520,83.966379,PM2.5,48,253,92
India,Bihar,Buxar,"Charitra Van, Buxar - BSPCB",24-02-2026 08:00:00,25.567520,83.966379,NO2,9,10,9
India,Bihar,Buxar,"Charitra Van, Buxar - BSPCB",24-02-2026 08:00:00,25.567520,83.966379,SO2,11,33,19
India,Bihar,Buxar,"Charitra Van, Buxar - BSPCB",24-02-2026 08:00:00,25.567520,83.966379,OZONE,2,22,5
India,Bihar,Chhapra,"Darshan Nagar, Chhapra - BSPCB",24-02-2026 08:00:00,25.7808257,84.7446768,PM10,16,128,83
India,Bihar,Chhapra,"Darshan Nagar, Chhapra - BSPCB",24-02-2026 08:00:00,25.7808257,84.7446768,NH3,4,13,7
India,Andhra_Pradesh,Chittoor,"Gangineni Cheruvu, Chittoor - APPCB",24-02-2026 08:00:00,13.204880,79.097889,PM2.5,NA,NA,NA
India,Andhra_Pradesh,Chittoor,"Gangineni Cheruvu, Chittoor - APPCB",24-02-2026 08:00:00,13.204880,79.097889,PM10,NA,NA,NA
India,Andhra_Pradesh,Chittoor,"Gangineni Cheruvu, Chittoor - APPCB",24-02-2026 08:00:00,13.204880,79.097889,SO2,NA,NA,NA
India,Andhra_Pradesh,Kadapa,"Yerramukkapalli, Kadapa - APPCB",24-02-2026 08:00:00,14.465052,78.824187,PM2.5,63,107,80
India,Andhra_Pradesh,Kadapa,"Yerramukkapalli, Kadapa - APPCB",24-02-2026 08:00:00,14.465052,78.824187,NO2,19,26,23
India,Andhra_Pradesh,Tirumala,"Toll Gate, Tirumala - APPCB",24-02-2026 08:00:00,13.67,79.35,CO,1,79,19
India,Andhra_Pradesh,Tirupati,"Vaikuntapuram, Tirupati - APPCB",24-02-2026 08:00:00,13.615387,79.409230,NH3,5,6,5
India,Andhra_Pradesh,Tirupati,"Vaikuntapuram, Tirupati - APPCB",24-02-2026 08:00:00,13.615387,79.409230,CO,19,26,23
India,Andhra_Pradesh,Vijayawada,"HB Colony, Vijayawada - APPCB",24-02-2026 08:00:00,16.536107,80.594233,NO2,17,17,17
India,Andhra_Pradesh,Vijayawada,"Kanuru, Vijayawada - APPCB",24-02-2026 08:00:00,16.486692,80.699436,PM10,43,62,55
India,Andhra_Pradesh,Vijayawada,"Kanuru, Vijayawada - APPCB",24-02-2026 08:00:00,16.486692,80.699436,NH3,4,6,4
India,Andhra_Pradesh,Vijayawada,"Rajiv Nagar, Vijayawada - APPCB",24-02-2026 08:00:00,16.554731,80.649110,SO2,13,20,15
India,Andhra_Pradesh,Visakhapatnam,"GVM Corporation, Visakhapatnam - APPCB",24-02-2026 08:00:00,17.72,83.3,PM2.5,14,140,52
India,Assam,Byrnihat,"Central Academy for SFS, Byrnihat - PCBA",24-02-2026 08:00:00,26.071318,91.87488,CO,NA,NA,NA
India,Assam,Guwahati,"LGBI Airport, Guwahati - PCBA",24-02-2026 08:00:00,26.10887,91.589544,SO2,1,18,7
India,Arunachal_Pradesh,Naharlagun,"Naharlagun, Naharlagun - APSPCB",24-02-2026 08:00:00,27.103358,93.679645,PM2.5,2,413,166
India,Arunachal_Pradesh,Naharlagun,"Naharlagun, Naharlagun - APSPCB",24-02-2026 08:00:00,27.103358,93.679645,SO2,9,12,10
India,Arunachal_Pradesh,Naharlagun,"Naharlagun, Naharlagun - APSPCB",24-02-2026 08:00:00,27.103358,93.679645,CO,16,56,24
India,Assam,Sivasagar,"Girls College, Sivasagar - PCBA",24-02-2026 08:00:00,26.987634,94.636574,SO2,8,11,11
India,Assam,Guwahati,"Pan Bazaar, Guwahati - PCBA",24-02-2026 08:00:00,26.187500,91.744194,NH3,1,1,1
India,Bihar,Chhapra,"Darshan Nagar, Chhapra - BSPCB",24-02-2026 08:00:00,25.7808257,84.7446768,SO2,25,30,27
India,Bihar,Chhapra,"Darshan Nagar, Chhapra - BSPCB",24-02-2026 08:00:00,25.7808257,84.7446768,CO,40,56,50
India,Bihar,Chhapra,"Darshan Nagar, Chhapra - BSPCB",24-02-2026 08:00:00,25.7808257,84.7446768,OZONE,2,5,3
India,Bihar,Gaya,"Collectorate, Gaya - BSPCB",24-02-2026 08:00:00,24.7955,84.9994,PM2.5,29,168,85
India,Bihar,Gaya,"Collectorate, Gaya - BSPCB",24-02-2026 08:00:00,24.7955,84.9994,SO2,27,29,28
India,Bihar,Gaya,"Kareemganj, Gaya - BSPCB",24-02-2026 08:00:00,24.792403,84.992416,NO2,NA,NA,NA
India,Bihar,Gaya,"SFTI Kusdihra, Gaya - BSPCB",24-02-2026 08:00:00,24.762518,84.982348,SO2,7,9,8
India,Bihar,Gaya,"SFTI Kusdihra, Gaya - BSPCB",24-02-2026 08:00:00,24.762518,84.982348,OZONE,10,53,12
India,Bihar,Hajipur,"Industrial Area, Hajipur - BSPCB",24-02-2026 08:00:00,25.697189,85.245900,CO,12,82,67
India,Bihar,Katihar,"Mirchaibari, Katihar - BSPCB",24-02-2026 08:00:00,25.560083,87.553265,NH3,1,1,1
India,Bihar,Katihar,"Mirchaibari, Katihar - BSPCB",24-02-2026 08:00:00,25.560083,87.553265,SO2,19,24,21
India,Bihar,Siwan,"Chitragupta Nagar, Siwan - BSPCB",24-02-2026 08:00:00,26.2271665,84.3570427,NH3,1,2,1
India,Chandigarh,Chandigarh,"Sector 22, Chandigarh - CPCC",24-02-2026 08:00:00,30.735567,76.775714,PM10,41,94,75
India,Chandigarh,Chandigarh,"Sector 22, Chandigarh - CPCC",24-02-2026 08:00:00,30.735567,76.775714,CO,53,108,81
India,Chandigarh,Chandigarh,"Sector-25, Chandigarh - CPCC",24-02-2026 08:00:00,30.751462,76.762879,CO,19,49,27
India,Chandigarh,Chandigarh,"Sector-25, Chandigarh - CPCC",24-02-2026 08:00:00,30.751462,76.762879,OZONE,1,60,2
India,Chandigarh,Chandigarh,"Sector-53, Chandigarh - CPCC",24-02-2026 08:00:00,30.719859,76.738637,SO2,NA,NA,NA
India,Chandigarh,Chandigarh,"Sector-53, Chandigarh - CPCC",24-02-2026 08:00:00,30.719859,76.738637,OZONE,NA,NA,NA
India,Chhattisgarh,Bhilai,"32Bungalows, Bhilai - CECB",24-02-2026 08:00:00,21.194815,81.314770,PM10,11,42,25
India,Chhattisgarh,Bhilai,"32Bungalows, Bhilai - CECB",24-02-2026 08:00:00,21.194815,81.314770,NO2,27,41,34
India,Chhattisgarh,Bhilai,"32Bungalows, Bhilai - CECB",24-02-2026 08:00:00,21.194815,81.314770,NH3,1,2,2
India,Chhattisgarh,Bhilai,"32Bungalows, Bhilai - CECB",24-02-2026 08:00:00,21.194815,81.314770,SO2,7,9,8
India,Bihar,Purnia,"Mariam Nagar, Purnia - BSPCB",24-02-2026 08:00:00,25.366336,87.117468,NH3,3,3,3
India,Bihar,Purnia,"Mariam Nagar, Purnia - BSPCB",24-02-2026 08:00:00,25.366336,87.117468,CO,56,65,58
India,Bihar,Purnia,"Mariam Nagar, Purnia - BSPCB",24-02-2026 08:00:00,25.366336,87.117468,OZONE,7,46,20
India,Bihar,Rajgir,"Dangi Tola, Rajgir - BSPCB",24-02-2026 08:00:00,25.03280,85.41948,NH3,3,3,3
India,Bihar,Rajgir,"Dangi Tola, Rajgir - BSPCB",24-02-2026 08:00:00,25.03280,85.41948,OZONE,24,29,26
India,Bihar,Saharsa,"Police Line, Saharsa - BSPCB",24-02-2026 08:00:00,25.892357,86.590325,CO,38,45,40
India,Bihar,Samastipur,"DM Office_Kasipur, Samastipur - BSPCB",24-02-2026 08:00:00,25.859655,85.77944,PM10,NA,NA,NA
India,Bihar,Samastipur,"DM Office_Kasipur, Samastipur - BSPCB",24-02-2026 08:00:00,25.859655,85.77944,SO2,NA,NA,NA
India,Bihar,Sasaram,"Dada Peer, Sasaram - BSPCB",24-02-2026 08:00:00,24.952822,84.002396,NH3,NA,NA,NA
India,Bihar,Siwan,"Chitragupta Nagar, Siwan - BSPCB",24-02-2026 08:00:00,26.2271665,84.3570427,PM2.5,32,80,52
India,Bihar,Kishanganj,"SDM Office_Khagra, Kishanganj - BSPCB",24-02-2026 08:00:00,26.0881305,87.93840336,PM2.5,40,345,112
India,Bihar,Manguraha,"Forest Rest House, Manguraha - BSPCB",24-02-2026 08:00:00,27.308328,84.531742,CO,32,33,32
India,Bihar,Manguraha,"Forest Rest House, Manguraha - BSPCB",24-02-2026 08:00:00,27.308328,84.531742,OZONE,9,10,10
India,Bihar,Motihari,"Gandak Colony, Motihari - BSPCB",24-02-2026 08:00:00,26.63086,84.90051,NO2,4,11,7
India,Bihar,Munger,"Town Hall, Munger - BSPCB",24-02-2026 08:00:00,25.376776,86.471523,NO2,4,5,5
India,Bihar,Muzaffarpur,"Buddha Colony, Muzaffarpur - BSPCB",24-02-2026 08:00:00,26.11442,85.39813,PM10,80,178,111
India,Bihar,Muzaffarpur,"MIT-Daudpur Kothi, Muzaffarpur - BSPCB",24-02-2026 08:00:00,26.1403345,85.3650192,PM2.5,83,107,99
India,Bihar,Patna,"DRM Office Danapur, Patna - BSPCB",24-02-2026 08:00:00,25.586562,85.043586,PM10,51,401,144
India,Bihar,Patna,"DRM Office Danapur, Patna - BSPCB",24-02-2026 08:00:00,25.586562,85.043586,CO,6,107,39
India,Bihar,Patna,"Govt. High School Shikarpur, Patna - BSPCB",24-02-2026 08:00:00,25.592539,85.227158,NO2,8,54,24
India,Bihar,Patna,"IGSC Planetarium Complex, Patna - BSPCB",24-02-2026 08:00:00,25.610369,85.132568,NO2,1,2,2
India,Bihar,Patna,"IGSC Planetarium Complex, Patna - BSPCB",24-02-2026 08:00:00,25.610369,85.132568,CO,6,51,6
India,Bihar,Patna,"IGSC Planetarium Complex, Patna - BSPCB",24-02-2026 08:00:00,25.610369,85.132568,OZONE,28,34,30
India,Bihar,Patna,"Muradpur, Patna - BSPCB",24-02-2026 08:00:00,25.619651,85.147382,SO2,8,10,9
India,Bihar,Patna,"Rajbansi Nagar, Patna - BSPCB",24-02-2026 08:00:00,25.599486,85.113666,NO2,44,81,56
India,Chhattisgarh,Bhilai,"Civic Center, Bhilai - Bhilai Steel Plant",24-02-2026 08:00:00,21.185571,81.343175,CO,NA,NA,NA
India,Bihar,Patna,"Samanpura, Patna - BSPCB",24-02-2026 08:00:00,25.596727,85.085624,PM2.5,42,89,69
India,Chhattisgarh,Raipur,"AIIMS, Raipur - CECB",24-02-2026 08:00:00,21.258815,81.578979,OZONE,1,2,1
India,Chhattisgarh,Raipur,"Bhatagaon New ISBT, Raipur - CECB",24-02-2026 08:00:00,21.219665,81.630094,SO2,4,8,5
India,Chhattisgarh,Raipur,"Bhatagaon New ISBT, Raipur - CECB",24-02-2026 08:00:00,21.219665,81.630094,CO,33,52,43
India,Chhattisgarh,Raipur,"Bhatagaon New ISBT, Raipur - CECB",24-02-2026 08:00:00,21.219665,81.630094,OZONE,2,7,2
India,Chhattisgarh,Raipur,"Krishak Nagar, Raipur - CECB",24-02-2026 08:00:00,21.237755,81.705301,SO2,4,7,5
India,Chhattisgarh,Raipur,"Krishak Nagar, Raipur - CECB",24-02-2026 08:00:00,21.237755,81.705301,CO,24,34,27
India,Chhattisgarh,Raipur,"Siltara Phase-II, Raipur - CECB",24-02-2026 08:00:00,21.371751,81.664929,NH3,2,2,2
India,Chhattisgarh,Raipur,"Siltara Phase-II, Raipur - CECB",24-02-2026 08:00:00,21.371751,81.664929,SO2,3,4,3
India,Chhattisgarh,Tumidih,"OP Jindal Industrial Park, Tumidih - CECB",24-02-2026 08:00:00,22.06631475,83.33820077,PM2.5,49,157,91
India,Chhattisgarh,Tumidih,"OP Jindal Industrial Park, Tumidih - CECB",24-02-2026 08:00:00,22.06631475,83.33820077,SO2,5,13,7
India,Chhattisgarh,Tumidih,"OP Jindal Industrial Park, Tumidih - CECB",24-02-2026 08:00:00,22.06631475,83.33820077,CO,16,49,35
India,Delhi,Delhi,"Alipur, Delhi - DPCC",24-02-2026 08:00:00,28.815329,77.153010,PM2.5,58,424,240
India,Delhi,Delhi,"Alipur, Delhi - DPCC",24-02-2026 08:00:00,28.815329,77.153010,NO2,30,103,61
India,Delhi,Delhi,"Alipur, Delhi - DPCC",24-02-2026 08:00:00,28.815329,77.153010,NH3,12,16,14
India,Delhi,Delhi,"Alipur, Delhi - DPCC",24-02-2026 08:00:00,28.815329,77.153010,SO2,8,34,13
India,Delhi,Delhi,"Anand Vihar, Delhi - DPCC",24-02-2026 08:00:00,28.647622,77.3158090,PM2.5,57,426,293
India,Delhi,Delhi,"Ashok Vihar, Delhi - DPCC",24-02-2026 08:00:00,28.695381,77.181665,NH3,8,8,8
India,Delhi,Delhi,"Aya Nagar, Delhi - IMD",24-02-2026 08:00:00,28.4706914,77.1099364,PM2.5,55,291,154
India,Chhattisgarh,Bhilai,"Hathkhoj, Bhilai - CECB",24-02-2026 08:00:00,21.224231,81.408350,CO,12,74,37
India,Chhattisgarh,Bilaspur,"Mangala, Bilaspur - NTPC",24-02-2026 08:00:00,22.08815,82.13737,PM10,71,116,95
India,Chhattisgarh,Chhal,"Nawapara SECL Colony, Chhal - CECB",24-02-2026 08:00:00,22.118125,83.140608,NO2,8,39,15
India,Chhattisgarh,Korba,"Rampur, Korba - CECB",24-02-2026 08:00:00,22.368195,82.746431,SO2,2,27,11
India,Delhi,Delhi,"IGI Airport (T3), Delhi - IMD",24-02-2026 08:00:00,28.5627763,77.1180053,PM10,93,403,260
India,Delhi,Delhi,"IHBAS, Dilshad Garden, Delhi - CPCB",24-02-2026 08:00:00,28.6811736,77.3025234,PM10,116,173,140
India,Delhi,Delhi,"IHBAS, Dilshad Garden, Delhi - CPCB",24-02-2026 08:00:00,28.6811736,77.3025234,NH3,8,17,10
India,Delhi,Delhi,"IIT Delhi, Delhi - IITM",24-02-2026 08:00:00,28.542460,77.191651,NO2,13,94,40
India,Delhi,Delhi,"Aya Nagar, Delhi - IMD",24-02-2026 08:00:00,28.4706914,77.1099364,PM10,90,318,180
India,Delhi,Delhi,"Burari Crossing, Delhi - IMD",24-02-2026 08:00:00,28.7256504,77.2011573,NO2,48,186,95
India,Delhi,Delhi,"Burari Crossing, Delhi - IMD",24-02-2026 08:00:00,28.7256504,77.2011573,OZONE,12,331,13
India,Delhi,Delhi,"Chandni Chowk, Delhi - IITM",24-02-2026 08:00:00,28.656756,77.227234,NO2,5,48,38
India,Chhattisgarh,Kunjemura,"OP Jindal School, Kunjemura - CECB",24-02-2026 08:00:00,22.126650,83.483212,OZONE,1,74,2
India,Chhattisgarh,Milupara,"Govt. Higher Secondary School, Milupara - CECB",24-02-2026 08:00:00,22.1910172,83.5197009,SO2,13,36,16
India,Chhattisgarh,Milupara,"Govt. Higher Secondary School, Milupara - CECB",24-02-2026 08:00:00,22.1910172,83.5197009,OZONE,5,204,13
India,Delhi,Delhi,"DTU, Delhi - CPCB",24-02-2026 08:00:00,28.7500499,77.1112615,NH3,5,10,8
India,Delhi,Delhi,"DTU, Delhi - CPCB",24-02-2026 08:00:00,28.7500499,77.1112615,SO2,25,38,29
India,Delhi,Delhi,"Dr. Karni Singh Shooting Range, Delhi - DPCC",24-02-2026 08:00:00,28.498571,77.264840,SO2,9,22,14
India,Delhi,Delhi,"ITO, Delhi - CPCB",24-02-2026 08:00:00,28.628624,77.241060,NO2,20,124,65
India,Delhi,Delhi,"Jahangirpuri, Delhi - DPCC",24-02-2026 08:00:00,28.732820,77.170633,NO2,36,125,94
India,Delhi,Delhi,"Jahangirpuri, Delhi - DPCC",24-02-2026 08:00:00,28.732820,77.170633,NH3,10,34,18
India,Chhattisgarh,Korba,"Urja Nagar, Korba - CECB",24-02-2026 08:00:00,22.348441,82.549611,NH3,1,1,1
India,Delhi,Delhi,"Vivek Vihar, Delhi - DPCC",24-02-2026 08:00:00,28.672342,77.315260,PM10,122,452,201
India,Delhi,Delhi,"Vivek Vihar, Delhi - DPCC",24-02-2026 08:00:00,28.672342,77.315260,NH3,5,9,6
India,Delhi,Delhi,"Vivek Vihar, Delhi - DPCC",24-02-2026 08:00:00,28.672342,77.315260,OZONE,3,167,4
India,Delhi,Delhi,"Wazirpur, Delhi - DPCC",24-02-2026 08:00:00,28.699793,77.165453,PM2.5,73,388,261
India,Gujarat,Ahmedabad,"Chandkheda, Ahmedabad - IITM",24-02-2026 08:00:00,23.107969,72.574648,PM2.5,47,193,106
India,Gujarat,Ahmedabad,"Chandkheda, Ahmedabad - IITM",24-02-2026 08:00:00,23.107969,72.574648,PM10,108,189,141
India,Gujarat,Ahmedabad,"Chandkheda, Ahmedabad - IITM",24-02-2026 08:00:00,23.107969,72.574648,NH3,1,5,3
India,Gujarat,Ahmedabad,"Chandkheda, Ahmedabad - IITM",24-02-2026 08:00:00,23.107969,72.574648,SO2,15,43,27
India,Gujarat,Ahmedabad,"Maninagar, Ahmedabad - GPCB",24-02-2026 08:00:00,23.002657,72.591912,PM2.5,75,315,122
India,Delhi,Delhi,"NSIT Dwarka, Delhi - CPCB",24-02-2026 08:00:00,28.60909,77.0325413,SO2,9,21,15
India,Delhi,Delhi,"Najafgarh, Delhi - DPCC",24-02-2026 08:00:00,28.570173,76.933762,PM10,66,206,125
India,Delhi,Delhi,"Najafgarh, Delhi - DPCC",24-02-2026 08:00:00,28.570173,76.933762,NH3,10,12,11
India,Delhi,Delhi,"Najafgarh, Delhi - DPCC",24-02-2026 08:00:00,28.570173,76.933762,CO,2,109,46
India,Delhi,Delhi,"Nehru Nagar, Delhi - DPCC",24-02-2026 08:00:00,28.567890,77.250515,OZONE,1,157,3
India,Delhi,Delhi,"North Campus, DU, Delhi - IMD",24-02-2026 08:00:00,28.6573814,77.1585447,OZONE,11,305,13
India,Delhi,Delhi,"Lodhi Road, Delhi - IMD",24-02-2026 08:00:00,28.5918245,77.2273074,CO,18,69,63
India,Delhi,Delhi,"Major Dhyan Chand National Stadium, Delhi - DPCC",24-02-2026 08:00:00,28.611281,77.237738,PM2.5,37,293,170
India,Delhi,Delhi,"Major Dhyan Chand National Stadium, Delhi - DPCC",24-02-2026 08:00:00,28.611281,77.237738,CO,7,143,53
India,Delhi,Delhi,"Major Dhyan Chand National Stadium, Delhi - DPCC",24-02-2026 08:00:00,28.611281,77.237738,OZONE,1,258,2
India,Delhi,Delhi,"Mandir Marg, Delhi - DPCC",24-02-2026 08:00:00,28.636429,77.201067,PM2.5,3,309,124
India,Delhi,Delhi,"Okhla Phase-2, Delhi - DPCC",24-02-2026 08:00:00,28.530785,77.271255,CO,22,115,65
India,Delhi,Delhi,"Patparganj, Delhi - DPCC",24-02-2026 08:00:00,28.623763,77.287209,PM10,111,361,204
India,Delhi,Delhi,"Patparganj, Delhi - DPCC",24-02-2026 08:00:00,28.623763,77.287209,SO2,4,24,10
India,Delhi,Delhi,"Punjabi Bagh, Delhi - DPCC",24-02-2026 08:00:00,28.674045,77.131023,SO2,15,134,40
India,Delhi,Delhi,"Punjabi Bagh, Delhi - DPCC",24-02-2026 08:00:00,28.674045,77.131023,CO,30,110,58
India,Delhi,Delhi,"Rohini, Delhi - DPCC",24-02-2026 08:00:00,28.732528,77.119920,NO2,11,113,56
India,Delhi,Delhi,"Rohini, Delhi - DPCC",24-02-2026 08:00:00,28.732528,77.119920,CO,8,129,85
India,Delhi,Delhi,"Shadipur, Delhi - CPCB",24-02-2026 08:00:00,28.6514781,77.1473105,PM10,101,335,183
India,Delhi,Delhi,"Shadipur, Delhi - CPCB",24-02-2026 08:00:00,28.6514781,77.1473105,NH3,12,19,15
India,Delhi,Delhi,"Shadipur, Delhi - CPCB",24-02-2026 08:00:00,28.6514781,77.1473105,CO,12,109,65
India,Delhi,Delhi,"Pusa, Delhi - DPCC",24-02-2026 08:00:00,28.639652,77.146275,OZONE,3,132,5
India,Delhi,Delhi,"R K Puram, Delhi - DPCC",24-02-2026 08:00:00,28.563262,77.186937,PM2.5,77,378,236
India,Delhi,Delhi,"R K Puram, Delhi - DPCC",24-02-2026 08:00:00,28.563262,77.186937,PM10,94,344,184
India,Delhi,Delhi,"Rohini, Delhi - DPCC",24-02-2026 08:00:00,28.732528,77.119920,PM2.5,73,371,252
India,Delhi,Delhi,"Mandir Marg, Delhi - DPCC",24-02-2026 08:00:00,28.636429,77.201067,CO,28,121,94
India,Delhi,Delhi,"Mundka, Delhi - DPCC",24-02-2026 08:00:00,28.684678,77.076574,PM2.5,85,443,290
India,Delhi,Delhi,"Mundka, Delhi - DPCC",24-02-2026 08:00:00,28.684678,77.076574,NO2,59,168,110
India,Delhi,Delhi,"Mundka, Delhi - DPCC",24-02-2026 08:00:00,28.684678,77.076574,SO2,17,32,24
India,Delhi,Delhi,"Sonia Vihar, Delhi - DPCC",24-02-2026 08:00:00,28.710508,77.249485,OZONE,3,238,3
India,Delhi,Delhi,"Sri Aurobindo Marg, Delhi - DPCC",24-02-2026 08:00:00,28.531346,77.190156,PM2.5,60,237,108
India,Delhi,Delhi,"Jahangirpuri, Delhi - DPCC",24-02-2026 08:00:00,28.732820,77.170633,CO,21,110,88
India,Gujarat,Surat,"Katargam, Surat - Nexteng Enviro",24-02-2026 08:00:00,21.217779 ,72.834787 ,OZONE,9,9,9
India,Gujarat,Vadodara,"Bapunagar, Vadodara - Nexteng Enviro",24-02-2026 08:00:00,22.320153,73.216285,PM2.5,37,234,98
India,Gujarat,Vadodara,"Bapunagar, Vadodara - Nexteng Enviro",24-02-2026 08:00:00,22.320153,73.216285,PM10,42,148,92
India,Gujarat,Vadodara,"Bapunagar, Vadodara - Nexteng Enviro",24-02-2026 08:00:00,22.320153,73.216285,OZONE,3,19,3
India,Gujarat,Vapi,"Phase-1 GIDC, Vapi - GPCB",24-02-2026 08:00:00,20.362421,72.918013,NH3,2,4,4
India,Gujarat,Vatva,"Phase-4 GIDC, Vatva - GPCB",24-02-2026 08:00:00,22.969611,72.643500,PM2.5,79,234,153
India,Gujarat,Vatva,"Phase-4 GIDC, Vatva - GPCB",24-02-2026 08:00:00,22.969611,72.643500,CO,16,68,27
India,Gujarat,Bhavnagar,"Vidhyanagar, Bhavnagar - Nexteng Enviro",24-02-2026 08:00:00,21.755417,72.139056,NO2,52,59,55
India,Gujarat,Gandhinagar,"GIFT City, Gandhinagar - IITM",24-02-2026 08:00:00,23.163798,72.677768,PM10,114,248,167
India,Gujarat,Gandhinagar,"GIFT City, Gandhinagar - IITM",24-02-2026 08:00:00,23.163798,72.677768,NH3,5,21,11
India,Gujarat,Gandhinagar,"GIFT City, Gandhinagar - IITM",24-02-2026 08:00:00,23.163798,72.677768,SO2,5,13,9
India,Gujarat,Ahmedabad,"SVPI Airport Hansol, Ahmedabad - IITM",24-02-2026 08:00:00,23.076793,72.627874,PM10,116,349,184
India,Gujarat,Ahmedabad,"SVPI Airport Hansol, Ahmedabad - IITM",24-02-2026 08:00:00,23.076793,72.627874,SO2,NA,NA,NA
India,Gujarat,Ankleshwar,"GIDC, Ankleshwar - GPCB",24-02-2026 08:00:00,21.613267,73.010555,PM10,65,184,108
India,Gujarat,Ankleshwar,"GIDC, Ankleshwar - GPCB",24-02-2026 08:00:00,21.613267,73.010555,SO2,17,29,21
India,Gujarat,Gandhinagar,"Sector-10, Gandhinagar - GPCB",24-02-2026 08:00:00,23.221714,72.654328,OZONE,3,44,5
India,Gujarat,Mehsana,"Sadanand Nagar, Mehsana - Nexteng Enviro",24-02-2026 08:00:00,23.593150,72.372792,PM2.5,15,241,65
India,Gujarat,Mehsana,"Sadanand Nagar, Mehsana - Nexteng Enviro",24-02-2026 08:00:00,23.593150,72.372792,PM10,38,183,92
India,Gujarat,Ahmedabad,"Raikhad, Ahmedabad - IITM",24-02-2026 08:00:00,23.020509,72.579261,CO,12,68,48
India,Gujarat,Ahmedabad,"Rakhial, Ahmedabad - IITM",24-02-2026 08:00:00,23.016834,72.625775,PM2.5,71,314,175
India,Gujarat,Ahmedabad,"Rakhial, Ahmedabad - IITM",24-02-2026 08:00:00,23.016834,72.625775,NO2,36,216,102
India,Gujarat,Ahmedabad,"Rakhial, Ahmedabad - IITM",24-02-2026 08:00:00,23.016834,72.625775,NH3,4,7,6
India,Gujarat,Rajkot,"Mavdi, Rajkot - Nexteng Enviro ",24-02-2026 08:00:00,22.248853,70.776774,PM10,101,281,144
India,Gujarat,Rajkot,"Mavdi, Rajkot - Nexteng Enviro ",24-02-2026 08:00:00,22.248853,70.776774,NH3,2,5,3
India,Gujarat,Rajkot,"Mavdi, Rajkot - Nexteng Enviro ",24-02-2026 08:00:00,22.248853,70.776774,SO2,23,127,58
India,Gujarat,Gandhinagar,"Sector-10, Gandhinagar - GPCB",24-02-2026 08:00:00,23.221714,72.654328,NO2,28,75,45
India,Gujarat,Gandhinagar,"Sector-10, Gandhinagar - GPCB",24-02-2026 08:00:00,23.221714,72.654328,SO2,7,12,10
India,Gujarat,Gandhinagar,"IIPHG Lekawada, Gandhinagar - IITM",24-02-2026 08:00:00,23.243639,72.68994,CO,2,67,32
India,Gujarat,Ahmedabad,"SAC ISRO Bopal, Ahmedabad - IITM",24-02-2026 08:00:00,23.041137,72.456691,CO,10,35,25
India,Haryana,Kaithal,"Rishi Nagar, Kaithal - HSPCB",24-02-2026 08:00:00,29.8006,76.4155,OZONE,6,27,10
India,Haryana,Karnal,"Sector-12, Karnal - HSPCB",24-02-2026 08:00:00,29.695300,77.002700,PM2.5,20,300,171
India,Haryana,Karnal,"Sector-12, Karnal - HSPCB",24-02-2026 08:00:00,29.695300,77.002700,OZONE,26,26,26
India,Haryana,Kurukshetra,"Sector-7, Kurukshetra - HSPCB",24-02-2026 08:00:00,29.966942,76.875879,PM10,142,195,168
India,Haryana,Kurukshetra,"Sector-7, Kurukshetra - HSPCB",24-02-2026 08:00:00,29.966942,76.875879,NO2,17,22,19
India,Haryana,Kurukshetra,"Sector-7, Kurukshetra - HSPCB",24-02-2026 08:00:00,29.966942,76.875879,NH3,5,5,5
India,Haryana,Mandikhera,"General Hospital, Mandikhera(Nuh) - HSPCB",24-02-2026 08:00:00,27.9002,76.9938,PM10,51,116,75
India,Haryana,Manesar,"Sector-2 IMT, Manesar - HSPCB",24-02-2026 08:00:00,28.360699,76.936090,PM2.5,61,456,269
India,Haryana,Manesar,"Sector-2 IMT, Manesar - HSPCB",24-02-2026 08:00:00,28.360699,76.936090,NH3,10,12,11
India,Haryana,Narnaul,"Shastri Nagar, Narnaul - HSPCB",24-02-2026 08:00:00,28.060249,76.113115,PM2.5,62,313,154
India,Haryana,Narnaul,"Shastri Nagar, Narnaul - HSPCB",24-02-2026 08:00:00,28.060249,76.113115,CO,62,84,80
India,Haryana,Sonipat,"Murthal, Sonipat - HSPCB",24-02-2026 08:00:00,29.027200,77.062100,NO2,12,13,12
India,Haryana,Yamuna Nagar,"Gobind Pura, Yamuna Nagar - HSPCB",24-02-2026 08:00:00,30.1480566,77.2893471,NH3,2,5,4
India,Himachal Pradesh,Baddi,"HIMUDA Complex Phase-1, Baddi - HPPCB",24-02-2026 08:00:00,30.943887,76.801991,PM2.5,70,309,146
India,Jammu_and_Kashmir,Pampore,"Khrew, Pampore - JKPCC",24-02-2026 08:00:00,34.031606,75.009712,PM2.5,3,107,42
India,Karnataka,Bagalkot,"Vidayagiri, Bagalkot - KSPCB",24-02-2026 08:00:00,16.172806,75.659694,NO2,NA,NA,NA
India,Haryana,Dharuhera,"Municipal Corporation Office, Dharuhera -  HSPCB",24-02-2026 08:00:00,28.206800,76.799700,NO2,15,56,42
India,Haryana,Faridabad,"New Industrial Town, Faridabad - HSPCB",24-02-2026 08:00:00,28.39072,77.30059,SO2,8,8,8
India,Haryana,Faridabad,"Sector 11, Faridabad - HSPCB",24-02-2026 08:00:00,28.376058,77.315741,SO2,9,10,9
India,Haryana,Faridabad,"Sector 30, Faridabad - HSPCB",24-02-2026 08:00:00,28.4417,77.3217,PM2.5,111,114,113
India,Haryana,Fatehabad,"Huda Sector, Fatehabad - HSPCB",24-02-2026 08:00:00,29.503664,75.467934,OZONE,69,82,74
India,Haryana,Gurugram,"Sector-51, Gurugram - HSPCB",24-02-2026 08:00:00,28.4227,77.0667,PM10,105,500,288
India,Haryana,Gurugram,"Sector-51, Gurugram - HSPCB",24-02-2026 08:00:00,28.4227,77.0667,NO2,6,15,9
India,Haryana,Gurugram,"Sector-51, Gurugram - HSPCB",24-02-2026 08:00:00,28.4227,77.0667,NH3,9,14,12
India,Haryana,Gurugram,"Teri Gram, Gurugram - HSPCB",24-02-2026 08:00:00,28.4275,77.1465,NH3,NA,NA,NA
India,Haryana,Gurugram,"Vikas Sadan, Gurugram - HSPCB",24-02-2026 08:00:00,28.4501238,77.0263051,PM2.5,164,500,361
India,Haryana,Ballabgarh,"Nathu Colony, Ballabgarh - HSPCB",24-02-2026 08:00:00,28.3419248,77.319699,PM2.5,160,386,261
India,Haryana,Charkhi Dadri,"Mini Secretariat, Charkhi Dadri - HSPCB",24-02-2026 08:00:00,28.593883,76.270653,PM2.5,240,308,287
India,Haryana,Charkhi Dadri,"Mini Secretariat, Charkhi Dadri - HSPCB",24-02-2026 08:00:00,28.593883,76.270653,NH3,5,8,6
India,Haryana,Charkhi Dadri,"Mini Secretariat, Charkhi Dadri - HSPCB",24-02-2026 08:00:00,28.593883,76.270653,SO2,9,11,10
India,Haryana,Jind,"Police Lines, Jind - HSPCB",24-02-2026 08:00:00,29.307814,76.337619,PM10,75,130,103
India,Haryana,Jind,"Police Lines, Jind - HSPCB",24-02-2026 08:00:00,29.307814,76.337619,NO2,38,52,44
India,Haryana,Jind,"Police Lines, Jind - HSPCB",24-02-2026 08:00:00,29.307814,76.337619,OZONE,2,32,5
India,Haryana,Kaithal,"Rishi Nagar, Kaithal - HSPCB",24-02-2026 08:00:00,29.8006,76.4155,PM2.5,63,191,98
India,Haryana,Panchkula,"Sector-6, Panchkula - HSPCB ",24-02-2026 08:00:00,30.7057778,76.8531805555555,PM2.5,10,64,36
India,Haryana,Panchkula,"Sector-6, Panchkula - HSPCB ",24-02-2026 08:00:00,30.7057778,76.8531805555555,OZONE,1,9,5
India,Haryana,Rohtak,"MD University, Rohtak - HSPCB",24-02-2026 08:00:00,28.52123,76.37138,SO2,10,14,12
India,Haryana,Hisar,"Urban Estate-II, Hisar - HSPCB",24-02-2026 08:00:00,29.140560,75.744941,NO2,26,27,26
India,Haryana,Sirsa,"F-Block, Sirsa - HSPCB",24-02-2026 08:00:00,29.536400,75.015800,CO,42,102,64
India,Karnataka,Bengaluru,"RVCE-Mailasandra, Bengaluru - KSPCB",24-02-2026 08:00:00,12.921418,77.502466,SO2,5,6,6
India,Karnataka,Bengaluru,"RVCE-Mailasandra, Bengaluru - KSPCB",24-02-2026 08:00:00,12.921418,77.502466,CO,1,22,7
India,Karnataka,Bengaluru,"Sanegurava Halli, Bengaluru - KSPCB",24-02-2026 08:00:00,12.990328,77.5431385,PM10,3,57,46
India,Karnataka,Bengaluru,"Sanegurava Halli, Bengaluru - KSPCB",24-02-2026 08:00:00,12.990328,77.5431385,SO2,6,8,7
India,Karnataka,Bengaluru,"Shivapura_Peenya, Bengaluru - KSPCB",24-02-2026 08:00:00,13.0246342,77.5080115,PM2.5,25,32,27
India,Karnataka,Bengaluru,"Silk Board, Bengaluru - KSPCB",24-02-2026 08:00:00,12.917348,77.622813,SO2,NA,NA,NA
India,Karnataka,Bengaluru,"Silk Board, Bengaluru - KSPCB",24-02-2026 08:00:00,12.917348,77.622813,CO,NA,NA,NA
India,Karnataka,Hubballi,"Lingaraj Nagar, Hubballi - KSPCB",24-02-2026 08:00:00,15.3714823,75.1160168,SO2,1,3,2
India,Karnataka,Kalaburagi,"Mahatma Basaveswar Colony, Kalaburgi - KSPCB",24-02-2026 08:00:00,17.336318,76.847397,NO2,NA,NA,NA
India,Karnataka,Kalaburagi,"Mahatma Basaveswar Colony, Kalaburgi - KSPCB",24-02-2026 08:00:00,17.336318,76.847397,NH3,NA,NA,NA
India,Karnataka,Kalaburagi,"Mahatma Basaveswar Colony, Kalaburgi - KSPCB",24-02-2026 08:00:00,17.336318,76.847397,OZONE,12,13,13
India,Karnataka,Bagalkot,"Vidayagiri, Bagalkot - KSPCB",24-02-2026 08:00:00,16.172806,75.659694,CO,NA,NA,NA
India,Karnataka,Bengaluru,"BTM Layout, Bengaluru - CPCB",24-02-2026 08:00:00,12.9135218,77.5950804,PM10,101,103,102
India,Karnataka,Bengaluru,"BTM Layout, Bengaluru - CPCB",24-02-2026 08:00:00,12.9135218,77.5950804,CO,46,58,50
India,Karnataka,Chikkaballapur,"Chikkaballapur Rural, Chikkaballapur - KSPCB",24-02-2026 08:00:00,13.428828,77.731418,NO2,7,68,29
India,Karnataka,Chikkamagaluru,"Kalyana Nagara, Chikkamagaluru - KSPCB",24-02-2026 08:00:00,13.328028,75.797056,PM2.5,NA,NA,NA
India,Karnataka,Bengaluru,"Jigani, Bengaluru - KSPCB",24-02-2026 08:00:00,12.7816279,77.6299145,NO2,21,22,22
India,Karnataka,Bengaluru,"Peenya, Bengaluru - CPCB",24-02-2026 08:00:00,13.0270199,77.494094,CO,6,44,8
India,Karnataka,Chamarajanagar,"Urban, Chamarajanagar - KSPCB",24-02-2026 08:00:00,11.55358,76.55521,NH3,1,3,2
India,Karnataka,Chamarajanagar,"Urban, Chamarajanagar - KSPCB",24-02-2026 08:00:00,11.55358,76.55521,OZONE,13,38,15
India,Karnataka,Bengaluru,"City Railway Station, Bengaluru - KSPCB",24-02-2026 08:00:00,12.9756843,77.5660749,PM10,NA,NA,NA
India,Karnataka,Ramanagara,"Vijay Nagar, Ramanagara - KSPCB",24-02-2026 08:00:00,12.733409,77.298051,NO2,39,63,51
India,Karnataka,Bengaluru,"Hombegowda Nagar, Bengaluru - KSPCB",24-02-2026 08:00:00,12.938539,77.590100,NH3,3,6,4
India,Madhya Pradesh,Jabalpur,"Govindh Bhavan Colony, Jabalpur - JMC",24-02-2026 08:00:00,23.163174,79.973061,OZONE,5,24,5
India,Madhya Pradesh,Jabalpur,"Gupteshwar, Jabalpur - JMC",24-02-2026 08:00:00,23.142888,79.916147,SO2,1,18,7
India,Madhya Pradesh,Jabalpur,"Marhatal, Jabalpur - MPPCB",24-02-2026 08:00:00,23.168606,79.932247,PM10,79,423,135
India,Madhya Pradesh,Jabalpur,"Marhatal, Jabalpur - MPPCB",24-02-2026 08:00:00,23.168606,79.932247,NO2,9,32,25
India,Madhya Pradesh,Jabalpur,"Suhagi, Jabalpur - JMC",24-02-2026 08:00:00,23.218135,79.957770,NH3,6,8,7
India,Madhya Pradesh,Jabalpur,"Suhagi, Jabalpur - JMC",24-02-2026 08:00:00,23.218135,79.957770,CO,20,104,50
India,Madhya Pradesh,Katni,"Gole Bazar, Katni - MPPCB",24-02-2026 08:00:00,23.50016,80.23284,PM10,55,136,88
India,Karnataka,Yadgir,"Collector Office, Yadgir - KSPCB",24-02-2026 08:00:00,16.7602,77.1428,NO2,8,19,13
India,Kerala,Eloor,"Udyogamandal, Eloor - Kerala PCB",24-02-2026 08:00:00,10.073232,76.302765,PM10,51,92,70
India,Kerala,Eloor,"Udyogamandal, Eloor - Kerala PCB",24-02-2026 08:00:00,10.073232,76.302765,NO2,6,8,7
India,Kerala,Kollam,"Polayathode, Kollam - Kerala PCB",24-02-2026 08:00:00,8.8787,76.6073,NH3,1,1,1
India,Kerala,Kollam,"Polayathode, Kollam - Kerala PCB",24-02-2026 08:00:00,8.8787,76.6073,SO2,2,3,2
India,Kerala,Thiruvananthapuram,"Kariavattom, Thiruvananthapuram - Kerala PCB",24-02-2026 08:00:00,8.563700,76.886500,PM10,18,93,61
India,Kerala,Thiruvananthapuram,"Kariavattom, Thiruvananthapuram - Kerala PCB",24-02-2026 08:00:00,8.563700,76.886500,SO2,1,39,8
India,Karnataka,Shivamogga,"Vinoba Nagara, Shivamogga - KSPCB",24-02-2026 08:00:00,13.940000,75.555917,CO,NA,NA,NA
India,Karnataka,Shivamogga,"Vinoba Nagara, Shivamogga - KSPCB",24-02-2026 08:00:00,13.940000,75.555917,OZONE,NA,NA,NA
India,Karnataka,Vijayapura,"Ibrahimpur, Vijayapura - KSPCB",24-02-2026 08:00:00,16.802639,75.722694,PM2.5,30,31,30
India,Karnataka,Vijayapura,"Ibrahimpur, Vijayapura - KSPCB",24-02-2026 08:00:00,16.802639,75.722694,SO2,3,6,3
India,Kerala,Thrissur,"Corporation Ground, Thrissur - Kerala PCB",24-02-2026 08:00:00,10.532400,76.215900,NO2,6,8,7
India,Kerala,Thrissur,"Corporation Ground, Thrissur - Kerala PCB",24-02-2026 08:00:00,10.532400,76.215900,CO,14,25,22
India,Madhya Pradesh,Bhopal,"Idgah Hills, Bhopal - MPPCB",24-02-2026 08:00:00,23.264759,77.381568,NO2,19,33,26
India,Madhya Pradesh,Indore,"Chhoti Gwaltoli, Indore - MPPCB",24-02-2026 08:00:00,22.4310,75.5213,PM2.5,33,318,142
India,Madhya Pradesh,Indore,"Chhoti Gwaltoli, Indore - MPPCB",24-02-2026 08:00:00,22.4310,75.5213,NH3,NA,NA,NA
India,Madhya Pradesh,Indore,"Maguda Nagar, Indore - IMC",24-02-2026 08:00:00,22.7524,75.8872,CO,31,75,62
India,Madhya Pradesh,Indore,"Residency Area, Indore - IMC",24-02-2026 08:00:00,22.7084,75.8815,NO2,14,26,25
India,Madhya Pradesh,Jabalpur,"Govindh Bhavan Colony, Jabalpur - JMC",24-02-2026 08:00:00,23.163174,79.973061,NO2,8,14,10
India,Madhya Pradesh,Gwalior,"Deen Dayal Nagar, Gwalior - MPPCB",24-02-2026 08:00:00,26.259242,78.216432,CO,51,116,69
India,Madhya Pradesh,Gwalior,"Maharaj Bada, Gwalior - MPPCB",24-02-2026 08:00:00,26.200388,78.147714,PM2.5,35,302,106
India,Madhya Pradesh,Dewas,"Bhopal Chauraha, Dewas - MPPCB",24-02-2026 08:00:00,22.9682591,76.064118,CO,9,47,19
India,Madhya Pradesh,Bhopal,"T T Nagar, Bhopal - MPPCB",24-02-2026 08:00:00,23.233584,77.400574,CO,29,89,38
India,Madhya Pradesh,Ujjain,"Mahashweta Nagar, Ujjain - MPPCB",24-02-2026 08:00:00,23.1633321,75.800225,SO2,1,12,4
India,Maharashtra,Ahmednagar,"Tarakpur, Ahmednagar - MPCB",24-02-2026 08:00:00,19.10122,74.73339,NH3,5,7,6
India,Maharashtra,Ahmednagar,"Tarakpur, Ahmednagar - MPCB",24-02-2026 08:00:00,19.10122,74.73339,CO,26,136,63
India,Maharashtra,Ahmednagar,"Tarakpur, Ahmednagar - MPCB",24-02-2026 08:00:00,19.10122,74.73339,OZONE,2,112,9
India,Maharashtra,Akola,"Ramdaspeth, Akola - MPCB",24-02-2026 08:00:00,20.719516,77.000253,PM10,33,145,81
India,Maharashtra,Akola,"Ramdaspeth, Akola - MPCB",24-02-2026 08:00:00,20.719516,77.000253,NO2,9,70,22
India,Maharashtra,Akola,"Ramdaspeth, Akola - MPCB",24-02-2026 08:00:00,20.719516,77.000253,NH3,1,5,3
India,Maharashtra,Akola,"Ramdaspeth, Akola - MPCB",24-02-2026 08:00:00,20.719516,77.000253,SO2,12,30,17
India,Maharashtra,Amravati,"Shivneri Colony, Amravati - MPCB",24-02-2026 08:00:00,20.9402359,77.7895248,OZONE,10,54,24
India,Maharashtra,Amravati,"Shri Shivaji Science College, Amravati - MPCB",24-02-2026 08:00:00,20.939198,77.765701,PM2.5,13,90,43
India,Maharashtra,Kalyan,"Pimpleshwar Mandir, Kalyan - MPCB",24-02-2026 08:00:00,19.192056,72.9585188,CO,44,69,66
India,Maharashtra,Kolhapur,"Sinchan Bhavan, Kolhapur - MPCB",24-02-2026 08:00:00,16.7143745,74.2426398,NO2,NA,NA,NA
India,Maharashtra,Kolhapur,"Sinchan Bhavan, Kolhapur - MPCB",24-02-2026 08:00:00,16.7143745,74.2426398,NH3,NA,NA,NA
India,Maharashtra,Latur,"Sawe Wadi, Latur - MPCB",24-02-2026 08:00:00,18.39963,76.57452,OZONE,5,38,11
India,Maharashtra,Mahad,"Kamble Tarf Birwadi, Mahad - MPCB",24-02-2026 08:00:00,18.1023399,73.4783687,OZONE,20,74,21
India,Maharashtra,Malegaon,"Mahesh Nagar, Malegaon - MPCB",24-02-2026 08:00:00,20.555712,74.529236,PM2.5,NA,NA,NA
India,Maharashtra,Malegaon,"Mahesh Nagar, Malegaon - MPCB",24-02-2026 08:00:00,20.555712,74.529236,NO2,NA,NA,NA
India,Maharashtra,Malegaon,"Mahesh Nagar, Malegaon - MPCB",24-02-2026 08:00:00,20.555712,74.529236,NH3,NA,NA,NA
India,Madhya Pradesh,Pithampur,"Sector-2 Industrial Area, Pithampur - MPPCB",24-02-2026 08:00:00,22.624758,75.675238,PM2.5,50,325,138
India,Madhya Pradesh,Sagar,"Civil Lines, Sagar - MPPCB",24-02-2026 08:00:00,23.838586,78.759431,PM10,45,125,68
India,Madhya Pradesh,Sagar,"Civil Lines, Sagar - MPPCB",24-02-2026 08:00:00,23.838586,78.759431,CO,26,56,27
India,Madhya Pradesh,Sagar,"Deen Dayal Nagar, Sagar - MPPCB",24-02-2026 08:00:00,23.8640158,78.80289321,CO,12,22,13
India,Madhya Pradesh,Satna,"Bandhavgar Colony, Satna - Birla Cement",24-02-2026 08:00:00,24.58434363,80.8549414,PM2.5,49,51,50
India,Maharashtra,Mumbai,"Bandra Kurla Complex, Mumbai - MPCB",24-02-2026 08:00:00,19.065931,72.862131,SO2,4,14,8
India,Maharashtra,Mumbai,"Bandra Kurla Complex, Mumbai - MPCB",24-02-2026 08:00:00,19.065931,72.862131,CO,8,14,11
India,Maharashtra,Mumbai,"Borivali East, Mumbai - IITM",24-02-2026 08:00:00,19.23241,72.86895,PM2.5,58,131,89
India,Maharashtra,Mumbai,"Borivali East, Mumbai - IITM",24-02-2026 08:00:00,19.23241,72.86895,NH3,7,10,8
India,Maharashtra,Mumbai,"Borivali East, Mumbai - MPCB",24-02-2026 08:00:00,19.2243333,72.8658113,SO2,18,21,20
India,Maharashtra,Mumbai,"Byculla, Mumbai - BMC",24-02-2026 08:00:00,18.9767,72.8380,PM10,58,110,84
India,Maharashtra,Belapur,"CBD Belapur, Belapur - MPCB",24-02-2026 08:00:00,19.0243902,73.0406721,OZONE,1,87,1
India,Maharashtra,Bhiwandi,"Gokul Nagar, Bhiwandi - MPCB",24-02-2026 08:00:00,19.309073,73.057223,NH3,4,7,5
India,Maharashtra,Bhiwandi,"Gokul Nagar, Bhiwandi - MPCB",24-02-2026 08:00:00,19.309073,73.057223,SO2,7,16,11
India,Maharashtra,Boisar,"Khaira, Boisar - MPCB",24-02-2026 08:00:00,19.786089,72.757971,PM10,105,164,126
India,Maharashtra,Chandrapur,"Chauhan Colony, Chandrapur - MPCB",24-02-2026 08:00:00,19.962900,79.298714,NO2,29,30,29
India,Maharashtra,Amravati,"Shri Shivaji Science College, Amravati - MPCB",24-02-2026 08:00:00,20.939198,77.765701,NO2,4,35,14
India,Maharashtra,Amravati,"Shri Shivaji Science College, Amravati - MPCB",24-02-2026 08:00:00,20.939198,77.765701,NH3,2,5,3
India,Maharashtra,Aurangabad,"MIDC Chilkalthana, Aurangabad - MPCB",24-02-2026 08:00:00,19.875620,75.387310,PM10,42,130,75
India,Maharashtra,Aurangabad,"More Chowk Waluj, Aurangabad - MPCB",24-02-2026 08:00:00,19.8389439,75.244448,PM2.5,54,112,81
India,Maharashtra,Chandrapur,"MIDC Khutala, Chandrapur - MPCB",24-02-2026 08:00:00,19.9775302,79.2337086,OZONE,17,19,18
India,Maharashtra,Jalgaon,"Prabhat Colony, Jalgaon - MPCB",24-02-2026 08:00:00,21.001264,75.565602,CO,18,40,20
India,Maharashtra,Jalna,"Old MIDC, Jalna - MPCB",24-02-2026 08:00:00,19.854616,75.905894,OZONE,NA,NA,NA
India,Maharashtra,Kalyan,"Pimpleshwar Mandir, Kalyan - MPCB",24-02-2026 08:00:00,19.192056,72.9585188,NO2,10,15,12
India,Maharashtra,Aurangabad,"Rachnakar Colony, Aurangabad - MPCB",24-02-2026 08:00:00,19.863756,75.321188,SO2,7,43,27
India,Maharashtra,Aurangabad,"Rachnakar Colony, Aurangabad - MPCB",24-02-2026 08:00:00,19.863756,75.321188,CO,28,62,37
India,Maharashtra,Badlapur,"Katrap, Badlapur - MPCB",24-02-2026 08:00:00,19.16485,73.23409,PM2.5,51,181,108
India,Maharashtra,Badlapur,"Katrap, Badlapur - MPCB",24-02-2026 08:00:00,19.16485,73.23409,NO2,14,34,24
India,Maharashtra,Badlapur,"Katrap, Badlapur - MPCB",24-02-2026 08:00:00,19.16485,73.23409,SO2,4,14,9
India,Maharashtra,Mira-Bhayandar,"Bhayandar West, Mira-Bhayandar - MPCB",24-02-2026 08:00:00,19.296481,72.840923,OZONE,1,50,3
India,Maharashtra,Mumbai,"Kurla, Mumbai - MPCB",24-02-2026 08:00:00,19.0863,72.8888,PM10,NA,NA,NA
India,Maharashtra,Mumbai,"Kurla, Mumbai - MPCB",24-02-2026 08:00:00,19.0863,72.8888,NO2,NA,NA,NA
India,Maharashtra,Mumbai,"Kurla, Mumbai - MPCB",24-02-2026 08:00:00,19.0863,72.8888,NH3,NA,NA,NA
India,Maharashtra,Mumbai,"Kurla, Mumbai - MPCB",24-02-2026 08:00:00,19.0863,72.8888,SO2,NA,NA,NA
India,Maharashtra,Mumbai,"Kurla, Mumbai - MPCB",24-02-2026 08:00:00,19.0863,72.8888,CO,18,20,18
India,Maharashtra,Mumbai,"Kurla, Mumbai - MPCB",24-02-2026 08:00:00,19.0863,72.8888,OZONE,28,28,28
India,Maharashtra,Mumbai,"Malad West, Mumbai - IITM",24-02-2026 08:00:00,19.19709,72.82204,NO2,35,83,53
India,Maharashtra,Mumbai,"Mazgaon, Mumbai - IITM",24-02-2026 08:00:00,18.96702,72.84214,PM10,63,115,91
India,Maharashtra,Mumbai,"Mazgaon, Mumbai - IITM",24-02-2026 08:00:00,18.96702,72.84214,SO2,16,30,20
India,Maharashtra,Mumbai,"Mindspace-Malad West, Mumbai - MPCB",24-02-2026 08:00:00,19.1878657,72.8304069,PM2.5,69,90,79
India,Maharashtra,Mumbai,"Mindspace-Malad West, Mumbai - MPCB",24-02-2026 08:00:00,19.1878657,72.8304069,NO2,17,75,36
India,Maharashtra,Nashik,"Hirawadi, Nashik - MPCB",24-02-2026 08:00:00,20.021503,73.813844,PM10,44,105,77
India,Maharashtra,Nashik,"Hirawadi, Nashik - MPCB",24-02-2026 08:00:00,20.021503,73.813844,NH3,2,7,3
India,Maharashtra,Nashik,"MIDC Ambad, Nashik - MPCB",24-02-2026 08:00:00,19.950220,73.731480,PM10,50,218,108
India,Maharashtra,Nashik,"MIDC Ambad, Nashik - MPCB",24-02-2026 08:00:00,19.950220,73.731480,NH3,2,5,3
India,Maharashtra,Nashik,"Pandav Nagari, Nashik - MPCB",24-02-2026 08:00:00,19.9591346,73.7788008,NH3,2,8,4
India,Maharashtra,Nashik,"Pandav Nagari, Nashik - MPCB",24-02-2026 08:00:00,19.9591346,73.7788008,SO2,3,12,6
India,Maharashtra,Navi Mumbai,"Kopripada-Vashi, Navi Mumbai - MPCB",24-02-2026 08:00:00,19.090337,73.014232,NO2,19,63,42
India,Maharashtra,Mumbai,"Sewri, Mumbai - BMC",24-02-2026 08:00:00,19.000084,72.856730,SO2,1,27,8
India,Maharashtra,Mumbai,"Shivaji Nagar, Mumbai - BMC",24-02-2026 08:00:00,19.060498,72.923356,NO2,12,33,23
India,Maharashtra,Mumbai,"Shivaji Nagar, Mumbai - BMC",24-02-2026 08:00:00,19.060498,72.923356,CO,12,84,50
India,Maharashtra,Mumbai,"Sion, Mumbai - MPCB",24-02-2026 08:00:00,19.047000,72.874600,CO,8,18,18
India,Maharashtra,Mumbai,"Vile Parle West, Mumbai - MPCB",24-02-2026 08:00:00,19.10861,72.83622,SO2,48,52,50
India,Maharashtra,Nagpur,"Ambazari, Nagpur - MPCB",24-02-2026 08:00:00,21.121801,79.04952,PM2.5,44,114,67
India,Maharashtra,Mumbai,"Chakala-Andheri East, Mumbai - IITM",24-02-2026 08:00:00,19.11074,72.86084,SO2,1,12,5
India,Maharashtra,Mumbai,"Chembur, Mumbai - MPCB",24-02-2026 08:00:00,19.0364585,72.8954371,PM10,NA,NA,NA
India,Maharashtra,Mumbai,"Colaba, Mumbai - MPCB",24-02-2026 08:00:00,18.910000,72.820000,PM2.5,45,128,74
India,Maharashtra,Mumbai,"Colaba, Mumbai - MPCB",24-02-2026 08:00:00,18.910000,72.820000,SO2,NA,NA,NA
India,Maharashtra,Mumbai,"Deonar, Mumbai - IITM",24-02-2026 08:00:00,19.04946,72.9230,SO2,1,15,4
India,Maharashtra,Mumbai,"Kherwadi_Bandra East, Mumbai - MPCB",24-02-2026 08:00:00,19.0632143,72.8456324,PM2.5,55,99,75
India,Maharashtra,Mumbai,"Kherwadi_Bandra East, Mumbai - MPCB",24-02-2026 08:00:00,19.0632143,72.8456324,NO2,14,84,31
India,Maharashtra,Mumbai,"Kherwadi_Bandra East, Mumbai - MPCB",24-02-2026 08:00:00,19.0632143,72.8456324,OZONE,1,80,16
India,Maharashtra,Mumbai,"Khindipada-Bhandup West, Mumbai - IITM",24-02-2026 08:00:00,19.1653323,72.922099,NO2,20,109,37
India,Maharashtra,Mumbai,"Khindipada-Bhandup West, Mumbai - IITM",24-02-2026 08:00:00,19.1653323,72.922099,SO2,1,71,20
India,Maharashtra,Mumbai,"Ghatkopar, Mumbai - BMC",24-02-2026 08:00:00,19.083694,72.920967,SO2,1,6,2
India,Maharashtra,Mumbai,"Kandivali East, Mumbai - MPCB",24-02-2026 08:00:00,19.205800,72.868200,PM10,67,137,100
India,Maharashtra,Mumbai,"Navy Nagar-Colaba, Mumbai - IITM",24-02-2026 08:00:00,18.897756,72.813320,SO2,7,55,25
India,Maharashtra,Mumbai,"Navy Nagar-Colaba, Mumbai - IITM",24-02-2026 08:00:00,18.897756,72.813320,CO,38,76,61
India,Maharashtra,Mumbai,"Navy Nagar-Colaba, Mumbai - IITM",24-02-2026 08:00:00,18.897756,72.813320,OZONE,11,75,38
India,Maharashtra,Nanded,"Sneh Nagar, Nanded - MPCB",24-02-2026 08:00:00,19.173852,77.296291,NH3,3,5,4
India,Maharashtra,Nashik,"Gangapur Road, Nashik - MPCB",24-02-2026 08:00:00,20.0073285,73.7762427,NH3,3,3,3
India,Maharashtra,Nagpur,"Opp GPO Civil Lines, Nagpur - MPCB",24-02-2026 08:00:00,21.152875,79.0517531,CO,14,98,29
India,Maharashtra,Pune,"Bhosari, Pune - IITM",24-02-2026 08:00:00,18.640051,73.848956,NO2,9,16,12
India,Maharashtra,Pune,"Bhosari, Pune - IITM",24-02-2026 08:00:00,18.640051,73.848956,CO,2,101,79
India,Maharashtra,Pune,"Bhumkar Nagar, Pune - IITM",24-02-2026 08:00:00,18.605770,73.749976,PM2.5,45,391,154
India,Maharashtra,Pune,"Hadapsar, Pune - IITM",24-02-2026 08:00:00,18.501793,73.927532,PM2.5,51,318,160
India,Maharashtra,Pune,"Hadapsar, Pune - IITM",24-02-2026 08:00:00,18.501793,73.927532,NO2,58,185,121
India,Maharashtra,Pune,"Katraj Dairy, Pune - MPCB",24-02-2026 08:00:00,18.454450,73.854155,PM10,71,99,87
India,Maharashtra,Pune,"Mhada Colony, Pune - IITM",24-02-2026 08:00:00,18.573040,73.927715,NO2,31,124,87
India,Maharashtra,Pune,"Panchawati_Pashan, Pune - IITM",24-02-2026 08:00:00,18.536457,73.805454,PM10,47,114,78
India,Maharashtra,Pune,"Panchawati_Pashan, Pune - IITM",24-02-2026 08:00:00,18.536457,73.805454,NO2,6,48,18
India,Maharashtra,Pune,"Panchawati_Pashan, Pune - IITM",24-02-2026 08:00:00,18.536457,73.805454,CO,7,32,12
India,Maharashtra,Solapur,"Dnyaneshwar Nagar, Solapur - MPCB",24-02-2026 08:00:00,17.6336264,75.9132495,NH3,7,25,11
India,Maharashtra,Solapur,"Dnyaneshwar Nagar, Solapur - MPCB",24-02-2026 08:00:00,17.6336264,75.9132495,SO2,2,8,5
India,Maharashtra,Solapur,"Ratandeep Housing Society, Solapur - MPCB",24-02-2026 08:00:00,17.65439,75.90649,NO2,11,62,24
India,Maharashtra,Thane,"Upvan Fort, Thane - MPCB",24-02-2026 08:00:00,19.222279,72.957979,PM2.5,38,129,73
India,Maharashtra,Thane,"Upvan Fort, Thane - MPCB",24-02-2026 08:00:00,19.222279,72.957979,NO2,15,73,35
India,Maharashtra,Ulhasnagar,"Sidhi Vinayak Nagar, Ulhasnagar - MPCB",24-02-2026 08:00:00,19.235581,73.159121,PM10,82,167,132
India,Maharashtra,Ulhasnagar,"Sidhi Vinayak Nagar, Ulhasnagar - MPCB",24-02-2026 08:00:00,19.235581,73.159121,NH3,4,9,6
India,Maharashtra,Ulhasnagar,"Sidhi Vinayak Nagar, Ulhasnagar - MPCB",24-02-2026 08:00:00,19.235581,73.159121,SO2,5,69,19
India,Maharashtra,Ulhasnagar,"Sidhi Vinayak Nagar, Ulhasnagar - MPCB",24-02-2026 08:00:00,19.235581,73.159121,OZONE,11,74,13
India,Maharashtra,Pimpri-Chinchwad,"Gavalinagar, Pimpri Chinchwad - MPCB",24-02-2026 08:00:00,18.63673,73.82487,PM10,65,132,98
India,Maharashtra,Pimpri-Chinchwad,"Gavalinagar, Pimpri Chinchwad - MPCB",24-02-2026 08:00:00,18.63673,73.82487,OZONE,NA,NA,NA
India,Maharashtra,Pimpri-Chinchwad,"Savta Mali Nagar, Pimpri-Chinchwad - IITM",24-02-2026 08:00:00,18.614767,73.799516,CO,40,102,74
India,Maharashtra,Pimpri-Chinchwad,"Thergaon, Pimpri Chinchwad - MPCB",24-02-2026 08:00:00,18.616318,73.765797,PM10,72,194,110
India,Maharashtra,Pimpri-Chinchwad,"Thergaon, Pimpri Chinchwad - MPCB",24-02-2026 08:00:00,18.616318,73.765797,NO2,31,107,63
India,Maharashtra,Navi Mumbai,"Nerul, Navi Mumbai - MPCB",24-02-2026 08:00:00,19.008751,73.016620,SO2,NA,NA,NA
India,Maharashtra,Navi Mumbai,"Sanpada, Navi Mumbai - MPCB",24-02-2026 08:00:00,19.0575752,73.0151367,PM2.5,41,146,82
India,Maharashtra,Navi Mumbai,"Sanpada, Navi Mumbai - MPCB",24-02-2026 08:00:00,19.0575752,73.0151367,NH3,2,85,26
India,Maharashtra,Navi Mumbai,"Sector-2E Kalamboli, Navi Mumbai - MPCB",24-02-2026 08:00:00,19.02579,73.10297,OZONE,NA,NA,NA
India,Maharashtra,Virar,"Bolinj, Virar - MPCB",24-02-2026 08:00:00,19.4458210,72.7988231,PM10,40,144,67
India,Maharashtra,Virar,"Bolinj, Virar - MPCB",24-02-2026 08:00:00,19.4458210,72.7988231,NO2,10,65,26
India,Mizoram,Aizawl,"Sikulpuikawn, Aizawl - Mizoram PCB",24-02-2026 08:00:00,23.7176342,92.7192841,CO,3,3,3
India,Maharashtra,Pune,"Revenue Colony-Shivajinagar, Pune - IITM",24-02-2026 08:00:00,18.530085,73.849598,SO2,3,25,9
India,Maharashtra,Pune,"Revenue Colony-Shivajinagar, Pune - IITM",24-02-2026 08:00:00,18.530085,73.849598,OZONE,7,65,10
India,Maharashtra,Pune,"Transport Nagar-Nigdi, Pune - IITM",24-02-2026 08:00:00,18.664282,73.763966,PM10,53,120,83
India,Maharashtra,Navi Mumbai,"Tondare-Taloja, Navi Mumbai - MPCB",24-02-2026 08:00:00,19.0630,73.1209,CO,6,28,18
India,Maharashtra,Parbhani,"Masoom Colony, Parbhani - MPCB",24-02-2026 08:00:00,19.265594,76.761463,PM2.5,19,44,30
India,Maharashtra,Navi Mumbai,"Kopripada-Vashi, Navi Mumbai - MPCB",24-02-2026 08:00:00,19.090337,73.014232,CO,10,50,47
India,Maharashtra,Sangli,"Vijay Nagar, Sangli - MPCB",24-02-2026 08:00:00, 16.5038,74.3623,OZONE,6,47,14
India,Odisha,Bileipada,"Tata Township, Bileipada - OSPCB",24-02-2026 08:00:00,22.06156703,85.47409613,OZONE,6,20,13
India,Odisha,Brajrajnagar,"GM Office, Brajrajnagar - OSPCB",24-02-2026 08:00:00,21.8004996,83.8396977,PM10,25,243,101
India,Odisha,Byasanagar,"Ferro Chrome Colony, Byasanagar - OSPCB",24-02-2026 08:00:00,20.94185,86.11510,NO2,10,32,18
India,Odisha,Byasanagar,"Ferro Chrome Colony, Byasanagar - OSPCB",24-02-2026 08:00:00,20.94185,86.11510,NH3,3,4,3
India,Odisha,Byasanagar,"Ferro Chrome Colony, Byasanagar - OSPCB",24-02-2026 08:00:00,20.94185,86.11510,SO2,4,9,6
India,Odisha,Cuttack,"CDA Area, Cuttack - OSPCB",24-02-2026 08:00:00,20.48891     ,85.84768     ,SO2,4,14,6
India,Odisha,Keonjhar,"Jagamohanpur, Keonjhar - OSPCB",24-02-2026 08:00:00,21.643900,85.599355,PM10,78,142,111
India,Odisha,Keonjhar,"Jagamohanpur, Keonjhar - OSPCB",24-02-2026 08:00:00,21.643900,85.599355,NH3,5,5,5
India,Odisha,Talcher,"Talcher Coalfields,Talcher - OSPCB",24-02-2026 08:00:00,20.9360711,85.1707021,CO,1,50,22
India,Odisha,Tensa,"Barsua Iron Ore Mines, Tensa - OSPCB",24-02-2026 08:00:00,21.869985,85.167016,NO2,NA,NA,NA
India,Odisha,Tensa,"Barsua Iron Ore Mines, Tensa - OSPCB",24-02-2026 08:00:00,21.869985,85.167016,OZONE,11,76,20
India,Punjab,Amritsar,"Golden Temple, Amritsar - PPCB",24-02-2026 08:00:00,31.620000,74.876512,PM2.5,51,99,80
India,Punjab,Amritsar,"Golden Temple, Amritsar - PPCB",24-02-2026 08:00:00,31.620000,74.876512,NO2,6,88,24
India,Punjab,Bathinda,"Hardev Nagar, Bathinda - PPCB",24-02-2026 08:00:00,30.233011,74.907758,SO2,4,15,10
India,Odisha,Nayagarh,"Dabuna, Nayagarh - OSPCB",24-02-2026 08:00:00,21.847279,85.416905,SO2,3,21,11
India,Odisha,Rairangpur,"Divisional Forest Office, Rairangpur - OSPCB",24-02-2026 08:00:00,22.265816,86.174829,NO2,11,12,11
India,Odisha,Rairangpur,"Divisional Forest Office, Rairangpur - OSPCB",24-02-2026 08:00:00,22.265816,86.174829,CO,15,59,20
India,Odisha,Rairangpur,"Divisional Forest Office, Rairangpur - OSPCB",24-02-2026 08:00:00,22.265816,86.174829,OZONE,6,52,19
India,Odisha,Rourkela,"Raghunathpali, Rourkela - OSPCB",24-02-2026 08:00:00,22.220833,84.809444,PM10,59,166,108
India,Odisha,Rourkela,"Raghunathpali, Rourkela - OSPCB",24-02-2026 08:00:00,22.220833,84.809444,SO2,5,6,6
India,Odisha,Angul,"Hakimapada, Angul - OSPCB",24-02-2026 08:00:00,20.832874,85.104082,PM10,95,215,146
India,Odisha,Angul,"Hakimapada, Angul - OSPCB",24-02-2026 08:00:00,20.832874,85.104082,NO2,6,60,18
India,Odisha,Angul,"Hakimapada, Angul - OSPCB",24-02-2026 08:00:00,20.832874,85.104082,SO2,9,48,16
India,Odisha,Angul,"Hakimapada, Angul - OSPCB",24-02-2026 08:00:00,20.832874,85.104082,CO,26,137,62
India,Odisha,Angul,"Hakimapada, Angul - OSPCB",24-02-2026 08:00:00,20.832874,85.104082,OZONE,6,77,10
India,Odisha,Bhubaneswar,"Lingraj Mandir, Bhubaneswar - OSPCB",24-02-2026 08:00:00,20.240790,85.836784,PM10,39,107,73
India,Odisha,Bhubaneswar,"Lingraj Mandir, Bhubaneswar - OSPCB",24-02-2026 08:00:00,20.240790,85.836784,SO2,4,31,11
India,Odisha,Bhubaneswar,"Patia, Bhubaneswar - OSPCB",24-02-2026 08:00:00,20.34652,85.81630,SO2,6,25,10
India,Odisha,Baripada,"Meher Colony, Baripada - OSPCB",24-02-2026 08:00:00,21.941841,86.728318,NO2,1,32,10
India,Odisha,Baripada,"Meher Colony, Baripada - OSPCB",24-02-2026 08:00:00,21.941841,86.728318,SO2,6,24,13
India,Odisha,Baripada,"Meher Colony, Baripada - OSPCB",24-02-2026 08:00:00,21.941841,86.728318,CO,44,79,46
India,Odisha,Bileipada,"Tata Township, Bileipada - OSPCB",24-02-2026 08:00:00,22.06156703,85.47409613,NH3,6,6,6
India,Odisha,Bileipada,"Tata Township, Bileipada - OSPCB",24-02-2026 08:00:00,22.06156703,85.47409613,SO2,11,12,12
India,Odisha,Barbil,"Forest Office, Barbil - OSPCB",24-02-2026 08:00:00,22.1166054,85.3945546,NO2,18,90,41
India,Odisha,Barbil,"Forest Office, Barbil - OSPCB",24-02-2026 08:00:00,22.1166054,85.3945546,SO2,13,93,32
India,Odisha,Talcher,"Talcher Coalfields,Talcher - OSPCB",24-02-2026 08:00:00,20.9360711,85.1707021,NO2,30,80,57
India,Rajasthan,Chittorgarh,"Shastri Nagar, Chittorgarh - RSPCB",24-02-2026 08:00:00,24.892047,74.623527,SO2,3,58,13
India,Rajasthan,Chittorgarh,"Shastri Nagar, Chittorgarh - RSPCB",24-02-2026 08:00:00,24.892047,74.623527,OZONE,1,90,1
India,Rajasthan,Churu,"Subash Chowk, Churu - RSPCB",24-02-2026 08:00:00,28.296139,74.961696,PM2.5,39,235,114
India,Rajasthan,Churu,"Subash Chowk, Churu - RSPCB",24-02-2026 08:00:00,28.296139,74.961696,PM10,72,184,134
India,Rajasthan,Churu,"Subash Chowk, Churu - RSPCB",24-02-2026 08:00:00,28.296139,74.961696,OZONE,45,120,69
India,Rajasthan,Dholpur,"Raja Ganj, Dholpur - RSPCB",24-02-2026 08:00:00,26.699557,77.898881,PM10,35,193,100
India,Rajasthan,Dholpur,"Raja Ganj, Dholpur - RSPCB",24-02-2026 08:00:00,26.699557,77.898881,SO2,6,11,9
India,Rajasthan,Bhilwara,"Pratap Nagar, Bhilwara - RSPCB",24-02-2026 08:00:00,25.339605,74.618883,OZONE,2,57,6
India,Rajasthan,Bhiwadi,"RIICO Ind. Area III, Bhiwadi - RSPCB",24-02-2026 08:00:00,28.194909,76.862296,NH3,5,18,11
India,Rajasthan,Bhiwadi,"RIICO Ind. Area III, Bhiwadi - RSPCB",24-02-2026 08:00:00,28.194909,76.862296,CO,4,126,45
India,Rajasthan,Bhiwadi,"Vasundhara Nagar_UIT, Bhiwadi - RSPCB",24-02-2026 08:00:00,28.207266,76.829265,CO,68,131,90
India,Rajasthan,Bikaner,"MM Ground, Bikaner - RSPCB",24-02-2026 08:00:00,28.018792,73.292658,PM10,62,462,190
India,Rajasthan,Jaipur,"Adarsh Nagar, Jaipur - RSPCB",24-02-2026 08:00:00,26.902909,75.836858,PM10,71,126,98
India,Rajasthan,Jaipur,"Adarsh Nagar, Jaipur - RSPCB",24-02-2026 08:00:00,26.902909,75.836858,SO2,16,26,23
India,Rajasthan,Jaipur,"Adarsh Nagar, Jaipur - RSPCB",24-02-2026 08:00:00,26.902909,75.836858,OZONE,15,73,27
India,Rajasthan,Jaipur,"Mansarovar Sector-12, Jaipur - RSPCB",24-02-2026 08:00:00,26.843698,75.766894,NO2,44,81,58
India,Rajasthan,Jaipur,"Mansarovar Sector-12, Jaipur - RSPCB",24-02-2026 08:00:00,26.843698,75.766894,CO,8,96,20
India,Rajasthan,Jaipur,"Sector-2 Murlipura, Jaipur - RSPCB",24-02-2026 08:00:00,26.960669,75.771817,PM2.5,25,98,50
India,Punjab,Rupnagar,"Ratanpura, Rupnagar - Ambuja Cements",24-02-2026 08:00:00,31.0325454,76.5623046,CO,21,30,26
India,Rajasthan,Ajmer,"Civil Lines,  Ajmer - RSPCB",24-02-2026 08:00:00,26.470859,74.646594,PM10,42,138,88
India,Rajasthan,Alwar,"Moti Doongri, Alwar - RSPCB",24-02-2026 08:00:00,27.554793,76.611536,NO2,51,132,81
India,Rajasthan,Alwar,"Moti Doongri, Alwar - RSPCB",24-02-2026 08:00:00,27.554793,76.611536,CO,24,100,32
India,Punjab,Jalandhar,"Civil Line, Jalandhar - PPCB",24-02-2026 08:00:00,31.321907,75.578914,OZONE,38,121,56
India,Punjab,Khanna,"Kalal Majra, Khanna - PPCB",24-02-2026 08:00:00,30.736056 ,76.209694,PM10,62,276,123
India,Punjab,Ludhiana,"Punjab Agricultural University, Ludhiana - PPCB",24-02-2026 08:00:00,30.9028,75.8086,SO2,17,45,32
India,Rajasthan,Jhalawar,"Rajlaxmi Nagar, Jhalawar - RSPCB",24-02-2026 08:00:00,24.588397,76.172782,PM2.5,23,273,81
India,Rajasthan,Jhalawar,"Rajlaxmi Nagar, Jhalawar - RSPCB",24-02-2026 08:00:00,24.588397,76.172782,CO,22,112,42
India,Rajasthan,Jhunjhunu,"Indra Nagar, Jhunjhunu - RSPCB",24-02-2026 08:00:00,28.108988,75.386577,PM10,65,214,122
India,Rajasthan,Jhunjhunu,"Indra Nagar, Jhunjhunu - RSPCB",24-02-2026 08:00:00,28.108988,75.386577,NO2,9,79,34
India,Rajasthan,Banswara,"Rati Talai, Banswara - RSPCB",24-02-2026 08:00:00,23.555190,74.440010,PM2.5,27,78,45
India,Rajasthan,Banswara,"Rati Talai, Banswara - RSPCB",24-02-2026 08:00:00,23.555190,74.440010,NO2,9,90,36
India,Rajasthan,Banswara,"Rati Talai, Banswara - RSPCB",24-02-2026 08:00:00,23.555190,74.440010,NH3,4,8,6
India,Rajasthan,Bharatpur,"Krishna Nagar, Bharatpur - RSPCB",24-02-2026 08:00:00,27.215415,77.50873,SO2,4,11,6
India,Punjab,Mandi Gobindgarh,"RIMT University, Mandi Gobindgarh - PPCB",24-02-2026 08:00:00,30.649961,76.331442,NH3,6,6,6
India,Punjab,Mandi Gobindgarh,"RIMT University, Mandi Gobindgarh - PPCB",24-02-2026 08:00:00,30.649961,76.331442,CO,8,110,32
India,Punjab,Patiala,"Model Town, Patiala - PPCB",24-02-2026 08:00:00,30.349388,76.366642,CO,8,46,25
India,Rajasthan,Hanumangarh,"Housing Board, Hanumangarh - RSPCB",24-02-2026 08:00:00,29.610750,74.283608,PM2.5,16,143,61
India,Rajasthan,Hanumangarh,"Housing Board, Hanumangarh - RSPCB",24-02-2026 08:00:00,29.610750,74.283608,NH3,1,7,5
India,Rajasthan,Nagaur,"Karni Colony, Nagaur - RSPCB",24-02-2026 08:00:00,27.213494,73.734444,NH3,8,13,10
India,Rajasthan,Pali,"Indira Colony Vistar, Pali - RSPCB",24-02-2026 08:00:00,25.771061, 73.340227,NO2,25,89,45
India,Rajasthan,Pratapgarh,"Pragati Nagar, Pratapgarh - RSPCB",24-02-2026 08:00:00,24.041198,74.780702,PM2.5,5,153,50
India,Rajasthan,Pratapgarh,"Pragati Nagar, Pratapgarh - RSPCB",24-02-2026 08:00:00,24.041198,74.780702,NH3,4,7,5
India,Rajasthan,Pratapgarh,"Pragati Nagar, Pratapgarh - RSPCB",24-02-2026 08:00:00,24.041198,74.780702,SO2,2,6,4
India,Rajasthan,Rajsamand,"Dhoinda, Rajsamand - RSPCB",24-02-2026 08:00:00,25.036360,73.883502,SO2,1,8,4
India,Rajasthan,Rajsamand,"Dhoinda, Rajsamand - RSPCB",24-02-2026 08:00:00,25.036360,73.883502,CO,4,58,24
India,Rajasthan,Rajsamand,"Dhoinda, Rajsamand - RSPCB",24-02-2026 08:00:00,25.036360,73.883502,OZONE,14,79,22
India,Rajasthan,Sawai Madhopur,"Sahu Nagar, Sawai Madhopur - RSPCB",24-02-2026 08:00:00,26.031443,76.359327,PM2.5,36,193,85
India,Rajasthan,Jhunjhunu,"Indra Nagar, Jhunjhunu - RSPCB",24-02-2026 08:00:00,28.108988,75.386577,SO2,6,13,8
India,Rajasthan,Jhunjhunu,"Indra Nagar, Jhunjhunu - RSPCB",24-02-2026 08:00:00,28.108988,75.386577,CO,14,49,28
India,Rajasthan,Jodhpur,"Collectorate, Jodhpur - RSPCB",24-02-2026 08:00:00,26.268249,73.0193853,PM10,55,158,87
India,Rajasthan,Jodhpur,"Digari Kalan, Jodhpur - RSPCB",24-02-2026 08:00:00,26.295810,73.082283,PM10,50,420,142
India,Rajasthan,Jodhpur,"Jhalamand, Jodhpur - RSPCB",24-02-2026 08:00:00,26.215415,73.070156,PM2.5,5,273,78
India,Rajasthan,Jodhpur,"Jhalamand, Jodhpur - RSPCB",24-02-2026 08:00:00,26.215415,73.070156,NO2,6,81,40
India,TamilNadu,Chennai,"Manali Village, Chennai - TNPCB",24-02-2026 08:00:00,13.1662,80.2584,SO2,15,17,17
India,TamilNadu,Chennai,"Manali, Chennai - CPCB",24-02-2026 08:00:00,13.164544,80.26285,SO2,12,20,17
India,TamilNadu,Chennai,"Perungudi, Chennai - TNPCB",24-02-2026 08:00:00,12.9533,80.2357,NH3,1,2,1
India,TamilNadu,Chennai,"Royapuram, Chennai - TNPCB",24-02-2026 08:00:00,13.1036,80.2909,PM10,6,87,21
India,TamilNadu,Chennai,"Royapuram, Chennai - TNPCB",24-02-2026 08:00:00,13.1036,80.2909,OZONE,16,19,17
India,Rajasthan,Kota,"Dhanmandi, Kota - RSPCB",24-02-2026 08:00:00,25.164090,75.858137,PM2.5,28,317,154
India,Rajasthan,Kota,"Dhanmandi, Kota - RSPCB",24-02-2026 08:00:00,25.164090,75.858137,PM10,67,257,157
India,Rajasthan,Kota,"Shrinath Puram, Kota - RSPCB",24-02-2026 08:00:00,25.14389,75.821256,NO2,7,15,11
India,Rajasthan,Kota,"Shrinath Puram, Kota - RSPCB",24-02-2026 08:00:00,25.14389,75.821256,SO2,2,33,11
India,Rajasthan,Sawai Madhopur,"Sahu Nagar, Sawai Madhopur - RSPCB",24-02-2026 08:00:00,26.031443,76.359327,OZONE,5,192,15
India,Rajasthan,Sikar,"Radhakishan Pura, Sikar - RSPCB",24-02-2026 08:00:00,27.608912,75.153302,NO2,13,85,27
India,Rajasthan,Sikar,"Radhakishan Pura, Sikar - RSPCB",24-02-2026 08:00:00,27.608912,75.153302,SO2,4,10,7
India,Rajasthan,Sirohi,"Vedhaynath Colony, Sirohi - RSPCB",24-02-2026 08:00:00,24.885261,72.857549,OZONE,4,78,8
India,Rajasthan,Sri Ganganagar,"Old City, Sri Ganganagar - RSPCB",24-02-2026 08:00:00,29.931624,73.864511,PM2.5,32,93,48
India,TamilNadu,Chennai,"Arumbakkam, Chennai - TNPCB",24-02-2026 08:00:00,13.0664,80.2112 ,PM2.5,5,70,21
India,TamilNadu,Chennai,"Arumbakkam, Chennai - TNPCB",24-02-2026 08:00:00,13.0664,80.2112 ,NO2,9,20,13
India,TamilNadu,Chennai,"Arumbakkam, Chennai - TNPCB",24-02-2026 08:00:00,13.0664,80.2112 ,SO2,1,19,5
India,Rajasthan,Udaipur,"Ashok Nagar, Udaipur - RSPCB",24-02-2026 08:00:00,24.5886166,73.6321397,NO2,1,46,25
India,Rajasthan,Udaipur,"Ashok Nagar, Udaipur - RSPCB",24-02-2026 08:00:00,24.5886166,73.6321397,CO,5,104,14
India,Rajasthan,Karauli,"Satyawati Vihar, Karauli - RSPCB",24-02-2026 08:00:00,26.506177,77.025989,NO2,20,64,34
India,TamilNadu,Perundurai,"SIPCOT Industrial Park, Perundurai - TNPCB",24-02-2026 08:00:00,11.258242,77.552761,PM2.5,18,93,52
India,TamilNadu,Perundurai,"SIPCOT Industrial Park, Perundurai - TNPCB",24-02-2026 08:00:00,11.258242,77.552761,OZONE,23,30,29
India,TamilNadu,Thoothukudi,"Meelavittan, Thoothukudi - TNPCB",24-02-2026 08:00:00,8.816428 ,78.099039,SO2,4,15,11
India,TamilNadu,Thoothukudi,"Meelavittan, Thoothukudi - TNPCB",24-02-2026 08:00:00,8.816428 ,78.099039,OZONE,8,49,25
India,Telangana,Hyderabad,"Bollaram Industrial Area, Hyderabad - TSPCB",24-02-2026 08:00:00,17.540891,78.358528,PM2.5,47,97,67
India,Telangana,Hyderabad,"Bollaram Industrial Area, Hyderabad - TSPCB",24-02-2026 08:00:00,17.540891,78.358528,CO,4,100,45
India,Telangana,Hyderabad,"Central University, Hyderabad - TSPCB",24-02-2026 08:00:00,17.460103,78.334361,SO2,4,9,7
India,Telangana,Hyderabad,"ECIL Kapra, Hyderabad - TSPCB",24-02-2026 08:00:00,17.470431,78.566959,PM10,68,101,79
India,Telangana,Hyderabad,"Kompally Municipal Office, Hyderabad - TSPCB",24-02-2026 08:00:00,17.544899,78.486949,CO,13,28,17
India,Telangana,Hyderabad,"New Malakpet, Hyderabad - TSPCB",24-02-2026 08:00:00,17.37206,78.50864,OZONE,10,26,10
India,Telangana,Hyderabad,"Ramachandrapuram, Hyderabad - TSPCB",24-02-2026 08:00:00,17.528544,78.286195,PM10,55,92,73
India,Telangana,Hyderabad,"Sanathnagar, Hyderabad - TSPCB",24-02-2026 08:00:00,17.4559458,78.4332152,SO2,3,17,9
India,Telangana,Hyderabad,"Sanathnagar, Hyderabad - TSPCB",24-02-2026 08:00:00,17.4559458,78.4332152,CO,40,64,45
India,Telangana,Hyderabad,"ECIL Kapra, Hyderabad - TSPCB",24-02-2026 08:00:00,17.470431,78.566959,NH3,2,5,4
India,Telangana,Hyderabad,"ECIL Kapra, Hyderabad - TSPCB",24-02-2026 08:00:00,17.470431,78.566959,CO,14,26,20
India,Telangana,Hyderabad,"ICRISAT Patancheru, Hyderabad - TSPCB",24-02-2026 08:00:00,17.518400,78.278777,CO,NA,NA,NA
India,Telangana,Hyderabad,"Kokapet, Hyderabad - TSPCB",24-02-2026 08:00:00,17.393559,78.339194,PM10,64,116,92
India,Telangana,Hyderabad,"Kompally Municipal Office, Hyderabad - TSPCB",24-02-2026 08:00:00,17.544899,78.486949,PM10,72,91,84
India,Uttar_Pradesh,Agra,"Rohta, Agra - UPPCB",24-02-2026 08:00:00,27.106972,78.000111,PM2.5,21,210,65
India,Uttar_Pradesh,Agra,"Rohta, Agra - UPPCB",24-02-2026 08:00:00,27.106972,78.000111,SO2,5,17,12
India,Uttar_Pradesh,Agra,"Sanjay Palace, Agra - UPPCB",24-02-2026 08:00:00,27.19865833,78.00598056,CO,31,44,37
India,Uttar_Pradesh,Agra,"Sector-3B Avas Vikas Colony, Agra - UPPCB",24-02-2026 08:00:00,27.19412,77.96237,NO2,35,36,36
India,Uttar_Pradesh,Agra,"Sector-3B Avas Vikas Colony, Agra - UPPCB",24-02-2026 08:00:00,27.19412,77.96237,SO2,12,14,13
India,Uttar_Pradesh,Bareilly,"Civil Lines, Bareilly - UPPCB",24-02-2026 08:00:00,28.359581,79.414455,NO2,2,3,2
India,Uttar_Pradesh,Bareilly,"Civil Lines, Bareilly - UPPCB",24-02-2026 08:00:00,28.359581,79.414455,CO,47,121,78
India,Uttar_Pradesh,Bareilly,"Rajendra Nagar, Bareilly - UPPCB",24-02-2026 08:00:00,28.38910936,79.42963708,NH3,1,1,1
India,Uttar_Pradesh,Bulandshahr,"Yamunapuram, Bulandshahr - UPPCB",24-02-2026 08:00:00,28.406963,77.849831,CO,10,92,63
India,Tripura,Agartala,"Bardowali, Agartala - Tripura SPCB",24-02-2026 08:00:00,23.8175497,91.2726974,PM2.5,38,225,120
India,Tripura,Agartala,"Bardowali, Agartala - Tripura SPCB",24-02-2026 08:00:00,23.8175497,91.2726974,OZONE,1,56,1
India,Uttar_Pradesh,Agra,"Manoharpur, Agra - UPPCB",24-02-2026 08:00:00,27.23711,78.01936,SO2,5,7,6
India,Uttar_Pradesh,Agra,"Shastripuram, Agra - UPPCB",24-02-2026 08:00:00,27.19862,77.92066,PM10,23,92,62
India,Uttar_Pradesh,Agra,"Shastripuram, Agra - UPPCB",24-02-2026 08:00:00,27.19862,77.92066,NH3,3,3,3
India,Telangana,Hyderabad,"Somajiguda, Hyderabad - TSPCB",24-02-2026 08:00:00,17.417094,78.457437,NO2,15,17,16
India,Telangana,Hyderabad,"Somajiguda, Hyderabad - TSPCB",24-02-2026 08:00:00,17.417094,78.457437,NH3,3,4,4
India,TamilNadu,Coimbatore,"SIDCO Kurichi, Coimbatore - TNPCB",24-02-2026 08:00:00,10.942451,76.978996,OZONE,43,51,45
India,Uttar_Pradesh,Lucknow,"Gomti Nagar, Lucknow - UPPCB",24-02-2026 08:00:00,26.868120,81.005119,PM2.5,56,330,166
India,Uttar_Pradesh,Lucknow,"Gomti Nagar, Lucknow - UPPCB",24-02-2026 08:00:00,26.868120,81.005119,PM10,41,156,89
India,Uttar_Pradesh,Lucknow,"Gomti Nagar, Lucknow - UPPCB",24-02-2026 08:00:00,26.868120,81.005119,CO,32,40,33
India,Uttar_Pradesh,Lucknow,"Gomti Nagar, Lucknow - UPPCB",24-02-2026 08:00:00,26.868120,81.005119,OZONE,30,42,31
India,Uttar_Pradesh,Lucknow,"Kendriya Vidyalaya, Lucknow - CPCB",24-02-2026 08:00:00,26.906111,80.948222,PM2.5,58,253,174
India,Uttar_Pradesh,Lucknow,"Kendriya Vidyalaya, Lucknow - CPCB",24-02-2026 08:00:00,26.906111,80.948222,SO2,1,33,14
India,Uttar_Pradesh,Lucknow,"Kukrail Picnic Spot-1, Lucknow - UPPCB",24-02-2026 08:00:00,26.90723,80.98579,PM2.5,21,99,57
India,Uttar_Pradesh,Lucknow,"Kukrail Picnic Spot-1, Lucknow - UPPCB",24-02-2026 08:00:00,26.90723,80.98579,OZONE,7,48,17
India,Uttar_Pradesh,Lucknow,"Lalbagh, Lucknow - CPCB",24-02-2026 08:00:00,26.8458805,80.9365541,PM2.5,24,87,58
India,Uttar_Pradesh,Lucknow,"Lalbagh, Lucknow - CPCB",24-02-2026 08:00:00,26.8458805,80.9365541,PM10,101,220,153
India,Uttar_Pradesh,Lucknow,"Talkatora District Industries Center, Lucknow - CPCB",24-02-2026 08:00:00,26.83399722,80.8917361,NH3,1,9,4
India,Uttar_Pradesh,Moradabad,"Kashiram Nagar, Moradabad - UPPCB",24-02-2026 08:00:00,28.849399,78.742362,CO,26,92,37
India,Uttar_Pradesh,Moradabad,"Transport Nagar, Moradabad - UPPCB",24-02-2026 08:00:00,28.802625,78.753728,NO2,29,29,29
India,Uttar_Pradesh,Muzaffarnagar,"New Mandi, Muzaffarnagar - UPPCB",24-02-2026 08:00:00,29.4723508,77.7194031,PM2.5,49,302,165
India,Uttar_Pradesh,Muzaffarnagar,"New Mandi, Muzaffarnagar - UPPCB",24-02-2026 08:00:00,29.4723508,77.7194031,PM10,75,204,136
India,Uttar_Pradesh,Muzaffarnagar,"New Mandi, Muzaffarnagar - UPPCB",24-02-2026 08:00:00,29.4723508,77.7194031,NO2,21,65,42
India,Uttar_Pradesh,Muzaffarnagar,"New Mandi, Muzaffarnagar - UPPCB",24-02-2026 08:00:00,29.4723508,77.7194031,NH3,10,14,12
India,Uttar_Pradesh,Noida,"Sector - 125, Noida - UPPCB",24-02-2026 08:00:00,28.5447608,77.3231257,CO,69,131,104
India,Uttar_Pradesh,Noida,"Sector - 62, Noida - IMD",24-02-2026 08:00:00,28.6245479,77.3577104,OZONE,17,135,29
India,Uttar_Pradesh,Gorakhpur,"Madan Mohan Malaviya University of Technology, Gorakhpur - UPPCB",24-02-2026 08:00:00,26.730136,83.433859,NH3,1,1,1
India,Uttar_Pradesh,Greater Noida,"Knowledge Park - III, Greater Noida - UPPCB",24-02-2026 08:00:00,28.47272,77.482000,PM2.5,68,337,205
India,Uttar_Pradesh,Greater Noida,"Knowledge Park - III, Greater Noida - UPPCB",24-02-2026 08:00:00,28.47272,77.482000,SO2,6,19,11
India,Uttar_Pradesh,Greater Noida,"Knowledge Park - V, Greater Noida - UPPCB",24-02-2026 08:00:00,28.557054,77.453663,NO2,48,124,89
India,Uttar_Pradesh,Hapur,"Anand Vihar, Hapur - UPPCB",24-02-2026 08:00:00,28.725645,77.749675,PM2.5,48,345,241
India,Uttar_Pradesh,Kanpur,"FTI Kidwai Nagar, Kanpur - UPPCB",24-02-2026 08:00:00,26.428282,80.327067,PM2.5,35,180,81
India,Uttar_Pradesh,Moradabad,"Employment Office, Moradabad - UPPCB",24-02-2026 08:00:00,28.88528,78.73880,OZONE,16,34,16
India,Uttar_Pradesh,Moradabad,"Jigar Colony, Moradabad - UPPCB",24-02-2026 08:00:00,28.856664,78.772638,PM2.5,57,201,93
India,Uttar_Pradesh,Moradabad,"Jigar Colony, Moradabad - UPPCB",24-02-2026 08:00:00,28.856664,78.772638,NO2,24,25,25
India,Uttar_Pradesh,Moradabad,"Jigar Colony, Moradabad - UPPCB",24-02-2026 08:00:00,28.856664,78.772638,NH3,6,6,6
India,Uttar_Pradesh,Moradabad,"Kashiram Nagar, Moradabad - UPPCB",24-02-2026 08:00:00,28.849399,78.742362,PM10,86,175,119
India,Uttar_Pradesh,Moradabad,"Kashiram Nagar, Moradabad - UPPCB",24-02-2026 08:00:00,28.849399,78.742362,NO2,24,25,25
India,Uttar_Pradesh,Ghaziabad,"Loni, Ghaziabad - UPPCB",24-02-2026 08:00:00,28.757294,77.278792,PM10,138,408,274
India,Uttar_Pradesh,Ghaziabad,"Sanjay Nagar, Ghaziabad - UPPCB",24-02-2026 08:00:00,28.685382,77.453839,SO2,3,39,13
India,Uttar_Pradesh,Ghaziabad,"Vasundhara, Ghaziabad - UPPCB",24-02-2026 08:00:00,28.6603346,77.3572563,NH3,8,16,12
India,Uttar_Pradesh,Gorakhpur,"Madan Mohan Malaviya University of Technology, Gorakhpur - UPPCB",24-02-2026 08:00:00,26.730136,83.433859,PM2.5,56,102,82
India,Uttar_Pradesh,Kanpur,"NSI Kalyanpur, Kanpur - UPPCB",24-02-2026 08:00:00,26.509954,80.249612,PM2.5,37,221,123
India,Uttar_Pradesh,Kanpur,"NSI Kalyanpur, Kanpur - UPPCB",24-02-2026 08:00:00,26.509954,80.249612,NO2,24,25,25
India,Uttar_Pradesh,Kanpur,"NSI Kalyanpur, Kanpur - UPPCB",24-02-2026 08:00:00,26.509954,80.249612,CO,34,88,68
India,Uttar_Pradesh,Kanpur,"Nehru Nagar, Kanpur - UPPCB",24-02-2026 08:00:00,26.4703136,80.3229863,CO,34,123,66
India,Uttar_Pradesh,Lucknow,"B R Ambedkar University, Lucknow - UPPCB",24-02-2026 08:00:00,26.766433,80.927299,NH3,4,6,5
India,Uttar_Pradesh,Meerut,"Jai Bhim Nagar, Meerut - UPPCB",24-02-2026 08:00:00,28.9535882,77.7622941,OZONE,2,181,26
India,Uttar_Pradesh,Meerut,"Pallavpuram Phase 2, Meerut - UPPCB",24-02-2026 08:00:00,29.063510,77.709723,PM10,45,159,109
India,Uttar_Pradesh,Moradabad,"Buddhi Vihar, Moradabad - UPPCB",24-02-2026 08:00:00,28.83526,78.74460,SO2,19,24,22
India,Uttar_Pradesh,Firozabad,"Nagla Bhau, Firozabad - UPPCB",24-02-2026 08:00:00,27.168897,78.376960,NH3,2,2,2
India,Uttar_Pradesh,Firozabad,"Nagla Bhau, Firozabad - UPPCB",24-02-2026 08:00:00,27.168897,78.376960,OZONE,6,20,8
India,Uttar_Pradesh,Meerut,"Ganga Nagar, Meerut - UPPCB",24-02-2026 08:00:00,28.999264,77.7590354,SO2,19,21,20
India,West_Bengal,Kolkata,"Jadavpur, Kolkata - WBPCB",24-02-2026 08:00:00,22.49929,88.36917,PM10,65,162,111
India,West_Bengal,Kolkata,"Rabindra Bharati University, Kolkata - WBPCB",24-02-2026 08:00:00,22.627847,88.380669,CO,36,77,45
India,West_Bengal,Kolkata,"Rabindra Sarobar, Kolkata - WBPCB",24-02-2026 08:00:00,22.51106,88.35142,CO,32,71,36
India,West_Bengal,Kolkata,"Victoria, Kolkata - WBPCB",24-02-2026 08:00:00,22.5448082,88.3403691,PM2.5,56,161,100
India,West_Bengal,Kolkata,"Victoria, Kolkata - WBPCB",24-02-2026 08:00:00,22.5448082,88.3403691,NO2,47,66,54
India,West_Bengal,Kolkata,"Victoria, Kolkata - WBPCB",24-02-2026 08:00:00,22.5448082,88.3403691,NH3,8,8,8
India,West_Bengal,Kolkata,"Victoria, Kolkata - WBPCB",24-02-2026 08:00:00,22.5448082,88.3403691,SO2,7,31,14
India,West_Bengal,Siliguri,"Ward-32 Bapupara, Siliguri - WBPCB",24-02-2026 08:00:00,26.6879226,88.4152495,PM10,120,416,187
India,West_Bengal,Siliguri,"Ward-32 Bapupara, Siliguri - WBPCB",24-02-2026 08:00:00,26.6879226,88.4152495,NO2,17,22,20
India,Uttar_Pradesh,Noida,"Sector-1, Noida - UPPCB",24-02-2026 08:00:00,28.5898,77.3101,CO,34,114,64
India,Uttar_Pradesh,Noida,"Sector-116, Noida - UPPCB",24-02-2026 08:00:00,28.569230,77.393848,PM10,110,412,241
India,Uttar_Pradesh,Noida,"Sector-116, Noida - UPPCB",24-02-2026 08:00:00,28.569230,77.393848,OZONE,6,125,10
India,Uttar_Pradesh,Prayagraj,"Jhunsi, Prayagraj - UPPCB",24-02-2026 08:00:00,25.425602,81.917152,OZONE,17,81,17
India,Uttar_Pradesh,Prayagraj,"Motilal Nehru NIT, Prayagraj - UPPCB",24-02-2026 08:00:00,25.494,81.863,NO2,12,12,12
India,Uttar_Pradesh,Varanasi,"Ardhali Bazar, Varanasi - UPPCB",24-02-2026 08:00:00,25.3505986,82.9083074,OZONE,11,32,21
India,Uttar_Pradesh,Varanasi,"Bhelupur, Varanasi - UPPCB",24-02-2026 08:00:00,25.301778,82.996789,PM2.5,33,302,82
India,Uttar_Pradesh,Varanasi,"Bhelupur, Varanasi - UPPCB",24-02-2026 08:00:00,25.301778,82.996789,NH3,1,1,1
India,Uttar_Pradesh,Vrindavan,"Omex Eternity, Vrindavan - UPPCB",24-02-2026 08:00:00,27.5714090,77.6557570,OZONE,15,16,15
India,Uttarakhand,Dehradun,"Doon University, Dehradun - UKPCB",24-02-2026 08:00:00,30.269444,78.044167,CO,7,8,8
India,Uttarakhand,Kashipur,"Govt. Girls Inter College, Kashipur - UKPCB",24-02-2026 08:00:00,29.2124114,78.9611753,SO2,7,9,8
India,Uttarakhand,Kashipur,"Govt. Girls Inter College, Kashipur - UKPCB",24-02-2026 08:00:00,29.2124114,78.9611753,OZONE,4,25,4
India,Uttarakhand,Rishikesh,"Shivaji Nagar, Rishikesh - UKPCB",24-02-2026 08:00:00,30.075911,78.2859547,SO2,1,1,1
India,Uttarakhand,Rishikesh,"Shivaji Nagar, Rishikesh - UKPCB",24-02-2026 08:00:00,30.075911,78.2859547,CO,38,38,38
India,Uttarakhand,Rishikesh,"Shivaji Nagar, Rishikesh - UKPCB",24-02-2026 08:00:00,30.075911,78.2859547,OZONE,80,80,80
India,Uttar_Pradesh,Varanasi,"IESD Banaras Hindu University, Varanasi - UPPCB",24-02-2026 08:00:00,25.262326,82.995408,NH3,1,4,3
India,Uttar_Pradesh,Varanasi,"IESD Banaras Hindu University, Varanasi - UPPCB",24-02-2026 08:00:00,25.262326,82.995408,SO2,33,41,35
India,Uttar_Pradesh,Varanasi,"IESD Banaras Hindu University, Varanasi - UPPCB",24-02-2026 08:00:00,25.262326,82.995408,OZONE,3,29,15
India,Uttar_Pradesh,Varanasi,"Maldahiya, Varanasi - UPPCB",24-02-2026 08:00:00,25.32393,82.99687,PM2.5,20,242,66
India,Uttar_Pradesh,Varanasi,"Maldahiya, Varanasi - UPPCB",24-02-2026 08:00:00,25.32393,82.99687,SO2,30,30,30
India,West_Bengal,Howrah,"Padmapukur, Howrah - WBPCB",24-02-2026 08:00:00,22.5687319,88.2797276,CO,44,106,88
India,West_Bengal,Kolkata,"Bidhannagar, Kolkata - WBPCB",24-02-2026 08:00:00,22.58157048,88.41002457,SO2,7,60,13
India,West_Bengal,Kolkata,"Fort William, Kolkata - WBPCB",24-02-2026 08:00:00,22.556640,88.342674,PM2.5,45,152,96
India,West_Bengal,Kolkata,"Fort William, Kolkata - WBPCB",24-02-2026 08:00:00,22.556640,88.342674,NO2,37,71,48
India,West_Bengal,Asansol,"Asansol Court Area, Asansol - WBPCB",24-02-2026 08:00:00,23.685297,86.945968,OZONE,15,41,22
India,West_Bengal,Asansol,"Evelyn Lodge, Asansol - WBPCB",24-02-2026 08:00:00,23.6979360,86.9443950,PM10,50,123,91
India,West_Bengal,Asansol,"Evelyn Lodge, Asansol - WBPCB",24-02-2026 08:00:00,23.6979360,86.9443950,NO2,10,41,21
India,West_Bengal,Asansol,"Mahabir Colliery, Asansol - WBPCB",24-02-2026 08:00:00,23.6181830,87.1057180,PM10,73,175,118
India,West_Bengal,Barrackpore,"SVSPA Campus, Barrackpore - WBPCB",24-02-2026 08:00:00,22.7605581,88.3617589,NH3,6,8,7
India,West_Bengal,Durgapur,"Womens College_City Center, Durgapur - WBPCB",24-02-2026 08:00:00,23.549395,87.300496,PM2.5,34,72,58
India,West_Bengal,Durgapur,"Womens College_City Center, Durgapur - WBPCB",24-02-2026 08:00:00,23.549395,87.300496,PM10,66,141,108
India,West_Bengal,Haldia,"Priyambada Housing Estate, Haldia - WBPCB",24-02-2026 08:00:00,22.06047,88.109737,PM10,36,100,66
India,West_Bengal,Haldia,"Priyambada Housing Estate, Haldia - WBPCB",24-02-2026 08:00:00,22.06047,88.109737,SO2,11,19,13
India,West_Bengal,Howrah,"Belur Math, Howrah - WBPCB",24-02-2026 08:00:00,22.629801,88.352017,PM10,77,163,137
India,West_Bengal,Howrah,"Dasnagar, Howrah - WBPCB",24-02-2026 08:00:00,22.6025571,88.3105664,NH3,11,13,12
India,West_Bengal,Siliguri,"Ward-32 Bapupara, Siliguri - WBPCB",24-02-2026 08:00:00,26.6879226,88.4152495,NH3,10,10,10
India,West_Bengal,Siliguri,"Ward-32 Bapupara, Siliguri - WBPCB",24-02-2026 08:00:00,26.6879226,88.4152495,CO,37,115,64
India,Bihar,Arrah,"New DM Office, Arrah - BSPCB",24-02-2026 08:00:00,25.5626095,84.663264,NH3,1,2,2
India,Bihar,Arrah,"New DM Office, Arrah - BSPCB",24-02-2026 08:00:00,25.5626095,84.663264,SO2,NA,NA,NA
India,Bihar,Arrah,"New DM Office, Arrah - BSPCB",24-02-2026 08:00:00,25.5626095,84.663264,OZONE,7,14,9
India,Bihar,Aurangabad,"Gurdeo Nagar, Aurangabad - BSPCB",24-02-2026 08:00:00,24.75746,84.366208,NH3,1,2,2
India,Bihar,Aurangabad,"Gurdeo Nagar, Aurangabad - BSPCB",24-02-2026 08:00:00,24.75746,84.366208,OZONE,8,51,15
India,Bihar,Begusarai,"Lohiyanagar, Begusarai - BSPCB",24-02-2026 08:00:00,25.42742023,86.13886079,OZONE,6,41,37
India,Bihar,Bettiah,"Kamalnath Nagar, Bettiah - BSPCB",24-02-2026 08:00:00,26.80365,84.51954,PM2.5,38,240,88
India,Bihar,Bettiah,"Kamalnath Nagar, Bettiah - BSPCB",24-02-2026 08:00:00,26.80365,84.51954,NH3,1,1,1
India,Bihar,Gaya,"Collectorate, Gaya - BSPCB",24-02-2026 08:00:00,24.7955,84.9994,OZONE,17,19,18
India,Bihar,Gaya,"Kareemganj, Gaya - BSPCB",24-02-2026 08:00:00,24.792403,84.992416,CO,1,5,2
India,Bihar,Gaya,"SFTI Kusdihra, Gaya - BSPCB",24-02-2026 08:00:00,24.762518,84.982348,NO2,16,67,35
India,Bihar,Hajipur,"Industrial Area, Hajipur - BSPCB",24-02-2026 08:00:00,25.697189,85.245900,PM10,56,425,187
India,Bihar,Hajipur,"Industrial Area, Hajipur - BSPCB",24-02-2026 08:00:00,25.697189,85.245900,NO2,55,131,87
India,Bihar,Katihar,"Mirchaibari, Katihar - BSPCB",24-02-2026 08:00:00,25.560083,87.553265,PM2.5,33,123,68
India,Bihar,Katihar,"Mirchaibari, Katihar - BSPCB",24-02-2026 08:00:00,25.560083,87.553265,CO,76,99,85
India,Andhra_Pradesh,Amaravati,"Secretariat, Amaravati - APPCB",24-02-2026 08:00:00,16.5150833,80.5181667,PM10,34,103,58
India,Andhra_Pradesh,Amaravati,"Secretariat, Amaravati - APPCB",24-02-2026 08:00:00,16.5150833,80.5181667,SO2,9,23,13
India,Andhra_Pradesh,Amaravati,"Secretariat, Amaravati - APPCB",24-02-2026 08:00:00,16.5150833,80.5181667,CO,8,28,23
India,Andhra_Pradesh,Anantapur,"Gulzarpet, Anantapur - APPCB",24-02-2026 08:00:00,14.675886,77.593027,NO2,19,19,19
India,Andhra_Pradesh,Anantapur,"Gulzarpet, Anantapur - APPCB",24-02-2026 08:00:00,14.675886,77.593027,SO2,13,13,13
India,Andhra_Pradesh,Kadapa,"Yerramukkapalli, Kadapa - APPCB",24-02-2026 08:00:00,14.465052,78.824187,NH3,3,5,4
India,Andhra_Pradesh,Kadapa,"Yerramukkapalli, Kadapa - APPCB",24-02-2026 08:00:00,14.465052,78.824187,SO2,12,17,14
India,Arunachal_Pradesh,Naharlagun,"Naharlagun, Naharlagun - APSPCB",24-02-2026 08:00:00,27.103358,93.679645,NO2,7,9,7
India,Arunachal_Pradesh,Naharlagun,"Naharlagun, Naharlagun - APSPCB",24-02-2026 08:00:00,27.103358,93.679645,NH3,1,1,1
India,Assam,Byrnihat,"Central Academy for SFS, Byrnihat - PCBA",24-02-2026 08:00:00,26.071318,91.87488,PM10,NA,NA,NA
India,Assam,Guwahati,"LGBI Airport, Guwahati - PCBA",24-02-2026 08:00:00,26.10887,91.589544,PM2.5,49,142,94
India,Assam,Guwahati,"LGBI Airport, Guwahati - PCBA",24-02-2026 08:00:00,26.10887,91.589544,NO2,5,33,17
India,Assam,Guwahati,"Pan Bazaar, Guwahati - PCBA",24-02-2026 08:00:00,26.187500,91.744194,OZONE,12,23,14
India,Assam,Guwahati,"Railway Colony, Guwahati - PCBA",24-02-2026 08:00:00,26.181742,91.78063,PM10,80,201,148
India,Assam,Guwahati,"Railway Colony, Guwahati - PCBA",24-02-2026 08:00:00,26.181742,91.78063,CO,2,18,8
India,Assam,Nagaon,"Christianpatty, Nagaon - PCBA",24-02-2026 08:00:00,26.349082,92.68449,NH3,4,4,4
India,Assam,Nagaon,"Christianpatty, Nagaon - PCBA",24-02-2026 08:00:00,26.349082,92.68449,SO2,12,18,15
India,Andhra_Pradesh,Vijayawada,"HB Colony, Vijayawada - APPCB",24-02-2026 08:00:00,16.536107,80.594233,PM10,38,124,66
India,Andhra_Pradesh,Vijayawada,"HB Colony, Vijayawada - APPCB",24-02-2026 08:00:00,16.536107,80.594233,SO2,10,16,13
India,Andhra_Pradesh,Vijayawada,"HB Colony, Vijayawada - APPCB",24-02-2026 08:00:00,16.536107,80.594233,OZONE,NA,NA,NA
India,Andhra_Pradesh,Vijayawada,"Kanuru, Vijayawada - APPCB",24-02-2026 08:00:00,16.486692,80.699436,NO2,17,25,18
India,Andhra_Pradesh,Vijayawada,"Rajiv Gandhi Park, Vijayawada - APPCB",24-02-2026 08:00:00,16.509717,80.612222,NO2,18,38,28
India,Bihar,Bhagalpur,"DM Office_Kachari Chowk, Bhagalpur - BSPCB",24-02-2026 08:00:00,25.251013,86.989001,PM2.5,35,163,78
India,Bihar,Bhagalpur,"DM Office_Kachari Chowk, Bhagalpur - BSPCB",24-02-2026 08:00:00,25.251013,86.989001,NO2,6,11,8
India,Bihar,Bhagalpur,"DM Office_Kachari Chowk, Bhagalpur - BSPCB",24-02-2026 08:00:00,25.251013,86.989001,OZONE,12,24,16
India,Bihar,Bihar Sharif,"D M Colony, Bihar Sharif - BSPCB",24-02-2026 08:00:00,25.204762,85.514960,PM2.5,NA,NA,NA
India,Bihar,Bihar Sharif,"D M Colony, Bihar Sharif - BSPCB",24-02-2026 08:00:00,25.204762,85.514960,NO2,NA,NA,NA
India,Assam,Silchar,"Tarapur, Silchar - PCBA",24-02-2026 08:00:00,24.82827,92.79525,PM2.5,29,98,66
India,Assam,Silchar,"Tarapur, Silchar - PCBA",24-02-2026 08:00:00,24.82827,92.79525,PM10,55,72,61
India,Assam,Silchar,"Tarapur, Silchar - PCBA",24-02-2026 08:00:00,24.82827,92.79525,OZONE,2,10,2
India,Assam,Sivasagar,"Girls College, Sivasagar - PCBA",24-02-2026 08:00:00,26.987634,94.636574,NH3,5,14,9
India,Andhra_Pradesh,Vijayawada,"Rajiv Nagar, Vijayawada - APPCB",24-02-2026 08:00:00,16.554731,80.649110,NH3,3,5,4
India,Andhra_Pradesh,Vijayawada,"Rajiv Nagar, Vijayawada - APPCB",24-02-2026 08:00:00,16.554731,80.649110,OZONE,NA,NA,NA
India,Bihar,Araria,"Kharahiya Basti, Araria - BSPCB",24-02-2026 08:00:00,26.146529,87.454184,PM2.5,28,207,96
India,Bihar,Manguraha,"Forest Rest House, Manguraha - BSPCB",24-02-2026 08:00:00,27.308328,84.531742,NH3,1,2,1
India,Bihar,Muzaffarpur,"Buddha Colony, Muzaffarpur - BSPCB",24-02-2026 08:00:00,26.11442,85.39813,PM2.5,51,205,116
India,Bihar,Muzaffarpur,"Buddha Colony, Muzaffarpur - BSPCB",24-02-2026 08:00:00,26.11442,85.39813,CO,16,75,31
India,Bihar,Muzaffarpur,"Buddha Colony, Muzaffarpur - BSPCB",24-02-2026 08:00:00,26.11442,85.39813,OZONE,37,76,52
India,Bihar,Muzaffarpur,"MIT-Daudpur Kothi, Muzaffarpur - BSPCB",24-02-2026 08:00:00,26.1403345,85.3650192,NO2,2,4,2
India,Chhattisgarh,Bilaspur,"Mangala, Bilaspur - NTPC",24-02-2026 08:00:00,22.08815,82.13737,NO2,22,79,32
India,Chhattisgarh,Chhal,"Nawapara SECL Colony, Chhal - CECB",24-02-2026 08:00:00,22.118125,83.140608,CO,18,42,31
India,Chhattisgarh,Chhal,"Nawapara SECL Colony, Chhal - CECB",24-02-2026 08:00:00,22.118125,83.140608,OZONE,110,110,110
India,Chhattisgarh,Korba,"Rampur, Korba - CECB",24-02-2026 08:00:00,22.368195,82.746431,PM2.5,NA,NA,NA
India,Chhattisgarh,Korba,"Rampur, Korba - CECB",24-02-2026 08:00:00,22.368195,82.746431,NH3,1,1,1
India,Bihar,Patna,"Samanpura, Patna - BSPCB",24-02-2026 08:00:00,25.596727,85.085624,OZONE,7,118,10
India,Bihar,Rajgir,"Dangi Tola, Rajgir - BSPCB",24-02-2026 08:00:00,25.03280,85.41948,PM10,25,84,52
India,Bihar,Saharsa,"Police Line, Saharsa - BSPCB",24-02-2026 08:00:00,25.892357,86.590325,SO2,17,20,18
India,Bihar,Samastipur,"DM Office_Kasipur, Samastipur - BSPCB",24-02-2026 08:00:00,25.859655,85.77944,NH3,NA,NA,NA
India,Bihar,Muzaffarpur,"Muzaffarpur Collectorate, Muzaffarpur - BSPCB",24-02-2026 08:00:00,26.1209,85.3647,CO,28,78,36
India,Bihar,Patna,"DRM Office Danapur, Patna - BSPCB",24-02-2026 08:00:00,25.586562,85.043586,NH3,10,12,11
India,Bihar,Patna,"DRM Office Danapur, Patna - BSPCB",24-02-2026 08:00:00,25.586562,85.043586,OZONE,8,50,8
India,Bihar,Patna,"Govt. High School Shikarpur, Patna - BSPCB",24-02-2026 08:00:00,25.592539,85.227158,PM10,56,245,131
India,Chhattisgarh,Bhilai,"32Bungalows, Bhilai - CECB",24-02-2026 08:00:00,21.194815,81.314770,OZONE,2,20,2
India,Chhattisgarh,Bhilai,"Civic Center, Bhilai - Bhilai Steel Plant",24-02-2026 08:00:00,21.185571,81.343175,PM10,NA,NA,NA
India,Chhattisgarh,Bhilai,"Civic Center, Bhilai - Bhilai Steel Plant",24-02-2026 08:00:00,21.185571,81.343175,NO2,NA,NA,NA
India,Chhattisgarh,Bhilai,"Civic Center, Bhilai - Bhilai Steel Plant",24-02-2026 08:00:00,21.185571,81.343175,SO2,NA,NA,NA
India,Bihar,Patna,"Rajbansi Nagar, Patna - BSPCB",24-02-2026 08:00:00,25.599486,85.113666,NH3,2,5,4
India,Bihar,Patna,"Rajbansi Nagar, Patna - BSPCB",24-02-2026 08:00:00,25.599486,85.113666,CO,10,105,38
India,Bihar,Patna,"Rajbansi Nagar, Patna - BSPCB",24-02-2026 08:00:00,25.599486,85.113666,OZONE,1,31,3
India,Chandigarh,Chandigarh,"Sector-53, Chandigarh - CPCC",24-02-2026 08:00:00,30.719859,76.738637,PM2.5,NA,NA,NA
India,Chandigarh,Chandigarh,"Sector-53, Chandigarh - CPCC",24-02-2026 08:00:00,30.719859,76.738637,NH3,NA,NA,NA
India,Chhattisgarh,Kunjemura,"OP Jindal School, Kunjemura - CECB",24-02-2026 08:00:00,22.126650,83.483212,PM10,107,213,152
India,Bihar,Patna,"Muradpur, Patna - BSPCB",24-02-2026 08:00:00,25.619651,85.147382,PM2.5,62,169,101
India,Chhattisgarh,Kunjemura,"OP Jindal School, Kunjemura - CECB",24-02-2026 08:00:00,22.126650,83.483212,SO2,1,92,29
India,Chhattisgarh,Milupara,"Govt. Higher Secondary School, Milupara - CECB",24-02-2026 08:00:00,22.1910172,83.5197009,PM10,43,313,97
India,Chhattisgarh,Milupara,"Govt. Higher Secondary School, Milupara - CECB",24-02-2026 08:00:00,22.1910172,83.5197009,NO2,20,68,37
India,Chhattisgarh,Milupara,"Govt. Higher Secondary School, Milupara - CECB",24-02-2026 08:00:00,22.1910172,83.5197009,CO,18,34,25
India,Chhattisgarh,Raipur,"AIIMS, Raipur - CECB",24-02-2026 08:00:00,21.258815,81.578979,PM2.5,24,73,42
India,Chhattisgarh,Raipur,"AIIMS, Raipur - CECB",24-02-2026 08:00:00,21.258815,81.578979,NH3,4,4,4
India,Chhattisgarh,Raipur,"Bhatagaon New ISBT, Raipur - CECB",24-02-2026 08:00:00,21.219665,81.630094,PM10,29,95,54
India,Chhattisgarh,Raipur,"Bhatagaon New ISBT, Raipur - CECB",24-02-2026 08:00:00,21.219665,81.630094,NH3,2,2,2
India,Chhattisgarh,Raipur,"Krishak Nagar, Raipur - CECB",24-02-2026 08:00:00,21.237755,81.705301,PM2.5,37,71,47
India,Chhattisgarh,Raipur,"Siltara Phase-II, Raipur - CECB",24-02-2026 08:00:00,21.371751,81.664929,PM10,64,147,91
India,Delhi,Delhi,"IHBAS, Dilshad Garden, Delhi - CPCB",24-02-2026 08:00:00,28.6811736,77.3025234,NO2,26,124,55
India,Delhi,Delhi,"IHBAS, Dilshad Garden, Delhi - CPCB",24-02-2026 08:00:00,28.6811736,77.3025234,OZONE,22,39,25
India,Delhi,Delhi,"IIT Delhi, Delhi - IITM",24-02-2026 08:00:00,28.542460,77.191651,PM2.5,69,253,158
India,Delhi,Delhi,"ITO, Delhi - CPCB",24-02-2026 08:00:00,28.628624,77.241060,PM10,77,170,124
India,Delhi,Delhi,"ITO, Delhi - CPCB",24-02-2026 08:00:00,28.628624,77.241060,SO2,5,36,16
India,Delhi,Delhi,"ITO, Delhi - CPCB",24-02-2026 08:00:00,28.628624,77.241060,OZONE,19,64,19
India,Delhi,Delhi,"Jahangirpuri, Delhi - DPCC",24-02-2026 08:00:00,28.732820,77.170633,PM10,116,429,258
India,Delhi,Delhi,"Aya Nagar, Delhi - IMD",24-02-2026 08:00:00,28.4706914,77.1099364,OZONE,5,105,7
India,Delhi,Delhi,"Burari Crossing, Delhi - IMD",24-02-2026 08:00:00,28.7256504,77.2011573,CO,4,106,75
India,Delhi,Delhi,"CRRI Mathura Road, Delhi - IMD",24-02-2026 08:00:00,28.5512005,77.2735737,NO2,NA,NA,NA
India,Delhi,Delhi,"Chandni Chowk, Delhi - IITM",24-02-2026 08:00:00,28.656756,77.227234,CO,86,157,116
India,Delhi,Delhi,"DTU, Delhi - CPCB",24-02-2026 08:00:00,28.7500499,77.1112615,PM2.5,55,366,221
India,Delhi,Delhi,"Lodhi Road, Delhi - IMD",24-02-2026 08:00:00,28.5918245,77.2273074,OZONE,2,151,7
India,Delhi,Delhi,"Major Dhyan Chand National Stadium, Delhi - DPCC",24-02-2026 08:00:00,28.611281,77.237738,NH3,14,18,16
India,Delhi,Delhi,"Major Dhyan Chand National Stadium, Delhi - DPCC",24-02-2026 08:00:00,28.611281,77.237738,SO2,18,30,23
India,Delhi,Delhi,"Mandir Marg, Delhi - DPCC",24-02-2026 08:00:00,28.636429,77.201067,NO2,31,102,60
India,Delhi,Delhi,"Dr. Karni Singh Shooting Range, Delhi - DPCC",24-02-2026 08:00:00,28.498571,77.264840,NO2,2,103,51
India,Delhi,Delhi,"Dr. Karni Singh Shooting Range, Delhi - DPCC",24-02-2026 08:00:00,28.498571,77.264840,NH3,6,9,8
India,Delhi,Delhi,"Dr. Karni Singh Shooting Range, Delhi - DPCC",24-02-2026 08:00:00,28.498571,77.264840,CO,9,112,87
India,Delhi,Delhi,"Dwarka-Sector 8, Delhi - DPCC ",24-02-2026 08:00:00,28.5710274,77.0719006,NH3,18,28,22
India,Chhattisgarh,Tumidih,"OP Jindal Industrial Park, Tumidih - CECB",24-02-2026 08:00:00,22.06631475,83.33820077,PM10,76,198,117
India,Delhi,Delhi,"Alipur, Delhi - DPCC",24-02-2026 08:00:00,28.815329,77.153010,CO,26,72,66
India,Delhi,Delhi,"Alipur, Delhi - DPCC",24-02-2026 08:00:00,28.815329,77.153010,OZONE,3,58,4
India,Delhi,Delhi,"Anand Vihar, Delhi - DPCC",24-02-2026 08:00:00,28.647622,77.3158090,CO,72,130,123
India,Delhi,Delhi,"Ashok Vihar, Delhi - DPCC",24-02-2026 08:00:00,28.695381,77.181665,NO2,21,144,80
India,Delhi,Delhi,"Jawaharlal Nehru Stadium, Delhi - DPCC",24-02-2026 08:00:00,28.580280,77.233829,PM2.5,58,327,202
India,Chhattisgarh,Kunjemura,"OP Jindal School, Kunjemura - CECB",24-02-2026 08:00:00,22.126650,83.483212,NH3,2,2,2
India,Delhi,Delhi,"Sirifort, Delhi - CPCB",24-02-2026 08:00:00,28.5504249,77.2159377,NH3,5,13,10
India,Delhi,Delhi,"Sirifort, Delhi - CPCB",24-02-2026 08:00:00,28.5504249,77.2159377,SO2,30,38,34
India,Delhi,Delhi,"Sonia Vihar, Delhi - DPCC",24-02-2026 08:00:00,28.710508,77.249485,NO2,17,126,44
India,Delhi,Delhi,"Sonia Vihar, Delhi - DPCC",24-02-2026 08:00:00,28.710508,77.249485,NH3,5,7,6
India,Delhi,Delhi,"Sonia Vihar, Delhi - DPCC",24-02-2026 08:00:00,28.710508,77.249485,CO,48,143,108
India,Delhi,Delhi,"Sri Aurobindo Marg, Delhi - DPCC",24-02-2026 08:00:00,28.531346,77.190156,SO2,6,14,10
India,Delhi,Delhi,"Wazirpur, Delhi - DPCC",24-02-2026 08:00:00,28.699793,77.165453,PM10,149,495,310
India,Delhi,Delhi,"Najafgarh, Delhi - DPCC",24-02-2026 08:00:00,28.570173,76.933762,OZONE,4,152,5
India,Delhi,Delhi,"Narela, Delhi - DPCC",24-02-2026 08:00:00,28.822836,77.101981,PM2.5,65,359,232
India,Delhi,Delhi,"Narela, Delhi - DPCC",24-02-2026 08:00:00,28.822836,77.101981,PM10,106,411,226
India,Delhi,Delhi,"Nehru Nagar, Delhi - DPCC",24-02-2026 08:00:00,28.567890,77.250515,PM10,108,402,224
India,Delhi,Delhi,"Okhla Phase-2, Delhi - DPCC",24-02-2026 08:00:00,28.530785,77.271255,PM10,112,407,233
India,Delhi,Delhi,"Wazirpur, Delhi - DPCC",24-02-2026 08:00:00,28.699793,77.165453,NH3,8,12,9
India,Gujarat,Ahmedabad,"Maninagar, Ahmedabad - GPCB",24-02-2026 08:00:00,23.002657,72.591912,SO2,19,45,33
India,Gujarat,Ahmedabad,"Maninagar, Ahmedabad - GPCB",24-02-2026 08:00:00,23.002657,72.591912,CO,4,38,15
India,Gujarat,Ahmedabad,"Maninagar, Ahmedabad - GPCB",24-02-2026 08:00:00,23.002657,72.591912,OZONE,36,100,38
India,Delhi,Delhi,"NSIT Dwarka, Delhi - CPCB",24-02-2026 08:00:00,28.60909,77.0325413,NO2,94,116,97
India,Delhi,Delhi,"NSIT Dwarka, Delhi - CPCB",24-02-2026 08:00:00,28.60909,77.0325413,CO,36,69,42
India,Delhi,Delhi,"Najafgarh, Delhi - DPCC",24-02-2026 08:00:00,28.570173,76.933762,PM2.5,52,333,183
India,Delhi,Delhi,"Rohini, Delhi - DPCC",24-02-2026 08:00:00,28.732528,77.119920,NH3,8,16,12
India,Delhi,Delhi,"Rohini, Delhi - DPCC",24-02-2026 08:00:00,28.732528,77.119920,SO2,7,32,14
India,Delhi,Delhi,"Shadipur, Delhi - CPCB",24-02-2026 08:00:00,28.6514781,77.1473105,PM2.5,85,395,261
India,Delhi,Delhi,"Patparganj, Delhi - DPCC",24-02-2026 08:00:00,28.623763,77.287209,PM2.5,68,354,226
India,Delhi,Delhi,"Pusa, Delhi - DPCC",24-02-2026 08:00:00,28.639652,77.146275,PM2.5,73,348,202
India,Gujarat,Ahmedabad,"Rakhial, Ahmedabad - IITM",24-02-2026 08:00:00,23.016834,72.625775,OZONE,1,92,2
India,Delhi,Delhi,"Sirifort, Delhi - CPCB",24-02-2026 08:00:00,28.5504249,77.2159377,PM10,116,418,226
India,Delhi,Delhi,"Okhla Phase-2, Delhi - DPCC",24-02-2026 08:00:00,28.530785,77.271255,SO2,3,31,11
India,Haryana,Ambala,"Patti Mehar, Ambala - HSPCB",24-02-2026 08:00:00,30.379589,76.778328,SO2,12,12,12
India,Haryana,Ambala,"Patti Mehar, Ambala - HSPCB",24-02-2026 08:00:00,30.379589,76.778328,OZONE,18,24,20
India,Haryana,Bahadurgarh,"Arya Nagar, Bahadurgarh - HSPCB",24-02-2026 08:00:00,28.6701,76.9254,OZONE,16,20,18
India,Haryana,Ballabgarh,"Nathu Colony, Ballabgarh - HSPCB",24-02-2026 08:00:00,28.3419248,77.319699,NH3,3,3,3
India,Haryana,Ballabgarh,"Nathu Colony, Ballabgarh - HSPCB",24-02-2026 08:00:00,28.3419248,77.319699,CO,15,87,51
India,Gujarat,Nandesari,"GIDC, Nandesari - Nandesari Ind. Association",24-02-2026 08:00:00,22.410802,73.097923,SO2,3,20,4
India,Gujarat,Surat,"Katargam, Surat - Nexteng Enviro",24-02-2026 08:00:00,21.217779 ,72.834787 ,PM2.5,47,322,153
India,Gujarat,Surat,"Katargam, Surat - Nexteng Enviro",24-02-2026 08:00:00,21.217779 ,72.834787 ,NO2,18,62,38
India,Gujarat,Vadodara,"Bapunagar, Vadodara - Nexteng Enviro",24-02-2026 08:00:00,22.320153,73.216285,CO,70,109,89
India,Gujarat,Ahmedabad,"SAC ISRO Satellite, Ahmedabad - IITM",24-02-2026 08:00:00,23.023389,72.515201,OZONE,1,68,2
India,Gujarat,Ahmedabad,"SVPI Airport Hansol, Ahmedabad - IITM",24-02-2026 08:00:00,23.076793,72.627874,PM2.5,47,160,94
India,Gujarat,Ahmedabad,"SVPI Airport Hansol, Ahmedabad - IITM",24-02-2026 08:00:00,23.076793,72.627874,CO,6,109,52
India,Gujarat,Ankleshwar,"GIDC, Ankleshwar - GPCB",24-02-2026 08:00:00,21.613267,73.010555,NO2,14,20,16
India,Gujarat,Mehsana,"Sadanand Nagar, Mehsana - Nexteng Enviro",24-02-2026 08:00:00,23.593150,72.372792,NH3,1,3,2
India,Gujarat,Mehsana,"Sadanand Nagar, Mehsana - Nexteng Enviro",24-02-2026 08:00:00,23.593150,72.372792,SO2,6,16,10
India,Gujarat,Mehsana,"Sadanand Nagar, Mehsana - Nexteng Enviro",24-02-2026 08:00:00,23.593150,72.372792,OZONE,9,23,10
India,Gujarat,Nandesari,"GIDC, Nandesari - Nandesari Ind. Association",24-02-2026 08:00:00,22.410802,73.097923,PM10,91,347,155
India,Haryana,Dharuhera,"Municipal Corporation Office, Dharuhera -  HSPCB",24-02-2026 08:00:00,28.206800,76.799700,NH3,10,29,21
India,Haryana,Faridabad,"Sector 30, Faridabad - HSPCB",24-02-2026 08:00:00,28.4417,77.3217,NO2,36,39,37
India,Haryana,Faridabad,"Sector 30, Faridabad - HSPCB",24-02-2026 08:00:00,28.4417,77.3217,NH3,10,12,11
India,Haryana,Fatehabad,"Huda Sector, Fatehabad - HSPCB",24-02-2026 08:00:00,29.503664,75.467934,SO2,10,11,11
India,Gujarat,Bhavnagar,"Vidhyanagar, Bhavnagar - Nexteng Enviro",24-02-2026 08:00:00,21.755417,72.139056,PM10,75,268,128
India,Gujarat,Gandhinagar,"GIFT City, Gandhinagar - IITM",24-02-2026 08:00:00,23.163798,72.677768,NO2,17,87,49
India,Gujarat,Gandhinagar,"IIPHG Lekawada, Gandhinagar - IITM",24-02-2026 08:00:00,23.243639,72.68994,PM2.5,56,217,130
India,Haryana,Bhiwani,"H.B. Colony, Bhiwani - HSPCB",24-02-2026 08:00:00,28.806223,76.141105,OZONE,9,20,16
India,Haryana,Dharuhera,"Municipal Corporation Office, Dharuhera -  HSPCB",24-02-2026 08:00:00,28.206800,76.799700,PM2.5,123,356,269
India,Gujarat,Ahmedabad,"SAC ISRO Bopal, Ahmedabad - IITM",24-02-2026 08:00:00,23.041137,72.456691,OZONE,1,121,4
India,Gujarat,Ahmedabad,"SAC ISRO Satellite, Ahmedabad - IITM",24-02-2026 08:00:00,23.023389,72.515201,PM2.5,68,197,124
India,Gujarat,Gandhinagar,"Sector-10, Gandhinagar - GPCB",24-02-2026 08:00:00,23.221714,72.654328,PM10,91,229,156
India,Himachal Pradesh,Baddi,"HIMUDA Complex Phase-1, Baddi - HPPCB",24-02-2026 08:00:00,30.943887,76.801991,NO2,10,84,30
India,Jammu_and_Kashmir,Pampore,"Khrew, Pampore - JKPCC",24-02-2026 08:00:00,34.031606,75.009712,PM10,3,106,44
India,Jharkhand,Dhanbad,"Sardar Patel Nagar, Dhanbad - JSPCB",24-02-2026 08:00:00,23.80569,86.44268,NO2,55,60,57
India,Karnataka,Bagalkot,"Vidayagiri, Bagalkot - KSPCB",24-02-2026 08:00:00,16.172806,75.659694,PM2.5,NA,NA,NA
India,Karnataka,Bagalkot,"Vidayagiri, Bagalkot - KSPCB",24-02-2026 08:00:00,16.172806,75.659694,SO2,NA,NA,NA
India,Karnataka,Bagalkot,"Vidayagiri, Bagalkot - KSPCB",24-02-2026 08:00:00,16.172806,75.659694,OZONE,NA,NA,NA
India,Karnataka,Bengaluru,"BTM Layout, Bengaluru - CPCB",24-02-2026 08:00:00,12.9135218,77.5950804,SO2,21,21,21
India,Karnataka,Bengaluru,"BTM Layout, Bengaluru - CPCB",24-02-2026 08:00:00,12.9135218,77.5950804,OZONE,20,21,21
India,Haryana,Kaithal,"Rishi Nagar, Kaithal - HSPCB",24-02-2026 08:00:00,29.8006,76.4155,SO2,17,21,19
India,Haryana,Kaithal,"Rishi Nagar, Kaithal - HSPCB",24-02-2026 08:00:00,29.8006,76.4155,CO,13,69,40
India,Haryana,Karnal,"Sector-12, Karnal - HSPCB",24-02-2026 08:00:00,29.695300,77.002700,CO,1,6,1
India,Haryana,Kurukshetra,"Sector-7, Kurukshetra - HSPCB",24-02-2026 08:00:00,29.966942,76.875879,SO2,1,15,4
India,Haryana,Mandikhera,"General Hospital, Mandikhera(Nuh) - HSPCB",24-02-2026 08:00:00,27.9002,76.9938,NO2,19,23,21
India,Haryana,Mandikhera,"General Hospital, Mandikhera(Nuh) - HSPCB",24-02-2026 08:00:00,27.9002,76.9938,SO2,32,37,34
India,Haryana,Manesar,"Sector-2 IMT, Manesar - HSPCB",24-02-2026 08:00:00,28.360699,76.936090,OZONE,4,23,6
India,Haryana,Narnaul,"Shastri Nagar, Narnaul - HSPCB",24-02-2026 08:00:00,28.060249,76.113115,PM10,57,174,107
India,Haryana,Hisar,"Urban Estate-II, Hisar - HSPCB",24-02-2026 08:00:00,29.140560,75.744941,SO2,7,15,11
India,Haryana,Hisar,"Urban Estate-II, Hisar - HSPCB",24-02-2026 08:00:00,29.140560,75.744941,CO,28,64,40
India,Haryana,Hisar,"Urban Estate-II, Hisar - HSPCB",24-02-2026 08:00:00,29.140560,75.744941,OZONE,12,140,13
India,Haryana,Jind,"Police Lines, Jind - HSPCB",24-02-2026 08:00:00,29.307814,76.337619,PM2.5,88,238,152
India,Haryana,Jind,"Police Lines, Jind - HSPCB",24-02-2026 08:00:00,29.307814,76.337619,SO2,2,12,5
India,Haryana,Jind,"Police Lines, Jind - HSPCB",24-02-2026 08:00:00,29.307814,76.337619,CO,1,40,13
India,Haryana,Kaithal,"Rishi Nagar, Kaithal - HSPCB",24-02-2026 08:00:00,29.8006,76.4155,PM10,77,152,105
India,Haryana,Narnaul,"Shastri Nagar, Narnaul - HSPCB",24-02-2026 08:00:00,28.060249,76.113115,NH3,9,17,13
India,Haryana,Palwal,"Shyam Nagar, Palwal - HSPCB",24-02-2026 08:00:00,28.1485564,77.3320667,NH3,8,9,9
India,Haryana,Palwal,"Shyam Nagar, Palwal - HSPCB",24-02-2026 08:00:00,28.1485564,77.3320667,SO2,10,13,11
India,Haryana,Panchkula,"Sector-6, Panchkula - HSPCB ",24-02-2026 08:00:00,30.7057778,76.8531805555555,NO2,22,26,25
India,Haryana,Panchkula,"Sector-6, Panchkula - HSPCB ",24-02-2026 08:00:00,30.7057778,76.8531805555555,SO2,14,15,15
India,Haryana,Rohtak,"MD University, Rohtak - HSPCB",24-02-2026 08:00:00,28.52123,76.37138,NO2,10,12,11
India,Haryana,Sirsa,"F-Block, Sirsa - HSPCB",24-02-2026 08:00:00,29.536400,75.015800,NH3,2,15,13
India,Haryana,Sonipat,"Murthal, Sonipat - HSPCB",24-02-2026 08:00:00,29.027200,77.062100,PM10,53,113,85
India,Haryana,Sonipat,"Murthal, Sonipat - HSPCB",24-02-2026 08:00:00,29.027200,77.062100,NH3,11,11,11
India,Haryana,Yamuna Nagar,"Gobind Pura, Yamuna Nagar - HSPCB",24-02-2026 08:00:00,30.1480566,77.2893471,PM10,139,224,162
India,Haryana,Yamuna Nagar,"Gobind Pura, Yamuna Nagar - HSPCB",24-02-2026 08:00:00,30.1480566,77.2893471,NO2,10,39,35
India,Haryana,Yamuna Nagar,"Gobind Pura, Yamuna Nagar - HSPCB",24-02-2026 08:00:00,30.1480566,77.2893471,SO2,10,15,12
India,Karnataka,Bengaluru,"City Railway Station, Bengaluru - KSPCB",24-02-2026 08:00:00,12.9756843,77.5660749,NO2,NA,NA,NA
India,Karnataka,Bengaluru,"City Railway Station, Bengaluru - KSPCB",24-02-2026 08:00:00,12.9756843,77.5660749,CO,NA,NA,NA
India,Karnataka,Bengaluru,"Hebbal, Bengaluru - KSPCB",24-02-2026 08:00:00,13.029152,77.585901,SO2,10,18,14
India,Karnataka,Bengaluru,"Hombegowda Nagar, Bengaluru - KSPCB",24-02-2026 08:00:00,12.938539,77.590100,CO,5,51,15
India,Haryana,Gurugram,"Sector-51, Gurugram - HSPCB",24-02-2026 08:00:00,28.4227,77.0667,SO2,3,11,7
India,Haryana,Gurugram,"Teri Gram, Gurugram - HSPCB",24-02-2026 08:00:00,28.4275,77.1465,PM2.5,NA,NA,NA
India,Haryana,Gurugram,"Teri Gram, Gurugram - HSPCB",24-02-2026 08:00:00,28.4275,77.1465,OZONE,10,37,11
India,Haryana,Gurugram,"Vikas Sadan, Gurugram - HSPCB",24-02-2026 08:00:00,28.4501238,77.0263051,OZONE,4,25,11
India,Karnataka,Bengaluru,"Bapuji Nagar, Bengaluru - KSPCB",24-02-2026 08:00:00,12.951913,77.539784,NO2,11,137,82
India,Karnataka,Bengaluru,"Jigani, Bengaluru - KSPCB",24-02-2026 08:00:00,12.7816279,77.6299145,PM2.5,37,69,57
India,Karnataka,Dharwad,"Kalabhavan, Dharwad - KSPCB",24-02-2026 08:00:00,15.459706,75.008381,CO,57,94,66
India,Karnataka,Hubballi,"Lingaraj Nagar, Hubballi - KSPCB",24-02-2026 08:00:00,15.3714823,75.1160168,PM10,58,62,59
India,Karnataka,Hubballi,"Lingaraj Nagar, Hubballi - KSPCB",24-02-2026 08:00:00,15.3714823,75.1160168,NO2,11,11,11
India,Karnataka,Hubballi,"Lingaraj Nagar, Hubballi - KSPCB",24-02-2026 08:00:00,15.3714823,75.1160168,CO,6,29,22
India,Karnataka,Hubballi,"Lingaraj Nagar, Hubballi - KSPCB",24-02-2026 08:00:00,15.3714823,75.1160168,OZONE,19,20,20
India,Karnataka,Kalaburagi,"Mahatma Basaveswar Colony, Kalaburgi - KSPCB",24-02-2026 08:00:00,17.336318,76.847397,PM2.5,NA,NA,NA
India,Karnataka,Kalaburagi,"Mahatma Basaveswar Colony, Kalaburgi - KSPCB",24-02-2026 08:00:00,17.336318,76.847397,PM10,NA,NA,NA
India,Karnataka,Kalaburagi,"Mahatma Basaveswar Colony, Kalaburgi - KSPCB",24-02-2026 08:00:00,17.336318,76.847397,CO,41,56,44
India,Karnataka,Madikeri,"Stuart Hill, Madikeri - KSPCB",24-02-2026 08:00:00,12.415911,75.735050,OZONE,2,7,3
India,Karnataka,Mysuru,"Hebbal 1st Stage, Mysuru - KSPCB",24-02-2026 08:00:00,12.21041,76.37376,NO2,13,28,20
India,Karnataka,Mysuru,"Hebbal 1st Stage, Mysuru - KSPCB",24-02-2026 08:00:00,12.21041,76.37376,OZONE,18,103,20
India,Karnataka,Shivamogga,"Vinoba Nagara, Shivamogga - KSPCB",24-02-2026 08:00:00,13.940000,75.555917,PM2.5,NA,NA,NA
India,Karnataka,Yadgir,"Collector Office, Yadgir - KSPCB",24-02-2026 08:00:00,16.7602,77.1428,NH3,2,2,2
India,Karnataka,Yadgir,"Collector Office, Yadgir - KSPCB",24-02-2026 08:00:00,16.7602,77.1428,SO2,8,16,13
India,Kerala,Eloor,"Udyogamandal, Eloor - Kerala PCB",24-02-2026 08:00:00,10.073232,76.302765,PM2.5,59,157,96
India,Karnataka,Bengaluru,"Peenya, Bengaluru - CPCB",24-02-2026 08:00:00,13.0270199,77.494094,PM2.5,18,56,32
India,Karnataka,Bengaluru,"Peenya, Bengaluru - CPCB",24-02-2026 08:00:00,13.0270199,77.494094,SO2,5,19,10
India,Karnataka,Bengaluru,"Peenya, Bengaluru - CPCB",24-02-2026 08:00:00,13.0270199,77.494094,OZONE,26,27,26
India,Karnataka,Bengaluru,"RVCE-Mailasandra, Bengaluru - KSPCB",24-02-2026 08:00:00,12.921418,77.502466,PM2.5,29,500,145
India,Karnataka,Bengaluru,"RVCE-Mailasandra, Bengaluru - KSPCB",24-02-2026 08:00:00,12.921418,77.502466,OZONE,22,25,23
India,Karnataka,Bengaluru,"Shivapura_Peenya, Bengaluru - KSPCB",24-02-2026 08:00:00,13.0246342,77.5080115,OZONE,28,30,29
India,Karnataka,Bengaluru,"Silk Board, Bengaluru - KSPCB",24-02-2026 08:00:00,12.917348,77.622813,NO2,NA,NA,NA
India,Karnataka,Chikkamagaluru,"Kalyana Nagara, Chikkamagaluru - KSPCB",24-02-2026 08:00:00,13.328028,75.797056,PM10,NA,NA,NA
