country,state,city,station,last_update,latitude,longitude,pollutant_id,min_value,max_value,avg_value
India,Andhra_Pradesh,Vijayawada,"Rajiv Gandhi Park, Vijayawada - APPCB",22-11-2025 07:00:00,16.509717,80.612222,NO2,35,65,49
India,Andhra_Pradesh,Vijayawada,"Rajiv Gandhi Park, Vijayawada - APPCB",22-11-2025 07:00:00,16.509717,80.612222,NH3,2,5,4
India,Andhra_Pradesh,Vijayawada,"Rajiv Gandhi Park, Vijayawada - APPCB",22-11-2025 07:00:00,16.509717,80.612222,SO2,12,18,15
India,Andhra_Pradesh,Vijayawada,"Rajiv Nagar, Vijayawada - APPCB",22-11-2025 07:00:00,16.554731,80.649110,CO,20,60,24
India,Andhra_Pradesh,Visakhapatnam,"GVM Corporation, Visakhapatnam - APPCB",22-11-2025 07:00:00,17.72,83.3,PM2.5,NA,NA,NA
India,Andhra_Pradesh,Visakhapatnam,"GVM Corporation, Visakhapatnam - APPCB",22-11-2025 07:00:00,17.72,83.3,PM10,NA,NA,NA
India,Andhra_Pradesh,Visakhapatnam,"GVM Corporation, Visakhapatnam - APPCB",22-11-2025 07:00:00,17.72,83.3,NO2,NA,NA,NA
India,Andhra_Pradesh,Visakhapatnam,"GVM Corporation, Visakhapatnam - APPCB",22-11-2025 07:00:00,17.72,83.3,NH3,NA,NA,NA
India,Arunachal_Pradesh,Naharlagun,"Naharlagun, Naharlagun - APSPCB",22-11-2025 07:00:00,27.103358,93.679645,PM2.5,12,348,112
India,Arunachal_Pradesh,Naharlagun,"Naharlagun, Naharlagun - APSPCB",22-11-2025 07:00:00,27.103358,93.679645,CO,6,47,11
India,Arunachal_Pradesh,Naharlagun,"Naharlagun, Naharlagun - APSPCB",22-11-2025 07:00:00,27.103358,93.679645,OZONE,5,5,5
India,Assam,Byrnihat,"Central Academy for SFS, Byrnihat - PCBA",22-11-2025 07:00:00,26.071318,91.87488,PM10,78,180,105
India,Assam,Byrnihat,"Central Academy for SFS, Byrnihat - PCBA",22-11-2025 07:00:00,26.071318,91.87488,NH3,4,4,4
India,Bihar,Hajipur,"Industrial Area, Hajipur - BSPCB",22-11-2025 07:00:00,25.697189,85.245900,PM10,53,392,155
India,Bihar,Hajipur,"Industrial Area, Hajipur - BSPCB",22-11-2025 07:00:00,25.697189,85.245900,OZONE,10,98,17
India,Bihar,Katihar,"Mirchaibari, Katihar - BSPCB",22-11-2025 07:00:00,25.560083,87.553265,NH3,1,1,1
India,Bihar,Katihar,"Mirchaibari, Katihar - BSPCB",22-11-2025 07:00:00,25.560083,87.553265,SO2,20,32,26
India,Bihar,Katihar,"Mirchaibari, Katihar - BSPCB",22-11-2025 07:00:00,25.560083,87.553265,CO,83,107,98
India,Bihar,Kishanganj,"SDM Office_Khagra, Kishanganj - BSPCB",22-11-2025 07:00:00,26.0881305,87.93840336,PM10,43,194,115
India,Bihar,Kishanganj,"SDM Office_Khagra, Kishanganj - BSPCB",22-11-2025 07:00:00,26.0881305,87.93840336,SO2,5,10,8
India,Bihar,Manguraha,"Forest Rest House, Manguraha - BSPCB",22-11-2025 07:00:00,27.308328,84.531742,NO2,4,11,6
India,Bihar,Manguraha,"Forest Rest House, Manguraha - BSPCB",22-11-2025 07:00:00,27.308328,84.531742,CO,32,56,40
India,Andhra_Pradesh,Kadapa,"Yerramukkapalli, Kadapa - APPCB",22-11-2025 07:00:00,14.465052,78.824187,CO,30,40,37
India,Andhra_Pradesh,Rajamahendravaram,"Anand Kala Kshetram, Rajamahendravaram - APPCB",22-11-2025 07:00:00,16.9872867,81.7363176,PM10,44,75,59
India,Andhra_Pradesh,Rajamahendravaram,"Anand Kala Kshetram, Rajamahendravaram - APPCB",22-11-2025 07:00:00,16.9872867,81.7363176,OZONE,5,21,7
India,Andhra_Pradesh,Tirumala,"Toll Gate, Tirumala - APPCB",22-11-2025 07:00:00,13.67,79.35,NH3,1,1,1
India,Andhra_Pradesh,Tirupati,"Vaikuntapuram, Tirupati - APPCB",22-11-2025 07:00:00,13.615387,79.409230,CO,18,33,22
India,Andhra_Pradesh,Vijayawada,"HB Colony, Vijayawada - APPCB",22-11-2025 07:00:00,16.536107,80.594233,PM2.5,50,231,76
India,Andhra_Pradesh,Vijayawada,"HB Colony, Vijayawada - APPCB",22-11-2025 07:00:00,16.536107,80.594233,PM10,50,159,75
India,Bihar,Araria,"Kharahiya Basti, Araria - BSPCB",22-11-2025 07:00:00,26.146529,87.454184,PM2.5,13,206,85
India,Bihar,Araria,"Kharahiya Basti, Araria - BSPCB",22-11-2025 07:00:00,26.146529,87.454184,OZONE,10,11,10
India,Bihar,Arrah,"New DM Office, Arrah - BSPCB",22-11-2025 07:00:00,25.5626095,84.663264,NO2,5,9,7
India,Bihar,Arrah,"New DM Office, Arrah - BSPCB",22-11-2025 07:00:00,25.5626095,84.663264,NH3,1,1,1
India,Bihar,Arrah,"New DM Office, Arrah - BSPCB",22-11-2025 07:00:00,25.5626095,84.663264,SO2,10,10,10
India,Bihar,Aurangabad,"Gurdeo Nagar, Aurangabad - BSPCB",22-11-2025 07:00:00,24.75746,84.366208,PM10,59,162,110
India,Bihar,Begusarai,"Lohiyanagar, Begusarai - BSPCB",22-11-2025 07:00:00,25.42742023,86.13886079,PM10,NA,NA,NA
India,Bihar,Motihari,"Gandak Colony, Motihari - BSPCB",22-11-2025 07:00:00,26.63086,84.90051,NH3,3,3,3
India,Bihar,Munger,"Town Hall, Munger - BSPCB",22-11-2025 07:00:00,25.376776,86.471523,CO,14,37,25
India,Bihar,Muzaffarpur,"Buddha Colony, Muzaffarpur - BSPCB",22-11-2025 07:00:00,26.11442,85.39813,PM10,30,155,99
India,Bihar,Muzaffarpur,"Buddha Colony, Muzaffarpur - BSPCB",22-11-2025 07:00:00,26.11442,85.39813,NO2,25,76,40
India,Bihar,Muzaffarpur,"Buddha Colony, Muzaffarpur - BSPCB",22-11-2025 07:00:00,26.11442,85.39813,CO,2,93,59
India,Bihar,Muzaffarpur,"MIT-Daudpur Kothi, Muzaffarpur - BSPCB",22-11-2025 07:00:00,26.1403345,85.3650192,NO2,NA,NA,NA
India,Bihar,Muzaffarpur,"MIT-Daudpur Kothi, Muzaffarpur - BSPCB",22-11-2025 07:00:00,26.1403345,85.3650192,NH3,1,1,1
India,Assam,Guwahati,"IITG, Guwahati - PCBA",22-11-2025 07:00:00,26.2028636,91.70046436,PM10,41,140,78
India,Assam,Guwahati,"IITG, Guwahati - PCBA",22-11-2025 07:00:00,26.2028636,91.70046436,NO2,1,12,5
India,Assam,Guwahati,"LGBI Airport, Guwahati - PCBA",22-11-2025 07:00:00,26.10887,91.589544,NH3,6,6,6
India,Assam,Guwahati,"Pan Bazaar, Guwahati - PCBA",22-11-2025 07:00:00,26.187500,91.744194,PM2.5,21,79,56
India,Assam,Guwahati,"Pan Bazaar, Guwahati - PCBA",22-11-2025 07:00:00,26.187500,91.744194,OZONE,17,25,19
India,Assam,Guwahati,"Railway Colony, Guwahati - PCBA",22-11-2025 07:00:00,26.181742,91.78063,PM2.5,37,326,144
India,Assam,Guwahati,"Railway Colony, Guwahati - PCBA",22-11-2025 07:00:00,26.181742,91.78063,CO,22,100,78
India,Bihar,Buxar,"Charitra Van, Buxar - BSPCB",22-11-2025 07:00:00,25.567520,83.966379,OZONE,NA,NA,NA
India,Bihar,Gaya,"Collectorate, Gaya - BSPCB",22-11-2025 07:00:00,24.7955,84.9994,PM2.5,93,226,172
India,Bihar,Gaya,"Kareemganj, Gaya - BSPCB",22-11-2025 07:00:00,24.792403,84.992416,PM10,123,204,156
India,Bihar,Gaya,"Kareemganj, Gaya - BSPCB",22-11-2025 07:00:00,24.792403,84.992416,NO2,3,9,5
India,Bihar,Gaya,"SFTI Kusdihra, Gaya - BSPCB",22-11-2025 07:00:00,24.762518,84.982348,PM2.5,32,63,41
India,Bihar,Gaya,"SFTI Kusdihra, Gaya - BSPCB",22-11-2025 07:00:00,24.762518,84.982348,PM10,50,89,65
India,Andhra_Pradesh,Anantapur,"Gulzarpet, Anantapur - APPCB",22-11-2025 07:00:00,14.675886,77.593027,PM10,51,85,68
India,Andhra_Pradesh,Anantapur,"Gulzarpet, Anantapur - APPCB",22-11-2025 07:00:00,14.675886,77.593027,NH3,4,5,4
India,Andhra_Pradesh,Anantapur,"Gulzarpet, Anantapur - APPCB",22-11-2025 07:00:00,14.675886,77.593027,OZONE,16,54,20
India,Andhra_Pradesh,Kadapa,"Yerramukkapalli, Kadapa - APPCB",22-11-2025 07:00:00,14.465052,78.824187,PM2.5,42,57,50
India,Andhra_Pradesh,Kadapa,"Yerramukkapalli, Kadapa - APPCB",22-11-2025 07:00:00,14.465052,78.824187,PM10,46,73,56
India,Bihar,Bettiah,"Kamalnath Nagar, Bettiah - BSPCB",22-11-2025 07:00:00,26.80365,84.51954,CO,50,106,98
India,Bihar,Bhagalpur,"Mayaganj, Bhagalpur - BSPCB",22-11-2025 07:00:00,25.265194,87.012947,SO2,44,94,62
India,Bihar,Bihar Sharif,"D M Colony, Bihar Sharif - BSPCB",22-11-2025 07:00:00,25.204762,85.514960,PM10,45,123,85
India,Bihar,Bihar Sharif,"D M Colony, Bihar Sharif - BSPCB",22-11-2025 07:00:00,25.204762,85.514960,OZONE,11,36,27
India,Assam,Silchar,"Tarapur, Silchar - PCBA",22-11-2025 07:00:00,24.82827,92.79525,CO,29,75,47
India,Assam,Silchar,"Tarapur, Silchar - PCBA",22-11-2025 07:00:00,24.82827,92.79525,OZONE,1,6,2
India,Delhi,Delhi,"Burari Crossing, Delhi - IMD",22-11-2025 07:00:00,28.7256504,77.2011573,PM10,149,443,322
India,Delhi,Delhi,"CRRI Mathura Road, Delhi - IMD",22-11-2025 07:00:00,28.5512005,77.2735737,PM10,167,443,354
India,Delhi,Delhi,"CRRI Mathura Road, Delhi - IMD",22-11-2025 07:00:00,28.5512005,77.2735737,CO,9,143,137
India,Delhi,Delhi,"CRRI Mathura Road, Delhi - IMD",22-11-2025 07:00:00,28.5512005,77.2735737,OZONE,11,117,15
India,Delhi,Delhi,"Chandni Chowk, Delhi - IITM",22-11-2025 07:00:00,28.656756,77.227234,NO2,33,306,134
India,Delhi,Delhi,"Chandni Chowk, Delhi - IITM",22-11-2025 07:00:00,28.656756,77.227234,SO2,1,15,8
India,Delhi,Delhi,"Chandni Chowk, Delhi - IITM",22-11-2025 07:00:00,28.656756,77.227234,CO,61,153,142
India,Delhi,Delhi,"DTU, Delhi - CPCB",22-11-2025 07:00:00,28.7500499,77.1112615,SO2,37,44,42
India,Delhi,Delhi,"Dr. Karni Singh Shooting Range, Delhi - DPCC",22-11-2025 07:00:00,28.498571,77.264840,PM2.5,277,447,348
India,Delhi,Delhi,"Dr. Karni Singh Shooting Range, Delhi - DPCC",22-11-2025 07:00:00,28.498571,77.264840,NO2,53,120,83
India,Chhattisgarh,Raipur,"Bhatagaon New ISBT, Raipur - CECB",22-11-2025 07:00:00,21.219665,81.630094,SO2,6,21,11
India,Chhattisgarh,Raipur,"Krishak Nagar, Raipur - CECB",22-11-2025 07:00:00,21.237755,81.705301,NO2,15,29,20
India,Chhattisgarh,Raipur,"Siltara Phase-II, Raipur - CECB",22-11-2025 07:00:00,21.371751,81.664929,PM2.5,19,118,38
India,Chhattisgarh,Raipur,"Siltara Phase-II, Raipur - CECB",22-11-2025 07:00:00,21.371751,81.664929,NO2,NA,NA,NA
India,Chhattisgarh,Tumidih,"OP Jindal Industrial Park, Tumidih - CECB",22-11-2025 07:00:00,22.06631475,83.33820077,NH3,1,2,1
India,Chhattisgarh,Tumidih,"OP Jindal Industrial Park, Tumidih - CECB",22-11-2025 07:00:00,22.06631475,83.33820077,CO,24,61,40
India,Delhi,Delhi,"Alipur, Delhi - DPCC",22-11-2025 07:00:00,28.815329,77.153010,SO2,6,11,8
India,Delhi,Delhi,"Alipur, Delhi - DPCC",22-11-2025 07:00:00,28.815329,77.153010,OZONE,7,91,8
India,Delhi,Delhi,"Anand Vihar, Delhi - DPCC",22-11-2025 07:00:00,28.647622,77.3158090,NH3,18,24,21
India,Delhi,Delhi,"Ashok Vihar, Delhi - DPCC",22-11-2025 07:00:00,28.695381,77.181665,NO2,31,327,119
India,Delhi,Delhi,"Bawana, Delhi - DPCC",22-11-2025 07:00:00,28.776200,77.051074,SO2,6,23,12
India,Delhi,Delhi,"Burari Crossing, Delhi - IMD",22-11-2025 07:00:00,28.7256504,77.2011573,PM2.5,263,485,377
India,Bihar,Saharsa,"Police Line, Saharsa - BSPCB",22-11-2025 07:00:00,25.892357,86.590325,CO,34,40,37
India,Bihar,Siwan,"Chitragupta Nagar, Siwan - BSPCB",22-11-2025 07:00:00,26.2271665,84.3570427,PM2.5,20,120,62
India,Bihar,Siwan,"Chitragupta Nagar, Siwan - BSPCB",22-11-2025 07:00:00,26.2271665,84.3570427,NH3,1,1,1
India,Chandigarh,Chandigarh,"Sector 22, Chandigarh - CPCC",22-11-2025 07:00:00,30.735567,76.775714,PM2.5,70,308,182
India,Chhattisgarh,Korba,"Rampur, Korba - CECB",22-11-2025 07:00:00,22.368195,82.746431,OZONE,2,21,2
India,Chhattisgarh,Korba,"Urja Nagar, Korba - CECB",22-11-2025 07:00:00,22.348441,82.549611,PM10,72,73,73
India,Chhattisgarh,Kunjemura,"OP Jindal School, Kunjemura - CECB",22-11-2025 07:00:00,22.126650,83.483212,SO2,2,15,8
India,Chhattisgarh,Raipur,"AIIMS, Raipur - CECB",22-11-2025 07:00:00,21.258815,81.578979,OZONE,3,4,3
India,Chandigarh,Chandigarh,"Sector-25, Chandigarh - CPCC",22-11-2025 07:00:00,30.751462,76.762879,OZONE,1,87,1
India,Chandigarh,Chandigarh,"Sector-53, Chandigarh - CPCC",22-11-2025 07:00:00,30.719859,76.738637,PM2.5,62,263,144
India,Chhattisgarh,Bhilai,"32Bungalows, Bhilai - CECB",22-11-2025 07:00:00,21.194815,81.314770,NH3,1,5,3
India,Bihar,Patna,"DRM Office Danapur, Patna - BSPCB",22-11-2025 07:00:00,25.586562,85.043586,NO2,30,103,56
India,Bihar,Patna,"DRM Office Danapur, Patna - BSPCB",22-11-2025 07:00:00,25.586562,85.043586,SO2,8,12,9
India,Bihar,Patna,"Govt. High School Shikarpur, Patna - BSPCB",22-11-2025 07:00:00,25.592539,85.227158,SO2,5,12,10
India,Bihar,Purnia,"Mariam Nagar, Purnia - BSPCB",22-11-2025 07:00:00,25.366336,87.117468,OZONE,20,40,21
India,Bihar,Rajgir,"Dangi Tola, Rajgir - BSPCB",22-11-2025 07:00:00,25.03280,85.41948,PM10,65,133,98
India,Chhattisgarh,Chhal,"Nawapara SECL Colony, Chhal - CECB",22-11-2025 07:00:00,22.118125,83.140608,PM10,35,191,78
India,Delhi,Delhi,"Sri Aurobindo Marg, Delhi - DPCC",22-11-2025 07:00:00,28.531346,77.190156,PM10,129,252,172
India,Delhi,Delhi,"Vivek Vihar, Delhi - DPCC",22-11-2025 07:00:00,28.672342,77.315260,PM2.5,320,500,423
India,Delhi,Delhi,"Vivek Vihar, Delhi - DPCC",22-11-2025 07:00:00,28.672342,77.315260,OZONE,4,19,5
India,Delhi,Delhi,"Wazirpur, Delhi - DPCC",22-11-2025 07:00:00,28.699793,77.165453,PM10,221,500,423
India,Delhi,Delhi,"Wazirpur, Delhi - DPCC",22-11-2025 07:00:00,28.699793,77.165453,NO2,56,163,108
India,Delhi,Delhi,"Wazirpur, Delhi - DPCC",22-11-2025 07:00:00,28.699793,77.165453,OZONE,2,153,20
India,Gujarat,Ahmedabad,"Gyaspur, Ahmedabad - IITM",22-11-2025 07:00:00,22.977134,72.553024,PM10,146,364,233
India,Delhi,Delhi,"Mundka, Delhi - DPCC",22-11-2025 07:00:00,28.684678,77.076574,NO2,79,227,139
India,Delhi,Delhi,"Mundka, Delhi - DPCC",22-11-2025 07:00:00,28.684678,77.076574,NH3,12,24,18
India,Delhi,Delhi,"Mundka, Delhi - DPCC",22-11-2025 07:00:00,28.684678,77.076574,SO2,NA,NA,NA
India,Delhi,Delhi,"Mundka, Delhi - DPCC",22-11-2025 07:00:00,28.684678,77.076574,CO,10,141,88
India,Delhi,Delhi,"NSIT Dwarka, Delhi - CPCB",22-11-2025 07:00:00,28.60909,77.0325413,PM10,121,170,151
India,Delhi,Delhi,"NSIT Dwarka, Delhi - CPCB",22-11-2025 07:00:00,28.60909,77.0325413,CO,28,56,35
India,Delhi,Delhi,"Najafgarh, Delhi - DPCC",22-11-2025 07:00:00,28.570173,76.933762,PM10,137,270,185
India,Delhi,Delhi,"Najafgarh, Delhi - DPCC",22-11-2025 07:00:00,28.570173,76.933762,NO2,51,92,68
India,Delhi,Delhi,"Jahangirpuri, Delhi - DPCC",22-11-2025 07:00:00,28.732820,77.170633,NO2,113,218,148
India,Delhi,Delhi,"Jahangirpuri, Delhi - DPCC",22-11-2025 07:00:00,28.732820,77.170633,NH3,9,12,11
India,Delhi,Delhi,"Jahangirpuri, Delhi - DPCC",22-11-2025 07:00:00,28.732820,77.170633,SO2,12,65,35
India,Delhi,Delhi,"Jawaharlal Nehru Stadium, Delhi - DPCC",22-11-2025 07:00:00,28.580280,77.233829,PM2.5,280,421,350
India,Delhi,Delhi,"Lodhi Road, Delhi - IMD",22-11-2025 07:00:00,28.5918245,77.2273074,NO2,2,88,25
India,Delhi,Delhi,"Major Dhyan Chand National Stadium, Delhi - DPCC",22-11-2025 07:00:00,28.611281,77.237738,PM2.5,180,403,313
India,Delhi,Delhi,"Dwarka-Sector 8, Delhi - DPCC ",22-11-2025 07:00:00,28.5710274,77.0719006,PM2.5,318,446,382
India,Delhi,Delhi,"Dwarka-Sector 8, Delhi - DPCC ",22-11-2025 07:00:00,28.5710274,77.0719006,PM10,190,428,332
India,Delhi,Delhi,"Dwarka-Sector 8, Delhi - DPCC ",22-11-2025 07:00:00,28.5710274,77.0719006,NH3,5,17,14
India,Delhi,Delhi,"IHBAS, Dilshad Garden, Delhi - CPCB",22-11-2025 07:00:00,28.6811736,77.3025234,NO2,50,56,53
India,Delhi,Delhi,"IHBAS, Dilshad Garden, Delhi - CPCB",22-11-2025 07:00:00,28.6811736,77.3025234,OZONE,22,31,23
India,Delhi,Delhi,"ITO, Delhi - CPCB",22-11-2025 07:00:00,28.628624,77.241060,PM10,144,407,253
India,Gujarat,Ahmedabad,"Maninagar, Ahmedabad - GPCB",22-11-2025 07:00:00,23.002657,72.591912,PM2.5,81,265,140
India,Gujarat,Ahmedabad,"Maninagar, Ahmedabad - GPCB",22-11-2025 07:00:00,23.002657,72.591912,NO2,35,52,44
India,Gujarat,Ahmedabad,"Raikhad, Ahmedabad - IITM",22-11-2025 07:00:00,23.020509,72.579261,CO,6,143,45
India,Gujarat,Ahmedabad,"Raikhad, Ahmedabad - IITM",22-11-2025 07:00:00,23.020509,72.579261,OZONE,1,118,9
India,Gujarat,Ahmedabad,"Rakhial, Ahmedabad - IITM",22-11-2025 07:00:00,23.016834,72.625775,SO2,21,66,37
India,Delhi,Delhi,"Najafgarh, Delhi - DPCC",22-11-2025 07:00:00,28.570173,76.933762,CO,44,116,77
India,Delhi,Delhi,"Najafgarh, Delhi - DPCC",22-11-2025 07:00:00,28.570173,76.933762,OZONE,5,41,5
India,Delhi,Delhi,"North Campus, DU, Delhi - IMD",22-11-2025 07:00:00,28.6573814,77.1585447,OZONE,14,303,19
India,Delhi,Delhi,"Okhla Phase-2, Delhi - DPCC",22-11-2025 07:00:00,28.530785,77.271255,SO2,7,21,15
India,Delhi,Delhi,"R K Puram, Delhi - DPCC",22-11-2025 07:00:00,28.563262,77.186937,CO,16,175,130
India,Delhi,Delhi,"Rohini, Delhi - DPCC",22-11-2025 07:00:00,28.732528,77.119920,SO2,1,7,3
India,Delhi,Delhi,"Sirifort, Delhi - CPCB",22-11-2025 07:00:00,28.5504249,77.2159377,PM10,170,431,282
India,Delhi,Delhi,"Sirifort, Delhi - CPCB",22-11-2025 07:00:00,28.5504249,77.2159377,NH3,6,14,10
India,Gujarat,Ahmedabad,"SAC ISRO Satellite, Ahmedabad - IITM",22-11-2025 07:00:00,23.023389,72.515201,NH3,NA,NA,NA
India,Gujarat,Ahmedabad,"SVPI Airport Hansol, Ahmedabad - IITM",22-11-2025 07:00:00,23.076793,72.627874,OZONE,1,68,12
India,Gujarat,Ankleshwar,"GIDC, Ankleshwar - GPCB",22-11-2025 07:00:00,21.613267,73.010555,PM2.5,103,339,240
India,Delhi,Delhi,"Patparganj, Delhi - DPCC",22-11-2025 07:00:00,28.623763,77.287209,NO2,36,230,121
India,Delhi,Delhi,"Punjabi Bagh, Delhi - DPCC",22-11-2025 07:00:00,28.674045,77.131023,PM2.5,200,467,369
India,Delhi,Delhi,"Pusa, Delhi - IMD",22-11-2025 07:00:00,28.636110,77.173332,NO2,17,122,77
India,Gujarat,Gandhinagar,"GIFT City, Gandhinagar - IITM",22-11-2025 07:00:00,23.163798,72.677768,SO2,NA,NA,NA
India,Gujarat,Gandhinagar,"IIPHG Lekawada, Gandhinagar - IITM",22-11-2025 07:00:00,23.243639,72.68994,OZONE,5,61,6
India,Gujarat,Gandhinagar,"Sector-10, Gandhinagar - GPCB",22-11-2025 07:00:00,23.221714,72.654328,CO,26,60,33
India,Gujarat,Nandesari,"GIDC, Nandesari - Nandesari Ind. Association",22-11-2025 07:00:00,22.410802,73.097923,PM10,152,208,171
India,Gujarat,Surat,"Science Center, Surat - SMC",22-11-2025 07:00:00,21.170046,72.795405,SO2,32,42,35
India,Gujarat,Surat,"Science Center, Surat - SMC",22-11-2025 07:00:00,21.170046,72.795405,CO,36,50,45
India,Gujarat,Vapi,"Phase-1 GIDC, Vapi - GPCB",22-11-2025 07:00:00,20.362421,72.918013,OZONE,2,23,3
India,Himachal Pradesh,Baddi,"HIMUDA Complex Phase-1, Baddi - HPPCB",22-11-2025 07:00:00,30.943887,76.801991,NO2,19,78,36
India,Himachal Pradesh,Baddi,"HIMUDA Complex Phase-1, Baddi - HPPCB",22-11-2025 07:00:00,30.943887,76.801991,NH3,5,8,6
India,Himachal Pradesh,Baddi,"HIMUDA Complex Phase-1, Baddi - HPPCB",22-11-2025 07:00:00,30.943887,76.801991,SO2,24,104,47
India,Jharkhand,Dhanbad,"Sardar Patel Nagar, Dhanbad - JSPCB",22-11-2025 07:00:00,23.80569,86.44268,PM10,69,178,125
India,Jharkhand,Dhanbad,"Sardar Patel Nagar, Dhanbad - JSPCB",22-11-2025 07:00:00,23.80569,86.44268,CO,1,23,2
India,Karnataka,Bagalkot,"Vidayagiri, Bagalkot - KSPCB",22-11-2025 07:00:00,16.172806,75.659694,NH3,1,2,1
India,Karnataka,Belgaum,"Ramteerth Nagar, Belgaum - KSPCB",22-11-2025 07:00:00,15.888653,74.541751,NO2,3,101,51
India,Gujarat,Vatva,"Phase-4 GIDC, Vatva - GPCB",22-11-2025 07:00:00,22.969611,72.643500,NO2,29,48,37
India,Gujarat,Vatva,"Phase-4 GIDC, Vatva - GPCB",22-11-2025 07:00:00,22.969611,72.643500,NH3,4,10,7
India,Haryana,Ambala,"Patti Mehar, Ambala - HSPCB",22-11-2025 07:00:00,30.379589,76.778328,PM10,57,240,127
India,Haryana,Ambala,"Patti Mehar, Ambala - HSPCB",22-11-2025 07:00:00,30.379589,76.778328,NO2,21,24,22
India,Haryana,Ambala,"Patti Mehar, Ambala - HSPCB",22-11-2025 07:00:00,30.379589,76.778328,NH3,9,11,10
India,Haryana,Ballabgarh,"Nathu Colony, Ballabgarh - HSPCB",22-11-2025 07:00:00,28.3419248,77.319699,NO2,19,21,20
India,Haryana,Bhiwani,"H.B. Colony, Bhiwani - HSPCB",22-11-2025 07:00:00,28.806223,76.141105,PM10,155,191,167
India,Haryana,Bhiwani,"H.B. Colony, Bhiwani - HSPCB",22-11-2025 07:00:00,28.806223,76.141105,SO2,12,13,12
India,Haryana,Rohtak,"MD University, Rohtak - HSPCB",22-11-2025 07:00:00,28.52123,76.37138,OZONE,12,13,13
India,Haryana,Sirsa,"F-Block, Sirsa - HSPCB",22-11-2025 07:00:00,29.536400,75.015800,PM2.5,41,151,91
India,Haryana,Sirsa,"F-Block, Sirsa - HSPCB",22-11-2025 07:00:00,29.536400,75.015800,PM10,49,134,99
India,Haryana,Sirsa,"F-Block, Sirsa - HSPCB",22-11-2025 07:00:00,29.536400,75.015800,NH3,11,15,13
India,Haryana,Sirsa,"F-Block, Sirsa - HSPCB",22-11-2025 07:00:00,29.536400,75.015800,CO,45,84,65
India,Haryana,Sonipat,"Murthal, Sonipat - HSPCB",22-11-2025 07:00:00,29.027200,77.062100,CO,36,38,37
India,Haryana,Yamuna Nagar,"Gobind Pura, Yamuna Nagar - HSPCB",22-11-2025 07:00:00,30.1480566,77.2893471,PM10,156,496,246
India,Haryana,Fatehabad,"Huda Sector, Fatehabad - HSPCB",22-11-2025 07:00:00,29.503664,75.467934,CO,25,34,26
India,Haryana,Gurugram,"NISE Gwal Pahari, Gurugram - IMD",22-11-2025 07:00:00,28.422681,77.148944,OZONE,3,88,4
India,Haryana,Gurugram,"Sector-51, Gurugram - HSPCB",22-11-2025 07:00:00,28.4227,77.0667,PM10,126,500,245
India,Haryana,Gurugram,"Sector-51, Gurugram - HSPCB",22-11-2025 07:00:00,28.4227,77.0667,NO2,4,10,6
India,Haryana,Gurugram,"Teri Gram, Gurugram - HSPCB",22-11-2025 07:00:00,28.4275,77.1465,OZONE,NA,NA,NA
India,Haryana,Hisar,"Urban Estate-II, Hisar - HSPCB",22-11-2025 07:00:00,29.140560,75.744941,CO,55,116,75
India,Haryana,Jind,"Police Lines, Jind - HSPCB",22-11-2025 07:00:00,29.307814,76.337619,SO2,1,40,8
India,Haryana,Jind,"Police Lines, Jind - HSPCB",22-11-2025 07:00:00,29.307814,76.337619,CO,5,110,10
India,Haryana,Charkhi Dadri,"Mini Secretariat, Charkhi Dadri - HSPCB",22-11-2025 07:00:00,28.593883,76.270653,OZONE,14,17,15
India,Haryana,Dharuhera,"Municipal Corporation Office, Dharuhera -  HSPCB",22-11-2025 07:00:00,28.206800,76.799700,NO2,15,51,38
India,Haryana,Faridabad,"New Industrial Town, Faridabad - HSPCB",22-11-2025 07:00:00,28.39072,77.30059,CO,10,14,11
India,Haryana,Narnaul,"Shastri Nagar, Narnaul - HSPCB",22-11-2025 07:00:00,28.060249,76.113115,SO2,6,7,6
India,Haryana,Palwal,"Shyam Nagar, Palwal - HSPCB",22-11-2025 07:00:00,28.1485564,77.3320667,OZONE,23,25,24
India,Haryana,Panipat,"Sector-18, Panipat - HSPCB",22-11-2025 07:00:00,29.432304,76.972765,PM2.5,44,457,134
India,Haryana,Kurukshetra,"Sector-7, Kurukshetra - HSPCB",22-11-2025 07:00:00,29.966942,76.875879,SO2,2,13,9
India,Haryana,Mandikhera,"General Hospital, Mandikhera - HSPCB",22-11-2025 07:00:00,27.9002,76.9938,PM2.5,74,224,121
India,Karnataka,Bengaluru,"RVCE-Mailasandra, Bengaluru - KSPCB",22-11-2025 07:00:00,12.921418,77.502466,SO2,5,6,6
India,Karnataka,Bengaluru,"RVCE-Mailasandra, Bengaluru - KSPCB",22-11-2025 07:00:00,12.921418,77.502466,CO,23,50,39
India,Karnataka,Bengaluru,"Sanegurava Halli, Bengaluru - KSPCB",22-11-2025 07:00:00,12.990328,77.5431385,SO2,NA,NA,NA
India,Karnataka,Bengaluru,"Silk Board, Bengaluru - KSPCB",22-11-2025 07:00:00,12.917348,77.622813,PM2.5,20,60,32
India,Karnataka,Chamarajanagar,"Urban, Chamarajanagar - KSPCB",22-11-2025 07:00:00,11.55358,76.55521,PM10,34,57,44
India,Karnataka,Chikkamagaluru,"Kalyana Nagara, Chikkamagaluru - KSPCB",22-11-2025 07:00:00,13.328028,75.797056,NO2,16,29,24
India,Karnataka,Davanagere,"Devaraj Urs Badavane, Davanagere - KSPCB",22-11-2025 07:00:00,14.475800,75.905200,PM2.5,9,156,43
India,Kerala,Eloor,"Udyogamandal, Eloor - Kerala PCB",22-11-2025 07:00:00,10.073232,76.302765,PM2.5,47,94,69
India,Kerala,Eloor,"Udyogamandal, Eloor - Kerala PCB",22-11-2025 07:00:00,10.073232,76.302765,NO2,6,7,6
India,Kerala,Kannur,"Thavakkara, Kannur - Kerala PCB",22-11-2025 07:00:00,11.875000,75.373200,PM2.5,45,57,52
India,Kerala,Kannur,"Thavakkara, Kannur - Kerala PCB",22-11-2025 07:00:00,11.875000,75.373200,SO2,3,7,5
India,Kerala,Thiruvananthapuram,"Kariavattom, Thiruvananthapuram - Kerala PCB",22-11-2025 07:00:00,8.563700,76.886500,NO2,6,7,6
India,Kerala,Thiruvananthapuram,"Kariavattom, Thiruvananthapuram - Kerala PCB",22-11-2025 07:00:00,8.563700,76.886500,CO,30,84,45
India,Kerala,Thiruvananthapuram,"Plammoodu, Thiruvananthapuram - Kerala PCB",22-11-2025 07:00:00,8.5149093,76.9435879,PM10,8,55,30
India,Kerala,Thiruvananthapuram,"Plammoodu, Thiruvananthapuram - Kerala PCB",22-11-2025 07:00:00,8.5149093,76.9435879,NO2,10,79,33
India,Karnataka,Mysuru,"Hebbal 1st Stage, Mysuru - KSPCB",22-11-2025 07:00:00,12.21041,76.37376,PM2.5,10,40,18
India,Karnataka,Mysuru,"Hebbal 1st Stage, Mysuru - KSPCB",22-11-2025 07:00:00,12.21041,76.37376,NH3,2,8,5
India,Karnataka,Mysuru,"Hebbal 1st Stage, Mysuru - KSPCB",22-11-2025 07:00:00,12.21041,76.37376,CO,6,34,12
India,Karnataka,Shivamogga,"Vinoba Nagara, Shivamogga - KSPCB",22-11-2025 07:00:00,13.940000,75.555917,NO2,16,18,16
India,Karnataka,Shivamogga,"Vinoba Nagara, Shivamogga - KSPCB",22-11-2025 07:00:00,13.940000,75.555917,OZONE,13,55,32
India,Karnataka,Vijayapura,"Ibrahimpur, Vijayapura - KSPCB",22-11-2025 07:00:00,16.802639,75.722694,OZONE,14,17,16
India,Karnataka,Yadgir,"Collector Office, Yadgir - KSPCB",22-11-2025 07:00:00,16.7602,77.1428,NO2,15,33,22
India,Karnataka,Bengaluru,"BTM Layout, Bengaluru - CPCB",22-11-2025 07:00:00,12.9135218,77.5950804,NH3,NA,NA,NA
India,Karnataka,Bengaluru,"BWSSB Kadabesanahalli, Bengaluru - CPCB",22-11-2025 07:00:00,12.9352049,77.6814488,PM2.5,NA,NA,NA
India,Karnataka,Bengaluru,"Hebbal, Bengaluru - KSPCB",22-11-2025 07:00:00,13.029152,77.585901,SO2,1,7,4
India,Karnataka,Bengaluru,"Hebbal, Bengaluru - KSPCB",22-11-2025 07:00:00,13.029152,77.585901,OZONE,7,8,7
India,Karnataka,Bengaluru,"Hombegowda Nagar, Bengaluru - KSPCB",22-11-2025 07:00:00,12.938539,77.590100,PM2.5,2,44,17
India,Kerala,Thiruvananthapuram,"Plammoodu, Thiruvananthapuram - Kerala PCB",22-11-2025 07:00:00,8.5149093,76.9435879,SO2,11,26,17
India,Kerala,Thiruvananthapuram,"Plammoodu, Thiruvananthapuram - Kerala PCB",22-11-2025 07:00:00,8.5149093,76.9435879,OZONE,1,29,23
India,Madhya Pradesh,Bhopal,"Paryavaran Parisar, Bhopal - MPPCB",22-11-2025 07:00:00,23.210494,77.425409,CO,10,114,46
India,Madhya Pradesh,Damoh,"Shrivastav Colony, Damoh - MPPCB",22-11-2025 07:00:00,23.81748678,79.446246,PM2.5,32,92,55
India,Karnataka,Bengaluru,"Jayanagar 5th Block, Bengaluru - KSPCB",22-11-2025 07:00:00,12.920984,77.584908,NO2,NA,NA,NA
India,Karnataka,Bengaluru,"Jayanagar 5th Block, Bengaluru - KSPCB",22-11-2025 07:00:00,12.920984,77.584908,NH3,NA,NA,NA
India,Karnataka,Bengaluru,"Jigani, Bengaluru - KSPCB",22-11-2025 07:00:00,12.7816279,77.6299145,PM2.5,41,42,41
India,Karnataka,Bengaluru,"Jigani, Bengaluru - KSPCB",22-11-2025 07:00:00,12.7816279,77.6299145,PM10,50,51,50
India,Karnataka,Bengaluru,"Jigani, Bengaluru - KSPCB",22-11-2025 07:00:00,12.7816279,77.6299145,CO,28,30,29
India,Karnataka,Bengaluru,"Peenya, Bengaluru - CPCB",22-11-2025 07:00:00,13.0270199,77.494094,PM10,54,94,74
India,Karnataka,Dharwad,"Kalabhavan, Dharwad - KSPCB",22-11-2025 07:00:00,15.459706,75.008381,NO2,23,27,26
India,Karnataka,Gadag,"Panchal Nagar, Gadag - KSPCB",22-11-2025 07:00:00,15.411456,75.638133,NH3,4,5,4
India,Karnataka,Haveri,"Ashwini Nagar, Haveri - KSPCB",22-11-2025 07:00:00,14.791800,75.389600,CO,28,36,31
India,Karnataka,Hubballi,"Lingaraj Nagar, Hubballi - KSPCB",22-11-2025 07:00:00,15.3714823,75.1160168,PM10,54,67,58
India,Karnataka,Kalaburagi,"Lal Bahadur Shastri Nagar, Kalaburagi - KSPCB",22-11-2025 07:00:00,17.321993,76.822628,NO2,12,12,12
India,Karnataka,Koppal,"Diwator Nagar, Koppal - KSPCB",22-11-2025 07:00:00,15.347630,76.181767,PM2.5,18,44,34
India,Karnataka,Madikeri,"Stuart Hill, Madikeri - KSPCB",22-11-2025 07:00:00,12.415911,75.735050,PM2.5,3,58,27
India,Madhya Pradesh,Dewas,"Bhopal Chauraha, Dewas - MPPCB",22-11-2025 07:00:00,22.9682591,76.064118,SO2,38,60,50
India,Madhya Pradesh,Gwalior,"Deen Dayal Nagar, Gwalior - MPPCB",22-11-2025 07:00:00,26.259242,78.216432,NH3,5,15,6
India,Maharashtra,Aurangabad,"More Chowk Waluj, Aurangabad - MPCB",22-11-2025 07:00:00,19.8389439,75.244448,PM2.5,80,251,165
India,Maharashtra,Aurangabad,"More Chowk Waluj, Aurangabad - MPCB",22-11-2025 07:00:00,19.8389439,75.244448,PM10,70,136,109
India,Maharashtra,Aurangabad,"More Chowk Waluj, Aurangabad - MPCB",22-11-2025 07:00:00,19.8389439,75.244448,NH3,10,11,11
India,Maharashtra,Aurangabad,"More Chowk Waluj, Aurangabad - MPCB",22-11-2025 07:00:00,19.8389439,75.244448,SO2,14,27,16
India,Maharashtra,Aurangabad,"More Chowk Waluj, Aurangabad - MPCB",22-11-2025 07:00:00,19.8389439,75.244448,CO,8,137,16
India,Maharashtra,Aurangabad,"More Chowk Waluj, Aurangabad - MPCB",22-11-2025 07:00:00,19.8389439,75.244448,OZONE,25,29,27
India,Maharashtra,Aurangabad,"Rachnakar Colony, Aurangabad - MPCB",22-11-2025 07:00:00,19.863756,75.321188,PM2.5,64,217,116
India,Maharashtra,Aurangabad,"Rachnakar Colony, Aurangabad - MPCB",22-11-2025 07:00:00,19.863756,75.321188,SO2,7,37,21
India,Maharashtra,Badlapur,"Katrap, Badlapur - MPCB",22-11-2025 07:00:00,19.16485,73.23409,PM10,109,195,144
India,Maharashtra,Badlapur,"Katrap, Badlapur - MPCB",22-11-2025 07:00:00,19.16485,73.23409,SO2,3,12,6
India,Maharashtra,Belapur,"CBD Belapur, Belapur - MPCB",22-11-2025 07:00:00,19.0243902,73.0406721,PM10,119,194,161
India,Maharashtra,Akola,"Ramdaspeth, Akola - MPCB",22-11-2025 07:00:00,20.719516,77.000253,NH3,3,8,6
India,Maharashtra,Akola,"Ramdaspeth, Akola - MPCB",22-11-2025 07:00:00,20.719516,77.000253,CO,18,75,40
India,Maharashtra,Akola,"Ramdaspeth, Akola - MPCB",22-11-2025 07:00:00,20.719516,77.000253,OZONE,2,60,4
India,Maharashtra,Amravati,"Shivneri Colony, Amravati - MPCB",22-11-2025 07:00:00,20.9402359,77.7895248,PM10,93,154,120
India,Maharashtra,Amravati,"Shivneri Colony, Amravati - MPCB",22-11-2025 07:00:00,20.9402359,77.7895248,NO2,6,43,20
India,Maharashtra,Amravati,"Shri Shivaji Science College, Amravati - MPCB",22-11-2025 07:00:00,20.939198,77.765701,PM2.5,77,253,135
India,Maharashtra,Amravati,"Shri Shivaji Science College, Amravati - MPCB",22-11-2025 07:00:00,20.939198,77.765701,NO2,10,108,42
India,Maharashtra,Amravati,"Shri Shivaji Science College, Amravati - MPCB",22-11-2025 07:00:00,20.939198,77.765701,NH3,1,19,6
India,Maharashtra,Amravati,"Shri Shivaji Science College, Amravati - MPCB",22-11-2025 07:00:00,20.939198,77.765701,CO,36,122,67
India,Maharashtra,Aurangabad,"MIDC Chilkalthana, Aurangabad - MPCB",22-11-2025 07:00:00,19.875620,75.387310,NO2,22,209,79
India,Madhya Pradesh,Maihar,"Sahilara, Maihar - KJS Cements",22-11-2025 07:00:00,24.2613009,80.7231783,PM2.5,17,100,53
India,Madhya Pradesh,Mandideep,"Sector-D Industrial Area, Mandideep - MPPCB",22-11-2025 07:00:00,23.108440,77.511428,CO,40,128,119
India,Madhya Pradesh,Mandideep,"Sector-D Industrial Area, Mandideep - MPPCB",22-11-2025 07:00:00,23.108440,77.511428,OZONE,5,159,7
India,Madhya Pradesh,Pithampur,"Sector-2 Industrial Area, Pithampur - MPPCB",22-11-2025 07:00:00,22.624758,75.675238,PM2.5,108,393,296
India,Madhya Pradesh,Pithampur,"Sector-2 Industrial Area, Pithampur - MPPCB",22-11-2025 07:00:00,22.624758,75.675238,NH3,NA,NA,NA
India,Madhya Pradesh,Pithampur,"Sector-2 Industrial Area, Pithampur - MPPCB",22-11-2025 07:00:00,22.624758,75.675238,CO,26,70,49
India,Madhya Pradesh,Ratlam,"Shasthri Nagar, Ratlam - IPCA Lab",22-11-2025 07:00:00,23.331731,75.045981,PM2.5,89,241,169
India,Madhya Pradesh,Indore,"Airport Area, Indore - IMC",22-11-2025 07:00:00,22.7289,75.8076,CO,8,14,12
India,Madhya Pradesh,Indore,"Airport Area, Indore - IMC",22-11-2025 07:00:00,22.7289,75.8076,OZONE,7,12,8
India,Madhya Pradesh,Indore,"Maguda Nagar, Indore - IMC",22-11-2025 07:00:00,22.7524,75.8872,PM10,53,121,81
India,Madhya Pradesh,Indore,"Maguda Nagar, Indore - IMC",22-11-2025 07:00:00,22.7524,75.8872,NO2,2,2,2
India,Madhya Pradesh,Indore,"Maguda Nagar, Indore - IMC",22-11-2025 07:00:00,22.7524,75.8872,SO2,33,38,36
India,Madhya Pradesh,Indore,"Regional Park, Indore - IMC",22-11-2025 07:00:00,22.6780,75.8559,PM10,40,103,67
India,Madhya Pradesh,Indore,"Regional Park, Indore - IMC",22-11-2025 07:00:00,22.6780,75.8559,SO2,21,28,25
India,Madhya Pradesh,Indore,"Regional Park, Indore - IMC",22-11-2025 07:00:00,22.6780,75.8559,CO,28,48,41
India,Maharashtra,Jalna,"Old MIDC, Jalna - MPCB",22-11-2025 07:00:00,19.854616,75.905894,OZONE,2,42,9
India,Maharashtra,Kalyan,"Khadakpada, Kalyan - MPCB",22-11-2025 07:00:00,19.25292,73.142019,NO2,36,36,36
India,Maharashtra,Kalyan,"Pimpleshwar Mandir, Kalyan - MPCB",22-11-2025 07:00:00,19.192056,72.9585188,NO2,3,40,18
India,Maharashtra,Kalyan,"Pimpleshwar Mandir, Kalyan - MPCB",22-11-2025 07:00:00,19.192056,72.9585188,CO,44,46,45
India,Maharashtra,Kolhapur,"Sinchan Bhavan, Kolhapur - MPCB",22-11-2025 07:00:00,16.7143745,74.2426398,NO2,25,107,53
India,Madhya Pradesh,Jabalpur,"Govindh Bhavan Colony, Jabalpur - JMC",22-11-2025 07:00:00,23.163174,79.973061,PM2.5,85,293,175
India,Madhya Pradesh,Jabalpur,"Govindh Bhavan Colony, Jabalpur - JMC",22-11-2025 07:00:00,23.163174,79.973061,NO2,18,30,23
India,Madhya Pradesh,Jabalpur,"Govindh Bhavan Colony, Jabalpur - JMC",22-11-2025 07:00:00,23.163174,79.973061,NH3,1,1,1
India,Madhya Pradesh,Jabalpur,"Gupteshwar, Jabalpur - JMC",22-11-2025 07:00:00,23.142888,79.916147,NH3,NA,NA,NA
India,Madhya Pradesh,Jabalpur,"Marhatal, Jabalpur - MPPCB",22-11-2025 07:00:00,23.168606,79.932247,PM10,97,262,159
India,Madhya Pradesh,Jabalpur,"Marhatal, Jabalpur - MPPCB",22-11-2025 07:00:00,23.168606,79.932247,OZONE,3,214,20
India,Madhya Pradesh,Sagar,"Civil Lines, Sagar - MPPCB",22-11-2025 07:00:00,23.838586,78.759431,NH3,1,5,2
India,Madhya Pradesh,Sagar,"Civil Lines, Sagar - MPPCB",22-11-2025 07:00:00,23.838586,78.759431,CO,42,98,60
India,Madhya Pradesh,Sagar,"Civil Lines, Sagar - MPPCB",22-11-2025 07:00:00,23.838586,78.759431,OZONE,27,53,40
India,Madhya Pradesh,Singrauli,"Suryakiran Bhawan NCL, Singrauli - MPPCB",22-11-2025 07:00:00,24.108970,82.645580,PM2.5,117,364,225
India,Maharashtra,Chandrapur,"MIDC Khutala, Chandrapur - MPCB",22-11-2025 07:00:00,19.9775302,79.2337086,SO2,8,9,9
India,Maharashtra,Dhule,"Deopur, Dhule - MPCB",22-11-2025 07:00:00,20.918946,74.776388,SO2,1,11,5
India,Maharashtra,Jalna,"Old MIDC, Jalna - MPCB",22-11-2025 07:00:00,19.854616,75.905894,CO,13,52,26
India,Maharashtra,Boisar,"Khaira, Boisar - MPCB",22-11-2025 07:00:00,19.786089,72.757971,NO2,NA,NA,NA
India,Maharashtra,Chandrapur,"MIDC Khutala, Chandrapur - MPCB",22-11-2025 07:00:00,19.9775302,79.2337086,PM10,153,164,158
India,Maharashtra,Latur,"Sawe Wadi, Latur - MPCB",22-11-2025 07:00:00,18.39963,76.57452,NH3,6,15,10
India,Maharashtra,Latur,"Sawe Wadi, Latur - MPCB",22-11-2025 07:00:00,18.39963,76.57452,SO2,2,5,3
India,Maharashtra,Mahad,"Kamble Tarf Birwadi, Mahad - MPCB",22-11-2025 07:00:00,18.1023399,73.4783687,NH3,3,6,5
India,Maharashtra,Mahad,"Kamble Tarf Birwadi, Mahad - MPCB",22-11-2025 07:00:00,18.1023399,73.4783687,OZONE,11,75,23
India,Maharashtra,Malegaon,"Mahesh Nagar, Malegaon - MPCB",22-11-2025 07:00:00,20.555712,74.529236,PM10,NA,NA,NA
India,Maharashtra,Mira-Bhayandar,"Bhayandar West, Mira-Bhayandar - MPCB",22-11-2025 07:00:00,19.296481,72.840923,SO2,2,5,3
India,Maharashtra,Mira-Bhayandar,"Bhayandar West, Mira-Bhayandar - MPCB",22-11-2025 07:00:00,19.296481,72.840923,CO,25,74,55
India,Maharashtra,Nagpur,"Mahal, Nagpur - MPCB",22-11-2025 07:00:00,21.14472,79.107595,PM10,109,178,137
India,Maharashtra,Nagpur,"Mahal, Nagpur - MPCB",22-11-2025 07:00:00,21.14472,79.107595,NO2,22,128,59
India,Maharashtra,Nagpur,"Mahal, Nagpur - MPCB",22-11-2025 07:00:00,21.14472,79.107595,NH3,4,5,4
India,Maharashtra,Nagpur,"Mahal, Nagpur - MPCB",22-11-2025 07:00:00,21.14472,79.107595,SO2,2,101,48
India,Maharashtra,Nagpur,"Opp GPO Civil Lines, Nagpur - MPCB",22-11-2025 07:00:00,21.152875,79.0517531,PM10,93,172,134
India,Maharashtra,Nagpur,"Opp GPO Civil Lines, Nagpur - MPCB",22-11-2025 07:00:00,21.152875,79.0517531,NO2,17,132,52
India,Maharashtra,Nagpur,"Opp GPO Civil Lines, Nagpur - MPCB",22-11-2025 07:00:00,21.152875,79.0517531,OZONE,2,71,3
India,Maharashtra,Nagpur,"Ram Nagar, Nagpur - MPCB",22-11-2025 07:00:00,21.143383,79.048912,PM10,109,182,138
India,Maharashtra,Mumbai,"Colaba, Mumbai - MPCB",22-11-2025 07:00:00,18.910000,72.820000,NH3,3,3,3
India,Maharashtra,Mumbai,"Colaba, Mumbai - MPCB",22-11-2025 07:00:00,18.910000,72.820000,SO2,NA,NA,NA
India,Maharashtra,Mumbai,"Deonar, Mumbai - IITM",22-11-2025 07:00:00,19.04946,72.9230,NO2,19,125,50
India,Maharashtra,Mumbai,"Deonar, Mumbai - IITM",22-11-2025 07:00:00,19.04946,72.9230,OZONE,1,52,3
India,Maharashtra,Mumbai,"Ghatkopar, Mumbai - BMC",22-11-2025 07:00:00,19.083694,72.920967,CO,21,64,46
India,Maharashtra,Mumbai,"Kandivali East, Mumbai - MPCB",22-11-2025 07:00:00,19.205800,72.868200,PM2.5,88,293,150
India,Maharashtra,Mumbai,"Kandivali East, Mumbai - MPCB",22-11-2025 07:00:00,19.205800,72.868200,SO2,NA,NA,NA
India,Maharashtra,Mumbai,"Sion, Mumbai - MPCB",22-11-2025 07:00:00,19.047000,72.874600,PM10,29,164,81
India,Maharashtra,Mumbai,"Vasai West, Mumbai - MPCB",22-11-2025 07:00:00,19.383200,72.820400,PM10,59,152,108
India,Maharashtra,Mumbai,"Vasai West, Mumbai - MPCB",22-11-2025 07:00:00,19.383200,72.820400,CO,44,50,49
India,Maharashtra,Mumbai,"Vile Parle West, Mumbai - MPCB",22-11-2025 07:00:00,19.10861,72.83622,PM10,110,155,130
India,Maharashtra,Mumbai,"Vile Parle West, Mumbai - MPCB",22-11-2025 07:00:00,19.10861,72.83622,SO2,20,59,51
India,Maharashtra,Mumbai,"Worli, Mumbai - MPCB",22-11-2025 07:00:00,18.9936162,72.8128113,PM2.5,69,84,75
India,Maharashtra,Nanded,"Sneh Nagar, Nanded - MPCB",22-11-2025 07:00:00,19.173852,77.296291,NO2,11,89,27
India,Maharashtra,Nanded,"Sneh Nagar, Nanded - MPCB",22-11-2025 07:00:00,19.173852,77.296291,SO2,2,2,2
India,Maharashtra,Nashik,"Gangapur Road, Nashik - MPCB",22-11-2025 07:00:00,20.0073285,73.7762427,PM10,92,185,136
India,Maharashtra,Nashik,"Hirawadi, Nashik - MPCB",22-11-2025 07:00:00,20.021503,73.813844,CO,42,100,57
India,Maharashtra,Nashik,"MIDC Ambad, Nashik - MPCB",22-11-2025 07:00:00,19.950220,73.731480,SO2,7,15,10
India,Maharashtra,Mumbai,"Malad West, Mumbai - IITM",22-11-2025 07:00:00,19.19709,72.82204,SO2,6,15,10
India,Maharashtra,Mumbai,"Mazgaon, Mumbai - IITM",22-11-2025 07:00:00,18.96702,72.84214,PM10,135,177,160
India,Maharashtra,Mumbai,"Mazgaon, Mumbai - IITM",22-11-2025 07:00:00,18.96702,72.84214,SO2,10,23,13
India,Maharashtra,Mumbai,"Navy Nagar-Colaba, Mumbai - IITM",22-11-2025 07:00:00,18.897756,72.813320,NO2,29,263,123
India,Maharashtra,Mumbai,"Navy Nagar-Colaba, Mumbai - IITM",22-11-2025 07:00:00,18.897756,72.813320,NH3,2,12,5
India,Maharashtra,Mumbai,"Kandivali West, Mumbai - BMC",22-11-2025 07:00:00,19.215859,72.831718,NO2,18,71,38
India,Maharashtra,Mumbai,"Kandivali West, Mumbai - BMC",22-11-2025 07:00:00,19.215859,72.831718,NH3,1,2,1
India,Maharashtra,Mumbai,"Kurla, Mumbai - MPCB",22-11-2025 07:00:00,19.0863,72.8888,OZONE,28,29,28
India,Maharashtra,Mumbai,"Malad West, Mumbai - IITM",22-11-2025 07:00:00,19.19709,72.82204,PM2.5,97,309,212
India,Maharashtra,Mumbai,"Powai, Mumbai - MPCB",22-11-2025 07:00:00,19.137500,72.915056,PM10,128,192,155
India,Maharashtra,Mumbai,"Powai, Mumbai - MPCB",22-11-2025 07:00:00,19.137500,72.915056,NH3,1,2,2
India,Maharashtra,Mumbai,"Sewri, Mumbai - BMC",22-11-2025 07:00:00,19.000084,72.856730,NH3,NA,NA,NA
India,Maharashtra,Mumbai,"Shivaji Nagar, Mumbai - BMC",22-11-2025 07:00:00,19.060498,72.923356,SO2,11,23,17
India,Maharashtra,Mumbai,"Bandra Kurla Complex, Mumbai - MPCB",22-11-2025 07:00:00,19.065931,72.862131,CO,21,76,56
India,Maharashtra,Mumbai,"Borivali East, Mumbai - IITM",22-11-2025 07:00:00,19.23241,72.86895,NH3,5,9,6
India,Maharashtra,Mumbai,"Byculla, Mumbai - BMC",22-11-2025 07:00:00,18.9767,72.8380,PM2.5,NA,NA,NA
India,Maharashtra,Pune,"Savitribai Phule Pune University, Pune - MPCB",22-11-2025 07:00:00,18.547056,73.826908,OZONE,NA,NA,NA
India,Maharashtra,Pune,"Transport Nagar-Nigdi, Pune - IITM",22-11-2025 07:00:00,18.664282,73.763966,PM10,119,241,171
India,Maharashtra,Pune,"Transport Nagar-Nigdi, Pune - IITM",22-11-2025 07:00:00,18.664282,73.763966,CO,62,107,78
India,Maharashtra,Pune,"Transport Nagar-Nigdi, Pune - IITM",22-11-2025 07:00:00,18.664282,73.763966,OZONE,7,85,12
India,Maharashtra,Sangli,"Vijay Nagar, Sangli - MPCB",22-11-2025 07:00:00, 16.5038,74.3623,PM2.5,75,314,173
India,Maharashtra,Sangli,"Vijay Nagar, Sangli - MPCB",22-11-2025 07:00:00, 16.5038,74.3623,PM10,57,358,149
India,Maharashtra,Sangli,"Vijay Nagar, Sangli - MPCB",22-11-2025 07:00:00, 16.5038,74.3623,SO2,1,9,7
India,Maharashtra,Sangli,"Vijay Nagar, Sangli - MPCB",22-11-2025 07:00:00, 16.5038,74.3623,OZONE,4,60,18
India,Maharashtra,Solapur,"Dnyaneshwar Nagar, Solapur - MPCB",22-11-2025 07:00:00,17.6336264,75.9132495,PM2.5,38,107,62
India,Maharashtra,Solapur,"Dnyaneshwar Nagar, Solapur - MPCB",22-11-2025 07:00:00,17.6336264,75.9132495,OZONE,5,76,40
India,Maharashtra,Thane,"Kasarvadavali, Thane - MPCB",22-11-2025 07:00:00,19.26777,72.97182,PM2.5,63,157,99
India,Maharashtra,Pimpri-Chinchwad,"Park Street Wakad, Pimpri Chinchwad - MPCB",22-11-2025 07:00:00,18.59051,73.77946,NO2,38,103,63
India,Maharashtra,Pimpri-Chinchwad,"Park Street Wakad, Pimpri Chinchwad - MPCB",22-11-2025 07:00:00,18.59051,73.77946,OZONE,1,120,2
India,Maharashtra,Pimpri-Chinchwad,"Savta Mali Nagar, Pimpri-Chinchwad - IITM",22-11-2025 07:00:00,18.614767,73.799516,CO,59,145,97
India,Maharashtra,Pimpri-Chinchwad,"Savta Mali Nagar, Pimpri-Chinchwad - IITM",22-11-2025 07:00:00,18.614767,73.799516,OZONE,3,76,5
India,Maharashtra,Pimpri-Chinchwad,"Thergaon, Pimpri Chinchwad - MPCB",22-11-2025 07:00:00,18.616318,73.765797,PM2.5,47,357,243
India,Maharashtra,Pune,"Bhumkar Nagar, Pune - IITM",22-11-2025 07:00:00,18.605770,73.749976,CO,36,135,110
India,Maharashtra,Pune,"Bhumkar Nagar, Pune - IITM",22-11-2025 07:00:00,18.605770,73.749976,OZONE,1,57,1
India,Maharashtra,Thane,"Kasarvadavali, Thane - MPCB",22-11-2025 07:00:00,19.26777,72.97182,NH3,1,13,6
India,Maharashtra,Thane,"Upvan Fort, Thane - MPCB",22-11-2025 07:00:00,19.222279,72.957979,PM10,75,111,95
India,Maharashtra,Ulhasnagar,"Sidhi Vinayak Nagar, Ulhasnagar - MPCB",22-11-2025 07:00:00,19.235581,73.159121,SO2,5,61,15
India,Maharashtra,Ulhasnagar,"Sidhi Vinayak Nagar, Ulhasnagar - MPCB",22-11-2025 07:00:00,19.235581,73.159121,CO,24,44,41
India,Maharashtra,Ulhasnagar,"Sidhi Vinayak Nagar, Ulhasnagar - MPCB",22-11-2025 07:00:00,19.235581,73.159121,OZONE,13,93,15
India,Maharashtra,Virar,"Bolinj, Virar - MPCB",22-11-2025 07:00:00,19.4458210,72.7988231,CO,22,92,62
India,Maharashtra,Navi Mumbai,"Sanpada, Navi Mumbai - MPCB",22-11-2025 07:00:00,19.0575752,73.0151367,CO,26,131,86
India,Maharashtra,Navi Mumbai,"Tondare-Taloja, Navi Mumbai - MPCB",22-11-2025 07:00:00,19.0630,73.1209,PM2.5,63,154,101
India,Maharashtra,Navi Mumbai,"Tondare-Taloja, Navi Mumbai - MPCB",22-11-2025 07:00:00,19.0630,73.1209,PM10,47,135,90
India,Maharashtra,Navi Mumbai,"Tondare-Taloja, Navi Mumbai - MPCB",22-11-2025 07:00:00,19.0630,73.1209,NO2,24,37,31
India,Maharashtra,Navi Mumbai,"Tondare-Taloja, Navi Mumbai - MPCB",22-11-2025 07:00:00,19.0630,73.1209,CO,36,62,52
India,Maharashtra,Parbhani,"Masoom Colony, Parbhani - MPCB",22-11-2025 07:00:00,19.265594,76.761463,PM10,102,434,163
India,Odisha,Baripada,"Meher Colony, Baripada - OSPCB",22-11-2025 07:00:00,21.941841,86.728318,PM10,81,154,112
India,Odisha,Baripada,"Meher Colony, Baripada - OSPCB",22-11-2025 07:00:00,21.941841,86.728318,NH3,1,4,2
India,Odisha,Bhubaneswar,"Patia, Bhubaneswar - OSPCB",22-11-2025 07:00:00,20.34652,85.81630,NO2,9,45,20
India,Odisha,Bileipada,"Tata Township, Bileipada - OSPCB",22-11-2025 07:00:00,22.06156703,85.47409613,PM10,86,190,137
India,Odisha,Bileipada,"Tata Township, Bileipada - OSPCB",22-11-2025 07:00:00,22.06156703,85.47409613,NO2,6,7,7
India,Odisha,Bileipada,"Tata Township, Bileipada - OSPCB",22-11-2025 07:00:00,22.06156703,85.47409613,CO,28,44,42
India,Nagaland,Kohima,"PWD Junction, Kohima - NPCB",22-11-2025 07:00:00,25.6635413,94.0989878,OZONE,6,16,7
India,Odisha,Angul,"Hakimapada, Angul - OSPCB",22-11-2025 07:00:00,20.832874,85.104082,NH3,7,12,9
India,Odisha,Balasore,"Kalidaspur, Balasore - OSPCB",22-11-2025 07:00:00,21.51161,86.89088,NH3,1,3,2
India,Odisha,Barbil,"Forest Office, Barbil - OSPCB",22-11-2025 07:00:00,22.1166054,85.3945546,CO,30,76,44
India,Maharashtra,Pune,"Katraj Dairy, Pune - MPCB",22-11-2025 07:00:00,18.454450,73.854155,SO2,3,5,4
India,Maharashtra,Pune,"Katraj Dairy, Pune - MPCB",22-11-2025 07:00:00,18.454450,73.854155,CO,26,138,94
India,Maharashtra,Pune,"Panchawati_Pashan, Pune - IITM",22-11-2025 07:00:00,18.536457,73.805454,OZONE,NA,NA,NA
India,Maharashtra,Pune,"Revenue Colony-Shivajinagar, Pune - IITM",22-11-2025 07:00:00,18.530085,73.849598,PM10,144,356,260
India,Maharashtra,Pune,"Revenue Colony-Shivajinagar, Pune - IITM",22-11-2025 07:00:00,18.530085,73.849598,CO,73,170,124
India,Odisha,Byasanagar,"Ferro Chrome Colony, Byasanagar - OSPCB",22-11-2025 07:00:00,20.94185,86.11510,CO,14,122,43
India,Odisha,Cuttack,"CDA Area, Cuttack - OSPCB",22-11-2025 07:00:00,20.48891     ,85.84768     ,SO2,4,11,6
India,Odisha,Nayagarh,"Dabuna, Nayagarh - OSPCB",22-11-2025 07:00:00,21.847279,85.416905,NH3,NA,NA,NA
India,Odisha,Nayagarh,"Dabuna, Nayagarh - OSPCB",22-11-2025 07:00:00,21.847279,85.416905,OZONE,11,20,12
India,Maharashtra,Nashik,"Pandav Nagari, Nashik - MPCB",22-11-2025 07:00:00,19.9591346,73.7788008,OZONE,2,87,23
India,Maharashtra,Navi Mumbai,"Kopripada-Vashi, Navi Mumbai - MPCB",22-11-2025 07:00:00,19.090337,73.014232,NH3,2,23,7
India,Maharashtra,Navi Mumbai,"Kopripada-Vashi, Navi Mumbai - MPCB",22-11-2025 07:00:00,19.090337,73.014232,CO,18,103,38
India,Maharashtra,Navi Mumbai,"Kopripada-Vashi, Navi Mumbai - MPCB",22-11-2025 07:00:00,19.090337,73.014232,OZONE,1,77,2
India,Punjab,Amritsar,"Golden Temple, Amritsar - PPCB",22-11-2025 07:00:00,31.620000,74.876512,PM10,65,146,108
India,Punjab,Amritsar,"Golden Temple, Amritsar - PPCB",22-11-2025 07:00:00,31.620000,74.876512,NO2,9,57,28
India,Punjab,Jalandhar,"Civil Line, Jalandhar - PPCB",22-11-2025 07:00:00,31.321907,75.578914,PM2.5,69,306,196
India,Punjab,Jalandhar,"Civil Line, Jalandhar - PPCB",22-11-2025 07:00:00,31.321907,75.578914,PM10,78,218,150
India,Punjab,Jalandhar,"Civil Line, Jalandhar - PPCB",22-11-2025 07:00:00,31.321907,75.578914,SO2,14,17,15
India,Punjab,Jalandhar,"Civil Line, Jalandhar - PPCB",22-11-2025 07:00:00,31.321907,75.578914,CO,50,58,52
India,Punjab,Khanna,"Kalal Majra, Khanna - PPCB",22-11-2025 07:00:00,30.736056 ,76.209694,OZONE,24,26,25
India,Punjab,Ludhiana,"Punjab Agricultural University, Ludhiana - PPCB",22-11-2025 07:00:00,30.9028,75.8086,PM2.5,79,155,102
India,Punjab,Ludhiana,"Punjab Agricultural University, Ludhiana - PPCB",22-11-2025 07:00:00,30.9028,75.8086,SO2,13,43,27
India,Punjab,Ludhiana,"Punjab Agricultural University, Ludhiana - PPCB",22-11-2025 07:00:00,30.9028,75.8086,CO,33,102,74
India,Punjab,Mandi Gobindgarh,"RIMT University, Mandi Gobindgarh - PPCB",22-11-2025 07:00:00,30.649961,76.331442,PM10,117,163,137
India,Odisha,Rourkela,"Fertilizer Township, Rourkela - OSPCB",22-11-2025 07:00:00,22.18972222,84.86277778,PM2.5,83,152,101
India,Odisha,Rourkela,"Raghunathpali, Rourkela - OSPCB",22-11-2025 07:00:00,22.220833,84.809444,PM2.5,40,249,134
India,Odisha,Rourkela,"Sector-2, Rourkela - OSPCB",22-11-2025 07:00:00,22.24500000,84.88111111,CO,32,54,48
India,Odisha,Talcher,"Talcher Coalfields,Talcher - OSPCB",22-11-2025 07:00:00,20.9360711,85.1707021,PM10,80,297,143
India,Odisha,Talcher,"Talcher Coalfields,Talcher - OSPCB",22-11-2025 07:00:00,20.9360711,85.1707021,SO2,18,100,45
India,Odisha,Talcher,"Talcher Coalfields,Talcher - OSPCB",22-11-2025 07:00:00,20.9360711,85.1707021,OZONE,11,23,21
India,Odisha,Tensa,"Barsua Iron Ore Mines, Tensa - OSPCB",22-11-2025 07:00:00,21.869985,85.167016,PM2.5,NA,NA,NA
India,Odisha,Tensa,"Barsua Iron Ore Mines, Tensa - OSPCB",22-11-2025 07:00:00,21.869985,85.167016,NH3,NA,NA,NA
India,Odisha,Tensa,"Barsua Iron Ore Mines, Tensa - OSPCB",22-11-2025 07:00:00,21.869985,85.167016,SO2,NA,NA,NA
India,Rajasthan,Jaipur,"Police Commissionerate, Jaipur - RSPCB",22-11-2025 07:00:00,26.9164092,75.7994901,NO2,7,161,81
India,Rajasthan,Jaipur,"Police Commissionerate, Jaipur - RSPCB",22-11-2025 07:00:00,26.9164092,75.7994901,NH3,7,58,20
India,Rajasthan,Jaipur,"RIICO Sitapura, Jaipur - RSPCB",22-11-2025 07:00:00,26.786682,75.827928,NO2,19,215,99
India,Rajasthan,Jaipur,"RIICO Sitapura, Jaipur - RSPCB",22-11-2025 07:00:00,26.786682,75.827928,NH3,3,37,16
India,Rajasthan,Jaipur,"Sector-2 Murlipura, Jaipur - RSPCB",22-11-2025 07:00:00,26.960669,75.771817,NO2,23,180,95
India,Rajasthan,Jaipur,"Sector-2 Murlipura, Jaipur - RSPCB",22-11-2025 07:00:00,26.960669,75.771817,NH3,2,37,17
India,Rajasthan,Jaipur,"Shastri Nagar, Jaipur - RSPCB",22-11-2025 07:00:00,26.9502929,75.730943,PM2.5,288,353,319
India,Rajasthan,Jaipur,"Shastri Nagar, Jaipur - RSPCB",22-11-2025 07:00:00,26.9502929,75.730943,OZONE,13,94,14
India,Rajasthan,Bhiwadi,"RIICO Ind. Area III, Bhiwadi - RSPCB",22-11-2025 07:00:00,28.194909,76.862296,NH3,5,27,14
India,Rajasthan,Bhiwadi,"Vasundhara Nagar_UIT, Bhiwadi - RSPCB",22-11-2025 07:00:00,28.207266,76.829265,NO2,14,160,83
India,Rajasthan,Bikaner,"MM Ground, Bikaner - RSPCB",22-11-2025 07:00:00,28.018792,73.292658,NO2,14,127,53
India,Rajasthan,Bikaner,"MM Ground, Bikaner - RSPCB",22-11-2025 07:00:00,28.018792,73.292658,OZONE,10,129,75
India,Rajasthan,Chittorgarh,"Shastri Nagar, Chittorgarh - RSPCB",22-11-2025 07:00:00,24.892047,74.623527,PM2.5,98,309,192
India,Rajasthan,Chittorgarh,"Shastri Nagar, Chittorgarh - RSPCB",22-11-2025 07:00:00,24.892047,74.623527,NO2,18,135,59
India,Punjab,Mandi Gobindgarh,"RIMT University, Mandi Gobindgarh - PPCB",22-11-2025 07:00:00,30.649961,76.331442,NH3,6,6,6
India,Punjab,Mandi Gobindgarh,"RIMT University, Mandi Gobindgarh - PPCB",22-11-2025 07:00:00,30.649961,76.331442,OZONE,33,35,34
India,Rajasthan,Alwar,"Moti Doongri, Alwar - RSPCB",22-11-2025 07:00:00,27.554793,76.611536,PM10,71,141,105
India,Rajasthan,Banswara,"Rati Talai, Banswara - RSPCB",22-11-2025 07:00:00,23.555190,74.440010,NO2,14,125,46
India,Rajasthan,Banswara,"Rati Talai, Banswara - RSPCB",22-11-2025 07:00:00,23.555190,74.440010,SO2,4,37,13
India,Rajasthan,Baran,"Bamboliya, Baran - RSPCB",22-11-2025 07:00:00,25.106006,76.469948,NO2,16,50,30
India,Rajasthan,Barmer,"Railway Colony, Barmer - RSPCB",22-11-2025 07:00:00,25.747299,71.393989,NO2,8,122,33
India,Rajasthan,Barmer,"Railway Colony, Barmer - RSPCB",22-11-2025 07:00:00,25.747299,71.393989,CO,14,107,27
India,Rajasthan,Barmer,"Railway Colony, Barmer - RSPCB",22-11-2025 07:00:00,25.747299,71.393989,OZONE,8,106,57
India,Rajasthan,Bharatpur,"Krishna Nagar, Bharatpur - RSPCB",22-11-2025 07:00:00,27.215415,77.50873,NO2,23,99,58
India,Rajasthan,Bharatpur,"Krishna Nagar, Bharatpur - RSPCB",22-11-2025 07:00:00,27.215415,77.50873,CO,50,132,91
India,Rajasthan,Dungarpur,"Bhoiwada, Dungarpur - RSPCB",22-11-2025 07:00:00,23.837789,73.714926,NO2,14,83,30
India,Rajasthan,Dungarpur,"Bhoiwada, Dungarpur - RSPCB",22-11-2025 07:00:00,23.837789,73.714926,NH3,1,11,7
India,Rajasthan,Dungarpur,"Bhoiwada, Dungarpur - RSPCB",22-11-2025 07:00:00,23.837789,73.714926,CO,14,88,34
India,Rajasthan,Jaipur,"Adarsh Nagar, Jaipur - RSPCB",22-11-2025 07:00:00,26.902909,75.836858,NO2,27,127,76
India,Rajasthan,Jaipur,"Police Commissionerate, Jaipur - RSPCB",22-11-2025 07:00:00,26.9164092,75.7994901,PM2.5,196,329,277
India,Rajasthan,Churu,"Subash Chowk, Churu - RSPCB",22-11-2025 07:00:00,28.296139,74.961696,PM10,105,500,173
India,Rajasthan,Churu,"Subash Chowk, Churu - RSPCB",22-11-2025 07:00:00,28.296139,74.961696,NO2,10,140,52
India,Rajasthan,Churu,"Subash Chowk, Churu - RSPCB",22-11-2025 07:00:00,28.296139,74.961696,OZONE,5,170,29
India,Rajasthan,Dausa,"Khatikan Mohalla, Dausa - RSPCB",22-11-2025 07:00:00,26.895552,76.334753,OZONE,3,119,11
India,Rajasthan,Dungarpur,"Bhoiwada, Dungarpur - RSPCB",22-11-2025 07:00:00,23.837789,73.714926,PM2.5,137,312,239
India,Rajasthan,Jalore,"Mudtra Sili, Jalore - RSPCB",22-11-2025 07:00:00,25.344694,72.626208,SO2,2,8,5
India,Rajasthan,Jhalawar,"Rajlaxmi Nagar, Jhalawar - RSPCB",22-11-2025 07:00:00,24.588397,76.172782,NH3,4,7,5
India,Rajasthan,Jhunjhunu,"Indra Nagar, Jhunjhunu - RSPCB",22-11-2025 07:00:00,28.108988,75.386577,SO2,2,13,6
India,Rajasthan,Jhunjhunu,"Indra Nagar, Jhunjhunu - RSPCB",22-11-2025 07:00:00,28.108988,75.386577,CO,18,133,51
India,TamilNadu,Nagapattinam,"Velippalayam, Nagapattinam - TNPCB",22-11-2025 07:00:00,10.798548,79.838212,SO2,NA,NA,NA
India,TamilNadu,Ooty,"Bombay Castel, Ooty - TNPCB",22-11-2025 07:00:00,11.4068288,76.7138973,NO2,1,5,4
India,TamilNadu,Perundurai,"SIPCOT Industrial Park, Perundurai - TNPCB",22-11-2025 07:00:00,11.258242,77.552761,CO,16,20,18
India,TamilNadu,Perundurai,"SIPCOT Industrial Park, Perundurai - TNPCB",22-11-2025 07:00:00,11.258242,77.552761,OZONE,12,14,14
India,TamilNadu,Pudukottai,"SIPCOT Nathampannai, Pudukottai - TNPCB",22-11-2025 07:00:00,10.423417,78.784889,NH3,2,3,3
India,TamilNadu,Ramanathapuram,"Chalai Bazaar, Ramanathapuram - TNPCB",22-11-2025 07:00:00,9.36399,78.831977,SO2,NA,NA,NA
India,TamilNadu,Ramanathapuram,"Chalai Bazaar, Ramanathapuram - TNPCB",22-11-2025 07:00:00,9.36399,78.831977,CO,NA,NA,NA
India,TamilNadu,Salem,"Sona College of Technology, Salem - TNPCB",22-11-2025 07:00:00,11.679111,78.125052,PM2.5,13,170,47
India,TamilNadu,Salem,"Sona College of Technology, Salem - TNPCB",22-11-2025 07:00:00,11.679111,78.125052,SO2,18,19,18
India,Rajasthan,Sri Ganganagar,"Old City, Sri Ganganagar - RSPCB",22-11-2025 07:00:00,29.931624,73.864511,NO2,40,160,88
India,Rajasthan,Sri Ganganagar,"Old City, Sri Ganganagar - RSPCB",22-11-2025 07:00:00,29.931624,73.864511,SO2,2,11,5
India,Rajasthan,Tonk,"Shastri Nagar, Tonk - RSPCB",22-11-2025 07:00:00,26.159933,75.780517,PM10,165,500,297
India,Rajasthan,Tonk,"Shastri Nagar, Tonk - RSPCB",22-11-2025 07:00:00,26.159933,75.780517,SO2,1,2,1
India,Rajasthan,Tonk,"Shastri Nagar, Tonk - RSPCB",22-11-2025 07:00:00,26.159933,75.780517,CO,34,125,61
India,Rajasthan,Udaipur,"Ashok Nagar, Udaipur - RSPCB",22-11-2025 07:00:00,24.5886166,73.6321397,NH3,3,10,3
India,Rajasthan,Udaipur,"Ashok Nagar, Udaipur - RSPCB",22-11-2025 07:00:00,24.5886166,73.6321397,CO,8,159,19
India,Rajasthan,Udaipur,"Ashok Nagar, Udaipur - RSPCB",22-11-2025 07:00:00,24.5886166,73.6321397,OZONE,5,123,17
India,TamilNadu,Ariyalur,"Keelapalur, Ariyalur - TNPCB",22-11-2025 07:00:00,11.06825,79.07033,NO2,9,9,9
India,TamilNadu,Cuddalore,"Semmandalam, Cuddalore - TNPCB",22-11-2025 07:00:00,11.7637683,79.7499835,PM10,8,98,34
India,TamilNadu,Cuddalore,"Semmandalam, Cuddalore - TNPCB",22-11-2025 07:00:00,11.7637683,79.7499835,NO2,1,15,7
India,TamilNadu,Cuddalore,"Semmandalam, Cuddalore - TNPCB",22-11-2025 07:00:00,11.7637683,79.7499835,OZONE,1,2,2
India,TamilNadu,Gummidipoondi,"Anthoni Pillai Nagar, Gummidipoondi - TNPCB",22-11-2025 07:00:00,13.4127,80.1081,PM2.5,8,293,90
India,TamilNadu,Gummidipoondi,"Anthoni Pillai Nagar, Gummidipoondi - TNPCB",22-11-2025 07:00:00,13.4127,80.1081,NO2,2,16,8
India,TamilNadu,Madurai,"Uchapatti, Madurai - TNPCB",22-11-2025 07:00:00,9.865935,78.022669,NO2,16,16,16
India,TamilNadu,Madurai,"Uchapatti, Madurai - TNPCB",22-11-2025 07:00:00,9.865935,78.022669,NH3,4,4,4
India,TamilNadu,Madurai,"Uchapatti, Madurai - TNPCB",22-11-2025 07:00:00,9.865935,78.022669,CO,8,12,8
India,TamilNadu,Nagapattinam,"Velippalayam, Nagapattinam - TNPCB",22-11-2025 07:00:00,10.798548,79.838212,NH3,NA,NA,NA
India,TamilNadu,Chennai,"Alandur Bus Depot, Chennai - CPCB",22-11-2025 07:00:00,12.9099161,80.1076538,PM2.5,65,242,105
India,TamilNadu,Chennai,"Alandur Bus Depot, Chennai - CPCB",22-11-2025 07:00:00,12.9099161,80.1076538,PM10,57,134,79
India,TamilNadu,Chennai,"Alandur Bus Depot, Chennai - CPCB",22-11-2025 07:00:00,12.9099161,80.1076538,CO,22,36,31
India,TamilNadu,Chennai,"Arumbakkam, Chennai - TNPCB",22-11-2025 07:00:00,13.0664,80.2112 ,NO2,10,33,15
India,TamilNadu,Chennai,"Gandhi Nagar_Ennore, Chennai - TNPCB",22-11-2025 07:00:00,13.218341,80.32027,NH3,NA,NA,NA
India,TamilNadu,Chennai,"Kodungaiyur, Chennai - TNPCB",22-11-2025 07:00:00,13.1278,80.2642,PM2.5,3,67,24
India,TamilNadu,Chennai,"Kodungaiyur, Chennai - TNPCB",22-11-2025 07:00:00,13.1278,80.2642,NO2,7,20,12
India,TamilNadu,Chennai,"Manali Village, Chennai - TNPCB",22-11-2025 07:00:00,13.1662,80.2584,PM2.5,NA,NA,NA
India,Rajasthan,Rajsamand,"Dhoinda, Rajsamand - RSPCB",22-11-2025 07:00:00,25.036360,73.883502,PM2.5,82,338,169
India,Rajasthan,Sawai Madhopur,"Sahu Nagar, Sawai Madhopur - RSPCB",22-11-2025 07:00:00,26.031443,76.359327,SO2,2,8,4
India,Rajasthan,Sikar,"Radhakishan Pura, Sikar - RSPCB",22-11-2025 07:00:00,27.608912,75.153302,SO2,2,11,7
India,Rajasthan,Sikar,"Radhakishan Pura, Sikar - RSPCB",22-11-2025 07:00:00,27.608912,75.153302,OZONE,7,125,20
India,Rajasthan,Sirohi,"Vedhaynath Colony, Sirohi - RSPCB",22-11-2025 07:00:00,24.885261,72.857549,NO2,14,116,55
India,Rajasthan,Sirohi,"Vedhaynath Colony, Sirohi - RSPCB",22-11-2025 07:00:00,24.885261,72.857549,SO2,2,13,5
India,Rajasthan,Jodhpur,"Collectorate, Jodhpur - RSPCB",22-11-2025 07:00:00,26.268249,73.0193853,NO2,7,17,12
India,Rajasthan,Jodhpur,"Collectorate, Jodhpur - RSPCB",22-11-2025 07:00:00,26.268249,73.0193853,OZONE,2,100,6
India,Rajasthan,Jodhpur,"Digari Kalan, Jodhpur - RSPCB",22-11-2025 07:00:00,26.295810,73.082283,OZONE,2,186,7
India,Rajasthan,Jodhpur,"Jhalamand, Jodhpur - RSPCB",22-11-2025 07:00:00,26.215415,73.070156,PM10,74,256,146
India,Rajasthan,Jodhpur,"Mandor, Jodhpur - RSPCB",22-11-2025 07:00:00,26.358805,73.047444,PM10,73,167,119
India,Rajasthan,Jodhpur,"Samrat Ashok Udhyan, Jodhpur - RSPCB",22-11-2025 07:00:00,26.253384,72.976571,NH3,11,22,14
India,Rajasthan,Kota,"Dhanmandi, Kota - RSPCB",22-11-2025 07:00:00,25.164090,75.858137,NO2,27,140,68
India,Rajasthan,Pratapgarh,"Pragati Nagar, Pratapgarh - RSPCB",22-11-2025 07:00:00,24.041198,74.780702,CO,26,48,31
India,TamilNadu,Chennai,"Manali, Chennai - CPCB",22-11-2025 07:00:00,13.164544,80.26285,OZONE,10,11,10
India,Uttar_Pradesh,Ghaziabad,"Loni, Ghaziabad - UPPCB",22-11-2025 07:00:00,28.757294,77.278792,SO2,4,37,24
India,Uttar_Pradesh,Ghaziabad,"Loni, Ghaziabad - UPPCB",22-11-2025 07:00:00,28.757294,77.278792,CO,30,148,89
India,Uttar_Pradesh,Ghaziabad,"Loni, Ghaziabad - UPPCB",22-11-2025 07:00:00,28.757294,77.278792,OZONE,1,89,1
India,Uttar_Pradesh,Ghaziabad,"Sanjay Nagar, Ghaziabad - UPPCB",22-11-2025 07:00:00,28.685382,77.453839,NH3,7,12,9
India,Uttar_Pradesh,Ghaziabad,"Vasundhara, Ghaziabad - UPPCB",22-11-2025 07:00:00,28.6603346,77.3572563,PM10,209,493,363
India,Uttar_Pradesh,Ghaziabad,"Vasundhara, Ghaziabad - UPPCB",22-11-2025 07:00:00,28.6603346,77.3572563,SO2,8,18,13
India,Uttar_Pradesh,Ghaziabad,"Vasundhara, Ghaziabad - UPPCB",22-11-2025 07:00:00,28.6603346,77.3572563,CO,90,195,65
India,Uttar_Pradesh,Gorakhpur,"Madan Mohan Malaviya University of Technology, Gorakhpur - UPPCB",22-11-2025 07:00:00,26.730136,83.433859,NH3,1,1,1
India,Uttar_Pradesh,Gorakhpur,"Madan Mohan Malaviya University of Technology, Gorakhpur - UPPCB",22-11-2025 07:00:00,26.730136,83.433859,SO2,31,34,33
India,Uttar_Pradesh,Bulandshahr,"Yamunapuram, Bulandshahr - UPPCB",22-11-2025 07:00:00,28.406963,77.849831,NH3,13,27,18
India,Uttar_Pradesh,Firozabad,"Nagla Bhau, Firozabad - UPPCB",22-11-2025 07:00:00,27.168897,78.376960,CO,4,24,9
India,Uttar_Pradesh,Firozabad,"Nagla Bhau, Firozabad - UPPCB",22-11-2025 07:00:00,27.168897,78.376960,OZONE,2,10,2
India,Uttar_Pradesh,Firozabad,"Vibhab Nagar, Firozabad - UPPCB",22-11-2025 07:00:00,27.1594,78.3953,PM2.5,66,322,191
India,Uttar_Pradesh,Firozabad,"Vibhab Nagar, Firozabad - UPPCB",22-11-2025 07:00:00,27.1594,78.3953,SO2,25,31,28
India,Uttar_Pradesh,Ghaziabad,"Indirapuram, Ghaziabad - UPPCB",22-11-2025 07:00:00,28.646233,77.358075,NH3,13,18,16
India,Uttar_Pradesh,Ghaziabad,"Loni, Ghaziabad - UPPCB",22-11-2025 07:00:00,28.757294,77.278792,NO2,51,245,125
India,Uttar_Pradesh,Ghaziabad,"Loni, Ghaziabad - UPPCB",22-11-2025 07:00:00,28.757294,77.278792,NH3,4,21,10
India,Telangana,Hyderabad,"IITH Kandi, Hyderabad - TSPCB",22-11-2025 07:00:00,17.585705,78.126199,OZONE,16,30,17
India,Telangana,Hyderabad,"Kokapet, Hyderabad - TSPCB",22-11-2025 07:00:00,17.393559,78.339194,PM2.5,43,51,47
India,Telangana,Hyderabad,"Kokapet, Hyderabad - TSPCB",22-11-2025 07:00:00,17.393559,78.339194,NO2,10,14,11
India,Telangana,Hyderabad,"Kokapet, Hyderabad - TSPCB",22-11-2025 07:00:00,17.393559,78.339194,CO,22,37,22
India,Telangana,Hyderabad,"Nacharam_TSIIC IALA, Hyderabad - TSPCB",22-11-2025 07:00:00,17.429398,78.569354,NO2,10,19,13
India,Telangana,Hyderabad,"Nacharam_TSIIC IALA, Hyderabad - TSPCB",22-11-2025 07:00:00,17.429398,78.569354,CO,35,55,40
India,Telangana,Hyderabad,"Nacharam_TSIIC IALA, Hyderabad - TSPCB",22-11-2025 07:00:00,17.429398,78.569354,OZONE,18,30,18
India,Telangana,Hyderabad,"New Malakpet, Hyderabad - TSPCB",22-11-2025 07:00:00,17.37206,78.50864,NO2,11,14,12
India,Telangana,Hyderabad,"New Malakpet, Hyderabad - TSPCB",22-11-2025 07:00:00,17.37206,78.50864,CO,27,42,28
India,Uttar_Pradesh,Greater Noida,"Knowledge Park - V, Greater Noida - UPPCB",22-11-2025 07:00:00,28.557054,77.453663,PM10,183,500,378
India,Uttar_Pradesh,Greater Noida,"Knowledge Park - V, Greater Noida - UPPCB",22-11-2025 07:00:00,28.557054,77.453663,OZONE,4,313,5
India,Uttar_Pradesh,Jhansi,"Shivaji Nagar, Jhansi - UPPCB",22-11-2025 07:00:00,25.4547,78.6039,PM10,47,108,69
India,Uttar_Pradesh,Jhansi,"Shivaji Nagar, Jhansi - UPPCB",22-11-2025 07:00:00,25.4547,78.6039,NH3,4,4,4
India,Uttar_Pradesh,Kanpur,"FTI Kidwai Nagar, Kanpur - UPPCB",22-11-2025 07:00:00,26.428282,80.327067,NO2,25,25,25
India,Telangana,Hyderabad,"Ramachandrapuram, Hyderabad - TSPCB",22-11-2025 07:00:00,17.528544,78.286195,NO2,9,11,10
India,Telangana,Hyderabad,"Ramachandrapuram, Hyderabad - TSPCB",22-11-2025 07:00:00,17.528544,78.286195,SO2,11,19,15
India,Telangana,Hyderabad,"Somajiguda, Hyderabad - TSPCB",22-11-2025 07:00:00,17.417094,78.457437,OZONE,1,34,6
India,Tripura,Agartala,"Bardowali, Agartala - Tripura SPCB",22-11-2025 07:00:00,23.8175497,91.2726974,PM10,NA,NA,NA
India,Tripura,Agartala,"Bardowali, Agartala - Tripura SPCB",22-11-2025 07:00:00,23.8175497,91.2726974,SO2,27,28,28
India,Uttar_Pradesh,Agra,"Shastripuram, Agra - UPPCB",22-11-2025 07:00:00,27.19862,77.92066,NO2,40,42,41
India,Uttar_Pradesh,Agra,"Shastripuram, Agra - UPPCB",22-11-2025 07:00:00,27.19862,77.92066,SO2,14,25,18
India,Uttar_Pradesh,Baghpat,"Sardar Patel Inter College, Baghpat - UPPCB",22-11-2025 07:00:00,28.964949,77.278761,PM10,172,407,290
India,Uttar_Pradesh,Bareilly,"Rajendra Nagar, Bareilly - UPPCB",22-11-2025 07:00:00,28.38910936,79.42963708,CO,30,76,58
India,TamilNadu,Thanjavur,"Parisutham Nagar, Thanjavur - TNPCB",22-11-2025 07:00:00,10.7654824,79.1389968,NO2,3,4,3
India,Telangana,Hyderabad,"Bollaram Industrial Area, Hyderabad - TSPCB",22-11-2025 07:00:00,17.540891,78.358528,PM10,32,96,61
India,Telangana,Hyderabad,"Bollaram Industrial Area, Hyderabad - TSPCB",22-11-2025 07:00:00,17.540891,78.358528,CO,20,44,29
India,Telangana,Hyderabad,"ECIL Kapra, Hyderabad - TSPCB",22-11-2025 07:00:00,17.470431,78.566959,SO2,5,22,14
India,Telangana,Hyderabad,"ICRISAT Patancheru, Hyderabad - TSPCB",22-11-2025 07:00:00,17.518400,78.278777,PM10,44,155,94
India,Telangana,Hyderabad,"IDA Pashamylaram, Hyderabad - TSPCB",22-11-2025 07:00:00,17.5316895,78.218939,SO2,NA,NA,NA
India,Uttar_Pradesh,Agra,"Rohta, Agra - UPPCB",22-11-2025 07:00:00,27.106972,78.000111,NH3,7,7,7
India,Uttar_Pradesh,Agra,"Rohta, Agra - UPPCB",22-11-2025 07:00:00,27.106972,78.000111,SO2,18,37,27
India,Uttar_Pradesh,Agra,"Sanjay Palace, Agra - UPPCB",22-11-2025 07:00:00,27.19865833,78.00598056,SO2,15,17,16
India,Uttar_Pradesh,Prayagraj,"Nagar Nigam, Prayagraj - UPPCB",22-11-2025 07:00:00,25.44919916 ,81.82735986 ,CO,34,111,89
India,Uttar_Pradesh,Varanasi,"Ardhali Bazar, Varanasi - UPPCB",22-11-2025 07:00:00,25.3505986,82.9083074,PM10,82,187,140
India,Uttar_Pradesh,Varanasi,"Ardhali Bazar, Varanasi - UPPCB",22-11-2025 07:00:00,25.3505986,82.9083074,SO2,9,12,10
India,Uttar_Pradesh,Varanasi,"Ardhali Bazar, Varanasi - UPPCB",22-11-2025 07:00:00,25.3505986,82.9083074,CO,10,32,19
India,Uttar_Pradesh,Varanasi,"IESD Banaras Hindu University, Varanasi - UPPCB",22-11-2025 07:00:00,25.262326,82.995408,PM2.5,59,272,132
India,Uttar_Pradesh,Varanasi,"IESD Banaras Hindu University, Varanasi - UPPCB",22-11-2025 07:00:00,25.262326,82.995408,NO2,2,3,2
India,Uttar_Pradesh,Varanasi,"IESD Banaras Hindu University, Varanasi - UPPCB",22-11-2025 07:00:00,25.262326,82.995408,SO2,28,35,30
India,Uttar_Pradesh,Varanasi,"Maldahiya, Varanasi - UPPCB",22-11-2025 07:00:00,25.32393,82.99687,PM2.5,61,244,117
India,Uttar_Pradesh,Noida,"Sector-1, Noida - UPPCB",22-11-2025 07:00:00,28.5898,77.3101,NO2,47,231,145
India,Uttar_Pradesh,Noida,"Sector-1, Noida - UPPCB",22-11-2025 07:00:00,28.5898,77.3101,CO,20,144,132
India,Uttar_Pradesh,Noida,"Sector-116, Noida - UPPCB",22-11-2025 07:00:00,28.569230,77.393848,PM2.5,NA,NA,NA
India,Uttar_Pradesh,Noida,"Sector-116, Noida - UPPCB",22-11-2025 07:00:00,28.569230,77.393848,NO2,NA,NA,NA
India,Uttar_Pradesh,Prayagraj,"Jhunsi, Prayagraj - UPPCB",22-11-2025 07:00:00,25.425602,81.917152,NO2,6,6,6
India,Uttar_Pradesh,Prayagraj,"Jhunsi, Prayagraj - UPPCB",22-11-2025 07:00:00,25.425602,81.917152,NH3,5,5,5
India,Uttar_Pradesh,Prayagraj,"Nagar Nigam, Prayagraj - UPPCB",22-11-2025 07:00:00,25.44919916 ,81.82735986 ,NO2,5,5,5
India,Uttar_Pradesh,Moradabad,"Transport Nagar, Moradabad - UPPCB",22-11-2025 07:00:00,28.802625,78.753728,NH3,5,6,6
India,Uttar_Pradesh,Moradabad,"Transport Nagar, Moradabad - UPPCB",22-11-2025 07:00:00,28.802625,78.753728,OZONE,25,57,27
India,Uttar_Pradesh,Muzaffarnagar,"New Mandi, Muzaffarnagar - UPPCB",22-11-2025 07:00:00,29.4723508,77.7194031,PM10,166,415,267
India,Uttar_Pradesh,Noida,"Sector - 125, Noida - UPPCB",22-11-2025 07:00:00,28.5447608,77.3231257,PM2.5,336,500,434
India,Uttar_Pradesh,Noida,"Sector - 125, Noida - UPPCB",22-11-2025 07:00:00,28.5447608,77.3231257,NH3,16,32,23
India,Uttar_Pradesh,Lucknow,"Talkatora District Industries Center, Lucknow - CPCB",22-11-2025 07:00:00,26.83399722,80.8917361,NO2,44,54,48
India,Uttar_Pradesh,Lucknow,"Talkatora District Industries Center, Lucknow - CPCB",22-11-2025 07:00:00,26.83399722,80.8917361,CO,12,59,26
India,Uttar_Pradesh,Meerut,"Pallavpuram Phase 2, Meerut - UPPCB",22-11-2025 07:00:00,29.063510,77.709723,PM2.5,307,451,382
India,Uttar_Pradesh,Meerut,"Pallavpuram Phase 2, Meerut - UPPCB",22-11-2025 07:00:00,29.063510,77.709723,NH3,8,9,8
India,Uttar_Pradesh,Vrindavan,"Omex Eternity, Vrindavan - UPPCB",22-11-2025 07:00:00,27.5714090,77.6557570,PM10,78,305,174
India,Uttar_Pradesh,Vrindavan,"Omex Eternity, Vrindavan - UPPCB",22-11-2025 07:00:00,27.5714090,77.6557570,SO2,12,18,13
India,West_Bengal,Asansol,"Asansol Court Area, Asansol - WBPCB",22-11-2025 07:00:00,23.685297,86.945968,PM2.5,103,251,176
India,West_Bengal,Asansol,"Asansol Court Area, Asansol - WBPCB",22-11-2025 07:00:00,23.685297,86.945968,NH3,2,9,5
India,Uttar_Pradesh,Lucknow,"Gomti Nagar, Lucknow - UPPCB",22-11-2025 07:00:00,26.868120,81.005119,PM2.5,60,316,179
India,Uttar_Pradesh,Lucknow,"Gomti Nagar, Lucknow - UPPCB",22-11-2025 07:00:00,26.868120,81.005119,PM10,53,162,109
India,Uttar_Pradesh,Lucknow,"Gomti Nagar, Lucknow - UPPCB",22-11-2025 07:00:00,26.868120,81.005119,NO2,7,9,8
India,Uttar_Pradesh,Lucknow,"Lalbagh, Lucknow - CPCB",22-11-2025 07:00:00,26.8458805,80.9365541,PM2.5,37,330,214
India,Uttar_Pradesh,Moradabad,"Buddhi Vihar, Moradabad - UPPCB",22-11-2025 07:00:00,28.83526,78.74460,SO2,77,92,81
India,Uttar_Pradesh,Moradabad,"Buddhi Vihar, Moradabad - UPPCB",22-11-2025 07:00:00,28.83526,78.74460,CO,47,84,73
India,Uttar_Pradesh,Moradabad,"Kashiram Nagar, Moradabad - UPPCB",22-11-2025 07:00:00,28.849399,78.742362,PM10,77,196,129
India,Uttar_Pradesh,Moradabad,"Kashiram Nagar, Moradabad - UPPCB",22-11-2025 07:00:00,28.849399,78.742362,NO2,25,25,25
India,Uttar_Pradesh,Kanpur,"NSI Kalyanpur, Kanpur - UPPCB",22-11-2025 07:00:00,26.509954,80.249612,NO2,22,23,22
India,Uttar_Pradesh,Khurja,"Kalindi Kunj, Khurja - UPPCB",22-11-2025 07:00:00,28.2348927,77.8683002,CO,NA,NA,NA
India,Uttar_Pradesh,Lucknow,"B R Ambedkar University, Lucknow - UPPCB",22-11-2025 07:00:00,26.766433,80.927299,CO,56,61,60
India,Uttar_Pradesh,Noida,"Sector - 62, Noida - IMD",22-11-2025 07:00:00,28.6245479,77.3577104,NO2,2,138,44
India,West_Bengal,Asansol,"Evelyn Lodge, Asansol - WBPCB",22-11-2025 07:00:00,23.6979360,86.9443950,NH3,3,3,3
India,West_Bengal,Asansol,"Trivenidevi Bhalotia College, Asansol - WBPCB",22-11-2025 07:00:00,23.616515,87.119133,SO2,3,9,6
India,West_Bengal,Asansol,"Trivenidevi Bhalotia College, Asansol - WBPCB",22-11-2025 07:00:00,23.616515,87.119133,OZONE,9,81,14
India,West_Bengal,Barrackpore,"SVSPA Campus, Barrackpore - WBPCB",22-11-2025 07:00:00,22.7605581,88.3617589,PM2.5,83,314,198
India,West_Bengal,Barrackpore,"SVSPA Campus, Barrackpore - WBPCB",22-11-2025 07:00:00,22.7605581,88.3617589,NH3,4,8,6
India,West_Bengal,Barrackpore,"SVSPA Campus, Barrackpore - WBPCB",22-11-2025 07:00:00,22.7605581,88.3617589,SO2,9,10,10
India,West_Bengal,Durgapur,"Mahishkapur Road_B-Zone, Durgapur - WBPCB",22-11-2025 07:00:00,23.567923,87.306843,NH3,2,2,2
India,West_Bengal,Durgapur,"Mahishkapur Road_B-Zone, Durgapur - WBPCB",22-11-2025 07:00:00,23.567923,87.306843,OZONE,16,97,23
India,West_Bengal,Durgapur,"Womens College_City Center, Durgapur - WBPCB (Formerly known as Sidhu Kanhu Indoor Stadium)",22-11-2025 07:00:00,23.549395,87.300496,OZONE,9,53,9
India,West_Bengal,Haldia,"Priyambada Housing Estate, Haldia - WBPCB",22-11-2025 07:00:00,22.06047,88.109737,NO2,12,57,27
India,West_Bengal,Howrah,"Botanical Garden, Howrah - WBPCB",22-11-2025 07:00:00,22.554954,88.292568,PM2.5,44,266,148
India,West_Bengal,Howrah,"Botanical Garden, Howrah - WBPCB",22-11-2025 07:00:00,22.554954,88.292568,PM10,57,161,114
India,West_Bengal,Howrah,"Botanical Garden, Howrah - WBPCB",22-11-2025 07:00:00,22.554954,88.292568,CO,14,89,78
India,West_Bengal,Howrah,"Botanical Garden, Howrah - WBPCB",22-11-2025 07:00:00,22.554954,88.292568,OZONE,4,26,4
India,West_Bengal,Howrah,"Ghusuri, Howrah - WBPCB",22-11-2025 07:00:00,22.611968,88.347422,PM10,8,477,261
India,West_Bengal,Howrah,"Ghusuri, Howrah - WBPCB",22-11-2025 07:00:00,22.611968,88.347422,NH3,7,15,11
India,West_Bengal,Howrah,"Padmapukur, Howrah - WBPCB",22-11-2025 07:00:00,22.5687319,88.2797276,NH3,3,11,7
India,West_Bengal,Howrah,"Padmapukur, Howrah - WBPCB",22-11-2025 07:00:00,22.5687319,88.2797276,OZONE,3,113,4
India,West_Bengal,Kolkata,"Ballygunge, Kolkata - WBPCB",22-11-2025 07:00:00,22.5367507,88.3638022,PM2.5,90,363,212
India,West_Bengal,Kolkata,"Ballygunge, Kolkata - WBPCB",22-11-2025 07:00:00,22.5367507,88.3638022,NH3,7,13,9
India,West_Bengal,Kolkata,"Jadavpur, Kolkata - WBPCB",22-11-2025 07:00:00,22.49929,88.36917,NH3,5,11,8
India,West_Bengal,Kolkata,"Rabindra Bharati University, Kolkata - WBPCB",22-11-2025 07:00:00,22.627847,88.380669,OZONE,6,97,7
India,West_Bengal,Kolkata,"Rabindra Sarobar, Kolkata - WBPCB",22-11-2025 07:00:00,22.51106,88.35142,NH3,8,21,14
India,West_Bengal,Kolkata,"Victoria, Kolkata - WBPCB",22-11-2025 07:00:00,22.5448082,88.3403691,PM10,99,452,178
India,West_Bengal,Siliguri,"Ward-32 Bapupara, Siliguri - WBPCB",22-11-2025 07:00:00,26.6879226,88.4152495,SO2,13,20,16
India,West_Bengal,Siliguri,"Ward-32 Bapupara, Siliguri - WBPCB",22-11-2025 07:00:00,26.6879226,88.4152495,CO,20,92,46
India,Andhra_Pradesh,Amaravati,"Secretariat, Amaravati - APPCB",22-11-2025 07:00:00,16.5150833,80.5181667,NO2,14,32,22
India,Andhra_Pradesh,Amaravati,"Secretariat, Amaravati - APPCB",22-11-2025 07:00:00,16.5150833,80.5181667,SO2,5,9,7
India,Andhra_Pradesh,Anantapur,"Gulzarpet, Anantapur - APPCB",22-11-2025 07:00:00,14.675886,77.593027,NO2,20,23,21
India,Andhra_Pradesh,Anantapur,"Gulzarpet, Anantapur - APPCB",22-11-2025 07:00:00,14.675886,77.593027,CO,17,54,21
India,Andhra_Pradesh,Chittoor,"Gangineni Cheruvu, Chittoor - APPCB",22-11-2025 07:00:00,13.204880,79.097889,PM10,14,183,46
India,Andhra_Pradesh,Kadapa,"Yerramukkapalli, Kadapa - APPCB",22-11-2025 07:00:00,14.465052,78.824187,SO2,14,18,15
India,Andhra_Pradesh,Rajamahendravaram,"Anand Kala Kshetram, Rajamahendravaram - APPCB",22-11-2025 07:00:00,16.9872867,81.7363176,CO,20,36,25
India,Bihar,Arrah,"New DM Office, Arrah - BSPCB",22-11-2025 07:00:00,25.5626095,84.663264,CO,38,65,54
India,Bihar,Aurangabad,"Gurdeo Nagar, Aurangabad - BSPCB",22-11-2025 07:00:00,24.75746,84.366208,SO2,7,13,10
India,Bihar,Aurangabad,"Gurdeo Nagar, Aurangabad - BSPCB",22-11-2025 07:00:00,24.75746,84.366208,OZONE,2,31,7
India,Bihar,Begusarai,"Lohiyanagar, Begusarai - BSPCB",22-11-2025 07:00:00,25.42742023,86.13886079,NO2,17,24,20
India,Bihar,Begusarai,"Lohiyanagar, Begusarai - BSPCB",22-11-2025 07:00:00,25.42742023,86.13886079,NH3,4,5,5
India,Bihar,Bettiah,"Kamalnath Nagar, Bettiah - BSPCB",22-11-2025 07:00:00,26.80365,84.51954,PM10,25,133,76
India,Bihar,Bettiah,"Kamalnath Nagar, Bettiah - BSPCB",22-11-2025 07:00:00,26.80365,84.51954,NO2,6,12,8
India,Bihar,Bettiah,"Kamalnath Nagar, Bettiah - BSPCB",22-11-2025 07:00:00,26.80365,84.51954,OZONE,22,23,22
India,Bihar,Bhagalpur,"DM Office_Kachari Chowk, Bhagalpur - BSPCB",22-11-2025 07:00:00,25.251013,86.989001,SO2,31,52,41
India,Bihar,Bhagalpur,"DM Office_Kachari Chowk, Bhagalpur - BSPCB",22-11-2025 07:00:00,25.251013,86.989001,CO,12,16,14
India,Bihar,Bhagalpur,"DM Office_Kachari Chowk, Bhagalpur - BSPCB",22-11-2025 07:00:00,25.251013,86.989001,OZONE,9,18,15
India,Bihar,Bhagalpur,"Mayaganj, Bhagalpur - BSPCB",22-11-2025 07:00:00,25.265194,87.012947,CO,66,112,89
India,Bihar,Bihar Sharif,"D M Colony, Bihar Sharif - BSPCB",22-11-2025 07:00:00,25.204762,85.514960,CO,18,48,41
India,Bihar,Buxar,"Charitra Van, Buxar - BSPCB",22-11-2025 07:00:00,25.567520,83.966379,PM10,NA,NA,NA
India,Bihar,Kishanganj,"SDM Office_Khagra, Kishanganj - BSPCB",22-11-2025 07:00:00,26.0881305,87.93840336,NO2,9,13,11
India,Bihar,Kishanganj,"SDM Office_Khagra, Kishanganj - BSPCB",22-11-2025 07:00:00,26.0881305,87.93840336,CO,16,24,19
India,Bihar,Manguraha,"Forest Rest House, Manguraha - BSPCB",22-11-2025 07:00:00,27.308328,84.531742,PM10,18,149,68
India,Bihar,Manguraha,"Forest Rest House, Manguraha - BSPCB",22-11-2025 07:00:00,27.308328,84.531742,NH3,1,2,1
India,Bihar,Munger,"Town Hall, Munger - BSPCB",22-11-2025 07:00:00,25.376776,86.471523,NH3,4,7,6
India,Assam,Guwahati,"LGBI Airport, Guwahati - PCBA",22-11-2025 07:00:00,26.10887,91.589544,SO2,1,13,10
India,Assam,Nagaon,"Christianpatty, Nagaon - PCBA",22-11-2025 07:00:00,26.349082,92.68449,NO2,1,1,1
India,Assam,Nagaon,"Christianpatty, Nagaon - PCBA",22-11-2025 07:00:00,26.349082,92.68449,SO2,12,14,13
India,Assam,Nalbari,"Bata Chowk, Nalbari - PCBA",22-11-2025 07:00:00,26.446912,91.439057,PM2.5,23,301,101
India,Assam,Nalbari,"Bata Chowk, Nalbari - PCBA",22-11-2025 07:00:00,26.446912,91.439057,CO,20,22,21
India,Bihar,Gaya,"Collectorate, Gaya - BSPCB",22-11-2025 07:00:00,24.7955,84.9994,OZONE,19,21,20
India,Bihar,Gaya,"Kareemganj, Gaya - BSPCB",22-11-2025 07:00:00,24.792403,84.992416,CO,33,44,39
India,Bihar,Gaya,"SFTI Kusdihra, Gaya - BSPCB",22-11-2025 07:00:00,24.762518,84.982348,SO2,8,9,8
India,Bihar,Hajipur,"Industrial Area, Hajipur - BSPCB",22-11-2025 07:00:00,25.697189,85.245900,NO2,21,45,35
India,Andhra_Pradesh,Visakhapatnam,"GVM Corporation, Visakhapatnam - APPCB",22-11-2025 07:00:00,17.72,83.3,CO,4,20,10
India,Assam,Guwahati,"LGBI Airport, Guwahati - PCBA",22-11-2025 07:00:00,26.10887,91.589544,PM2.5,28,73,60
India,Assam,Guwahati,"LGBI Airport, Guwahati - PCBA",22-11-2025 07:00:00,26.10887,91.589544,NO2,13,210,27
India,Assam,Silchar,"Tarapur, Silchar - PCBA",22-11-2025 07:00:00,24.82827,92.79525,SO2,3,5,4
India,Assam,Sivasagar,"Girls College, Sivasagar - PCBA",22-11-2025 07:00:00,26.987634,94.636574,NH3,5,12,9
India,Assam,Sivasagar,"Girls College, Sivasagar - PCBA",22-11-2025 07:00:00,26.987634,94.636574,CO,10,47,33
India,Andaman and Nicobar,Sri Vijaya Puram,"Police Line, Sri Vijaya Puram - ANPCC",22-11-2025 07:00:00,11.654054,92.734055,PM2.5,1,27,7
India,Andhra_Pradesh,Tirumala,"Toll Gate, Tirumala - APPCB",22-11-2025 07:00:00,13.67,79.35,PM2.5,7,18,13
India,Chhattisgarh,Bhilai,"Hathkhoj, Bhilai - CECB",22-11-2025 07:00:00,21.224231,81.408350,CO,18,82,46
India,Chhattisgarh,Bilaspur,"Mangala, Bilaspur - NTPC",22-11-2025 07:00:00,22.08815,82.13737,NO2,19,142,30
India,Chhattisgarh,Chhal,"Nawapara SECL Colony, Chhal - CECB",22-11-2025 07:00:00,22.118125,83.140608,SO2,1,58,19
India,Chhattisgarh,Chhal,"Nawapara SECL Colony, Chhal - CECB",22-11-2025 07:00:00,22.118125,83.140608,CO,27,56,37
India,Chhattisgarh,Chhal,"Nawapara SECL Colony, Chhal - CECB",22-11-2025 07:00:00,22.118125,83.140608,OZONE,4,166,6
India,Chhattisgarh,Korba,"Rampur, Korba - CECB",22-11-2025 07:00:00,22.368195,82.746431,NO2,10,31,18
India,Chhattisgarh,Korba,"Rampur, Korba - CECB",22-11-2025 07:00:00,22.368195,82.746431,NH3,2,2,2
India,Chhattisgarh,Korba,"Urja Nagar, Korba - CECB",22-11-2025 07:00:00,22.348441,82.549611,PM2.5,54,72,55
India,Chhattisgarh,Korba,"Urja Nagar, Korba - CECB",22-11-2025 07:00:00,22.348441,82.549611,NO2,41,54,47
India,Chhattisgarh,Korba,"Urja Nagar, Korba - CECB",22-11-2025 07:00:00,22.348441,82.549611,NH3,1,2,2
India,Chhattisgarh,Korba,"Urja Nagar, Korba - CECB",22-11-2025 07:00:00,22.348441,82.549611,SO2,8,21,15
India,Chhattisgarh,Korba,"Urja Nagar, Korba - CECB",22-11-2025 07:00:00,22.348441,82.549611,OZONE,35,37,35
India,Chhattisgarh,Kunjemura,"OP Jindal School, Kunjemura - CECB",22-11-2025 07:00:00,22.126650,83.483212,PM10,39,167,75
India,Bihar,Purnia,"Mariam Nagar, Purnia - BSPCB",22-11-2025 07:00:00,25.366336,87.117468,PM2.5,17,87,59
India,Bihar,Purnia,"Mariam Nagar, Purnia - BSPCB",22-11-2025 07:00:00,25.366336,87.117468,PM10,14,76,52
India,Bihar,Rajgir,"Dangi Tola, Rajgir - BSPCB",22-11-2025 07:00:00,25.03280,85.41948,PM2.5,67,243,120
India,Bihar,Rajgir,"Dangi Tola, Rajgir - BSPCB",22-11-2025 07:00:00,25.03280,85.41948,NO2,8,10,9
India,Bihar,Saharsa,"Police Line, Saharsa - BSPCB",22-11-2025 07:00:00,25.892357,86.590325,OZONE,2,33,13
India,Bihar,Samastipur,"DM Office_Kasipur, Samastipur - BSPCB",22-11-2025 07:00:00,25.859655,85.77944,PM10,13,61,42
India,Bihar,Samastipur,"DM Office_Kasipur, Samastipur - BSPCB",22-11-2025 07:00:00,25.859655,85.77944,SO2,19,29,24
India,Bihar,Samastipur,"DM Office_Kasipur, Samastipur - BSPCB",22-11-2025 07:00:00,25.859655,85.77944,OZONE,8,9,8
India,Bihar,Sasaram,"Dada Peer, Sasaram - BSPCB",22-11-2025 07:00:00,24.952822,84.002396,PM2.5,49,146,70
India,Bihar,Siwan,"Chitragupta Nagar, Siwan - BSPCB",22-11-2025 07:00:00,26.2271665,84.3570427,CO,50,106,102
India,Chandigarh,Chandigarh,"Sector 22, Chandigarh - CPCC",22-11-2025 07:00:00,30.735567,76.775714,NO2,33,194,85
India,Chandigarh,Chandigarh,"Sector 22, Chandigarh - CPCC",22-11-2025 07:00:00,30.735567,76.775714,NH3,12,24,20
India,Chandigarh,Chandigarh,"Sector 22, Chandigarh - CPCC",22-11-2025 07:00:00,30.735567,76.775714,CO,51,120,74
India,Chandigarh,Chandigarh,"Sector 22, Chandigarh - CPCC",22-11-2025 07:00:00,30.735567,76.775714,OZONE,4,158,17
India,Chandigarh,Chandigarh,"Sector-25, Chandigarh - CPCC",22-11-2025 07:00:00,30.751462,76.762879,NO2,15,48,29
India,Bihar,Patna,"Govt. High School Shikarpur, Patna - BSPCB",22-11-2025 07:00:00,25.592539,85.227158,OZONE,8,12,10
India,Bihar,Patna,"IGSC Planetarium Complex, Patna - BSPCB",22-11-2025 07:00:00,25.610369,85.132568,CO,34,66,45
India,Bihar,Patna,"Muradpur, Patna - BSPCB",22-11-2025 07:00:00,25.619651,85.147382,PM10,56,157,112
India,Bihar,Patna,"Rajbansi Nagar, Patna - BSPCB",22-11-2025 07:00:00,25.599486,85.113666,NO2,77,149,110
India,Bihar,Patna,"Rajbansi Nagar, Patna - BSPCB",22-11-2025 07:00:00,25.599486,85.113666,OZONE,6,30,24
India,Bihar,Patna,"Samanpura, Patna - BSPCB",22-11-2025 07:00:00,25.596727,85.085624,NH3,6,7,6
India,Bihar,Patna,"Samanpura, Patna - BSPCB",22-11-2025 07:00:00,25.596727,85.085624,SO2,2,2,2
India,Bihar,Muzaffarpur,"MIT-Daudpur Kothi, Muzaffarpur - BSPCB",22-11-2025 07:00:00,26.1403345,85.3650192,SO2,8,11,10
India,Bihar,Muzaffarpur,"MIT-Daudpur Kothi, Muzaffarpur - BSPCB",22-11-2025 07:00:00,26.1403345,85.3650192,OZONE,51,57,53
India,Bihar,Patna,"DRM Office Danapur, Patna - BSPCB",22-11-2025 07:00:00,25.586562,85.043586,PM10,79,185,138
India,Bihar,Patna,"DRM Office Danapur, Patna - BSPCB",22-11-2025 07:00:00,25.586562,85.043586,CO,14,125,52
India,Bihar,Patna,"DRM Office Danapur, Patna - BSPCB",22-11-2025 07:00:00,25.586562,85.043586,OZONE,7,104,7
India,Bihar,Patna,"Govt. High School Shikarpur, Patna - BSPCB",22-11-2025 07:00:00,25.592539,85.227158,PM10,78,141,112
India,Chhattisgarh,Raipur,"Krishak Nagar, Raipur - CECB",22-11-2025 07:00:00,21.237755,81.705301,OZONE,NA,NA,NA
India,Chhattisgarh,Raipur,"Siltara Phase-II, Raipur - CECB",22-11-2025 07:00:00,21.371751,81.664929,PM10,32,149,100
India,Chhattisgarh,Tumidih,"OP Jindal Industrial Park, Tumidih - CECB",22-11-2025 07:00:00,22.06631475,83.33820077,OZONE,3,102,5
India,Delhi,Delhi,"Alipur, Delhi - DPCC",22-11-2025 07:00:00,28.815329,77.153010,PM10,195,432,322
India,Delhi,Delhi,"Alipur, Delhi - DPCC",22-11-2025 07:00:00,28.815329,77.153010,NH3,12,22,20
India,Chandigarh,Chandigarh,"Sector-53, Chandigarh - CPCC",22-11-2025 07:00:00,30.719859,76.738637,NO2,82,115,99
India,Chandigarh,Chandigarh,"Sector-53, Chandigarh - CPCC",22-11-2025 07:00:00,30.719859,76.738637,SO2,6,10,8
India,Chhattisgarh,Bhilai,"32Bungalows, Bhilai - CECB",22-11-2025 07:00:00,21.194815,81.314770,PM2.5,22,61,42
India,Chhattisgarh,Bhilai,"32Bungalows, Bhilai - CECB",22-11-2025 07:00:00,21.194815,81.314770,PM10,47,103,70
India,Chhattisgarh,Bhilai,"Civic Center, Bhilai - Bhilai Steel Plant",22-11-2025 07:00:00,21.185571,81.343175,NH3,3,3,3
India,Chhattisgarh,Bhilai,"Civic Center, Bhilai - Bhilai Steel Plant",22-11-2025 07:00:00,21.185571,81.343175,SO2,6,9,8
India,Chhattisgarh,Milupara,"Govt. Higher Secondary School, Milupara - CECB",22-11-2025 07:00:00,22.1910172,83.5197009,PM10,60,128,90
India,Chhattisgarh,Raipur,"AIIMS, Raipur - CECB",22-11-2025 07:00:00,21.258815,81.578979,PM10,22,114,57
India,Chhattisgarh,Raipur,"AIIMS, Raipur - CECB",22-11-2025 07:00:00,21.258815,81.578979,SO2,5,8,6
India,Chhattisgarh,Raipur,"Bhatagaon New ISBT, Raipur - CECB",22-11-2025 07:00:00,21.219665,81.630094,PM2.5,19,95,58
India,Chhattisgarh,Raipur,"Krishak Nagar, Raipur - CECB",22-11-2025 07:00:00,21.237755,81.705301,PM2.5,12,34,23
India,Delhi,Delhi,"Ashok Vihar, Delhi - DPCC",22-11-2025 07:00:00,28.695381,77.181665,PM10,183,478,358
India,Delhi,Delhi,"Aya Nagar, Delhi - IMD",22-11-2025 07:00:00,28.4706914,77.1099364,NO2,19,86,46
India,Delhi,Delhi,"Aya Nagar, Delhi - IMD",22-11-2025 07:00:00,28.4706914,77.1099364,OZONE,7,169,13
India,Delhi,Delhi,"Bawana, Delhi - DPCC",22-11-2025 07:00:00,28.776200,77.051074,PM10,179,500,380
India,Delhi,Delhi,"Vivek Vihar, Delhi - DPCC",22-11-2025 07:00:00,28.672342,77.315260,SO2,7,26,13
India,Delhi,Delhi,"Wazirpur, Delhi - DPCC",22-11-2025 07:00:00,28.699793,77.165453,SO2,2,18,8
India,Gujarat,Ahmedabad,"Chandkheda, Ahmedabad - IITM",22-11-2025 07:00:00,23.107969,72.574648,NO2,48,329,172
India,Gujarat,Ahmedabad,"Chandkheda, Ahmedabad - IITM",22-11-2025 07:00:00,23.107969,72.574648,NH3,1,5,3
India,Gujarat,Ahmedabad,"Chandkheda, Ahmedabad - IITM",22-11-2025 07:00:00,23.107969,72.574648,SO2,8,28,15
India,Gujarat,Ahmedabad,"Chandkheda, Ahmedabad - IITM",22-11-2025 07:00:00,23.107969,72.574648,OZONE,23,114,49
India,Gujarat,Ahmedabad,"Gyaspur, Ahmedabad - IITM",22-11-2025 07:00:00,22.977134,72.553024,PM2.5,130,303,214
India,Gujarat,Ahmedabad,"Gyaspur, Ahmedabad - IITM",22-11-2025 07:00:00,22.977134,72.553024,SO2,2,85,32
India,Gujarat,Ahmedabad,"Maninagar, Ahmedabad - GPCB",22-11-2025 07:00:00,23.002657,72.591912,PM10,67,192,119
India,Gujarat,Ahmedabad,"Maninagar, Ahmedabad - GPCB",22-11-2025 07:00:00,23.002657,72.591912,SO2,33,50,42
India,Delhi,Delhi,"Shadipur, Delhi - CPCB",22-11-2025 07:00:00,28.6514781,77.1473105,SO2,1,35,18
India,Delhi,Delhi,"Shadipur, Delhi - CPCB",22-11-2025 07:00:00,28.6514781,77.1473105,OZONE,11,49,13
India,Delhi,Delhi,"Sonia Vihar, Delhi - DPCC",22-11-2025 07:00:00,28.710508,77.249485,PM10,135,435,271
India,Delhi,Delhi,"Sonia Vihar, Delhi - DPCC",22-11-2025 07:00:00,28.710508,77.249485,NH3,6,9,7
India,Delhi,Delhi,"Sri Aurobindo Marg, Delhi - DPCC",22-11-2025 07:00:00,28.531346,77.190156,PM2.5,183,355,301
India,Delhi,Delhi,"Sri Aurobindo Marg, Delhi - DPCC",22-11-2025 07:00:00,28.531346,77.190156,NO2,12,42,23
India,Delhi,Delhi,"Sri Aurobindo Marg, Delhi - DPCC",22-11-2025 07:00:00,28.531346,77.190156,SO2,5,15,10
India,Delhi,Delhi,"Sri Aurobindo Marg, Delhi - DPCC",22-11-2025 07:00:00,28.531346,77.190156,CO,42,118,106
India,Delhi,Delhi,"Vivek Vihar, Delhi - DPCC",22-11-2025 07:00:00,28.672342,77.315260,NO2,28,319,89
India,Delhi,Delhi,"Punjabi Bagh, Delhi - DPCC",22-11-2025 07:00:00,28.674045,77.131023,CO,36,138,104
India,Delhi,Delhi,"Pusa, Delhi - DPCC",22-11-2025 07:00:00,28.639652,77.146275,PM10,167,405,203
India,Delhi,Delhi,"Pusa, Delhi - DPCC",22-11-2025 07:00:00,28.639652,77.146275,SO2,2,14,5
India,Delhi,Delhi,"Pusa, Delhi - DPCC",22-11-2025 07:00:00,28.639652,77.146275,OZONE,1,2,1
India,Delhi,Delhi,"Pusa, Delhi - IMD",22-11-2025 07:00:00,28.636110,77.173332,PM10,153,279,201
India,Delhi,Delhi,"R K Puram, Delhi - DPCC",22-11-2025 07:00:00,28.563262,77.186937,PM10,155,434,272
India,Delhi,Delhi,"R K Puram, Delhi - DPCC",22-11-2025 07:00:00,28.563262,77.186937,NH3,6,9,7
India,Delhi,Delhi,"R K Puram, Delhi - DPCC",22-11-2025 07:00:00,28.563262,77.186937,SO2,5,30,18
India,Delhi,Delhi,"Rohini, Delhi - DPCC",22-11-2025 07:00:00,28.732528,77.119920,NO2,32,218,82
India,Delhi,Delhi,"Mandir Marg, Delhi - DPCC",22-11-2025 07:00:00,28.636429,77.201067,OZONE,9,98,12
India,Delhi,Delhi,"Mundka, Delhi - DPCC",22-11-2025 07:00:00,28.684678,77.076574,PM10,129,500,302
India,Delhi,Delhi,"NSIT Dwarka, Delhi - CPCB",22-11-2025 07:00:00,28.60909,77.0325413,NO2,64,104,85
India,Delhi,Delhi,"NSIT Dwarka, Delhi - CPCB",22-11-2025 07:00:00,28.60909,77.0325413,SO2,15,21,18
India,Delhi,Delhi,"Najafgarh, Delhi - DPCC",22-11-2025 07:00:00,28.570173,76.933762,NH3,8,10,9
India,Delhi,Delhi,"Najafgarh, Delhi - DPCC",22-11-2025 07:00:00,28.570173,76.933762,SO2,11,29,19
India,Delhi,Delhi,"Narela, Delhi - DPCC",22-11-2025 07:00:00,28.822836,77.101981,NO2,35,154,86
India,Delhi,Delhi,"Narela, Delhi - DPCC",22-11-2025 07:00:00,28.822836,77.101981,SO2,3,25,13
India,Delhi,Delhi,"Nehru Nagar, Delhi - DPCC",22-11-2025 07:00:00,28.567890,77.250515,PM2.5,297,500,402
India,Delhi,Delhi,"Nehru Nagar, Delhi - DPCC",22-11-2025 07:00:00,28.567890,77.250515,PM10,163,500,321
India,Delhi,Delhi,"Nehru Nagar, Delhi - DPCC",22-11-2025 07:00:00,28.567890,77.250515,NO2,22,128,60
India,Delhi,Delhi,"Nehru Nagar, Delhi - DPCC",22-11-2025 07:00:00,28.567890,77.250515,SO2,15,66,40
India,Delhi,Delhi,"North Campus, DU, Delhi - IMD",22-11-2025 07:00:00,28.6573814,77.1585447,NO2,57,280,149
India,Delhi,Delhi,"Okhla Phase-2, Delhi - DPCC",22-11-2025 07:00:00,28.530785,77.271255,OZONE,7,229,10
India,Delhi,Delhi,"Patparganj, Delhi - DPCC",22-11-2025 07:00:00,28.623763,77.287209,CO,2,176,137
India,Delhi,Delhi,"Patparganj, Delhi - DPCC",22-11-2025 07:00:00,28.623763,77.287209,OZONE,3,303,4
India,Delhi,Delhi,"Jawaharlal Nehru Stadium, Delhi - DPCC",22-11-2025 07:00:00,28.580280,77.233829,SO2,10,40,22
India,Delhi,Delhi,"Jawaharlal Nehru Stadium, Delhi - DPCC",22-11-2025 07:00:00,28.580280,77.233829,CO,46,150,142
India,Delhi,Delhi,"Lodhi Road, Delhi - IITM",22-11-2025 07:00:00,28.588333,77.221667,PM10,40,216,167
India,Delhi,Delhi,"Lodhi Road, Delhi - IITM",22-11-2025 07:00:00,28.588333,77.221667,NO2,19,194,60
India,Delhi,Delhi,"Lodhi Road, Delhi - IITM",22-11-2025 07:00:00,28.588333,77.221667,SO2,9,22,15
India,Delhi,Delhi,"Major Dhyan Chand National Stadium, Delhi - DPCC",22-11-2025 07:00:00,28.611281,77.237738,PM10,152,411,257
India,Delhi,Delhi,"Major Dhyan Chand National Stadium, Delhi - DPCC",22-11-2025 07:00:00,28.611281,77.237738,NO2,27,187,99
India,Delhi,Delhi,"Major Dhyan Chand National Stadium, Delhi - DPCC",22-11-2025 07:00:00,28.611281,77.237738,CO,15,144,135
India,Delhi,Delhi,"Dwarka-Sector 8, Delhi - DPCC ",22-11-2025 07:00:00,28.5710274,77.0719006,OZONE,4,168,6
India,Delhi,Delhi,"IGI Airport (T3), Delhi - IMD",22-11-2025 07:00:00,28.5627763,77.1180053,PM2.5,193,360,289
India,Delhi,Delhi,"IGI Airport (T3), Delhi - IMD",22-11-2025 07:00:00,28.5627763,77.1180053,PM10,173,411,296
India,Delhi,Delhi,"IGI Airport (T3), Delhi - IMD",22-11-2025 07:00:00,28.5627763,77.1180053,NO2,104,337,229
India,Delhi,Delhi,"IHBAS, Dilshad Garden, Delhi - CPCB",22-11-2025 07:00:00,28.6811736,77.3025234,CO,47,99,68
India,Delhi,Delhi,"ITO, Delhi - CPCB",22-11-2025 07:00:00,28.628624,77.241060,NO2,29,261,156
India,Delhi,Delhi,"ITO, Delhi - CPCB",22-11-2025 07:00:00,28.628624,77.241060,OZONE,10,91,11
India,Delhi,Delhi,"Chandni Chowk, Delhi - IITM",22-11-2025 07:00:00,28.656756,77.227234,PM10,165,454,328
India,Delhi,Delhi,"DTU, Delhi - CPCB",22-11-2025 07:00:00,28.7500499,77.1112615,PM2.5,260,500,402
India,Delhi,Delhi,"DTU, Delhi - CPCB",22-11-2025 07:00:00,28.7500499,77.1112615,NO2,47,94,61
India,Delhi,Delhi,"DTU, Delhi - CPCB",22-11-2025 07:00:00,28.7500499,77.1112615,NH3,9,13,11
India,Delhi,Delhi,"Dwarka-Sector 8, Delhi - DPCC ",22-11-2025 07:00:00,28.5710274,77.0719006,SO2,3,27,18
India,Delhi,Delhi,"Jahangirpuri, Delhi - DPCC",22-11-2025 07:00:00,28.732820,77.170633,PM10,178,500,379
India,Delhi,Delhi,"Jahangirpuri, Delhi - DPCC",22-11-2025 07:00:00,28.732820,77.170633,CO,40,171,121
India,Haryana,Fatehabad,"Huda Sector, Fatehabad - HSPCB",22-11-2025 07:00:00,29.503664,75.467934,OZONE,17,27,24
India,Haryana,Gurugram,"NISE Gwal Pahari, Gurugram - IMD",22-11-2025 07:00:00,28.422681,77.148944,PM2.5,243,368,312
India,Haryana,Gurugram,"NISE Gwal Pahari, Gurugram - IMD",22-11-2025 07:00:00,28.422681,77.148944,NO2,8,32,13
India,Haryana,Gurugram,"Sector-51, Gurugram - HSPCB",22-11-2025 07:00:00,28.4227,77.0667,PM2.5,201,500,323
India,Haryana,Gurugram,"Sector-51, Gurugram - HSPCB",22-11-2025 07:00:00,28.4227,77.0667,NH3,6,9,8
India,Haryana,Gurugram,"Sector-51, Gurugram - HSPCB",22-11-2025 07:00:00,28.4227,77.0667,CO,22,44,38
India,Haryana,Gurugram,"Teri Gram, Gurugram - HSPCB",22-11-2025 07:00:00,28.4275,77.1465,PM2.5,30,332,212
India,Haryana,Gurugram,"Teri Gram, Gurugram - HSPCB",22-11-2025 07:00:00,28.4275,77.1465,CO,20,74,24
India,Haryana,Gurugram,"Vikas Sadan, Gurugram - HSPCB",22-11-2025 07:00:00,28.4501238,77.0263051,PM2.5,155,351,279
India,Haryana,Gurugram,"Vikas Sadan, Gurugram - HSPCB",22-11-2025 07:00:00,28.4501238,77.0263051,CO,103,143,121
India,Haryana,Gurugram,"Vikas Sadan, Gurugram - HSPCB",22-11-2025 07:00:00,28.4501238,77.0263051,OZONE,8,55,17
India,Haryana,Hisar,"Urban Estate-II, Hisar - HSPCB",22-11-2025 07:00:00,29.140560,75.744941,PM10,138,272,205
India,Haryana,Bahadurgarh,"Arya Nagar, Bahadurgarh - HSPCB",22-11-2025 07:00:00,28.6701,76.9254,PM10,133,500,286
India,Haryana,Bahadurgarh,"Arya Nagar, Bahadurgarh - HSPCB",22-11-2025 07:00:00,28.6701,76.9254,SO2,7,7,7
India,Haryana,Ballabgarh,"Nathu Colony, Ballabgarh - HSPCB",22-11-2025 07:00:00,28.3419248,77.319699,NH3,3,3,3
India,Haryana,Charkhi Dadri,"Mini Secretariat, Charkhi Dadri - HSPCB",22-11-2025 07:00:00,28.593883,76.270653,PM2.5,NA,NA,NA
India,Haryana,Charkhi Dadri,"Mini Secretariat, Charkhi Dadri - HSPCB",22-11-2025 07:00:00,28.593883,76.270653,NO2,9,24,15
India,Haryana,Charkhi Dadri,"Mini Secretariat, Charkhi Dadri - HSPCB",22-11-2025 07:00:00,28.593883,76.270653,NH3,5,8,6
India,Haryana,Charkhi Dadri,"Mini Secretariat, Charkhi Dadri - HSPCB",22-11-2025 07:00:00,28.593883,76.270653,SO2,9,11,10
India,Haryana,Charkhi Dadri,"Mini Secretariat, Charkhi Dadri - HSPCB",22-11-2025 07:00:00,28.593883,76.270653,CO,7,25,15
India,Haryana,Dharuhera,"Municipal Corporation Office, Dharuhera -  HSPCB",22-11-2025 07:00:00,28.206800,76.799700,PM10,103,500,229
India,Haryana,Hisar,"Urban Estate-II, Hisar - HSPCB",22-11-2025 07:00:00,29.140560,75.744941,NH3,4,5,5
India,Haryana,Jind,"Police Lines, Jind - HSPCB",22-11-2025 07:00:00,29.307814,76.337619,PM10,108,180,150
India,Haryana,Kaithal,"Rishi Nagar, Kaithal - HSPCB",22-11-2025 07:00:00,29.8006,76.4155,PM2.5,170,341,290
India,Haryana,Karnal,"Sector-12, Karnal - HSPCB",22-11-2025 07:00:00,29.695300,77.002700,NH3,4,7,7
India,Haryana,Karnal,"Sector-12, Karnal - HSPCB",22-11-2025 07:00:00,29.695300,77.002700,SO2,5,125,42
India,Haryana,Karnal,"Sector-12, Karnal - HSPCB",22-11-2025 07:00:00,29.695300,77.002700,OZONE,41,41,41
India,Haryana,Kurukshetra,"Sector-7, Kurukshetra - HSPCB",22-11-2025 07:00:00,29.966942,76.875879,PM10,140,280,200
India,Haryana,Kurukshetra,"Sector-7, Kurukshetra - HSPCB",22-11-2025 07:00:00,29.966942,76.875879,NH3,5,5,5
India,Haryana,Dharuhera,"Municipal Corporation Office, Dharuhera -  HSPCB",22-11-2025 07:00:00,28.206800,76.799700,SO2,1,1,1
India,Haryana,Dharuhera,"Municipal Corporation Office, Dharuhera -  HSPCB",22-11-2025 07:00:00,28.206800,76.799700,CO,68,94,86
India,Haryana,Faridabad,"New Industrial Town, Faridabad - HSPCB",22-11-2025 07:00:00,28.39072,77.30059,NO2,24,27,25
India,Haryana,Faridabad,"New Industrial Town, Faridabad - HSPCB",22-11-2025 07:00:00,28.39072,77.30059,OZONE,26,35,30
India,Haryana,Faridabad,"Sector 11, Faridabad - HSPCB",22-11-2025 07:00:00,28.376058,77.315741,PM10,77,190,133
India,Haryana,Fatehabad,"Huda Sector, Fatehabad - HSPCB",22-11-2025 07:00:00,29.503664,75.467934,PM2.5,70,127,96
India,Haryana,Fatehabad,"Huda Sector, Fatehabad - HSPCB",22-11-2025 07:00:00,29.503664,75.467934,NH3,13,15,14
India,Haryana,Mandikhera,"General Hospital, Mandikhera - HSPCB",22-11-2025 07:00:00,27.9002,76.9938,SO2,32,37,34
India,Haryana,Mandikhera,"General Hospital, Mandikhera - HSPCB",22-11-2025 07:00:00,27.9002,76.9938,OZONE,25,31,27
India,Haryana,Manesar,"Sector-2 IMT, Manesar - HSPCB",22-11-2025 07:00:00,28.360699,76.936090,PM10,66,418,185
India,Haryana,Manesar,"Sector-2 IMT, Manesar - HSPCB",22-11-2025 07:00:00,28.360699,76.936090,SO2,6,38,12
India,Haryana,Narnaul,"Shastri Nagar, Narnaul - HSPCB",22-11-2025 07:00:00,28.060249,76.113115,CO,26,46,35
India,Haryana,Palwal,"Shyam Nagar, Palwal - HSPCB",22-11-2025 07:00:00,28.1485564,77.3320667,PM10,72,161,116
India,Haryana,Palwal,"Shyam Nagar, Palwal - HSPCB",22-11-2025 07:00:00,28.1485564,77.3320667,CO,22,66,44
India,Gujarat,Ahmedabad,"SAC ISRO Satellite, Ahmedabad - IITM",22-11-2025 07:00:00,23.023389,72.515201,OZONE,1,68,5
India,Gujarat,Ahmedabad,"SVPI Airport Hansol, Ahmedabad - IITM",22-11-2025 07:00:00,23.076793,72.627874,SO2,10,15,12
India,Gujarat,Ankleshwar,"GIDC, Ankleshwar - GPCB",22-11-2025 07:00:00,21.613267,73.010555,NO2,18,24,22
India,Gujarat,Gandhinagar,"IIPHG Lekawada, Gandhinagar - IITM",22-11-2025 07:00:00,23.243639,72.68994,PM2.5,98,191,144
India,Gujarat,Gandhinagar,"IIPHG Lekawada, Gandhinagar - IITM",22-11-2025 07:00:00,23.243639,72.68994,NH3,2,3,3
India,Gujarat,Gandhinagar,"Sector-10, Gandhinagar - GPCB",22-11-2025 07:00:00,23.221714,72.654328,PM2.5,52,179,92
India,Haryana,Panchgaon,"Amity University, Panchgaon - IITM",22-11-2025 07:00:00,28.3153,76.9143,NH3,NA,NA,NA
India,Haryana,Panchgaon,"Amity University, Panchgaon - IITM",22-11-2025 07:00:00,28.3153,76.9143,CO,NA,NA,NA
India,Haryana,Panchkula,"Sector-6, Panchkula - HSPCB ",22-11-2025 07:00:00,30.7057778,76.8531805555555,OZONE,19,34,25
India,Haryana,Panipat,"Sector-18, Panipat - HSPCB",22-11-2025 07:00:00,29.432304,76.972765,NO2,31,32,31
India,Haryana,Rohtak,"MD University, Rohtak - HSPCB",22-11-2025 07:00:00,28.52123,76.37138,CO,60,69,62
India,Gujarat,Ahmedabad,"Maninagar, Ahmedabad - GPCB",22-11-2025 07:00:00,23.002657,72.591912,OZONE,5,69,16
India,Gujarat,Ahmedabad,"Rakhial, Ahmedabad - IITM",22-11-2025 07:00:00,23.016834,72.625775,NO2,13,73,35
India,Gujarat,Ahmedabad,"Rakhial, Ahmedabad - IITM",22-11-2025 07:00:00,23.016834,72.625775,NH3,2,8,4
India,Gujarat,Ahmedabad,"SAC ISRO Bopal, Ahmedabad - IITM",22-11-2025 07:00:00,23.041137,72.456691,SO2,20,37,25
India,Gujarat,Ahmedabad,"SAC ISRO Satellite, Ahmedabad - IITM",22-11-2025 07:00:00,23.023389,72.515201,PM2.5,84,229,130
India,Gujarat,Surat,"Science Center, Surat - SMC",22-11-2025 07:00:00,21.170046,72.795405,PM2.5,38,157,90
India,Gujarat,Vapi,"Phase-1 GIDC, Vapi - GPCB",22-11-2025 07:00:00,20.362421,72.918013,PM10,46,133,86
India,Gujarat,Vapi,"Phase-1 GIDC, Vapi - GPCB",22-11-2025 07:00:00,20.362421,72.918013,SO2,13,31,20
India,Haryana,Ambala,"Patti Mehar, Ambala - HSPCB",22-11-2025 07:00:00,30.379589,76.778328,SO2,31,32,31
India,Karnataka,Shivamogga,"Vinoba Nagara, Shivamogga - KSPCB",22-11-2025 07:00:00,13.940000,75.555917,NH3,3,4,3
India,Karnataka,Vijayapura,"Ibrahimpur, Vijayapura - KSPCB",22-11-2025 07:00:00,16.802639,75.722694,PM10,42,43,42
India,Karnataka,Yadgir,"Collector Office, Yadgir - KSPCB",22-11-2025 07:00:00,16.7602,77.1428,PM10,23,106,50
India,Karnataka,Yadgir,"Collector Office, Yadgir - KSPCB",22-11-2025 07:00:00,16.7602,77.1428,NH3,1,2,2
India,Karnataka,Yadgir,"Collector Office, Yadgir - KSPCB",22-11-2025 07:00:00,16.7602,77.1428,SO2,3,23,16
India,Kerala,Eloor,"Udyogamandal, Eloor - Kerala PCB",22-11-2025 07:00:00,10.073232,76.302765,PM10,43,72,57
India,Kerala,Eloor,"Udyogamandal, Eloor - Kerala PCB",22-11-2025 07:00:00,10.073232,76.302765,SO2,1,1,1
India,Kerala,Eloor,"Udyogamandal, Eloor - Kerala PCB",22-11-2025 07:00:00,10.073232,76.302765,CO,25,107,32
India,Kerala,Kannur,"Thavakkara, Kannur - Kerala PCB",22-11-2025 07:00:00,11.875000,75.373200,PM10,55,67,59
India,Kerala,Kannur,"Thavakkara, Kannur - Kerala PCB",22-11-2025 07:00:00,11.875000,75.373200,NH3,2,3,2
India,Karnataka,Dharwad,"Kalabhavan, Dharwad - KSPCB",22-11-2025 07:00:00,15.459706,75.008381,OZONE,21,29,23
India,Karnataka,Gadag,"Panchal Nagar, Gadag - KSPCB",22-11-2025 07:00:00,15.411456,75.638133,CO,10,20,17
India,Karnataka,Gadag,"Panchal Nagar, Gadag - KSPCB",22-11-2025 07:00:00,15.411456,75.638133,OZONE,3,42,23
India,Karnataka,Haveri,"Ashwini Nagar, Haveri - KSPCB",22-11-2025 07:00:00,14.791800,75.389600,PM2.5,NA,NA,NA
India,Karnataka,Haveri,"Ashwini Nagar, Haveri - KSPCB",22-11-2025 07:00:00,14.791800,75.389600,OZONE,15,15,15
India,Karnataka,Hubballi,"Lingaraj Nagar, Hubballi - KSPCB",22-11-2025 07:00:00,15.3714823,75.1160168,NH3,1,2,2
India,Karnataka,Hubballi,"Lingaraj Nagar, Hubballi - KSPCB",22-11-2025 07:00:00,15.3714823,75.1160168,OZONE,1,19,4
India,Karnataka,Kalaburagi,"Lal Bahadur Shastri Nagar, Kalaburagi - KSPCB",22-11-2025 07:00:00,17.321993,76.822628,NH3,1,1,1
India,Karnataka,Kalaburagi,"Lal Bahadur Shastri Nagar, Kalaburagi - KSPCB",22-11-2025 07:00:00,17.321993,76.822628,SO2,47,62,56
India,Jammu_and_Kashmir,Srinagar,"Rajbagh, Srinagar - JKSPCB",22-11-2025 07:00:00,34.066206,74.819820,CO,8,20,14
India,Karnataka,Bagalkot,"Vidayagiri, Bagalkot - KSPCB",22-11-2025 07:00:00,16.172806,75.659694,OZONE,12,16,16
India,Karnataka,Belgaum,"Ramteerth Nagar, Belgaum - KSPCB",22-11-2025 07:00:00,15.888653,74.541751,NH3,8,10,9
India,Karnataka,Bengaluru,"BTM Layout, Bengaluru - CPCB",22-11-2025 07:00:00,12.9135218,77.5950804,PM10,NA,NA,NA
India,Karnataka,Bengaluru,"BTM Layout, Bengaluru - CPCB",22-11-2025 07:00:00,12.9135218,77.5950804,NO2,NA,NA,NA
India,Karnataka,Bengaluru,"BWSSB Kadabesanahalli, Bengaluru - CPCB",22-11-2025 07:00:00,12.9352049,77.6814488,NH3,1,5,2
India,Karnataka,Bengaluru,"Jigani, Bengaluru - KSPCB",22-11-2025 07:00:00,12.7816279,77.6299145,SO2,18,19,18
India,Karnataka,Bengaluru,"Peenya, Bengaluru - CPCB",22-11-2025 07:00:00,13.0270199,77.494094,NH3,6,8,6
India,Karnataka,Bengaluru,"Peenya, Bengaluru - CPCB",22-11-2025 07:00:00,13.0270199,77.494094,SO2,5,14,9
India,Karnataka,Bengaluru,"Peenya, Bengaluru - CPCB",22-11-2025 07:00:00,13.0270199,77.494094,OZONE,22,22,22
India,Karnataka,Bengaluru,"Sanegurava Halli, Bengaluru - KSPCB",22-11-2025 07:00:00,12.990328,77.5431385,NO2,NA,NA,NA
India,Karnataka,Bengaluru,"Sanegurava Halli, Bengaluru - KSPCB",22-11-2025 07:00:00,12.990328,77.5431385,CO,NA,NA,NA
India,Karnataka,Bengaluru,"Silk Board, Bengaluru - KSPCB",22-11-2025 07:00:00,12.917348,77.622813,NO2,10,14,11
India,Karnataka,Bengaluru,"Silk Board, Bengaluru - KSPCB",22-11-2025 07:00:00,12.917348,77.622813,NH3,2,2,2
India,Kerala,Kannur,"Thavakkara, Kannur - Kerala PCB",22-11-2025 07:00:00,11.875000,75.373200,OZONE,28,33,28
India,Kerala,Kollam,"Polayathode, Kollam - Kerala PCB",22-11-2025 07:00:00,8.8787,76.6073,NO2,NA,NA,NA
India,Kerala,Kollam,"Polayathode, Kollam - Kerala PCB",22-11-2025 07:00:00,8.8787,76.6073,NH3,NA,NA,NA
India,Kerala,Kollam,"Polayathode, Kollam - Kerala PCB",22-11-2025 07:00:00,8.8787,76.6073,OZONE,NA,NA,NA
India,Kerala,Thiruvananthapuram,"Plammoodu, Thiruvananthapuram - Kerala PCB",22-11-2025 07:00:00,8.5149093,76.9435879,CO,9,50,12
India,Kerala,Thrissur,"Corporation Ground, Thrissur - Kerala PCB",22-11-2025 07:00:00,10.532400,76.215900,PM2.5,50,57,53
India,Kerala,Thrissur,"Corporation Ground, Thrissur - Kerala PCB",22-11-2025 07:00:00,10.532400,76.215900,OZONE,30,30,30
India,Haryana,Sonipat,"Murthal, Sonipat - HSPCB",22-11-2025 07:00:00,29.027200,77.062100,PM10,123,253,186
