country,state,city,station,last_update,latitude,longitude,pollutant_id,min_value,max_value,avg_value
India,Bihar,Gaya,"Kareemganj, Gaya - BSPCB",01-12-2025 08:00:00,24.792403,84.992416,PM2.5,40,270,124
India,Bihar,Gaya,"Kareemganj, Gaya - BSPCB",01-12-2025 08:00:00,24.792403,84.992416,PM10,93,296,170
India,Bihar,Gaya,"Kareemganj, Gaya - BSPCB",01-12-2025 08:00:00,24.792403,84.992416,NH3,4,6,5
India,Bihar,Gaya,"SFTI Kusdihra, Gaya - BSPCB",01-12-2025 08:00:00,24.762518,84.982348,PM2.5,30,41,35
India,Bihar,Gaya,"SFTI Kusdihra, Gaya - BSPCB",01-12-2025 08:00:00,24.762518,84.982348,SO2,8,11,9
India,Bihar,Hajipur,"Industrial Area, Hajipur - BSPCB",01-12-2025 08:00:00,25.697189,85.245900,PM2.5,90,313,198
India,Bihar,Hajipur,"Industrial Area, Hajipur - BSPCB",01-12-2025 08:00:00,25.697189,85.245900,SO2,3,5,4
India,Bihar,Hajipur,"Industrial Area, Hajipur - BSPCB",01-12-2025 08:00:00,25.697189,85.245900,OZONE,6,164,7
India,Bihar,Katihar,"Mirchaibari, Katihar - BSPCB",01-12-2025 08:00:00,25.560083,87.553265,PM2.5,57,247,110
India,Bihar,Katihar,"Mirchaibari, Katihar - BSPCB",01-12-2025 08:00:00,25.560083,87.553265,NH3,1,1,1
India,Bihar,Araria,"Kharahiya Basti, Araria - BSPCB",01-12-2025 08:00:00,26.146529,87.454184,SO2,14,23,17
India,Bihar,Araria,"Kharahiya Basti, Araria - BSPCB",01-12-2025 08:00:00,26.146529,87.454184,CO,23,36,32
India,Bihar,Araria,"Kharahiya Basti, Araria - BSPCB",01-12-2025 08:00:00,26.146529,87.454184,OZONE,9,11,10
India,Bihar,Arrah,"New DM Office, Arrah - BSPCB",01-12-2025 08:00:00,25.5626095,84.663264,NO2,5,9,7
India,Bihar,Arrah,"New DM Office, Arrah - BSPCB",01-12-2025 08:00:00,25.5626095,84.663264,CO,40,71,53
India,Bihar,Arrah,"New DM Office, Arrah - BSPCB",01-12-2025 08:00:00,25.5626095,84.663264,OZONE,7,8,8
India,Bihar,Begusarai,"Lohiyanagar, Begusarai - BSPCB",01-12-2025 08:00:00,25.42742023,86.13886079,NH3,2,2,2
India,Bihar,Bettiah,"Kamalnath Nagar, Bettiah - BSPCB",01-12-2025 08:00:00,26.80365,84.51954,NO2,NA,NA,NA
India,Assam,Guwahati,"Railway Colony, Guwahati - PCBA",01-12-2025 08:00:00,26.181742,91.78063,PM10,NA,NA,NA
India,Assam,Guwahati,"Railway Colony, Guwahati - PCBA",01-12-2025 08:00:00,26.181742,91.78063,SO2,NA,NA,NA
India,Assam,Nalbari,"Bata Chowk, Nalbari - PCBA",01-12-2025 08:00:00,26.446912,91.439057,NH3,4,6,6
India,Assam,Nalbari,"Bata Chowk, Nalbari - PCBA",01-12-2025 08:00:00,26.446912,91.439057,SO2,7,8,8
India,Assam,Silchar,"Tarapur, Silchar - PCBA",01-12-2025 08:00:00,24.82827,92.79525,NH3,1,1,1
India,Assam,Silchar,"Tarapur, Silchar - PCBA",01-12-2025 08:00:00,24.82827,92.79525,SO2,4,7,6
India,Assam,Sivasagar,"Girls College, Sivasagar - PCBA",01-12-2025 08:00:00,26.987634,94.636574,PM10,NA,NA,NA
India,Assam,Sivasagar,"Girls College, Sivasagar - PCBA",01-12-2025 08:00:00,26.987634,94.636574,NH3,NA,NA,NA
India,Assam,Sivasagar,"Girls College, Sivasagar - PCBA",01-12-2025 08:00:00,26.987634,94.636574,CO,NA,NA,NA
India,Andhra_Pradesh,Rajamahendravaram,"Anand Kala Kshetram, Rajamahendravaram - APPCB",01-12-2025 08:00:00,16.9872867,81.7363176,SO2,5,11,8
India,Andhra_Pradesh,Tirumala,"Toll Gate, Tirumala - APPCB",01-12-2025 08:00:00,13.67,79.35,PM2.5,7,30,14
India,Andhra_Pradesh,Tirupati,"Vaikuntapuram, Tirupati - APPCB",01-12-2025 08:00:00,13.615387,79.409230,NO2,NA,NA,NA
India,Andhra_Pradesh,Tirupati,"Vaikuntapuram, Tirupati - APPCB",01-12-2025 08:00:00,13.615387,79.409230,NH3,NA,NA,NA
India,Andhra_Pradesh,Vijayawada,"HB Colony, Vijayawada - APPCB",01-12-2025 08:00:00,16.536107,80.594233,PM10,42,58,47
India,Assam,Byrnihat,"Central Academy for SFS, Byrnihat - PCBA",01-12-2025 08:00:00,26.071318,91.87488,PM10,71,102,85
India,Assam,Guwahati,"IITG, Guwahati - PCBA",01-12-2025 08:00:00,26.2028636,91.70046436,NH3,5,5,5
India,Assam,Guwahati,"LGBI Airport, Guwahati - PCBA",01-12-2025 08:00:00,26.10887,91.589544,PM2.5,36,82,65
India,Assam,Guwahati,"LGBI Airport, Guwahati - PCBA",01-12-2025 08:00:00,26.10887,91.589544,PM10,38,89,71
India,Assam,Guwahati,"LGBI Airport, Guwahati - PCBA",01-12-2025 08:00:00,26.10887,91.589544,NO2,8,20,15
India,Assam,Guwahati,"LGBI Airport, Guwahati - PCBA",01-12-2025 08:00:00,26.10887,91.589544,CO,22,184,184
India,Andhra_Pradesh,Amaravati,"Secretariat, Amaravati - APPCB",01-12-2025 08:00:00,16.5150833,80.5181667,PM10,26,68,47
India,Andhra_Pradesh,Amaravati,"Secretariat, Amaravati - APPCB",01-12-2025 08:00:00,16.5150833,80.5181667,OZONE,16,33,27
India,Andhra_Pradesh,Anantapur,"Gulzarpet, Anantapur - APPCB",01-12-2025 08:00:00,14.675886,77.593027,NO2,20,20,20
India,Andhra_Pradesh,Chittoor,"Gangineni Cheruvu, Chittoor - APPCB",01-12-2025 08:00:00,13.204880,79.097889,PM10,NA,NA,NA
India,Andhra_Pradesh,Chittoor,"Gangineni Cheruvu, Chittoor - APPCB",01-12-2025 08:00:00,13.204880,79.097889,NH3,NA,NA,NA
India,Andhra_Pradesh,Chittoor,"Gangineni Cheruvu, Chittoor - APPCB",01-12-2025 08:00:00,13.204880,79.097889,CO,NA,NA,NA
India,Bihar,Katihar,"Mirchaibari, Katihar - BSPCB",01-12-2025 08:00:00,25.560083,87.553265,SO2,9,20,14
India,Bihar,Motihari,"Gandak Colony, Motihari - BSPCB",01-12-2025 08:00:00,26.63086,84.90051,PM10,56,133,103
India,Andhra_Pradesh,Vijayawada,"HB Colony, Vijayawada - APPCB",01-12-2025 08:00:00,16.536107,80.594233,OZONE,18,35,33
India,Arunachal_Pradesh,Naharlagun,"Naharlagun, Naharlagun - APSPCB",01-12-2025 08:00:00,27.103358,93.679645,CO,7,56,16
India,Bihar,Bihar Sharif,"D M Colony, Bihar Sharif - BSPCB",01-12-2025 08:00:00,25.204762,85.514960,PM10,43,125,81
India,Bihar,Patna,"Rajbansi Nagar, Patna - BSPCB",01-12-2025 08:00:00,25.599486,85.113666,OZONE,21,27,24
India,Bihar,Patna,"Samanpura, Patna - BSPCB",01-12-2025 08:00:00,25.596727,85.085624,PM2.5,92,268,189
India,Bihar,Patna,"Samanpura, Patna - BSPCB",01-12-2025 08:00:00,25.596727,85.085624,PM10,121,244,171
India,Bihar,Purnia,"Mariam Nagar, Purnia - BSPCB",01-12-2025 08:00:00,25.366336,87.117468,NH3,3,3,3
India,Bihar,Rajgir,"Dangi Tola, Rajgir - BSPCB",01-12-2025 08:00:00,25.03280,85.41948,PM2.5,43,100,78
India,Bihar,Rajgir,"Dangi Tola, Rajgir - BSPCB",01-12-2025 08:00:00,25.03280,85.41948,SO2,19,23,21
India,Bihar,Saharsa,"Police Line, Saharsa - BSPCB",01-12-2025 08:00:00,25.892357,86.590325,PM10,44,143,102
India,Bihar,Saharsa,"Police Line, Saharsa - BSPCB",01-12-2025 08:00:00,25.892357,86.590325,NO2,6,8,7
India,Bihar,Saharsa,"Police Line, Saharsa - BSPCB",01-12-2025 08:00:00,25.892357,86.590325,NH3,4,4,4
India,Chhattisgarh,Chhal,"Nawapara SECL Colony, Chhal - CECB",01-12-2025 08:00:00,22.118125,83.140608,NO2,6,29,15
India,Chhattisgarh,Korba,"Rampur, Korba - CECB",01-12-2025 08:00:00,22.368195,82.746431,CO,22,32,28
India,Chhattisgarh,Korba,"Urja Nagar, Korba - CECB",01-12-2025 08:00:00,22.348441,82.549611,PM10,92,93,93
India,Chhattisgarh,Kunjemura,"OP Jindal School, Kunjemura - CECB",01-12-2025 08:00:00,22.126650,83.483212,SO2,1,29,10
India,Chhattisgarh,Kunjemura,"OP Jindal School, Kunjemura - CECB",01-12-2025 08:00:00,22.126650,83.483212,CO,16,34,26
India,Chhattisgarh,Kunjemura,"OP Jindal School, Kunjemura - CECB",01-12-2025 08:00:00,22.126650,83.483212,OZONE,1,64,2
India,Chhattisgarh,Milupara,"Govt. Higher Secondary School, Milupara - CECB",01-12-2025 08:00:00,22.1910172,83.5197009,NO2,14,74,29
India,Chhattisgarh,Milupara,"Govt. Higher Secondary School, Milupara - CECB",01-12-2025 08:00:00,22.1910172,83.5197009,OZONE,6,128,14
India,Chhattisgarh,Raipur,"AIIMS, Raipur - CECB",01-12-2025 08:00:00,21.258815,81.578979,NO2,65,76,70
India,Chhattisgarh,Raipur,"AIIMS, Raipur - CECB",01-12-2025 08:00:00,21.258815,81.578979,NH3,1,1,1
India,Chhattisgarh,Raipur,"Bhatagaon New ISBT, Raipur - CECB",01-12-2025 08:00:00,21.219665,81.630094,PM10,43,103,66
India,Chhattisgarh,Raipur,"Bhatagaon New ISBT, Raipur - CECB",01-12-2025 08:00:00,21.219665,81.630094,OZONE,3,14,3
India,Chhattisgarh,Raipur,"Krishak Nagar, Raipur - CECB",01-12-2025 08:00:00,21.237755,81.705301,CO,25,42,33
India,Bihar,Munger,"Town Hall, Munger - BSPCB",01-12-2025 08:00:00,25.376776,86.471523,PM10,71,189,110
India,Bihar,Munger,"Town Hall, Munger - BSPCB",01-12-2025 08:00:00,25.376776,86.471523,SO2,NA,NA,NA
India,Bihar,Muzaffarpur,"MIT-Daudpur Kothi, Muzaffarpur - BSPCB",01-12-2025 08:00:00,26.1403345,85.3650192,PM2.5,83,95,87
India,Bihar,Muzaffarpur,"MIT-Daudpur Kothi, Muzaffarpur - BSPCB",01-12-2025 08:00:00,26.1403345,85.3650192,NO2,NA,NA,NA
India,Bihar,Muzaffarpur,"Muzaffarpur Collectorate, Muzaffarpur - BSPCB",01-12-2025 08:00:00,26.1209,85.3647,SO2,4,4,4
India,Bihar,Patna,"DRM Office Danapur, Patna - BSPCB",01-12-2025 08:00:00,25.586562,85.043586,PM2.5,NA,NA,NA
India,Delhi,Delhi,"Anand Vihar, Delhi - DPCC",01-12-2025 08:00:00,28.647622,77.3158090,PM10,141,441,296
India,Delhi,Delhi,"Anand Vihar, Delhi - DPCC",01-12-2025 08:00:00,28.647622,77.3158090,SO2,NA,NA,NA
India,Delhi,Delhi,"Ashok Vihar, Delhi - DPCC",01-12-2025 08:00:00,28.695381,77.181665,PM2.5,183,367,311
India,Delhi,Delhi,"Ashok Vihar, Delhi - DPCC",01-12-2025 08:00:00,28.695381,77.181665,SO2,20,39,31
India,Delhi,Delhi,"Bawana, Delhi - DPCC",01-12-2025 08:00:00,28.776200,77.051074,PM10,157,405,234
India,Delhi,Delhi,"Bawana, Delhi - DPCC",01-12-2025 08:00:00,28.776200,77.051074,SO2,8,29,15
India,Delhi,Delhi,"Bawana, Delhi - DPCC",01-12-2025 08:00:00,28.776200,77.051074,CO,55,103,77
India,Bihar,Patna,"Govt. High School Shikarpur, Patna - BSPCB",01-12-2025 08:00:00,25.592539,85.227158,PM2.5,58,73,66
India,Bihar,Patna,"Govt. High School Shikarpur, Patna - BSPCB",01-12-2025 08:00:00,25.592539,85.227158,PM10,65,88,76
India,Bihar,Patna,"Govt. High School Shikarpur, Patna - BSPCB",01-12-2025 08:00:00,25.592539,85.227158,NO2,14,39,25
India,Bihar,Patna,"Govt. High School Shikarpur, Patna - BSPCB",01-12-2025 08:00:00,25.592539,85.227158,OZONE,8,12,11
India,Bihar,Patna,"IGSC Planetarium Complex, Patna - BSPCB",01-12-2025 08:00:00,25.610369,85.132568,NO2,1,22,17
India,Bihar,Patna,"Rajbansi Nagar, Patna - BSPCB",01-12-2025 08:00:00,25.599486,85.113666,NO2,1,101,53
India,Chhattisgarh,Bhilai,"32Bungalows, Bhilai - CECB",01-12-2025 08:00:00,21.194815,81.314770,OZONE,3,89,11
India,Chhattisgarh,Bhilai,"Civic Center, Bhilai - Bhilai Steel Plant",01-12-2025 08:00:00,21.185571,81.343175,NH3,3,4,3
India,Chhattisgarh,Bhilai,"Civic Center, Bhilai - Bhilai Steel Plant",01-12-2025 08:00:00,21.185571,81.343175,OZONE,5,15,12
India,Chhattisgarh,Bilaspur,"Mangala, Bilaspur - NTPC",01-12-2025 08:00:00,22.08815,82.13737,SO2,9,35,15
India,Bihar,Saharsa,"Police Line, Saharsa - BSPCB",01-12-2025 08:00:00,25.892357,86.590325,OZONE,9,11,10
India,Bihar,Samastipur,"DM Office_Kasipur, Samastipur - BSPCB",01-12-2025 08:00:00,25.859655,85.77944,NO2,NA,NA,NA
India,Bihar,Samastipur,"DM Office_Kasipur, Samastipur - BSPCB",01-12-2025 08:00:00,25.859655,85.77944,CO,NA,NA,NA
India,Bihar,Sasaram,"Dada Peer, Sasaram - BSPCB",01-12-2025 08:00:00,24.952822,84.002396,PM2.5,33,112,59
India,Chhattisgarh,Raipur,"Siltara Phase-II, Raipur - CECB",01-12-2025 08:00:00,21.371751,81.664929,SO2,4,12,6
India,Chhattisgarh,Tumidih,"OP Jindal Industrial Park, Tumidih - CECB",01-12-2025 08:00:00,22.06631475,83.33820077,SO2,5,20,8
India,Delhi,Delhi,"Alipur, Delhi - DPCC",01-12-2025 08:00:00,28.815329,77.153010,NO2,24,111,62
India,Delhi,Delhi,"Major Dhyan Chand National Stadium, Delhi - DPCC",01-12-2025 08:00:00,28.611281,77.237738,SO2,5,21,10
India,Delhi,Delhi,"Mandir Marg, Delhi - DPCC",01-12-2025 08:00:00,28.636429,77.201067,PM2.5,30,325,205
India,Delhi,Delhi,"Mandir Marg, Delhi - DPCC",01-12-2025 08:00:00,28.636429,77.201067,NH3,8,10,9
India,Delhi,Delhi,"Mandir Marg, Delhi - DPCC",01-12-2025 08:00:00,28.636429,77.201067,CO,52,104,80
India,Delhi,Delhi,"Mundka, Delhi - DPCC",01-12-2025 08:00:00,28.684678,77.076574,NH3,8,13,11
India,Delhi,Delhi,"NSIT Dwarka, Delhi - CPCB",01-12-2025 08:00:00,28.60909,77.0325413,NO2,55,91,72
India,Delhi,Delhi,"NSIT Dwarka, Delhi - CPCB",01-12-2025 08:00:00,28.60909,77.0325413,CO,49,104,60
India,Delhi,Delhi,"NSIT Dwarka, Delhi - CPCB",01-12-2025 08:00:00,28.60909,77.0325413,OZONE,7,210,8
India,Delhi,Delhi,"R K Puram, Delhi - DPCC",01-12-2025 08:00:00,28.563262,77.186937,NO2,28,134,76
India,Delhi,Delhi,"Rohini, Delhi - DPCC",01-12-2025 08:00:00,28.732528,77.119920,PM10,143,449,287
India,Delhi,Delhi,"Rohini, Delhi - DPCC",01-12-2025 08:00:00,28.732528,77.119920,CO,24,128,112
India,Delhi,Delhi,"Shadipur, Delhi - CPCB",01-12-2025 08:00:00,28.6514781,77.1473105,PM10,169,439,253
India,Delhi,Delhi,"Sirifort, Delhi - CPCB",01-12-2025 08:00:00,28.5504249,77.2159377,PM2.5,151,398,309
India,Delhi,Delhi,"Sirifort, Delhi - CPCB",01-12-2025 08:00:00,28.5504249,77.2159377,NH3,8,12,10
India,Delhi,Delhi,"Jahangirpuri, Delhi - DPCC",01-12-2025 08:00:00,28.732820,77.170633,PM2.5,140,395,321
India,Delhi,Delhi,"Jahangirpuri, Delhi - DPCC",01-12-2025 08:00:00,28.732820,77.170633,PM10,115,379,243
India,Delhi,Delhi,"Jawaharlal Nehru Stadium, Delhi - DPCC",01-12-2025 08:00:00,28.580280,77.233829,SO2,6,22,12
India,Delhi,Delhi,"Jawaharlal Nehru Stadium, Delhi - DPCC",01-12-2025 08:00:00,28.580280,77.233829,CO,28,134,119
India,Delhi,Delhi,"Lodhi Road, Delhi - IMD",01-12-2025 08:00:00,28.5918245,77.2273074,NO2,9,43,26
India,Delhi,Delhi,"CRRI Mathura Road, Delhi - IMD",01-12-2025 08:00:00,28.5512005,77.2735737,PM2.5,140,357,290
India,Delhi,Delhi,"CRRI Mathura Road, Delhi - IMD",01-12-2025 08:00:00,28.5512005,77.2735737,OZONE,10,97,13
India,Delhi,Delhi,"Chandni Chowk, Delhi - IITM",01-12-2025 08:00:00,28.656756,77.227234,PM2.5,NA,NA,NA
India,Delhi,Delhi,"Chandni Chowk, Delhi - IITM",01-12-2025 08:00:00,28.656756,77.227234,CO,106,112,109
India,Delhi,Delhi,"DTU, Delhi - CPCB",01-12-2025 08:00:00,28.7500499,77.1112615,NO2,61,68,62
India,Delhi,Delhi,"Sonia Vihar, Delhi - DPCC",01-12-2025 08:00:00,28.710508,77.249485,NO2,27,97,61
India,Delhi,Delhi,"Sonia Vihar, Delhi - DPCC",01-12-2025 08:00:00,28.710508,77.249485,SO2,8,26,15
India,Delhi,Delhi,"Sri Aurobindo Marg, Delhi - DPCC",01-12-2025 08:00:00,28.531346,77.190156,SO2,6,15,10
India,Delhi,Delhi,"Vivek Vihar, Delhi - DPCC",01-12-2025 08:00:00,28.672342,77.315260,CO,48,116,90
India,Delhi,Delhi,"Wazirpur, Delhi - DPCC",01-12-2025 08:00:00,28.699793,77.165453,NH3,7,10,8
India,Delhi,Delhi,"Patparganj, Delhi - DPCC",01-12-2025 08:00:00,28.623763,77.287209,SO2,4,12,8
India,Delhi,Delhi,"Patparganj, Delhi - DPCC",01-12-2025 08:00:00,28.623763,77.287209,CO,24,128,105
India,Delhi,Delhi,"Punjabi Bagh, Delhi - DPCC",01-12-2025 08:00:00,28.674045,77.131023,PM2.5,170,407,329
India,Delhi,Delhi,"Pusa, Delhi - DPCC",01-12-2025 08:00:00,28.639652,77.146275,OZONE,11,16,15
India,Delhi,Delhi,"Pusa, Delhi - IMD",01-12-2025 08:00:00,28.636110,77.173332,NO2,11,123,69
India,Delhi,Delhi,"Najafgarh, Delhi - DPCC",01-12-2025 08:00:00,28.570173,76.933762,CO,36,82,70
India,Delhi,Delhi,"Najafgarh, Delhi - DPCC",01-12-2025 08:00:00,28.570173,76.933762,OZONE,3,8,4
India,Delhi,Delhi,"Narela, Delhi - DPCC",01-12-2025 08:00:00,28.822836,77.101981,OZONE,3,144,13
India,Delhi,Delhi,"North Campus, DU, Delhi - IMD",01-12-2025 08:00:00,28.6573814,77.1585447,PM2.5,118,347,280
India,Delhi,Delhi,"Wazirpur, Delhi - DPCC",01-12-2025 08:00:00,28.699793,77.165453,CO,50,106,87
India,Delhi,Delhi,"Wazirpur, Delhi - DPCC",01-12-2025 08:00:00,28.699793,77.165453,OZONE,5,149,12
India,Gujarat,Ahmedabad,"Maninagar, Ahmedabad - GPCB",01-12-2025 08:00:00,23.002657,72.591912,PM10,91,164,127
India,Gujarat,Ahmedabad,"Maninagar, Ahmedabad - GPCB",01-12-2025 08:00:00,23.002657,72.591912,NO2,59,60,60
India,Delhi,Delhi,"Dr. Karni Singh Shooting Range, Delhi - DPCC",01-12-2025 08:00:00,28.498571,77.264840,PM10,139,320,214
India,Delhi,Delhi,"IGI Airport (T3), Delhi - IMD",01-12-2025 08:00:00,28.5627763,77.1180053,NO2,56,135,103
India,Haryana,Faridabad,"Sector 11, Faridabad - HSPCB",01-12-2025 08:00:00,28.376058,77.315741,CO,10,54,47
India,Haryana,Faridabad,"Sector 30, Faridabad - HSPCB",01-12-2025 08:00:00,28.4417,77.3217,PM10,144,152,147
India,Haryana,Fatehabad,"Huda Sector, Fatehabad - HSPCB",01-12-2025 08:00:00,29.503664,75.467934,CO,25,35,26
India,Haryana,Gurugram,"NISE Gwal Pahari, Gurugram - IMD",01-12-2025 08:00:00,28.422681,77.148944,OZONE,7,79,8
India,Haryana,Gurugram,"Sector-51, Gurugram - HSPCB",01-12-2025 08:00:00,28.4227,77.0667,PM2.5,72,354,228
India,Haryana,Gurugram,"Sector-51, Gurugram - HSPCB",01-12-2025 08:00:00,28.4227,77.0667,SO2,4,16,11
India,Haryana,Kaithal,"Rishi Nagar, Kaithal - HSPCB",01-12-2025 08:00:00,29.8006,76.4155,PM10,61,115,90
India,Haryana,Kaithal,"Rishi Nagar, Kaithal - HSPCB",01-12-2025 08:00:00,29.8006,76.4155,NO2,28,32,31
India,Haryana,Kaithal,"Rishi Nagar, Kaithal - HSPCB",01-12-2025 08:00:00,29.8006,76.4155,OZONE,8,20,9
India,Haryana,Karnal,"Sector-12, Karnal - HSPCB",01-12-2025 08:00:00,29.695300,77.002700,NO2,6,7,6
India,Haryana,Karnal,"Sector-12, Karnal - HSPCB",01-12-2025 08:00:00,29.695300,77.002700,SO2,14,59,39
India,Haryana,Karnal,"Sector-12, Karnal - HSPCB",01-12-2025 08:00:00,29.695300,77.002700,OZONE,41,41,41
India,Haryana,Kurukshetra,"Sector-7, Kurukshetra - HSPCB",01-12-2025 08:00:00,29.966942,76.875879,NO2,NA,NA,NA
India,Haryana,Kurukshetra,"Sector-7, Kurukshetra - HSPCB",01-12-2025 08:00:00,29.966942,76.875879,CO,NA,NA,NA
India,Gujarat,Nandesari,"GIDC, Nandesari - Nandesari Ind. Association",01-12-2025 08:00:00,22.410802,73.097923,PM2.5,120,307,171
India,Gujarat,Nandesari,"GIDC, Nandesari - Nandesari Ind. Association",01-12-2025 08:00:00,22.410802,73.097923,NO2,8,244,45
India,Gujarat,Vapi,"Phase-1 GIDC, Vapi - GPCB",01-12-2025 08:00:00,20.362421,72.918013,PM10,33,161,70
India,Gujarat,Vapi,"Phase-1 GIDC, Vapi - GPCB",01-12-2025 08:00:00,20.362421,72.918013,NH3,2,5,3
India,Gujarat,Vapi,"Phase-1 GIDC, Vapi - GPCB",01-12-2025 08:00:00,20.362421,72.918013,OZONE,5,7,5
India,Gujarat,Vatva,"Phase-4 GIDC, Vatva - GPCB",01-12-2025 08:00:00,22.969611,72.643500,NH3,7,11,9
India,Gujarat,Vatva,"Phase-4 GIDC, Vatva - GPCB",01-12-2025 08:00:00,22.969611,72.643500,OZONE,18,44,18
India,Gujarat,Ahmedabad,"Raikhad, Ahmedabad - IITM",01-12-2025 08:00:00,23.020509,72.579261,NO2,NA,NA,NA
India,Gujarat,Ahmedabad,"Rakhial, Ahmedabad - IITM",01-12-2025 08:00:00,23.016834,72.625775,PM2.5,81,297,182
India,Gujarat,Ahmedabad,"Rakhial, Ahmedabad - IITM",01-12-2025 08:00:00,23.016834,72.625775,PM10,121,239,165
India,Gujarat,Ahmedabad,"SAC ISRO Satellite, Ahmedabad - IITM",01-12-2025 08:00:00,23.023389,72.515201,PM10,78,119,103
India,Gujarat,Ahmedabad,"SAC ISRO Satellite, Ahmedabad - IITM",01-12-2025 08:00:00,23.023389,72.515201,NH3,8,28,16
India,Haryana,Gurugram,"Teri Gram, Gurugram - HSPCB",01-12-2025 08:00:00,28.4275,77.1465,NH3,11,20,15
India,Haryana,Gurugram,"Vikas Sadan, Gurugram - HSPCB",01-12-2025 08:00:00,28.4501238,77.0263051,PM2.5,221,277,241
India,Haryana,Gurugram,"Vikas Sadan, Gurugram - HSPCB",01-12-2025 08:00:00,28.4501238,77.0263051,OZONE,6,43,14
India,Haryana,Hisar,"Urban Estate-II, Hisar - HSPCB",01-12-2025 08:00:00,29.140560,75.744941,SO2,7,14,11
India,Gujarat,Ahmedabad,"SVPI Airport Hansol, Ahmedabad - IITM",01-12-2025 08:00:00,23.076793,72.627874,NH3,6,6,6
India,Gujarat,Ankleshwar,"GIDC, Ankleshwar - GPCB",01-12-2025 08:00:00,21.613267,73.010555,NO2,27,28,27
India,Gujarat,Ankleshwar,"GIDC, Ankleshwar - GPCB",01-12-2025 08:00:00,21.613267,73.010555,CO,28,78,61
India,Gujarat,Gandhinagar,"Sector-10, Gandhinagar - GPCB",01-12-2025 08:00:00,23.221714,72.654328,NO2,16,36,23
India,Haryana,Mandikhera,"General Hospital, Mandikhera(Nuh) - HSPCB",01-12-2025 08:00:00,27.9002,76.9938,CO,56,96,77
India,Haryana,Narnaul,"Shastri Nagar, Narnaul - HSPCB",01-12-2025 08:00:00,28.060249,76.113115,SO2,6,7,7
India,Haryana,Panchgaon,"Amity University, Panchgaon - IITM",01-12-2025 08:00:00,28.3153,76.9143,PM2.5,49,144,69
India,Haryana,Bhiwani,"H.B. Colony, Bhiwani - HSPCB",01-12-2025 08:00:00,28.806223,76.141105,SO2,12,13,13
India,Haryana,Charkhi Dadri,"Mini Secretariat, Charkhi Dadri - HSPCB",01-12-2025 08:00:00,28.593883,76.270653,NH3,5,8,6
India,Haryana,Faridabad,"Sector 11, Faridabad - HSPCB",01-12-2025 08:00:00,28.376058,77.315741,PM2.5,62,369,226
India,Haryana,Bahadurgarh,"Arya Nagar, Bahadurgarh - HSPCB",01-12-2025 08:00:00,28.6701,76.9254,PM2.5,116,406,322
India,Haryana,Bahadurgarh,"Arya Nagar, Bahadurgarh - HSPCB",01-12-2025 08:00:00,28.6701,76.9254,OZONE,15,20,17
India,Haryana,Ballabgarh,"Nathu Colony, Ballabgarh - HSPCB",01-12-2025 08:00:00,28.3419248,77.319699,PM10,150,152,150
India,Karnataka,Bengaluru,"Sanegurava Halli, Bengaluru - KSPCB",01-12-2025 08:00:00,12.990328,77.5431385,PM10,51,52,51
India,Karnataka,Bengaluru,"Sanegurava Halli, Bengaluru - KSPCB",01-12-2025 08:00:00,12.990328,77.5431385,SO2,7,7,7
India,Karnataka,Bengaluru,"Silk Board, Bengaluru - KSPCB",01-12-2025 08:00:00,12.917348,77.622813,SO2,6,9,8
India,Karnataka,Bengaluru,"Silk Board, Bengaluru - KSPCB",01-12-2025 08:00:00,12.917348,77.622813,OZONE,20,22,21
India,Karnataka,Chamarajanagar,"Urban, Chamarajanagar - KSPCB",01-12-2025 08:00:00,11.55358,76.55521,PM2.5,19,39,27
India,Karnataka,Chikkamagaluru,"Kalyana Nagara, Chikkamagaluru - KSPCB",01-12-2025 08:00:00,13.328028,75.797056,PM10,28,41,32
India,Karnataka,Chikkamagaluru,"Kalyana Nagara, Chikkamagaluru - KSPCB",01-12-2025 08:00:00,13.328028,75.797056,NH3,2,2,2
India,Karnataka,Mysuru,"Hebbal 1st Stage, Mysuru - KSPCB",01-12-2025 08:00:00,12.21041,76.37376,PM10,27,81,59
India,Karnataka,Mysuru,"Hebbal 1st Stage, Mysuru - KSPCB",01-12-2025 08:00:00,12.21041,76.37376,NO2,16,25,20
India,Karnataka,Shivamogga,"Vinoba Nagara, Shivamogga - KSPCB",01-12-2025 08:00:00,13.940000,75.555917,NO2,12,13,13
India,Karnataka,Yadgir,"Collector Office, Yadgir - KSPCB",01-12-2025 08:00:00,16.7602,77.1428,PM2.5,31,159,70
India,Karnataka,Yadgir,"Collector Office, Yadgir - KSPCB",01-12-2025 08:00:00,16.7602,77.1428,NO2,7,20,12
India,Kerala,Kannur,"Thavakkara, Kannur - Kerala PCB",01-12-2025 08:00:00,11.875000,75.373200,NH3,1,2,2
India,Karnataka,Davanagere,"Devaraj Urs Badavane, Davanagere - KSPCB",01-12-2025 08:00:00,14.475800,75.905200,NH3,2,7,3
India,Karnataka,Dharwad,"Kalabhavan, Dharwad - KSPCB",01-12-2025 08:00:00,15.459706,75.008381,NH3,NA,NA,NA
India,Karnataka,Dharwad,"Kalabhavan, Dharwad - KSPCB",01-12-2025 08:00:00,15.459706,75.008381,CO,NA,NA,NA
India,Karnataka,Hubballi,"Lingaraj Nagar, Hubballi - KSPCB",01-12-2025 08:00:00,15.3714823,75.1160168,NH3,2,2,2
India,Karnataka,Kalaburagi,"Lal Bahadur Shastri Nagar, Kalaburagi - KSPCB",01-12-2025 08:00:00,17.321993,76.822628,PM2.5,28,52,41
India,Karnataka,Kalaburagi,"Lal Bahadur Shastri Nagar, Kalaburagi - KSPCB",01-12-2025 08:00:00,17.321993,76.822628,NO2,12,12,12
India,Haryana,Panchgaon,"Amity University, Panchgaon - IITM",01-12-2025 08:00:00,28.3153,76.9143,PM10,57,129,79
India,Haryana,Panchgaon,"Amity University, Panchgaon - IITM",01-12-2025 08:00:00,28.3153,76.9143,NH3,3,8,5
India,Haryana,Panchkula,"Sector-6, Panchkula - HSPCB ",01-12-2025 08:00:00,30.7057778,76.8531805555555,PM2.5,93,128,100
India,Haryana,Panchkula,"Sector-6, Panchkula - HSPCB ",01-12-2025 08:00:00,30.7057778,76.8531805555555,OZONE,16,31,23
India,Haryana,Panipat,"Sector-18, Panipat - HSPCB",01-12-2025 08:00:00,29.432304,76.972765,NH3,2,3,3
India,Haryana,Rohtak,"MD University, Rohtak - HSPCB",01-12-2025 08:00:00,28.52123,76.37138,OZONE,NA,NA,NA
India,Haryana,Sonipat,"Murthal, Sonipat - HSPCB",01-12-2025 08:00:00,29.027200,77.062100,OZONE,25,26,26
India,Haryana,Yamuna Nagar,"Gobind Pura, Yamuna Nagar - HSPCB",01-12-2025 08:00:00,30.1480566,77.2893471,PM2.5,111,159,134
India,Himachal Pradesh,Baddi,"HIMUDA Complex Phase-1, Baddi - HPPCB",01-12-2025 08:00:00,30.943887,76.801991,PM10,88,297,154
India,Jammu_and_Kashmir,Srinagar,"Rajbagh, Srinagar - JKSPCB",01-12-2025 08:00:00,34.066206,74.819820,PM2.5,NA,NA,NA
India,Karnataka,Bengaluru,"Jayanagar 5th Block, Bengaluru - KSPCB",01-12-2025 08:00:00,12.920984,77.584908,CO,1,50,10
India,Karnataka,Bengaluru,"Kasturi Nagar, Bengaluru - KSPCB",01-12-2025 08:00:00,13.003872,77.664217,PM2.5,60,61,60
India,Karnataka,Bengaluru,"Kasturi Nagar, Bengaluru - KSPCB",01-12-2025 08:00:00,13.003872,77.664217,NO2,28,30,29
India,Karnataka,Bengaluru,"RVCE-Mailasandra, Bengaluru - KSPCB",01-12-2025 08:00:00,12.921418,77.502466,PM10,46,135,73
India,Karnataka,Bagalkot,"Vidayagiri, Bagalkot - KSPCB",01-12-2025 08:00:00,16.172806,75.659694,PM2.5,35,36,35
India,Karnataka,Bagalkot,"Vidayagiri, Bagalkot - KSPCB",01-12-2025 08:00:00,16.172806,75.659694,PM10,53,54,54
India,Karnataka,Bagalkot,"Vidayagiri, Bagalkot - KSPCB",01-12-2025 08:00:00,16.172806,75.659694,SO2,7,7,7
India,Karnataka,Bagalkot,"Vidayagiri, Bagalkot - KSPCB",01-12-2025 08:00:00,16.172806,75.659694,OZONE,12,17,16
India,Karnataka,Bengaluru,"City Railway Station, Bengaluru - KSPCB",01-12-2025 08:00:00,12.9756843,77.5660749,SO2,14,21,17
India,Karnataka,Bengaluru,"City Railway Station, Bengaluru - KSPCB",01-12-2025 08:00:00,12.9756843,77.5660749,CO,85,88,86
India,Karnataka,Koppal,"Diwator Nagar, Koppal - KSPCB",01-12-2025 08:00:00,15.347630,76.181767,SO2,8,20,15
India,Madhya Pradesh,Bhopal,"Paryavaran Parisar, Bhopal - MPPCB",01-12-2025 08:00:00,23.210494,77.425409,CO,13,80,46
India,Madhya Pradesh,Bhopal,"T T Nagar, Bhopal - MPPCB",01-12-2025 08:00:00,23.233584,77.400574,PM10,NA,NA,NA
India,Madhya Pradesh,Bhopal,"T T Nagar, Bhopal - MPPCB",01-12-2025 08:00:00,23.233584,77.400574,CO,30,126,81
India,Madhya Pradesh,Damoh,"Shrivastav Colony, Damoh - MPPCB",01-12-2025 08:00:00,23.81748678,79.446246,PM10,13,49,25
India,Madhya Pradesh,Damoh,"Shrivastav Colony, Damoh - MPPCB",01-12-2025 08:00:00,23.81748678,79.446246,SO2,4,13,6
India,Madhya Pradesh,Dewas,"Bhopal Chauraha, Dewas - MPPCB",01-12-2025 08:00:00,22.9682591,76.064118,PM2.5,40,168,69
India,Madhya Pradesh,Dewas,"Bhopal Chauraha, Dewas - MPPCB",01-12-2025 08:00:00,22.9682591,76.064118,SO2,36,63,45
India,Madhya Pradesh,Gwalior,"City Center, Gwalior - MPPCB",01-12-2025 08:00:00,26.203442,78.193251,PM2.5,72,309,168
India,Madhya Pradesh,Gwalior,"City Center, Gwalior - MPPCB",01-12-2025 08:00:00,26.203442,78.193251,NH3,2,5,4
India,Madhya Pradesh,Gwalior,"City Center, Gwalior - MPPCB",01-12-2025 08:00:00,26.203442,78.193251,OZONE,28,76,46
India,Madhya Pradesh,Gwalior,"Deen Dayal Nagar, Gwalior - MPPCB",01-12-2025 08:00:00,26.259242,78.216432,SO2,1,59,18
India,Madhya Pradesh,Gwalior,"Maharaj Bada, Gwalior - MPPCB",01-12-2025 08:00:00,26.200388,78.147714,PM2.5,80,425,237
India,Madhya Pradesh,Gwalior,"Maharaj Bada, Gwalior - MPPCB",01-12-2025 08:00:00,26.200388,78.147714,CO,8,141,24
India,Madhya Pradesh,Gwalior,"Maharaj Bada, Gwalior - MPPCB",01-12-2025 08:00:00,26.200388,78.147714,OZONE,5,80,13
India,Madhya Pradesh,Indore,"Airport Area, Indore - IMC",01-12-2025 08:00:00,22.7289,75.8076,PM2.5,25,84,51
India,Madhya Pradesh,Indore,"Airport Area, Indore - IMC",01-12-2025 08:00:00,22.7289,75.8076,NO2,2,3,2
India,Madhya Pradesh,Indore,"Airport Area, Indore - IMC",01-12-2025 08:00:00,22.7289,75.8076,OZONE,4,8,4
India,Madhya Pradesh,Indore,"Chhoti Gwaltoli, Indore - MPPCB",01-12-2025 08:00:00,22.4310,75.5213,PM10,55,152,98
India,Madhya Pradesh,Jabalpur,"Gupteshwar, Jabalpur - JMC",01-12-2025 08:00:00,23.142888,79.916147,NO2,24,98,48
India,Madhya Pradesh,Jabalpur,"Gupteshwar, Jabalpur - JMC",01-12-2025 08:00:00,23.142888,79.916147,SO2,7,10,8
India,Madhya Pradesh,Jabalpur,"Gupteshwar, Jabalpur - JMC",01-12-2025 08:00:00,23.142888,79.916147,CO,41,124,80
India,Madhya Pradesh,Jabalpur,"Marhatal, Jabalpur - MPPCB",01-12-2025 08:00:00,23.168606,79.932247,PM2.5,60,273,154
India,Madhya Pradesh,Jabalpur,"Marhatal, Jabalpur - MPPCB",01-12-2025 08:00:00,23.168606,79.932247,NO2,10,81,38
India,Madhya Pradesh,Jabalpur,"Suhagi, Jabalpur - JMC",01-12-2025 08:00:00,23.218135,79.957770,NH3,1,6,3
India,Madhya Pradesh,Katni,"Gole Bazar, Katni - MPPCB",01-12-2025 08:00:00,23.50016,80.23284,PM2.5,53,272,142
India,Madhya Pradesh,Katni,"Gole Bazar, Katni - MPPCB",01-12-2025 08:00:00,23.50016,80.23284,NO2,23,65,43
India,Madhya Pradesh,Katni,"Gole Bazar, Katni - MPPCB",01-12-2025 08:00:00,23.50016,80.23284,SO2,20,110,37
India,Kerala,Kollam,"Polayathode, Kollam - Kerala PCB",01-12-2025 08:00:00,8.8787,76.6073,CO,14,17,15
India,Kerala,Thiruvananthapuram,"Plammoodu, Thiruvananthapuram - Kerala PCB",01-12-2025 08:00:00,8.5149093,76.9435879,SO2,12,23,16
India,Kerala,Thiruvananthapuram,"Plammoodu, Thiruvananthapuram - Kerala PCB",01-12-2025 08:00:00,8.5149093,76.9435879,CO,12,27,17
India,Kerala,Thiruvananthapuram,"Plammoodu, Thiruvananthapuram - Kerala PCB",01-12-2025 08:00:00,8.5149093,76.9435879,OZONE,8,42,32
India,Kerala,Thrissur,"Corporation Ground, Thrissur - Kerala PCB",01-12-2025 08:00:00,10.532400,76.215900,PM2.5,45,52,48
India,Kerala,Thrissur,"Corporation Ground, Thrissur - Kerala PCB",01-12-2025 08:00:00,10.532400,76.215900,OZONE,31,32,31
India,Madhya Pradesh,Bhopal,"Paryavaran Parisar, Bhopal - MPPCB",01-12-2025 08:00:00,23.210494,77.425409,PM10,56,235,148
India,Maharashtra,Akola,"Ramdaspeth, Akola - MPCB",01-12-2025 08:00:00,20.719516,77.000253,OZONE,2,51,7
India,Maharashtra,Amravati,"Shivneri Colony, Amravati - MPCB",01-12-2025 08:00:00,20.9402359,77.7895248,PM10,68,132,104
India,Maharashtra,Amravati,"Shri Shivaji Science College, Amravati - MPCB",01-12-2025 08:00:00,20.939198,77.765701,PM2.5,52,136,85
India,Maharashtra,Aurangabad,"MIDC Chilkalthana, Aurangabad - MPCB",01-12-2025 08:00:00,19.875620,75.387310,PM2.5,41,98,64
India,Maharashtra,Aurangabad,"MIDC Chilkalthana, Aurangabad - MPCB",01-12-2025 08:00:00,19.875620,75.387310,NO2,17,95,47
India,Madhya Pradesh,Mandideep,"Sector-D Industrial Area, Mandideep - MPPCB",01-12-2025 08:00:00,23.108440,77.511428,PM2.5,45,351,201
India,Madhya Pradesh,Pithampur,"Sector-2 Industrial Area, Pithampur - MPPCB",01-12-2025 08:00:00,22.624758,75.675238,CO,32,56,38
India,Madhya Pradesh,Ratlam,"Shasthri Nagar, Ratlam - IPCA Lab",01-12-2025 08:00:00,23.331731,75.045981,SO2,32,34,33
India,Madhya Pradesh,Sagar,"Deen Dayal Nagar, Sagar - MPPCB",01-12-2025 08:00:00,23.8640158,78.80289321,PM2.5,24,127,70
India,Maharashtra,Ahmednagar,"Tarakpur, Ahmednagar - MPCB",01-12-2025 08:00:00,19.10122,74.73339,NO2,1,39,9
India,Maharashtra,Akola,"Ramdaspeth, Akola - MPCB",01-12-2025 08:00:00,20.719516,77.000253,PM10,58,282,106
India,Maharashtra,Akola,"Ramdaspeth, Akola - MPCB",01-12-2025 08:00:00,20.719516,77.000253,NO2,17,85,41
India,Madhya Pradesh,Indore,"Regional Park, Indore - IMC",01-12-2025 08:00:00,22.6780,75.8559,SO2,22,26,24
India,Madhya Pradesh,Jabalpur,"Govindh Bhavan Colony, Jabalpur - JMC",01-12-2025 08:00:00,23.163174,79.973061,NH3,1,2,2
India,Maharashtra,Aurangabad,"Rachnakar Colony, Aurangabad - MPCB",01-12-2025 08:00:00,19.863756,75.321188,NH3,2,3,2
India,Maharashtra,Aurangabad,"Rachnakar Colony, Aurangabad - MPCB",01-12-2025 08:00:00,19.863756,75.321188,SO2,8,24,15
India,Maharashtra,Mumbai,"Chhatrapati Shivaji Intl. Airport (T2), Mumbai - MPCB",01-12-2025 08:00:00,19.10078,72.87462,CO,13,22,17
India,Maharashtra,Mumbai,"Chhatrapati Shivaji Intl. Airport (T2), Mumbai - MPCB",01-12-2025 08:00:00,19.10078,72.87462,OZONE,7,8,7
India,Maharashtra,Mumbai,"Colaba, Mumbai - MPCB",01-12-2025 08:00:00,18.910000,72.820000,OZONE,11,11,11
India,Maharashtra,Mumbai,"Deonar, Mumbai - IITM",01-12-2025 08:00:00,19.04946,72.9230,PM2.5,56,189,117
India,Maharashtra,Mumbai,"Ghatkopar, Mumbai - BMC",01-12-2025 08:00:00,19.083694,72.920967,CO,14,60,54
India,Maharashtra,Mumbai,"Kandivali East, Mumbai - MPCB",01-12-2025 08:00:00,19.205800,72.868200,PM2.5,36,94,56
India,Maharashtra,Dhule,"Deopur, Dhule - MPCB",01-12-2025 08:00:00,20.918946,74.776388,NH3,1,31,4
India,Maharashtra,Dhule,"Deopur, Dhule - MPCB",01-12-2025 08:00:00,20.918946,74.776388,CO,14,103,37
India,Maharashtra,Kalyan,"Khadakpada, Kalyan - MPCB",01-12-2025 08:00:00,19.25292,73.142019,OZONE,9,9,9
India,Maharashtra,Kalyan,"Pimpleshwar Mandir, Kalyan - MPCB",01-12-2025 08:00:00,19.192056,72.9585188,PM10,111,403,204
India,Maharashtra,Kolhapur,"Shivaji University, Kolhapur - MPCB",01-12-2025 08:00:00,16.6870449,74.2505872,PM2.5,87,221,161
India,Maharashtra,Mumbai,"Kandivali East, Mumbai - MPCB",01-12-2025 08:00:00,19.205800,72.868200,PM10,81,152,110
India,Maharashtra,Mumbai,"Kandivali East, Mumbai - MPCB",01-12-2025 08:00:00,19.205800,72.868200,NO2,6,11,8
India,Maharashtra,Mumbai,"Khindipada-Bhandup West, Mumbai - IITM",01-12-2025 08:00:00,19.1653323,72.922099,OZONE,20,82,54
India,Maharashtra,Mumbai,"Kurla, Mumbai - MPCB",01-12-2025 08:00:00,19.0863,72.8888,PM2.5,66,103,80
India,Maharashtra,Mumbai,"Kurla, Mumbai - MPCB",01-12-2025 08:00:00,19.0863,72.8888,NH3,2,2,2
India,Maharashtra,Mumbai,"Kurla, Mumbai - MPCB",01-12-2025 08:00:00,19.0863,72.8888,CO,14,26,21
India,Maharashtra,Mumbai,"Borivali East, Mumbai - MPCB",01-12-2025 08:00:00,19.2243333,72.8658113,NH3,2,2,2
India,Maharashtra,Mumbai,"Byculla, Mumbai - BMC",01-12-2025 08:00:00,18.9767,72.8380,PM10,101,158,129
India,Maharashtra,Mumbai,"Chakala-Andheri East, Mumbai - IITM",01-12-2025 08:00:00,19.11074,72.86084,CO,12,87,31
India,Maharashtra,Mumbai,"Chakala-Andheri East, Mumbai - IITM",01-12-2025 08:00:00,19.11074,72.86084,OZONE,4,59,32
India,Maharashtra,Mumbai,"Chembur, Mumbai - MPCB",01-12-2025 08:00:00,19.0364585,72.8954371,SO2,1,31,10
India,Maharashtra,Bhiwandi,"Gokul Nagar, Bhiwandi - MPCB",01-12-2025 08:00:00,19.309073,73.057223,OZONE,12,118,13
India,Maharashtra,Chandrapur,"Chauhan Colony, Chandrapur - MPCB",01-12-2025 08:00:00,19.962900,79.298714,PM2.5,23,73,57
India,Maharashtra,Chandrapur,"Chauhan Colony, Chandrapur - MPCB",01-12-2025 08:00:00,19.962900,79.298714,SO2,30,30,30
India,Maharashtra,Dhule,"Deopur, Dhule - MPCB",01-12-2025 08:00:00,20.918946,74.776388,PM2.5,48,169,77
India,Maharashtra,Kolhapur,"Sinchan Bhavan, Kolhapur - MPCB",01-12-2025 08:00:00,16.7143745,74.2426398,NO2,23,84,50
India,Maharashtra,Kolhapur,"Sinchan Bhavan, Kolhapur - MPCB",01-12-2025 08:00:00,16.7143745,74.2426398,OZONE,4,67,28
India,Maharashtra,Latur,"Sawe Wadi, Latur - MPCB",01-12-2025 08:00:00,18.39963,76.57452,CO,7,40,30
India,Maharashtra,Latur,"Sawe Wadi, Latur - MPCB",01-12-2025 08:00:00,18.39963,76.57452,OZONE,68,148,100
India,Maharashtra,Mumbai,"Mindspace-Malad West, Mumbai - MPCB",01-12-2025 08:00:00,19.1878657,72.8304069,PM10,55,119,82
India,Maharashtra,Mumbai,"Mindspace-Malad West, Mumbai - MPCB",01-12-2025 08:00:00,19.1878657,72.8304069,NO2,32,118,64
India,Maharashtra,Mumbai,"Navy Nagar-Colaba, Mumbai - IITM",01-12-2025 08:00:00,18.897756,72.813320,PM2.5,70,178,112
India,Maharashtra,Mumbai,"Navy Nagar-Colaba, Mumbai - IITM",01-12-2025 08:00:00,18.897756,72.813320,SO2,17,68,33
India,Maharashtra,Mumbai,"Bandra Kurla Complex, Mumbai - MPCB",01-12-2025 08:00:00,19.065931,72.862131,NH3,1,45,11
India,Maharashtra,Mumbai,"Bandra Kurla Complex, Mumbai - MPCB",01-12-2025 08:00:00,19.065931,72.862131,CO,15,75,41
India,Maharashtra,Mumbai,"Borivali East, Mumbai - IITM",01-12-2025 08:00:00,19.23241,72.86895,PM2.5,55,97,77
India,Maharashtra,Mumbai,"Powai, Mumbai - MPCB",01-12-2025 08:00:00,19.137500,72.915056,NO2,7,8,8
India,Maharashtra,Mumbai,"Shivaji Nagar, Mumbai - BMC",01-12-2025 08:00:00,19.060498,72.923356,PM10,NA,NA,NA
India,Maharashtra,Mumbai,"Shivaji Nagar, Mumbai - BMC",01-12-2025 08:00:00,19.060498,72.923356,NO2,23,86,52
India,Maharashtra,Navi Mumbai,"Mahape, Navi Mumbai - MPCB",01-12-2025 08:00:00,19.1135051,73.008978,SO2,24,26,25
India,Maharashtra,Navi Mumbai,"Mahape, Navi Mumbai - MPCB",01-12-2025 08:00:00,19.1135051,73.008978,OZONE,8,10,10
India,Maharashtra,Navi Mumbai,"Nerul, Navi Mumbai - MPCB",01-12-2025 08:00:00,19.008751,73.016620,NH3,4,4,4
India,Maharashtra,Navi Mumbai,"Sanpada, Navi Mumbai - MPCB",01-12-2025 08:00:00,19.0575752,73.0151367,PM2.5,50,256,131
India,Maharashtra,Navi Mumbai,"Sanpada, Navi Mumbai - MPCB",01-12-2025 08:00:00,19.0575752,73.0151367,NH3,18,30,24
India,Maharashtra,Navi Mumbai,"Sanpada, Navi Mumbai - MPCB",01-12-2025 08:00:00,19.0575752,73.0151367,SO2,11,36,17
India,Maharashtra,Navi Mumbai,"Sector-2E Kalamboli, Navi Mumbai - MPCB",01-12-2025 08:00:00,19.02579,73.10297,NH3,4,15,9
India,Maharashtra,Navi Mumbai,"Tondare-Taloja, Navi Mumbai - MPCB",01-12-2025 08:00:00,19.0630,73.1209,PM10,46,168,88
India,Maharashtra,Nagpur,"Opp GPO Civil Lines, Nagpur - MPCB",01-12-2025 08:00:00,21.152875,79.0517531,PM10,88,150,116
India,Maharashtra,Nagpur,"Opp GPO Civil Lines, Nagpur - MPCB",01-12-2025 08:00:00,21.152875,79.0517531,OZONE,2,59,3
India,Maharashtra,Nagpur,"Ram Nagar, Nagpur - MPCB",01-12-2025 08:00:00,21.143383,79.048912,PM10,82,129,100
India,Maharashtra,Nagpur,"Ram Nagar, Nagpur - MPCB",01-12-2025 08:00:00,21.143383,79.048912,CO,20,62,31
India,Maharashtra,Nanded,"Sneh Nagar, Nanded - MPCB",01-12-2025 08:00:00,19.173852,77.296291,NO2,13,33,22
India,Maharashtra,Nanded,"Sneh Nagar, Nanded - MPCB",01-12-2025 08:00:00,19.173852,77.296291,OZONE,19,103,31
India,Maharashtra,Nashik,"Gangapur Road, Nashik - MPCB",01-12-2025 08:00:00,20.0073285,73.7762427,SO2,NA,NA,NA
India,Maharashtra,Nashik,"Gangapur Road, Nashik - MPCB",01-12-2025 08:00:00,20.0073285,73.7762427,CO,24,25,24
India,Maharashtra,Pune,"Panchawati_Pashan, Pune - IITM",01-12-2025 08:00:00,18.536457,73.805454,NO2,13,42,21
India,Maharashtra,Pune,"Revenue Colony-Shivajinagar, Pune - IITM",01-12-2025 08:00:00,18.530085,73.849598,NO2,43,142,98
India,Maharashtra,Pune,"Revenue Colony-Shivajinagar, Pune - IITM",01-12-2025 08:00:00,18.530085,73.849598,SO2,2,22,10
India,Maharashtra,Pune,"Savitribai Phule Pune University, Pune - MPCB",01-12-2025 08:00:00,18.547056,73.826908,OZONE,NA,NA,NA
India,Maharashtra,Pune,"Transport Nagar-Nigdi, Pune - IITM",01-12-2025 08:00:00,18.664282,73.763966,PM2.5,NA,NA,NA
India,Maharashtra,Sangli,"Vijay Nagar, Sangli - MPCB",01-12-2025 08:00:00, 16.5038,74.3623,PM2.5,99,336,213
India,Maharashtra,Nashik,"Pandav Nagari, Nashik - MPCB",01-12-2025 08:00:00,19.9591346,73.7788008,PM10,81,154,106
India,Maharashtra,Nashik,"Pandav Nagari, Nashik - MPCB",01-12-2025 08:00:00,19.9591346,73.7788008,OZONE,8,68,27
India,Maharashtra,Navi Mumbai,"Kopripada-Vashi, Navi Mumbai - MPCB",01-12-2025 08:00:00,19.090337,73.014232,PM2.5,5,82,43
India,Maharashtra,Navi Mumbai,"Kopripada-Vashi, Navi Mumbai - MPCB",01-12-2025 08:00:00,19.090337,73.014232,PM10,39,271,83
India,Maharashtra,Navi Mumbai,"Kopripada-Vashi, Navi Mumbai - MPCB",01-12-2025 08:00:00,19.090337,73.014232,OZONE,1,64,6
India,Maharashtra,Navi Mumbai,"Mahape, Navi Mumbai - MPCB",01-12-2025 08:00:00,19.1135051,73.008978,NO2,34,36,35
India,Maharashtra,Solapur,"Dnyaneshwar Nagar, Solapur - MPCB",01-12-2025 08:00:00,17.6336264,75.9132495,CO,16,76,29
India,Maharashtra,Solapur,"Ratandeep Housing Society, Solapur - MPCB",01-12-2025 08:00:00,17.65439,75.90649,PM2.5,103,207,147
India,Maharashtra,Thane,"Kasarvadavali, Thane - MPCB",01-12-2025 08:00:00,19.26777,72.97182,PM10,59,88,71
India,Maharashtra,Thane,"Kasarvadavali, Thane - MPCB",01-12-2025 08:00:00,19.26777,72.97182,NH3,1,18,6
India,Maharashtra,Thane,"Upvan Fort, Thane - MPCB",01-12-2025 08:00:00,19.222279,72.957979,NO2,NA,NA,NA
India,Maharashtra,Navi Mumbai,"Tondare-Taloja, Navi Mumbai - MPCB",01-12-2025 08:00:00,19.0630,73.1209,NO2,20,39,30
India,Maharashtra,Navi Mumbai,"Tondare-Taloja, Navi Mumbai - MPCB",01-12-2025 08:00:00,19.0630,73.1209,OZONE,21,23,21
India,Maharashtra,Parbhani,"Masoom Colony, Parbhani - MPCB",01-12-2025 08:00:00,19.265594,76.761463,PM2.5,99,291,221
India,Maharashtra,Pimpri-Chinchwad,"Park Street Wakad, Pimpri Chinchwad - MPCB",01-12-2025 08:00:00,18.59051,73.77946,NO2,41,106,70
India,Maharashtra,Pimpri-Chinchwad,"Park Street Wakad, Pimpri Chinchwad - MPCB",01-12-2025 08:00:00,18.59051,73.77946,SO2,1,22,7
India,Maharashtra,Pimpri-Chinchwad,"Thergaon, Pimpri Chinchwad - MPCB",01-12-2025 08:00:00,18.616318,73.765797,PM2.5,75,266,156
India,Maharashtra,Pimpri-Chinchwad,"Thergaon, Pimpri Chinchwad - MPCB",01-12-2025 08:00:00,18.616318,73.765797,SO2,1,10,6
India,Maharashtra,Pune,"Bhumkar Nagar, Pune - IITM",01-12-2025 08:00:00,18.605770,73.749976,NO2,9,32,21
India,Maharashtra,Pune,"Dhankawadi, Pune - IITM",01-12-2025 08:00:00,18.459883,73.852193,NO2,20,27,24
India,Maharashtra,Mumbai,"Vile Parle West, Mumbai - MPCB",01-12-2025 08:00:00,19.10861,72.83622,PM10,90,138,110
India,Maharashtra,Mumbai,"Vile Parle West, Mumbai - MPCB",01-12-2025 08:00:00,19.10861,72.83622,CO,24,26,25
India,Maharashtra,Mumbai,"Worli, Mumbai - MPCB",01-12-2025 08:00:00,18.9936162,72.8128113,NH3,1,2,1
India,Maharashtra,Nagpur,"Ambazari, Nagpur - MPCB",01-12-2025 08:00:00,21.121801,79.04952,CO,NA,NA,NA
India,Maharashtra,Thane,"Upvan Fort, Thane - MPCB",01-12-2025 08:00:00,19.222279,72.957979,OZONE,NA,NA,NA
India,Maharashtra,Ulhasnagar,"Sidhi Vinayak Nagar, Ulhasnagar - MPCB",01-12-2025 08:00:00,19.235581,73.159121,OZONE,11,88,12
India,Maharashtra,Virar,"Bolinj, Virar - MPCB",01-12-2025 08:00:00,19.4458210,72.7988231,NO2,16,101,42
India,Punjab,Khanna,"Kalal Majra, Khanna - PPCB",01-12-2025 08:00:00,30.736056 ,76.209694,SO2,11,54,23
India,Punjab,Ludhiana,"Punjab Agricultural University, Ludhiana - PPCB",01-12-2025 08:00:00,30.9028,75.8086,SO2,14,25,20
India,Punjab,Ludhiana,"Punjab Agricultural University, Ludhiana - PPCB",01-12-2025 08:00:00,30.9028,75.8086,OZONE,10,23,16
India,Punjab,Mandi Gobindgarh,"RIMT University, Mandi Gobindgarh - PPCB",01-12-2025 08:00:00,30.649961,76.331442,OZONE,33,39,35
India,Punjab,Patiala,"Model Town, Patiala - PPCB",01-12-2025 08:00:00,30.349388,76.366642,PM10,83,121,106
India,Punjab,Patiala,"Model Town, Patiala - PPCB",01-12-2025 08:00:00,30.349388,76.366642,NO2,16,19,18
India,Punjab,Patiala,"Model Town, Patiala - PPCB",01-12-2025 08:00:00,30.349388,76.366642,SO2,7,106,26
India,Punjab,Patiala,"Model Town, Patiala - PPCB",01-12-2025 08:00:00,30.349388,76.366642,OZONE,10,42,11
India,Punjab,Rupnagar,"Ratanpura, Rupnagar - Ambuja Cements",01-12-2025 08:00:00,31.0325454,76.5623046,NO2,1,6,4
India,Odisha,Rourkela,"Fertilizer Township, Rourkela - OSPCB",01-12-2025 08:00:00,22.18972222,84.86277778,SO2,9,10,9
India,Odisha,Rourkela,"Raghunathpali, Rourkela - OSPCB",01-12-2025 08:00:00,22.220833,84.809444,PM10,NA,NA,NA
India,Odisha,Rourkela,"Raghunathpali, Rourkela - OSPCB",01-12-2025 08:00:00,22.220833,84.809444,NO2,NA,NA,NA
India,Odisha,Rourkela,"Raghunathpali, Rourkela - OSPCB",01-12-2025 08:00:00,22.220833,84.809444,CO,NA,NA,NA
India,Odisha,Talcher,"Talcher Coalfields,Talcher - OSPCB",01-12-2025 08:00:00,20.9360711,85.1707021,PM2.5,3,372,209
India,Odisha,Talcher,"Talcher Coalfields,Talcher - OSPCB",01-12-2025 08:00:00,20.9360711,85.1707021,NH3,5,7,6
India,Odisha,Tensa,"Barsua Iron Ore Mines, Tensa - OSPCB",01-12-2025 08:00:00,21.869985,85.167016,PM10,34,112,84
India,Rajasthan,Bhiwadi,"Vasundhara Nagar_UIT, Bhiwadi - RSPCB",01-12-2025 08:00:00,28.207266,76.829265,NH3,1,6,4
India,Rajasthan,Bhiwadi,"Vasundhara Nagar_UIT, Bhiwadi - RSPCB",01-12-2025 08:00:00,28.207266,76.829265,CO,44,138,72
India,Rajasthan,Bhiwadi,"Vasundhara Nagar_UIT, Bhiwadi - RSPCB",01-12-2025 08:00:00,28.207266,76.829265,OZONE,4,163,10
India,Rajasthan,Bundi,"New Colony, Bundi - RSPCB",01-12-2025 08:00:00,25.435774,75.644272,PM2.5,153,321,255
India,Rajasthan,Chittorgarh,"Shastri Nagar, Chittorgarh - RSPCB",01-12-2025 08:00:00,24.892047,74.623527,PM2.5,58,240,133
India,Rajasthan,Chittorgarh,"Shastri Nagar, Chittorgarh - RSPCB",01-12-2025 08:00:00,24.892047,74.623527,NO2,13,103,50
India,Rajasthan,Chittorgarh,"Shastri Nagar, Chittorgarh - RSPCB",01-12-2025 08:00:00,24.892047,74.623527,SO2,2,32,9
India,Odisha,Bhubaneswar,"Lingraj Mandir, Bhubaneswar - OSPCB",01-12-2025 08:00:00,20.240790,85.836784,SO2,4,9,6
India,Odisha,Bhubaneswar,"Patia, Bhubaneswar - OSPCB",01-12-2025 08:00:00,20.34652,85.81630,NO2,14,62,29
India,Odisha,Bileipada,"Tata Township, Bileipada - OSPCB",01-12-2025 08:00:00,22.06156703,85.47409613,PM2.5,NA,NA,NA
India,Odisha,Bileipada,"Tata Township, Bileipada - OSPCB",01-12-2025 08:00:00,22.06156703,85.47409613,PM10,NA,NA,NA
India,Odisha,Bileipada,"Tata Township, Bileipada - OSPCB",01-12-2025 08:00:00,22.06156703,85.47409613,NO2,NA,NA,NA
India,Odisha,Bileipada,"Tata Township, Bileipada - OSPCB",01-12-2025 08:00:00,22.06156703,85.47409613,SO2,NA,NA,NA
India,Odisha,Brajrajnagar,"GM Office, Brajrajnagar - OSPCB",01-12-2025 08:00:00,21.8004996,83.8396977,SO2,15,16,16
India,Rajasthan,Alwar,"Moti Doongri, Alwar - RSPCB",01-12-2025 08:00:00,27.554793,76.611536,NO2,52,71,60
India,Rajasthan,Alwar,"Moti Doongri, Alwar - RSPCB",01-12-2025 08:00:00,27.554793,76.611536,NH3,11,15,13
India,Rajasthan,Alwar,"Moti Doongri, Alwar - RSPCB",01-12-2025 08:00:00,27.554793,76.611536,CO,25,86,42
India,Rajasthan,Banswara,"Rati Talai, Banswara - RSPCB",01-12-2025 08:00:00,23.555190,74.440010,PM10,73,181,111
India,Rajasthan,Banswara,"Rati Talai, Banswara - RSPCB",01-12-2025 08:00:00,23.555190,74.440010,NO2,21,112,44
India,Rajasthan,Baran,"Bamboliya, Baran - RSPCB",01-12-2025 08:00:00,25.106006,76.469948,PM2.5,83,322,237
India,Puducherry,Puducherry,"Jawahar Nagar, Puducherry - PPCC",01-12-2025 08:00:00,11.9309,79.8027,NH3,1,2,1
India,Punjab,Amritsar,"Golden Temple, Amritsar - PPCB",01-12-2025 08:00:00,31.620000,74.876512,PM2.5,40,140,79
India,Punjab,Amritsar,"Golden Temple, Amritsar - PPCB",01-12-2025 08:00:00,31.620000,74.876512,CO,24,58,42
India,Punjab,Amritsar,"Golden Temple, Amritsar - PPCB",01-12-2025 08:00:00,31.620000,74.876512,OZONE,32,44,38
India,Punjab,Jalandhar,"Civil Line, Jalandhar - PPCB",01-12-2025 08:00:00,31.321907,75.578914,SO2,14,16,15
India,Odisha,Byasanagar,"Ferro Chrome Colony, Byasanagar - OSPCB",01-12-2025 08:00:00,20.94185,86.11510,PM10,98,193,132
India,Odisha,Cuttack,"CDA Area, Cuttack - OSPCB",01-12-2025 08:00:00,20.48891     ,85.84768     ,NH3,3,7,5
India,Odisha,Nayagarh,"Dabuna, Nayagarh - OSPCB",01-12-2025 08:00:00,21.847279,85.416905,PM10,49,99,70
India,Odisha,Nayagarh,"Dabuna, Nayagarh - OSPCB",01-12-2025 08:00:00,21.847279,85.416905,NO2,6,8,7
India,Odisha,Nayagarh,"Dabuna, Nayagarh - OSPCB",01-12-2025 08:00:00,21.847279,85.416905,NH3,6,7,7
India,Odisha,Angul,"Hakimapada, Angul - OSPCB",01-12-2025 08:00:00,20.832874,85.104082,PM2.5,200,342,289
India,Odisha,Balasore,"Kalidaspur, Balasore - OSPCB",01-12-2025 08:00:00,21.51161,86.89088,PM2.5,160,349,240
India,Odisha,Barbil,"Forest Office, Barbil - OSPCB",01-12-2025 08:00:00,22.1166054,85.3945546,PM2.5,117,329,197
India,Odisha,Baripada,"Meher Colony, Baripada - OSPCB",01-12-2025 08:00:00,21.941841,86.728318,SO2,NA,NA,NA
India,Rajasthan,Barmer,"Railway Colony, Barmer - RSPCB",01-12-2025 08:00:00,25.747299,71.393989,SO2,2,32,6
India,Rajasthan,Bharatpur,"Krishna Nagar, Bharatpur - RSPCB",01-12-2025 08:00:00,27.215415,77.50873,NH3,13,21,16
India,Rajasthan,Bharatpur,"Krishna Nagar, Bharatpur - RSPCB",01-12-2025 08:00:00,27.215415,77.50873,SO2,1,16,6
India,Rajasthan,Bhilwara,"Pratap Nagar, Bhilwara - RSPCB",01-12-2025 08:00:00,25.339605,74.618883,NH3,11,18,15
India,Rajasthan,Tonk,"Shastri Nagar, Tonk - RSPCB",01-12-2025 08:00:00,26.159933,75.780517,PM10,126,500,226
India,Rajasthan,Udaipur,"Ashok Nagar, Udaipur - RSPCB",01-12-2025 08:00:00,24.5886166,73.6321397,NH3,3,23,10
India,Sikkim,Gangtok,"Zero Point GICI, Gangtok - SSPCB",01-12-2025 08:00:00,27.338530,88.614099,NO2,6,9,7
India,TamilNadu,Ariyalur,"Keelapalur, Ariyalur - TNPCB",01-12-2025 08:00:00,11.06825,79.07033,NO2,9,9,9
India,TamilNadu,Ariyalur,"Keelapalur, Ariyalur - TNPCB",01-12-2025 08:00:00,11.06825,79.07033,NH3,1,1,1
India,TamilNadu,Chennai,"Arumbakkam, Chennai - TNPCB",01-12-2025 08:00:00,13.0664,80.2112 ,PM10,9,59,25
India,TamilNadu,Chennai,"Arumbakkam, Chennai - TNPCB",01-12-2025 08:00:00,13.0664,80.2112 ,NH3,1,2,2
India,Rajasthan,Karauli,"Satyawati Vihar, Karauli - RSPCB",01-12-2025 08:00:00,26.506177,77.025989,OZONE,6,90,19
India,Rajasthan,Kota,"Dhanmandi, Kota - RSPCB",01-12-2025 08:00:00,25.164090,75.858137,PM2.5,150,386,282
India,Rajasthan,Kota,"Dhanmandi, Kota - RSPCB",01-12-2025 08:00:00,25.164090,75.858137,CO,26,118,63
India,Rajasthan,Kota,"Nayapura, Kota - RSPCB",01-12-2025 08:00:00,25.196024,75.855668,PM2.5,130,348,264
India,Rajasthan,Kota,"Nayapura, Kota - RSPCB",01-12-2025 08:00:00,25.196024,75.855668,OZONE,6,233,7
India,Rajasthan,Kota,"Shrinath Puram, Kota - RSPCB",01-12-2025 08:00:00,25.14389,75.821256,NH3,4,10,6
India,Rajasthan,Kota,"Shrinath Puram, Kota - RSPCB",01-12-2025 08:00:00,25.14389,75.821256,SO2,10,82,22
India,Rajasthan,Kota,"Shrinath Puram, Kota - RSPCB",01-12-2025 08:00:00,25.14389,75.821256,OZONE,11,23,17
India,Rajasthan,Jaipur,"Adarsh Nagar, Jaipur - RSPCB",01-12-2025 08:00:00,26.902909,75.836858,CO,43,106,63
India,Rajasthan,Jaipur,"Mansarovar Sector-12, Jaipur - RSPCB",01-12-2025 08:00:00,26.843698,75.766894,PM2.5,123,408,280
India,Rajasthan,Jaipur,"Mansarovar Sector-12, Jaipur - RSPCB",01-12-2025 08:00:00,26.843698,75.766894,NH3,16,22,18
India,Rajasthan,Jaipur,"Mansarovar Sector-12, Jaipur - RSPCB",01-12-2025 08:00:00,26.843698,75.766894,SO2,1,5,2
India,Rajasthan,Jaipur,"Mansarovar Sector-12, Jaipur - RSPCB",01-12-2025 08:00:00,26.843698,75.766894,OZONE,1,155,6
India,Rajasthan,Jaipur,"Police Commissionerate, Jaipur - RSPCB",01-12-2025 08:00:00,26.9164092,75.7994901,PM2.5,62,224,122
India,Rajasthan,Jaipur,"Police Commissionerate, Jaipur - RSPCB",01-12-2025 08:00:00,26.9164092,75.7994901,SO2,6,10,8
India,Rajasthan,Churu,"Subash Chowk, Churu - RSPCB",01-12-2025 08:00:00,28.296139,74.961696,PM10,82,457,207
India,Rajasthan,Dausa,"Khatikan Mohalla, Dausa - RSPCB",01-12-2025 08:00:00,26.895552,76.334753,PM10,83,261,126
India,Rajasthan,Dausa,"Khatikan Mohalla, Dausa - RSPCB",01-12-2025 08:00:00,26.895552,76.334753,NO2,14,115,54
India,Rajasthan,Dausa,"Khatikan Mohalla, Dausa - RSPCB",01-12-2025 08:00:00,26.895552,76.334753,CO,56,147,64
India,Rajasthan,Dholpur,"Raja Ganj, Dholpur - RSPCB",01-12-2025 08:00:00,26.699557,77.898881,NH3,3,11,7
India,Rajasthan,Dholpur,"Raja Ganj, Dholpur - RSPCB",01-12-2025 08:00:00,26.699557,77.898881,CO,2,108,46
India,Rajasthan,Sawai Madhopur,"Sahu Nagar, Sawai Madhopur - RSPCB",01-12-2025 08:00:00,26.031443,76.359327,NH3,8,10,9
India,Rajasthan,Sirohi,"Vedhaynath Colony, Sirohi - RSPCB",01-12-2025 08:00:00,24.885261,72.857549,PM10,59,159,102
India,Rajasthan,Sri Ganganagar,"Old City, Sri Ganganagar - RSPCB",01-12-2025 08:00:00,29.931624,73.864511,PM2.5,23,100,62
India,Rajasthan,Sri Ganganagar,"Old City, Sri Ganganagar - RSPCB",01-12-2025 08:00:00,29.931624,73.864511,CO,4,192,66
India,Rajasthan,Sri Ganganagar,"Old City, Sri Ganganagar - RSPCB",01-12-2025 08:00:00,29.931624,73.864511,OZONE,NA,NA,NA
India,Rajasthan,Jodhpur,"Mandor, Jodhpur - RSPCB",01-12-2025 08:00:00,26.358805,73.047444,PM10,74,171,111
India,Rajasthan,Jodhpur,"Mandor, Jodhpur - RSPCB",01-12-2025 08:00:00,26.358805,73.047444,NO2,11,102,30
India,Rajasthan,Jodhpur,"Mandor, Jodhpur - RSPCB",01-12-2025 08:00:00,26.358805,73.047444,CO,26,62,33
India,Rajasthan,Jodhpur,"Mandor, Jodhpur - RSPCB",01-12-2025 08:00:00,26.358805,73.047444,OZONE,5,125,48
India,Rajasthan,Jodhpur,"Samrat Ashok Udhyan, Jodhpur - RSPCB",01-12-2025 08:00:00,26.253384,72.976571,NH3,3,7,5
India,Rajasthan,Jodhpur,"Samrat Ashok Udhyan, Jodhpur - RSPCB",01-12-2025 08:00:00,26.253384,72.976571,SO2,1,26,6
India,Rajasthan,Pratapgarh,"Pragati Nagar, Pratapgarh - RSPCB",01-12-2025 08:00:00,24.041198,74.780702,PM2.5,58,290,96
India,Rajasthan,Pratapgarh,"Pragati Nagar, Pratapgarh - RSPCB",01-12-2025 08:00:00,24.041198,74.780702,NH3,3,9,6
India,Rajasthan,Pratapgarh,"Pragati Nagar, Pratapgarh - RSPCB",01-12-2025 08:00:00,24.041198,74.780702,SO2,2,8,4
India,Rajasthan,Rajsamand,"Dhoinda, Rajsamand - RSPCB",01-12-2025 08:00:00,25.036360,73.883502,OZONE,6,108,31
India,Rajasthan,Jalore,"Mudtra Sili, Jalore - RSPCB",01-12-2025 08:00:00,25.344694,72.626208,SO2,NA,NA,NA
India,Rajasthan,Jhalawar,"Rajlaxmi Nagar, Jhalawar - RSPCB",01-12-2025 08:00:00,24.588397,76.172782,PM2.5,87,358,223
India,Rajasthan,Jaipur,"RIICO Sitapura, Jaipur - RSPCB",01-12-2025 08:00:00,26.786682,75.827928,NO2,26,149,70
India,Rajasthan,Jaisalmer,"Sadar Bazar, Jaisalmer - RSPCB",01-12-2025 08:00:00,26.912329,70.909168,CO,26,62,39
India,TamilNadu,Virudhunagar,"Collectorate Office, Virudhunagar - TNPCB",01-12-2025 08:00:00,9.559382,77.948828,SO2,26,27,27
India,TamilNadu,Virudhunagar,"Collectorate Office, Virudhunagar - TNPCB",01-12-2025 08:00:00,9.559382,77.948828,CO,50,62,56
India,Telangana,Hyderabad,"Bollaram Industrial Area, Hyderabad - TSPCB",01-12-2025 08:00:00,17.540891,78.358528,PM10,71,138,103
India,Telangana,Hyderabad,"Bollaram Industrial Area, Hyderabad - TSPCB",01-12-2025 08:00:00,17.540891,78.358528,SO2,2,10,7
India,Telangana,Hyderabad,"Central University, Hyderabad - TSPCB",01-12-2025 08:00:00,17.460103,78.334361,PM10,49,121,90
India,Telangana,Hyderabad,"Central University, Hyderabad - TSPCB",01-12-2025 08:00:00,17.460103,78.334361,CO,4,73,37
India,Telangana,Hyderabad,"ECIL Kapra, Hyderabad - TSPCB",01-12-2025 08:00:00,17.470431,78.566959,PM2.5,43,58,47
India,Telangana,Hyderabad,"ECIL Kapra, Hyderabad - TSPCB",01-12-2025 08:00:00,17.470431,78.566959,SO2,5,17,9
India,Telangana,Hyderabad,"ICRISAT Patancheru, Hyderabad - TSPCB",01-12-2025 08:00:00,17.518400,78.278777,PM2.5,69,184,134
India,Telangana,Hyderabad,"New Malakpet, Hyderabad - TSPCB",01-12-2025 08:00:00,17.37206,78.50864,NH3,3,4,3
India,Telangana,Hyderabad,"New Malakpet, Hyderabad - TSPCB",01-12-2025 08:00:00,17.37206,78.50864,SO2,12,19,15
India,Telangana,Hyderabad,"Ramachandrapuram, Hyderabad - TSPCB",01-12-2025 08:00:00,17.528544,78.286195,PM2.5,41,44,43
India,Telangana,Hyderabad,"Sanathnagar, Hyderabad - TSPCB",01-12-2025 08:00:00,17.4559458,78.4332152,PM2.5,48,190,101
India,Telangana,Hyderabad,"Sanathnagar, Hyderabad - TSPCB",01-12-2025 08:00:00,17.4559458,78.4332152,NO2,25,29,27
India,Telangana,Hyderabad,"Sanathnagar, Hyderabad - TSPCB",01-12-2025 08:00:00,17.4559458,78.4332152,CO,46,58,51
India,Telangana,Hyderabad,"Somajiguda, Hyderabad - TSPCB",01-12-2025 08:00:00,17.417094,78.457437,OZONE,13,44,21
India,Telangana,Hyderabad,"Zoo Park, Hyderabad - TSPCB",01-12-2025 08:00:00,17.349694,78.451437,PM2.5,121,184,159
India,Telangana,Hyderabad,"Zoo Park, Hyderabad - TSPCB",01-12-2025 08:00:00,17.349694,78.451437,NO2,21,37,29
India,Telangana,Hyderabad,"IDA Pashamylaram, Hyderabad - TSPCB",01-12-2025 08:00:00,17.5316895,78.218939,PM10,41,131,90
India,Telangana,Hyderabad,"Kokapet, Hyderabad - TSPCB",01-12-2025 08:00:00,17.393559,78.339194,PM10,80,175,125
India,Telangana,Hyderabad,"Kokapet, Hyderabad - TSPCB",01-12-2025 08:00:00,17.393559,78.339194,SO2,11,19,14
India,Telangana,Hyderabad,"Kokapet, Hyderabad - TSPCB",01-12-2025 08:00:00,17.393559,78.339194,CO,20,36,21
India,Telangana,Hyderabad,"Kompally Municipal Office, Hyderabad - TSPCB",01-12-2025 08:00:00,17.544899,78.486949,NO2,9,12,11
India,Telangana,Hyderabad,"Kompally Municipal Office, Hyderabad - TSPCB",01-12-2025 08:00:00,17.544899,78.486949,SO2,NA,NA,NA
India,Telangana,Hyderabad,"Nacharam_TSIIC IALA, Hyderabad - TSPCB",01-12-2025 08:00:00,17.429398,78.569354,NH3,5,5,5
India,Telangana,Hyderabad,"New Malakpet, Hyderabad - TSPCB",01-12-2025 08:00:00,17.37206,78.50864,PM2.5,45,73,59
India,TamilNadu,Cuddalore,"Semmandalam, Cuddalore - TNPCB",01-12-2025 08:00:00,11.7637683,79.7499835,OZONE,1,2,2
India,TamilNadu,Gummidipoondi,"Anthoni Pillai Nagar, Gummidipoondi - TNPCB",01-12-2025 08:00:00,13.4127,80.1081,PM2.5,10,344,50
India,TamilNadu,Karur,"Kamadenu Nagar, Karur - TNPCB",01-12-2025 08:00:00,10.967820,78.080882,NH3,3,3,3
India,TamilNadu,Karur,"Kamadenu Nagar, Karur - TNPCB",01-12-2025 08:00:00,10.967820,78.080882,SO2,15,16,15
India,TamilNadu,Madurai,"Uchapatti, Madurai - TNPCB",01-12-2025 08:00:00,9.865935,78.022669,SO2,32,36,34
India,TamilNadu,Nagapattinam,"Velippalayam, Nagapattinam - TNPCB",01-12-2025 08:00:00,10.798548,79.838212,SO2,NA,NA,NA
India,TamilNadu,Chennai,"Perungudi, Chennai - TNPCB",01-12-2025 08:00:00,12.9533,80.2357,OZONE,NA,NA,NA
India,TamilNadu,Chennai,"Velachery Res. Area, Chennai - CPCB",01-12-2025 08:00:00,13.0052189,80.2398125,NO2,12,15,13
India,TamilNadu,Coimbatore,"PSG College of Arts and Science, Coimbatore - TNPCB",01-12-2025 08:00:00,11.0328,77.0349,OZONE,3,6,4
India,TamilNadu,Coimbatore,"SIDCO Kurichi, Coimbatore - TNPCB",01-12-2025 08:00:00,10.942451,76.978996,PM10,26,54,38
India,TamilNadu,Cuddalore,"Kudikadu, Cuddalore - TNPCB",01-12-2025 08:00:00,11.6829898,79.7532099,NH3,4,5,5
India,TamilNadu,Chennai,"Gandhi Nagar_Ennore, Chennai - TNPCB",01-12-2025 08:00:00,13.218341,80.32027,PM2.5,NA,NA,NA
India,TamilNadu,Chennai,"Gandhi Nagar_Ennore, Chennai - TNPCB",01-12-2025 08:00:00,13.218341,80.32027,NO2,7,7,7
India,TamilNadu,Chennai,"Manali Village, Chennai - TNPCB",01-12-2025 08:00:00,13.1662,80.2584,NH3,1,2,1
India,TamilNadu,Chennai,"Manali, Chennai - CPCB",01-12-2025 08:00:00,13.164544,80.26285,NH3,7,7,7
India,TamilNadu,Chennai,"Perungudi, Chennai - TNPCB",01-12-2025 08:00:00,12.9533,80.2357,NH3,NA,NA,NA
India,TamilNadu,Chennai,"Perungudi, Chennai - TNPCB",01-12-2025 08:00:00,12.9533,80.2357,CO,NA,NA,NA
India,TamilNadu,Palkalaiperur,"Bharathidasan University, Palkalaiperur - TNPCB",01-12-2025 08:00:00,10.681158,78.741746,NO2,1,2,1
India,TamilNadu,Perundurai,"SIPCOT Industrial Park, Perundurai - TNPCB",01-12-2025 08:00:00,11.258242,77.552761,PM10,36,130,65
India,TamilNadu,Perundurai,"SIPCOT Industrial Park, Perundurai - TNPCB",01-12-2025 08:00:00,11.258242,77.552761,NO2,7,9,8
India,TamilNadu,Ramanathapuram,"Chalai Bazaar, Ramanathapuram - TNPCB",01-12-2025 08:00:00,9.36399,78.831977,PM10,6,58,37
India,TamilNadu,Tirunelveli,"Municipal Corporation Office, Tirunelveli - TNPCB",01-12-2025 08:00:00,8.728442,77.6962,NH3,NA,NA,NA
India,TamilNadu,Tirunelveli,"Municipal Corporation Office, Tirunelveli - TNPCB",01-12-2025 08:00:00,8.728442,77.6962,SO2,NA,NA,NA
India,TamilNadu,Vellore,"Vasanthapuram, Vellore - TNPCB",01-12-2025 08:00:00,12.909494,79.131861,PM2.5,12,37,25
India,TamilNadu,Vellore,"Vasanthapuram, Vellore - TNPCB",01-12-2025 08:00:00,12.909494,79.131861,NO2,NA,NA,NA
India,TamilNadu,Vellore,"Vasanthapuram, Vellore - TNPCB",01-12-2025 08:00:00,12.909494,79.131861,SO2,20,20,20
India,Tripura,Agartala,"Bardowali, Agartala - Tripura SPCB",01-12-2025 08:00:00,23.8175497,91.2726974,PM10,NA,NA,NA
India,Tripura,Agartala,"Bardowali, Agartala - Tripura SPCB",01-12-2025 08:00:00,23.8175497,91.2726974,NH3,2,3,3
India,Tripura,Agartala,"Bardowali, Agartala - Tripura SPCB",01-12-2025 08:00:00,23.8175497,91.2726974,OZONE,1,5,1
India,Uttar_Pradesh,Agra,"Rohta, Agra - UPPCB",01-12-2025 08:00:00,27.106972,78.000111,CO,14,60,53
India,Uttar_Pradesh,Ghaziabad,"Vasundhara, Ghaziabad - UPPCB",01-12-2025 08:00:00,28.6603346,77.3572563,OZONE,5,148,11
India,Uttar_Pradesh,Gorakhpur,"Madan Mohan Malaviya University of Technology, Gorakhpur - UPPCB",01-12-2025 08:00:00,26.730136,83.433859,PM10,30,163,103
India,Uttar_Pradesh,Gorakhpur,"Madan Mohan Malaviya University of Technology, Gorakhpur - UPPCB",01-12-2025 08:00:00,26.730136,83.433859,CO,6,7,6
India,Uttar_Pradesh,Greater Noida,"Knowledge Park - III, Greater Noida - UPPCB",01-12-2025 08:00:00,28.47272,77.482000,NO2,25,105,70
India,Uttar_Pradesh,Greater Noida,"Knowledge Park - V, Greater Noida - UPPCB",01-12-2025 08:00:00,28.557054,77.453663,NO2,75,138,109
India,Uttar_Pradesh,Greater Noida,"Knowledge Park - V, Greater Noida - UPPCB",01-12-2025 08:00:00,28.557054,77.453663,NH3,7,15,10
India,Uttar_Pradesh,Firozabad,"Vibhab Nagar, Firozabad - UPPCB",01-12-2025 08:00:00,27.1594,78.3953,OZONE,NA,NA,NA
India,Uttar_Pradesh,Ghaziabad,"Indirapuram, Ghaziabad - UPPCB",01-12-2025 08:00:00,28.646233,77.358075,PM10,152,461,280
India,Uttar_Pradesh,Ghaziabad,"Loni, Ghaziabad - UPPCB",01-12-2025 08:00:00,28.757294,77.278792,NO2,38,165,110
India,Uttar_Pradesh,Ghaziabad,"Loni, Ghaziabad - UPPCB",01-12-2025 08:00:00,28.757294,77.278792,NH3,3,14,9
India,Uttar_Pradesh,Ghaziabad,"Loni, Ghaziabad - UPPCB",01-12-2025 08:00:00,28.757294,77.278792,SO2,9,29,20
India,Uttar_Pradesh,Ghaziabad,"Loni, Ghaziabad - UPPCB",01-12-2025 08:00:00,28.757294,77.278792,CO,43,109,91
India,Uttar_Pradesh,Ghaziabad,"Sanjay Nagar, Ghaziabad - UPPCB",01-12-2025 08:00:00,28.685382,77.453839,NO2,64,189,116
India,Uttar_Pradesh,Lucknow,"Kukrail Picnic Spot-1, Lucknow - UPPCB",01-12-2025 08:00:00,26.90723,80.98579,CO,12,15,14
India,Uttar_Pradesh,Lucknow,"Lalbagh, Lucknow - CPCB",01-12-2025 08:00:00,26.8458805,80.9365541,SO2,1,11,5
India,Uttar_Pradesh,Lucknow,"Talkatora District Industries Center, Lucknow - CPCB",01-12-2025 08:00:00,26.83399722,80.8917361,NO2,45,62,52
India,Uttar_Pradesh,Lucknow,"Talkatora District Industries Center, Lucknow - CPCB",01-12-2025 08:00:00,26.83399722,80.8917361,OZONE,9,54,13
India,Uttar_Pradesh,Meerut,"Ganga Nagar, Meerut - UPPCB",01-12-2025 08:00:00,28.999264,77.7590354,CO,18,100,39
India,Uttar_Pradesh,Meerut,"Ganga Nagar, Meerut - UPPCB",01-12-2025 08:00:00,28.999264,77.7590354,OZONE,11,143,18
India,Uttar_Pradesh,Bareilly,"Rajendra Nagar, Bareilly - UPPCB",01-12-2025 08:00:00,28.38910936,79.42963708,NO2,9,10,9
India,Uttar_Pradesh,Bareilly,"Rajendra Nagar, Bareilly - UPPCB",01-12-2025 08:00:00,28.38910936,79.42963708,SO2,34,35,34
India,Uttar_Pradesh,Bulandshahr,"Yamunapuram, Bulandshahr - UPPCB",01-12-2025 08:00:00,28.406963,77.849831,PM10,164,261,203
India,Uttar_Pradesh,Bulandshahr,"Yamunapuram, Bulandshahr - UPPCB",01-12-2025 08:00:00,28.406963,77.849831,NO2,49,147,102
India,Uttar_Pradesh,Bulandshahr,"Yamunapuram, Bulandshahr - UPPCB",01-12-2025 08:00:00,28.406963,77.849831,SO2,12,80,24
India,Uttar_Pradesh,Firozabad,"Nagla Bhau, Firozabad - UPPCB",01-12-2025 08:00:00,27.168897,78.376960,PM2.5,31,75,47
India,Uttar_Pradesh,Firozabad,"Nagla Bhau, Firozabad - UPPCB",01-12-2025 08:00:00,27.168897,78.376960,SO2,12,26,20
India,Uttar_Pradesh,Agra,"Sector-3B Avas Vikas Colony, Agra - UPPCB",01-12-2025 08:00:00,27.19412,77.96237,NO2,33,33,33
India,Uttar_Pradesh,Agra,"Shahjahan Garden, Agra - UPPCB",01-12-2025 08:00:00,27.169338,78.03582,CO,16,88,38
India,Uttar_Pradesh,Agra,"Shastripuram, Agra - UPPCB",01-12-2025 08:00:00,27.19862,77.92066,OZONE,6,7,7
India,Uttar_Pradesh,Baghpat,"Sardar Patel Inter College, Baghpat - UPPCB",01-12-2025 08:00:00,28.964949,77.278761,CO,18,62,38
India,Uttar_Pradesh,Moradabad,"Jigar Colony, Moradabad - UPPCB",01-12-2025 08:00:00,28.856664,78.772638,PM10,74,135,116
India,Uttar_Pradesh,Moradabad,"Kashiram Nagar, Moradabad - UPPCB",01-12-2025 08:00:00,28.849399,78.742362,PM10,73,131,109
India,Uttar_Pradesh,Moradabad,"Transport Nagar, Moradabad - UPPCB",01-12-2025 08:00:00,28.802625,78.753728,PM2.5,18,103,64
India,Uttar_Pradesh,Muzaffarnagar,"New Mandi, Muzaffarnagar - UPPCB",01-12-2025 08:00:00,29.4723508,77.7194031,CO,22,102,50
India,Uttar_Pradesh,Hapur,"Anand Vihar, Hapur - UPPCB",01-12-2025 08:00:00,28.725645,77.749675,SO2,27,56,38
India,Uttar_Pradesh,Kanpur,"FTI Kidwai Nagar, Kanpur - UPPCB",01-12-2025 08:00:00,26.428282,80.327067,PM10,57,169,102
India,Uttar_Pradesh,Kanpur,"FTI Kidwai Nagar, Kanpur - UPPCB",01-12-2025 08:00:00,26.428282,80.327067,CO,34,52,47
India,Uttar_Pradesh,Kanpur,"NSI Kalyanpur, Kanpur - UPPCB",01-12-2025 08:00:00,26.509954,80.249612,PM10,60,145,102
India,Uttar_Pradesh,Kanpur,"NSI Kalyanpur, Kanpur - UPPCB",01-12-2025 08:00:00,26.509954,80.249612,OZONE,16,18,18
India,Uttar_Pradesh,Lucknow,"B R Ambedkar University, Lucknow - UPPCB",01-12-2025 08:00:00,26.766433,80.927299,NO2,21,22,22
India,Uttar_Pradesh,Lucknow,"B R Ambedkar University, Lucknow - UPPCB",01-12-2025 08:00:00,26.766433,80.927299,CO,55,60,58
India,Uttar_Pradesh,Lucknow,"Kendriya Vidyalaya, Lucknow - CPCB",01-12-2025 08:00:00,26.906111,80.948222,SO2,5,12,8
India,Uttar_Pradesh,Lucknow,"Kendriya Vidyalaya, Lucknow - CPCB",01-12-2025 08:00:00,26.906111,80.948222,CO,15,85,53
India,Uttar_Pradesh,Moradabad,"Buddhi Vihar, Moradabad - UPPCB",01-12-2025 08:00:00,28.83526,78.74460,NO2,29,29,29
India,Uttar_Pradesh,Moradabad,"Eco Herbal Park, Moradabad - UPPCB",01-12-2025 08:00:00,28.840739,78.697531,PM10,110,216,175
India,West_Bengal,Kolkata,"Ballygunge, Kolkata - WBPCB",01-12-2025 08:00:00,22.5367507,88.3638022,CO,5,116,98
India,West_Bengal,Kolkata,"Fort William, Kolkata - WBPCB",01-12-2025 08:00:00,22.556640,88.342674,PM2.5,139,340,242
India,West_Bengal,Kolkata,"Fort William, Kolkata - WBPCB",01-12-2025 08:00:00,22.556640,88.342674,PM10,116,247,164
India,West_Bengal,Kolkata,"Fort William, Kolkata - WBPCB",01-12-2025 08:00:00,22.556640,88.342674,NO2,15,20,18
India,West_Bengal,Kolkata,"Jadavpur, Kolkata - WBPCB",01-12-2025 08:00:00,22.49929,88.36917,PM10,127,240,181
India,West_Bengal,Kolkata,"Jadavpur, Kolkata - WBPCB",01-12-2025 08:00:00,22.49929,88.36917,CO,30,120,115
India,West_Bengal,Kolkata,"Rabindra Bharati University, Kolkata - WBPCB",01-12-2025 08:00:00,22.627847,88.380669,PM2.5,56,255,140
India,West_Bengal,Kolkata,"Rabindra Bharati University, Kolkata - WBPCB",01-12-2025 08:00:00,22.627847,88.380669,SO2,6,11,9
India,Uttar_Pradesh,Varanasi,"Maldahiya, Varanasi - UPPCB",01-12-2025 08:00:00,25.32393,82.99687,NO2,2,2,2
India,Uttar_Pradesh,Varanasi,"Maldahiya, Varanasi - UPPCB",01-12-2025 08:00:00,25.32393,82.99687,SO2,27,29,29
India,Uttar_Pradesh,Vrindavan,"Omex Eternity, Vrindavan - UPPCB",01-12-2025 08:00:00,27.5714090,77.6557570,PM10,49,159,105
India,Uttar_Pradesh,Vrindavan,"Omex Eternity, Vrindavan - UPPCB",01-12-2025 08:00:00,27.5714090,77.6557570,CO,30,74,63
India,Uttarakhand,Dehradun,"Doon University, Dehradun - UKPCB",01-12-2025 08:00:00,30.269444,78.044167,PM10,48,135,88
India,Uttarakhand,Kashipur,"Govt. Girls Inter College, Kashipur - UKPCB",01-12-2025 08:00:00,29.2124114,78.9611753,PM2.5,92,257,180
India,Uttar_Pradesh,Prayagraj,"Jhunsi, Prayagraj - UPPCB",01-12-2025 08:00:00,25.425602,81.917152,SO2,7,8,7
India,Uttar_Pradesh,Prayagraj,"Motilal Nehru NIT, Prayagraj - UPPCB",01-12-2025 08:00:00,25.494,81.863,PM2.5,51,210,105
India,Uttar_Pradesh,Prayagraj,"Motilal Nehru NIT, Prayagraj - UPPCB",01-12-2025 08:00:00,25.494,81.863,SO2,22,45,32
India,Uttar_Pradesh,Prayagraj,"Nagar Nigam, Prayagraj - UPPCB",01-12-2025 08:00:00,25.44919916 ,81.82735986 ,PM10,46,191,84
India,Uttar_Pradesh,Prayagraj,"Nagar Nigam, Prayagraj - UPPCB",01-12-2025 08:00:00,25.44919916 ,81.82735986 ,NH3,7,14,10
India,Uttar_Pradesh,Varanasi,"Ardhali Bazar, Varanasi - UPPCB",01-12-2025 08:00:00,25.3505986,82.9083074,OZONE,6,29,16
India,Uttarakhand,Kashipur,"Govt. Girls Inter College, Kashipur - UKPCB",01-12-2025 08:00:00,29.2124114,78.9611753,OZONE,1,4,1
India,Uttarakhand,Rishikesh,"Shivaji Nagar, Rishikesh - UKPCB",01-12-2025 08:00:00,30.075911,78.2859547,OZONE,5,5,5
India,West_Bengal,Asansol,"Mahabir Colliery, Asansol - WBPCB",01-12-2025 08:00:00,23.6181830,87.1057180,PM2.5,66,325,236
India,West_Bengal,Asansol,"Mahabir Colliery, Asansol - WBPCB",01-12-2025 08:00:00,23.6181830,87.1057180,PM10,63,159,119
India,West_Bengal,Asansol,"Mahabir Colliery, Asansol - WBPCB",01-12-2025 08:00:00,23.6181830,87.1057180,NO2,6,110,32
India,West_Bengal,Asansol,"Mahabir Colliery, Asansol - WBPCB",01-12-2025 08:00:00,23.6181830,87.1057180,NH3,1,74,4
India,West_Bengal,Haldia,"Priyambada Housing Estate, Haldia - WBPCB",01-12-2025 08:00:00,22.06047,88.109737,CO,32,78,60
India,West_Bengal,Haldia,"Priyambada Housing Estate, Haldia - WBPCB",01-12-2025 08:00:00,22.06047,88.109737,OZONE,19,30,20
India,West_Bengal,Howrah,"Belur Math, Howrah - WBPCB",01-12-2025 08:00:00,22.629801,88.352017,NO2,21,50,32
India,West_Bengal,Howrah,"Belur Math, Howrah - WBPCB",01-12-2025 08:00:00,22.629801,88.352017,CO,23,106,70
India,West_Bengal,Howrah,"Belur Math, Howrah - WBPCB",01-12-2025 08:00:00,22.629801,88.352017,OZONE,9,43,9
India,West_Bengal,Howrah,"Botanical Garden, Howrah - WBPCB",01-12-2025 08:00:00,22.554954,88.292568,NO2,9,21,14
India,Uttar_Pradesh,Noida,"Sector - 62, Noida - IMD",01-12-2025 08:00:00,28.6245479,77.3577104,PM2.5,92,339,273
India,Uttar_Pradesh,Noida,"Sector - 62, Noida - IMD",01-12-2025 08:00:00,28.6245479,77.3577104,NO2,23,51,38
India,Uttar_Pradesh,Noida,"Sector - 62, Noida - IMD",01-12-2025 08:00:00,28.6245479,77.3577104,CO,36,82,74
India,Uttar_Pradesh,Noida,"Sector - 62, Noida - IMD",01-12-2025 08:00:00,28.6245479,77.3577104,OZONE,15,128,16
India,Uttar_Pradesh,Noida,"Sector-1, Noida - UPPCB",01-12-2025 08:00:00,28.5898,77.3101,CO,7,111,106
India,Uttar_Pradesh,Noida,"Sector-116, Noida - UPPCB",01-12-2025 08:00:00,28.569230,77.393848,NO2,48,153,104
India,West_Bengal,Howrah,"Dasnagar, Howrah - WBPCB",01-12-2025 08:00:00,22.6025571,88.3105664,NO2,NA,NA,NA
India,West_Bengal,Howrah,"Ghusuri, Howrah - WBPCB",01-12-2025 08:00:00,22.611968,88.347422,SO2,12,19,14
India,West_Bengal,Howrah,"Ghusuri, Howrah - WBPCB",01-12-2025 08:00:00,22.611968,88.347422,CO,15,112,97
India,West_Bengal,Kolkata,"Ballygunge, Kolkata - WBPCB",01-12-2025 08:00:00,22.5367507,88.3638022,PM10,102,223,161
India,Uttar_Pradesh,Varanasi,"Bhelupur, Varanasi - UPPCB",01-12-2025 08:00:00,25.301778,82.996789,OZONE,1,3,1
India,Uttar_Pradesh,Varanasi,"IESD Banaras Hindu University, Varanasi - UPPCB",01-12-2025 08:00:00,25.262326,82.995408,SO2,26,33,32
India,West_Bengal,Asansol,"Trivenidevi Bhalotia College, Asansol - WBPCB",01-12-2025 08:00:00,23.616515,87.119133,PM10,70,145,118
India,West_Bengal,Kolkata,"Rabindra Sarobar, Kolkata - WBPCB",01-12-2025 08:00:00,22.51106,88.35142,PM2.5,64,233,131
India,West_Bengal,Kolkata,"Rabindra Sarobar, Kolkata - WBPCB",01-12-2025 08:00:00,22.51106,88.35142,SO2,7,74,15
India,West_Bengal,Kolkata,"Rabindra Sarobar, Kolkata - WBPCB",01-12-2025 08:00:00,22.51106,88.35142,OZONE,2,104,2
India,West_Bengal,Siliguri,"Ward-32 Bapupara, Siliguri - WBPCB",01-12-2025 08:00:00,26.6879226,88.4152495,SO2,11,28,18
India,Bihar,Begusarai,"Lohiyanagar, Begusarai - BSPCB",01-12-2025 08:00:00,25.42742023,86.13886079,SO2,4,9,6
India,Bihar,Begusarai,"Lohiyanagar, Begusarai - BSPCB",01-12-2025 08:00:00,25.42742023,86.13886079,CO,32,36,34
India,Bihar,Begusarai,"Lohiyanagar, Begusarai - BSPCB",01-12-2025 08:00:00,25.42742023,86.13886079,OZONE,7,14,9
India,Bihar,Bettiah,"Kamalnath Nagar, Bettiah - BSPCB",01-12-2025 08:00:00,26.80365,84.51954,PM10,NA,NA,NA
India,Bihar,Bettiah,"Kamalnath Nagar, Bettiah - BSPCB",01-12-2025 08:00:00,26.80365,84.51954,CO,NA,NA,NA
India,Bihar,Bhagalpur,"DM Office_Kachari Chowk, Bhagalpur - BSPCB",01-12-2025 08:00:00,25.251013,86.989001,NO2,6,10,9
India,Bihar,Bhagalpur,"DM Office_Kachari Chowk, Bhagalpur - BSPCB",01-12-2025 08:00:00,25.251013,86.989001,SO2,37,59,51
India,Bihar,Bhagalpur,"Mayaganj, Bhagalpur - BSPCB",01-12-2025 08:00:00,25.265194,87.012947,PM10,64,123,103
India,Bihar,Bhagalpur,"Mayaganj, Bhagalpur - BSPCB",01-12-2025 08:00:00,25.265194,87.012947,NO2,6,8,8
India,Bihar,Bhagalpur,"Mayaganj, Bhagalpur - BSPCB",01-12-2025 08:00:00,25.265194,87.012947,NH3,7,17,13
India,Bihar,Bhagalpur,"Mayaganj, Bhagalpur - BSPCB",01-12-2025 08:00:00,25.265194,87.012947,SO2,4,83,59
India,Andhra_Pradesh,Anantapur,"Gulzarpet, Anantapur - APPCB",01-12-2025 08:00:00,14.675886,77.593027,SO2,12,13,13
India,Andhra_Pradesh,Chittoor,"Gangineni Cheruvu, Chittoor - APPCB",01-12-2025 08:00:00,13.204880,79.097889,PM2.5,NA,NA,NA
India,Andhra_Pradesh,Chittoor,"Gangineni Cheruvu, Chittoor - APPCB",01-12-2025 08:00:00,13.204880,79.097889,NO2,NA,NA,NA
India,Andhra_Pradesh,Chittoor,"Gangineni Cheruvu, Chittoor - APPCB",01-12-2025 08:00:00,13.204880,79.097889,OZONE,NA,NA,NA
India,Andhra_Pradesh,Kadapa,"Yerramukkapalli, Kadapa - APPCB",01-12-2025 08:00:00,14.465052,78.824187,NH3,5,5,5
India,Andhra_Pradesh,Rajamahendravaram,"Anand Kala Kshetram, Rajamahendravaram - APPCB",01-12-2025 08:00:00,16.9872867,81.7363176,CO,20,42,30
India,Andhra_Pradesh,Tirumala,"Toll Gate, Tirumala - APPCB",01-12-2025 08:00:00,13.67,79.35,NH3,1,1,1
India,Bihar,Hajipur,"Industrial Area, Hajipur - BSPCB",01-12-2025 08:00:00,25.697189,85.245900,PM10,67,146,106
India,Bihar,Hajipur,"Industrial Area, Hajipur - BSPCB",01-12-2025 08:00:00,25.697189,85.245900,CO,17,137,73
India,Bihar,Katihar,"Mirchaibari, Katihar - BSPCB",01-12-2025 08:00:00,25.560083,87.553265,OZONE,4,9,6
India,Bihar,Kishanganj,"SDM Office_Khagra, Kishanganj - BSPCB",01-12-2025 08:00:00,26.0881305,87.93840336,PM10,38,356,148
India,Bihar,Kishanganj,"SDM Office_Khagra, Kishanganj - BSPCB",01-12-2025 08:00:00,26.0881305,87.93840336,NO2,9,14,11
India,Bihar,Kishanganj,"SDM Office_Khagra, Kishanganj - BSPCB",01-12-2025 08:00:00,26.0881305,87.93840336,NH3,3,3,3
India,Bihar,Kishanganj,"SDM Office_Khagra, Kishanganj - BSPCB",01-12-2025 08:00:00,26.0881305,87.93840336,SO2,4,8,6
India,Bihar,Kishanganj,"SDM Office_Khagra, Kishanganj - BSPCB",01-12-2025 08:00:00,26.0881305,87.93840336,CO,16,25,19
India,Bihar,Bihar Sharif,"D M Colony, Bihar Sharif - BSPCB",01-12-2025 08:00:00,25.204762,85.514960,NO2,9,10,10
India,Bihar,Bihar Sharif,"D M Colony, Bihar Sharif - BSPCB",01-12-2025 08:00:00,25.204762,85.514960,OZONE,1,25,9
India,Bihar,Buxar,"Charitra Van, Buxar - BSPCB",01-12-2025 08:00:00,25.567520,83.966379,CO,23,26,24
India,Bihar,Buxar,"Charitra Van, Buxar - BSPCB",01-12-2025 08:00:00,25.567520,83.966379,OZONE,2,115,10
India,Bihar,Gaya,"Collectorate, Gaya - BSPCB",01-12-2025 08:00:00,24.7955,84.9994,PM2.5,NA,NA,NA
India,Bihar,Gaya,"Collectorate, Gaya - BSPCB",01-12-2025 08:00:00,24.7955,84.9994,SO2,6,27,12
India,Bihar,Gaya,"SFTI Kusdihra, Gaya - BSPCB",01-12-2025 08:00:00,24.762518,84.982348,PM10,34,71,49
India,Andhra_Pradesh,Tirumala,"Toll Gate, Tirumala - APPCB",01-12-2025 08:00:00,13.67,79.35,OZONE,3,36,14
India,Andhra_Pradesh,Tirupati,"Vaikuntapuram, Tirupati - APPCB",01-12-2025 08:00:00,13.615387,79.409230,PM10,NA,NA,NA
India,Andhra_Pradesh,Tirupati,"Vaikuntapuram, Tirupati - APPCB",01-12-2025 08:00:00,13.615387,79.409230,SO2,NA,NA,NA
India,Andhra_Pradesh,Vijayawada,"HB Colony, Vijayawada - APPCB",01-12-2025 08:00:00,16.536107,80.594233,NH3,4,4,4
India,Andhra_Pradesh,Vijayawada,"HB Colony, Vijayawada - APPCB",01-12-2025 08:00:00,16.536107,80.594233,CO,40,40,40
India,Andhra_Pradesh,Vijayawada,"Rajiv Gandhi Park, Vijayawada - APPCB",01-12-2025 08:00:00,16.509717,80.612222,PM2.5,39,51,44
India,Andhra_Pradesh,Vijayawada,"Rajiv Gandhi Park, Vijayawada - APPCB",01-12-2025 08:00:00,16.509717,80.612222,OZONE,1,8,2
India,Andhra_Pradesh,Vijayawada,"Rajiv Nagar, Vijayawada - APPCB",01-12-2025 08:00:00,16.554731,80.649110,PM10,42,73,49
India,Andhra_Pradesh,Vijayawada,"Rajiv Nagar, Vijayawada - APPCB",01-12-2025 08:00:00,16.554731,80.649110,OZONE,53,128,76
India,Arunachal_Pradesh,Naharlagun,"Naharlagun, Naharlagun - APSPCB",01-12-2025 08:00:00,27.103358,93.679645,PM10,50,198,111
India,Arunachal_Pradesh,Naharlagun,"Naharlagun, Naharlagun - APSPCB",01-12-2025 08:00:00,27.103358,93.679645,SO2,8,9,8
India,Assam,Byrnihat,"Central Academy for SFS, Byrnihat - PCBA",01-12-2025 08:00:00,26.071318,91.87488,NH3,4,4,4
India,Assam,Byrnihat,"Central Academy for SFS, Byrnihat - PCBA",01-12-2025 08:00:00,26.071318,91.87488,CO,22,60,52
India,Andhra_Pradesh,Amaravati,"Secretariat, Amaravati - APPCB",01-12-2025 08:00:00,16.5150833,80.5181667,NO2,15,36,22
India,Assam,Guwahati,"Pan Bazaar, Guwahati - PCBA",01-12-2025 08:00:00,26.187500,91.744194,OZONE,17,18,17
India,Assam,Silchar,"Tarapur, Silchar - PCBA",01-12-2025 08:00:00,24.82827,92.79525,NO2,20,25,23
India,Bihar,Purnia,"Mariam Nagar, Purnia - BSPCB",01-12-2025 08:00:00,25.366336,87.117468,SO2,16,20,18
India,Bihar,Purnia,"Mariam Nagar, Purnia - BSPCB",01-12-2025 08:00:00,25.366336,87.117468,CO,55,68,60
India,Bihar,Rajgir,"Dangi Tola, Rajgir - BSPCB",01-12-2025 08:00:00,25.03280,85.41948,NO2,8,10,9
India,Bihar,Rajgir,"Dangi Tola, Rajgir - BSPCB",01-12-2025 08:00:00,25.03280,85.41948,CO,80,96,87
India,Bihar,Saharsa,"Police Line, Saharsa - BSPCB",01-12-2025 08:00:00,25.892357,86.590325,CO,37,40,39
India,Bihar,Samastipur,"DM Office_Kasipur, Samastipur - BSPCB",01-12-2025 08:00:00,25.859655,85.77944,PM2.5,NA,NA,NA
India,Bihar,Samastipur,"DM Office_Kasipur, Samastipur - BSPCB",01-12-2025 08:00:00,25.859655,85.77944,NH3,NA,NA,NA
India,Bihar,Sasaram,"Dada Peer, Sasaram - BSPCB",01-12-2025 08:00:00,24.952822,84.002396,NO2,2,3,2
India,Bihar,Sasaram,"Dada Peer, Sasaram - BSPCB",01-12-2025 08:00:00,24.952822,84.002396,NH3,1,3,3
India,Bihar,Patna,"IGSC Planetarium Complex, Patna - BSPCB",01-12-2025 08:00:00,25.610369,85.132568,OZONE,28,33,30
India,Bihar,Patna,"Muradpur, Patna - BSPCB",01-12-2025 08:00:00,25.619651,85.147382,PM10,81,192,119
India,Bihar,Patna,"Muradpur, Patna - BSPCB",01-12-2025 08:00:00,25.619651,85.147382,SO2,7,9,8
India,Bihar,Patna,"Rajbansi Nagar, Patna - BSPCB",01-12-2025 08:00:00,25.599486,85.113666,PM2.5,46,175,91
India,Bihar,Patna,"Rajbansi Nagar, Patna - BSPCB",01-12-2025 08:00:00,25.599486,85.113666,CO,26,111,64
India,Bihar,Patna,"Samanpura, Patna - BSPCB",01-12-2025 08:00:00,25.596727,85.085624,NO2,20,21,20
India,Bihar,Patna,"Samanpura, Patna - BSPCB",01-12-2025 08:00:00,25.596727,85.085624,SO2,2,3,2
India,Bihar,Purnia,"Mariam Nagar, Purnia - BSPCB",01-12-2025 08:00:00,25.366336,87.117468,PM10,38,107,78
India,Bihar,Muzaffarpur,"Buddha Colony, Muzaffarpur - BSPCB",01-12-2025 08:00:00,26.11442,85.39813,OZONE,8,191,17
India,Bihar,Muzaffarpur,"MIT-Daudpur Kothi, Muzaffarpur - BSPCB",01-12-2025 08:00:00,26.1403345,85.3650192,SO2,10,15,11
India,Bihar,Patna,"DRM Office Danapur, Patna - BSPCB",01-12-2025 08:00:00,25.586562,85.043586,PM10,NA,NA,NA
India,Bihar,Patna,"DRM Office Danapur, Patna - BSPCB",01-12-2025 08:00:00,25.586562,85.043586,CO,NA,NA,NA
India,Bihar,Patna,"Govt. High School Shikarpur, Patna - BSPCB",01-12-2025 08:00:00,25.592539,85.227158,NH3,4,5,5
India,Bihar,Patna,"Govt. High School Shikarpur, Patna - BSPCB",01-12-2025 08:00:00,25.592539,85.227158,SO2,9,13,11
India,Bihar,Patna,"Govt. High School Shikarpur, Patna - BSPCB",01-12-2025 08:00:00,25.592539,85.227158,CO,42,126,82
India,Chhattisgarh,Bhilai,"Civic Center, Bhilai - Bhilai Steel Plant",01-12-2025 08:00:00,21.185571,81.343175,PM10,44,101,66
India,Chhattisgarh,Bhilai,"Civic Center, Bhilai - Bhilai Steel Plant",01-12-2025 08:00:00,21.185571,81.343175,NO2,16,28,22
India,Chhattisgarh,Bhilai,"Civic Center, Bhilai - Bhilai Steel Plant",01-12-2025 08:00:00,21.185571,81.343175,CO,21,22,22
India,Chhattisgarh,Chhal,"Nawapara SECL Colony, Chhal - CECB",01-12-2025 08:00:00,22.118125,83.140608,OZONE,7,94,13
India,Chhattisgarh,Korba,"Rampur, Korba - CECB",01-12-2025 08:00:00,22.368195,82.746431,NO2,11,23,16
India,Chhattisgarh,Korba,"Rampur, Korba - CECB",01-12-2025 08:00:00,22.368195,82.746431,NH3,2,2,2
India,Chhattisgarh,Korba,"Urja Nagar, Korba - CECB",01-12-2025 08:00:00,22.348441,82.549611,PM2.5,70,87,71
India,Bihar,Sasaram,"Dada Peer, Sasaram - BSPCB",01-12-2025 08:00:00,24.952822,84.002396,OZONE,9,17,16
India,Chandigarh,Chandigarh,"Sector 22, Chandigarh - CPCC",01-12-2025 08:00:00,30.735567,76.775714,CO,NA,NA,NA
India,Chandigarh,Chandigarh,"Sector-25, Chandigarh - CPCC",01-12-2025 08:00:00,30.751462,76.762879,NO2,18,49,27
India,Chandigarh,Chandigarh,"Sector-25, Chandigarh - CPCC",01-12-2025 08:00:00,30.751462,76.762879,OZONE,1,81,1
India,Chandigarh,Chandigarh,"Sector-53, Chandigarh - CPCC",01-12-2025 08:00:00,30.719859,76.738637,PM10,NA,NA,NA
India,Chandigarh,Chandigarh,"Sector-53, Chandigarh - CPCC",01-12-2025 08:00:00,30.719859,76.738637,NH3,NA,NA,NA
India,Chandigarh,Chandigarh,"Sector-53, Chandigarh - CPCC",01-12-2025 08:00:00,30.719859,76.738637,SO2,NA,NA,NA
India,Chandigarh,Chandigarh,"Sector-53, Chandigarh - CPCC",01-12-2025 08:00:00,30.719859,76.738637,CO,62,113,88
India,Bihar,Manguraha,"Forest Rest House, Manguraha - BSPCB",01-12-2025 08:00:00,27.308328,84.531742,OZONE,10,21,11
India,Bihar,Motihari,"Gandak Colony, Motihari - BSPCB",01-12-2025 08:00:00,26.63086,84.90051,SO2,3,3,3
India,Bihar,Motihari,"Gandak Colony, Motihari - BSPCB",01-12-2025 08:00:00,26.63086,84.90051,CO,44,70,48
India,Bihar,Muzaffarpur,"Buddha Colony, Muzaffarpur - BSPCB",01-12-2025 08:00:00,26.11442,85.39813,PM2.5,93,301,185
India,Bihar,Muzaffarpur,"Buddha Colony, Muzaffarpur - BSPCB",01-12-2025 08:00:00,26.11442,85.39813,NH3,6,13,9
India,Bihar,Muzaffarpur,"Buddha Colony, Muzaffarpur - BSPCB",01-12-2025 08:00:00,26.11442,85.39813,SO2,6,9,8
India,Chhattisgarh,Korba,"Urja Nagar, Korba - CECB",01-12-2025 08:00:00,22.348441,82.549611,NO2,43,55,49
India,Chhattisgarh,Korba,"Urja Nagar, Korba - CECB",01-12-2025 08:00:00,22.348441,82.549611,CO,25,39,29
India,Chhattisgarh,Kunjemura,"OP Jindal School, Kunjemura - CECB",01-12-2025 08:00:00,22.126650,83.483212,PM10,33,110,62
India,Chhattisgarh,Kunjemura,"OP Jindal School, Kunjemura - CECB",01-12-2025 08:00:00,22.126650,83.483212,NO2,14,41,26
India,Chhattisgarh,Milupara,"Govt. Higher Secondary School, Milupara - CECB",01-12-2025 08:00:00,22.1910172,83.5197009,CO,24,44,33
India,Delhi,Delhi,"Alipur, Delhi - DPCC",01-12-2025 08:00:00,28.815329,77.153010,SO2,7,22,14
India,Delhi,Delhi,"Alipur, Delhi - DPCC",01-12-2025 08:00:00,28.815329,77.153010,OZONE,6,63,8
India,Delhi,Delhi,"Anand Vihar, Delhi - DPCC",01-12-2025 08:00:00,28.647622,77.3158090,NO2,58,189,121
India,Delhi,Delhi,"Anand Vihar, Delhi - DPCC",01-12-2025 08:00:00,28.647622,77.3158090,OZONE,18,18,18
India,Delhi,Delhi,"Ashok Vihar, Delhi - DPCC",01-12-2025 08:00:00,28.695381,77.181665,CO,36,110,68
India,Chhattisgarh,Tumidih,"OP Jindal Industrial Park, Tumidih - CECB",01-12-2025 08:00:00,22.06631475,83.33820077,PM10,42,420,124
India,Delhi,Delhi,"Rohini, Delhi - DPCC",01-12-2025 08:00:00,28.732528,77.119920,SO2,16,31,22
India,Delhi,Delhi,"Shadipur, Delhi - CPCB",01-12-2025 08:00:00,28.6514781,77.1473105,NO2,50,108,79
India,Delhi,Delhi,"Shadipur, Delhi - CPCB",01-12-2025 08:00:00,28.6514781,77.1473105,SO2,17,28,21
India,Delhi,Delhi,"Sonia Vihar, Delhi - DPCC",01-12-2025 08:00:00,28.710508,77.249485,PM10,135,406,245
India,Delhi,Delhi,"Sri Aurobindo Marg, Delhi - DPCC",01-12-2025 08:00:00,28.531346,77.190156,PM2.5,120,334,270
India,Delhi,Delhi,"Sri Aurobindo Marg, Delhi - DPCC",01-12-2025 08:00:00,28.531346,77.190156,NH3,4,6,5
India,Delhi,Delhi,"Aya Nagar, Delhi - IMD",01-12-2025 08:00:00,28.4706914,77.1099364,OZONE,9,126,19
India,Delhi,Delhi,"Bawana, Delhi - DPCC",01-12-2025 08:00:00,28.776200,77.051074,PM2.5,167,450,339
India,Delhi,Delhi,"Burari Crossing, Delhi - IMD",01-12-2025 08:00:00,28.7256504,77.2011573,PM10,143,317,223
India,Delhi,Delhi,"Burari Crossing, Delhi - IMD",01-12-2025 08:00:00,28.7256504,77.2011573,NO2,47,144,88
India,Delhi,Delhi,"Burari Crossing, Delhi - IMD",01-12-2025 08:00:00,28.7256504,77.2011573,OZONE,9,256,11
India,Delhi,Delhi,"Chandni Chowk, Delhi - IITM",01-12-2025 08:00:00,28.656756,77.227234,NO2,NA,NA,NA
India,Delhi,Delhi,"Pusa, Delhi - DPCC",01-12-2025 08:00:00,28.639652,77.146275,NH3,1,7,5
India,Delhi,Delhi,"Pusa, Delhi - DPCC",01-12-2025 08:00:00,28.639652,77.146275,CO,52,103,75
India,Delhi,Delhi,"Pusa, Delhi - IMD",01-12-2025 08:00:00,28.636110,77.173332,PM2.5,114,388,299
India,Delhi,Delhi,"Pusa, Delhi - IMD",01-12-2025 08:00:00,28.636110,77.173332,PM10,122,340,215
India,Delhi,Delhi,"R K Puram, Delhi - DPCC",01-12-2025 08:00:00,28.563262,77.186937,NH3,4,7,6
India,Delhi,Delhi,"Rohini, Delhi - DPCC",01-12-2025 08:00:00,28.732528,77.119920,NO2,21,117,66
India,Delhi,Delhi,"Rohini, Delhi - DPCC",01-12-2025 08:00:00,28.732528,77.119920,NH3,10,25,15
India,Delhi,Delhi,"Chandni Chowk, Delhi - IITM",01-12-2025 08:00:00,28.656756,77.227234,NH3,NA,NA,NA
India,Delhi,Delhi,"DTU, Delhi - CPCB",01-12-2025 08:00:00,28.7500499,77.1112615,SO2,31,96,55
India,Delhi,Delhi,"Dr. Karni Singh Shooting Range, Delhi - DPCC",01-12-2025 08:00:00,28.498571,77.264840,NH3,7,10,8
India,Delhi,Delhi,"Dr. Karni Singh Shooting Range, Delhi - DPCC",01-12-2025 08:00:00,28.498571,77.264840,SO2,10,23,13
India,Delhi,Delhi,"Dwarka-Sector 8, Delhi - DPCC ",01-12-2025 08:00:00,28.5710274,77.0719006,PM10,142,371,226
India,Delhi,Delhi,"IGI Airport (T3), Delhi - IMD",01-12-2025 08:00:00,28.5627763,77.1180053,CO,8,115,109
India,Delhi,Delhi,"IHBAS, Dilshad Garden, Delhi - CPCB",01-12-2025 08:00:00,28.6811736,77.3025234,SO2,10,21,15
India,Delhi,Delhi,"ITO, Delhi - CPCB",01-12-2025 08:00:00,28.628624,77.241060,PM2.5,121,377,310
India,Delhi,Delhi,"ITO, Delhi - CPCB",01-12-2025 08:00:00,28.628624,77.241060,NH3,3,7,4
India,Delhi,Delhi,"ITO, Delhi - CPCB",01-12-2025 08:00:00,28.628624,77.241060,SO2,14,29,24
India,Delhi,Delhi,"Vivek Vihar, Delhi - DPCC",01-12-2025 08:00:00,28.672342,77.315260,PM2.5,167,401,323
India,Delhi,Delhi,"Vivek Vihar, Delhi - DPCC",01-12-2025 08:00:00,28.672342,77.315260,SO2,8,30,16
India,Delhi,Delhi,"Wazirpur, Delhi - DPCC",01-12-2025 08:00:00,28.699793,77.165453,PM2.5,157,387,325
India,Gujarat,Ahmedabad,"Gyaspur, Ahmedabad - IITM",01-12-2025 08:00:00,22.977134,72.553024,PM10,NA,NA,NA
India,Gujarat,Ahmedabad,"Gyaspur, Ahmedabad - IITM",01-12-2025 08:00:00,22.977134,72.553024,SO2,NA,NA,NA
India,Delhi,Delhi,"Mundka, Delhi - DPCC",01-12-2025 08:00:00,28.684678,77.076574,SO2,1,16,8
India,Delhi,Delhi,"Narela, Delhi - DPCC",01-12-2025 08:00:00,28.822836,77.101981,PM2.5,139,377,283
India,Delhi,Delhi,"Narela, Delhi - DPCC",01-12-2025 08:00:00,28.822836,77.101981,PM10,129,257,182
India,Delhi,Delhi,"Narela, Delhi - DPCC",01-12-2025 08:00:00,28.822836,77.101981,NO2,17,59,38
India,Delhi,Delhi,"Narela, Delhi - DPCC",01-12-2025 08:00:00,28.822836,77.101981,SO2,11,24,17
India,Delhi,Delhi,"Lodhi Road, Delhi - IMD",01-12-2025 08:00:00,28.5918245,77.2273074,PM2.5,140,340,278
India,Delhi,Delhi,"Lodhi Road, Delhi - IMD",01-12-2025 08:00:00,28.5918245,77.2273074,PM10,133,215,181
India,Delhi,Delhi,"Major Dhyan Chand National Stadium, Delhi - DPCC",01-12-2025 08:00:00,28.611281,77.237738,NO2,44,153,94
India,Delhi,Delhi,"Okhla Phase-2, Delhi - DPCC",01-12-2025 08:00:00,28.530785,77.271255,NO2,90,175,134
India,Delhi,Delhi,"Patparganj, Delhi - DPCC",01-12-2025 08:00:00,28.623763,77.287209,PM2.5,133,383,315
India,Delhi,Delhi,"Patparganj, Delhi - DPCC",01-12-2025 08:00:00,28.623763,77.287209,OZONE,2,150,3
India,Haryana,Faridabad,"New Industrial Town, Faridabad - HSPCB",01-12-2025 08:00:00,28.39072,77.30059,PM10,160,169,166
India,Haryana,Faridabad,"New Industrial Town, Faridabad - HSPCB",01-12-2025 08:00:00,28.39072,77.30059,SO2,8,8,8
India,Haryana,Faridabad,"Sector 11, Faridabad - HSPCB",01-12-2025 08:00:00,28.376058,77.315741,OZONE,14,16,15
India,Haryana,Faridabad,"Sector 30, Faridabad - HSPCB",01-12-2025 08:00:00,28.4417,77.3217,PM2.5,158,207,176
India,Haryana,Faridabad,"Sector 30, Faridabad - HSPCB",01-12-2025 08:00:00,28.4417,77.3217,NO2,36,39,38
India,Haryana,Faridabad,"Sector 30, Faridabad - HSPCB",01-12-2025 08:00:00,28.4417,77.3217,SO2,6,6,6
India,Haryana,Fatehabad,"Huda Sector, Fatehabad - HSPCB",01-12-2025 08:00:00,29.503664,75.467934,PM2.5,87,261,164
India,Haryana,Fatehabad,"Huda Sector, Fatehabad - HSPCB",01-12-2025 08:00:00,29.503664,75.467934,NH3,13,15,14
India,Haryana,Fatehabad,"Huda Sector, Fatehabad - HSPCB",01-12-2025 08:00:00,29.503664,75.467934,OZONE,10,13,11
India,Haryana,Gurugram,"NISE Gwal Pahari, Gurugram - IMD",01-12-2025 08:00:00,28.422681,77.148944,PM10,136,298,195
India,Haryana,Gurugram,"NISE Gwal Pahari, Gurugram - IMD",01-12-2025 08:00:00,28.422681,77.148944,NO2,27,95,47
India,Haryana,Gurugram,"Sector-51, Gurugram - HSPCB",01-12-2025 08:00:00,28.4227,77.0667,PM10,86,338,191
India,Haryana,Gurugram,"Sector-51, Gurugram - HSPCB",01-12-2025 08:00:00,28.4227,77.0667,CO,18,30,26
India,Haryana,Gurugram,"Sector-51, Gurugram - HSPCB",01-12-2025 08:00:00,28.4227,77.0667,OZONE,7,31,8
India,Haryana,Gurugram,"Vikas Sadan, Gurugram - HSPCB",01-12-2025 08:00:00,28.4501238,77.0263051,SO2,3,8,5
India,Haryana,Hisar,"Urban Estate-II, Hisar - HSPCB",01-12-2025 08:00:00,29.140560,75.744941,PM2.5,47,94,73
India,Haryana,Jind,"Police Lines, Jind - HSPCB",01-12-2025 08:00:00,29.307814,76.337619,PM2.5,121,237,193
India,Haryana,Jind,"Police Lines, Jind - HSPCB",01-12-2025 08:00:00,29.307814,76.337619,NH3,2,3,2
India,Haryana,Jind,"Police Lines, Jind - HSPCB",01-12-2025 08:00:00,29.307814,76.337619,SO2,NA,NA,NA
India,Haryana,Jind,"Police Lines, Jind - HSPCB",01-12-2025 08:00:00,29.307814,76.337619,CO,2,107,40
India,Haryana,Jind,"Police Lines, Jind - HSPCB",01-12-2025 08:00:00,29.307814,76.337619,OZONE,7,84,22
India,Haryana,Kaithal,"Rishi Nagar, Kaithal - HSPCB",01-12-2025 08:00:00,29.8006,76.4155,NH3,5,6,6
India,Haryana,Kaithal,"Rishi Nagar, Kaithal - HSPCB",01-12-2025 08:00:00,29.8006,76.4155,CO,4,88,34
India,Gujarat,Vapi,"Phase-1 GIDC, Vapi - GPCB",01-12-2025 08:00:00,20.362421,72.918013,NO2,15,36,27
India,Gujarat,Vatva,"Phase-4 GIDC, Vatva - GPCB",01-12-2025 08:00:00,22.969611,72.643500,SO2,35,43,38
India,Gujarat,Vatva,"Phase-4 GIDC, Vatva - GPCB",01-12-2025 08:00:00,22.969611,72.643500,CO,10,40,30
India,Haryana,Ambala,"Patti Mehar, Ambala - HSPCB",01-12-2025 08:00:00,30.379589,76.778328,NH3,9,11,10
India,Haryana,Bahadurgarh,"Arya Nagar, Bahadurgarh - HSPCB",01-12-2025 08:00:00,28.6701,76.9254,NO2,13,14,13
India,Haryana,Bahadurgarh,"Arya Nagar, Bahadurgarh - HSPCB",01-12-2025 08:00:00,28.6701,76.9254,SO2,7,7,7
India,Haryana,Bahadurgarh,"Arya Nagar, Bahadurgarh - HSPCB",01-12-2025 08:00:00,28.6701,76.9254,CO,43,52,47
India,Gujarat,Gandhinagar,"IIPHG Lekawada, Gandhinagar - IITM",01-12-2025 08:00:00,23.243639,72.68994,PM10,88,148,116
India,Gujarat,Gandhinagar,"IIPHG Lekawada, Gandhinagar - IITM",01-12-2025 08:00:00,23.243639,72.68994,NO2,7,9,8
India,Gujarat,Gandhinagar,"Sector-10, Gandhinagar - GPCB",01-12-2025 08:00:00,23.221714,72.654328,NH3,2,3,2
India,Gujarat,Gandhinagar,"Sector-10, Gandhinagar - GPCB",01-12-2025 08:00:00,23.221714,72.654328,CO,24,42,30
India,Gujarat,Gandhinagar,"Sector-10, Gandhinagar - GPCB",01-12-2025 08:00:00,23.221714,72.654328,OZONE,6,75,8
India,Gujarat,Surat,"Science Center, Surat - SMC",01-12-2025 08:00:00,21.170046,72.795405,SO2,35,45,38
India,Gujarat,Surat,"Science Center, Surat - SMC",01-12-2025 08:00:00,21.170046,72.795405,CO,36,42,39
India,Gujarat,Ahmedabad,"SAC ISRO Bopal, Ahmedabad - IITM",01-12-2025 08:00:00,23.041137,72.456691,OZONE,1,66,2
India,Gujarat,Ahmedabad,"SAC ISRO Satellite, Ahmedabad - IITM",01-12-2025 08:00:00,23.023389,72.515201,OZONE,NA,NA,NA
India,Gujarat,Ahmedabad,"SVPI Airport Hansol, Ahmedabad - IITM",01-12-2025 08:00:00,23.076793,72.627874,PM10,95,221,138
India,Gujarat,Ahmedabad,"SVPI Airport Hansol, Ahmedabad - IITM",01-12-2025 08:00:00,23.076793,72.627874,SO2,7,20,10
India,Gujarat,Ankleshwar,"GIDC, Ankleshwar - GPCB",01-12-2025 08:00:00,21.613267,73.010555,SO2,38,39,39
India,Haryana,Mandikhera,"General Hospital, Mandikhera(Nuh) - HSPCB",01-12-2025 08:00:00,27.9002,76.9938,NH3,12,14,14
India,Haryana,Mandikhera,"General Hospital, Mandikhera(Nuh) - HSPCB",01-12-2025 08:00:00,27.9002,76.9938,OZONE,22,33,28
India,Haryana,Manesar,"Sector-2 IMT, Manesar - HSPCB",01-12-2025 08:00:00,28.360699,76.936090,NH3,16,19,18
India,Haryana,Manesar,"Sector-2 IMT, Manesar - HSPCB",01-12-2025 08:00:00,28.360699,76.936090,OZONE,10,50,14
India,Haryana,Narnaul,"Shastri Nagar, Narnaul - HSPCB",01-12-2025 08:00:00,28.060249,76.113115,PM10,112,164,140
India,Haryana,Ballabgarh,"Nathu Colony, Ballabgarh - HSPCB",01-12-2025 08:00:00,28.3419248,77.319699,NH3,3,3,3
India,Haryana,Charkhi Dadri,"Mini Secretariat, Charkhi Dadri - HSPCB",01-12-2025 08:00:00,28.593883,76.270653,PM2.5,124,367,222
India,Haryana,Charkhi Dadri,"Mini Secretariat, Charkhi Dadri - HSPCB",01-12-2025 08:00:00,28.593883,76.270653,CO,8,25,16
India,Haryana,Dharuhera,"Municipal Corporation Office, Dharuhera -  HSPCB",01-12-2025 08:00:00,28.206800,76.799700,SO2,10,22,15
India,Gujarat,Ahmedabad,"Maninagar, Ahmedabad - GPCB",01-12-2025 08:00:00,23.002657,72.591912,CO,2,75,38
India,Gujarat,Ahmedabad,"Raikhad, Ahmedabad - IITM",01-12-2025 08:00:00,23.020509,72.579261,CO,2,119,27
India,Karnataka,Hubballi,"Lingaraj Nagar, Hubballi - KSPCB",01-12-2025 08:00:00,15.3714823,75.1160168,SO2,1,2,1
India,Karnataka,Kalaburagi,"Lal Bahadur Shastri Nagar, Kalaburagi - KSPCB",01-12-2025 08:00:00,17.321993,76.822628,PM10,34,62,49
India,Karnataka,Kalaburagi,"Lal Bahadur Shastri Nagar, Kalaburagi - KSPCB",01-12-2025 08:00:00,17.321993,76.822628,NH3,1,1,1
India,Karnataka,Kalaburagi,"Lal Bahadur Shastri Nagar, Kalaburagi - KSPCB",01-12-2025 08:00:00,17.321993,76.822628,OZONE,20,23,21
India,Karnataka,Kalaburagi,"Mahatma Basaveswar Colony, Kalaburgi - KSPCB",01-12-2025 08:00:00,17.336318,76.847397,PM10,26,69,50
India,Karnataka,Kalaburagi,"Mahatma Basaveswar Colony, Kalaburgi - KSPCB",01-12-2025 08:00:00,17.336318,76.847397,NO2,11,17,14
India,Karnataka,Koppal,"Diwator Nagar, Koppal - KSPCB",01-12-2025 08:00:00,15.347630,76.181767,CO,44,85,59
India,Haryana,Palwal,"Shyam Nagar, Palwal - HSPCB",01-12-2025 08:00:00,28.1485564,77.3320667,NH3,9,9,9
India,Haryana,Panchgaon,"Amity University, Panchgaon - IITM",01-12-2025 08:00:00,28.3153,76.9143,NO2,1,4,2
India,Haryana,Panchgaon,"Amity University, Panchgaon - IITM",01-12-2025 08:00:00,28.3153,76.9143,SO2,3,11,8
India,Haryana,Panchkula,"Sector-6, Panchkula - HSPCB ",01-12-2025 08:00:00,30.7057778,76.8531805555555,NO2,24,26,25
India,Haryana,Panchkula,"Sector-6, Panchkula - HSPCB ",01-12-2025 08:00:00,30.7057778,76.8531805555555,CO,14,22,22
India,Haryana,Panipat,"Sector-18, Panipat - HSPCB",01-12-2025 08:00:00,29.432304,76.972765,PM2.5,33,236,142
India,Haryana,Panipat,"Sector-18, Panipat - HSPCB",01-12-2025 08:00:00,29.432304,76.972765,CO,16,49,48
India,Karnataka,Madikeri,"Stuart Hill, Madikeri - KSPCB",01-12-2025 08:00:00,12.415911,75.735050,OZONE,3,6,5
India,Karnataka,Mangalore,"Kadri, Mangalore - KSPCB",01-12-2025 08:00:00,12.889250,74.853000,PM2.5,76,178,122
India,Karnataka,Mangalore,"Kadri, Mangalore - KSPCB",01-12-2025 08:00:00,12.889250,74.853000,NH3,4,5,5
India,Karnataka,Mysuru,"Hebbal 1st Stage, Mysuru - KSPCB",01-12-2025 08:00:00,12.21041,76.37376,NH3,4,6,5
India,Karnataka,Shivamogga,"Vinoba Nagara, Shivamogga - KSPCB",01-12-2025 08:00:00,13.940000,75.555917,PM2.5,37,39,38
India,Karnataka,Shivamogga,"Vinoba Nagara, Shivamogga - KSPCB",01-12-2025 08:00:00,13.940000,75.555917,NH3,2,2,2
India,Karnataka,Chamarajanagar,"Urban, Chamarajanagar - KSPCB",01-12-2025 08:00:00,11.55358,76.55521,CO,14,120,30
India,Karnataka,Chamarajanagar,"Urban, Chamarajanagar - KSPCB",01-12-2025 08:00:00,11.55358,76.55521,OZONE,13,30,18
India,Karnataka,Chikkamagaluru,"Kalyana Nagara, Chikkamagaluru - KSPCB",01-12-2025 08:00:00,13.328028,75.797056,NO2,14,21,18
India,Karnataka,Chikkamagaluru,"Kalyana Nagara, Chikkamagaluru - KSPCB",01-12-2025 08:00:00,13.328028,75.797056,CO,11,11,11
India,Karnataka,Davanagere,"Devaraj Urs Badavane, Davanagere - KSPCB",01-12-2025 08:00:00,14.475800,75.905200,NO2,20,41,27
India,Karnataka,Bengaluru,"Jayanagar 5th Block, Bengaluru - KSPCB",01-12-2025 08:00:00,12.920984,77.584908,OZONE,9,32,22
India,Karnataka,Bengaluru,"Jigani, Bengaluru - KSPCB",01-12-2025 08:00:00,12.7816279,77.6299145,NO2,26,27,26
India,Karnataka,Bengaluru,"Jigani, Bengaluru - KSPCB",01-12-2025 08:00:00,12.7816279,77.6299145,CO,47,49,48
India,Karnataka,Bengaluru,"Jigani, Bengaluru - KSPCB",01-12-2025 08:00:00,12.7816279,77.6299145,OZONE,25,26,25
India,Karnataka,Bengaluru,"Kasturi Nagar, Bengaluru - KSPCB",01-12-2025 08:00:00,13.003872,77.664217,CO,28,60,47
India,Haryana,Sirsa,"F-Block, Sirsa - HSPCB",01-12-2025 08:00:00,29.536400,75.015800,CO,24,48,35
India,Haryana,Sonipat,"Murthal, Sonipat - HSPCB",01-12-2025 08:00:00,29.027200,77.062100,PM2.5,178,436,329
India,Haryana,Sonipat,"Murthal, Sonipat - HSPCB",01-12-2025 08:00:00,29.027200,77.062100,SO2,7,11,9
India,Haryana,Yamuna Nagar,"Gobind Pura, Yamuna Nagar - HSPCB",01-12-2025 08:00:00,30.1480566,77.2893471,NH3,1,6,4
India,Himachal Pradesh,Baddi,"HIMUDA Complex Phase-1, Baddi - HPPCB",01-12-2025 08:00:00,30.943887,76.801991,CO,47,96,71
India,Jharkhand,Dhanbad,"Sardar Patel Nagar, Dhanbad - JSPCB",01-12-2025 08:00:00,23.80569,86.44268,CO,3,34,13
India,Karnataka,Bagalkot,"Vidayagiri, Bagalkot - KSPCB",01-12-2025 08:00:00,16.172806,75.659694,NO2,11,12,12
India,Karnataka,Belgaum,"Ramteerth Nagar, Belgaum - KSPCB",01-12-2025 08:00:00,15.888653,74.541751,OZONE,NA,NA,NA
India,Karnataka,Bengaluru,"Hebbal, Bengaluru - KSPCB",01-12-2025 08:00:00,13.029152,77.585901,PM2.5,5,136,34
India,Karnataka,Bengaluru,"Hebbal, Bengaluru - KSPCB",01-12-2025 08:00:00,13.029152,77.585901,NH3,NA,NA,NA
India,Karnataka,Bengaluru,"Hombegowda Nagar, Bengaluru - KSPCB",01-12-2025 08:00:00,12.938539,77.590100,PM10,18,59,36
India,Karnataka,Bengaluru,"RVCE-Mailasandra, Bengaluru - KSPCB",01-12-2025 08:00:00,12.921418,77.502466,NH3,3,5,4
India,Karnataka,Bengaluru,"Shivapura_Peenya, Bengaluru - KSPCB",01-12-2025 08:00:00,13.0246342,77.5080115,NH3,4,5,5
India,Karnataka,Bengaluru,"Silk Board, Bengaluru - KSPCB",01-12-2025 08:00:00,12.917348,77.622813,NH3,2,2,2
India,Karnataka,Bengaluru,"Silk Board, Bengaluru - KSPCB",01-12-2025 08:00:00,12.917348,77.622813,CO,44,94,76
India,Maharashtra,Aurangabad,"MIDC Chilkalthana, Aurangabad - MPCB",01-12-2025 08:00:00,19.875620,75.387310,NH3,2,3,2
India,Maharashtra,Aurangabad,"MIDC Chilkalthana, Aurangabad - MPCB",01-12-2025 08:00:00,19.875620,75.387310,SO2,1,2,1
India,Maharashtra,Aurangabad,"More Chowk Waluj, Aurangabad - MPCB",01-12-2025 08:00:00,19.8389439,75.244448,PM2.5,79,209,134
India,Maharashtra,Aurangabad,"More Chowk Waluj, Aurangabad - MPCB",01-12-2025 08:00:00,19.8389439,75.244448,NO2,12,22,19
India,Maharashtra,Aurangabad,"Rachnakar Colony, Aurangabad - MPCB",01-12-2025 08:00:00,19.863756,75.321188,PM2.5,56,136,90
India,Maharashtra,Aurangabad,"Rachnakar Colony, Aurangabad - MPCB",01-12-2025 08:00:00,19.863756,75.321188,OZONE,10,90,14
India,Maharashtra,Badlapur,"Katrap, Badlapur - MPCB",01-12-2025 08:00:00,19.16485,73.23409,PM10,74,170,118
India,Maharashtra,Badlapur,"Katrap, Badlapur - MPCB",01-12-2025 08:00:00,19.16485,73.23409,OZONE,13,121,14
India,Maharashtra,Belapur,"CBD Belapur, Belapur - MPCB",01-12-2025 08:00:00,19.0243902,73.0406721,PM2.5,61,175,112
India,Kerala,Kannur,"Thavakkara, Kannur - Kerala PCB",01-12-2025 08:00:00,11.875000,75.373200,NO2,15,17,16
India,Kerala,Kollam,"Polayathode, Kollam - Kerala PCB",01-12-2025 08:00:00,8.8787,76.6073,SO2,2,3,2
India,Kerala,Thiruvananthapuram,"Plammoodu, Thiruvananthapuram - Kerala PCB",01-12-2025 08:00:00,8.5149093,76.9435879,PM2.5,35,77,53
India,Kerala,Thiruvananthapuram,"Plammoodu, Thiruvananthapuram - Kerala PCB",01-12-2025 08:00:00,8.5149093,76.9435879,NO2,4,64,27
India,Kerala,Thiruvananthapuram,"Plammoodu, Thiruvananthapuram - Kerala PCB",01-12-2025 08:00:00,8.5149093,76.9435879,NH3,2,3,2
India,Kerala,Thrissur,"Corporation Ground, Thrissur - Kerala PCB",01-12-2025 08:00:00,10.532400,76.215900,PM10,47,55,51
India,Madhya Pradesh,Mandideep,"Sector-D Industrial Area, Mandideep - MPPCB",01-12-2025 08:00:00,23.108440,77.511428,PM10,45,250,130
India,Madhya Pradesh,Mandideep,"Sector-D Industrial Area, Mandideep - MPPCB",01-12-2025 08:00:00,23.108440,77.511428,NH3,5,10,8
India,Madhya Pradesh,Mandideep,"Sector-D Industrial Area, Mandideep - MPPCB",01-12-2025 08:00:00,23.108440,77.511428,OZONE,4,75,5
India,Madhya Pradesh,Pithampur,"Sector-2 Industrial Area, Pithampur - MPPCB",01-12-2025 08:00:00,22.624758,75.675238,NO2,16,25,19
India,Madhya Pradesh,Ratlam,"Shasthri Nagar, Ratlam - IPCA Lab",01-12-2025 08:00:00,23.331731,75.045981,PM2.5,32,191,78
India,Madhya Pradesh,Ratlam,"Shasthri Nagar, Ratlam - IPCA Lab",01-12-2025 08:00:00,23.331731,75.045981,NO2,7,36,17
India,Maharashtra,Ahmednagar,"Tarakpur, Ahmednagar - MPCB",01-12-2025 08:00:00,19.10122,74.73339,NH3,2,4,3
India,Maharashtra,Akola,"Ramdaspeth, Akola - MPCB",01-12-2025 08:00:00,20.719516,77.000253,PM2.5,41,214,87
India,Maharashtra,Amravati,"Shivneri Colony, Amravati - MPCB",01-12-2025 08:00:00,20.9402359,77.7895248,SO2,20,27,23
India,Maharashtra,Amravati,"Shri Shivaji Science College, Amravati - MPCB",01-12-2025 08:00:00,20.939198,77.765701,NH3,1,10,3
India,Maharashtra,Amravati,"Shri Shivaji Science College, Amravati - MPCB",01-12-2025 08:00:00,20.939198,77.765701,SO2,3,16,9
India,Madhya Pradesh,Sagar,"Civil Lines, Sagar - MPPCB",01-12-2025 08:00:00,23.838586,78.759431,OZONE,47,82,54
India,Madhya Pradesh,Satna,"Bandhavgar Colony, Satna - Birla Cement",01-12-2025 08:00:00,24.58434363,80.8549414,PM10,63,64,64
India,Madhya Pradesh,Satna,"Bandhavgar Colony, Satna - Birla Cement",01-12-2025 08:00:00,24.58434363,80.8549414,CO,20,68,46
India,Maharashtra,Ahmednagar,"Tarakpur, Ahmednagar - MPCB",01-12-2025 08:00:00,19.10122,74.73339,PM2.5,62,171,102
India,Madhya Pradesh,Indore,"Airport Area, Indore - IMC",01-12-2025 08:00:00,22.7289,75.8076,CO,6,10,10
