country,state,city,station,last_update,latitude,longitude,pollutant_id,min_value,max_value,avg_value
India,Assam,Guwahati,"LGBI Airport, Guwahati - PCBA",25-02-2026 08:00:00,26.10887,91.589544,OZONE,13,16,15
India,Assam,Guwahati,"Pan Bazaar, Guwahati - PCBA",25-02-2026 08:00:00,26.187500,91.744194,PM10,60,148,105
India,Assam,Guwahati,"Pan Bazaar, Guwahati - PCBA",25-02-2026 08:00:00,26.187500,91.744194,NH3,1,1,1
India,Assam,Guwahati,"Pan Bazaar, Guwahati - PCBA",25-02-2026 08:00:00,26.187500,91.744194,SO2,33,60,45
India,Assam,Guwahati,"Pan Bazaar, Guwahati - PCBA",25-02-2026 08:00:00,26.187500,91.744194,CO,18,75,41
India,Assam,Guwahati,"Pan Bazaar, Guwahati - PCBA",25-02-2026 08:00:00,26.187500,91.744194,OZONE,12,21,12
India,Assam,Guwahati,"Railway Colony, Guwahati - PCBA",25-02-2026 08:00:00,26.181742,91.78063,PM10,NA,NA,NA
India,Assam,Nagaon,"Christianpatty, Nagaon - PCBA",25-02-2026 08:00:00,26.349082,92.68449,PM2.5,NA,NA,NA
India,Assam,Nagaon,"Christianpatty, Nagaon - PCBA",25-02-2026 08:00:00,26.349082,92.68449,NH3,NA,NA,NA
India,Assam,Nagaon,"Christianpatty, Nagaon - PCBA",25-02-2026 08:00:00,26.349082,92.68449,SO2,NA,NA,NA
India,Andhra_Pradesh,Vijayawada,"HB Colony, Vijayawada - APPCB",25-02-2026 08:00:00,16.536107,80.594233,PM10,39,56,47
India,Andhra_Pradesh,Vijayawada,"HB Colony, Vijayawada - APPCB",25-02-2026 08:00:00,16.536107,80.594233,NO2,17,17,17
India,Andhra_Pradesh,Vijayawada,"Kanuru, Vijayawada - APPCB",25-02-2026 08:00:00,16.486692,80.699436,PM2.5,48,58,51
India,Andhra_Pradesh,Vijayawada,"Kanuru, Vijayawada - APPCB",25-02-2026 08:00:00,16.486692,80.699436,OZONE,38,42,38
India,Andhra_Pradesh,Vijayawada,"Rajiv Gandhi Park, Vijayawada - APPCB",25-02-2026 08:00:00,16.509717,80.612222,NO2,24,44,36
India,Andhra_Pradesh,Vijayawada,"Rajiv Gandhi Park, Vijayawada - APPCB",25-02-2026 08:00:00,16.509717,80.612222,NH3,3,4,3
India,Andhra_Pradesh,Vijayawada,"Rajiv Gandhi Park, Vijayawada - APPCB",25-02-2026 08:00:00,16.509717,80.612222,SO2,17,17,17
India,Andhra_Pradesh,Vijayawada,"Rajiv Nagar, Vijayawada - APPCB",25-02-2026 08:00:00,16.554731,80.649110,PM10,65,71,69
India,Andhra_Pradesh,Vijayawada,"Rajiv Nagar, Vijayawada - APPCB",25-02-2026 08:00:00,16.554731,80.649110,SO2,14,20,17
India,Bihar,Bhagalpur,"DM Office_Kachari Chowk, Bhagalpur - BSPCB",25-02-2026 08:00:00,25.251013,86.989001,PM2.5,42,140,77
India,Bihar,Bhagalpur,"DM Office_Kachari Chowk, Bhagalpur - BSPCB",25-02-2026 08:00:00,25.251013,86.989001,NH3,1,1,1
India,Bihar,Bhagalpur,"DM Office_Kachari Chowk, Bhagalpur - BSPCB",25-02-2026 08:00:00,25.251013,86.989001,SO2,33,76,53
India,Bihar,Bhagalpur,"Mayaganj, Bhagalpur - BSPCB",25-02-2026 08:00:00,25.265194,87.012947,NH3,6,7,6
India,Bihar,Bhagalpur,"Mayaganj, Bhagalpur - BSPCB",25-02-2026 08:00:00,25.265194,87.012947,SO2,52,62,57
India,Bihar,Bihar Sharif,"D M Colony, Bihar Sharif - BSPCB",25-02-2026 08:00:00,25.204762,85.514960,NH3,NA,NA,NA
India,Bihar,Buxar,"Charitra Van, Buxar - BSPCB",25-02-2026 08:00:00,25.567520,83.966379,PM2.5,47,103,69
India,Andhra_Pradesh,Rajamahendravaram,"Anand Kala Kshetram, Rajamahendravaram - APPCB",25-02-2026 08:00:00,16.9872867,81.7363176,PM2.5,15,141,71
India,Andhra_Pradesh,Rajamahendravaram,"Anand Kala Kshetram, Rajamahendravaram - APPCB",25-02-2026 08:00:00,16.9872867,81.7363176,NH3,4,5,4
India,Andhra_Pradesh,Tirupati,"Vaikuntapuram, Tirupati - APPCB",25-02-2026 08:00:00,13.615387,79.409230,PM10,43,81,57
India,Andhra_Pradesh,Tirupati,"Vaikuntapuram, Tirupati - APPCB",25-02-2026 08:00:00,13.615387,79.409230,SO2,10,13,12
India,Assam,Nagaon,"Christianpatty, Nagaon - PCBA",25-02-2026 08:00:00,26.349082,92.68449,OZONE,NA,NA,NA
India,Assam,Nalbari,"Bata Chowk, Nalbari - PCBA",25-02-2026 08:00:00,26.446912,91.439057,CO,20,23,21
India,Assam,Silchar,"Tarapur, Silchar - PCBA",25-02-2026 08:00:00,24.82827,92.79525,PM2.5,26,95,61
India,Andhra_Pradesh,Visakhapatnam,"GVM Corporation, Visakhapatnam - APPCB",25-02-2026 08:00:00,17.72,83.3,CO,17,57,26
India,Arunachal_Pradesh,Naharlagun,"Naharlagun, Naharlagun - APSPCB",25-02-2026 08:00:00,27.103358,93.679645,OZONE,6,6,6
India,Bihar,Buxar,"Charitra Van, Buxar - BSPCB",25-02-2026 08:00:00,25.567520,83.966379,NO2,9,10,9
India,Bihar,Chhapra,"Darshan Nagar, Chhapra - BSPCB",25-02-2026 08:00:00,25.7808257,84.7446768,SO2,20,29,25
India,Bihar,Aurangabad,"Gurdeo Nagar, Aurangabad - BSPCB",25-02-2026 08:00:00,24.75746,84.366208,OZONE,4,66,11
India,Bihar,Bettiah,"Kamalnath Nagar, Bettiah - BSPCB",25-02-2026 08:00:00,26.80365,84.51954,OZONE,22,23,22
India,Andhra_Pradesh,Anantapur,"Gulzarpet, Anantapur - APPCB",25-02-2026 08:00:00,14.675886,77.593027,NO2,19,19,19
India,Andhra_Pradesh,Anantapur,"Gulzarpet, Anantapur - APPCB",25-02-2026 08:00:00,14.675886,77.593027,CO,28,50,45
India,Andhra_Pradesh,Anantapur,"Gulzarpet, Anantapur - APPCB",25-02-2026 08:00:00,14.675886,77.593027,OZONE,24,24,24
India,Bihar,Araria,"Kharahiya Basti, Araria - BSPCB",25-02-2026 08:00:00,26.146529,87.454184,PM10,22,104,71
India,Bihar,Araria,"Kharahiya Basti, Araria - BSPCB",25-02-2026 08:00:00,26.146529,87.454184,CO,32,92,60
India,Chhattisgarh,Chhal,"Nawapara SECL Colony, Chhal - CECB",25-02-2026 08:00:00,22.118125,83.140608,PM2.5,NA,NA,NA
India,Chhattisgarh,Chhal,"Nawapara SECL Colony, Chhal - CECB",25-02-2026 08:00:00,22.118125,83.140608,NO2,NA,NA,NA
India,Chhattisgarh,Chhal,"Nawapara SECL Colony, Chhal - CECB",25-02-2026 08:00:00,22.118125,83.140608,CO,NA,NA,NA
India,Chhattisgarh,Korba,"Rampur, Korba - CECB",25-02-2026 08:00:00,22.368195,82.746431,PM2.5,29,66,42
India,Chhattisgarh,Korba,"Rampur, Korba - CECB",25-02-2026 08:00:00,22.368195,82.746431,CO,8,36,22
India,Chhattisgarh,Korba,"Urja Nagar, Korba - CECB",25-02-2026 08:00:00,22.348441,82.549611,PM10,33,143,70
India,Chhattisgarh,Korba,"Urja Nagar, Korba - CECB",25-02-2026 08:00:00,22.348441,82.549611,SO2,10,19,15
India,Chhattisgarh,Kunjemura,"OP Jindal School, Kunjemura - CECB",25-02-2026 08:00:00,22.126650,83.483212,NO2,14,67,43
India,Chhattisgarh,Milupara,"Govt. Higher Secondary School, Milupara - CECB",25-02-2026 08:00:00,22.1910172,83.5197009,PM10,NA,NA,NA
India,Chhattisgarh,Milupara,"Govt. Higher Secondary School, Milupara - CECB",25-02-2026 08:00:00,22.1910172,83.5197009,NO2,NA,NA,NA
India,Chhattisgarh,Milupara,"Govt. Higher Secondary School, Milupara - CECB",25-02-2026 08:00:00,22.1910172,83.5197009,NH3,NA,NA,NA
India,Chhattisgarh,Raipur,"AIIMS, Raipur - CECB",25-02-2026 08:00:00,21.258815,81.578979,PM2.5,25,80,43
India,Chhattisgarh,Raipur,"AIIMS, Raipur - CECB",25-02-2026 08:00:00,21.258815,81.578979,PM10,35,120,58
India,Chhattisgarh,Raipur,"Bhatagaon New ISBT, Raipur - CECB",25-02-2026 08:00:00,21.219665,81.630094,PM2.5,21,50,29
India,Chhattisgarh,Raipur,"Krishak Nagar, Raipur - CECB",25-02-2026 08:00:00,21.237755,81.705301,PM10,31,70,54
India,Chhattisgarh,Raipur,"Krishak Nagar, Raipur - CECB",25-02-2026 08:00:00,21.237755,81.705301,NO2,5,22,13
India,Chhattisgarh,Raipur,"Krishak Nagar, Raipur - CECB",25-02-2026 08:00:00,21.237755,81.705301,NH3,2,2,2
India,Chhattisgarh,Raipur,"Siltara Phase-II, Raipur - CECB",25-02-2026 08:00:00,21.371751,81.664929,PM10,42,125,83
India,Chhattisgarh,Raipur,"Siltara Phase-II, Raipur - CECB",25-02-2026 08:00:00,21.371751,81.664929,NH3,2,2,2
India,Chhattisgarh,Tumidih,"OP Jindal Industrial Park, Tumidih - CECB",25-02-2026 08:00:00,22.06631475,83.33820077,NH3,1,4,2
India,Chhattisgarh,Tumidih,"OP Jindal Industrial Park, Tumidih - CECB",25-02-2026 08:00:00,22.06631475,83.33820077,CO,16,54,41
India,Chandigarh,Chandigarh,"Sector-25, Chandigarh - CPCC",25-02-2026 08:00:00,30.751462,76.762879,PM2.5,89,178,149
India,Chandigarh,Chandigarh,"Sector-25, Chandigarh - CPCC",25-02-2026 08:00:00,30.751462,76.762879,PM10,97,132,114
India,Chandigarh,Chandigarh,"Sector-25, Chandigarh - CPCC",25-02-2026 08:00:00,30.751462,76.762879,CO,12,53,31
India,Chhattisgarh,Bhilai,"32Bungalows, Bhilai - CECB",25-02-2026 08:00:00,21.194815,81.314770,PM10,18,49,29
India,Chhattisgarh,Bhilai,"32Bungalows, Bhilai - CECB",25-02-2026 08:00:00,21.194815,81.314770,CO,26,59,29
India,Chhattisgarh,Bhilai,"32Bungalows, Bhilai - CECB",25-02-2026 08:00:00,21.194815,81.314770,OZONE,2,35,2
India,Chhattisgarh,Bhilai,"Hathkhoj, Bhilai - CECB",25-02-2026 08:00:00,21.224231,81.408350,NO2,27,76,47
India,Chhattisgarh,Bilaspur,"Mangala, Bilaspur - NTPC",25-02-2026 08:00:00,22.08815,82.13737,PM10,61,111,83
India,Bihar,Munger,"Town Hall, Munger - BSPCB",25-02-2026 08:00:00,25.376776,86.471523,OZONE,9,11,10
India,Bihar,Muzaffarpur,"Buddha Colony, Muzaffarpur - BSPCB",25-02-2026 08:00:00,26.11442,85.39813,NO2,16,84,42
India,Bihar,Muzaffarpur,"Muzaffarpur Collectorate, Muzaffarpur - BSPCB",25-02-2026 08:00:00,26.1209,85.3647,NO2,6,19,12
India,Bihar,Patna,"DRM Office Danapur, Patna - BSPCB",25-02-2026 08:00:00,25.586562,85.043586,CO,30,103,54
India,Bihar,Patna,"Govt. High School Shikarpur, Patna - BSPCB",25-02-2026 08:00:00,25.592539,85.227158,SO2,4,5,4
India,Bihar,Rajgir,"Dangi Tola, Rajgir - BSPCB",25-02-2026 08:00:00,25.03280,85.41948,CO,28,48,39
India,Bihar,Saharsa,"Police Line, Saharsa - BSPCB",25-02-2026 08:00:00,25.892357,86.590325,PM2.5,25,253,133
India,Bihar,Samastipur,"DM Office_Kasipur, Samastipur - BSPCB",25-02-2026 08:00:00,25.859655,85.77944,NO2,8,9,8
India,Bihar,Samastipur,"DM Office_Kasipur, Samastipur - BSPCB",25-02-2026 08:00:00,25.859655,85.77944,OZONE,7,8,8
India,Bihar,Sasaram,"Dada Peer, Sasaram - BSPCB",25-02-2026 08:00:00,24.952822,84.002396,SO2,1,5,4
India,Bihar,Sasaram,"Dada Peer, Sasaram - BSPCB",25-02-2026 08:00:00,24.952822,84.002396,CO,34,105,84
India,Bihar,Gaya,"Kareemganj, Gaya - BSPCB",25-02-2026 08:00:00,24.792403,84.992416,NO2,11,13,12
India,Bihar,Gaya,"SFTI Kusdihra, Gaya - BSPCB",25-02-2026 08:00:00,24.762518,84.982348,PM10,47,81,60
India,Bihar,Gaya,"SFTI Kusdihra, Gaya - BSPCB",25-02-2026 08:00:00,24.762518,84.982348,NH3,3,4,3
India,Bihar,Gaya,"SFTI Kusdihra, Gaya - BSPCB",25-02-2026 08:00:00,24.762518,84.982348,OZONE,10,54,12
India,Bihar,Katihar,"Mirchaibari, Katihar - BSPCB",25-02-2026 08:00:00,25.560083,87.553265,PM2.5,32,95,64
India,Bihar,Kishanganj,"SDM Office_Khagra, Kishanganj - BSPCB",25-02-2026 08:00:00,26.0881305,87.93840336,PM2.5,50,302,132
India,Bihar,Patna,"IGSC Planetarium Complex, Patna - BSPCB",25-02-2026 08:00:00,25.610369,85.132568,OZONE,NA,NA,NA
India,Bihar,Patna,"Muradpur, Patna - BSPCB",25-02-2026 08:00:00,25.619651,85.147382,PM2.5,17,239,130
India,Bihar,Patna,"Rajbansi Nagar, Patna - BSPCB",25-02-2026 08:00:00,25.599486,85.113666,NO2,45,121,66
India,Bihar,Patna,"Rajbansi Nagar, Patna - BSPCB",25-02-2026 08:00:00,25.599486,85.113666,SO2,2,10,6
India,Bihar,Purnia,"Mariam Nagar, Purnia - BSPCB",25-02-2026 08:00:00,25.366336,87.117468,PM2.5,67,98,87
India,Bihar,Purnia,"Mariam Nagar, Purnia - BSPCB",25-02-2026 08:00:00,25.366336,87.117468,SO2,10,17,13
India,Bihar,Manguraha,"Forest Rest House, Manguraha - BSPCB",25-02-2026 08:00:00,27.308328,84.531742,CO,32,33,32
India,Bihar,Munger,"Town Hall, Munger - BSPCB",25-02-2026 08:00:00,25.376776,86.471523,NH3,2,4,3
India,Bihar,Manguraha,"Forest Rest House, Manguraha - BSPCB",25-02-2026 08:00:00,27.308328,84.531742,SO2,16,17,17
India,Delhi,Delhi,"ITO, Delhi - CPCB",25-02-2026 08:00:00,28.628624,77.241060,SO2,6,33,15
India,Delhi,Delhi,"ITO, Delhi - CPCB",25-02-2026 08:00:00,28.628624,77.241060,CO,20,118,74
India,Delhi,Delhi,"Jahangirpuri, Delhi - DPCC",25-02-2026 08:00:00,28.732820,77.170633,NH3,7,16,12
India,Delhi,Delhi,"Jawaharlal Nehru Stadium, Delhi - DPCC",25-02-2026 08:00:00,28.580280,77.233829,CO,5,133,106
India,Delhi,Delhi,"Major Dhyan Chand National Stadium, Delhi - DPCC",25-02-2026 08:00:00,28.611281,77.237738,PM2.5,48,325,195
India,Delhi,Delhi,"Major Dhyan Chand National Stadium, Delhi - DPCC",25-02-2026 08:00:00,28.611281,77.237738,SO2,17,32,23
India,Delhi,Delhi,"Ashok Vihar, Delhi - DPCC",25-02-2026 08:00:00,28.695381,77.181665,NO2,24,165,85
India,Delhi,Delhi,"Ashok Vihar, Delhi - DPCC",25-02-2026 08:00:00,28.695381,77.181665,SO2,9,30,20
India,Delhi,Delhi,"Ashok Vihar, Delhi - DPCC",25-02-2026 08:00:00,28.695381,77.181665,OZONE,3,139,4
India,Delhi,Delhi,"Aya Nagar, Delhi - IMD",25-02-2026 08:00:00,28.4706914,77.1099364,CO,27,106,73
India,Delhi,Delhi,"Bawana, Delhi - DPCC",25-02-2026 08:00:00,28.776200,77.051074,PM2.5,63,492,279
India,Delhi,Delhi,"Mundka, Delhi - DPCC",25-02-2026 08:00:00,28.684678,77.076574,CO,40,78,65
India,Delhi,Delhi,"NSIT Dwarka, Delhi - CPCB",25-02-2026 08:00:00,28.60909,77.0325413,PM10,96,443,188
India,Delhi,Delhi,"NSIT Dwarka, Delhi - CPCB",25-02-2026 08:00:00,28.60909,77.0325413,SO2,9,21,15
India,Delhi,Delhi,"Narela, Delhi - DPCC",25-02-2026 08:00:00,28.822836,77.101981,CO,31,76,50
India,Delhi,Delhi,"Narela, Delhi - DPCC",25-02-2026 08:00:00,28.822836,77.101981,OZONE,11,110,15
India,Delhi,Delhi,"DTU, Delhi - CPCB",25-02-2026 08:00:00,28.7500499,77.1112615,NO2,35,81,49
India,Delhi,Delhi,"Dr. Karni Singh Shooting Range, Delhi - DPCC",25-02-2026 08:00:00,28.498571,77.264840,PM2.5,65,309,219
India,Delhi,Delhi,"Dr. Karni Singh Shooting Range, Delhi - DPCC",25-02-2026 08:00:00,28.498571,77.264840,NH3,8,10,9
India,Delhi,Delhi,"Dr. Karni Singh Shooting Range, Delhi - DPCC",25-02-2026 08:00:00,28.498571,77.264840,SO2,5,20,12
India,Delhi,Delhi,"Dr. Karni Singh Shooting Range, Delhi - DPCC",25-02-2026 08:00:00,28.498571,77.264840,CO,3,105,71
India,Delhi,Delhi,"Bawana, Delhi - DPCC",25-02-2026 08:00:00,28.776200,77.051074,SO2,6,14,9
India,Delhi,Delhi,"Burari Crossing, Delhi - IMD",25-02-2026 08:00:00,28.7256504,77.2011573,PM10,118,367,210
India,Delhi,Delhi,"Burari Crossing, Delhi - IMD",25-02-2026 08:00:00,28.7256504,77.2011573,CO,5,98,54
India,Delhi,Delhi,"CRRI Mathura Road, Delhi - IMD",25-02-2026 08:00:00,28.5512005,77.2735737,PM10,95,408,221
India,Delhi,Delhi,"IGI Airport (T3), Delhi - IMD",25-02-2026 08:00:00,28.5627763,77.1180053,NO2,55,107,83
India,Delhi,Delhi,"IGI Airport (T3), Delhi - IMD",25-02-2026 08:00:00,28.5627763,77.1180053,CO,30,116,94
India,Delhi,Delhi,"IHBAS, Dilshad Garden, Delhi - CPCB",25-02-2026 08:00:00,28.6811736,77.3025234,NH3,8,14,10
India,Delhi,Delhi,"IHBAS, Dilshad Garden, Delhi - CPCB",25-02-2026 08:00:00,28.6811736,77.3025234,SO2,2,46,21
India,Delhi,Delhi,"CRRI Mathura Road, Delhi - IMD",25-02-2026 08:00:00,28.5512005,77.2735737,NO2,86,111,102
India,Delhi,Delhi,"Chandni Chowk, Delhi - IITM",25-02-2026 08:00:00,28.656756,77.227234,PM2.5,159,342,275
India,Delhi,Delhi,"Alipur, Delhi - DPCC",25-02-2026 08:00:00,28.815329,77.153010,PM2.5,80,383,251
India,Delhi,Delhi,"Anand Vihar, Delhi - DPCC",25-02-2026 08:00:00,28.647622,77.3158090,PM2.5,70,405,275
India,Delhi,Delhi,"IIT Delhi, Delhi - IITM",25-02-2026 08:00:00,28.542460,77.191651,NO2,17,91,40
India,Gujarat,Ahmedabad,"Raikhad, Ahmedabad - IITM",25-02-2026 08:00:00,23.020509,72.579261,PM2.5,52,192,125
India,Gujarat,Ahmedabad,"Raikhad, Ahmedabad - IITM",25-02-2026 08:00:00,23.020509,72.579261,NO2,20,161,89
India,Gujarat,Ahmedabad,"Rakhial, Ahmedabad - IITM",25-02-2026 08:00:00,23.016834,72.625775,NO2,17,266,89
India,Gujarat,Ahmedabad,"Rakhial, Ahmedabad - IITM",25-02-2026 08:00:00,23.016834,72.625775,OZONE,1,59,2
India,Gujarat,Ahmedabad,"SAC ISRO Bopal, Ahmedabad - IITM",25-02-2026 08:00:00,23.041137,72.456691,PM10,64,191,136
India,Gujarat,Ahmedabad,"SAC ISRO Bopal, Ahmedabad - IITM",25-02-2026 08:00:00,23.041137,72.456691,CO,2,58,47
India,Gujarat,Ahmedabad,"SAC ISRO Satellite, Ahmedabad - IITM",25-02-2026 08:00:00,23.023389,72.515201,PM2.5,NA,NA,NA
India,Gujarat,Ahmedabad,"SVPI Airport Hansol, Ahmedabad - IITM",25-02-2026 08:00:00,23.076793,72.627874,CO,2,70,32
India,Gujarat,Ahmedabad,"SVPI Airport Hansol, Ahmedabad - IITM",25-02-2026 08:00:00,23.076793,72.627874,OZONE,1,50,2
India,Delhi,Delhi,"Nehru Nagar, Delhi - DPCC",25-02-2026 08:00:00,28.567890,77.250515,OZONE,1,152,2
India,Delhi,Delhi,"North Campus, DU, Delhi - IMD",25-02-2026 08:00:00,28.6573814,77.1585447,PM2.5,98,337,241
India,Delhi,Delhi,"North Campus, DU, Delhi - IMD",25-02-2026 08:00:00,28.6573814,77.1585447,PM10,148,292,205
India,Delhi,Delhi,"Patparganj, Delhi - DPCC",25-02-2026 08:00:00,28.623763,77.287209,PM2.5,78,322,246
India,Delhi,Delhi,"Patparganj, Delhi - DPCC",25-02-2026 08:00:00,28.623763,77.287209,PM10,120,322,201
India,Delhi,Delhi,"Patparganj, Delhi - DPCC",25-02-2026 08:00:00,28.623763,77.287209,CO,23,113,67
India,Delhi,Delhi,"Patparganj, Delhi - DPCC",25-02-2026 08:00:00,28.623763,77.287209,OZONE,1,222,2
India,Delhi,Delhi,"Punjabi Bagh, Delhi - DPCC",25-02-2026 08:00:00,28.674045,77.131023,NO2,25,78,50
India,Delhi,Delhi,"Punjabi Bagh, Delhi - DPCC",25-02-2026 08:00:00,28.674045,77.131023,NH3,4,7,6
India,Delhi,Delhi,"Vivek Vihar, Delhi - DPCC",25-02-2026 08:00:00,28.672342,77.315260,SO2,8,49,17
India,Delhi,Delhi,"Vivek Vihar, Delhi - DPCC",25-02-2026 08:00:00,28.672342,77.315260,CO,45,105,59
India,Delhi,Delhi,"Wazirpur, Delhi - DPCC",25-02-2026 08:00:00,28.699793,77.165453,NH3,8,10,9
India,Gujarat,Ahmedabad,"Chandkheda, Ahmedabad - IITM",25-02-2026 08:00:00,23.107969,72.574648,PM2.5,36,150,79
India,Gujarat,Ahmedabad,"Chandkheda, Ahmedabad - IITM",25-02-2026 08:00:00,23.107969,72.574648,OZONE,1,44,2
India,Gujarat,Ahmedabad,"Gyaspur, Ahmedabad - IITM",25-02-2026 08:00:00,22.977134,72.553024,PM10,62,419,239
India,Gujarat,Ahmedabad,"Gyaspur, Ahmedabad - IITM",25-02-2026 08:00:00,22.977134,72.553024,OZONE,NA,NA,NA
India,Gujarat,Ahmedabad,"Maninagar, Ahmedabad - GPCB",25-02-2026 08:00:00,23.002657,72.591912,NO2,NA,NA,NA
India,Gujarat,Gandhinagar,"Sector-10, Gandhinagar - GPCB",25-02-2026 08:00:00,23.221714,72.654328,SO2,6,15,10
India,Gujarat,Gandhinagar,"Sector-10, Gandhinagar - GPCB",25-02-2026 08:00:00,23.221714,72.654328,OZONE,3,30,5
India,Gujarat,Mehsana,"Sadanand Nagar, Mehsana - Nexteng Enviro",25-02-2026 08:00:00,23.593150,72.372792,OZONE,9,22,11
India,Gujarat,Nandesari,"GIDC, Nandesari - Nandesari Ind. Association",25-02-2026 08:00:00,22.410802,73.097923,PM2.5,46,316,139
India,Delhi,Delhi,"Rohini, Delhi - DPCC",25-02-2026 08:00:00,28.732528,77.119920,PM10,104,471,280
India,Delhi,Delhi,"Shadipur, Delhi - CPCB",25-02-2026 08:00:00,28.6514781,77.1473105,OZONE,9,48,11
India,Delhi,Delhi,"Sonia Vihar, Delhi - DPCC",25-02-2026 08:00:00,28.710508,77.249485,NH3,6,8,7
India,Delhi,Delhi,"Sonia Vihar, Delhi - DPCC",25-02-2026 08:00:00,28.710508,77.249485,SO2,23,69,38
India,Gujarat,Bhavnagar,"Vidhyanagar, Bhavnagar - Nexteng Enviro",25-02-2026 08:00:00,21.755417,72.139056,PM2.5,18,251,65
India,Gujarat,Bhavnagar,"Vidhyanagar, Bhavnagar - Nexteng Enviro",25-02-2026 08:00:00,21.755417,72.139056,NH3,4,8,7
India,Gujarat,Bhavnagar,"Vidhyanagar, Bhavnagar - Nexteng Enviro",25-02-2026 08:00:00,21.755417,72.139056,CO,94,108,100
India,Gujarat,Gandhinagar,"IIPHG Lekawada, Gandhinagar - IITM",25-02-2026 08:00:00,23.243639,72.68994,CO,5,94,15
India,Gujarat,Gandhinagar,"Sector-10, Gandhinagar - GPCB",25-02-2026 08:00:00,23.221714,72.654328,PM10,67,324,148
India,Gujarat,Gandhinagar,"IIPHG Lekawada, Gandhinagar - IITM",25-02-2026 08:00:00,23.243639,72.68994,NO2,4,25,14
India,Gujarat,Gandhinagar,"IIPHG Lekawada, Gandhinagar - IITM",25-02-2026 08:00:00,23.243639,72.68994,NH3,5,19,9
India,Delhi,Delhi,"Pusa, Delhi - DPCC",25-02-2026 08:00:00,28.639652,77.146275,NO2,42,146,87
India,Delhi,Delhi,"Pusa, Delhi - DPCC",25-02-2026 08:00:00,28.639652,77.146275,OZONE,4,168,4
India,Haryana,Hisar,"Urban Estate-II, Hisar - HSPCB",25-02-2026 08:00:00,29.140560,75.744941,NH3,7,11,11
India,Haryana,Jind,"Police Lines, Jind - HSPCB",25-02-2026 08:00:00,29.307814,76.337619,PM2.5,105,310,175
India,Haryana,Jind,"Police Lines, Jind - HSPCB",25-02-2026 08:00:00,29.307814,76.337619,NO2,40,53,46
India,Haryana,Kaithal,"Rishi Nagar, Kaithal - HSPCB",25-02-2026 08:00:00,29.8006,76.4155,PM10,78,121,102
India,Haryana,Karnal,"Sector-12, Karnal - HSPCB",25-02-2026 08:00:00,29.695300,77.002700,PM10,79,174,120
India,Haryana,Karnal,"Sector-12, Karnal - HSPCB",25-02-2026 08:00:00,29.695300,77.002700,SO2,1,5,2
India,Haryana,Kurukshetra,"Sector-7, Kurukshetra - HSPCB",25-02-2026 08:00:00,29.966942,76.875879,PM10,136,199,167
India,Haryana,Kurukshetra,"Sector-7, Kurukshetra - HSPCB",25-02-2026 08:00:00,29.966942,76.875879,NO2,17,21,19
India,Haryana,Mandikhera,"General Hospital, Mandikhera(Nuh) - HSPCB",25-02-2026 08:00:00,27.9002,76.9938,OZONE,24,31,28
India,Haryana,Manesar,"Sector-2 IMT, Manesar - HSPCB",25-02-2026 08:00:00,28.360699,76.936090,PM2.5,69,443,268
India,Haryana,Narnaul,"Shastri Nagar, Narnaul - HSPCB",25-02-2026 08:00:00,28.060249,76.113115,PM2.5,29,314,110
India,Haryana,Narnaul,"Shastri Nagar, Narnaul - HSPCB",25-02-2026 08:00:00,28.060249,76.113115,OZONE,3,23,4
India,Haryana,Palwal,"Shyam Nagar, Palwal - HSPCB",25-02-2026 08:00:00,28.1485564,77.3320667,NO2,23,24,24
India,Haryana,Palwal,"Shyam Nagar, Palwal - HSPCB",25-02-2026 08:00:00,28.1485564,77.3320667,SO2,8,13,11
India,Haryana,Panchgaon,"Amity University, Panchgaon - IITM",25-02-2026 08:00:00,28.3153,76.9143,CO,4,47,43
India,Haryana,Faridabad,"Sector 30, Faridabad - HSPCB",25-02-2026 08:00:00,28.4417,77.3217,PM10,109,116,116
India,Haryana,Faridabad,"Sector 30, Faridabad - HSPCB",25-02-2026 08:00:00,28.4417,77.3217,SO2,6,6,6
India,Haryana,Faridabad,"Sector 30, Faridabad - HSPCB",25-02-2026 08:00:00,28.4417,77.3217,CO,22,65,62
India,Haryana,Fatehabad,"Huda Sector, Fatehabad - HSPCB",25-02-2026 08:00:00,29.503664,75.467934,PM2.5,12,31,19
India,Haryana,Fatehabad,"Huda Sector, Fatehabad - HSPCB",25-02-2026 08:00:00,29.503664,75.467934,NO2,18,20,19
India,Haryana,Fatehabad,"Huda Sector, Fatehabad - HSPCB",25-02-2026 08:00:00,29.503664,75.467934,CO,25,32,28
India,Haryana,Ballabgarh,"Nathu Colony, Ballabgarh - HSPCB",25-02-2026 08:00:00,28.3419248,77.319699,NH3,3,3,3
India,Haryana,Charkhi Dadri,"Mini Secretariat, Charkhi Dadri - HSPCB",25-02-2026 08:00:00,28.593883,76.270653,NO2,9,24,15
India,Haryana,Charkhi Dadri,"Mini Secretariat, Charkhi Dadri - HSPCB",25-02-2026 08:00:00,28.593883,76.270653,CO,12,25,15
India,Haryana,Dharuhera,"Municipal Corporation Office, Dharuhera -  HSPCB",25-02-2026 08:00:00,28.206800,76.799700,PM10,98,315,194
India,Haryana,Gurugram,"NISE Gwal Pahari, Gurugram - IMD",25-02-2026 08:00:00,28.422681,77.148944,OZONE,5,105,7
India,Haryana,Gurugram,"Sector-51, Gurugram - HSPCB",25-02-2026 08:00:00,28.4227,77.0667,SO2,5,11,8
India,Haryana,Gurugram,"Teri Gram, Gurugram - HSPCB",25-02-2026 08:00:00,28.4275,77.1465,NO2,NA,NA,NA
India,Haryana,Panipat,"Sector-18, Panipat - HSPCB",25-02-2026 08:00:00,29.432304,76.972765,NO2,31,32,31
India,Haryana,Rohtak,"MD University, Rohtak - HSPCB",25-02-2026 08:00:00,28.52123,76.37138,SO2,10,14,12
India,Haryana,Sirsa,"F-Block, Sirsa - HSPCB",25-02-2026 08:00:00,29.536400,75.015800,NH3,12,14,14
India,Haryana,Faridabad,"Sector 11, Faridabad - HSPCB",25-02-2026 08:00:00,28.376058,77.315741,PM10,83,387,210
India,Haryana,Faridabad,"Sector 11, Faridabad - HSPCB",25-02-2026 08:00:00,28.376058,77.315741,OZONE,14,16,15
India,Haryana,Faridabad,"Sector 30, Faridabad - HSPCB",25-02-2026 08:00:00,28.4417,77.3217,PM2.5,98,113,111
India,Gujarat,Rajkot,"Mavdi, Rajkot - Nexteng Enviro ",25-02-2026 08:00:00,22.248853,70.776774,CO,110,123,112
India,Haryana,Ambala,"Patti Mehar, Ambala - HSPCB",25-02-2026 08:00:00,30.379589,76.778328,CO,21,48,22
India,Haryana,Bahadurgarh,"Arya Nagar, Bahadurgarh - HSPCB",25-02-2026 08:00:00,28.6701,76.9254,SO2,7,7,7
India,Haryana,Bahadurgarh,"Arya Nagar, Bahadurgarh - HSPCB",25-02-2026 08:00:00,28.6701,76.9254,CO,44,51,48
India,Karnataka,Bengaluru,"Hombegowda Nagar, Bengaluru - KSPCB",25-02-2026 08:00:00,12.938539,77.590100,OZONE,11,56,26
India,Karnataka,Bengaluru,"Jayanagar 5th Block, Bengaluru - KSPCB",25-02-2026 08:00:00,12.920984,77.584908,NO2,8,44,25
India,Karnataka,Bengaluru,"Jigani, Bengaluru - KSPCB",25-02-2026 08:00:00,12.7816279,77.6299145,NH3,3,3,3
India,Karnataka,Bengaluru,"Jigani, Bengaluru - KSPCB",25-02-2026 08:00:00,12.7816279,77.6299145,OZONE,21,23,22
India,Karnataka,Bengaluru,"Peenya, Bengaluru - CPCB",25-02-2026 08:00:00,13.0270199,77.494094,PM2.5,NA,NA,NA
India,Karnataka,Bengaluru,"Peenya, Bengaluru - CPCB",25-02-2026 08:00:00,13.0270199,77.494094,PM10,76,102,85
India,Karnataka,Bengaluru,"Peenya, Bengaluru - CPCB",25-02-2026 08:00:00,13.0270199,77.494094,NO2,22,28,25
India,Karnataka,Bengaluru,"Peenya, Bengaluru - CPCB",25-02-2026 08:00:00,13.0270199,77.494094,CO,6,35,8
India,Karnataka,Bengaluru,"Peenya, Bengaluru - CPCB",25-02-2026 08:00:00,13.0270199,77.494094,OZONE,26,26,26
India,Karnataka,Bengaluru,"RVCE-Mailasandra, Bengaluru - KSPCB",25-02-2026 08:00:00,12.921418,77.502466,NO2,24,31,31
India,Karnataka,Bengaluru,"Sanegurava Halli, Bengaluru - KSPCB",25-02-2026 08:00:00,12.990328,77.5431385,NO2,17,18,18
India,Karnataka,Mysuru,"Hebbal 1st Stage, Mysuru - KSPCB",25-02-2026 08:00:00,12.21041,76.37376,NO2,14,29,20
India,Karnataka,Mysuru,"Hebbal 1st Stage, Mysuru - KSPCB",25-02-2026 08:00:00,12.21041,76.37376,SO2,2,5,4
India,Karnataka,Ramanagara,"Vijay Nagar, Ramanagara - KSPCB",25-02-2026 08:00:00,12.733409,77.298051,SO2,13,22,18
India,Karnataka,Vijayapura,"Ibrahimpur, Vijayapura - KSPCB",25-02-2026 08:00:00,16.802639,75.722694,PM2.5,29,31,30
India,Karnataka,Vijayapura,"Ibrahimpur, Vijayapura - KSPCB",25-02-2026 08:00:00,16.802639,75.722694,NO2,11,12,12
India,Karnataka,Vijayapura,"Ibrahimpur, Vijayapura - KSPCB",25-02-2026 08:00:00,16.802639,75.722694,CO,12,34,21
India,Karnataka,Vijayapura,"Ibrahimpur, Vijayapura - KSPCB",25-02-2026 08:00:00,16.802639,75.722694,OZONE,16,17,16
India,Karnataka,Yadgir,"Collector Office, Yadgir - KSPCB",25-02-2026 08:00:00,16.7602,77.1428,NH3,1,2,2
India,Karnataka,Yadgir,"Collector Office, Yadgir - KSPCB",25-02-2026 08:00:00,16.7602,77.1428,CO,6,36,18
India,Jharkhand,Dhanbad,"Sardar Patel Nagar, Dhanbad - JSPCB",25-02-2026 08:00:00,23.80569,86.44268,NO2,56,84,62
India,Karnataka,Bengaluru,"BTM Layout, Bengaluru - CPCB",25-02-2026 08:00:00,12.9135218,77.5950804,PM2.5,76,158,92
India,Karnataka,Bengaluru,"BWSSB Kadabesanahalli, Bengaluru - CPCB",25-02-2026 08:00:00,12.9352049,77.6814488,CO,36,38,38
India,Karnataka,Bengaluru,"Bapuji Nagar, Bengaluru - KSPCB",25-02-2026 08:00:00,12.951913,77.539784,SO2,3,35,19
India,Karnataka,Bengaluru,"Hebbal, Bengaluru - KSPCB",25-02-2026 08:00:00,13.029152,77.585901,PM10,52,102,77
India,Karnataka,Bengaluru,"Hebbal, Bengaluru - KSPCB",25-02-2026 08:00:00,13.029152,77.585901,CO,1,55,23
India,Haryana,Sonipat,"Murthal, Sonipat - HSPCB",25-02-2026 08:00:00,29.027200,77.062100,NO2,12,13,12
India,Haryana,Sonipat,"Murthal, Sonipat - HSPCB",25-02-2026 08:00:00,29.027200,77.062100,NH3,11,11,11
India,Haryana,Sonipat,"Murthal, Sonipat - HSPCB",25-02-2026 08:00:00,29.027200,77.062100,OZONE,25,26,26
India,Haryana,Yamuna Nagar,"Gobind Pura, Yamuna Nagar - HSPCB",25-02-2026 08:00:00,30.1480566,77.2893471,PM2.5,NA,NA,NA
India,Haryana,Yamuna Nagar,"Gobind Pura, Yamuna Nagar - HSPCB",25-02-2026 08:00:00,30.1480566,77.2893471,PM10,NA,NA,NA
India,Haryana,Yamuna Nagar,"Gobind Pura, Yamuna Nagar - HSPCB",25-02-2026 08:00:00,30.1480566,77.2893471,OZONE,8,33,11
India,Jammu_and_Kashmir,Pampore,"Khrew, Pampore - JKPCC",25-02-2026 08:00:00,34.031606,75.009712,PM10,19,90,55
India,Karnataka,Bengaluru,"Silk Board, Bengaluru - KSPCB",25-02-2026 08:00:00,12.917348,77.622813,SO2,3,7,6
India,Karnataka,Chamarajanagar,"Urban, Chamarajanagar - KSPCB",25-02-2026 08:00:00,11.55358,76.55521,SO2,2,8,3
India,Karnataka,Chikkaballapur,"Chikkaballapur Rural, Chikkaballapur - KSPCB",25-02-2026 08:00:00,13.428828,77.731418,PM2.5,32,69,53
India,Karnataka,Hubballi,"Lingaraj Nagar, Hubballi - KSPCB",25-02-2026 08:00:00,15.3714823,75.1160168,NO2,7,11,9
India,Karnataka,Kalaburagi,"Mahatma Basaveswar Colony, Kalaburgi - KSPCB",25-02-2026 08:00:00,17.336318,76.847397,PM2.5,21,46,37
India,Karnataka,Hubballi,"Lingaraj Nagar, Hubballi - KSPCB",25-02-2026 08:00:00,15.3714823,75.1160168,PM2.5,36,57,40
India,Kerala,Kannur,"Thavakkara, Kannur - Kerala PCB",25-02-2026 08:00:00,11.875000,75.373200,CO,17,21,19
India,Kerala,Kollam,"Polayathode, Kollam - Kerala PCB",25-02-2026 08:00:00,8.8787,76.6073,OZONE,29,35,30
India,Madhya Pradesh,Satna,"Bandhavgar Colony, Satna - Birla Cement",25-02-2026 08:00:00,24.58434363,80.8549414,CO,14,36,29
India,Madhya Pradesh,Singrauli,"Suryakiran Bhawan NCL, Singrauli - MPPCB",25-02-2026 08:00:00,24.108970,82.645580,CO,38,101,65
India,Madhya Pradesh,Ujjain,"Mahashweta Nagar, Ujjain - MPPCB",25-02-2026 08:00:00,23.1633321,75.800225,OZONE,NA,NA,NA
India,Maharashtra,Ahmednagar,"Tarakpur, Ahmednagar - MPCB",25-02-2026 08:00:00,19.10122,74.73339,NH3,5,6,6
India,Maharashtra,Akola,"Ramdaspeth, Akola - MPCB",25-02-2026 08:00:00,20.719516,77.000253,PM2.5,35,150,55
India,Maharashtra,Akola,"Ramdaspeth, Akola - MPCB",25-02-2026 08:00:00,20.719516,77.000253,OZONE,7,58,22
India,Maharashtra,Amravati,"Shivneri Colony, Amravati - MPCB",25-02-2026 08:00:00,20.9402359,77.7895248,PM2.5,34,104,53
India,Maharashtra,Amravati,"Shivneri Colony, Amravati - MPCB",25-02-2026 08:00:00,20.9402359,77.7895248,NO2,7,36,20
India,Maharashtra,Aurangabad,"MIDC Chilkalthana, Aurangabad - MPCB",25-02-2026 08:00:00,19.875620,75.387310,OZONE,10,71,16
India,Maharashtra,Aurangabad,"More Chowk Waluj, Aurangabad - MPCB",25-02-2026 08:00:00,19.8389439,75.244448,NO2,NA,NA,NA
India,Maharashtra,Aurangabad,"More Chowk Waluj, Aurangabad - MPCB",25-02-2026 08:00:00,19.8389439,75.244448,OZONE,NA,NA,NA
India,Maharashtra,Aurangabad,"Rachnakar Colony, Aurangabad - MPCB",25-02-2026 08:00:00,19.863756,75.321188,PM10,50,135,83
India,Maharashtra,Aurangabad,"Rachnakar Colony, Aurangabad - MPCB",25-02-2026 08:00:00,19.863756,75.321188,OZONE,12,99,15
India,Maharashtra,Badlapur,"Katrap, Badlapur - MPCB",25-02-2026 08:00:00,19.16485,73.23409,PM10,92,142,119
India,Maharashtra,Badlapur,"Katrap, Badlapur - MPCB",25-02-2026 08:00:00,19.16485,73.23409,NH3,3,8,5
India,Maharashtra,Badlapur,"Katrap, Badlapur - MPCB",25-02-2026 08:00:00,19.16485,73.23409,SO2,4,16,9
India,Maharashtra,Belapur,"CBD Belapur, Belapur - MPCB",25-02-2026 08:00:00,19.0243902,73.0406721,SO2,2,24,10
India,Maharashtra,Boisar,"Khaira, Boisar - MPCB",25-02-2026 08:00:00,19.786089,72.757971,PM10,101,142,120
India,Maharashtra,Boisar,"Khaira, Boisar - MPCB",25-02-2026 08:00:00,19.786089,72.757971,NH3,6,13,9
India,Maharashtra,Chandrapur,"MIDC Khutala, Chandrapur - MPCB",25-02-2026 08:00:00,19.9775302,79.2337086,SO2,8,9,9
India,Maharashtra,Chandrapur,"MIDC Khutala, Chandrapur - MPCB",25-02-2026 08:00:00,19.9775302,79.2337086,OZONE,17,19,18
India,Maharashtra,Dhule,"Deopur, Dhule - MPCB",25-02-2026 08:00:00,20.918946,74.776388,PM2.5,18,334,76
India,Madhya Pradesh,Jabalpur,"Gupteshwar, Jabalpur - JMC",25-02-2026 08:00:00,23.142888,79.916147,NO2,14,108,37
India,Madhya Pradesh,Jabalpur,"Gupteshwar, Jabalpur - JMC",25-02-2026 08:00:00,23.142888,79.916147,OZONE,6,96,18
India,Madhya Pradesh,Jabalpur,"Marhatal, Jabalpur - MPPCB",25-02-2026 08:00:00,23.168606,79.932247,NO2,24,34,27
India,Madhya Pradesh,Jabalpur,"Marhatal, Jabalpur - MPPCB",25-02-2026 08:00:00,23.168606,79.932247,SO2,10,34,24
India,Madhya Pradesh,Jabalpur,"Suhagi, Jabalpur - JMC",25-02-2026 08:00:00,23.218135,79.957770,NO2,NA,NA,NA
India,Madhya Pradesh,Jabalpur,"Suhagi, Jabalpur - JMC",25-02-2026 08:00:00,23.218135,79.957770,SO2,NA,NA,NA
India,Madhya Pradesh,Jabalpur,"Suhagi, Jabalpur - JMC",25-02-2026 08:00:00,23.218135,79.957770,CO,NA,NA,NA
India,Madhya Pradesh,Jabalpur,"Suhagi, Jabalpur - JMC",25-02-2026 08:00:00,23.218135,79.957770,OZONE,NA,NA,NA
India,Madhya Pradesh,Pithampur,"Sector-2 Industrial Area, Pithampur - MPPCB",25-02-2026 08:00:00,22.624758,75.675238,CO,11,63,27
India,Madhya Pradesh,Ratlam,"Shasthri Nagar, Ratlam - IPCA Lab",25-02-2026 08:00:00,23.331731,75.045981,NO2,16,46,25
India,Madhya Pradesh,Sagar,"Deen Dayal Nagar, Sagar - MPPCB",25-02-2026 08:00:00,23.8640158,78.80289321,PM2.5,11,76,37
India,Madhya Pradesh,Satna,"Bandhavgar Colony, Satna - Birla Cement",25-02-2026 08:00:00,24.58434363,80.8549414,PM2.5,49,51,50
India,Madhya Pradesh,Dewas,"Bhopal Chauraha, Dewas - MPPCB",25-02-2026 08:00:00,22.9682591,76.064118,PM10,42,166,83
India,Madhya Pradesh,Gwalior,"Deen Dayal Nagar, Gwalior - MPPCB",25-02-2026 08:00:00,26.259242,78.216432,PM2.5,30,339,156
India,Madhya Pradesh,Gwalior,"Deen Dayal Nagar, Gwalior - MPPCB",25-02-2026 08:00:00,26.259242,78.216432,CO,40,122,72
India,Madhya Pradesh,Gwalior,"Deen Dayal Nagar, Gwalior - MPPCB",25-02-2026 08:00:00,26.259242,78.216432,OZONE,28,135,38
India,Madhya Pradesh,Gwalior,"Maharaj Bada, Gwalior - MPPCB",25-02-2026 08:00:00,26.200388,78.147714,NO2,7,42,19
India,Madhya Pradesh,Indore,"Airport Area, Indore - IMC",25-02-2026 08:00:00,22.7289,75.8076,OZONE,5,11,6
India,Madhya Pradesh,Indore,"Chhoti Gwaltoli, Indore - MPPCB",25-02-2026 08:00:00,22.4310,75.5213,PM10,28,107,63
India,Madhya Pradesh,Indore,"Regional Park, Indore - IMC",25-02-2026 08:00:00,22.6780,75.8559,PM10,NA,NA,NA
India,Madhya Pradesh,Indore,"Regional Park, Indore - IMC",25-02-2026 08:00:00,22.6780,75.8559,CO,14,44,34
India,Madhya Pradesh,Indore,"Residency Area, Indore - IMC",25-02-2026 08:00:00,22.7084,75.8815,PM2.5,15,90,39
India,Kerala,Thiruvananthapuram,"Plammoodu, Thiruvananthapuram - Kerala PCB",25-02-2026 08:00:00,8.5149093,76.9435879,NO2,NA,NA,NA
India,Madhya Pradesh,Bhopal,"Paryavaran Parisar, Bhopal - MPPCB",25-02-2026 08:00:00,23.210494,77.425409,PM10,37,292,123
India,Madhya Pradesh,Bhopal,"Paryavaran Parisar, Bhopal - MPPCB",25-02-2026 08:00:00,23.210494,77.425409,NH3,4,21,8
India,Maharashtra,Amravati,"Shri Shivaji Science College, Amravati - MPCB",25-02-2026 08:00:00,20.939198,77.765701,NO2,5,32,16
India,Maharashtra,Amravati,"Shri Shivaji Science College, Amravati - MPCB",25-02-2026 08:00:00,20.939198,77.765701,CO,30,54,38
India,Maharashtra,Amravati,"Shri Shivaji Science College, Amravati - MPCB",25-02-2026 08:00:00,20.939198,77.765701,OZONE,7,58,26
India,Maharashtra,Mira-Bhayandar,"Bhayandar West, Mira-Bhayandar - MPCB",25-02-2026 08:00:00,19.296481,72.840923,PM10,37,131,74
India,Maharashtra,Mira-Bhayandar,"Bhayandar West, Mira-Bhayandar - MPCB",25-02-2026 08:00:00,19.296481,72.840923,NO2,16,81,36
India,Maharashtra,Mira-Bhayandar,"Bhayandar West, Mira-Bhayandar - MPCB",25-02-2026 08:00:00,19.296481,72.840923,NH3,1,9,6
India,Maharashtra,Mumbai,"Bandra Kurla Complex, Mumbai - IITM",25-02-2026 08:00:00,19.053536,72.84643,SO2,2,6,4
India,Maharashtra,Mumbai,"Bandra Kurla Complex, Mumbai - IITM",25-02-2026 08:00:00,19.053536,72.84643,OZONE,2,51,4
India,Maharashtra,Mumbai,"Bandra Kurla Complex, Mumbai - MPCB",25-02-2026 08:00:00,19.065931,72.862131,PM2.5,29,244,74
India,Maharashtra,Mumbai,"Borivali East, Mumbai - IITM",25-02-2026 08:00:00,19.23241,72.86895,PM2.5,51,131,80
India,Maharashtra,Mumbai,"Borivali East, Mumbai - MPCB",25-02-2026 08:00:00,19.2243333,72.8658113,CO,NA,NA,NA
India,Maharashtra,Mumbai,"Byculla, Mumbai - BMC",25-02-2026 08:00:00,18.9767,72.8380,PM2.5,10,32,20
India,Maharashtra,Mumbai,"Malad West, Mumbai - IITM",25-02-2026 08:00:00,19.19709,72.82204,PM2.5,39,99,65
India,Maharashtra,Mumbai,"Malad West, Mumbai - IITM",25-02-2026 08:00:00,19.19709,72.82204,PM10,98,124,107
India,Maharashtra,Mumbai,"Malad West, Mumbai - IITM",25-02-2026 08:00:00,19.19709,72.82204,NO2,33,102,52
India,Maharashtra,Mumbai,"Malad West, Mumbai - IITM",25-02-2026 08:00:00,19.19709,72.82204,CO,26,70,39
India,Maharashtra,Mumbai,"Malad West, Mumbai - IITM",25-02-2026 08:00:00,19.19709,72.82204,OZONE,26,85,67
India,Maharashtra,Mumbai,"Mazgaon, Mumbai - IITM",25-02-2026 08:00:00,18.96702,72.84214,PM2.5,38,99,75
India,Maharashtra,Mumbai,"Mazgaon, Mumbai - IITM",25-02-2026 08:00:00,18.96702,72.84214,CO,32,76,61
India,Maharashtra,Mumbai,"Mindspace-Malad West, Mumbai - MPCB",25-02-2026 08:00:00,19.1878657,72.8304069,PM10,63,107,80
India,Maharashtra,Mumbai,"Mulund West, Mumbai - MPCB",25-02-2026 08:00:00,19.1750,72.9419,PM2.5,42,156,74
India,Maharashtra,Mumbai,"Navy Nagar-Colaba, Mumbai - IITM",25-02-2026 08:00:00,18.897756,72.813320,NO2,10,130,51
India,Maharashtra,Mumbai,"Ghatkopar, Mumbai - BMC",25-02-2026 08:00:00,19.083694,72.920967,OZONE,2,60,2
India,Maharashtra,Mumbai,"Kandivali East, Mumbai - MPCB",25-02-2026 08:00:00,19.205800,72.868200,PM10,52,132,87
India,Maharashtra,Mumbai,"Kherwadi_Bandra East, Mumbai - MPCB",25-02-2026 08:00:00,19.0632143,72.8456324,CO,1,36,30
India,Maharashtra,Mumbai,"Khindipada-Bhandup West, Mumbai - IITM",25-02-2026 08:00:00,19.1653323,72.922099,PM10,NA,NA,NA
India,Maharashtra,Mumbai,"Khindipada-Bhandup West, Mumbai - IITM",25-02-2026 08:00:00,19.1653323,72.922099,CO,NA,NA,NA
India,Maharashtra,Mumbai,"Kurla, Mumbai - MPCB",25-02-2026 08:00:00,19.0863,72.8888,PM2.5,NA,NA,NA
India,Maharashtra,Mumbai,"Kurla, Mumbai - MPCB",25-02-2026 08:00:00,19.0863,72.8888,PM10,NA,NA,NA
India,Maharashtra,Dhule,"Deopur, Dhule - MPCB",25-02-2026 08:00:00,20.918946,74.776388,SO2,1,10,4
India,Maharashtra,Jalgaon,"Prabhat Colony, Jalgaon - MPCB",25-02-2026 08:00:00,21.001264,75.565602,PM10,46,229,99
India,Maharashtra,Jalgaon,"Prabhat Colony, Jalgaon - MPCB",25-02-2026 08:00:00,21.001264,75.565602,OZONE,1,69,32
India,Maharashtra,Kalyan,"Khadakpada, Kalyan - MPCB",25-02-2026 08:00:00,19.25292,73.142019,OZONE,8,11,8
India,Maharashtra,Kalyan,"Pimpleshwar Mandir, Kalyan - MPCB",25-02-2026 08:00:00,19.192056,72.9585188,PM10,83,185,126
India,Maharashtra,Mumbai,"Byculla, Mumbai - BMC",25-02-2026 08:00:00,18.9767,72.8380,NO2,34,106,54
India,Maharashtra,Mumbai,"Chakala-Andheri East, Mumbai - IITM",25-02-2026 08:00:00,19.11074,72.86084,CO,2,54,36
India,Maharashtra,Mumbai,"Chembur, Mumbai - MPCB",25-02-2026 08:00:00,19.0364585,72.8954371,PM2.5,52,90,67
India,Maharashtra,Mumbai,"Deonar, Mumbai - IITM",25-02-2026 08:00:00,19.04946,72.9230,NH3,14,20,16
India,Maharashtra,Mumbai,"Sewri, Mumbai - BMC",25-02-2026 08:00:00,19.000084,72.856730,NO2,3,83,33
India,Maharashtra,Mumbai,"Sewri, Mumbai - BMC",25-02-2026 08:00:00,19.000084,72.856730,SO2,1,19,7
India,Maharashtra,Mumbai,"Sewri, Mumbai - BMC",25-02-2026 08:00:00,19.000084,72.856730,CO,14,58,42
India,Maharashtra,Mumbai,"Shivaji Nagar, Mumbai - BMC",25-02-2026 08:00:00,19.060498,72.923356,NO2,13,35,22
India,Maharashtra,Mumbai,"Siddharth Nagar-Worli, Mumbai - IITM",25-02-2026 08:00:00,19.000083,72.813993,CO,28,54,50
India,Maharashtra,Mahad,"Kamble Tarf Birwadi, Mahad - MPCB",25-02-2026 08:00:00,18.1023399,73.4783687,PM2.5,59,142,91
India,Maharashtra,Kolhapur,"Shivaji University, Kolhapur - MPCB",25-02-2026 08:00:00,16.6870449,74.2505872,NH3,3,4,4
India,Maharashtra,Latur,"Sawe Wadi, Latur - MPCB",25-02-2026 08:00:00,18.39963,76.57452,PM10,42,72,54
India,Maharashtra,Pune,"Katraj Dairy, Pune - MPCB",25-02-2026 08:00:00,18.454450,73.854155,SO2,2,3,3
India,Maharashtra,Pune,"Panchawati_Pashan, Pune - IITM",25-02-2026 08:00:00,18.536457,73.805454,OZONE,1,45,12
India,Maharashtra,Pune,"Revenue Colony-Shivajinagar, Pune - IITM",25-02-2026 08:00:00,18.530085,73.849598,NO2,23,111,52
India,Maharashtra,Pune,"Revenue Colony-Shivajinagar, Pune - IITM",25-02-2026 08:00:00,18.530085,73.849598,OZONE,8,72,28
India,Maharashtra,Pune,"Savitribai Phule Pune University, Pune - MPCB",25-02-2026 08:00:00,18.547056,73.826908,SO2,1,5,3
India,Maharashtra,Pune,"Transport Nagar-Nigdi, Pune - IITM",25-02-2026 08:00:00,18.664282,73.763966,PM2.5,37,152,79
India,Maharashtra,Sangli,"Vijay Nagar, Sangli - MPCB",25-02-2026 08:00:00, 16.5038,74.3623,PM10,50,100,73
India,Maharashtra,Sangli,"Vijay Nagar, Sangli - MPCB",25-02-2026 08:00:00, 16.5038,74.3623,NO2,NA,NA,NA
India,Maharashtra,Solapur,"Dnyaneshwar Nagar, Solapur - MPCB",25-02-2026 08:00:00,17.6336264,75.9132495,NO2,8,42,17
India,Maharashtra,Solapur,"Dnyaneshwar Nagar, Solapur - MPCB",25-02-2026 08:00:00,17.6336264,75.9132495,SO2,2,6,4
India,Maharashtra,Thane,"Kasarvadavali, Thane - MPCB",25-02-2026 08:00:00,19.26777,72.97182,PM2.5,33,79,54
India,Maharashtra,Thane,"Upvan Fort, Thane - MPCB",25-02-2026 08:00:00,19.222279,72.957979,PM10,54,119,85
India,Maharashtra,Thane,"Upvan Fort, Thane - MPCB",25-02-2026 08:00:00,19.222279,72.957979,SO2,10,40,22
India,Maharashtra,Ulhasnagar,"Sidhi Vinayak Nagar, Ulhasnagar - MPCB",25-02-2026 08:00:00,19.235581,73.159121,NO2,9,44,24
India,Maharashtra,Ulhasnagar,"Sidhi Vinayak Nagar, Ulhasnagar - MPCB",25-02-2026 08:00:00,19.235581,73.159121,CO,6,44,35
India,Maharashtra,Virar,"Bolinj, Virar - MPCB",25-02-2026 08:00:00,19.4458210,72.7988231,PM10,45,137,78
India,Meghalaya,Shillong,"JN Stadium, Shillong - Meghalaya PCB",25-02-2026 08:00:00,25.5803419,91.8942571,CO,28,96,46
India,Meghalaya,Shillong,"Lumpyngngad, Shillong - Meghalaya PCB",25-02-2026 08:00:00,25.5586,91.8985,PM2.5,1,70,12
India,Nagaland,Kohima,"PWD Junction, Kohima - NPCB",25-02-2026 08:00:00,25.6635413,94.0989878,PM10,40,85,54
India,Nagaland,Kohima,"PWD Junction, Kohima - NPCB",25-02-2026 08:00:00,25.6635413,94.0989878,CO,5,14,9
India,Nagaland,Kohima,"PWD Junction, Kohima - NPCB",25-02-2026 08:00:00,25.6635413,94.0989878,OZONE,2,22,4
India,Odisha,Angul,"Hakimapada, Angul - OSPCB",25-02-2026 08:00:00,20.832874,85.104082,PM2.5,44,247,133
India,Odisha,Balasore,"Kalidaspur, Balasore - OSPCB",25-02-2026 08:00:00,21.51161,86.89088,PM10,37,420,98
India,Maharashtra,Pimpri-Chinchwad,"Park Street Wakad, Pimpri Chinchwad - MPCB",25-02-2026 08:00:00,18.59051,73.77946,SO2,3,13,7
India,Maharashtra,Pimpri-Chinchwad,"Savta Mali Nagar, Pimpri-Chinchwad - IITM",25-02-2026 08:00:00,18.614767,73.799516,NO2,14,113,52
India,Maharashtra,Pimpri-Chinchwad,"Savta Mali Nagar, Pimpri-Chinchwad - IITM",25-02-2026 08:00:00,18.614767,73.799516,OZONE,2,38,7
India,Maharashtra,Pimpri-Chinchwad,"Thergaon, Pimpri Chinchwad - MPCB",25-02-2026 08:00:00,18.616318,73.765797,PM2.5,32,184,74
India,Maharashtra,Pune,"Bhosari, Pune - IITM",25-02-2026 08:00:00,18.640051,73.848956,PM10,42,157,87
India,Maharashtra,Pune,"Bhosari, Pune - IITM",25-02-2026 08:00:00,18.640051,73.848956,NO2,9,16,12
India,Maharashtra,Pune,"Bhumkar Nagar, Pune - IITM",25-02-2026 08:00:00,18.605770,73.749976,CO,NA,NA,NA
India,Maharashtra,Nagpur,"Opp GPO Civil Lines, Nagpur - MPCB",25-02-2026 08:00:00,21.152875,79.0517531,PM2.5,82,158,102
India,Maharashtra,Nagpur,"Ram Nagar, Nagpur - MPCB",25-02-2026 08:00:00,21.143383,79.048912,OZONE,9,59,9
India,Maharashtra,Nanded,"Sneh Nagar, Nanded - MPCB",25-02-2026 08:00:00,19.173852,77.296291,PM10,46,100,66
India,Maharashtra,Nanded,"Sneh Nagar, Nanded - MPCB",25-02-2026 08:00:00,19.173852,77.296291,OZONE,14,72,25
India,Maharashtra,Nashik,"Hirawadi, Nashik - MPCB",25-02-2026 08:00:00,20.021503,73.813844,OZONE,7,76,35
India,Maharashtra,Nashik,"MIDC Ambad, Nashik - MPCB",25-02-2026 08:00:00,19.950220,73.731480,NO2,8,47,19
India,Maharashtra,Navi Mumbai,"Sanpada, Navi Mumbai - MPCB",25-02-2026 08:00:00,19.0575752,73.0151367,OZONE,43,43,43
India,Maharashtra,Navi Mumbai,"Sector-2E Kalamboli, Navi Mumbai - MPCB",25-02-2026 08:00:00,19.02579,73.10297,SO2,1,33,7
India,Maharashtra,Parbhani,"Masoom Colony, Parbhani - MPCB",25-02-2026 08:00:00,19.265594,76.761463,OZONE,10,10,10
India,Maharashtra,Pimpri-Chinchwad,"Gavalinagar, Pimpri Chinchwad - MPCB",25-02-2026 08:00:00,18.63673,73.82487,PM2.5,49,96,63
India,Maharashtra,Mumbai,"Sion, Mumbai - MPCB",25-02-2026 08:00:00,19.047000,72.874600,CO,10,18,17
India,Maharashtra,Mumbai,"Sion, Mumbai - MPCB",25-02-2026 08:00:00,19.047000,72.874600,OZONE,3,7,6
India,Maharashtra,Mumbai,"Worli, Mumbai -MPCB",25-02-2026 08:00:00,18.9942180,72.8158167,NO2,12,77,30
India,Maharashtra,Mumbai,"Worli, Mumbai -MPCB",25-02-2026 08:00:00,18.9942180,72.8158167,OZONE,8,74,41
India,Maharashtra,Nagpur,"Ambazari, Nagpur - MPCB",25-02-2026 08:00:00,21.121801,79.04952,NO2,16,54,32
India,Maharashtra,Nagpur,"Ambazari, Nagpur - MPCB",25-02-2026 08:00:00,21.121801,79.04952,OZONE,4,91,8
India,Maharashtra,Nashik,"Pandav Nagari, Nashik - MPCB",25-02-2026 08:00:00,19.9591346,73.7788008,PM10,47,111,80
India,Maharashtra,Navi Mumbai,"Kopripada-Vashi, Navi Mumbai - MPCB",25-02-2026 08:00:00,19.090337,73.014232,SO2,5,15,9
India,Maharashtra,Navi Mumbai,"Kopripada-Vashi, Navi Mumbai - MPCB",25-02-2026 08:00:00,19.090337,73.014232,CO,10,47,42
India,Maharashtra,Navi Mumbai,"Mahape, Navi Mumbai - MPCB",25-02-2026 08:00:00,19.1135051,73.008978,PM10,89,195,141
India,Odisha,Balasore,"Kalidaspur, Balasore - OSPCB",25-02-2026 08:00:00,21.51161,86.89088,NH3,1,3,2
India,Rajasthan,Bhiwadi,"RIICO Ind. Area III, Bhiwadi - RSPCB",25-02-2026 08:00:00,28.194909,76.862296,SO2,6,17,12
India,Rajasthan,Bhiwadi,"RIICO Ind. Area III, Bhiwadi - RSPCB",25-02-2026 08:00:00,28.194909,76.862296,CO,10,56,49
India,Rajasthan,Bhiwadi,"RIICO Ind. Area III, Bhiwadi - RSPCB",25-02-2026 08:00:00,28.194909,76.862296,OZONE,5,39,6
India,Rajasthan,Bhiwadi,"Vasundhara Nagar_UIT, Bhiwadi - RSPCB",25-02-2026 08:00:00,28.207266,76.829265,NH3,2,6,4
India,Rajasthan,Bikaner,"MM Ground, Bikaner - RSPCB",25-02-2026 08:00:00,28.018792,73.292658,OZONE,29,157,92
India,Rajasthan,Bundi,"New Colony, Bundi - RSPCB",25-02-2026 08:00:00,25.435774,75.644272,PM2.5,50,137,75
India,Rajasthan,Bundi,"New Colony, Bundi - RSPCB",25-02-2026 08:00:00,25.435774,75.644272,NH3,4,7,4
India,Rajasthan,Churu,"Subash Chowk, Churu - RSPCB",25-02-2026 08:00:00,28.296139,74.961696,SO2,3,14,6
India,Punjab,Bathinda,"Hardev Nagar, Bathinda - PPCB",25-02-2026 08:00:00,30.233011,74.907758,CO,58,80,75
India,Punjab,Jalandhar,"Civil Line, Jalandhar - PPCB",25-02-2026 08:00:00,31.321907,75.578914,NH3,2,3,2
India,Punjab,Ludhiana,"Punjab Agricultural University, Ludhiana - PPCB",25-02-2026 08:00:00,30.9028,75.8086,NH3,7,9,8
India,Punjab,Ludhiana,"Punjab Agricultural University, Ludhiana - PPCB",25-02-2026 08:00:00,30.9028,75.8086,SO2,21,38,29
India,Punjab,Mandi Gobindgarh,"RIMT University, Mandi Gobindgarh - PPCB",25-02-2026 08:00:00,30.649961,76.331442,OZONE,34,36,35
India,Punjab,Patiala,"Model Town, Patiala - PPCB",25-02-2026 08:00:00,30.349388,76.366642,PM2.5,58,93,74
India,Odisha,Baripada,"Meher Colony, Baripada - OSPCB",25-02-2026 08:00:00,21.941841,86.728318,PM10,34,108,62
India,Odisha,Baripada,"Meher Colony, Baripada - OSPCB",25-02-2026 08:00:00,21.941841,86.728318,SO2,5,13,9
India,Odisha,Bhubaneswar,"Lingraj Mandir, Bhubaneswar - OSPCB",25-02-2026 08:00:00,20.240790,85.836784,NH3,7,16,10
India,Odisha,Bhubaneswar,"Patia, Bhubaneswar - OSPCB",25-02-2026 08:00:00,20.34652,85.81630,PM10,54,147,97
India,Odisha,Bhubaneswar,"Patia, Bhubaneswar - OSPCB",25-02-2026 08:00:00,20.34652,85.81630,OZONE,14,98,22
India,Odisha,Bileipada,"Tata Township, Bileipada - OSPCB",25-02-2026 08:00:00,22.06156703,85.47409613,SO2,11,12,12
India,Odisha,Suakati,"OMC Colony, Suakati - OSPCB",25-02-2026 08:00:00,21.606865,85.510538,NO2,NA,NA,NA
India,Odisha,Talcher,"Talcher Coalfields,Talcher - OSPCB",25-02-2026 08:00:00,20.9360711,85.1707021,NH3,6,9,7
India,Odisha,Talcher,"Talcher Coalfields,Talcher - OSPCB",25-02-2026 08:00:00,20.9360711,85.1707021,SO2,1,40,15
India,Odisha,Talcher,"Talcher Coalfields,Talcher - OSPCB",25-02-2026 08:00:00,20.9360711,85.1707021,CO,3,57,53
India,Puducherry,Puducherry,"Jawahar Nagar, Puducherry - PPCC",25-02-2026 08:00:00,11.9309,79.8027,PM10,10,46,22
India,Puducherry,Puducherry,"Jawahar Nagar, Puducherry - PPCC",25-02-2026 08:00:00,11.9309,79.8027,NO2,6,28,15
India,Odisha,Keonjhar,"Jagamohanpur, Keonjhar - OSPCB",25-02-2026 08:00:00,21.643900,85.599355,PM2.5,34,66,48
India,Odisha,Nayagarh,"Dabuna, Nayagarh - OSPCB",25-02-2026 08:00:00,21.847279,85.416905,SO2,1,12,4
India,Odisha,Rairangpur,"Divisional Forest Office, Rairangpur - OSPCB",25-02-2026 08:00:00,22.265816,86.174829,NH3,1,1,1
India,Odisha,Rairangpur,"Divisional Forest Office, Rairangpur - OSPCB",25-02-2026 08:00:00,22.265816,86.174829,SO2,1,8,4
India,Odisha,Rourkela,"Fertilizer Township, Rourkela - OSPCB",25-02-2026 08:00:00,22.18972222,84.86277778,PM2.5,74,95,84
India,Rajasthan,Baran,"Bamboliya, Baran - RSPCB",25-02-2026 08:00:00,25.106006,76.469948,CO,14,44,23
India,Rajasthan,Barmer,"Railway Colony, Barmer - RSPCB",25-02-2026 08:00:00,25.747299,71.393989,PM2.5,10,93,33
India,Rajasthan,Bharatpur,"Krishna Nagar, Bharatpur - RSPCB",25-02-2026 08:00:00,27.215415,77.50873,PM2.5,21,137,60
India,Rajasthan,Bharatpur,"Krishna Nagar, Bharatpur - RSPCB",25-02-2026 08:00:00,27.215415,77.50873,NH3,10,21,14
India,Rajasthan,Bharatpur,"Krishna Nagar, Bharatpur - RSPCB",25-02-2026 08:00:00,27.215415,77.50873,CO,20,70,41
India,Rajasthan,Banswara,"Rati Talai, Banswara - RSPCB",25-02-2026 08:00:00,23.555190,74.440010,PM10,26,162,75
India,Rajasthan,Banswara,"Rati Talai, Banswara - RSPCB",25-02-2026 08:00:00,23.555190,74.440010,NH3,4,9,6
India,Rajasthan,Banswara,"Rati Talai, Banswara - RSPCB",25-02-2026 08:00:00,23.555190,74.440010,OZONE,3,115,40
India,Rajasthan,Baran,"Bamboliya, Baran - RSPCB",25-02-2026 08:00:00,25.106006,76.469948,PM10,47,126,81
India,Rajasthan,Ajmer,"Civil Lines,  Ajmer - RSPCB",25-02-2026 08:00:00,26.470859,74.646594,PM10,46,153,102
India,Rajasthan,Alwar,"Moti Doongri, Alwar - RSPCB",25-02-2026 08:00:00,27.554793,76.611536,NO2,57,106,79
India,Rajasthan,Alwar,"Moti Doongri, Alwar - RSPCB",25-02-2026 08:00:00,27.554793,76.611536,NH3,9,17,13
India,Odisha,Balasore,"Kalidaspur, Balasore - OSPCB",25-02-2026 08:00:00,21.51161,86.89088,OZONE,9,99,42
India,Odisha,Barbil,"Forest Office, Barbil - OSPCB",25-02-2026 08:00:00,22.1166054,85.3945546,NH3,1,3,1
India,Rajasthan,Jaipur,"RIICO Sitapura, Jaipur - RSPCB",25-02-2026 08:00:00,26.786682,75.827928,PM10,59,237,121
India,Rajasthan,Jaipur,"RIICO Sitapura, Jaipur - RSPCB",25-02-2026 08:00:00,26.786682,75.827928,NH3,4,8,5
India,Rajasthan,Jaipur,"Shastri Nagar, Jaipur - RSPCB",25-02-2026 08:00:00,26.9502929,75.730943,NO2,33,85,53
India,Rajasthan,Jaipur,"Shastri Nagar, Jaipur - RSPCB",25-02-2026 08:00:00,26.9502929,75.730943,NH3,7,17,11
India,Rajasthan,Jaipur,"Shastri Nagar, Jaipur - RSPCB",25-02-2026 08:00:00,26.9502929,75.730943,SO2,23,42,29
India,Rajasthan,Jaisalmer,"Sadar Bazar, Jaisalmer - RSPCB",25-02-2026 08:00:00,26.912329,70.909168,CO,5,84,21
India,Rajasthan,Jalore,"Mudtra Sili, Jalore - RSPCB",25-02-2026 08:00:00,25.344694,72.626208,PM10,30,433,102
India,Rajasthan,Jalore,"Mudtra Sili, Jalore - RSPCB",25-02-2026 08:00:00,25.344694,72.626208,SO2,2,6,4
India,Rajasthan,Jalore,"Mudtra Sili, Jalore - RSPCB",25-02-2026 08:00:00,25.344694,72.626208,CO,16,116,34
India,Rajasthan,Jhalawar,"Rajlaxmi Nagar, Jhalawar - RSPCB",25-02-2026 08:00:00,24.588397,76.172782,PM10,50,137,81
India,Rajasthan,Pali,"Indira Colony Vistar, Pali - RSPCB",25-02-2026 08:00:00,25.771061, 73.340227,NO2,16,36,24
India,Rajasthan,Pratapgarh,"Pragati Nagar, Pratapgarh - RSPCB",25-02-2026 08:00:00,24.041198,74.780702,SO2,4,8,5
India,Rajasthan,Pratapgarh,"Pragati Nagar, Pratapgarh - RSPCB",25-02-2026 08:00:00,24.041198,74.780702,CO,13,56,16
India,Rajasthan,Rajsamand,"Dhoinda, Rajsamand - RSPCB",25-02-2026 08:00:00,25.036360,73.883502,CO,9,81,16
India,Rajasthan,Rajsamand,"Dhoinda, Rajsamand - RSPCB",25-02-2026 08:00:00,25.036360,73.883502,OZONE,5,96,15
India,Rajasthan,Sawai Madhopur,"Sahu Nagar, Sawai Madhopur - RSPCB",25-02-2026 08:00:00,26.031443,76.359327,PM2.5,24,213,73
India,Rajasthan,Sawai Madhopur,"Sahu Nagar, Sawai Madhopur - RSPCB",25-02-2026 08:00:00,26.031443,76.359327,PM10,71,354,139
India,Rajasthan,Sawai Madhopur,"Sahu Nagar, Sawai Madhopur - RSPCB",25-02-2026 08:00:00,26.031443,76.359327,SO2,1,9,5
India,Rajasthan,Sikar,"Radhakishan Pura, Sikar - RSPCB",25-02-2026 08:00:00,27.608912,75.153302,CO,12,56,16
India,Rajasthan,Jhalawar,"Rajlaxmi Nagar, Jhalawar - RSPCB",25-02-2026 08:00:00,24.588397,76.172782,CO,22,108,78
India,Rajasthan,Jodhpur,"Collectorate, Jodhpur - RSPCB",25-02-2026 08:00:00,26.268249,73.0193853,PM2.5,40,98,64
India,Rajasthan,Jodhpur,"Collectorate, Jodhpur - RSPCB",25-02-2026 08:00:00,26.268249,73.0193853,SO2,1,23,8
India,Rajasthan,Jodhpur,"Digari Kalan, Jodhpur - RSPCB",25-02-2026 08:00:00,26.295810,73.082283,CO,12,81,35
India,Rajasthan,Jodhpur,"Jhalamand, Jodhpur - RSPCB",25-02-2026 08:00:00,26.215415,73.070156,NO2,7,75,36
India,Rajasthan,Jodhpur,"Mandor, Jodhpur - RSPCB",25-02-2026 08:00:00,26.358805,73.047444,PM2.5,3,123,50
India,Rajasthan,Jodhpur,"Mandor, Jodhpur - RSPCB",25-02-2026 08:00:00,26.358805,73.047444,NO2,5,93,38
India,Rajasthan,Jodhpur,"Mandor, Jodhpur - RSPCB",25-02-2026 08:00:00,26.358805,73.047444,NH3,3,16,6
India,Rajasthan,Jodhpur,"Mandor, Jodhpur - RSPCB",25-02-2026 08:00:00,26.358805,73.047444,SO2,1,6,3
India,Rajasthan,Jodhpur,"Mandor, Jodhpur - RSPCB",25-02-2026 08:00:00,26.358805,73.047444,CO,8,76,27
India,Rajasthan,Dungarpur,"Bhoiwada, Dungarpur - RSPCB",25-02-2026 08:00:00,23.837789,73.714926,PM10,42,138,90
India,Rajasthan,Hanumangarh,"Housing Board, Hanumangarh - RSPCB",25-02-2026 08:00:00,29.610750,74.283608,PM2.5,11,78,48
India,Rajasthan,Hanumangarh,"Housing Board, Hanumangarh - RSPCB",25-02-2026 08:00:00,29.610750,74.283608,NO2,15,81,36
India,Rajasthan,Jaipur,"Adarsh Nagar, Jaipur - RSPCB",25-02-2026 08:00:00,26.902909,75.836858,PM10,47,138,89
India,Rajasthan,Jaipur,"Adarsh Nagar, Jaipur - RSPCB",25-02-2026 08:00:00,26.902909,75.836858,NO2,10,90,25
India,Rajasthan,Jaipur,"Mansarovar Sector-12, Jaipur - RSPCB",25-02-2026 08:00:00,26.843698,75.766894,PM2.5,33,133,71
India,Rajasthan,Jaipur,"Mansarovar Sector-12, Jaipur - RSPCB",25-02-2026 08:00:00,26.843698,75.766894,SO2,5,9,6
India,Rajasthan,Jaipur,"Police Commissionerate, Jaipur - RSPCB",25-02-2026 08:00:00,26.9164092,75.7994901,SO2,21,37,28
India,Rajasthan,Jodhpur,"Samrat Ashok Udhyan, Jodhpur - RSPCB",25-02-2026 08:00:00,26.253384,72.976571,NO2,4,116,64
India,Rajasthan,Jodhpur,"Samrat Ashok Udhyan, Jodhpur - RSPCB",25-02-2026 08:00:00,26.253384,72.976571,NH3,7,72,20
India,Rajasthan,Jodhpur,"Samrat Ashok Udhyan, Jodhpur - RSPCB",25-02-2026 08:00:00,26.253384,72.976571,CO,13,74,52
India,Rajasthan,Kota,"Dhanmandi, Kota - RSPCB",25-02-2026 08:00:00,25.164090,75.858137,NH3,6,9,7
India,Rajasthan,Kota,"Nayapura, Kota - RSPCB",25-02-2026 08:00:00,25.196024,75.855668,OZONE,8,152,18
India,Rajasthan,Kota,"Shrinath Puram, Kota - RSPCB",25-02-2026 08:00:00,25.14389,75.821256,CO,5,108,24
India,Rajasthan,Udaipur,"Ashok Nagar, Udaipur - RSPCB",25-02-2026 08:00:00,24.5886166,73.6321397,SO2,2,13,8
India,Sikkim,Gangtok,"Zero Point GICI, Gangtok - SSPCB",25-02-2026 08:00:00,27.338530,88.614099,PM2.5,6,116,49
India,Sikkim,Gangtok,"Zero Point GICI, Gangtok - SSPCB",25-02-2026 08:00:00,27.338530,88.614099,NO2,6,7,6
India,Rajasthan,Nagaur,"Karni Colony, Nagaur - RSPCB",25-02-2026 08:00:00,27.213494,73.734444,SO2,4,9,6
India,Rajasthan,Nagaur,"Karni Colony, Nagaur - RSPCB",25-02-2026 08:00:00,27.213494,73.734444,OZONE,21,114,70
India,Rajasthan,Pali,"Indira Colony Vistar, Pali - RSPCB",25-02-2026 08:00:00,25.771061, 73.340227,PM2.5,29,164,76
India,Rajasthan,Dausa,"Khatikan Mohalla, Dausa - RSPCB",25-02-2026 08:00:00,26.895552,76.334753,NH3,3,7,5
India,Rajasthan,Dausa,"Khatikan Mohalla, Dausa - RSPCB",25-02-2026 08:00:00,26.895552,76.334753,SO2,3,10,5
India,Rajasthan,Dholpur,"Raja Ganj, Dholpur - RSPCB",25-02-2026 08:00:00,26.699557,77.898881,SO2,4,14,9
India,Rajasthan,Sri Ganganagar,"Old City, Sri Ganganagar - RSPCB",25-02-2026 08:00:00,29.931624,73.864511,PM2.5,27,97,54
India,Rajasthan,Tonk,"Shastri Nagar, Tonk - RSPCB",25-02-2026 08:00:00,26.159933,75.780517,PM2.5,47,180,85
India,Telangana,Hyderabad,"Somajiguda, Hyderabad - TSPCB",25-02-2026 08:00:00,17.417094,78.457437,PM10,63,111,97
India,Telangana,Hyderabad,"Somajiguda, Hyderabad - TSPCB",25-02-2026 08:00:00,17.417094,78.457437,CO,12,56,13
India,Telangana,Hyderabad,"Zoo Park, Hyderabad - TSPCB",25-02-2026 08:00:00,17.349694,78.451437,PM10,20,138,78
India,Telangana,Hyderabad,"Zoo Park, Hyderabad - TSPCB",25-02-2026 08:00:00,17.349694,78.451437,SO2,2,15,7
India,Tripura,Agartala,"Bardowali, Agartala - Tripura SPCB",25-02-2026 08:00:00,23.8175497,91.2726974,NO2,19,30,23
India,Uttar_Pradesh,Agra,"Manoharpur, Agra - UPPCB",25-02-2026 08:00:00,27.23711,78.01936,PM10,28,134,89
India,Uttar_Pradesh,Agra,"Manoharpur, Agra - UPPCB",25-02-2026 08:00:00,27.23711,78.01936,SO2,5,7,6
India,Uttar_Pradesh,Agra,"Rohta, Agra - UPPCB",25-02-2026 08:00:00,27.106972,78.000111,NO2,14,14,14
India,Uttar_Pradesh,Agra,"Rohta, Agra - UPPCB",25-02-2026 08:00:00,27.106972,78.000111,SO2,8,20,14
India,Telangana,Hyderabad,"IITH Kandi, Hyderabad - TSPCB",25-02-2026 08:00:00,17.585705,78.126199,OZONE,15,31,18
India,Telangana,Hyderabad,"Kokapet, Hyderabad - TSPCB",25-02-2026 08:00:00,17.393559,78.339194,SO2,12,16,14
India,Telangana,Hyderabad,"Kompally Municipal Office, Hyderabad - TSPCB",25-02-2026 08:00:00,17.544899,78.486949,PM10,77,89,83
India,Telangana,Hyderabad,"Kompally Municipal Office, Hyderabad - TSPCB",25-02-2026 08:00:00,17.544899,78.486949,NO2,13,14,14
India,Telangana,Hyderabad,"New Malakpet, Hyderabad - TSPCB",25-02-2026 08:00:00,17.37206,78.50864,PM10,78,98,86
India,Telangana,Hyderabad,"New Malakpet, Hyderabad - TSPCB",25-02-2026 08:00:00,17.37206,78.50864,NH3,3,3,3
India,Telangana,Hyderabad,"New Malakpet, Hyderabad - TSPCB",25-02-2026 08:00:00,17.37206,78.50864,SO2,13,18,16
India,Telangana,Hyderabad,"Ramachandrapuram, Hyderabad - TSPCB",25-02-2026 08:00:00,17.528544,78.286195,NH3,4,6,5
India,TamilNadu,Chennai,"Perungudi, Chennai - TNPCB",25-02-2026 08:00:00,12.9533,80.2357,OZONE,1,4,2
India,TamilNadu,Chennai,"Royapuram, Chennai - TNPCB",25-02-2026 08:00:00,13.1036,80.2909,NO2,1,9,1
India,TamilNadu,Chennai,"Velachery Res. Area, Chennai - CPCB",25-02-2026 08:00:00,13.0052189,80.2398125,SO2,3,7,6
India,TamilNadu,Coimbatore,"PSG College of Arts and Science, Coimbatore - TNPCB",25-02-2026 08:00:00,11.0328,77.0349,PM10,127,449,295
India,TamilNadu,Coimbatore,"PSG College of Arts and Science, Coimbatore - TNPCB",25-02-2026 08:00:00,11.0328,77.0349,OZONE,4,7,5
India,TamilNadu,Coimbatore,"SIDCO Kurichi, Coimbatore - TNPCB",25-02-2026 08:00:00,10.942451,76.978996,PM2.5,27,140,61
India,Telangana,Hyderabad,"Bollaram Industrial Area, Hyderabad - TSPCB",25-02-2026 08:00:00,17.540891,78.358528,SO2,2,11,7
India,Telangana,Hyderabad,"Central University, Hyderabad - TSPCB",25-02-2026 08:00:00,17.460103,78.334361,PM2.5,16,75,49
India,Telangana,Hyderabad,"Central University, Hyderabad - TSPCB",25-02-2026 08:00:00,17.460103,78.334361,NO2,12,32,25
India,Telangana,Hyderabad,"ECIL Kapra, Hyderabad - TSPCB",25-02-2026 08:00:00,17.470431,78.566959,NO2,7,15,12
India,Telangana,Hyderabad,"ECIL Kapra, Hyderabad - TSPCB",25-02-2026 08:00:00,17.470431,78.566959,CO,18,32,24
India,Telangana,Hyderabad,"ICRISAT Patancheru, Hyderabad - TSPCB",25-02-2026 08:00:00,17.518400,78.278777,PM10,NA,NA,NA
India,Telangana,Hyderabad,"IITH Kandi, Hyderabad - TSPCB",25-02-2026 08:00:00,17.585705,78.126199,PM2.5,48,61,55
India,Telangana,Hyderabad,"Ramachandrapuram, Hyderabad - TSPCB",25-02-2026 08:00:00,17.528544,78.286195,CO,34,54,52
India,Telangana,Hyderabad,"Ramachandrapuram, Hyderabad - TSPCB",25-02-2026 08:00:00,17.528544,78.286195,OZONE,15,36,22
India,Telangana,Hyderabad,"Sanathnagar, Hyderabad - TSPCB",25-02-2026 08:00:00,17.4559458,78.4332152,PM2.5,23,70,46
India,Telangana,Hyderabad,"Sanathnagar, Hyderabad - TSPCB",25-02-2026 08:00:00,17.4559458,78.4332152,NO2,5,65,28
India,TamilNadu,Coimbatore,"SIDCO Kurichi, Coimbatore - TNPCB",25-02-2026 08:00:00,10.942451,76.978996,CO,9,19,10
India,TamilNadu,Thoothukudi,"Meelavittan, Thoothukudi - TNPCB",25-02-2026 08:00:00,8.816428 ,78.099039,SO2,9,18,13
India,TamilNadu,Chennai,"Kodungaiyur, Chennai - TNPCB",25-02-2026 08:00:00,13.1278,80.2642,CO,47,60,55
India,TamilNadu,Chennai,"Manali Village, Chennai - TNPCB",25-02-2026 08:00:00,13.1662,80.2584,OZONE,15,41,37
India,TamilNadu,Chennai,"Perungudi, Chennai - TNPCB",25-02-2026 08:00:00,12.9533,80.2357,NO2,2,7,5
India,TamilNadu,Chennai,"Perungudi, Chennai - TNPCB",25-02-2026 08:00:00,12.9533,80.2357,NH3,1,3,1
India,Sikkim,Gangtok,"Zero Point GICI, Gangtok - SSPCB",25-02-2026 08:00:00,27.338530,88.614099,OZONE,20,23,21
India,Uttar_Pradesh,Greater Noida,"Knowledge Park - III, Greater Noida - UPPCB",25-02-2026 08:00:00,28.47272,77.482000,CO,4,133,16
India,Uttar_Pradesh,Greater Noida,"Knowledge Park - V, Greater Noida - UPPCB",25-02-2026 08:00:00,28.557054,77.453663,NO2,57,136,98
India,Uttar_Pradesh,Jhansi,"Shivaji Nagar, Jhansi - UPPCB",25-02-2026 08:00:00,25.4547,78.6039,PM2.5,23,102,44
India,Uttar_Pradesh,Jhansi,"Shivaji Nagar, Jhansi - UPPCB",25-02-2026 08:00:00,25.4547,78.6039,SO2,4,14,9
India,Uttar_Pradesh,Jhansi,"Shivaji Nagar, Jhansi - UPPCB",25-02-2026 08:00:00,25.4547,78.6039,OZONE,2,6,2
India,Uttar_Pradesh,Kanpur,"FTI Kidwai Nagar, Kanpur - UPPCB",25-02-2026 08:00:00,26.428282,80.327067,PM10,34,190,103
India,Uttar_Pradesh,Kanpur,"FTI Kidwai Nagar, Kanpur - UPPCB",25-02-2026 08:00:00,26.428282,80.327067,NO2,26,27,27
India,Uttar_Pradesh,Kanpur,"NSI Kalyanpur, Kanpur - UPPCB",25-02-2026 08:00:00,26.509954,80.249612,PM10,63,208,108
India,Uttar_Pradesh,Agra,"Sanjay Palace, Agra - UPPCB",25-02-2026 08:00:00,27.19865833,78.00598056,NO2,2,9,6
India,Uttar_Pradesh,Agra,"Sector-3B Avas Vikas Colony, Agra - UPPCB",25-02-2026 08:00:00,27.19412,77.96237,NO2,36,36,36
India,Uttar_Pradesh,Agra,"Shahjahan Garden, Agra - UPPCB",25-02-2026 08:00:00,27.169338,78.03582,PM10,76,178,131
India,Uttar_Pradesh,Agra,"Shahjahan Garden, Agra - UPPCB",25-02-2026 08:00:00,27.169338,78.03582,CO,4,18,14
India,Uttar_Pradesh,Agra,"Shastripuram, Agra - UPPCB",25-02-2026 08:00:00,27.19862,77.92066,PM2.5,11,91,47
India,Uttar_Pradesh,Baghpat,"Sardar Patel Inter College, Baghpat - UPPCB",25-02-2026 08:00:00,28.964949,77.278761,PM2.5,97,322,250
India,Uttar_Pradesh,Baghpat,"Sardar Patel Inter College, Baghpat - UPPCB",25-02-2026 08:00:00,28.964949,77.278761,NO2,2,53,31
India,Uttar_Pradesh,Baghpat,"Sardar Patel Inter College, Baghpat - UPPCB",25-02-2026 08:00:00,28.964949,77.278761,CO,27,98,30
India,Uttar_Pradesh,Bareilly,"Civil Lines, Bareilly - UPPCB",25-02-2026 08:00:00,28.359581,79.414455,SO2,46,73,58
India,Uttar_Pradesh,Bareilly,"Rajendra Nagar, Bareilly - UPPCB",25-02-2026 08:00:00,28.38910936,79.42963708,PM10,53,165,104
India,Uttar_Pradesh,Bulandshahr,"Yamunapuram, Bulandshahr - UPPCB",25-02-2026 08:00:00,28.406963,77.849831,NH3,9,15,12
India,Uttar_Pradesh,Bulandshahr,"Yamunapuram, Bulandshahr - UPPCB",25-02-2026 08:00:00,28.406963,77.849831,OZONE,1,104,4
India,Uttar_Pradesh,Firozabad,"Nagla Bhau, Firozabad - UPPCB",25-02-2026 08:00:00,27.168897,78.376960,SO2,19,36,26
India,Uttar_Pradesh,Ghaziabad,"Indirapuram, Ghaziabad - UPPCB",25-02-2026 08:00:00,28.646233,77.358075,PM10,141,440,248
India,Uttar_Pradesh,Lucknow,"Kukrail Picnic Spot-1, Lucknow - UPPCB",25-02-2026 08:00:00,26.90723,80.98579,OZONE,8,40,32
India,Uttar_Pradesh,Lucknow,"Lalbagh, Lucknow - CPCB",25-02-2026 08:00:00,26.8458805,80.9365541,SO2,1,19,5
India,Uttar_Pradesh,Lucknow,"Talkatora District Industries Center, Lucknow - CPCB",25-02-2026 08:00:00,26.83399722,80.8917361,SO2,2,23,5
India,Uttar_Pradesh,Meerut,"Jai Bhim Nagar, Meerut - UPPCB",25-02-2026 08:00:00,28.9535882,77.7622941,PM10,111,391,170
India,Uttar_Pradesh,Meerut,"Jai Bhim Nagar, Meerut - UPPCB",25-02-2026 08:00:00,28.9535882,77.7622941,NO2,26,87,50
India,Uttar_Pradesh,Meerut,"Jai Bhim Nagar, Meerut - UPPCB",25-02-2026 08:00:00,28.9535882,77.7622941,CO,42,102,64
India,Uttar_Pradesh,Ghaziabad,"Indirapuram, Ghaziabad - UPPCB",25-02-2026 08:00:00,28.646233,77.358075,NH3,19,25,23
India,Uttar_Pradesh,Ghaziabad,"Indirapuram, Ghaziabad - UPPCB",25-02-2026 08:00:00,28.646233,77.358075,CO,35,88,42
India,Uttar_Pradesh,Ghaziabad,"Vasundhara, Ghaziabad - UPPCB",25-02-2026 08:00:00,28.6603346,77.3572563,PM2.5,104,364,281
India,Uttar_Pradesh,Ghaziabad,"Vasundhara, Ghaziabad - UPPCB",25-02-2026 08:00:00,28.6603346,77.3572563,NO2,28,128,83
India,Uttar_Pradesh,Ghaziabad,"Vasundhara, Ghaziabad - UPPCB",25-02-2026 08:00:00,28.6603346,77.3572563,CO,10,138,35
India,Uttar_Pradesh,Gorakhpur,"Madan Mohan Malaviya University of Technology, Gorakhpur - UPPCB",25-02-2026 08:00:00,26.730136,83.433859,PM2.5,57,387,91
India,Uttar_Pradesh,Gorakhpur,"Madan Mohan Malaviya University of Technology, Gorakhpur - UPPCB",25-02-2026 08:00:00,26.730136,83.433859,NH3,1,1,1
India,Uttar_Pradesh,Kanpur,"NSI Kalyanpur, Kanpur - UPPCB",25-02-2026 08:00:00,26.509954,80.249612,CO,32,62,46
India,Uttar_Pradesh,Khurja,"Kalindi Kunj, Khurja - UPPCB",25-02-2026 08:00:00,28.2348927,77.8683002,PM2.5,33,290,135
India,Uttar_Pradesh,Khurja,"Kalindi Kunj, Khurja - UPPCB",25-02-2026 08:00:00,28.2348927,77.8683002,NO2,7,7,7
India,Uttar_Pradesh,Lucknow,"B R Ambedkar University, Lucknow - UPPCB",25-02-2026 08:00:00,26.766433,80.927299,SO2,NA,NA,NA
India,Uttar_Pradesh,Lucknow,"B R Ambedkar University, Lucknow - UPPCB",25-02-2026 08:00:00,26.766433,80.927299,CO,NA,NA,NA
India,Uttar_Pradesh,Meerut,"Pallavpuram Phase 2, Meerut - UPPCB",25-02-2026 08:00:00,29.063510,77.709723,CO,16,68,39
India,Uttar_Pradesh,Lucknow,"Kendriya Vidyalaya, Lucknow - CPCB",25-02-2026 08:00:00,26.906111,80.948222,NO2,25,30,27
India,Uttar_Pradesh,Muzaffarnagar,"New Mandi, Muzaffarnagar - UPPCB",25-02-2026 08:00:00,29.4723508,77.7194031,CO,4,98,22
India,Uttar_Pradesh,Noida,"Sector - 125, Noida - UPPCB",25-02-2026 08:00:00,28.5447608,77.3231257,PM10,64,318,150
India,Uttar_Pradesh,Noida,"Sector - 62, Noida - IMD",25-02-2026 08:00:00,28.6245479,77.3577104,PM10,103,340,184
India,Uttar_Pradesh,Noida,"Sector-1, Noida - UPPCB",25-02-2026 08:00:00,28.5898,77.3101,NO2,56,112,89
India,Uttar_Pradesh,Noida,"Sector-1, Noida - UPPCB",25-02-2026 08:00:00,28.5898,77.3101,SO2,10,49,21
India,Uttar_Pradesh,Noida,"Sector-116, Noida - UPPCB",25-02-2026 08:00:00,28.569230,77.393848,NO2,47,194,120
India,Uttar_Pradesh,Noida,"Sector-116, Noida - UPPCB",25-02-2026 08:00:00,28.569230,77.393848,SO2,7,22,11
India,Uttar_Pradesh,Prayagraj,"Jhunsi, Prayagraj - UPPCB",25-02-2026 08:00:00,25.425602,81.917152,NH3,5,5,5
India,Uttar_Pradesh,Prayagraj,"Jhunsi, Prayagraj - UPPCB",25-02-2026 08:00:00,25.425602,81.917152,CO,10,88,45
India,Uttar_Pradesh,Prayagraj,"Jhunsi, Prayagraj - UPPCB",25-02-2026 08:00:00,25.425602,81.917152,OZONE,16,55,17
India,West_Bengal,Barrackpore,"SVSPA Campus, Barrackpore - WBPCB",25-02-2026 08:00:00,22.7605581,88.3617589,PM2.5,44,96,73
India,West_Bengal,Barrackpore,"SVSPA Campus, Barrackpore - WBPCB",25-02-2026 08:00:00,22.7605581,88.3617589,CO,50,94,82
India,West_Bengal,Barrackpore,"SVSPA Campus, Barrackpore - WBPCB",25-02-2026 08:00:00,22.7605581,88.3617589,OZONE,1,42,2
India,West_Bengal,Durgapur,"Mahishkapur Road_B-Zone, Durgapur - WBPCB",25-02-2026 08:00:00,23.567923,87.306843,PM10,36,98,67
India,West_Bengal,Durgapur,"Mahishkapur Road_B-Zone, Durgapur - WBPCB",25-02-2026 08:00:00,23.567923,87.306843,NO2,13,61,38
India,West_Bengal,Durgapur,"Mahishkapur Road_B-Zone, Durgapur - WBPCB",25-02-2026 08:00:00,23.567923,87.306843,NH3,3,3,3
India,West_Bengal,Durgapur,"Mahishkapur Road_B-Zone, Durgapur - WBPCB",25-02-2026 08:00:00,23.567923,87.306843,OZONE,1,63,5
India,Uttar_Pradesh,Vrindavan,"Omex Eternity, Vrindavan - UPPCB",25-02-2026 08:00:00,27.5714090,77.6557570,NO2,27,27,27
India,Uttar_Pradesh,Vrindavan,"Omex Eternity, Vrindavan - UPPCB",25-02-2026 08:00:00,27.5714090,77.6557570,SO2,14,28,19
India,Uttarakhand,Rishikesh,"Shivaji Nagar, Rishikesh - UKPCB",25-02-2026 08:00:00,30.075911,78.2859547,PM10,47,72,59
India,Uttarakhand,Rishikesh,"Shivaji Nagar, Rishikesh - UKPCB",25-02-2026 08:00:00,30.075911,78.2859547,NH3,2,40,17
India,West_Bengal,Asansol,"Asansol Court Area, Asansol - WBPCB",25-02-2026 08:00:00,23.685297,86.945968,PM2.5,42,201,103
India,West_Bengal,Asansol,"Evelyn Lodge, Asansol - WBPCB",25-02-2026 08:00:00,23.6979360,86.9443950,SO2,23,23,23
India,West_Bengal,Asansol,"Evelyn Lodge, Asansol - WBPCB",25-02-2026 08:00:00,23.6979360,86.9443950,CO,29,79,51
India,West_Bengal,Asansol,"Mahabir Colliery, Asansol - WBPCB",25-02-2026 08:00:00,23.6181830,87.1057180,PM2.5,45,283,120
India,West_Bengal,Asansol,"Mahabir Colliery, Asansol - WBPCB",25-02-2026 08:00:00,23.6181830,87.1057180,CO,46,117,79
India,West_Bengal,Asansol,"Trivenidevi Bhalotia College, Asansol - WBPCB",25-02-2026 08:00:00,23.616515,87.119133,PM2.5,8,129,87
India,West_Bengal,Asansol,"Trivenidevi Bhalotia College, Asansol - WBPCB",25-02-2026 08:00:00,23.616515,87.119133,SO2,4,7,6
India,Uttar_Pradesh,Prayagraj,"Motilal Nehru NIT, Prayagraj - UPPCB",25-02-2026 08:00:00,25.494,81.863,SO2,24,71,47
India,Uttar_Pradesh,Varanasi,"Ardhali Bazar, Varanasi - UPPCB",25-02-2026 08:00:00,25.3505986,82.9083074,PM10,1,97,60
India,Uttar_Pradesh,Varanasi,"Ardhali Bazar, Varanasi - UPPCB",25-02-2026 08:00:00,25.3505986,82.9083074,SO2,9,12,10
India,Uttar_Pradesh,Varanasi,"Bhelupur, Varanasi - UPPCB",25-02-2026 08:00:00,25.301778,82.996789,NH3,1,1,1
India,Uttar_Pradesh,Varanasi,"Bhelupur, Varanasi - UPPCB",25-02-2026 08:00:00,25.301778,82.996789,OZONE,6,19,6
India,Uttar_Pradesh,Moradabad,"Employment Office, Moradabad - UPPCB",25-02-2026 08:00:00,28.88528,78.73880,OZONE,16,18,18
India,Uttar_Pradesh,Moradabad,"Transport Nagar, Moradabad - UPPCB",25-02-2026 08:00:00,28.802625,78.753728,NH3,5,6,5
India,Uttar_Pradesh,Moradabad,"Transport Nagar, Moradabad - UPPCB",25-02-2026 08:00:00,28.802625,78.753728,CO,37,60,42
India,West_Bengal,Haldia,"Priyambada Housing Estate, Haldia - WBPCB",25-02-2026 08:00:00,22.06047,88.109737,NO2,18,52,30
India,West_Bengal,Haldia,"Priyambada Housing Estate, Haldia - WBPCB",25-02-2026 08:00:00,22.06047,88.109737,SO2,11,14,13
India,West_Bengal,Durgapur,"Womens College_City Center, Durgapur - WBPCB",25-02-2026 08:00:00,23.549395,87.300496,PM10,57,149,106
India,West_Bengal,Howrah,"Belur Math, Howrah - WBPCB",25-02-2026 08:00:00,22.629801,88.352017,SO2,10,43,18
India,West_Bengal,Howrah,"Dasnagar, Howrah - WBPCB",25-02-2026 08:00:00,22.6025571,88.3105664,NO2,20,96,56
India,West_Bengal,Howrah,"Padmapukur, Howrah - WBPCB",25-02-2026 08:00:00,22.5687319,88.2797276,PM10,71,142,108
India,West_Bengal,Howrah,"Padmapukur, Howrah - WBPCB",25-02-2026 08:00:00,22.5687319,88.2797276,SO2,1,18,5
India,West_Bengal,Kolkata,"Ballygunge, Kolkata - WBPCB",25-02-2026 08:00:00,22.5367507,88.3638022,OZONE,11,23,12
India,West_Bengal,Kolkata,"Rabindra Sarobar, Kolkata - WBPCB",25-02-2026 08:00:00,22.51106,88.35142,PM10,40,80,59
India,West_Bengal,Kolkata,"Victoria, Kolkata - WBPCB",25-02-2026 08:00:00,22.5448082,88.3403691,NO2,47,69,55
India,West_Bengal,Kolkata,"Victoria, Kolkata - WBPCB",25-02-2026 08:00:00,22.5448082,88.3403691,NH3,8,8,8
India,West_Bengal,Siliguri,"Ward-32 Bapupara, Siliguri - WBPCB",25-02-2026 08:00:00,26.6879226,88.4152495,NH3,10,10,10
India,West_Bengal,Siliguri,"Ward-32 Bapupara, Siliguri - WBPCB",25-02-2026 08:00:00,26.6879226,88.4152495,SO2,14,30,20
India,Bihar,Buxar,"Charitra Van, Buxar - BSPCB",25-02-2026 08:00:00,25.567520,83.966379,NH3,3,3,3
India,Bihar,Buxar,"Charitra Van, Buxar - BSPCB",25-02-2026 08:00:00,25.567520,83.966379,CO,20,28,25
India,Bihar,Chhapra,"Darshan Nagar, Chhapra - BSPCB",25-02-2026 08:00:00,25.7808257,84.7446768,CO,30,56,49
India,Bihar,Gaya,"Collectorate, Gaya - BSPCB",25-02-2026 08:00:00,24.7955,84.9994,CO,46,72,48
India,Bihar,Gaya,"Collectorate, Gaya - BSPCB",25-02-2026 08:00:00,24.7955,84.9994,OZONE,17,20,17
India,Bihar,Gaya,"Kareemganj, Gaya - BSPCB",25-02-2026 08:00:00,24.792403,84.992416,SO2,43,46,44
India,Bihar,Gaya,"Kareemganj, Gaya - BSPCB",25-02-2026 08:00:00,24.792403,84.992416,CO,2,113,23
India,Bihar,Gaya,"SFTI Kusdihra, Gaya - BSPCB",25-02-2026 08:00:00,24.762518,84.982348,PM2.5,41,71,56
India,Assam,Sivasagar,"Girls College, Sivasagar - PCBA",25-02-2026 08:00:00,26.987634,94.636574,NH3,7,23,13
India,Assam,Sivasagar,"Girls College, Sivasagar - PCBA",25-02-2026 08:00:00,26.987634,94.636574,SO2,9,13,11
India,Assam,Sivasagar,"Girls College, Sivasagar - PCBA",25-02-2026 08:00:00,26.987634,94.636574,CO,22,87,55
India,Assam,Sivasagar,"Girls College, Sivasagar - PCBA",25-02-2026 08:00:00,26.987634,94.636574,OZONE,5,90,11
India,Bihar,Araria,"Kharahiya Basti, Araria - BSPCB",25-02-2026 08:00:00,26.146529,87.454184,NO2,2,8,4
India,Bihar,Araria,"Kharahiya Basti, Araria - BSPCB",25-02-2026 08:00:00,26.146529,87.454184,NH3,4,5,4
India,Bihar,Arrah,"New DM Office, Arrah - BSPCB",25-02-2026 08:00:00,25.5626095,84.663264,PM2.5,37,157,88
India,Bihar,Arrah,"New DM Office, Arrah - BSPCB",25-02-2026 08:00:00,25.5626095,84.663264,CO,40,62,54
India,Andhra_Pradesh,Vijayawada,"Kanuru, Vijayawada - APPCB",25-02-2026 08:00:00,16.486692,80.699436,PM10,46,54,49
India,Andhra_Pradesh,Vijayawada,"Rajiv Gandhi Park, Vijayawada - APPCB",25-02-2026 08:00:00,16.509717,80.612222,PM10,37,71,54
India,Andhra_Pradesh,Vijayawada,"Rajiv Gandhi Park, Vijayawada - APPCB",25-02-2026 08:00:00,16.509717,80.612222,CO,36,40,40
India,Andhra_Pradesh,Vijayawada,"Rajiv Gandhi Park, Vijayawada - APPCB",25-02-2026 08:00:00,16.509717,80.612222,OZONE,8,20,8
India,Andhra_Pradesh,Vijayawada,"Rajiv Nagar, Vijayawada - APPCB",25-02-2026 08:00:00,16.554731,80.649110,PM2.5,64,74,71
India,Andhra_Pradesh,Vijayawada,"Rajiv Nagar, Vijayawada - APPCB",25-02-2026 08:00:00,16.554731,80.649110,NO2,19,23,22
India,Andhra_Pradesh,Vijayawada,"Rajiv Nagar, Vijayawada - APPCB",25-02-2026 08:00:00,16.554731,80.649110,CO,28,41,40
India,Bihar,Begusarai,"Lohiyanagar, Begusarai - BSPCB",25-02-2026 08:00:00,25.42742023,86.13886079,PM2.5,38,167,87
India,Bihar,Begusarai,"Lohiyanagar, Begusarai - BSPCB",25-02-2026 08:00:00,25.42742023,86.13886079,NH3,5,6,5
India,Bihar,Begusarai,"Lohiyanagar, Begusarai - BSPCB",25-02-2026 08:00:00,25.42742023,86.13886079,SO2,23,27,25
India,Bihar,Bettiah,"Kamalnath Nagar, Bettiah - BSPCB",25-02-2026 08:00:00,26.80365,84.51954,NO2,7,9,8
India,Bihar,Bhagalpur,"Mayaganj, Bhagalpur - BSPCB",25-02-2026 08:00:00,25.265194,87.012947,PM10,47,133,88
India,Bihar,Bhagalpur,"Mayaganj, Bhagalpur - BSPCB",25-02-2026 08:00:00,25.265194,87.012947,NO2,7,11,7
India,Andhra_Pradesh,Kadapa,"Yerramukkapalli, Kadapa - APPCB",25-02-2026 08:00:00,14.465052,78.824187,PM2.5,64,257,109
India,Andhra_Pradesh,Kadapa,"Yerramukkapalli, Kadapa - APPCB",25-02-2026 08:00:00,14.465052,78.824187,NO2,19,23,22
India,Andhra_Pradesh,Kadapa,"Yerramukkapalli, Kadapa - APPCB",25-02-2026 08:00:00,14.465052,78.824187,SO2,13,19,14
India,Andhra_Pradesh,Rajamahendravaram,"Anand Kala Kshetram, Rajamahendravaram - APPCB",25-02-2026 08:00:00,16.9872867,81.7363176,CO,26,62,42
India,Assam,Guwahati,"Railway Colony, Guwahati - PCBA",25-02-2026 08:00:00,26.181742,91.78063,CO,NA,NA,NA
India,Assam,Nagaon,"Christianpatty, Nagaon - PCBA",25-02-2026 08:00:00,26.349082,92.68449,PM10,NA,NA,NA
India,Assam,Nalbari,"Bata Chowk, Nalbari - PCBA",25-02-2026 08:00:00,26.446912,91.439057,NO2,14,16,14
India,Assam,Silchar,"Tarapur, Silchar - PCBA",25-02-2026 08:00:00,24.82827,92.79525,NO2,23,41,33
India,Andhra_Pradesh,Tirumala,"Toll Gate, Tirumala - APPCB",25-02-2026 08:00:00,13.67,79.35,CO,14,68,39
India,Andhra_Pradesh,Tirupati,"Vaikuntapuram, Tirupati - APPCB",25-02-2026 08:00:00,13.615387,79.409230,OZONE,28,31,30
India,Andhra_Pradesh,Vijayawada,"HB Colony, Vijayawada - APPCB",25-02-2026 08:00:00,16.536107,80.594233,CO,34,36,35
India,Andhra_Pradesh,Vijayawada,"HB Colony, Vijayawada - APPCB",25-02-2026 08:00:00,16.536107,80.594233,OZONE,12,20,12
India,Arunachal_Pradesh,Naharlagun,"Naharlagun, Naharlagun - APSPCB",25-02-2026 08:00:00,27.103358,93.679645,CO,8,44,21
India,Assam,Guwahati,"Pan Bazaar, Guwahati - PCBA",25-02-2026 08:00:00,26.187500,91.744194,PM2.5,71,261,157
India,Andhra_Pradesh,Amaravati,"Secretariat, Amaravati - APPCB",25-02-2026 08:00:00,16.5150833,80.5181667,PM2.5,13,100,49
India,Andhra_Pradesh,Anantapur,"Gulzarpet, Anantapur - APPCB",25-02-2026 08:00:00,14.675886,77.593027,PM2.5,46,72,59
India,Bihar,Bihar Sharif,"D M Colony, Bihar Sharif - BSPCB",25-02-2026 08:00:00,25.204762,85.514960,CO,53,121,56
India,Bihar,Sasaram,"Dada Peer, Sasaram - BSPCB",25-02-2026 08:00:00,24.952822,84.002396,NO2,1,12,4
India,Bihar,Siwan,"Chitragupta Nagar, Siwan - BSPCB",25-02-2026 08:00:00,26.2271665,84.3570427,SO2,6,7,6
India,Bihar,Siwan,"Chitragupta Nagar, Siwan - BSPCB",25-02-2026 08:00:00,26.2271665,84.3570427,CO,30,108,49
India,Chandigarh,Chandigarh,"Sector 22, Chandigarh - CPCC",25-02-2026 08:00:00,30.735567,76.775714,PM10,34,101,75
India,Chandigarh,Chandigarh,"Sector 22, Chandigarh - CPCC",25-02-2026 08:00:00,30.735567,76.775714,NO2,4,102,47
India,Chandigarh,Chandigarh,"Sector 22, Chandigarh - CPCC",25-02-2026 08:00:00,30.735567,76.775714,SO2,5,76,15
India,Chandigarh,Chandigarh,"Sector 22, Chandigarh - CPCC",25-02-2026 08:00:00,30.735567,76.775714,CO,56,104,79
India,Chhattisgarh,Bhilai,"32Bungalows, Bhilai - CECB",25-02-2026 08:00:00,21.194815,81.314770,NH3,1,2,2
India,Bihar,Patna,"Samanpura, Patna - BSPCB",25-02-2026 08:00:00,25.596727,85.085624,PM10,102,222,152
India,Bihar,Patna,"Samanpura, Patna - BSPCB",25-02-2026 08:00:00,25.596727,85.085624,NO2,39,59,48
India,Bihar,Patna,"Samanpura, Patna - BSPCB",25-02-2026 08:00:00,25.596727,85.085624,NH3,9,15,12
India,Bihar,Patna,"Samanpura, Patna - BSPCB",25-02-2026 08:00:00,25.596727,85.085624,SO2,2,3,3
India,Bihar,Patna,"Samanpura, Patna - BSPCB",25-02-2026 08:00:00,25.596727,85.085624,OZONE,7,125,10
India,Bihar,Purnia,"Mariam Nagar, Purnia - BSPCB",25-02-2026 08:00:00,25.366336,87.117468,CO,36,60,52
India,Bihar,Rajgir,"Dangi Tola, Rajgir - BSPCB",25-02-2026 08:00:00,25.03280,85.41948,PM2.5,NA,NA,NA
India,Bihar,Samastipur,"DM Office_Kasipur, Samastipur - BSPCB",25-02-2026 08:00:00,25.859655,85.77944,PM10,38,483,144
India,Bihar,Gaya,"SFTI Kusdihra, Gaya - BSPCB",25-02-2026 08:00:00,24.762518,84.982348,CO,21,48,40
India,Bihar,Hajipur,"Industrial Area, Hajipur - BSPCB",25-02-2026 08:00:00,25.697189,85.245900,CO,9,58,55
India,Bihar,Katihar,"Mirchaibari, Katihar - BSPCB",25-02-2026 08:00:00,25.560083,87.553265,NH3,1,1,1
India,Bihar,Katihar,"Mirchaibari, Katihar - BSPCB",25-02-2026 08:00:00,25.560083,87.553265,OZONE,5,14,6
India,Bihar,Kishanganj,"SDM Office_Khagra, Kishanganj - BSPCB",25-02-2026 08:00:00,26.0881305,87.93840336,PM10,43,151,93
India,Bihar,Kishanganj,"SDM Office_Khagra, Kishanganj - BSPCB",25-02-2026 08:00:00,26.0881305,87.93840336,CO,16,24,18
India,Chhattisgarh,Kunjemura,"OP Jindal School, Kunjemura - CECB",25-02-2026 08:00:00,22.126650,83.483212,SO2,2,73,22
India,Chhattisgarh,Kunjemura,"OP Jindal School, Kunjemura - CECB",25-02-2026 08:00:00,22.126650,83.483212,CO,18,51,37
India,Chhattisgarh,Raipur,"Bhatagaon New ISBT, Raipur - CECB",25-02-2026 08:00:00,21.219665,81.630094,PM10,30,88,43
India,Chhattisgarh,Raipur,"Bhatagaon New ISBT, Raipur - CECB",25-02-2026 08:00:00,21.219665,81.630094,OZONE,2,12,2
India,Chhattisgarh,Raipur,"Krishak Nagar, Raipur - CECB",25-02-2026 08:00:00,21.237755,81.705301,PM2.5,30,55,38
India,Chhattisgarh,Raipur,"Krishak Nagar, Raipur - CECB",25-02-2026 08:00:00,21.237755,81.705301,CO,16,30,22
India,Chhattisgarh,Raipur,"Siltara Phase-II, Raipur - CECB",25-02-2026 08:00:00,21.371751,81.664929,PM2.5,32,115,47
India,Chhattisgarh,Raipur,"Siltara Phase-II, Raipur - CECB",25-02-2026 08:00:00,21.371751,81.664929,NO2,7,47,20
India,Chhattisgarh,Tumidih,"OP Jindal Industrial Park, Tumidih - CECB",25-02-2026 08:00:00,22.06631475,83.33820077,NO2,32,98,72
India,Bihar,Patna,"IGSC Planetarium Complex, Patna - BSPCB",25-02-2026 08:00:00,25.610369,85.132568,NO2,NA,NA,NA
India,Bihar,Patna,"IGSC Planetarium Complex, Patna - BSPCB",25-02-2026 08:00:00,25.610369,85.132568,SO2,NA,NA,NA
India,Bihar,Patna,"Muradpur, Patna - BSPCB",25-02-2026 08:00:00,25.619651,85.147382,NH3,4,5,5
India,Bihar,Patna,"Rajbansi Nagar, Patna - BSPCB",25-02-2026 08:00:00,25.599486,85.113666,OZONE,NA,NA,NA
India,Bihar,Motihari,"Gandak Colony, Motihari - BSPCB",25-02-2026 08:00:00,26.63086,84.90051,NO2,4,7,5
India,Bihar,Munger,"Town Hall, Munger - BSPCB",25-02-2026 08:00:00,25.376776,86.471523,NO2,4,6,5
India,Bihar,Muzaffarpur,"MIT-Daudpur Kothi, Muzaffarpur - BSPCB",25-02-2026 08:00:00,26.1403345,85.3650192,OZONE,7,68,9
India,Chhattisgarh,Bhilai,"Hathkhoj, Bhilai - CECB",25-02-2026 08:00:00,21.224231,81.408350,PM2.5,31,71,43
India,Chhattisgarh,Chhal,"Nawapara SECL Colony, Chhal - CECB",25-02-2026 08:00:00,22.118125,83.140608,NH3,NA,NA,NA
India,Chhattisgarh,Korba,"Rampur, Korba - CECB",25-02-2026 08:00:00,22.368195,82.746431,SO2,13,90,39
India,Bihar,Patna,"DRM Office Danapur, Patna - BSPCB",25-02-2026 08:00:00,25.586562,85.043586,SO2,5,8,6
India,Bihar,Patna,"Govt. High School Shikarpur, Patna - BSPCB",25-02-2026 08:00:00,25.592539,85.227158,PM10,89,211,129
India,Delhi,Delhi,"Narela, Delhi - DPCC",25-02-2026 08:00:00,28.822836,77.101981,PM2.5,88,360,217
India,Delhi,Delhi,"Nehru Nagar, Delhi - DPCC",25-02-2026 08:00:00,28.567890,77.250515,NO2,55,101,70
India,Delhi,Delhi,"North Campus, DU, Delhi - IMD",25-02-2026 08:00:00,28.6573814,77.1585447,OZONE,13,245,14
India,Delhi,Delhi,"Okhla Phase-2, Delhi - DPCC",25-02-2026 08:00:00,28.530785,77.271255,NO2,26,143,88
India,Delhi,Delhi,"Okhla Phase-2, Delhi - DPCC",25-02-2026 08:00:00,28.530785,77.271255,SO2,6,113,16
India,Delhi,Delhi,"Okhla Phase-2, Delhi - DPCC",25-02-2026 08:00:00,28.530785,77.271255,CO,15,191,96
India,Delhi,Delhi,"Patparganj, Delhi - DPCC",25-02-2026 08:00:00,28.623763,77.287209,NO2,25,144,86
India,Delhi,Delhi,"Punjabi Bagh, Delhi - DPCC",25-02-2026 08:00:00,28.674045,77.131023,PM2.5,63,391,261
India,Delhi,Delhi,"Pusa, Delhi - IMD",25-02-2026 08:00:00,28.636110,77.173332,PM2.5,64,306,192
India,Delhi,Delhi,"Pusa, Delhi - IMD",25-02-2026 08:00:00,28.636110,77.173332,NO2,46,201,119
India,Delhi,Delhi,"Pusa, Delhi - IMD",25-02-2026 08:00:00,28.636110,77.173332,CO,4,126,107
India,Delhi,Delhi,"R K Puram, Delhi - DPCC",25-02-2026 08:00:00,28.563262,77.186937,PM10,107,360,199
India,Delhi,Delhi,"Rohini, Delhi - DPCC",25-02-2026 08:00:00,28.732528,77.119920,SO2,9,22,12
India,Delhi,Delhi,"Shadipur, Delhi - CPCB",25-02-2026 08:00:00,28.6514781,77.1473105,PM2.5,92,400,296
India,Delhi,Delhi,"Shadipur, Delhi - CPCB",25-02-2026 08:00:00,28.6514781,77.1473105,NH3,12,17,14
India,Delhi,Delhi,"Sirifort, Delhi - CPCB",25-02-2026 08:00:00,28.5504249,77.2159377,PM10,121,457,236
India,Delhi,Delhi,"Lodhi Road, Delhi - IMD",25-02-2026 08:00:00,28.5918245,77.2273074,OZONE,2,157,5
India,Delhi,Delhi,"Major Dhyan Chand National Stadium, Delhi - DPCC",25-02-2026 08:00:00,28.611281,77.237738,NO2,35,170,94
India,Delhi,Delhi,"Major Dhyan Chand National Stadium, Delhi - DPCC",25-02-2026 08:00:00,28.611281,77.237738,NH3,13,20,16
India,Delhi,Delhi,"Mundka, Delhi - DPCC",25-02-2026 08:00:00,28.684678,77.076574,PM2.5,107,382,279
India,Delhi,Delhi,"NSIT Dwarka, Delhi - CPCB",25-02-2026 08:00:00,28.60909,77.0325413,NH3,6,9,7
India,Delhi,Delhi,"ITO, Delhi - CPCB",25-02-2026 08:00:00,28.628624,77.241060,NO2,15,124,67
India,Delhi,Delhi,"Jahangirpuri, Delhi - DPCC",25-02-2026 08:00:00,28.732820,77.170633,SO2,49,68,55
India,Delhi,Delhi,"Jahangirpuri, Delhi - DPCC",25-02-2026 08:00:00,28.732820,77.170633,OZONE,3,18,4
India,Delhi,Delhi,"Jawaharlal Nehru Stadium, Delhi - DPCC",25-02-2026 08:00:00,28.580280,77.233829,SO2,3,36,18
India,Delhi,Delhi,"Lodhi Road, Delhi - IMD",25-02-2026 08:00:00,28.5918245,77.2273074,PM10,88,250,159
India,Delhi,Delhi,"DTU, Delhi - CPCB",25-02-2026 08:00:00,28.7500499,77.1112615,CO,14,50,43
India,Delhi,Delhi,"DTU, Delhi - CPCB",25-02-2026 08:00:00,28.7500499,77.1112615,OZONE,17,28,20
India,Delhi,Delhi,"Dr. Karni Singh Shooting Range, Delhi - DPCC",25-02-2026 08:00:00,28.498571,77.264840,OZONE,4,282,9
India,Delhi,Delhi,"IHBAS, Dilshad Garden, Delhi - CPCB",25-02-2026 08:00:00,28.6811736,77.3025234,NO2,25,126,57
India,Delhi,Delhi,"IHBAS, Dilshad Garden, Delhi - CPCB",25-02-2026 08:00:00,28.6811736,77.3025234,CO,22,102,76
India,Delhi,Delhi,"Anand Vihar, Delhi - DPCC",25-02-2026 08:00:00,28.647622,77.3158090,SO2,4,82,41
India,Delhi,Delhi,"Anand Vihar, Delhi - DPCC",25-02-2026 08:00:00,28.647622,77.3158090,CO,69,124,112
India,Delhi,Delhi,"Anand Vihar, Delhi - DPCC",25-02-2026 08:00:00,28.647622,77.3158090,OZONE,8,21,15
India,Delhi,Delhi,"Ashok Vihar, Delhi - DPCC",25-02-2026 08:00:00,28.695381,77.181665,PM10,116,437,243
India,Delhi,Delhi,"Ashok Vihar, Delhi - DPCC",25-02-2026 08:00:00,28.695381,77.181665,NH3,1,9,7
India,Delhi,Delhi,"Bawana, Delhi - DPCC",25-02-2026 08:00:00,28.776200,77.051074,NH3,6,9,8
India,Delhi,Delhi,"Burari Crossing, Delhi - IMD",25-02-2026 08:00:00,28.7256504,77.2011573,PM2.5,109,333,265
India,Delhi,Delhi,"CRRI Mathura Road, Delhi - IMD",25-02-2026 08:00:00,28.5512005,77.2735737,PM2.5,59,341,219
India,Delhi,Delhi,"Punjabi Bagh, Delhi - DPCC",25-02-2026 08:00:00,28.674045,77.131023,PM10,105,361,200
India,Delhi,Delhi,"Punjabi Bagh, Delhi - DPCC",25-02-2026 08:00:00,28.674045,77.131023,CO,33,104,54
India,Delhi,Delhi,"CRRI Mathura Road, Delhi - IMD",25-02-2026 08:00:00,28.5512005,77.2735737,CO,30,122,111
India,Delhi,Delhi,"Sirifort, Delhi - CPCB",25-02-2026 08:00:00,28.5504249,77.2159377,NH3,6,12,10
India,Delhi,Delhi,"Sonia Vihar, Delhi - DPCC",25-02-2026 08:00:00,28.710508,77.249485,OZONE,3,154,4
India,Delhi,Delhi,"Sri Aurobindo Marg, Delhi - DPCC",25-02-2026 08:00:00,28.531346,77.190156,PM10,101,211,138
India,Delhi,Delhi,"Sri Aurobindo Marg, Delhi - DPCC",25-02-2026 08:00:00,28.531346,77.190156,NO2,9,61,35
India,Delhi,Delhi,"Sri Aurobindo Marg, Delhi - DPCC",25-02-2026 08:00:00,28.531346,77.190156,CO,22,103,69
India,Delhi,Delhi,"Vivek Vihar, Delhi - DPCC",25-02-2026 08:00:00,28.672342,77.315260,NH3,6,13,8
India,Delhi,Delhi,"Vivek Vihar, Delhi - DPCC",25-02-2026 08:00:00,28.672342,77.315260,OZONE,3,98,4
India,Delhi,Delhi,"Wazirpur, Delhi - DPCC",25-02-2026 08:00:00,28.699793,77.165453,PM10,155,478,299
India,Delhi,Delhi,"Wazirpur, Delhi - DPCC",25-02-2026 08:00:00,28.699793,77.165453,OZONE,11,24,19
India,Gujarat,Ahmedabad,"SAC ISRO Satellite, Ahmedabad - IITM",25-02-2026 08:00:00,23.023389,72.515201,PM10,65,195,139
India,Gujarat,Ahmedabad,"SAC ISRO Satellite, Ahmedabad - IITM",25-02-2026 08:00:00,23.023389,72.515201,NH3,5,27,14
India,Gujarat,Ahmedabad,"SAC ISRO Satellite, Ahmedabad - IITM",25-02-2026 08:00:00,23.023389,72.515201,OZONE,NA,NA,NA
India,Gujarat,Ankleshwar,"GIDC, Ankleshwar - GPCB",25-02-2026 08:00:00,21.613267,73.010555,PM2.5,43,105,68
India,Gujarat,Ankleshwar,"GIDC, Ankleshwar - GPCB",25-02-2026 08:00:00,21.613267,73.010555,NO2,14,19,18
India,Gujarat,Ankleshwar,"GIDC, Ankleshwar - GPCB",25-02-2026 08:00:00,21.613267,73.010555,NH3,5,7,6
India,Gujarat,Ankleshwar,"GIDC, Ankleshwar - GPCB",25-02-2026 08:00:00,21.613267,73.010555,SO2,17,27,25
India,Gujarat,Ankleshwar,"GIDC, Ankleshwar - GPCB",25-02-2026 08:00:00,21.613267,73.010555,OZONE,7,70,11
India,Gujarat,Ahmedabad,"Chandkheda, Ahmedabad - IITM",25-02-2026 08:00:00,23.107969,72.574648,CO,22,78,38
India,Gujarat,Ahmedabad,"Maninagar, Ahmedabad - GPCB",25-02-2026 08:00:00,23.002657,72.591912,OZONE,NA,NA,NA
India,Gujarat,Ahmedabad,"Raikhad, Ahmedabad - IITM",25-02-2026 08:00:00,23.020509,72.579261,PM10,90,186,144
India,Gujarat,Ahmedabad,"Raikhad, Ahmedabad - IITM",25-02-2026 08:00:00,23.020509,72.579261,CO,6,80,41
India,Gujarat,Ahmedabad,"Rakhial, Ahmedabad - IITM",25-02-2026 08:00:00,23.016834,72.625775,PM2.5,3,180,47
India,Gujarat,Ahmedabad,"SAC ISRO Bopal, Ahmedabad - IITM",25-02-2026 08:00:00,23.041137,72.456691,SO2,7,30,12
India,Gujarat,Nandesari,"GIDC, Nandesari - Nandesari Ind. Association",25-02-2026 08:00:00,22.410802,73.097923,PM10,63,253,126
India,Gujarat,Vadodara,"Bapunagar, Vadodara - Nexteng Enviro",25-02-2026 08:00:00,22.320153,73.216285,NO2,1,77,29
India,Gujarat,Vadodara,"Bapunagar, Vadodara - Nexteng Enviro",25-02-2026 08:00:00,22.320153,73.216285,NH3,1,5,4
India,Gujarat,Vadodara,"Bapunagar, Vadodara - Nexteng Enviro",25-02-2026 08:00:00,22.320153,73.216285,OZONE,3,10,4
India,Gujarat,Vapi,"Phase-1 GIDC, Vapi - GPCB",25-02-2026 08:00:00,20.362421,72.918013,NO2,19,26,25
India,Haryana,Ballabgarh,"Nathu Colony, Ballabgarh - HSPCB",25-02-2026 08:00:00,28.3419248,77.319699,NO2,19,21,20
India,Haryana,Ballabgarh,"Nathu Colony, Ballabgarh - HSPCB",25-02-2026 08:00:00,28.3419248,77.319699,SO2,2,8,4
India,Haryana,Ballabgarh,"Nathu Colony, Ballabgarh - HSPCB",25-02-2026 08:00:00,28.3419248,77.319699,OZONE,5,11,6
India,Haryana,Bhiwani,"H.B. Colony, Bhiwani - HSPCB",25-02-2026 08:00:00,28.806223,76.141105,PM10,11,408,105
India,Haryana,Bhiwani,"H.B. Colony, Bhiwani - HSPCB",25-02-2026 08:00:00,28.806223,76.141105,NO2,7,10,8
India,Gujarat,Vapi,"Phase-1 GIDC, Vapi - GPCB",25-02-2026 08:00:00,20.362421,72.918013,SO2,12,25,23
India,Gujarat,Vatva,"Phase-4 GIDC, Vatva - GPCB",25-02-2026 08:00:00,22.969611,72.643500,NO2,1,69,39
India,Haryana,Ambala,"Patti Mehar, Ambala - HSPCB",25-02-2026 08:00:00,30.379589,76.778328,PM2.5,50,99,78
India,Haryana,Ambala,"Patti Mehar, Ambala - HSPCB",25-02-2026 08:00:00,30.379589,76.778328,NO2,7,12,10
India,Gujarat,Gandhinagar,"Sector-10, Gandhinagar - GPCB",25-02-2026 08:00:00,23.221714,72.654328,NO2,25,82,40
India,Gujarat,Mehsana,"Sadanand Nagar, Mehsana - Nexteng Enviro",25-02-2026 08:00:00,23.593150,72.372792,NO2,26,42,34
India,Gujarat,Gandhinagar,"GIFT City, Gandhinagar - IITM",25-02-2026 08:00:00,23.163798,72.677768,NH3,5,19,10
India,Gujarat,Gandhinagar,"IIPHG Lekawada, Gandhinagar - IITM",25-02-2026 08:00:00,23.243639,72.68994,SO2,3,8,5
India,Gujarat,Bhavnagar,"Vidhyanagar, Bhavnagar - Nexteng Enviro",25-02-2026 08:00:00,21.755417,72.139056,SO2,24,109,45
India,Jammu_and_Kashmir,Pampore,"Khrew, Pampore - JKPCC",25-02-2026 08:00:00,34.031606,75.009712,PM2.5,18,85,52
India,Jammu_and_Kashmir,Pampore,"Khrew, Pampore - JKPCC",25-02-2026 08:00:00,34.031606,75.009712,SO2,2,3,2
India,Jammu_and_Kashmir,Srinagar,"Khunmoh, Srinagar - JKPCC",25-02-2026 08:00:00,34.06313,74.96017,NO2,11,40,22
India,Jammu_and_Kashmir,Srinagar,"Rajbagh, Srinagar - JKPCC",25-02-2026 08:00:00,34.066206,74.819820,PM10,24,48,34
India,Jharkhand,Dhanbad,"Sardar Patel Nagar, Dhanbad - JSPCB",25-02-2026 08:00:00,23.80569,86.44268,PM2.5,NA,NA,NA
India,Jharkhand,Dhanbad,"Sardar Patel Nagar, Dhanbad - JSPCB",25-02-2026 08:00:00,23.80569,86.44268,PM10,5,169,86
India,Karnataka,Bengaluru,"BTM Layout, Bengaluru - CPCB",25-02-2026 08:00:00,12.9135218,77.5950804,OZONE,20,21,21
India,Karnataka,Bengaluru,"Bapuji Nagar, Bengaluru - KSPCB",25-02-2026 08:00:00,12.951913,77.539784,NH3,3,8,4
India,Haryana,Panchgaon,"Amity University, Panchgaon - IITM",25-02-2026 08:00:00,28.3153,76.9143,OZONE,NA,NA,NA
India,Haryana,Panchkula,"Sector-6, Panchkula - HSPCB ",25-02-2026 08:00:00,30.7057778,76.8531805555555,SO2,NA,NA,NA
India,Haryana,Panchkula,"Sector-6, Panchkula - HSPCB ",25-02-2026 08:00:00,30.7057778,76.8531805555555,OZONE,NA,NA,NA
India,Haryana,Panipat,"Sector-18, Panipat - HSPCB",25-02-2026 08:00:00,29.432304,76.972765,CO,34,52,50
India,Haryana,Rohtak,"MD University, Rohtak - HSPCB",25-02-2026 08:00:00,28.52123,76.37138,PM10,34,80,59
India,Haryana,Sirsa,"F-Block, Sirsa - HSPCB",25-02-2026 08:00:00,29.536400,75.015800,PM2.5,72,154,104
India,Haryana,Sirsa,"F-Block, Sirsa - HSPCB",25-02-2026 08:00:00,29.536400,75.015800,NO2,19,29,20
India,Haryana,Sirsa,"F-Block, Sirsa - HSPCB",25-02-2026 08:00:00,29.536400,75.015800,SO2,8,19,13
India,Haryana,Dharuhera,"Municipal Corporation Office, Dharuhera -  HSPCB",25-02-2026 08:00:00,28.206800,76.799700,NO2,16,58,42
India,Haryana,Dharuhera,"Municipal Corporation Office, Dharuhera -  HSPCB",25-02-2026 08:00:00,28.206800,76.799700,SO2,7,16,11
India,Haryana,Dharuhera,"Municipal Corporation Office, Dharuhera -  HSPCB",25-02-2026 08:00:00,28.206800,76.799700,OZONE,6,45,7
India,Haryana,Faridabad,"New Industrial Town, Faridabad - HSPCB",25-02-2026 08:00:00,28.39072,77.30059,NH3,11,12,11
India,Haryana,Faridabad,"New Industrial Town, Faridabad - HSPCB",25-02-2026 08:00:00,28.39072,77.30059,SO2,8,8,8
India,Haryana,Faridabad,"Sector 11, Faridabad - HSPCB",25-02-2026 08:00:00,28.376058,77.315741,PM2.5,77,478,288
India,Haryana,Faridabad,"Sector 11, Faridabad - HSPCB",25-02-2026 08:00:00,28.376058,77.315741,NH3,10,10,10
India,Haryana,Gurugram,"Teri Gram, Gurugram - HSPCB",25-02-2026 08:00:00,28.4275,77.1465,PM10,NA,NA,NA
India,Haryana,Hisar,"Urban Estate-II, Hisar - HSPCB",25-02-2026 08:00:00,29.140560,75.744941,PM10,67,131,102
India,Haryana,Jind,"Police Lines, Jind - HSPCB",25-02-2026 08:00:00,29.307814,76.337619,PM10,88,159,112
India,Haryana,Jind,"Police Lines, Jind - HSPCB",25-02-2026 08:00:00,29.307814,76.337619,SO2,1,43,9
India,Haryana,Jind,"Police Lines, Jind - HSPCB",25-02-2026 08:00:00,29.307814,76.337619,OZONE,5,31,13
India,Haryana,Kaithal,"Rishi Nagar, Kaithal - HSPCB",25-02-2026 08:00:00,29.8006,76.4155,NH3,5,6,6
India,Haryana,Karnal,"Sector-12, Karnal - HSPCB",25-02-2026 08:00:00,29.695300,77.002700,CO,1,10,2
India,Haryana,Kurukshetra,"Sector-7, Kurukshetra - HSPCB",25-02-2026 08:00:00,29.966942,76.875879,SO2,2,15,8
India,Haryana,Kurukshetra,"Sector-7, Kurukshetra - HSPCB",25-02-2026 08:00:00,29.966942,76.875879,OZONE,7,63,29
India,Haryana,Manesar,"Sector-2 IMT, Manesar - HSPCB",25-02-2026 08:00:00,28.360699,76.936090,CO,8,71,40
India,Haryana,Narnaul,"Shastri Nagar, Narnaul - HSPCB",25-02-2026 08:00:00,28.060249,76.113115,PM10,26,175,82
India,Haryana,Narnaul,"Shastri Nagar, Narnaul - HSPCB",25-02-2026 08:00:00,28.060249,76.113115,CO,57,87,72
India,Karnataka,Bengaluru,"Shivapura_Peenya, Bengaluru - KSPCB",25-02-2026 08:00:00,13.0246342,77.5080115,NH3,3,3,3
India,Karnataka,Bengaluru,"Silk Board, Bengaluru - KSPCB",25-02-2026 08:00:00,12.917348,77.622813,PM2.5,47,90,68
India,Karnataka,Bengaluru,"Silk Board, Bengaluru - KSPCB",25-02-2026 08:00:00,12.917348,77.622813,NH3,4,5,4
India,Karnataka,Chamarajanagar,"Urban, Chamarajanagar - KSPCB",25-02-2026 08:00:00,11.55358,76.55521,NO2,14,36,21
India,Karnataka,Chamarajanagar,"Urban, Chamarajanagar - KSPCB",25-02-2026 08:00:00,11.55358,76.55521,CO,12,24,17
India,Karnataka,Chamarajanagar,"Urban, Chamarajanagar - KSPCB",25-02-2026 08:00:00,11.55358,76.55521,OZONE,13,38,15
India,Karnataka,Bengaluru,"Hebbal, Bengaluru - KSPCB",25-02-2026 08:00:00,13.029152,77.585901,SO2,10,19,14
India,Karnataka,Bengaluru,"Hebbal, Bengaluru - KSPCB",25-02-2026 08:00:00,13.029152,77.585901,OZONE,6,62,7
India,Karnataka,Bengaluru,"Jigani, Bengaluru - KSPCB",25-02-2026 08:00:00,12.7816279,77.6299145,SO2,19,20,20
India,Karnataka,Bengaluru,"Peenya, Bengaluru - CPCB",25-02-2026 08:00:00,13.0270199,77.494094,SO2,5,35,12
India,Karnataka,Bengaluru,"RVCE-Mailasandra, Bengaluru - KSPCB",25-02-2026 08:00:00,12.921418,77.502466,PM2.5,27,318,135
India,Karnataka,Bengaluru,"RVCE-Mailasandra, Bengaluru - KSPCB",25-02-2026 08:00:00,12.921418,77.502466,SO2,6,6,6
India,Haryana,Sonipat,"Murthal, Sonipat - HSPCB",25-02-2026 08:00:00,29.027200,77.062100,SO2,6,12,8
India,Haryana,Yamuna Nagar,"Gobind Pura, Yamuna Nagar - HSPCB",25-02-2026 08:00:00,30.1480566,77.2893471,NH3,NA,NA,NA
India,Himachal Pradesh,Baddi,"HIMUDA Complex Phase-1, Baddi - HPPCB",25-02-2026 08:00:00,30.943887,76.801991,NH3,5,9,6
India,Haryana,Fatehabad,"Huda Sector, Fatehabad - HSPCB",25-02-2026 08:00:00,29.503664,75.467934,SO2,10,11,11
India,Haryana,Gurugram,"Sector-51, Gurugram - HSPCB",25-02-2026 08:00:00,28.4227,77.0667,NO2,6,15,9
India,Madhya Pradesh,Bhopal,"T T Nagar, Bhopal - MPPCB",25-02-2026 08:00:00,23.233584,77.400574,PM2.5,24,148,66
India,Madhya Pradesh,Bhopal,"T T Nagar, Bhopal - MPPCB",25-02-2026 08:00:00,23.233584,77.400574,OZONE,6,107,61
India,Madhya Pradesh,Dewas,"Bhopal Chauraha, Dewas - MPPCB",25-02-2026 08:00:00,22.9682591,76.064118,PM2.5,15,72,46
India,Madhya Pradesh,Dewas,"Bhopal Chauraha, Dewas - MPPCB",25-02-2026 08:00:00,22.9682591,76.064118,OZONE,20,50,28
India,Madhya Pradesh,Gwalior,"City Center, Gwalior - MPPCB",25-02-2026 08:00:00,26.203442,78.193251,PM10,43,189,114
India,Madhya Pradesh,Gwalior,"City Center, Gwalior - MPPCB",25-02-2026 08:00:00,26.203442,78.193251,CO,13,119,34
India,Madhya Pradesh,Gwalior,"Deen Dayal Nagar, Gwalior - MPPCB",25-02-2026 08:00:00,26.259242,78.216432,SO2,8,25,16
India,Madhya Pradesh,Gwalior,"Maharaj Bada, Gwalior - MPPCB",25-02-2026 08:00:00,26.200388,78.147714,PM10,65,302,128
India,Karnataka,Mysuru,"Hebbal 1st Stage, Mysuru - KSPCB",25-02-2026 08:00:00,12.21041,76.37376,PM10,50,94,68
India,Karnataka,Mysuru,"Hebbal 1st Stage, Mysuru - KSPCB",25-02-2026 08:00:00,12.21041,76.37376,OZONE,19,118,20
India,Karnataka,Ramanagara,"Vijay Nagar, Ramanagara - KSPCB",25-02-2026 08:00:00,12.733409,77.298051,NH3,NA,NA,NA
India,Karnataka,Ramanagara,"Vijay Nagar, Ramanagara - KSPCB",25-02-2026 08:00:00,12.733409,77.298051,CO,21,44,36
India,Karnataka,Vijayapura,"Ibrahimpur, Vijayapura - KSPCB",25-02-2026 08:00:00,16.802639,75.722694,NH3,1,2,1
India,Karnataka,Yadgir,"Collector Office, Yadgir - KSPCB",25-02-2026 08:00:00,16.7602,77.1428,NO2,7,39,19
India,Kerala,Eloor,"Udyogamandal, Eloor - Kerala PCB",25-02-2026 08:00:00,10.073232,76.302765,PM2.5,53,153,78
India,Karnataka,Dharwad,"Kalabhavan, Dharwad - KSPCB",25-02-2026 08:00:00,15.459706,75.008381,OZONE,25,34,34
India,Karnataka,Hubballi,"Lingaraj Nagar, Hubballi - KSPCB",25-02-2026 08:00:00,15.3714823,75.1160168,SO2,2,3,1
India,Karnataka,Kalaburagi,"Mahatma Basaveswar Colony, Kalaburgi - KSPCB",25-02-2026 08:00:00,17.336318,76.847397,NH3,2,3,3
India,Karnataka,Madikeri,"Stuart Hill, Madikeri - KSPCB",25-02-2026 08:00:00,12.415911,75.735050,PM10,24,44,33
India,Karnataka,Chikkaballapur,"Chikkaballapur Rural, Chikkaballapur - KSPCB",25-02-2026 08:00:00,13.428828,77.731418,OZONE,22,28,24
India,Karnataka,Chikkamagaluru,"Kalyana Nagara, Chikkamagaluru - KSPCB",25-02-2026 08:00:00,13.328028,75.797056,PM10,NA,NA,NA
India,Karnataka,Dharwad,"Kalabhavan, Dharwad - KSPCB",25-02-2026 08:00:00,15.459706,75.008381,NO2,27,30,28
India,Kerala,Kannur,"Thavakkara, Kannur - Kerala PCB",25-02-2026 08:00:00,11.875000,75.373200,NH3,2,2,2
India,Kerala,Kannur,"Thavakkara, Kannur - Kerala PCB",25-02-2026 08:00:00,11.875000,75.373200,SO2,3,4,3
India,Kerala,Kannur,"Thavakkara, Kannur - Kerala PCB",25-02-2026 08:00:00,11.875000,75.373200,OZONE,27,32,27
India,Madhya Pradesh,Bhopal,"Idgah Hills, Bhopal - MPPCB",25-02-2026 08:00:00,23.264759,77.381568,NO2,21,47,29
India,Madhya Pradesh,Bhopal,"Idgah Hills, Bhopal - MPPCB",25-02-2026 08:00:00,23.264759,77.381568,SO2,11,14,12
India,Kerala,Thiruvananthapuram,"Kariavattom, Thiruvananthapuram - Kerala PCB",25-02-2026 08:00:00,8.563700,76.886500,PM2.5,26,213,87
India,Kerala,Kollam,"Polayathode, Kollam - Kerala PCB",25-02-2026 08:00:00,8.8787,76.6073,PM10,72,82,76
India,Kerala,Kollam,"Polayathode, Kollam - Kerala PCB",25-02-2026 08:00:00,8.8787,76.6073,SO2,2,85,6
India,Madhya Pradesh,Katni,"Gole Bazar, Katni - MPPCB",25-02-2026 08:00:00,23.50016,80.23284,OZONE,8,104,31
India,Madhya Pradesh,Mandideep,"Sector-D Industrial Area, Mandideep - MPPCB",25-02-2026 08:00:00,23.108440,77.511428,PM2.5,38,320,184
India,Madhya Pradesh,Mandideep,"Sector-D Industrial Area, Mandideep - MPPCB",25-02-2026 08:00:00,23.108440,77.511428,PM10,44,246,144
India,Madhya Pradesh,Mandideep,"Sector-D Industrial Area, Mandideep - MPPCB",25-02-2026 08:00:00,23.108440,77.511428,NH3,2,8,6
India,Madhya Pradesh,Pithampur,"Sector-2 Industrial Area, Pithampur - MPPCB",25-02-2026 08:00:00,22.624758,75.675238,NO2,14,35,24
India,Madhya Pradesh,Pithampur,"Sector-2 Industrial Area, Pithampur - MPPCB",25-02-2026 08:00:00,22.624758,75.675238,OZONE,12,96,57
India,Madhya Pradesh,Ratlam,"Shasthri Nagar, Ratlam - IPCA Lab",25-02-2026 08:00:00,23.331731,75.045981,SO2,35,46,37
India,Madhya Pradesh,Sagar,"Civil Lines, Sagar - MPPCB",25-02-2026 08:00:00,23.838586,78.759431,PM10,33,113,64
India,Madhya Pradesh,Sagar,"Civil Lines, Sagar - MPPCB",25-02-2026 08:00:00,23.838586,78.759431,CO,20,46,30
India,Madhya Pradesh,Sagar,"Deen Dayal Nagar, Sagar - MPPCB",25-02-2026 08:00:00,23.8640158,78.80289321,NO2,1,45,12
India,Madhya Pradesh,Sagar,"Deen Dayal Nagar, Sagar - MPPCB",25-02-2026 08:00:00,23.8640158,78.80289321,CO,9,22,14
India,Madhya Pradesh,Gwalior,"Maharaj Bada, Gwalior - MPPCB",25-02-2026 08:00:00,26.200388,78.147714,OZONE,22,91,27
India,Madhya Pradesh,Indore,"Airport Area, Indore - IMC",25-02-2026 08:00:00,22.7289,75.8076,PM2.5,40,331,156
India,Madhya Pradesh,Indore,"Airport Area, Indore - IMC",25-02-2026 08:00:00,22.7289,75.8076,PM10,25,154,84
India,Madhya Pradesh,Indore,"Chhoti Gwaltoli, Indore - MPPCB",25-02-2026 08:00:00,22.4310,75.5213,PM2.5,22,130,62
India,Madhya Pradesh,Indore,"Chhoti Gwaltoli, Indore - MPPCB",25-02-2026 08:00:00,22.4310,75.5213,NH3,1,13,7
India,Madhya Pradesh,Indore,"Maguda Nagar, Indore - IMC",25-02-2026 08:00:00,22.7524,75.8872,PM2.5,25,106,55
