country,state,city,station,last_update,latitude,longitude,pollutant_id,min_value,max_value,avg_value
India,Assam,Nagaon,"Christianpatty, Nagaon - PCBA",22-03-2026 08:00:00,26.349082,92.68449,CO,8,23,22
India,Assam,Nagaon,"Christianpatty, Nagaon - PCBA",22-03-2026 08:00:00,26.349082,92.68449,OZONE,13,21,17
India,Assam,Nalbari,"Bata Chowk, Nalbari - PCBA",22-03-2026 08:00:00,26.446912,91.439057,PM2.5,51,110,74
India,Assam,Nalbari,"Bata Chowk, Nalbari - PCBA",22-03-2026 08:00:00,26.446912,91.439057,NO2,14,15,14
India,Assam,Nalbari,"Bata Chowk, Nalbari - PCBA",22-03-2026 08:00:00,26.446912,91.439057,CO,20,22,21
India,Assam,Silchar,"Tarapur, Silchar - PCBA",22-03-2026 08:00:00,24.82827,92.79525,SO2,4,8,6
India,Assam,Silchar,"Tarapur, Silchar - PCBA",22-03-2026 08:00:00,24.82827,92.79525,CO,12,54,16
India,Assam,Sivasagar,"Girls College, Sivasagar - PCBA",22-03-2026 08:00:00,26.987634,94.636574,PM10,26,47,35
India,Bihar,Arrah,"New DM Office, Arrah - BSPCB",22-03-2026 08:00:00,25.5626095,84.663264,CO,47,59,54
India,Bihar,Aurangabad,"Gurdeo Nagar, Aurangabad - BSPCB",22-03-2026 08:00:00,24.75746,84.366208,PM10,19,71,44
India,Bihar,Buxar,"Charitra Van, Buxar - BSPCB",22-03-2026 08:00:00,25.567520,83.966379,OZONE,1,8,2
India,Bihar,Chhapra,"Darshan Nagar, Chhapra - BSPCB",22-03-2026 08:00:00,25.7808257,84.7446768,SO2,19,23,21
India,Bihar,Gaya,"Collectorate, Gaya - BSPCB",22-03-2026 08:00:00,24.7955,84.9994,PM2.5,31,97,61
India,Bihar,Gaya,"Collectorate, Gaya - BSPCB",22-03-2026 08:00:00,24.7955,84.9994,NO2,8,9,9
India,Bihar,Gaya,"Kareemganj, Gaya - BSPCB",22-03-2026 08:00:00,24.792403,84.992416,NO2,11,13,12
India,Bihar,Gaya,"Kareemganj, Gaya - BSPCB",22-03-2026 08:00:00,24.792403,84.992416,SO2,40,46,43
India,Bihar,Gaya,"Kareemganj, Gaya - BSPCB",22-03-2026 08:00:00,24.792403,84.992416,CO,4,103,11
India,Bihar,Gaya,"Kareemganj, Gaya - BSPCB",22-03-2026 08:00:00,24.792403,84.992416,OZONE,22,62,29
India,Bihar,Gaya,"SFTI Kusdihra, Gaya - BSPCB",22-03-2026 08:00:00,24.762518,84.982348,PM10,21,32,26
India,Bihar,Hajipur,"Industrial Area, Hajipur - BSPCB",22-03-2026 08:00:00,25.697189,85.245900,SO2,3,7,4
India,Arunachal_Pradesh,Naharlagun,"Naharlagun, Naharlagun - APSPCB",22-03-2026 08:00:00,27.103358,93.679645,OZONE,5,6,5
India,Assam,Guwahati,"LGBI Airport, Guwahati - PCBA",22-03-2026 08:00:00,26.10887,91.589544,NO2,5,25,14
India,Assam,Guwahati,"LGBI Airport, Guwahati - PCBA",22-03-2026 08:00:00,26.10887,91.589544,SO2,3,18,8
India,Assam,Guwahati,"Pan Bazaar, Guwahati - PCBA",22-03-2026 08:00:00,26.187500,91.744194,CO,19,33,21
India,Assam,Guwahati,"Pan Bazaar, Guwahati - PCBA",22-03-2026 08:00:00,26.187500,91.744194,OZONE,10,11,10
India,Assam,Guwahati,"Railway Colony, Guwahati - PCBA",22-03-2026 08:00:00,26.181742,91.78063,PM2.5,2,82,57
India,Assam,Guwahati,"Railway Colony, Guwahati - PCBA",22-03-2026 08:00:00,26.181742,91.78063,SO2,1,4,2
India,Assam,Guwahati,"Railway Colony, Guwahati - PCBA",22-03-2026 08:00:00,26.181742,91.78063,CO,2,12,4
India,Assam,Nagaon,"Christianpatty, Nagaon - PCBA",22-03-2026 08:00:00,26.349082,92.68449,PM2.5,59,142,96
India,Andhra_Pradesh,Eluru,"District Court, Eluru - APPCB",22-03-2026 08:00:00,16.711754,81.092095,NH3,2,3,3
India,Andhra_Pradesh,Eluru,"District Court, Eluru - APPCB",22-03-2026 08:00:00,16.711754,81.092095,SO2,9,19,12
India,Andhra_Pradesh,Guntur,"Rajendra Nagar North, Guntur - APPCB",22-03-2026 08:00:00,16.316553,80.413302,PM2.5,51,77,58
India,Andhra_Pradesh,Guntur,"Rajendra Nagar North, Guntur - APPCB",22-03-2026 08:00:00,16.316553,80.413302,SO2,11,22,14
India,Andhra_Pradesh,Kadapa,"Yerramukkapalli, Kadapa - APPCB",22-03-2026 08:00:00,14.465052,78.824187,NO2,19,22,20
India,Andhra_Pradesh,Kadapa,"Yerramukkapalli, Kadapa - APPCB",22-03-2026 08:00:00,14.465052,78.824187,OZONE,20,22,21
India,Andhra_Pradesh,Nellore,"Ambedkar Nagar, Nellore - APPCB ",22-03-2026 08:00:00,14.438164 ,79.966814 ,NO2,14,22,17
India,Andhra_Pradesh,Nellore,"Ambedkar Nagar, Nellore - APPCB ",22-03-2026 08:00:00,14.438164 ,79.966814 ,NH3,1,4,2
India,Andhra_Pradesh,Nellore,"Ambedkar Nagar, Nellore - APPCB ",22-03-2026 08:00:00,14.438164 ,79.966814 ,OZONE,3,36,7
India,Andhra_Pradesh,Amaravati,"Secretariat, Amaravati - APPCB",22-03-2026 08:00:00,16.5150833,80.5181667,CO,4,39,31
India,Andhra_Pradesh,Anantapur,"Gulzarpet, Anantapur - APPCB",22-03-2026 08:00:00,14.675886,77.593027,NH3,5,8,7
India,Andhra_Pradesh,Chittoor,"Gangineni Cheruvu, Chittoor - APPCB",22-03-2026 08:00:00,13.204880,79.097889,PM2.5,NA,NA,NA
India,Andhra_Pradesh,Chittoor,"Gangineni Cheruvu, Chittoor - APPCB",22-03-2026 08:00:00,13.204880,79.097889,NO2,NA,NA,NA
India,Andhra_Pradesh,Eluru,"District Court, Eluru - APPCB",22-03-2026 08:00:00,16.711754,81.092095,PM10,24,62,47
India,Andhra_Pradesh,Eluru,"District Court, Eluru - APPCB",22-03-2026 08:00:00,16.711754,81.092095,NO2,11,56,31
India,Andhra_Pradesh,Vijayawada,"Rajiv Gandhi Park, Vijayawada - APPCB",22-03-2026 08:00:00,16.509717,80.612222,PM10,58,100,79
India,Andhra_Pradesh,Vijayawada,"Rajiv Gandhi Park, Vijayawada - APPCB",22-03-2026 08:00:00,16.509717,80.612222,CO,24,30,24
India,Andhra_Pradesh,Visakhapatnam,"GVM Corporation, Visakhapatnam - APPCB",22-03-2026 08:00:00,17.72,83.3,OZONE,3,45,4
India,Arunachal_Pradesh,Naharlagun,"Naharlagun, Naharlagun - APSPCB",22-03-2026 08:00:00,27.103358,93.679645,PM10,8,102,54
India,Arunachal_Pradesh,Naharlagun,"Naharlagun, Naharlagun - APSPCB",22-03-2026 08:00:00,27.103358,93.679645,NH3,NA,NA,NA
India,Bihar,Bhagalpur,"DM Office_Kachari Chowk, Bhagalpur - BSPCB",22-03-2026 08:00:00,25.251013,86.989001,NH3,1,1,1
India,Bihar,Bhagalpur,"Mayaganj, Bhagalpur - BSPCB",22-03-2026 08:00:00,25.265194,87.012947,NO2,7,8,7
India,Bihar,Bhagalpur,"Mayaganj, Bhagalpur - BSPCB",22-03-2026 08:00:00,25.265194,87.012947,CO,64,96,87
India,Bihar,Bihar Sharif,"D M Colony, Bihar Sharif - BSPCB",22-03-2026 08:00:00,25.204762,85.514960,PM2.5,20,53,34
India,Bihar,Bihar Sharif,"D M Colony, Bihar Sharif - BSPCB",22-03-2026 08:00:00,25.204762,85.514960,SO2,10,10,10
India,Bihar,Bihar Sharif,"D M Colony, Bihar Sharif - BSPCB",22-03-2026 08:00:00,25.204762,85.514960,OZONE,2,2,2
India,Andhra_Pradesh,Tirumala,"Toll Gate, Tirumala - APPCB",22-03-2026 08:00:00,13.67,79.35,OZONE,22,66,30
India,Andhra_Pradesh,Tirupati,"Vaikuntapuram, Tirupati - APPCB",22-03-2026 08:00:00,13.615387,79.409230,SO2,9,23,13
India,Andhra_Pradesh,Vijayawada,"HB Colony, Vijayawada - APPCB",22-03-2026 08:00:00,16.536107,80.594233,NO2,7,22,12
India,Andhra_Pradesh,Vijayawada,"HB Colony, Vijayawada - APPCB",22-03-2026 08:00:00,16.536107,80.594233,SO2,10,18,11
India,Andhra_Pradesh,Vijayawada,"Kanuru, Vijayawada - APPCB",22-03-2026 08:00:00,16.486692,80.699436,PM10,NA,NA,NA
India,Bihar,Begusarai,"Lohiyanagar, Begusarai - BSPCB",22-03-2026 08:00:00,25.42742023,86.13886079,PM2.5,5,60,23
India,Bihar,Begusarai,"Lohiyanagar, Begusarai - BSPCB",22-03-2026 08:00:00,25.42742023,86.13886079,SO2,22,27,24
India,Bihar,Bettiah,"Kamalnath Nagar, Bettiah - BSPCB",22-03-2026 08:00:00,26.80365,84.51954,SO2,NA,NA,NA
India,Bihar,Bettiah,"Kamalnath Nagar, Bettiah - BSPCB",22-03-2026 08:00:00,26.80365,84.51954,CO,19,112,26
India,Andhra_Pradesh,Vijayawada,"Kanuru, Vijayawada - APPCB",22-03-2026 08:00:00,16.486692,80.699436,SO2,NA,NA,NA
India,Bihar,Katihar,"Mirchaibari, Katihar - BSPCB",22-03-2026 08:00:00,25.560083,87.553265,PM10,5,14,9
India,Bihar,Katihar,"Mirchaibari, Katihar - BSPCB",22-03-2026 08:00:00,25.560083,87.553265,NH3,1,1,1
India,Bihar,Katihar,"Mirchaibari, Katihar - BSPCB",22-03-2026 08:00:00,25.560083,87.553265,SO2,16,22,19
India,Bihar,Kishanganj,"SDM Office_Khagra, Kishanganj - BSPCB",22-03-2026 08:00:00,26.0881305,87.93840336,NH3,3,3,3
India,Bihar,Kishanganj,"SDM Office_Khagra, Kishanganj - BSPCB",22-03-2026 08:00:00,26.0881305,87.93840336,SO2,6,9,8
India,Bihar,Manguraha,"Forest Rest House, Manguraha - BSPCB",22-03-2026 08:00:00,27.308328,84.531742,OZONE,9,11,10
India,Bihar,Motihari,"Gandak Colony, Motihari - BSPCB",22-03-2026 08:00:00,26.63086,84.90051,NH3,3,3,3
India,Bihar,Motihari,"Gandak Colony, Motihari - BSPCB",22-03-2026 08:00:00,26.63086,84.90051,OZONE,2,3,2
India,Bihar,Muzaffarpur,"Buddha Colony, Muzaffarpur - BSPCB",22-03-2026 08:00:00,26.11442,85.39813,PM2.5,18,88,51
India,Bihar,Muzaffarpur,"Buddha Colony, Muzaffarpur - BSPCB",22-03-2026 08:00:00,26.11442,85.39813,NO2,6,34,23
India,Bihar,Muzaffarpur,"Buddha Colony, Muzaffarpur - BSPCB",22-03-2026 08:00:00,26.11442,85.39813,OZONE,3,96,27
India,Bihar,Muzaffarpur,"MIT-Daudpur Kothi, Muzaffarpur - BSPCB",22-03-2026 08:00:00,26.1403345,85.3650192,PM2.5,2,40,33
India,Bihar,Muzaffarpur,"MIT-Daudpur Kothi, Muzaffarpur - BSPCB",22-03-2026 08:00:00,26.1403345,85.3650192,NH3,NA,NA,NA
India,Bihar,Patna,"DRM Office Danapur, Patna - BSPCB",22-03-2026 08:00:00,25.586562,85.043586,PM10,25,39,34
India,Bihar,Patna,"DRM Office Danapur, Patna - BSPCB",22-03-2026 08:00:00,25.586562,85.043586,CO,36,46,41
India,Bihar,Patna,"DRM Office Danapur, Patna - BSPCB",22-03-2026 08:00:00,25.586562,85.043586,OZONE,26,34,30
India,Bihar,Patna,"Govt. High School Shikarpur, Patna - BSPCB",22-03-2026 08:00:00,25.592539,85.227158,PM10,45,63,52
India,Bihar,Patna,"Govt. High School Shikarpur, Patna - BSPCB",22-03-2026 08:00:00,25.592539,85.227158,SO2,3,6,5
India,Chhattisgarh,Korba,"Urja Nagar, Korba - CECB",22-03-2026 08:00:00,22.348441,82.549611,OZONE,2,5,2
India,Chhattisgarh,Kunjemura,"OP Jindal School, Kunjemura - CECB",22-03-2026 08:00:00,22.126650,83.483212,PM2.5,10,66,36
India,Chhattisgarh,Milupara,"Govt. Higher Secondary School, Milupara - CECB",22-03-2026 08:00:00,22.1910172,83.5197009,NO2,NA,NA,NA
India,Chhattisgarh,Milupara,"Govt. Higher Secondary School, Milupara - CECB",22-03-2026 08:00:00,22.1910172,83.5197009,SO2,NA,NA,NA
India,Chhattisgarh,Raipur,"AIIMS, Raipur - CECB",22-03-2026 08:00:00,21.258815,81.578979,PM10,30,94,48
India,Chhattisgarh,Raipur,"AIIMS, Raipur - CECB",22-03-2026 08:00:00,21.258815,81.578979,NO2,35,41,38
India,Bihar,Patna,"Muradpur, Patna - BSPCB",22-03-2026 08:00:00,25.619651,85.147382,OZONE,15,98,23
India,Bihar,Patna,"Rajbansi Nagar, Patna - BSPCB",22-03-2026 08:00:00,25.599486,85.113666,NO2,10,11,10
India,Bihar,Patna,"Rajbansi Nagar, Patna - BSPCB",22-03-2026 08:00:00,25.599486,85.113666,OZONE,8,32,11
India,Bihar,Patna,"Samanpura, Patna - BSPCB",22-03-2026 08:00:00,25.596727,85.085624,PM2.5,30,43,36
India,Bihar,Patna,"Samanpura, Patna - BSPCB",22-03-2026 08:00:00,25.596727,85.085624,OZONE,10,207,22
India,Bihar,Rajgir,"Dangi Tola, Rajgir - BSPCB",22-03-2026 08:00:00,25.03280,85.41948,NO2,13,15,14
India,Chhattisgarh,Bhilai,"Civic Center, Bhilai - Bhilai Steel Plant",22-03-2026 08:00:00,21.185571,81.343175,PM10,14,42,24
India,Chhattisgarh,Bhilai,"Civic Center, Bhilai - Bhilai Steel Plant",22-03-2026 08:00:00,21.185571,81.343175,CO,27,34,33
India,Chhattisgarh,Bhilai,"Civic Center, Bhilai - Bhilai Steel Plant",22-03-2026 08:00:00,21.185571,81.343175,OZONE,9,14,10
India,Chhattisgarh,Bhilai,"Hathkhoj, Bhilai - CECB",22-03-2026 08:00:00,21.224231,81.408350,PM2.5,14,41,22
India,Chhattisgarh,Bhilai,"Hathkhoj, Bhilai - CECB",22-03-2026 08:00:00,21.224231,81.408350,OZONE,5,18,7
India,Chandigarh,Chandigarh,"Sector-25, Chandigarh - CPCC",22-03-2026 08:00:00,30.751462,76.762879,PM2.5,25,76,50
India,Chandigarh,Chandigarh,"Sector-25, Chandigarh - CPCC",22-03-2026 08:00:00,30.751462,76.762879,OZONE,1,43,3
India,Chandigarh,Chandigarh,"Sector-53, Chandigarh - CPCC",22-03-2026 08:00:00,30.719859,76.738637,PM2.5,10,53,29
India,Chhattisgarh,Bhilai,"32Bungalows, Bhilai - CECB",22-03-2026 08:00:00,21.194815,81.314770,OZONE,1,22,1
India,Chhattisgarh,Korba,"Rampur, Korba - CECB",22-03-2026 08:00:00,22.368195,82.746431,SO2,NA,NA,NA
India,Chhattisgarh,Korba,"Rampur, Korba - CECB",22-03-2026 08:00:00,22.368195,82.746431,CO,8,45,12
India,Chhattisgarh,Korba,"Urja Nagar, Korba - CECB",22-03-2026 08:00:00,22.348441,82.549611,PM10,10,65,33
India,Chhattisgarh,Korba,"Urja Nagar, Korba - CECB",22-03-2026 08:00:00,22.348441,82.549611,NO2,20,27,23
India,Chhattisgarh,Raipur,"Krishak Nagar, Raipur - CECB",22-03-2026 08:00:00,21.237755,81.705301,PM10,25,62,38
India,Chhattisgarh,Raipur,"Krishak Nagar, Raipur - CECB",22-03-2026 08:00:00,21.237755,81.705301,SO2,4,10,6
India,Chhattisgarh,Raipur,"Siltara Phase-II, Raipur - CECB",22-03-2026 08:00:00,21.371751,81.664929,CO,10,10,10
India,Bihar,Sasaram,"Dada Peer, Sasaram - BSPCB",22-03-2026 08:00:00,24.952822,84.002396,NO2,1,5,2
India,Bihar,Sasaram,"Dada Peer, Sasaram - BSPCB",22-03-2026 08:00:00,24.952822,84.002396,OZONE,8,21,16
India,Delhi,Delhi,"Cantonment Area, Delhi - DPCC ",22-03-2026 08:00:00,28.594169 ,77.125100 ,CO,120,139,135
India,Delhi,Delhi,"Chandni Chowk, Delhi - IITM",22-03-2026 08:00:00,28.656756,77.227234,PM2.5,76,221,132
India,Delhi,Delhi,"Chandni Chowk, Delhi - IITM",22-03-2026 08:00:00,28.656756,77.227234,PM10,147,409,216
India,Delhi,Delhi,"Chandni Chowk, Delhi - IITM",22-03-2026 08:00:00,28.656756,77.227234,OZONE,1,165,6
India,Delhi,Delhi,"Commonwealth Sports Complex, Delhi - DPCC",22-03-2026 08:00:00,28.615828 ,77.271992 ,PM2.5,38,304,132
India,Delhi,Delhi,"Commonwealth Sports Complex, Delhi - DPCC",22-03-2026 08:00:00,28.615828 ,77.271992 ,NH3,6,10,9
India,Delhi,Delhi,"Commonwealth Sports Complex, Delhi - DPCC",22-03-2026 08:00:00,28.615828 ,77.271992 ,SO2,52,55,53
India,Delhi,Delhi,"Dr. Karni Singh Shooting Range, Delhi - DPCC",22-03-2026 08:00:00,28.498571,77.264840,PM2.5,48,302,117
India,Delhi,Delhi,"Dr. Karni Singh Shooting Range, Delhi - DPCC",22-03-2026 08:00:00,28.498571,77.264840,OZONE,2,136,8
India,Delhi,Delhi,"Dwarka-Sector 8, Delhi - DPCC ",22-03-2026 08:00:00,28.5710274,77.0719006,NO2,28,103,59
India,Delhi,Delhi,"IGI Airport (T3), Delhi - IMD",22-03-2026 08:00:00,28.5627763,77.1180053,PM2.5,32,226,98
India,Delhi,Delhi,"IGI Airport (T3), Delhi - IMD",22-03-2026 08:00:00,28.5627763,77.1180053,PM10,58,186,128
India,Delhi,Delhi,"Mundka, Delhi - DPCC",22-03-2026 08:00:00,28.684678,77.076574,PM2.5,40,348,205
India,Delhi,Delhi,"NSIT Dwarka, Delhi - CPCB",22-03-2026 08:00:00,28.60909,77.0325413,CO,32,74,58
India,Delhi,Delhi,"NSIT Dwarka, Delhi - CPCB",22-03-2026 08:00:00,28.60909,77.0325413,OZONE,30,110,32
India,Delhi,Delhi,"NSUT Jaffarpur, Delhi - DPCC",22-03-2026 08:00:00,28.594004 ,76.909423 ,PM2.5,45,312,165
India,Delhi,Delhi,"ITO, Delhi - CPCB",22-03-2026 08:00:00,28.628624,77.241060,CO,21,110,40
India,Delhi,Delhi,"JNU, Delhi - DPCC",22-03-2026 08:00:00,28.540721 ,77.168544 ,NO2,6,40,26
India,Delhi,Delhi,"JNU, Delhi - DPCC",22-03-2026 08:00:00,28.540721 ,77.168544 ,OZONE,1,28,2
India,Delhi,Delhi,"Jahangirpuri, Delhi - DPCC",22-03-2026 08:00:00,28.732820,77.170633,OZONE,9,30,11
India,Delhi,Delhi,"Aya Nagar, Delhi - IMD",22-03-2026 08:00:00,28.4706914,77.1099364,PM10,NA,NA,NA
India,Delhi,Delhi,"Burari Crossing, Delhi - IMD",22-03-2026 08:00:00,28.7256504,77.2011573,PM2.5,49,285,128
India,Delhi,Delhi,"Ashok Vihar, Delhi - DPCC",22-03-2026 08:00:00,28.695381,77.181665,PM2.5,50,306,160
India,Delhi,Delhi,"Ashok Vihar, Delhi - DPCC",22-03-2026 08:00:00,28.695381,77.181665,NH3,6,7,7
India,Delhi,Delhi,"IHBAS, Dilshad Garden, Delhi - CPCB",22-03-2026 08:00:00,28.6811736,77.3025234,OZONE,2,34,4
India,Delhi,Delhi,"Mandir Marg, Delhi - DPCC",22-03-2026 08:00:00,28.636429,77.201067,PM2.5,130,304,235
India,Delhi,Delhi,"Alipur, Delhi - DPCC",22-03-2026 08:00:00,28.815329,77.153010,NH3,12,14,13
India,Delhi,Delhi,"Nehru Nagar, Delhi - DPCC",22-03-2026 08:00:00,28.567890,77.250515,NH3,4,11,8
India,Delhi,Delhi,"Nehru Nagar, Delhi - DPCC",22-03-2026 08:00:00,28.567890,77.250515,CO,58,111,96
India,Delhi,Delhi,"New Moti Bagh, Delhi - MHUA",22-03-2026 08:00:00,28.57834,77.18400,CO,18,62,46
India,Delhi,Delhi,"Patparganj, Delhi - DPCC",22-03-2026 08:00:00,28.623763,77.287209,NO2,22,97,60
India,Delhi,Delhi,"Najafgarh, Delhi - DPCC",22-03-2026 08:00:00,28.570173,76.933762,PM2.5,38,311,139
India,Delhi,Delhi,"Najafgarh, Delhi - DPCC",22-03-2026 08:00:00,28.570173,76.933762,CO,19,46,34
India,Delhi,Delhi,"Narela, Delhi - DPCC",22-03-2026 08:00:00,28.822836,77.101981,PM10,53,178,118
India,Delhi,Delhi,"Narela, Delhi - DPCC",22-03-2026 08:00:00,28.822836,77.101981,NH3,5,8,6
India,Delhi,Delhi,"Narela, Delhi - DPCC",22-03-2026 08:00:00,28.822836,77.101981,SO2,9,23,14
India,Gujarat,Ahmedabad,"Gyaspur, Ahmedabad - IITM",22-03-2026 08:00:00,22.977134,72.553024,OZONE,1,98,2
India,Gujarat,Ahmedabad,"Raikhad, Ahmedabad - IITM",22-03-2026 08:00:00,23.020509,72.579261,PM2.5,49,302,119
India,Gujarat,Ahmedabad,"Raikhad, Ahmedabad - IITM",22-03-2026 08:00:00,23.020509,72.579261,PM10,100,385,156
India,Gujarat,Ahmedabad,"Raikhad, Ahmedabad - IITM",22-03-2026 08:00:00,23.020509,72.579261,SO2,16,125,31
India,Delhi,Delhi,"R K Puram, Delhi - DPCC",22-03-2026 08:00:00,28.563262,77.186937,SO2,1,11,4
India,Delhi,Delhi,"Rohini, Delhi - DPCC",22-03-2026 08:00:00,28.732528,77.119920,CO,12,62,30
India,Delhi,Delhi,"Shadipur, Delhi - CPCB",22-03-2026 08:00:00,28.6514781,77.1473105,NO2,38,62,49
India,Delhi,Delhi,"Sri Aurobindo Marg, Delhi - DPCC",22-03-2026 08:00:00,28.531346,77.190156,NO2,40,76,54
India,Delhi,Delhi,"Sri Aurobindo Marg, Delhi - DPCC",22-03-2026 08:00:00,28.531346,77.190156,NH3,6,7,7
India,Delhi,Delhi,"Talkatora Garden, Delhi - DPCC",22-03-2026 08:00:00,28.621810,77.1944633,PM10,55,141,98
India,Delhi,Delhi,"Pusa, Delhi - DPCC",22-03-2026 08:00:00,28.639652,77.146275,NH3,8,22,16
India,Delhi,Delhi,"Pusa, Delhi - IMD",22-03-2026 08:00:00,28.636110,77.173332,PM2.5,8,158,74
India,Delhi,Delhi,"R K Puram, Delhi - DPCC",22-03-2026 08:00:00,28.563262,77.186937,PM10,77,209,130
India,Delhi,Delhi,"Shadipur, Delhi - CPCB",22-03-2026 08:00:00,28.6514781,77.1473105,OZONE,4,35,9
India,Delhi,Delhi,"Sonia Vihar, Delhi - DPCC",22-03-2026 08:00:00,28.710508,77.249485,PM10,61,201,119
India,Delhi,Delhi,"Vivek Vihar, Delhi - DPCC",22-03-2026 08:00:00,28.672342,77.315260,PM10,82,239,142
India,Delhi,Delhi,"Vivek Vihar, Delhi - DPCC",22-03-2026 08:00:00,28.672342,77.315260,NO2,18,56,33
India,Delhi,Delhi,"Vivek Vihar, Delhi - DPCC",22-03-2026 08:00:00,28.672342,77.315260,CO,53,91,56
India,Gujarat,Ahmedabad,"Chandkheda, Ahmedabad - IITM",22-03-2026 08:00:00,23.107969,72.574648,NH3,3,7,5
India,Gujarat,Mehsana,"Sadanand Nagar, Mehsana - Nexteng Enviro",22-03-2026 08:00:00,23.593150,72.372792,PM2.5,45,161,88
India,Gujarat,Mehsana,"Sadanand Nagar, Mehsana - Nexteng Enviro",22-03-2026 08:00:00,23.593150,72.372792,PM10,63,138,109
India,Gujarat,Rajkot,"Mavdi, Rajkot - Nexteng Enviro ",22-03-2026 08:00:00,22.248853,70.776774,NO2,2,84,18
India,Gujarat,Rajkot,"Mavdi, Rajkot - Nexteng Enviro ",22-03-2026 08:00:00,22.248853,70.776774,CO,6,60,7
India,Gujarat,Rajkot,"Mavdi, Rajkot - Nexteng Enviro ",22-03-2026 08:00:00,22.248853,70.776774,OZONE,1,16,4
India,Gujarat,Surat,"Katargam, Surat - Nexteng Enviro",22-03-2026 08:00:00,21.217779 ,72.834787 ,SO2,12,44,27
India,Gujarat,Ankleshwar,"GIDC, Ankleshwar - GPCB",22-03-2026 08:00:00,21.613267,73.010555,CO,NA,NA,NA
India,Gujarat,Bhavnagar,"Vidhyanagar, Bhavnagar - Nexteng Enviro",22-03-2026 08:00:00,21.755417,72.139056,NH3,2,3,2
India,Gujarat,Gandhinagar,"GIFT City, Gandhinagar - IITM",22-03-2026 08:00:00,23.163798,72.677768,NH3,5,12,7
India,Gujarat,Gandhinagar,"IIPHG Lekawada, Gandhinagar - IITM",22-03-2026 08:00:00,23.243639,72.68994,CO,2,70,39
India,Gujarat,Vapi,"Phase-1 GIDC, Vapi - GPCB",22-03-2026 08:00:00,20.362421,72.918013,NO2,10,13,12
India,Gujarat,Vapi,"Phase-1 GIDC, Vapi - GPCB",22-03-2026 08:00:00,20.362421,72.918013,NH3,3,4,3
India,Gujarat,Vatva,"Phase-4 GIDC, Vatva - GPCB",22-03-2026 08:00:00,22.969611,72.643500,PM2.5,59,309,142
India,Gujarat,Vatva,"Phase-4 GIDC, Vatva - GPCB",22-03-2026 08:00:00,22.969611,72.643500,NH3,5,11,8
India,Gujarat,Vatva,"Phase-4 GIDC, Vatva - GPCB",22-03-2026 08:00:00,22.969611,72.643500,OZONE,30,45,31
India,Gujarat,Ahmedabad,"Raikhad, Ahmedabad - IITM",22-03-2026 08:00:00,23.020509,72.579261,CO,9,113,47
India,Gujarat,Ahmedabad,"Rakhial, Ahmedabad - IITM",22-03-2026 08:00:00,23.016834,72.625775,PM2.5,24,144,70
India,Gujarat,Ahmedabad,"Rakhial, Ahmedabad - IITM",22-03-2026 08:00:00,23.016834,72.625775,NO2,34,156,84
India,Gujarat,Ahmedabad,"SVPI Airport Hansol, Ahmedabad - IITM",22-03-2026 08:00:00,23.076793,72.627874,SO2,4,14,7
India,Gujarat,Ankleshwar,"GIDC, Ankleshwar - GPCB",22-03-2026 08:00:00,21.613267,73.010555,PM2.5,NA,NA,NA
India,Haryana,Ballabgarh,"Nathu Colony, Ballabgarh - HSPCB",22-03-2026 08:00:00,28.3419248,77.319699,CO,15,90,22
India,Haryana,Bhiwani,"H.B. Colony, Bhiwani - HSPCB",22-03-2026 08:00:00,28.806223,76.141105,PM2.5,41,154,62
India,Haryana,Charkhi Dadri,"Mini Secretariat, Charkhi Dadri - HSPCB",22-03-2026 08:00:00,28.593883,76.270653,NO2,9,22,15
India,Haryana,Charkhi Dadri,"Mini Secretariat, Charkhi Dadri - HSPCB",22-03-2026 08:00:00,28.593883,76.270653,SO2,NA,NA,NA
India,Haryana,Charkhi Dadri,"Mini Secretariat, Charkhi Dadri - HSPCB",22-03-2026 08:00:00,28.593883,76.270653,OZONE,13,17,15
India,Haryana,Bahadurgarh,"Arya Nagar, Bahadurgarh - HSPCB",22-03-2026 08:00:00,28.6701,76.9254,PM2.5,47,192,109
India,Haryana,Bahadurgarh,"Arya Nagar, Bahadurgarh - HSPCB",22-03-2026 08:00:00,28.6701,76.9254,SO2,7,7,7
India,Gujarat,Ahmedabad,"SAC ISRO Bopal, Ahmedabad - IITM",22-03-2026 08:00:00,23.041137,72.456691,OZONE,6,98,9
India,Haryana,Panchgaon,"Amity University, Panchgaon - IITM",22-03-2026 08:00:00,28.3153,76.9143,NO2,14,39,28
India,Haryana,Panipat,"Sector-18, Panipat - HSPCB",22-03-2026 08:00:00,29.432304,76.972765,SO2,11,11,11
India,Haryana,Rohtak,"MD University, Rohtak - HSPCB",22-03-2026 08:00:00,28.52123,76.37138,PM2.5,6,500,146
India,Haryana,Rohtak,"MD University, Rohtak - HSPCB",22-03-2026 08:00:00,28.52123,76.37138,CO,20,38,32
India,Haryana,Faridabad,"New Industrial Town, Faridabad - HSPCB",22-03-2026 08:00:00,28.39072,77.30059,PM10,131,138,134
India,Haryana,Faridabad,"New Industrial Town, Faridabad - HSPCB",22-03-2026 08:00:00,28.39072,77.30059,NO2,23,27,25
India,Haryana,Faridabad,"New Industrial Town, Faridabad - HSPCB",22-03-2026 08:00:00,28.39072,77.30059,NH3,11,12,11
India,Haryana,Faridabad,"Sector 11, Faridabad - HSPCB",22-03-2026 08:00:00,28.376058,77.315741,PM2.5,23,500,269
India,Haryana,Faridabad,"Sector 11, Faridabad - HSPCB",22-03-2026 08:00:00,28.376058,77.315741,NO2,30,33,32
India,Haryana,Gurugram,"Vikas Sadan, Gurugram - HSPCB",22-03-2026 08:00:00,28.4501238,77.0263051,CO,62,114,96
India,Haryana,Gurugram,"Vikas Sadan, Gurugram - HSPCB",22-03-2026 08:00:00,28.4501238,77.0263051,OZONE,5,26,11
India,Haryana,Hisar,"Urban Estate-II, Hisar - HSPCB",22-03-2026 08:00:00,29.140560,75.744941,PM2.5,7,210,45
India,Haryana,Hisar,"Urban Estate-II, Hisar - HSPCB",22-03-2026 08:00:00,29.140560,75.744941,SO2,8,16,12
India,Haryana,Kurukshetra,"Sector-7, Kurukshetra - HSPCB",22-03-2026 08:00:00,29.966942,76.875879,PM2.5,39,82,60
India,Haryana,Kurukshetra,"Sector-7, Kurukshetra - HSPCB",22-03-2026 08:00:00,29.966942,76.875879,CO,5,21,17
India,Haryana,Kurukshetra,"Sector-7, Kurukshetra - HSPCB",22-03-2026 08:00:00,29.966942,76.875879,OZONE,9,60,22
India,Haryana,Mandikhera,"General Hospital, Mandikhera(Nuh) - HSPCB",22-03-2026 08:00:00,27.9002,76.9938,CO,60,94,79
India,Haryana,Sonipat,"Murthal, Sonipat - HSPCB",22-03-2026 08:00:00,29.027200,77.062100,PM10,107,199,154
India,Haryana,Sonipat,"Murthal, Sonipat - HSPCB",22-03-2026 08:00:00,29.027200,77.062100,CO,32,42,35
India,Himachal Pradesh,Baddi,"HIMUDA Complex Phase-1, Baddi - HPPCB",22-03-2026 08:00:00,30.943887,76.801991,NO2,4,35,22
India,Haryana,Kaithal,"Rishi Nagar, Kaithal - HSPCB",22-03-2026 08:00:00,29.8006,76.4155,NH3,3,6,5
India,Haryana,Karnal,"Sector-12, Karnal - HSPCB",22-03-2026 08:00:00,29.695300,77.002700,NO2,6,7,6
India,Haryana,Karnal,"Sector-12, Karnal - HSPCB",22-03-2026 08:00:00,29.695300,77.002700,NH3,6,7,6
India,Haryana,Gurugram,"Sector-51, Gurugram - HSPCB",22-03-2026 08:00:00,28.4227,77.0667,NO2,4,10,6
India,Haryana,Gurugram,"Teri Gram, Gurugram - HSPCB",22-03-2026 08:00:00,28.4275,77.1465,NO2,37,77,54
India,Haryana,Gurugram,"Teri Gram, Gurugram - HSPCB",22-03-2026 08:00:00,28.4275,77.1465,CO,20,40,30
India,Haryana,Narnaul,"Shastri Nagar, Narnaul - HSPCB",22-03-2026 08:00:00,28.060249,76.113115,PM10,30,115,72
India,Haryana,Narnaul,"Shastri Nagar, Narnaul - HSPCB",22-03-2026 08:00:00,28.060249,76.113115,NO2,23,29,26
India,Haryana,Narnaul,"Shastri Nagar, Narnaul - HSPCB",22-03-2026 08:00:00,28.060249,76.113115,CO,24,42,33
India,Haryana,Faridabad,"Sector 30, Faridabad - HSPCB",22-03-2026 08:00:00,28.4417,77.3217,PM10,116,123,119
India,Karnataka,Bengaluru,"Silk Board, Bengaluru - KSPCB",22-03-2026 08:00:00,12.917348,77.622813,CO,10,28,13
India,Karnataka,Chamarajanagar,"Urban, Chamarajanagar - KSPCB",22-03-2026 08:00:00,11.55358,76.55521,NO2,20,29,28
India,Karnataka,Chamarajanagar,"Urban, Chamarajanagar - KSPCB",22-03-2026 08:00:00,11.55358,76.55521,SO2,3,3,3
India,Karnataka,Chamarajanagar,"Urban, Chamarajanagar - KSPCB",22-03-2026 08:00:00,11.55358,76.55521,OZONE,19,30,26
India,Karnataka,Chikkaballapur,"Chikkaballapur Rural, Chikkaballapur - KSPCB",22-03-2026 08:00:00,13.428828,77.731418,NH3,NA,NA,NA
India,Karnataka,Chikkamagaluru,"Kalyana Nagara, Chikkamagaluru - KSPCB",22-03-2026 08:00:00,13.328028,75.797056,PM10,12,69,54
India,Karnataka,Dharwad,"Kalabhavan, Dharwad - KSPCB",22-03-2026 08:00:00,15.459706,75.008381,NH3,4,6,5
India,Karnataka,Hubballi,"Lingaraj Nagar, Hubballi - KSPCB",22-03-2026 08:00:00,15.3714823,75.1160168,PM10,58,69,63
India,Karnataka,Hubballi,"Lingaraj Nagar, Hubballi - KSPCB",22-03-2026 08:00:00,15.3714823,75.1160168,NH3,1,2,2
India,Karnataka,Bengaluru,"City Railway Station, Bengaluru - KSPCB",22-03-2026 08:00:00,12.9756843,77.5660749,SO2,NA,NA,NA
India,Karnataka,Bengaluru,"City Railway Station, Bengaluru - KSPCB",22-03-2026 08:00:00,12.9756843,77.5660749,CO,NA,NA,NA
India,Karnataka,Bengaluru,"Hebbal, Bengaluru - KSPCB",22-03-2026 08:00:00,13.029152,77.585901,NO2,28,126,53
India,Karnataka,Bengaluru,"Hebbal, Bengaluru - KSPCB",22-03-2026 08:00:00,13.029152,77.585901,OZONE,9,11,10
India,Karnataka,Bengaluru,"Hombegowda Nagar, Bengaluru - KSPCB",22-03-2026 08:00:00,12.938539,77.590100,PM2.5,50,235,110
India,Karnataka,Bengaluru,"Hombegowda Nagar, Bengaluru - KSPCB",22-03-2026 08:00:00,12.938539,77.590100,PM10,58,111,89
India,Karnataka,Bengaluru,"Hombegowda Nagar, Bengaluru - KSPCB",22-03-2026 08:00:00,12.938539,77.590100,NO2,15,54,25
India,Karnataka,Bengaluru,"Hombegowda Nagar, Bengaluru - KSPCB",22-03-2026 08:00:00,12.938539,77.590100,CO,8,32,11
India,Karnataka,Bengaluru,"Hombegowda Nagar, Bengaluru - KSPCB",22-03-2026 08:00:00,12.938539,77.590100,OZONE,51,191,78
India,Jammu_and_Kashmir,Pampore,"Khrew, Pampore - JKPCC",22-03-2026 08:00:00,34.031606,75.009712,PM10,7,24,15
India,Jammu_and_Kashmir,Pampore,"Khrew, Pampore - JKPCC",22-03-2026 08:00:00,34.031606,75.009712,NO2,10,54,25
India,Jammu_and_Kashmir,Srinagar,"Khunmoh, Srinagar - JKPCC",22-03-2026 08:00:00,34.06313,74.96017,PM2.5,4,26,13
India,Jammu_and_Kashmir,Srinagar,"Khunmoh, Srinagar - JKPCC",22-03-2026 08:00:00,34.06313,74.96017,NO2,4,30,14
India,Jharkhand,Dhanbad,"Sardar Patel Nagar, Dhanbad - JSPCB",22-03-2026 08:00:00,23.80569,86.44268,SO2,4,70,28
India,Karnataka,Bagalkot,"Vidayagiri, Bagalkot - KSPCB",22-03-2026 08:00:00,16.172806,75.659694,SO2,7,7,7
India,Kerala,Kannur,"Thavakkara, Kannur - Kerala PCB",22-03-2026 08:00:00,11.875000,75.373200,PM10,86,106,90
India,Kerala,Kollam,"Polayathode, Kollam - Kerala PCB",22-03-2026 08:00:00,8.8787,76.6073,NH3,NA,NA,NA
India,Kerala,Kollam,"Polayathode, Kollam - Kerala PCB",22-03-2026 08:00:00,8.8787,76.6073,SO2,NA,NA,NA
India,Kerala,Thiruvananthapuram,"Kariavattom, Thiruvananthapuram - Kerala PCB",22-03-2026 08:00:00,8.563700,76.886500,PM10,45,96,64
India,Kerala,Thiruvananthapuram,"Kariavattom, Thiruvananthapuram - Kerala PCB",22-03-2026 08:00:00,8.563700,76.886500,NO2,6,7,6
India,Kerala,Thiruvananthapuram,"Kariavattom, Thiruvananthapuram - Kerala PCB",22-03-2026 08:00:00,8.563700,76.886500,OZONE,30,31,30
India,Karnataka,Bagalkot,"Vidayagiri, Bagalkot - KSPCB",22-03-2026 08:00:00,16.172806,75.659694,OZONE,12,13,12
India,Karnataka,Bengaluru,"BWSSB Kadabesanahalli, Bengaluru - CPCB",22-03-2026 08:00:00,12.9352049,77.6814488,PM2.5,NA,NA,NA
India,Karnataka,Bengaluru,"BWSSB Kadabesanahalli, Bengaluru - CPCB",22-03-2026 08:00:00,12.9352049,77.6814488,NH3,1,2,1
India,Karnataka,Bengaluru,"Bapuji Nagar, Bengaluru - KSPCB",22-03-2026 08:00:00,12.951913,77.539784,PM10,62,124,85
India,Karnataka,Bengaluru,"City Railway Station, Bengaluru - KSPCB",22-03-2026 08:00:00,12.9756843,77.5660749,PM10,NA,NA,NA
India,Karnataka,Kalaburagi,"Mahatma Basaveswar Colony, Kalaburgi - KSPCB",22-03-2026 08:00:00,17.336318,76.847397,OZONE,14,21,15
India,Karnataka,Madikeri,"Stuart Hill, Madikeri - KSPCB",22-03-2026 08:00:00,12.415911,75.735050,OZONE,1,6,3
India,Karnataka,Shivamogga,"Vinoba Nagara, Shivamogga - KSPCB",22-03-2026 08:00:00,13.940000,75.555917,PM10,37,68,53
India,Karnataka,Shivamogga,"Vinoba Nagara, Shivamogga - KSPCB",22-03-2026 08:00:00,13.940000,75.555917,NO2,17,26,23
India,Karnataka,Shivamogga,"Vinoba Nagara, Shivamogga - KSPCB",22-03-2026 08:00:00,13.940000,75.555917,OZONE,33,80,41
India,Madhya Pradesh,Damoh,"Shrivastav Colony, Damoh - MPPCB",22-03-2026 08:00:00,23.81748678,79.446246,PM2.5,NA,NA,NA
India,Madhya Pradesh,Dewas,"Bhopal Chauraha, Dewas - MPPCB",22-03-2026 08:00:00,22.9682591,76.064118,CO,70,103,85
India,Madhya Pradesh,Gwalior,"City Center, Gwalior - MPPCB",22-03-2026 08:00:00,26.203442,78.193251,NO2,21,102,50
India,Kerala,Thrissur,"Corporation Ground, Thrissur - Kerala PCB",22-03-2026 08:00:00,10.532400,76.215900,SO2,NA,NA,NA
India,Madhya Pradesh,Bhopal,"Idgah Hills, Bhopal - MPPCB",22-03-2026 08:00:00,23.264759,77.381568,SO2,10,12,11
India,Madhya Pradesh,Bhopal,"Paryavaran Parisar, Bhopal - MPPCB",22-03-2026 08:00:00,23.210494,77.425409,OZONE,16,43,33
India,Karnataka,Yadgir,"Collector Office, Yadgir - KSPCB",22-03-2026 08:00:00,16.7602,77.1428,PM2.5,37,80,55
India,Kerala,Eloor,"Udyogamandal, Eloor - Kerala PCB",22-03-2026 08:00:00,10.073232,76.302765,PM2.5,NA,NA,NA
India,Kerala,Eloor,"Udyogamandal, Eloor - Kerala PCB",22-03-2026 08:00:00,10.073232,76.302765,PM10,NA,NA,NA
India,Kerala,Eloor,"Udyogamandal, Eloor - Kerala PCB",22-03-2026 08:00:00,10.073232,76.302765,NO2,NA,NA,NA
India,Madhya Pradesh,Ratlam,"Shasthri Nagar, Ratlam - IPCA Lab",22-03-2026 08:00:00,23.331731,75.045981,PM10,34,117,69
India,Madhya Pradesh,Ratlam,"Shasthri Nagar, Ratlam - IPCA Lab",22-03-2026 08:00:00,23.331731,75.045981,NO2,15,44,24
India,Madhya Pradesh,Sagar,"Civil Lines, Sagar - MPPCB",22-03-2026 08:00:00,23.838586,78.759431,SO2,3,12,6
India,Madhya Pradesh,Sagar,"Deen Dayal Nagar, Sagar - MPPCB",22-03-2026 08:00:00,23.8640158,78.80289321,PM2.5,11,64,35
India,Madhya Pradesh,Sagar,"Deen Dayal Nagar, Sagar - MPPCB",22-03-2026 08:00:00,23.8640158,78.80289321,SO2,1,3,2
India,Madhya Pradesh,Satna,"Bandhavgar Colony, Satna - Birla Cement",22-03-2026 08:00:00,24.58434363,80.8549414,PM2.5,49,52,50
India,Madhya Pradesh,Maihar,"Sahilara, Maihar - KJS Cements",22-03-2026 08:00:00,24.2613009,80.7231783,PM2.5,NA,NA,NA
India,Madhya Pradesh,Mandideep,"Sector-D Industrial Area, Mandideep - MPPCB",22-03-2026 08:00:00,23.108440,77.511428,NH3,10,14,13
India,Madhya Pradesh,Mandideep,"Sector-D Industrial Area, Mandideep - MPPCB",22-03-2026 08:00:00,23.108440,77.511428,SO2,10,131,59
India,Madhya Pradesh,Pithampur,"Sector-2 Industrial Area, Pithampur - MPPCB",22-03-2026 08:00:00,22.624758,75.675238,PM10,28,119,73
India,Madhya Pradesh,Pithampur,"Sector-2 Industrial Area, Pithampur - MPPCB",22-03-2026 08:00:00,22.624758,75.675238,SO2,1,9,7
India,Madhya Pradesh,Gwalior,"Maharaj Bada, Gwalior - MPPCB",22-03-2026 08:00:00,26.200388,78.147714,OZONE,9,128,15
India,Madhya Pradesh,Indore,"Airport Area, Indore - IMC",22-03-2026 08:00:00,22.7289,75.8076,CO,1,6,3
India,Madhya Pradesh,Indore,"Chhoti Gwaltoli, Indore - MPPCB",22-03-2026 08:00:00,22.4310,75.5213,NH3,20,24,22
India,Madhya Pradesh,Indore,"Maguda Nagar, Indore - IMC",22-03-2026 08:00:00,22.7524,75.8872,PM2.5,12,134,44
India,Madhya Pradesh,Ujjain,"Mahashweta Nagar, Ujjain - MPPCB",22-03-2026 08:00:00,23.1633321,75.800225,PM2.5,20,140,54
India,Madhya Pradesh,Ujjain,"Mahashweta Nagar, Ujjain - MPPCB",22-03-2026 08:00:00,23.1633321,75.800225,CO,13,67,21
India,Madhya Pradesh,Ujjain,"Mahashweta Nagar, Ujjain - MPPCB",22-03-2026 08:00:00,23.1633321,75.800225,OZONE,10,78,55
India,Maharashtra,Ahmednagar,"Tarakpur, Ahmednagar - MPCB",22-03-2026 08:00:00,19.10122,74.73339,PM2.5,18,60,39
India,Maharashtra,Ahmednagar,"Tarakpur, Ahmednagar - MPCB",22-03-2026 08:00:00,19.10122,74.73339,PM10,38,82,59
India,Maharashtra,Akola,"Ramdaspeth, Akola - MPCB",22-03-2026 08:00:00,20.719516,77.000253,PM2.5,22,73,47
India,Maharashtra,Ambernath,"Chinchpada, Ambernath - MPCB",22-03-2026 08:00:00,19.2157840,73.1997810,PM10,23,111,59
India,Madhya Pradesh,Indore,"Maguda Nagar, Indore - IMC",22-03-2026 08:00:00,22.7524,75.8872,CO,13,46,40
India,Madhya Pradesh,Indore,"Regional Park, Indore - IMC",22-03-2026 08:00:00,22.6780,75.8559,NO2,19,28,23
India,Madhya Pradesh,Jabalpur,"Govindh Bhavan Colony, Jabalpur - JMC",22-03-2026 08:00:00,23.163174,79.973061,NO2,12,21,15
India,Madhya Pradesh,Jabalpur,"Govindh Bhavan Colony, Jabalpur - JMC",22-03-2026 08:00:00,23.163174,79.973061,SO2,6,9,7
India,Madhya Pradesh,Jabalpur,"Suhagi, Jabalpur - JMC",22-03-2026 08:00:00,23.218135,79.957770,PM2.5,NA,NA,NA
India,Madhya Pradesh,Jabalpur,"Suhagi, Jabalpur - JMC",22-03-2026 08:00:00,23.218135,79.957770,NO2,NA,NA,NA
India,Madhya Pradesh,Jabalpur,"Suhagi, Jabalpur - JMC",22-03-2026 08:00:00,23.218135,79.957770,CO,NA,NA,NA
India,Maharashtra,Dombivli,"Kalu Nagar, Dombivli - MPCB",22-03-2026 08:00:00,19.2268427 ,73.0788456 ,NO2,12,54,26
India,Maharashtra,Dombivli,"Kalu Nagar, Dombivli - MPCB",22-03-2026 08:00:00,19.2268427 ,73.0788456 ,NH3,1,1,1
India,Maharashtra,Dombivli,"Kalu Nagar, Dombivli - MPCB",22-03-2026 08:00:00,19.2268427 ,73.0788456 ,SO2,5,38,18
India,Maharashtra,Hingoli,"Ashta Vinayak Nagar, Hingoli - MPCB",22-03-2026 08:00:00,19.710842,77.151824,OZONE,29,149,83
India,Maharashtra,Jalgaon,"Prabhat Colony, Jalgaon - MPCB",22-03-2026 08:00:00,21.001264,75.565602,PM10,54,115,83
India,Maharashtra,Jalna,"Old MIDC, Jalna - MPCB",22-03-2026 08:00:00,19.854616,75.905894,SO2,36,43,38
India,Maharashtra,Jalna,"Old MIDC, Jalna - MPCB",22-03-2026 08:00:00,19.854616,75.905894,CO,6,36,17
India,Maharashtra,Jalna,"Old MIDC, Jalna - MPCB",22-03-2026 08:00:00,19.854616,75.905894,OZONE,4,52,14
India,Maharashtra,Kalyan,"Khadakpada, Kalyan - MPCB",22-03-2026 08:00:00,19.25292,73.142019,PM10,NA,NA,NA
India,Maharashtra,Kalyan,"Pimpleshwar Mandir, Kalyan - MPCB",22-03-2026 08:00:00,19.192056,72.9585188,NO2,12,15,12
India,Maharashtra,Kalyan,"Pimpleshwar Mandir, Kalyan - MPCB",22-03-2026 08:00:00,19.192056,72.9585188,NH3,3,5,3
India,Maharashtra,Mumbai,"Khindipada-Bhandup West, Mumbai - IITM",22-03-2026 08:00:00,19.1653323,72.922099,CO,13,52,32
India,Maharashtra,Mumbai,"Kurla, Mumbai - MPCB",22-03-2026 08:00:00,19.0863,72.8888,PM10,34,135,73
India,Maharashtra,Mumbai,"Kurla, Mumbai - MPCB",22-03-2026 08:00:00,19.0863,72.8888,NH3,1,2,2
India,Maharashtra,Mumbai,"Kurla, Mumbai - MPCB",22-03-2026 08:00:00,19.0863,72.8888,SO2,29,29,29
India,Maharashtra,Mumbai,"Malad West, Mumbai - IITM",22-03-2026 08:00:00,19.19709,72.82204,NH3,8,20,11
India,Maharashtra,Mumbai,"Mazgaon, Mumbai - IITM",22-03-2026 08:00:00,18.96702,72.84214,PM2.5,19,63,40
India,Maharashtra,Mumbai,"Mazgaon, Mumbai - IITM",22-03-2026 08:00:00,18.96702,72.84214,NO2,25,110,55
India,Maharashtra,Mumbai,"Mazgaon, Mumbai - IITM",22-03-2026 08:00:00,18.96702,72.84214,CO,14,84,80
India,Maharashtra,Mumbai,"Mindspace-Malad West, Mumbai - MPCB",22-03-2026 08:00:00,19.1878657,72.8304069,PM2.5,NA,NA,NA
India,Maharashtra,Mumbai,"Deonar, Mumbai - IITM",22-03-2026 08:00:00,19.04946,72.9230,PM2.5,17,72,47
India,Maharashtra,Mumbai,"Deonar, Mumbai - IITM",22-03-2026 08:00:00,19.04946,72.9230,PM10,78,126,103
India,Maharashtra,Mumbai,"Deonar, Mumbai - IITM",22-03-2026 08:00:00,19.04946,72.9230,OZONE,6,61,12
India,Maharashtra,Mumbai,"Ghatkopar, Mumbai - BMC",22-03-2026 08:00:00,19.083694,72.920967,PM2.5,39,83,60
India,Maharashtra,Mumbai,"Ghatkopar, Mumbai - BMC",22-03-2026 08:00:00,19.083694,72.920967,SO2,1,5,2
India,Maharashtra,Mumbai,"Kandivali East, Mumbai - MPCB",22-03-2026 08:00:00,19.205800,72.868200,SO2,21,25,22
India,Maharashtra,Mumbai,"Kandivali East, Mumbai - MPCB",22-03-2026 08:00:00,19.205800,72.868200,OZONE,14,15,15
India,Maharashtra,Mumbai,"Kherwadi_Bandra East, Mumbai - MPCB",22-03-2026 08:00:00,19.0632143,72.8456324,NO2,3,47,25
India,Maharashtra,Mumbai,"Kherwadi_Bandra East, Mumbai - MPCB",22-03-2026 08:00:00,19.0632143,72.8456324,CO,1,40,18
India,Maharashtra,Boisar,"Khaira, Boisar - MPCB",22-03-2026 08:00:00,19.786089,72.757971,NO2,14,30,21
India,Maharashtra,Boisar,"Khaira, Boisar - MPCB",22-03-2026 08:00:00,19.786089,72.757971,NH3,3,6,4
India,Maharashtra,Boisar,"Khaira, Boisar - MPCB",22-03-2026 08:00:00,19.786089,72.757971,SO2,21,43,31
India,Maharashtra,Boisar,"Khaira, Boisar - MPCB",22-03-2026 08:00:00,19.786089,72.757971,OZONE,NA,NA,NA
India,Maharashtra,Chandrapur,"Chauhan Colony, Chandrapur - MPCB",22-03-2026 08:00:00,19.962900,79.298714,NO2,32,37,34
India,Maharashtra,Chandrapur,"MIDC Khutala, Chandrapur - MPCB",22-03-2026 08:00:00,19.9775302,79.2337086,PM10,60,171,98
India,Maharashtra,Dhule,"Deopur, Dhule - MPCB",22-03-2026 08:00:00,20.918946,74.776388,NO2,3,43,15
India,Maharashtra,Dhule,"Deopur, Dhule - MPCB",22-03-2026 08:00:00,20.918946,74.776388,OZONE,26,61,40
India,Maharashtra,Ambernath,"Chinchpada, Ambernath - MPCB",22-03-2026 08:00:00,19.2157840,73.1997810,OZONE,25,65,36
India,Maharashtra,Amravati,"Shivneri Colony, Amravati - MPCB",22-03-2026 08:00:00,20.9402359,77.7895248,NO2,7,30,14
India,Maharashtra,Amravati,"Shivneri Colony, Amravati - MPCB",22-03-2026 08:00:00,20.9402359,77.7895248,SO2,7,53,10
India,Maharashtra,Amravati,"Shri Shivaji Science College, Amravati - MPCB",22-03-2026 08:00:00,20.939198,77.765701,PM10,29,74,51
India,Maharashtra,Amravati,"Shri Shivaji Science College, Amravati - MPCB",22-03-2026 08:00:00,20.939198,77.765701,SO2,17,27,20
India,Maharashtra,Aurangabad,"MIDC Chilkalthana, Aurangabad - MPCB",22-03-2026 08:00:00,19.875620,75.387310,OZONE,NA,NA,NA
India,Maharashtra,Mumbai,"Borivali East, Mumbai - IITM",22-03-2026 08:00:00,19.23241,72.86895,NO2,16,64,30
India,Maharashtra,Mumbai,"Borivali East, Mumbai - MPCB",22-03-2026 08:00:00,19.2243333,72.8658113,OZONE,NA,NA,NA
India,Maharashtra,Mumbai,"Byculla, Mumbai - BMC",22-03-2026 08:00:00,18.9767,72.8380,NO2,31,83,38
India,Maharashtra,Mumbai,"Chakala-Andheri East, Mumbai - IITM",22-03-2026 08:00:00,19.11074,72.86084,NO2,68,121,92
India,Maharashtra,Mumbai,"Chakala-Andheri East, Mumbai - IITM",22-03-2026 08:00:00,19.11074,72.86084,SO2,1,24,12
India,Maharashtra,Mumbai,"Colaba, Mumbai - MPCB",22-03-2026 08:00:00,18.910000,72.820000,PM10,37,111,60
India,Maharashtra,Mira-Bhayandar,"Bhayandar West, Mira-Bhayandar - MPCB",22-03-2026 08:00:00,19.296481,72.840923,PM2.5,NA,NA,NA
India,Maharashtra,Mira-Bhayandar,"Bhayandar West, Mira-Bhayandar - MPCB",22-03-2026 08:00:00,19.296481,72.840923,PM10,NA,NA,NA
India,Maharashtra,Mira-Bhayandar,"Bhayandar West, Mira-Bhayandar - MPCB",22-03-2026 08:00:00,19.296481,72.840923,NO2,NA,NA,NA
India,Maharashtra,Mumbai,"Bandra Kurla Complex, Mumbai - IITM",22-03-2026 08:00:00,19.053536,72.84643,NH3,20,99,48
India,Maharashtra,Mumbai,"Bandra Kurla Complex, Mumbai - MPCB",22-03-2026 08:00:00,19.065931,72.862131,PM2.5,NA,NA,NA
India,Maharashtra,Mumbai,"Bandra Kurla Complex, Mumbai - MPCB",22-03-2026 08:00:00,19.065931,72.862131,NH3,2,6,3
India,Maharashtra,Kolhapur,"Shivaji University, Kolhapur - MPCB",22-03-2026 08:00:00,16.6870449,74.2505872,NH3,3,4,4
India,Maharashtra,Kolhapur,"Shivaji University, Kolhapur - MPCB",22-03-2026 08:00:00,16.6870449,74.2505872,SO2,3,4,3
India,Maharashtra,Latur,"Sawe Wadi, Latur - MPCB",22-03-2026 08:00:00,18.39963,76.57452,SO2,NA,NA,NA
India,Maharashtra,Mahad,"Kamble Tarf Birwadi, Mahad - MPCB",22-03-2026 08:00:00,18.1023399,73.4783687,PM10,77,141,118
India,Maharashtra,Mahad,"Kamble Tarf Birwadi, Mahad - MPCB",22-03-2026 08:00:00,18.1023399,73.4783687,NO2,13,34,30
India,Maharashtra,Aurangabad,"Rachnakar Colony, Aurangabad - MPCB",22-03-2026 08:00:00,19.863756,75.321188,PM10,30,74,51
India,Maharashtra,Beed,"Bir, Beed - MPCB",22-03-2026 08:00:00,18.988474,75.753873,NH3,4,6,5
India,Maharashtra,Beed,"Bir, Beed - MPCB",22-03-2026 08:00:00,18.988474,75.753873,SO2,1,26,11
India,Maharashtra,Nagpur,"Opp GPO Civil Lines, Nagpur - MPCB",22-03-2026 08:00:00,21.152875,79.0517531,PM10,24,96,54
India,Maharashtra,Nagpur,"Opp GPO Civil Lines, Nagpur - MPCB",22-03-2026 08:00:00,21.152875,79.0517531,OZONE,6,36,10
India,Maharashtra,Nagpur,"Ram Nagar, Nagpur - MPCB",22-03-2026 08:00:00,21.143383,79.048912,PM10,40,75,57
India,Maharashtra,Nagpur,"Ram Nagar, Nagpur - MPCB",22-03-2026 08:00:00,21.143383,79.048912,NH3,4,4,4
India,Maharashtra,Nanded,"Sneh Nagar, Nanded - MPCB",22-03-2026 08:00:00,19.173852,77.296291,PM10,39,88,61
India,Maharashtra,Nanded,"Sneh Nagar, Nanded - MPCB",22-03-2026 08:00:00,19.173852,77.296291,OZONE,31,80,49
India,Maharashtra,Nashik,"Gangapur Road, Nashik - MPCB",22-03-2026 08:00:00,20.0073285,73.7762427,PM2.5,15,169,38
India,Maharashtra,Nashik,"Gangapur Road, Nashik - MPCB",22-03-2026 08:00:00,20.0073285,73.7762427,NO2,5,5,5
India,Maharashtra,Nashik,"Gangapur Road, Nashik - MPCB",22-03-2026 08:00:00,20.0073285,73.7762427,OZONE,9,29,29
India,Maharashtra,Nashik,"Hirawadi, Nashik - MPCB",22-03-2026 08:00:00,20.021503,73.813844,PM2.5,23,87,51
India,Maharashtra,Navi Mumbai,"Sanpada, Navi Mumbai - MPCB",22-03-2026 08:00:00,19.0575752,73.0151367,PM10,56,133,97
India,Maharashtra,Navi Mumbai,"Sector-2E Kalamboli, Navi Mumbai - MPCB",22-03-2026 08:00:00,19.02579,73.10297,NO2,9,34,21
India,Maharashtra,Navi Mumbai,"Sector-2E Kalamboli, Navi Mumbai - MPCB",22-03-2026 08:00:00,19.02579,73.10297,CO,12,37,24
India,Maharashtra,Navi Mumbai,"Sector-2E Kalamboli, Navi Mumbai - MPCB",22-03-2026 08:00:00,19.02579,73.10297,OZONE,1,42,9
India,Maharashtra,Navi Mumbai,"Tondare-Taloja, Navi Mumbai - MPCB",22-03-2026 08:00:00,19.0630,73.1209,PM10,47,426,101
India,Maharashtra,Parbhani,"Masoom Colony, Parbhani - MPCB",22-03-2026 08:00:00,19.265594,76.761463,PM2.5,1,76,33
India,Maharashtra,Pimpri-Chinchwad,"Gavalinagar, Pimpri Chinchwad - MPCB",22-03-2026 08:00:00,18.63673,73.82487,CO,13,76,48
India,Maharashtra,Pimpri-Chinchwad,"Gavalinagar, Pimpri Chinchwad - MPCB",22-03-2026 08:00:00,18.63673,73.82487,OZONE,1,55,9
India,Maharashtra,Nashik,"Hirawadi, Nashik - MPCB",22-03-2026 08:00:00,20.021503,73.813844,NO2,1,33,13
India,Maharashtra,Nashik,"Hirawadi, Nashik - MPCB",22-03-2026 08:00:00,20.021503,73.813844,NH3,1,13,4
India,Maharashtra,Nashik,"MIDC Ambad, Nashik - MPCB",22-03-2026 08:00:00,19.950220,73.731480,NO2,4,34,14
India,Maharashtra,Nashik,"Pandav Nagari, Nashik - MPCB",22-03-2026 08:00:00,19.9591346,73.7788008,PM10,40,83,64
India,Maharashtra,Nashik,"Pandav Nagari, Nashik - MPCB",22-03-2026 08:00:00,19.9591346,73.7788008,NO2,5,24,12
India,Maharashtra,Nashik,"Pandav Nagari, Nashik - MPCB",22-03-2026 08:00:00,19.9591346,73.7788008,NH3,2,4,3
India,Maharashtra,Navi Mumbai,"Mahape, Navi Mumbai - MPCB",22-03-2026 08:00:00,19.1135051,73.008978,NH3,1,1,1
India,Maharashtra,Navi Mumbai,"Nerul, Navi Mumbai - MPCB",22-03-2026 08:00:00,19.008751,73.016620,NO2,51,52,51
India,Maharashtra,Navi Mumbai,"Nerul, Navi Mumbai - MPCB",22-03-2026 08:00:00,19.008751,73.016620,NH3,6,6,6
India,Maharashtra,Pimpri-Chinchwad,"Thergaon, Pimpri Chinchwad - MPCB",22-03-2026 08:00:00,18.616318,73.765797,NO2,20,72,47
India,Maharashtra,Pimpri-Chinchwad,"Thergaon, Pimpri Chinchwad - MPCB",22-03-2026 08:00:00,18.616318,73.765797,CO,15,107,63
India,Maharashtra,Pune,"Bhumkar Nagar, Pune - IITM",22-03-2026 08:00:00,18.605770,73.749976,OZONE,1,96,19
India,Maharashtra,Pune,"Dhankawadi, Pune - IITM",22-03-2026 08:00:00,18.459883,73.852193,PM2.5,24,85,61
India,Maharashtra,Pune,"Dhankawadi, Pune - IITM",22-03-2026 08:00:00,18.459883,73.852193,PM10,73,193,121
India,Maharashtra,Pune,"Dhankawadi, Pune - IITM",22-03-2026 08:00:00,18.459883,73.852193,CO,26,77,52
India,Maharashtra,Pune,"Hadapsar, Pune - IITM",22-03-2026 08:00:00,18.501793,73.927532,PM10,74,135,108
India,Maharashtra,Pune,"Katraj Dairy, Pune - MPCB",22-03-2026 08:00:00,18.454450,73.854155,PM10,59,102,74
India,Maharashtra,Mumbai,"Mulund West, Mumbai - MPCB",22-03-2026 08:00:00,19.1750,72.9419,NO2,NA,NA,NA
India,Maharashtra,Mumbai,"Mulund West, Mumbai - MPCB",22-03-2026 08:00:00,19.1750,72.9419,NH3,NA,NA,NA
India,Maharashtra,Mumbai,"Navy Nagar-Colaba, Mumbai - IITM",22-03-2026 08:00:00,18.897756,72.813320,PM2.5,36,67,50
India,Maharashtra,Mumbai,"Navy Nagar-Colaba, Mumbai - IITM",22-03-2026 08:00:00,18.897756,72.813320,SO2,9,53,19
India,Maharashtra,Mumbai,"Navy Nagar-Colaba, Mumbai - IITM",22-03-2026 08:00:00,18.897756,72.813320,CO,19,68,54
India,Maharashtra,Mumbai,"Navy Nagar-Colaba, Mumbai - IITM",22-03-2026 08:00:00,18.897756,72.813320,OZONE,13,79,28
India,Maharashtra,Mumbai,"Powai, Mumbai - MPCB",22-03-2026 08:00:00,19.137500,72.915056,PM10,38,85,58
India,Maharashtra,Mumbai,"Shivaji Nagar, Mumbai - BMC",22-03-2026 08:00:00,19.060498,72.923356,SO2,1,19,11
India,Maharashtra,Mumbai,"Shivaji Nagar, Mumbai - BMC",22-03-2026 08:00:00,19.060498,72.923356,OZONE,2,65,21
India,Maharashtra,Mumbai,"Sion, Mumbai - MPCB",22-03-2026 08:00:00,19.047000,72.874600,SO2,1,2,1
India,Maharashtra,Mumbai,"Worli, Mumbai -MPCB",22-03-2026 08:00:00,18.9942180,72.8158167,PM2.5,23,64,35
India,Maharashtra,Mumbai,"Worli, Mumbai -MPCB",22-03-2026 08:00:00,18.9942180,72.8158167,NO2,12,12,12
India,Maharashtra,Mumbai,"Worli, Mumbai -MPCB",22-03-2026 08:00:00,18.9942180,72.8158167,SO2,31,35,33
India,Maharashtra,Mumbai,"Worli, Mumbai -MPCB",22-03-2026 08:00:00,18.9942180,72.8158167,CO,16,53,34
India,Maharashtra,Mumbai,"Worli, Mumbai -MPCB",22-03-2026 08:00:00,18.9942180,72.8158167,OZONE,4,75,12
India,Maharashtra,Nagpur,"Ambazari, Nagpur - MPCB",22-03-2026 08:00:00,21.121801,79.04952,NO2,1,9,6
India,Maharashtra,Nagpur,"Mahal, Nagpur - MPCB",22-03-2026 08:00:00,21.14472,79.107595,PM2.5,28,57,44
India,Maharashtra,Nagpur,"Mahal, Nagpur - MPCB",22-03-2026 08:00:00,21.14472,79.107595,NO2,13,60,31
India,Maharashtra,Pune,"Panchawati_Pashan, Pune - IITM",22-03-2026 08:00:00,18.536457,73.805454,PM10,59,114,92
India,Maharashtra,Pune,"Panchawati_Pashan, Pune - IITM",22-03-2026 08:00:00,18.536457,73.805454,OZONE,1,48,8
India,Maharashtra,Pune,"Savitribai Phule Pune University, Pune - MPCB",22-03-2026 08:00:00,18.547056,73.826908,PM10,69,113,91
India,Maharashtra,Pimpri-Chinchwad,"Park Street Wakad, Pimpri Chinchwad - MPCB",22-03-2026 08:00:00,18.59051,73.77946,SO2,4,14,7
India,Maharashtra,Pimpri-Chinchwad,"Park Street Wakad, Pimpri Chinchwad - MPCB",22-03-2026 08:00:00,18.59051,73.77946,CO,19,96,60
India,Maharashtra,Pune,"Transport Nagar-Nigdi, Pune - IITM",22-03-2026 08:00:00,18.664282,73.763966,NO2,21,102,42
India,Maharashtra,Pune,"Transport Nagar-Nigdi, Pune - IITM",22-03-2026 08:00:00,18.664282,73.763966,CO,1,80,60
India,Odisha,Barbil,"Forest Office, Barbil - OSPCB",22-03-2026 08:00:00,22.1166054,85.3945546,NH3,1,4,2
India,Odisha,Barbil,"Forest Office, Barbil - OSPCB",22-03-2026 08:00:00,22.1166054,85.3945546,OZONE,14,120,26
India,Odisha,Baripada,"Meher Colony, Baripada - OSPCB",22-03-2026 08:00:00,21.941841,86.728318,NH3,2,3,3
India,Odisha,Baripada,"Meher Colony, Baripada - OSPCB",22-03-2026 08:00:00,21.941841,86.728318,OZONE,4,71,14
India,Odisha,Bhubaneswar,"Lingraj Mandir, Bhubaneswar - OSPCB",22-03-2026 08:00:00,20.240790,85.836784,PM2.5,13,62,40
India,Odisha,Bhubaneswar,"Lingraj Mandir, Bhubaneswar - OSPCB",22-03-2026 08:00:00,20.240790,85.836784,PM10,14,71,47
India,Odisha,Bhubaneswar,"Lingraj Mandir, Bhubaneswar - OSPCB",22-03-2026 08:00:00,20.240790,85.836784,CO,8,101,33
India,Odisha,Bhubaneswar,"Patia, Bhubaneswar - OSPCB",22-03-2026 08:00:00,20.34652,85.81630,PM2.5,12,65,39
India,Odisha,Bhubaneswar,"Patia, Bhubaneswar - OSPCB",22-03-2026 08:00:00,20.34652,85.81630,PM10,26,79,54
India,Odisha,Bileipada,"Tata Township, Bileipada - OSPCB",22-03-2026 08:00:00,22.06156703,85.47409613,PM2.5,NA,NA,NA
India,Odisha,Bileipada,"Tata Township, Bileipada - OSPCB",22-03-2026 08:00:00,22.06156703,85.47409613,SO2,NA,NA,NA
India,Odisha,Bileipada,"Tata Township, Bileipada - OSPCB",22-03-2026 08:00:00,22.06156703,85.47409613,OZONE,NA,NA,NA
India,Odisha,Brajrajnagar,"GM Office, Brajrajnagar - OSPCB",22-03-2026 08:00:00,21.8004996,83.8396977,PM10,7,126,56
India,Odisha,Brajrajnagar,"GM Office, Brajrajnagar - OSPCB",22-03-2026 08:00:00,21.8004996,83.8396977,NO2,2,8,5
India,Odisha,Byasanagar,"Ferro Chrome Colony, Byasanagar - OSPCB",22-03-2026 08:00:00,20.94185,86.11510,SO2,NA,NA,NA
India,Odisha,Cuttack,"CDA Area, Cuttack - OSPCB",22-03-2026 08:00:00,20.48891     ,85.84768     ,SO2,4,9,6
India,Odisha,Cuttack,"CDA Area, Cuttack - OSPCB",22-03-2026 08:00:00,20.48891     ,85.84768     ,CO,50,64,53
India,Odisha,Keonjhar,"Jagamohanpur, Keonjhar - OSPCB",22-03-2026 08:00:00,21.643900,85.599355,PM10,32,64,48
India,Odisha,Nayagarh,"Dabuna, Nayagarh - OSPCB",22-03-2026 08:00:00,21.847279,85.416905,PM2.5,19,36,26
India,Odisha,Nayagarh,"Dabuna, Nayagarh - OSPCB",22-03-2026 08:00:00,21.847279,85.416905,NH3,6,7,6
India,Odisha,Rairangpur,"Divisional Forest Office, Rairangpur - OSPCB",22-03-2026 08:00:00,22.265816,86.174829,NH3,1,1,1
India,Odisha,Rairangpur,"Divisional Forest Office, Rairangpur - OSPCB",22-03-2026 08:00:00,22.265816,86.174829,SO2,7,11,8
India,Odisha,Rourkela,"Fertilizer Township, Rourkela - OSPCB",22-03-2026 08:00:00,22.18972222,84.86277778,PM2.5,76,111,86
India,Odisha,Rourkela,"Raghunathpali, Rourkela - OSPCB",22-03-2026 08:00:00,22.220833,84.809444,PM2.5,22,55,38
India,Odisha,Rourkela,"Raghunathpali, Rourkela - OSPCB",22-03-2026 08:00:00,22.220833,84.809444,PM10,30,76,50
India,Odisha,Rourkela,"Sector-2, Rourkela - OSPCB",22-03-2026 08:00:00,22.24500000,84.88111111,PM10,30,44,36
India,Odisha,Talcher,"Talcher Coalfields,Talcher - OSPCB",22-03-2026 08:00:00,20.9360711,85.1707021,PM2.5,13,80,44
India,Maharashtra,Ulhasnagar,"Sidhi Vinayak Nagar, Ulhasnagar - MPCB",22-03-2026 08:00:00,19.235581,73.159121,NH3,3,7,6
India,Maharashtra,Ulhasnagar,"Sidhi Vinayak Nagar, Ulhasnagar - MPCB",22-03-2026 08:00:00,19.235581,73.159121,SO2,9,29,14
India,Maharashtra,Ulhasnagar,"Vithalwadi, Ulhasnagar - MPCB",22-03-2026 08:00:00,19.2307571 ,73.1551920,OZONE,15,76,28
India,Maharashtra,Virar,"Bolinj, Virar - MPCB",22-03-2026 08:00:00,19.4458210,72.7988231,OZONE,29,73,42
India,Meghalaya,Shillong,"JN Stadium, Shillong - Meghalaya PCB",22-03-2026 08:00:00,25.5803419,91.8942571,PM2.5,NA,NA,NA
India,Maharashtra,Solapur,"Dnyaneshwar Nagar, Solapur - MPCB",22-03-2026 08:00:00,17.6336264,75.9132495,PM10,66,102,83
India,Maharashtra,Solapur,"Dnyaneshwar Nagar, Solapur - MPCB",22-03-2026 08:00:00,17.6336264,75.9132495,NO2,7,61,23
India,Maharashtra,Solapur,"Dnyaneshwar Nagar, Solapur - MPCB",22-03-2026 08:00:00,17.6336264,75.9132495,NH3,8,48,16
India,Maharashtra,Solapur,"Dnyaneshwar Nagar, Solapur - MPCB",22-03-2026 08:00:00,17.6336264,75.9132495,CO,6,42,18
India,Maharashtra,Solapur,"Ratandeep Housing Society, Solapur - MPCB",22-03-2026 08:00:00,17.65439,75.90649,PM10,73,117,95
India,Maharashtra,Thane,"Upvan Fort, Thane - MPCB",22-03-2026 08:00:00,19.222279,72.957979,PM2.5,11,86,30
India,Odisha,Angul,"Hakimapada, Angul - OSPCB",22-03-2026 08:00:00,20.832874,85.104082,OZONE,30,307,50
India,Odisha,Balasore,"Kalidaspur, Balasore - OSPCB",22-03-2026 08:00:00,21.51161,86.89088,NO2,3,23,10
India,Odisha,Barbil,"Forest Office, Barbil - OSPCB",22-03-2026 08:00:00,22.1166054,85.3945546,PM2.5,13,75,37
India,Meghalaya,Shillong,"JN Stadium, Shillong - Meghalaya PCB",22-03-2026 08:00:00,25.5803419,91.8942571,CO,NA,NA,NA
India,Mizoram,Aizawl,"Sikulpuikawn, Aizawl - Mizoram PCB",22-03-2026 08:00:00,23.7176342,92.7192841,PM2.5,12,38,24
India,Mizoram,Aizawl,"Sikulpuikawn, Aizawl - Mizoram PCB",22-03-2026 08:00:00,23.7176342,92.7192841,SO2,14,16,15
India,Nagaland,Kohima,"PWD Junction, Kohima - NPCB",22-03-2026 08:00:00,25.6635413,94.0989878,SO2,13,21,18
India,Maharashtra,Thane,"Upvan Fort, Thane - MPCB",22-03-2026 08:00:00,19.222279,72.957979,SO2,9,36,20
India,Rajasthan,Barmer,"Railway Colony, Barmer - RSPCB",22-03-2026 08:00:00,25.747299,71.393989,PM2.5,8,37,21
India,Rajasthan,Barmer,"Railway Colony, Barmer - RSPCB",22-03-2026 08:00:00,25.747299,71.393989,NO2,14,36,21
India,Rajasthan,Barmer,"Railway Colony, Barmer - RSPCB",22-03-2026 08:00:00,25.747299,71.393989,CO,4,36,7
India,Rajasthan,Bharatpur,"Krishna Nagar, Bharatpur - RSPCB",22-03-2026 08:00:00,27.215415,77.50873,OZONE,12,121,36
India,Rajasthan,Bhilwara,"Pratap Nagar, Bhilwara - RSPCB",22-03-2026 08:00:00,25.339605,74.618883,NH3,7,14,10
India,Rajasthan,Bhilwara,"Pratap Nagar, Bhilwara - RSPCB",22-03-2026 08:00:00,25.339605,74.618883,CO,8,62,35
India,Rajasthan,Bhiwadi,"RIICO Ind. Area III, Bhiwadi - RSPCB",22-03-2026 08:00:00,28.194909,76.862296,PM10,55,174,114
India,Rajasthan,Bhiwadi,"RIICO Ind. Area III, Bhiwadi - RSPCB",22-03-2026 08:00:00,28.194909,76.862296,NO2,21,112,66
India,Rajasthan,Bhiwadi,"RIICO Ind. Area III, Bhiwadi - RSPCB",22-03-2026 08:00:00,28.194909,76.862296,CO,20,80,57
India,Rajasthan,Bhiwadi,"Vasundhara Nagar_UIT, Bhiwadi - RSPCB",22-03-2026 08:00:00,28.207266,76.829265,OZONE,4,85,8
India,Rajasthan,Bikaner,"MM Ground, Bikaner - RSPCB",22-03-2026 08:00:00,28.018792,73.292658,NO2,14,62,24
India,Rajasthan,Bundi,"New Colony, Bundi - RSPCB",22-03-2026 08:00:00,25.435774,75.644272,PM10,31,135,63
India,Rajasthan,Chittorgarh,"Shastri Nagar, Chittorgarh - RSPCB",22-03-2026 08:00:00,24.892047,74.623527,PM2.5,33,90,55
India,Rajasthan,Chittorgarh,"Shastri Nagar, Chittorgarh - RSPCB",22-03-2026 08:00:00,24.892047,74.623527,NO2,20,91,40
India,Rajasthan,Churu,"Subash Chowk, Churu - RSPCB",22-03-2026 08:00:00,28.296139,74.961696,SO2,2,3,2
India,Rajasthan,Dausa,"Khatikan Mohalla, Dausa - RSPCB",22-03-2026 08:00:00,26.895552,76.334753,PM2.5,30,160,57
India,Rajasthan,Jalore,"Mudtra Sili, Jalore - RSPCB",22-03-2026 08:00:00,25.344694,72.626208,NO2,6,60,32
India,Rajasthan,Jalore,"Mudtra Sili, Jalore - RSPCB",22-03-2026 08:00:00,25.344694,72.626208,SO2,2,8,4
India,Rajasthan,Jhunjhunu,"Indra Nagar, Jhunjhunu - RSPCB",22-03-2026 08:00:00,28.108988,75.386577,OZONE,12,129,32
India,Rajasthan,Jodhpur,"Collectorate, Jodhpur - RSPCB",22-03-2026 08:00:00,26.268249,73.0193853,NH3,6,11,8
India,Rajasthan,Jodhpur,"Collectorate, Jodhpur - RSPCB",22-03-2026 08:00:00,26.268249,73.0193853,OZONE,22,78,38
India,Rajasthan,Jodhpur,"Digari Kalan, Jodhpur - RSPCB",22-03-2026 08:00:00,26.295810,73.082283,SO2,1,3,1
India,Rajasthan,Jodhpur,"Digari Kalan, Jodhpur - RSPCB",22-03-2026 08:00:00,26.295810,73.082283,CO,1,40,13
India,Rajasthan,Jodhpur,"Jhalamand, Jodhpur - RSPCB",22-03-2026 08:00:00,26.215415,73.070156,PM2.5,8,85,30
India,Odisha,Tensa,"Barsua Iron Ore Mines, Tensa - OSPCB",22-03-2026 08:00:00,21.869985,85.167016,OZONE,5,11,7
India,Puducherry,Puducherry,"Jawahar Nagar, Puducherry - PPCC",22-03-2026 08:00:00,11.9309,79.8027,NO2,4,24,11
India,Punjab,Amritsar,"Golden Temple, Amritsar - PPCB",22-03-2026 08:00:00,31.620000,74.876512,CO,28,39,31
India,Punjab,Bathinda,"Hardev Nagar, Bathinda - PPCB",22-03-2026 08:00:00,30.233011,74.907758,SO2,2,18,13
India,Punjab,Jalandhar,"Civil Line, Jalandhar - PPCB",22-03-2026 08:00:00,31.321907,75.578914,NH3,7,7,7
India,Punjab,Jalandhar,"Civil Line, Jalandhar - PPCB",22-03-2026 08:00:00,31.321907,75.578914,OZONE,1,93,20
India,Rajasthan,Dholpur,"Raja Ganj, Dholpur - RSPCB",22-03-2026 08:00:00,26.699557,77.898881,OZONE,6,67,12
India,Rajasthan,Dungarpur,"Bhoiwada, Dungarpur - RSPCB",22-03-2026 08:00:00,23.837789,73.714926,PM2.5,7,77,37
India,Rajasthan,Hanumangarh,"Housing Board, Hanumangarh - RSPCB",22-03-2026 08:00:00,29.610750,74.283608,SO2,2,16,5
India,Rajasthan,Jaipur,"Adarsh Nagar, Jaipur - RSPCB",22-03-2026 08:00:00,26.902909,75.836858,PM10,47,113,72
India,Rajasthan,Jaipur,"Adarsh Nagar, Jaipur - RSPCB",22-03-2026 08:00:00,26.902909,75.836858,SO2,14,26,23
India,Rajasthan,Jaipur,"Mansarovar Sector-12, Jaipur - RSPCB",22-03-2026 08:00:00,26.843698,75.766894,OZONE,11,185,33
India,Rajasthan,Jaipur,"Police Commissionerate, Jaipur - RSPCB",22-03-2026 08:00:00,26.9164092,75.7994901,SO2,23,26,24
India,Rajasthan,Jaipur,"Police Commissionerate, Jaipur - RSPCB",22-03-2026 08:00:00,26.9164092,75.7994901,CO,57,71,61
India,Rajasthan,Jaipur,"RIICO Sitapura, Jaipur - RSPCB",22-03-2026 08:00:00,26.786682,75.827928,NO2,86,165,116
India,Rajasthan,Jaipur,"Sector-2 Murlipura, Jaipur - RSPCB",22-03-2026 08:00:00,26.960669,75.771817,PM2.5,33,129,67
India,Rajasthan,Jaipur,"Sector-2 Murlipura, Jaipur - RSPCB",22-03-2026 08:00:00,26.960669,75.771817,NH3,6,9,7
India,Rajasthan,Jaipur,"Shastri Nagar, Jaipur - RSPCB",22-03-2026 08:00:00,26.9502929,75.730943,OZONE,15,44,24
India,Rajasthan,Ajmer,"Civil Lines,  Ajmer - RSPCB",22-03-2026 08:00:00,26.470859,74.646594,PM10,36,113,84
India,Rajasthan,Alwar,"Moti Doongri, Alwar - RSPCB",22-03-2026 08:00:00,27.554793,76.611536,SO2,10,47,20
India,Rajasthan,Alwar,"Moti Doongri, Alwar - RSPCB",22-03-2026 08:00:00,27.554793,76.611536,CO,32,60,40
India,Rajasthan,Banswara,"Rati Talai, Banswara - RSPCB",22-03-2026 08:00:00,23.555190,74.440010,PM2.5,12,77,35
India,Rajasthan,Banswara,"Rati Talai, Banswara - RSPCB",22-03-2026 08:00:00,23.555190,74.440010,CO,17,84,28
India,Rajasthan,Baran,"Bamboliya, Baran - RSPCB",22-03-2026 08:00:00,25.106006,76.469948,SO2,5,24,12
India,Punjab,Khanna,"Kalal Majra, Khanna - PPCB",22-03-2026 08:00:00,30.736056 ,76.209694,SO2,7,18,10
India,Punjab,Ludhiana,"Punjab Agricultural University, Ludhiana - PPCB",22-03-2026 08:00:00,30.9028,75.8086,PM2.5,57,85,63
India,Punjab,Ludhiana,"Punjab Agricultural University, Ludhiana - PPCB",22-03-2026 08:00:00,30.9028,75.8086,OZONE,27,43,34
India,Rajasthan,Dausa,"Khatikan Mohalla, Dausa - RSPCB",22-03-2026 08:00:00,26.895552,76.334753,NO2,10,66,25
India,Rajasthan,Dausa,"Khatikan Mohalla, Dausa - RSPCB",22-03-2026 08:00:00,26.895552,76.334753,NH3,3,8,6
India,Rajasthan,Dholpur,"Raja Ganj, Dholpur - RSPCB",22-03-2026 08:00:00,26.699557,77.898881,NH3,21,35,24
India,Rajasthan,Jodhpur,"Jhalamand, Jodhpur - RSPCB",22-03-2026 08:00:00,26.215415,73.070156,OZONE,12,74,35
India,Rajasthan,Jodhpur,"Mandor, Jodhpur - RSPCB",22-03-2026 08:00:00,26.358805,73.047444,NH3,4,7,5
India,Rajasthan,Jodhpur,"Samrat Ashok Udhyan, Jodhpur - RSPCB",22-03-2026 08:00:00,26.253384,72.976571,NH3,5,10,7
India,Rajasthan,Jodhpur,"Samrat Ashok Udhyan, Jodhpur - RSPCB",22-03-2026 08:00:00,26.253384,72.976571,OZONE,43,134,79
India,Rajasthan,Karauli,"Satyawati Vihar, Karauli - RSPCB",22-03-2026 08:00:00,26.506177,77.025989,NO2,8,33,21
India,Rajasthan,Kota,"Dhanmandi, Kota - RSPCB",22-03-2026 08:00:00,25.164090,75.858137,PM10,42,239,114
India,Rajasthan,Kota,"Dhanmandi, Kota - RSPCB",22-03-2026 08:00:00,25.164090,75.858137,SO2,4,108,21
India,Rajasthan,Kota,"Nayapura, Kota - RSPCB",22-03-2026 08:00:00,25.196024,75.855668,NO2,12,118,52
India,Rajasthan,Kota,"Nayapura, Kota - RSPCB",22-03-2026 08:00:00,25.196024,75.855668,SO2,8,101,21
India,Telangana,Hyderabad,"Central University, Hyderabad - TSPCB",22-03-2026 08:00:00,17.460103,78.334361,OZONE,13,20,16
India,Telangana,Hyderabad,"ECIL Kapra, Hyderabad - TSPCB",22-03-2026 08:00:00,17.470431,78.566959,PM2.5,49,67,57
India,Telangana,Hyderabad,"ECIL Kapra, Hyderabad - TSPCB",22-03-2026 08:00:00,17.470431,78.566959,OZONE,12,48,46
India,Telangana,Hyderabad,"ICRISAT Patancheru, Hyderabad - TSPCB",22-03-2026 08:00:00,17.518400,78.278777,OZONE,5,83,18
India,Telangana,Hyderabad,"IDA Pashamylaram, Hyderabad - TSPCB",22-03-2026 08:00:00,17.5316895,78.218939,PM2.5,47,108,65
India,Telangana,Hyderabad,"IITH Kandi, Hyderabad - TSPCB",22-03-2026 08:00:00,17.585705,78.126199,PM10,78,103,84
India,Telangana,Hyderabad,"IITH Kandi, Hyderabad - TSPCB",22-03-2026 08:00:00,17.585705,78.126199,NO2,13,19,15
India,Telangana,Hyderabad,"Kokapet, Hyderabad - TSPCB",22-03-2026 08:00:00,17.393559,78.339194,PM10,74,94,82
India,Telangana,Hyderabad,"Kompally Municipal Office, Hyderabad - TSPCB",22-03-2026 08:00:00,17.544899,78.486949,PM10,75,86,81
India,Telangana,Hyderabad,"Kompally Municipal Office, Hyderabad - TSPCB",22-03-2026 08:00:00,17.544899,78.486949,CO,8,46,21
India,Telangana,Hyderabad,"Kompally Municipal Office, Hyderabad - TSPCB",22-03-2026 08:00:00,17.544899,78.486949,OZONE,23,32,26
India,Telangana,Hyderabad,"Nacharam_TSIIC IALA, Hyderabad - TSPCB",22-03-2026 08:00:00,17.429398,78.569354,PM2.5,48,75,56
India,Telangana,Hyderabad,"Nacharam_TSIIC IALA, Hyderabad - TSPCB",22-03-2026 08:00:00,17.429398,78.569354,PM10,78,95,83
India,Telangana,Hyderabad,"New Malakpet, Hyderabad - TSPCB",22-03-2026 08:00:00,17.37206,78.50864,PM10,79,96,85
India,Telangana,Hyderabad,"New Malakpet, Hyderabad - TSPCB",22-03-2026 08:00:00,17.37206,78.50864,CO,22,41,23
India,Telangana,Hyderabad,"New Malakpet, Hyderabad - TSPCB",22-03-2026 08:00:00,17.37206,78.50864,OZONE,11,39,14
India,Telangana,Hyderabad,"Ramachandrapuram, Hyderabad - TSPCB",22-03-2026 08:00:00,17.528544,78.286195,SO2,11,22,14
India,Rajasthan,Rajsamand,"Dhoinda, Rajsamand - RSPCB",22-03-2026 08:00:00,25.036360,73.883502,CO,12,56,34
India,Rajasthan,Sawai Madhopur,"Sahu Nagar, Sawai Madhopur - RSPCB",22-03-2026 08:00:00,26.031443,76.359327,NO2,4,103,33
India,Rajasthan,Sawai Madhopur,"Sahu Nagar, Sawai Madhopur - RSPCB",22-03-2026 08:00:00,26.031443,76.359327,SO2,5,9,7
India,Rajasthan,Sikar,"Radhakishan Pura, Sikar - RSPCB",22-03-2026 08:00:00,27.608912,75.153302,SO2,2,5,3
India,Rajasthan,Sikar,"Radhakishan Pura, Sikar - RSPCB",22-03-2026 08:00:00,27.608912,75.153302,CO,14,80,20
India,Rajasthan,Sirohi,"Vedhaynath Colony, Sirohi - RSPCB",22-03-2026 08:00:00,24.885261,72.857549,PM2.5,8,58,30
India,Rajasthan,Sirohi,"Vedhaynath Colony, Sirohi - RSPCB",22-03-2026 08:00:00,24.885261,72.857549,SO2,4,11,5
India,Rajasthan,Sirohi,"Vedhaynath Colony, Sirohi - RSPCB",22-03-2026 08:00:00,24.885261,72.857549,CO,16,34,26
India,TamilNadu,Perundurai,"SIPCOT Industrial Park, Perundurai - TNPCB",22-03-2026 08:00:00,11.258242,77.552761,NO2,11,12,12
India,TamilNadu,Perundurai,"SIPCOT Industrial Park, Perundurai - TNPCB",22-03-2026 08:00:00,11.258242,77.552761,CO,48,50,48
India,TamilNadu,Perundurai,"SIPCOT Industrial Park, Perundurai - TNPCB",22-03-2026 08:00:00,11.258242,77.552761,OZONE,25,31,31
India,TamilNadu,Thoothukudi,"Meelavittan, Thoothukudi - TNPCB",22-03-2026 08:00:00,8.816428 ,78.099039,PM10,32,116,63
India,TamilNadu,Thoothukudi,"Meelavittan, Thoothukudi - TNPCB",22-03-2026 08:00:00,8.816428 ,78.099039,SO2,3,17,9
India,Telangana,Hyderabad,"Central University, Hyderabad - TSPCB",22-03-2026 08:00:00,17.460103,78.334361,SO2,5,11,8
India,Rajasthan,Kota,"Shrinath Puram, Kota - RSPCB",22-03-2026 08:00:00,25.14389,75.821256,CO,4,111,33
India,Rajasthan,Pali,"Indira Colony Vistar, Pali - RSPCB",22-03-2026 08:00:00,25.771061, 73.340227,PM10,26,168,110
India,Rajasthan,Pali,"Indira Colony Vistar, Pali - RSPCB",22-03-2026 08:00:00,25.771061, 73.340227,OZONE,8,84,10
India,Rajasthan,Pratapgarh,"Pragati Nagar, Pratapgarh - RSPCB",22-03-2026 08:00:00,24.041198,74.780702,PM2.5,13,339,40
India,Rajasthan,Rajsamand,"Dhoinda, Rajsamand - RSPCB",22-03-2026 08:00:00,25.036360,73.883502,PM10,14,120,58
India,Telangana,Hyderabad,"Sanathnagar, Hyderabad - TSPCB",22-03-2026 08:00:00,17.4559458,78.4332152,PM2.5,37,71,47
India,Telangana,Hyderabad,"Sanathnagar, Hyderabad - TSPCB",22-03-2026 08:00:00,17.4559458,78.4332152,CO,38,50,44
India,Telangana,Hyderabad,"Somajiguda, Hyderabad - TSPCB",22-03-2026 08:00:00,17.417094,78.457437,PM2.5,21,46,31
India,Telangana,Hyderabad,"Somajiguda, Hyderabad - TSPCB",22-03-2026 08:00:00,17.417094,78.457437,PM10,58,72,63
India,Telangana,Hyderabad,"Zoo Park, Hyderabad - TSPCB",22-03-2026 08:00:00,17.349694,78.451437,NO2,4,10,7
India,Rajasthan,Udaipur,"Ashok Nagar, Udaipur - RSPCB",22-03-2026 08:00:00,24.5886166,73.6321397,NH3,4,6,5
India,Rajasthan,Udaipur,"Ashok Nagar, Udaipur - RSPCB",22-03-2026 08:00:00,24.5886166,73.6321397,SO2,5,11,8
India,Rajasthan,Udaipur,"Ashok Nagar, Udaipur - RSPCB",22-03-2026 08:00:00,24.5886166,73.6321397,CO,5,162,10
India,TamilNadu,Chennai,"Arumbakkam, Chennai - TNPCB",22-03-2026 08:00:00,13.0664,80.2112 ,SO2,1,3,2
India,TamilNadu,Chennai,"Kodungaiyur, Chennai - TNPCB",22-03-2026 08:00:00,13.1278,80.2642,NH3,3,5,4
India,TamilNadu,Chennai,"Manali Village, Chennai - TNPCB",22-03-2026 08:00:00,13.1662,80.2584,OZONE,25,92,83
India,TamilNadu,Chennai,"Manali, Chennai - CPCB",22-03-2026 08:00:00,13.164544,80.26285,SO2,14,22,17
India,TamilNadu,Chennai,"Manali, Chennai - CPCB",22-03-2026 08:00:00,13.164544,80.26285,CO,11,70,34
India,TamilNadu,Chennai,"Perungudi, Chennai - TNPCB",22-03-2026 08:00:00,12.9533,80.2357,NH3,1,3,2
India,Uttar_Pradesh,Bulandshahr,"Yamunapuram, Bulandshahr - UPPCB",22-03-2026 08:00:00,28.406963,77.849831,CO,25,72,54
India,Uttar_Pradesh,Firozabad,"Nagla Bhau, Firozabad - UPPCB",22-03-2026 08:00:00,27.168897,78.376960,SO2,1,50,12
India,Uttar_Pradesh,Firozabad,"Nagla Bhau, Firozabad - UPPCB",22-03-2026 08:00:00,27.168897,78.376960,CO,2,45,3
India,Uttar_Pradesh,Firozabad,"Vibhab Nagar, Firozabad - UPPCB",22-03-2026 08:00:00,27.1594,78.3953,PM2.5,30,94,58
India,Uttar_Pradesh,Ghaziabad,"Indirapuram, Ghaziabad - UPPCB",22-03-2026 08:00:00,28.646233,77.358075,PM2.5,62,327,199
India,Uttar_Pradesh,Ghaziabad,"Indirapuram, Ghaziabad - UPPCB",22-03-2026 08:00:00,28.646233,77.358075,NO2,18,83,43
India,Uttar_Pradesh,Ghaziabad,"Indirapuram, Ghaziabad - UPPCB",22-03-2026 08:00:00,28.646233,77.358075,NH3,15,17,16
India,Uttar_Pradesh,Ghaziabad,"Loni, Ghaziabad - UPPCB",22-03-2026 08:00:00,28.757294,77.278792,PM2.5,63,337,197
India,Uttar_Pradesh,Ghaziabad,"Loni, Ghaziabad - UPPCB",22-03-2026 08:00:00,28.757294,77.278792,PM10,102,292,151
India,Uttar_Pradesh,Hapur,"Anand Vihar, Hapur - UPPCB",22-03-2026 08:00:00,28.725645,77.749675,PM2.5,25,175,77
India,Uttar_Pradesh,Jhansi,"Shivaji Nagar, Jhansi - UPPCB",22-03-2026 08:00:00,25.4547,78.6039,PM10,NA,NA,NA
India,Uttar_Pradesh,Jhansi,"Shivaji Nagar, Jhansi - UPPCB",22-03-2026 08:00:00,25.4547,78.6039,NH3,2,4,4
India,Uttar_Pradesh,Kanpur,"NSI Kalyanpur, Kanpur - UPPCB",22-03-2026 08:00:00,26.509954,80.249612,PM2.5,16,87,50
India,Uttar_Pradesh,Kanpur,"NSI Kalyanpur, Kanpur - UPPCB",22-03-2026 08:00:00,26.509954,80.249612,NO2,28,29,28
India,Uttar_Pradesh,Kanpur,"Nehru Nagar, Kanpur - UPPCB",22-03-2026 08:00:00,26.4703136,80.3229863,PM10,15,63,40
India,Uttar_Pradesh,Kanpur,"Nehru Nagar, Kanpur - UPPCB",22-03-2026 08:00:00,26.4703136,80.3229863,OZONE,6,22,6
India,Uttar_Pradesh,Khurja,"Kalindi Kunj, Khurja - UPPCB",22-03-2026 08:00:00,28.2348927,77.8683002,PM2.5,18,80,55
India,Uttar_Pradesh,Lucknow,"B R Ambedkar University, Lucknow - UPPCB",22-03-2026 08:00:00,26.766433,80.927299,PM2.5,31,99,64
India,Uttar_Pradesh,Lucknow,"B R Ambedkar University, Lucknow - UPPCB",22-03-2026 08:00:00,26.766433,80.927299,PM10,31,146,64
India,Uttar_Pradesh,Lucknow,"B R Ambedkar University, Lucknow - UPPCB",22-03-2026 08:00:00,26.766433,80.927299,SO2,8,15,13
India,Uttar_Pradesh,Lucknow,"Gomti Nagar, Lucknow - UPPCB",22-03-2026 08:00:00,26.868120,81.005119,OZONE,30,38,31
India,Uttar_Pradesh,Lucknow,"Kendriya Vidyalaya, Lucknow - CPCB",22-03-2026 08:00:00,26.906111,80.948222,PM10,64,126,100
India,Uttar_Pradesh,Lucknow,"Kendriya Vidyalaya, Lucknow - CPCB",22-03-2026 08:00:00,26.906111,80.948222,NO2,35,41,39
India,Uttar_Pradesh,Lucknow,"Kukrail Picnic Spot-1, Lucknow - UPPCB",22-03-2026 08:00:00,26.90723,80.98579,SO2,15,19,18
India,Uttar_Pradesh,Lucknow,"Kukrail Picnic Spot-1, Lucknow - UPPCB",22-03-2026 08:00:00,26.90723,80.98579,OZONE,8,27,9
India,Uttar_Pradesh,Meerut,"Jai Bhim Nagar, Meerut - UPPCB",22-03-2026 08:00:00,28.9535882,77.7622941,SO2,6,8,7
India,Uttar_Pradesh,Meerut,"Jai Bhim Nagar, Meerut - UPPCB",22-03-2026 08:00:00,28.9535882,77.7622941,OZONE,20,99,28
India,Uttar_Pradesh,Meerut,"Pallavpuram Phase 2, Meerut - UPPCB",22-03-2026 08:00:00,29.063510,77.709723,CO,9,52,28
India,Uttar_Pradesh,Moradabad,"Buddhi Vihar, Moradabad - UPPCB",22-03-2026 08:00:00,28.83526,78.74460,SO2,20,22,21
India,Uttar_Pradesh,Moradabad,"Eco Herbal Park, Moradabad - UPPCB",22-03-2026 08:00:00,28.840739,78.697531,PM10,9,66,35
India,Uttar_Pradesh,Moradabad,"Eco Herbal Park, Moradabad - UPPCB",22-03-2026 08:00:00,28.840739,78.697531,OZONE,12,42,13
India,Uttar_Pradesh,Moradabad,"Employment Office, Moradabad - UPPCB",22-03-2026 08:00:00,28.88528,78.73880,PM10,25,93,59
India,Uttar_Pradesh,Ghaziabad,"Vasundhara, Ghaziabad - UPPCB",22-03-2026 08:00:00,28.6603346,77.3572563,PM10,109,308,175
India,Uttar_Pradesh,Ghaziabad,"Vasundhara, Ghaziabad - UPPCB",22-03-2026 08:00:00,28.6603346,77.3572563,SO2,20,46,28
India,Uttar_Pradesh,Gorakhpur,"Madan Mohan Malaviya University of Technology, Gorakhpur - UPPCB",22-03-2026 08:00:00,26.730136,83.433859,PM2.5,NA,NA,NA
India,Uttar_Pradesh,Gorakhpur,"Madan Mohan Malaviya University of Technology, Gorakhpur - UPPCB",22-03-2026 08:00:00,26.730136,83.433859,NO2,11,12,11
India,Uttar_Pradesh,Gorakhpur,"Madan Mohan Malaviya University of Technology, Gorakhpur - UPPCB",22-03-2026 08:00:00,26.730136,83.433859,OZONE,1,1,1
India,Uttar_Pradesh,Greater Noida,"Knowledge Park - V, Greater Noida - UPPCB",22-03-2026 08:00:00,28.557054,77.453663,PM10,132,500,259
India,Uttar_Pradesh,Agra,"Shahjahan Garden, Agra - UPPCB",22-03-2026 08:00:00,27.169338,78.03582,CO,4,12,11
India,Uttar_Pradesh,Agra,"Shastripuram, Agra - UPPCB",22-03-2026 08:00:00,27.19862,77.92066,NO2,40,43,42
India,Uttar_Pradesh,Baghpat,"Sardar Patel Inter College, Baghpat - UPPCB",22-03-2026 08:00:00,28.964949,77.278761,NH3,1,3,2
India,Uttar_Pradesh,Baghpat,"Sardar Patel Inter College, Baghpat - UPPCB",22-03-2026 08:00:00,28.964949,77.278761,OZONE,7,79,13
India,Uttar_Pradesh,Bareilly,"Civil Lines, Bareilly - UPPCB",22-03-2026 08:00:00,28.359581,79.414455,SO2,46,72,58
India,Tripura,Agartala,"Bardowali, Agartala - Tripura SPCB",22-03-2026 08:00:00,23.8175497,91.2726974,SO2,1,1,1
India,Uttar_Pradesh,Agra,"Manoharpur, Agra - UPPCB",22-03-2026 08:00:00,27.23711,78.01936,OZONE,6,6,6
India,Uttar_Pradesh,Agra,"Rohta, Agra - UPPCB",22-03-2026 08:00:00,27.106972,78.000111,NH3,6,6,6
India,Uttar_Pradesh,Agra,"Sector-3B Avas Vikas Colony, Agra - UPPCB",22-03-2026 08:00:00,27.19412,77.96237,PM2.5,45,238,101
India,Uttar_Pradesh,Agra,"Sector-3B Avas Vikas Colony, Agra - UPPCB",22-03-2026 08:00:00,27.19412,77.96237,SO2,13,15,13
India,Uttar_Pradesh,Lucknow,"Lalbagh, Lucknow - CPCB",22-03-2026 08:00:00,26.8458805,80.9365541,OZONE,6,26,7
India,Uttar_Pradesh,Lucknow,"Talkatora District Industries Center, Lucknow - CPCB",22-03-2026 08:00:00,26.83399722,80.8917361,PM2.5,41,85,66
India,Uttar_Pradesh,Bareilly,"Civil Lines, Bareilly - UPPCB",22-03-2026 08:00:00,28.359581,79.414455,OZONE,16,21,17
India,Uttar_Pradesh,Bareilly,"Rajendra Nagar, Bareilly - UPPCB",22-03-2026 08:00:00,28.38910936,79.42963708,NO2,9,10,9
India,Uttar_Pradesh,Moradabad,"Jigar Colony, Moradabad - UPPCB",22-03-2026 08:00:00,28.856664,78.772638,PM10,24,67,44
India,Uttar_Pradesh,Moradabad,"Jigar Colony, Moradabad - UPPCB",22-03-2026 08:00:00,28.856664,78.772638,NH3,6,6,6
India,Uttar_Pradesh,Moradabad,"Kashiram Nagar, Moradabad - UPPCB",22-03-2026 08:00:00,28.849399,78.742362,PM10,16,55,34
India,Uttar_Pradesh,Moradabad,"Kashiram Nagar, Moradabad - UPPCB",22-03-2026 08:00:00,28.849399,78.742362,SO2,105,113,108
India,Uttar_Pradesh,Moradabad,"Kashiram Nagar, Moradabad - UPPCB",22-03-2026 08:00:00,28.849399,78.742362,CO,18,34,23
India,Uttar_Pradesh,Muzaffarnagar,"New Mandi, Muzaffarnagar - UPPCB",22-03-2026 08:00:00,29.4723508,77.7194031,PM2.5,24,178,79
India,Uttar_Pradesh,Muzaffarnagar,"New Mandi, Muzaffarnagar - UPPCB",22-03-2026 08:00:00,29.4723508,77.7194031,PM10,37,120,88
India,Uttar_Pradesh,Noida,"Sector - 125, Noida - UPPCB",22-03-2026 08:00:00,28.5447608,77.3231257,OZONE,8,135,13
India,Uttar_Pradesh,Noida,"Sector-1, Noida - UPPCB",22-03-2026 08:00:00,28.5898,77.3101,PM10,86,198,139
India,Uttar_Pradesh,Noida,"Sector-1, Noida - UPPCB",22-03-2026 08:00:00,28.5898,77.3101,SO2,6,16,9
India,Uttar_Pradesh,Prayagraj,"Jhunsi, Prayagraj - UPPCB",22-03-2026 08:00:00,25.425602,81.917152,PM2.5,18,55,33
India,Uttar_Pradesh,Prayagraj,"Motilal Nehru NIT, Prayagraj - UPPCB",22-03-2026 08:00:00,25.494,81.863,PM10,9,106,47
India,Uttar_Pradesh,Prayagraj,"Motilal Nehru NIT, Prayagraj - UPPCB",22-03-2026 08:00:00,25.494,81.863,NO2,12,12,12
India,Uttar_Pradesh,Prayagraj,"Motilal Nehru NIT, Prayagraj - UPPCB",22-03-2026 08:00:00,25.494,81.863,CO,8,22,17
India,Uttar_Pradesh,Prayagraj,"Motilal Nehru NIT, Prayagraj - UPPCB",22-03-2026 08:00:00,25.494,81.863,OZONE,7,29,10
India,Uttar_Pradesh,Prayagraj,"Nagar Nigam, Prayagraj - UPPCB",22-03-2026 08:00:00,25.44919916 ,81.82735986 ,PM2.5,10,59,25
India,Uttar_Pradesh,Prayagraj,"Nagar Nigam, Prayagraj - UPPCB",22-03-2026 08:00:00,25.44919916 ,81.82735986 ,CO,14,28,24
India,Uttar_Pradesh,Raebareli," Indira Nagar, Raebareli - NTPC Unchahar",22-03-2026 08:00:00,26.207781,81.245571,PM2.5,NA,NA,NA
India,Uttar_Pradesh,Varanasi,"Bhelupur, Varanasi - UPPCB",22-03-2026 08:00:00,25.301778,82.996789,NO2,8,8,8
India,Uttar_Pradesh,Varanasi,"Maldahiya, Varanasi - UPPCB",22-03-2026 08:00:00,25.32393,82.99687,PM2.5,6,46,24
India,Uttar_Pradesh,Vrindavan,"Omex Eternity, Vrindavan - UPPCB",22-03-2026 08:00:00,27.5714090,77.6557570,PM10,11,129,73
India,Uttarakhand,Kashipur,"Govt. Girls Inter College, Kashipur - UKPCB",22-03-2026 08:00:00,29.2124114,78.9611753,PM2.5,NA,NA,NA
India,Uttarakhand,Kashipur,"Govt. Girls Inter College, Kashipur - UKPCB",22-03-2026 08:00:00,29.2124114,78.9611753,PM10,NA,NA,NA
India,Uttarakhand,Rishikesh,"Shivaji Nagar, Rishikesh - UKPCB",22-03-2026 08:00:00,30.075911,78.2859547,PM10,11,11,11
India,Uttarakhand,Rishikesh,"Shivaji Nagar, Rishikesh - UKPCB",22-03-2026 08:00:00,30.075911,78.2859547,NO2,19,19,19
India,Uttarakhand,Rishikesh,"Shivaji Nagar, Rishikesh - UKPCB",22-03-2026 08:00:00,30.075911,78.2859547,NH3,8,8,8
India,Uttarakhand,Rishikesh,"Shivaji Nagar, Rishikesh - UKPCB",22-03-2026 08:00:00,30.075911,78.2859547,CO,37,37,37
India,West_Bengal,Asansol,"Asansol Court Area, Asansol - WBPCB",22-03-2026 08:00:00,23.685297,86.945968,PM2.5,19,67,37
India,West_Bengal,Asansol,"Asansol Court Area, Asansol - WBPCB",22-03-2026 08:00:00,23.685297,86.945968,PM10,26,75,38
India,West_Bengal,Asansol,"Asansol Court Area, Asansol - WBPCB",22-03-2026 08:00:00,23.685297,86.945968,NO2,15,28,23
India,West_Bengal,Asansol,"Mahabir Colliery, Asansol - WBPCB",22-03-2026 08:00:00,23.6181830,87.1057180,NO2,8,13,10
India,West_Bengal,Asansol,"Mahabir Colliery, Asansol - WBPCB",22-03-2026 08:00:00,23.6181830,87.1057180,CO,20,49,29
India,West_Bengal,Asansol,"Mahabir Colliery, Asansol - WBPCB",22-03-2026 08:00:00,23.6181830,87.1057180,OZONE,10,41,12
India,West_Bengal,Asansol,"Trivenidevi Bhalotia College, Asansol - WBPCB",22-03-2026 08:00:00,23.616515,87.119133,PM2.5,21,54,37
India,West_Bengal,Asansol,"Trivenidevi Bhalotia College, Asansol - WBPCB",22-03-2026 08:00:00,23.616515,87.119133,CO,48,82,59
India,West_Bengal,Barrackpore,"SVSPA Campus, Barrackpore - WBPCB",22-03-2026 08:00:00,22.7605581,88.3617589,CO,26,37,28
India,West_Bengal,Durgapur,"Mahishkapur Road_B-Zone, Durgapur - WBPCB",22-03-2026 08:00:00,23.567923,87.306843,NH3,2,3,2
India,West_Bengal,Durgapur,"PCBL Residential Complex, Durgapur - WBPCB",22-03-2026 08:00:00,23.5087640,87.3544400,CO,53,102,72
India,West_Bengal,Howrah,"Belur Math, Howrah - WBPCB",22-03-2026 08:00:00,22.629801,88.352017,NH3,6,6,6
India,West_Bengal,Howrah,"Belur Math, Howrah - WBPCB",22-03-2026 08:00:00,22.629801,88.352017,SO2,7,10,8
India,West_Bengal,Howrah,"Botanical Garden, Howrah - WBPCB",22-03-2026 08:00:00,22.554954,88.292568,SO2,10,25,12
India,West_Bengal,Howrah,"Dasnagar, Howrah - WBPCB",22-03-2026 08:00:00,22.6025571,88.3105664,SO2,4,28,8
India,West_Bengal,Howrah,"Dasnagar, Howrah - WBPCB",22-03-2026 08:00:00,22.6025571,88.3105664,CO,20,75,23
India,West_Bengal,Howrah,"Padmapukur, Howrah - WBPCB",22-03-2026 08:00:00,22.5687319,88.2797276,PM2.5,18,50,31
India,West_Bengal,Howrah,"Padmapukur, Howrah - WBPCB",22-03-2026 08:00:00,22.5687319,88.2797276,CO,59,102,77
India,West_Bengal,Kolkata,"Ballygunge, Kolkata - WBPCB",22-03-2026 08:00:00,22.5367507,88.3638022,PM10,NA,NA,NA
India,West_Bengal,Kolkata,"Fort William, Kolkata - WBPCB",22-03-2026 08:00:00,22.556640,88.342674,NH3,9,10,9
India,West_Bengal,Kolkata,"Fort William, Kolkata - WBPCB",22-03-2026 08:00:00,22.556640,88.342674,CO,17,48,20
India,West_Bengal,Kolkata,"Jadavpur, Kolkata - WBPCB",22-03-2026 08:00:00,22.49929,88.36917,PM10,23,61,35
India,West_Bengal,Kolkata,"Jadavpur, Kolkata - WBPCB",22-03-2026 08:00:00,22.49929,88.36917,CO,23,30,27
India,West_Bengal,Kolkata,"Jadavpur, Kolkata - WBPCB",22-03-2026 08:00:00,22.49929,88.36917,OZONE,4,10,5
India,West_Bengal,Kolkata,"Rabindra Sarobar, Kolkata - WBPCB",22-03-2026 08:00:00,22.51106,88.35142,PM2.5,16,43,29
India,West_Bengal,Kolkata,"Rabindra Sarobar, Kolkata - WBPCB",22-03-2026 08:00:00,22.51106,88.35142,NH3,7,10,8
India,West_Bengal,Kolkata,"Rabindra Sarobar, Kolkata - WBPCB",22-03-2026 08:00:00,22.51106,88.35142,CO,13,39,16
India,West_Bengal,Kolkata,"Victoria, Kolkata - WBPCB",22-03-2026 08:00:00,22.5448082,88.3403691,PM2.5,28,61,41
India,West_Bengal,Kolkata,"Victoria, Kolkata - WBPCB",22-03-2026 08:00:00,22.5448082,88.3403691,SO2,8,17,12
India,Andhra_Pradesh,Eluru,"District Court, Eluru - APPCB",22-03-2026 08:00:00,16.711754,81.092095,OZONE,1,35,2
India,Andhra_Pradesh,Guntur,"Rajendra Nagar North, Guntur - APPCB",22-03-2026 08:00:00,16.316553,80.413302,NO2,13,26,18
India,Andhra_Pradesh,Guntur,"Rajendra Nagar North, Guntur - APPCB",22-03-2026 08:00:00,16.316553,80.413302,CO,8,60,14
India,Andhra_Pradesh,Guntur,"Rajendra Nagar North, Guntur - APPCB",22-03-2026 08:00:00,16.316553,80.413302,OZONE,24,43,28
India,Andhra_Pradesh,Kadapa,"Yerramukkapalli, Kadapa - APPCB",22-03-2026 08:00:00,14.465052,78.824187,PM10,58,74,65
India,Andhra_Pradesh,Kadapa,"Yerramukkapalli, Kadapa - APPCB",22-03-2026 08:00:00,14.465052,78.824187,NH3,4,5,5
India,Andhra_Pradesh,Kadapa,"Yerramukkapalli, Kadapa - APPCB",22-03-2026 08:00:00,14.465052,78.824187,CO,10,24,11
India,Andhra_Pradesh,Machilipatnam,"Srinivas Nagar Colony, Machilipatnam - APPCB",22-03-2026 08:00:00,16.186555,81.13219,PM2.5,62,427,87
India,Andhra_Pradesh,Visakhapatnam,"GVM Corporation, Visakhapatnam - APPCB",22-03-2026 08:00:00,17.72,83.3,SO2,1,102,20
India,Arunachal_Pradesh,Naharlagun,"Naharlagun, Naharlagun - APSPCB",22-03-2026 08:00:00,27.103358,93.679645,PM2.5,2,97,46
India,Assam,Byrnihat,"Central Academy for SFS, Byrnihat - PCBA",22-03-2026 08:00:00,26.071318,91.87488,PM2.5,NA,NA,NA
India,Assam,Byrnihat,"Central Academy for SFS, Byrnihat - PCBA",22-03-2026 08:00:00,26.071318,91.87488,NO2,NA,NA,NA
India,Assam,Byrnihat,"Central Academy for SFS, Byrnihat - PCBA",22-03-2026 08:00:00,26.071318,91.87488,OZONE,NA,NA,NA
India,Assam,Guwahati,"IITG, Guwahati - PCBA",22-03-2026 08:00:00,26.2028636,91.70046436,PM2.5,29,127,48
India,Assam,Guwahati,"Pan Bazaar, Guwahati - PCBA",22-03-2026 08:00:00,26.187500,91.744194,NH3,1,2,1
India,Assam,Guwahati,"Railway Colony, Guwahati - PCBA",22-03-2026 08:00:00,26.181742,91.78063,NO2,2,4,3
India,Assam,Nalbari,"Bata Chowk, Nalbari - PCBA",22-03-2026 08:00:00,26.446912,91.439057,PM10,50,102,72
India,Assam,Nalbari,"Bata Chowk, Nalbari - PCBA",22-03-2026 08:00:00,26.446912,91.439057,SO2,7,8,8
India,Assam,Silchar,"Tarapur, Silchar - PCBA",22-03-2026 08:00:00,24.82827,92.79525,NH3,1,1,1
India,Assam,Sivasagar,"Girls College, Sivasagar - PCBA",22-03-2026 08:00:00,26.987634,94.636574,PM2.5,17,46,32
India,Assam,Sivasagar,"Girls College, Sivasagar - PCBA",22-03-2026 08:00:00,26.987634,94.636574,NO2,26,37,32
India,Assam,Sivasagar,"Girls College, Sivasagar - PCBA",22-03-2026 08:00:00,26.987634,94.636574,SO2,8,9,9
India,Assam,Sivasagar,"Girls College, Sivasagar - PCBA",22-03-2026 08:00:00,26.987634,94.636574,CO,14,34,22
India,Andhra_Pradesh,Amaravati,"Secretariat, Amaravati - APPCB",22-03-2026 08:00:00,16.5150833,80.5181667,PM2.5,12,78,35
India,Andhra_Pradesh,Amaravati,"Secretariat, Amaravati - APPCB",22-03-2026 08:00:00,16.5150833,80.5181667,PM10,19,96,48
India,Andhra_Pradesh,Amaravati,"Secretariat, Amaravati - APPCB",22-03-2026 08:00:00,16.5150833,80.5181667,NH3,2,2,2
India,Andhra_Pradesh,Amaravati,"Secretariat, Amaravati - APPCB",22-03-2026 08:00:00,16.5150833,80.5181667,SO2,1,9,6
India,Andhra_Pradesh,Anantapur,"Gulzarpet, Anantapur - APPCB",22-03-2026 08:00:00,14.675886,77.593027,PM2.5,47,101,71
India,Andhra_Pradesh,Anantapur,"Gulzarpet, Anantapur - APPCB",22-03-2026 08:00:00,14.675886,77.593027,PM10,50,103,74
India,Andhra_Pradesh,Anantapur,"Gulzarpet, Anantapur - APPCB",22-03-2026 08:00:00,14.675886,77.593027,NO2,16,32,20
India,Andhra_Pradesh,Chittoor,"Gangineni Cheruvu, Chittoor - APPCB",22-03-2026 08:00:00,13.204880,79.097889,PM10,NA,NA,NA
India,Andhra_Pradesh,Tirumala,"Toll Gate, Tirumala - APPCB",22-03-2026 08:00:00,13.67,79.35,NH3,2,4,3
India,Andhra_Pradesh,Tirumala,"Toll Gate, Tirumala - APPCB",22-03-2026 08:00:00,13.67,79.35,SO2,3,8,5
India,Andhra_Pradesh,Tirupati,"Vaikuntapuram, Tirupati - APPCB",22-03-2026 08:00:00,13.615387,79.409230,PM2.5,48,74,60
India,Andhra_Pradesh,Tirupati,"Vaikuntapuram, Tirupati - APPCB",22-03-2026 08:00:00,13.615387,79.409230,NH3,4,7,5
India,Andhra_Pradesh,Vijayawada,"HB Colony, Vijayawada - APPCB",22-03-2026 08:00:00,16.536107,80.594233,PM10,50,88,63
India,Andhra_Pradesh,Vijayawada,"HB Colony, Vijayawada - APPCB",22-03-2026 08:00:00,16.536107,80.594233,NH3,3,5,3
India,Bihar,Buxar,"Charitra Van, Buxar - BSPCB",22-03-2026 08:00:00,25.567520,83.966379,NH3,3,3,3
India,Bihar,Chhapra,"Darshan Nagar, Chhapra - BSPCB",22-03-2026 08:00:00,25.7808257,84.7446768,NH3,5,9,7
India,Bihar,Gaya,"Collectorate, Gaya - BSPCB",22-03-2026 08:00:00,24.7955,84.9994,OZONE,17,19,18
India,Bihar,Gaya,"Kareemganj, Gaya - BSPCB",22-03-2026 08:00:00,24.792403,84.992416,PM2.5,27,167,67
India,Bihar,Arrah,"New DM Office, Arrah - BSPCB",22-03-2026 08:00:00,25.5626095,84.663264,NH3,2,2,2
India,Bihar,Aurangabad,"Gurdeo Nagar, Aurangabad - BSPCB",22-03-2026 08:00:00,24.75746,84.366208,SO2,1,16,7
India,Bihar,Aurangabad,"Gurdeo Nagar, Aurangabad - BSPCB",22-03-2026 08:00:00,24.75746,84.366208,CO,101,103,102
India,Bihar,Begusarai,"Lohiyanagar, Begusarai - BSPCB",22-03-2026 08:00:00,25.42742023,86.13886079,PM10,5,110,48
India,Bihar,Bettiah,"Kamalnath Nagar, Bettiah - BSPCB",22-03-2026 08:00:00,26.80365,84.51954,OZONE,20,30,23
India,Bihar,Bhagalpur,"DM Office_Kachari Chowk, Bhagalpur - BSPCB",22-03-2026 08:00:00,25.251013,86.989001,CO,6,14,10
India,Bihar,Bihar Sharif,"D M Colony, Bihar Sharif - BSPCB",22-03-2026 08:00:00,25.204762,85.514960,PM10,16,43,27
India,Andhra_Pradesh,Vijayawada,"Kanuru, Vijayawada - APPCB",22-03-2026 08:00:00,16.486692,80.699436,CO,NA,NA,NA
India,Andhra_Pradesh,Vijayawada,"Rajiv Gandhi Park, Vijayawada - APPCB",22-03-2026 08:00:00,16.509717,80.612222,NO2,17,46,29
India,Andhra_Pradesh,Vijayawada,"Rajiv Nagar, Vijayawada - APPCB",22-03-2026 08:00:00,16.554731,80.649110,SO2,NA,NA,NA
India,Andhra_Pradesh,Tirumala,"Toll Gate, Tirumala - APPCB",22-03-2026 08:00:00,13.67,79.35,PM2.5,12,79,46
India,Bihar,Munger,"Town Hall, Munger - BSPCB",22-03-2026 08:00:00,25.376776,86.471523,PM2.5,3,13,9
India,Bihar,Muzaffarpur,"Buddha Colony, Muzaffarpur - BSPCB",22-03-2026 08:00:00,26.11442,85.39813,NH3,10,19,15
India,Bihar,Muzaffarpur,"Buddha Colony, Muzaffarpur - BSPCB",22-03-2026 08:00:00,26.11442,85.39813,SO2,1,5,3
India,Bihar,Muzaffarpur,"Muzaffarpur Collectorate, Muzaffarpur - BSPCB",22-03-2026 08:00:00,26.1209,85.3647,PM2.5,47,90,57
India,Bihar,Muzaffarpur,"Muzaffarpur Collectorate, Muzaffarpur - BSPCB",22-03-2026 08:00:00,26.1209,85.3647,NO2,9,12,10
India,Bihar,Patna,"DRM Office Danapur, Patna - BSPCB",22-03-2026 08:00:00,25.586562,85.043586,NO2,48,55,51
India,Bihar,Patna,"Govt. High School Shikarpur, Patna - BSPCB",22-03-2026 08:00:00,25.592539,85.227158,PM2.5,70,81,75
India,Bihar,Patna,"Govt. High School Shikarpur, Patna - BSPCB",22-03-2026 08:00:00,25.592539,85.227158,NH3,4,5,5
India,Chhattisgarh,Kunjemura,"OP Jindal School, Kunjemura - CECB",22-03-2026 08:00:00,22.126650,83.483212,NH3,2,2,2
India,Chhattisgarh,Kunjemura,"OP Jindal School, Kunjemura - CECB",22-03-2026 08:00:00,22.126650,83.483212,SO2,7,29,18
India,Chhattisgarh,Milupara,"Govt. Higher Secondary School, Milupara - CECB",22-03-2026 08:00:00,22.1910172,83.5197009,CO,NA,NA,NA
India,Chhattisgarh,Raipur,"AIIMS, Raipur - CECB",22-03-2026 08:00:00,21.258815,81.578979,NH3,4,4,4
India,Chhattisgarh,Raipur,"AIIMS, Raipur - CECB",22-03-2026 08:00:00,21.258815,81.578979,CO,18,40,28
India,Chhattisgarh,Raipur,"Bhatagaon New ISBT, Raipur - CECB",22-03-2026 08:00:00,21.219665,81.630094,PM2.5,9,37,20
India,Bihar,Hajipur,"Industrial Area, Hajipur - BSPCB",22-03-2026 08:00:00,25.697189,85.245900,PM10,32,95,69
India,Bihar,Hajipur,"Industrial Area, Hajipur - BSPCB",22-03-2026 08:00:00,25.697189,85.245900,NH3,9,11,10
India,Bihar,Katihar,"Mirchaibari, Katihar - BSPCB",22-03-2026 08:00:00,25.560083,87.553265,CO,66,89,75
India,Bihar,Manguraha,"Forest Rest House, Manguraha - BSPCB",22-03-2026 08:00:00,27.308328,84.531742,SO2,16,17,16
India,Bihar,Motihari,"Gandak Colony, Motihari - BSPCB",22-03-2026 08:00:00,26.63086,84.90051,SO2,3,3,3
India,Bihar,Patna,"Muradpur, Patna - BSPCB",22-03-2026 08:00:00,25.619651,85.147382,NO2,10,12,11
India,Bihar,Patna,"Rajbansi Nagar, Patna - BSPCB",22-03-2026 08:00:00,25.599486,85.113666,PM2.5,26,41,33
India,Bihar,Patna,"Rajbansi Nagar, Patna - BSPCB",22-03-2026 08:00:00,25.599486,85.113666,NH3,1,4,1
India,Bihar,Patna,"Rajbansi Nagar, Patna - BSPCB",22-03-2026 08:00:00,25.599486,85.113666,SO2,1,8,3
India,Bihar,Purnia,"Mariam Nagar, Purnia - BSPCB",22-03-2026 08:00:00,25.366336,87.117468,PM2.5,NA,NA,NA
India,Bihar,Samastipur,"DM Office_Kasipur, Samastipur - BSPCB",22-03-2026 08:00:00,25.859655,85.77944,OZONE,NA,NA,NA
India,Bihar,Siwan,"Chitragupta Nagar, Siwan - BSPCB",22-03-2026 08:00:00,26.2271665,84.3570427,PM2.5,3,13,9
India,Bihar,Siwan,"Chitragupta Nagar, Siwan - BSPCB",22-03-2026 08:00:00,26.2271665,84.3570427,NH3,1,1,1
India,Bihar,Siwan,"Chitragupta Nagar, Siwan - BSPCB",22-03-2026 08:00:00,26.2271665,84.3570427,OZONE,14,16,15
India,Chhattisgarh,Bhilai,"Civic Center, Bhilai - Bhilai Steel Plant",22-03-2026 08:00:00,21.185571,81.343175,NH3,3,3,3
India,Chhattisgarh,Bhilai,"Hathkhoj, Bhilai - CECB",22-03-2026 08:00:00,21.224231,81.408350,PM10,19,46,28
India,Chhattisgarh,Bhilai,"Hathkhoj, Bhilai - CECB",22-03-2026 08:00:00,21.224231,81.408350,NO2,21,75,40
India,Chhattisgarh,Chhal,"Nawapara SECL Colony, Chhal - CECB",22-03-2026 08:00:00,22.118125,83.140608,PM2.5,17,48,30
India,Chhattisgarh,Chhal,"Nawapara SECL Colony, Chhal - CECB",22-03-2026 08:00:00,22.118125,83.140608,CO,20,34,23
India,Chhattisgarh,Korba,"Rampur, Korba - CECB",22-03-2026 08:00:00,22.368195,82.746431,PM2.5,7,28,19
India,Chandigarh,Chandigarh,"Sector-25, Chandigarh - CPCC",22-03-2026 08:00:00,30.751462,76.762879,NO2,NA,NA,NA
India,Chandigarh,Chandigarh,"Sector-53, Chandigarh - CPCC",22-03-2026 08:00:00,30.719859,76.738637,CO,28,52,40
India,Bihar,Saharsa,"Police Line, Saharsa - BSPCB",22-03-2026 08:00:00,25.892357,86.590325,NO2,NA,NA,NA
India,Bihar,Saharsa,"Police Line, Saharsa - BSPCB",22-03-2026 08:00:00,25.892357,86.590325,CO,27,40,34
India,Delhi,Delhi,"Ashok Vihar, Delhi - DPCC",22-03-2026 08:00:00,28.695381,77.181665,SO2,11,27,20
India,Delhi,Delhi,"Ashok Vihar, Delhi - DPCC",22-03-2026 08:00:00,28.695381,77.181665,CO,16,85,28
India,Delhi,Delhi,"Ashok Vihar, Delhi - DPCC",22-03-2026 08:00:00,28.695381,77.181665,OZONE,2,78,12
India,Delhi,Delhi,"Aya Nagar, Delhi - IMD",22-03-2026 08:00:00,28.4706914,77.1099364,OZONE,NA,NA,NA
India,Delhi,Delhi,"Bawana, Delhi - DPCC",22-03-2026 08:00:00,28.776200,77.051074,NH3,5,8,6
India,Delhi,Delhi,"Bawana, Delhi - DPCC",22-03-2026 08:00:00,28.776200,77.051074,SO2,7,19,10
India,Delhi,Delhi,"Bawana, Delhi - DPCC",22-03-2026 08:00:00,28.776200,77.051074,OZONE,5,52,9
India,Delhi,Delhi,"Burari Crossing, Delhi - IMD",22-03-2026 08:00:00,28.7256504,77.2011573,NO2,13,69,34
India,Delhi,Delhi,"Mundka, Delhi - DPCC",22-03-2026 08:00:00,28.684678,77.076574,CO,40,80,59
India,Delhi,Delhi,"NSIT Dwarka, Delhi - CPCB",22-03-2026 08:00:00,28.60909,77.0325413,PM2.5,79,354,235
India,Delhi,Delhi,"NSIT Dwarka, Delhi - CPCB",22-03-2026 08:00:00,28.60909,77.0325413,NO2,79,160,109
India,Delhi,Delhi,"NSIT Dwarka, Delhi - CPCB",22-03-2026 08:00:00,28.60909,77.0325413,NH3,6,9,7
India,Delhi,Delhi,"NSIT Dwarka, Delhi - CPCB",22-03-2026 08:00:00,28.60909,77.0325413,SO2,11,20,14
India,Delhi,Delhi,"NSUT Jaffarpur, Delhi - DPCC",22-03-2026 08:00:00,28.594004 ,76.909423 ,NO2,1,84,40
India,Delhi,Delhi,"Dr. Karni Singh Shooting Range, Delhi - DPCC",22-03-2026 08:00:00,28.498571,77.264840,NH3,7,11,8
India,Delhi,Delhi,"Dr. Karni Singh Shooting Range, Delhi - DPCC",22-03-2026 08:00:00,28.498571,77.264840,SO2,12,18,14
India,Delhi,Delhi,"Dwarka-Sector 8, Delhi - DPCC ",22-03-2026 08:00:00,28.5710274,77.0719006,NH3,11,12,11
India,Delhi,Delhi,"IGI Airport (T3), Delhi - IMD",22-03-2026 08:00:00,28.5627763,77.1180053,OZONE,3,94,8
India,Delhi,Delhi,"Alipur, Delhi - DPCC",22-03-2026 08:00:00,28.815329,77.153010,PM2.5,38,240,109
India,Delhi,Delhi,"Alipur, Delhi - DPCC",22-03-2026 08:00:00,28.815329,77.153010,PM10,50,233,117
India,Delhi,Delhi,"Alipur, Delhi - DPCC",22-03-2026 08:00:00,28.815329,77.153010,CO,44,76,57
India,Delhi,Delhi,"Anand Vihar, Delhi - DPCC",22-03-2026 08:00:00,28.647622,77.3158090,PM10,47,414,216
India,Chhattisgarh,Raipur,"Krishak Nagar, Raipur - CECB",22-03-2026 08:00:00,21.237755,81.705301,CO,9,26,19
India,Chhattisgarh,Raipur,"Siltara Phase-II, Raipur - CECB",22-03-2026 08:00:00,21.371751,81.664929,PM10,12,157,61
India,Chhattisgarh,Raipur,"Siltara Phase-II, Raipur - CECB",22-03-2026 08:00:00,21.371751,81.664929,NO2,NA,NA,NA
India,Delhi,Delhi,"Lodhi Road, Delhi - IMD",22-03-2026 08:00:00,28.5918245,77.2273074,NO2,13,40,25
India,Delhi,Delhi,"Major Dhyan Chand National Stadium, Delhi - DPCC",22-03-2026 08:00:00,28.611281,77.237738,NH3,15,19,16
India,Delhi,Delhi,"ITO, Delhi - CPCB",22-03-2026 08:00:00,28.628624,77.241060,NH3,3,5,3
India,Delhi,Delhi,"Jahangirpuri, Delhi - DPCC",22-03-2026 08:00:00,28.732820,77.170633,PM2.5,55,346,201
India,Delhi,Delhi,"IHBAS, Dilshad Garden, Delhi - CPCB",22-03-2026 08:00:00,28.6811736,77.3025234,NO2,34,87,68
India,Delhi,Delhi,"IHBAS, Dilshad Garden, Delhi - CPCB",22-03-2026 08:00:00,28.6811736,77.3025234,NH3,4,17,9
India,Delhi,Delhi,"DTU, Delhi - CPCB",22-03-2026 08:00:00,28.7500499,77.1112615,SO2,26,42,30
India,Delhi,Delhi,"Sonia Vihar, Delhi - DPCC",22-03-2026 08:00:00,28.710508,77.249485,NH3,6,8,7
India,Delhi,Delhi,"Sonia Vihar, Delhi - DPCC",22-03-2026 08:00:00,28.710508,77.249485,SO2,38,57,47
India,Delhi,Delhi,"Sonia Vihar, Delhi - DPCC",22-03-2026 08:00:00,28.710508,77.249485,CO,22,101,71
India,Delhi,Delhi,"Sonia Vihar, Delhi - DPCC",22-03-2026 08:00:00,28.710508,77.249485,OZONE,6,147,8
India,Delhi,Delhi,"Talkatora Garden, Delhi - DPCC",22-03-2026 08:00:00,28.621810,77.1944633,PM2.5,39,269,105
India,Delhi,Delhi,"Talkatora Garden, Delhi - DPCC",22-03-2026 08:00:00,28.621810,77.1944633,NO2,7,31,12
India,Delhi,Delhi,"Shadipur, Delhi - CPCB",22-03-2026 08:00:00,28.6514781,77.1473105,CO,10,68,38
India,Delhi,Delhi,"Sirifort, Delhi - CPCB",22-03-2026 08:00:00,28.5504249,77.2159377,PM10,87,201,139
India,Delhi,Delhi,"Sirifort, Delhi - CPCB",22-03-2026 08:00:00,28.5504249,77.2159377,NH3,9,14,11
India,Delhi,Delhi,"Sirifort, Delhi - CPCB",22-03-2026 08:00:00,28.5504249,77.2159377,CO,9,51,40
India,Delhi,Delhi,"Sonia Vihar, Delhi - DPCC",22-03-2026 08:00:00,28.710508,77.249485,PM2.5,45,325,140
India,Delhi,Delhi,"NSUT Jaffarpur, Delhi - DPCC",22-03-2026 08:00:00,28.594004 ,76.909423 ,OZONE,7,76,12
India,Delhi,Delhi,"Najafgarh, Delhi - DPCC",22-03-2026 08:00:00,28.570173,76.933762,NH3,4,14,11
India,Delhi,Delhi,"Najafgarh, Delhi - DPCC",22-03-2026 08:00:00,28.570173,76.933762,OZONE,1,48,3
India,Delhi,Delhi,"Narela, Delhi - DPCC",22-03-2026 08:00:00,28.822836,77.101981,PM2.5,42,336,143
India,Delhi,Delhi,"New Moti Bagh, Delhi - MHUA",22-03-2026 08:00:00,28.57834,77.18400,NO2,9,9,9
India,Delhi,Delhi,"North Campus, DU, Delhi - IMD",22-03-2026 08:00:00,28.6573814,77.1585447,PM2.5,42,205,109
India,Delhi,Delhi,"North Campus, DU, Delhi - IMD",22-03-2026 08:00:00,28.6573814,77.1585447,PM10,41,224,125
India,Delhi,Delhi,"North Campus, DU, Delhi - IMD",22-03-2026 08:00:00,28.6573814,77.1585447,CO,58,124,83
India,Delhi,Delhi,"Vivek Vihar, Delhi - DPCC",22-03-2026 08:00:00,28.672342,77.315260,OZONE,5,66,7
India,Delhi,Delhi,"Wazirpur, Delhi - DPCC",22-03-2026 08:00:00,28.699793,77.165453,PM2.5,48,319,170
India,Gujarat,Ahmedabad,"Chandkheda, Ahmedabad - IITM",22-03-2026 08:00:00,23.107969,72.574648,PM2.5,30,87,60
India,Gujarat,Ahmedabad,"Chandkheda, Ahmedabad - IITM",22-03-2026 08:00:00,23.107969,72.574648,CO,3,62,22
India,Gujarat,Ahmedabad,"Chandkheda, Ahmedabad - IITM",22-03-2026 08:00:00,23.107969,72.574648,OZONE,24,124,35
India,Gujarat,Ahmedabad,"Gyaspur, Ahmedabad - IITM",22-03-2026 08:00:00,22.977134,72.553024,PM2.5,43,268,136
India,Delhi,Delhi,"Rohini, Delhi - DPCC",22-03-2026 08:00:00,28.732528,77.119920,OZONE,11,144,29
India,Delhi,Delhi,"Shadipur, Delhi - CPCB",22-03-2026 08:00:00,28.6514781,77.1473105,PM2.5,23,205,102
India,Delhi,Delhi,"Patparganj, Delhi - DPCC",22-03-2026 08:00:00,28.623763,77.287209,SO2,2,21,9
India,Delhi,Delhi,"Pusa, Delhi - IMD",22-03-2026 08:00:00,28.636110,77.173332,CO,5,88,31
India,Gujarat,Gandhinagar,"GIFT City, Gandhinagar - IITM",22-03-2026 08:00:00,23.163798,72.677768,OZONE,2,67,16
India,Gujarat,Gandhinagar,"IIPHG Lekawada, Gandhinagar - IITM",22-03-2026 08:00:00,23.243639,72.68994,NH3,5,11,7
India,Gujarat,Gandhinagar,"IIPHG Lekawada, Gandhinagar - IITM",22-03-2026 08:00:00,23.243639,72.68994,SO2,2,4,2
India,Gujarat,Gandhinagar,"IIPHG Lekawada, Gandhinagar - IITM",22-03-2026 08:00:00,23.243639,72.68994,OZONE,1,26,2
India,Gujarat,Gandhinagar,"Sector-10, Gandhinagar - GPCB",22-03-2026 08:00:00,23.221714,72.654328,SO2,5,12,9
India,Gujarat,Mehsana,"Sadanand Nagar, Mehsana - Nexteng Enviro",22-03-2026 08:00:00,23.593150,72.372792,NO2,22,57,42
India,Gujarat,Mehsana,"Sadanand Nagar, Mehsana - Nexteng Enviro",22-03-2026 08:00:00,23.593150,72.372792,SO2,3,7,5
India,Gujarat,Surat,"Science Center, Surat - SMC",22-03-2026 08:00:00,21.170046,72.795405,NO2,19,26,23
India,Gujarat,Surat,"Science Center, Surat - SMC",22-03-2026 08:00:00,21.170046,72.795405,SO2,22,33,26
India,Gujarat,Surat,"Science Center, Surat - SMC",22-03-2026 08:00:00,21.170046,72.795405,CO,60,100,95
India,Gujarat,Vadodara,"Bapunagar, Vadodara - Nexteng Enviro",22-03-2026 08:00:00,22.320153,73.216285,OZONE,3,101,15
India,Gujarat,Vapi,"Phase-1 GIDC, Vapi - GPCB",22-03-2026 08:00:00,20.362421,72.918013,PM2.5,23,185,63
India,Gujarat,Vapi,"Phase-1 GIDC, Vapi - GPCB",22-03-2026 08:00:00,20.362421,72.918013,OZONE,5,30,6
India,Gujarat,Ahmedabad,"SAC ISRO Satellite, Ahmedabad - IITM",22-03-2026 08:00:00,23.023389,72.515201,NH3,2,10,5
India,Gujarat,Ahmedabad,"SVPI Airport Hansol, Ahmedabad - IITM",22-03-2026 08:00:00,23.076793,72.627874,PM10,59,184,116
India,Gujarat,Surat,"Katargam, Surat - Nexteng Enviro",22-03-2026 08:00:00,21.217779 ,72.834787 ,PM2.5,37,228,92
India,Gujarat,Surat,"Katargam, Surat - Nexteng Enviro",22-03-2026 08:00:00,21.217779 ,72.834787 ,NO2,16,40,27
India,Gujarat,Surat,"Katargam, Surat - Nexteng Enviro",22-03-2026 08:00:00,21.217779 ,72.834787 ,NH3,2,4,3
India,Gujarat,Ahmedabad,"SAC ISRO Bopal, Ahmedabad - IITM",22-03-2026 08:00:00,23.041137,72.456691,SO2,7,15,10
India,Gujarat,Ahmedabad,"SAC ISRO Satellite, Ahmedabad - IITM",22-03-2026 08:00:00,23.023389,72.515201,PM10,82,161,110
India,Gujarat,Ahmedabad,"Rakhial, Ahmedabad - IITM",22-03-2026 08:00:00,23.016834,72.625775,PM10,91,172,126
India,Gujarat,Ahmedabad,"Rakhial, Ahmedabad - IITM",22-03-2026 08:00:00,23.016834,72.625775,OZONE,2,81,7
India,Haryana,Dharuhera,"Municipal Corporation Office, Dharuhera -  HSPCB",22-03-2026 08:00:00,28.206800,76.799700,PM10,65,175,111
India,Gujarat,Bhavnagar,"Vidhyanagar, Bhavnagar - Nexteng Enviro",22-03-2026 08:00:00,21.755417,72.139056,OZONE,5,9,6
India,Haryana,Ambala,"Patti Mehar, Ambala - HSPCB",22-03-2026 08:00:00,30.379589,76.778328,PM2.5,65,118,86
India,Haryana,Palwal,"Shyam Nagar, Palwal - HSPCB",22-03-2026 08:00:00,28.1485564,77.3320667,PM2.5,61,79,70
India,Haryana,Palwal,"Shyam Nagar, Palwal - HSPCB",22-03-2026 08:00:00,28.1485564,77.3320667,PM10,72,94,83
India,Haryana,Palwal,"Shyam Nagar, Palwal - HSPCB",22-03-2026 08:00:00,28.1485564,77.3320667,SO2,9,12,10
India,Haryana,Palwal,"Shyam Nagar, Palwal - HSPCB",22-03-2026 08:00:00,28.1485564,77.3320667,OZONE,8,8,8
India,Haryana,Panchgaon,"Amity University, Panchgaon - IITM",22-03-2026 08:00:00,28.3153,76.9143,NH3,1,3,2
India,Haryana,Panchgaon,"Amity University, Panchgaon - IITM",22-03-2026 08:00:00,28.3153,76.9143,SO2,3,26,11
India,Haryana,Panipat,"Sector-18, Panipat - HSPCB",22-03-2026 08:00:00,29.432304,76.972765,NO2,31,32,31
India,Haryana,Hisar,"Urban Estate-II, Hisar - HSPCB",22-03-2026 08:00:00,29.140560,75.744941,NO2,26,27,27
India,Haryana,Hisar,"Urban Estate-II, Hisar - HSPCB",22-03-2026 08:00:00,29.140560,75.744941,NH3,10,11,11
India,Haryana,Hisar,"Urban Estate-II, Hisar - HSPCB",22-03-2026 08:00:00,29.140560,75.744941,OZONE,16,80,36
India,Haryana,Jind,"Police Lines, Jind - HSPCB",22-03-2026 08:00:00,29.307814,76.337619,NO2,24,43,34
India,Haryana,Jind,"Police Lines, Jind - HSPCB",22-03-2026 08:00:00,29.307814,76.337619,NH3,4,6,5
India,Haryana,Kaithal,"Rishi Nagar, Kaithal - HSPCB",22-03-2026 08:00:00,29.8006,76.4155,PM10,14,87,67
India,Haryana,Kaithal,"Rishi Nagar, Kaithal - HSPCB",22-03-2026 08:00:00,29.8006,76.4155,NO2,20,34,30
India,Haryana,Manesar,"Sector-2 IMT, Manesar - HSPCB",22-03-2026 08:00:00,28.360699,76.936090,PM10,36,145,99
India,Haryana,Manesar,"Sector-2 IMT, Manesar - HSPCB",22-03-2026 08:00:00,28.360699,76.936090,NH3,8,10,9
India,Haryana,Manesar,"Sector-2 IMT, Manesar - HSPCB",22-03-2026 08:00:00,28.360699,76.936090,SO2,1,11,6
India,Haryana,Manesar,"Sector-2 IMT, Manesar - HSPCB",22-03-2026 08:00:00,28.360699,76.936090,CO,6,28,23
India,Haryana,Manesar,"Sector-2 IMT, Manesar - HSPCB",22-03-2026 08:00:00,28.360699,76.936090,OZONE,10,49,14
India,Haryana,Narnaul,"Shastri Nagar, Narnaul - HSPCB",22-03-2026 08:00:00,28.060249,76.113115,PM2.5,33,171,89
India,Haryana,Faridabad,"Sector 11, Faridabad - HSPCB",22-03-2026 08:00:00,28.376058,77.315741,SO2,3,3,3
India,Haryana,Faridabad,"Sector 30, Faridabad - HSPCB",22-03-2026 08:00:00,28.4417,77.3217,CO,22,65,55
India,Haryana,Faridabad,"Sector 30, Faridabad - HSPCB",22-03-2026 08:00:00,28.4417,77.3217,OZONE,5,33,6
India,Haryana,Fatehabad,"Huda Sector, Fatehabad - HSPCB",22-03-2026 08:00:00,29.503664,75.467934,NO2,17,20,19
India,Haryana,Karnal,"Sector-12, Karnal - HSPCB",22-03-2026 08:00:00,29.695300,77.002700,SO2,6,13,10
India,Haryana,Karnal,"Sector-12, Karnal - HSPCB",22-03-2026 08:00:00,29.695300,77.002700,CO,12,14,13
India,Haryana,Kurukshetra,"Sector-7, Kurukshetra - HSPCB",22-03-2026 08:00:00,29.966942,76.875879,PM10,48,102,79
India,Haryana,Gurugram,"Teri Gram, Gurugram - HSPCB",22-03-2026 08:00:00,28.4275,77.1465,SO2,2,10,7
India,Haryana,Hisar,"Urban Estate-II, Hisar - HSPCB",22-03-2026 08:00:00,29.140560,75.744941,PM10,64,207,90
India,Haryana,Gurugram,"NISE Gwal Pahari, Gurugram - IMD",22-03-2026 08:00:00,28.422681,77.148944,CO,10,51,36
India,Haryana,Gurugram,"Sector-51, Gurugram - HSPCB",22-03-2026 08:00:00,28.4227,77.0667,PM2.5,91,412,278
India,Haryana,Mandikhera,"General Hospital, Mandikhera(Nuh) - HSPCB",22-03-2026 08:00:00,27.9002,76.9938,PM2.5,21,57,37
