country,state,city,station,last_update,latitude,longitude,pollutant_id,min_value,max_value,avg_value
India,Bihar,Bhagalpur,"Mayaganj, Bhagalpur - BSPCB",30-03-2026 08:00:00,25.265194,87.012947,NH3,5,7,6
India,Bihar,Bhagalpur,"Mayaganj, Bhagalpur - BSPCB",30-03-2026 08:00:00,25.265194,87.012947,OZONE,4,11,8
India,Bihar,Bihar Sharif,"D M Colony, Bihar Sharif - BSPCB",30-03-2026 08:00:00,25.204762,85.514960,OZONE,2,2,2
India,Bihar,Buxar,"Charitra Van, Buxar - BSPCB",30-03-2026 08:00:00,25.567520,83.966379,PM10,40,73,56
India,Bihar,Buxar,"Charitra Van, Buxar - BSPCB",30-03-2026 08:00:00,25.567520,83.966379,NO2,9,10,9
India,Bihar,Chhapra,"Darshan Nagar, Chhapra - BSPCB",30-03-2026 08:00:00,25.7808257,84.7446768,NH3,9,18,15
India,Bihar,Chhapra,"Darshan Nagar, Chhapra - BSPCB",30-03-2026 08:00:00,25.7808257,84.7446768,SO2,20,23,21
India,Bihar,Chhapra,"Darshan Nagar, Chhapra - BSPCB",30-03-2026 08:00:00,25.7808257,84.7446768,OZONE,2,9,3
India,Bihar,Gaya,"Collectorate, Gaya - BSPCB",30-03-2026 08:00:00,24.7955,84.9994,PM2.5,32,307,112
India,Andhra_Pradesh,Nellore,"Ambedkar Nagar, Nellore - APPCB ",30-03-2026 08:00:00,14.438164 ,79.966814 ,NO2,14,18,16
India,Andhra_Pradesh,Nellore,"Ambedkar Nagar, Nellore - APPCB ",30-03-2026 08:00:00,14.438164 ,79.966814 ,CO,10,23,12
India,Andhra_Pradesh,Nellore,"Ambedkar Nagar, Nellore - APPCB ",30-03-2026 08:00:00,14.438164 ,79.966814 ,OZONE,5,50,6
India,Andhra_Pradesh,Tirumala,"Toll Gate, Tirumala - APPCB",30-03-2026 08:00:00,13.67,79.35,PM2.5,47,139,85
India,Andhra_Pradesh,Tirumala,"Toll Gate, Tirumala - APPCB",30-03-2026 08:00:00,13.67,79.35,NH3,3,3,3
India,Andhra_Pradesh,Tirumala,"Toll Gate, Tirumala - APPCB",30-03-2026 08:00:00,13.67,79.35,SO2,2,19,7
India,Andhra_Pradesh,Tirupati,"Vaikuntapuram, Tirupati - APPCB",30-03-2026 08:00:00,13.615387,79.409230,OZONE,18,23,18
India,Andhra_Pradesh,Vijayawada,"HB Colony, Vijayawada - APPCB",30-03-2026 08:00:00,16.536107,80.594233,NH3,3,5,3
India,Andhra_Pradesh,Vijayawada,"Kanuru, Vijayawada - APPCB",30-03-2026 08:00:00,16.486692,80.699436,NO2,NA,NA,NA
India,Andhra_Pradesh,Eluru,"District Court, Eluru - APPCB",30-03-2026 08:00:00,16.711754,81.092095,CO,9,20,15
India,Andhra_Pradesh,Guntur,"Rajendra Nagar North, Guntur - APPCB",30-03-2026 08:00:00,16.316553,80.413302,PM10,45,58,51
India,Andhra_Pradesh,Guntur,"Rajendra Nagar North, Guntur - APPCB",30-03-2026 08:00:00,16.316553,80.413302,NH3,4,6,5
India,Andhra_Pradesh,Guntur,"Rajendra Nagar North, Guntur - APPCB",30-03-2026 08:00:00,16.316553,80.413302,OZONE,20,31,20
India,Andhra_Pradesh,Kadapa,"Yerramukkapalli, Kadapa - APPCB",30-03-2026 08:00:00,14.465052,78.824187,NH3,3,6,6
India,Andhra_Pradesh,Kadapa,"Yerramukkapalli, Kadapa - APPCB",30-03-2026 08:00:00,14.465052,78.824187,SO2,9,18,16
India,Andhra_Pradesh,Machilipatnam,"Srinivas Nagar Colony, Machilipatnam - APPCB",30-03-2026 08:00:00,16.186555,81.13219,OZONE,NA,NA,NA
India,Bihar,Aurangabad,"Gurdeo Nagar, Aurangabad - BSPCB",30-03-2026 08:00:00,24.75746,84.366208,NO2,7,8,8
India,Bihar,Aurangabad,"Gurdeo Nagar, Aurangabad - BSPCB",30-03-2026 08:00:00,24.75746,84.366208,OZONE,1,39,4
India,Bihar,Begusarai,"Lohiyanagar, Begusarai - BSPCB",30-03-2026 08:00:00,25.42742023,86.13886079,SO2,36,41,39
India,Bihar,Begusarai,"Lohiyanagar, Begusarai - BSPCB",30-03-2026 08:00:00,25.42742023,86.13886079,CO,16,21,18
India,Bihar,Bettiah,"Kamalnath Nagar, Bettiah - BSPCB",30-03-2026 08:00:00,26.80365,84.51954,PM2.5,7,37,18
India,Bihar,Bhagalpur,"DM Office_Kachari Chowk, Bhagalpur - BSPCB",30-03-2026 08:00:00,25.251013,86.989001,NO2,7,9,8
India,Andhra_Pradesh,Amaravati,"Secretariat, Amaravati - APPCB",30-03-2026 08:00:00,16.5150833,80.5181667,PM2.5,23,78,52
India,Andhra_Pradesh,Amaravati,"Secretariat, Amaravati - APPCB",30-03-2026 08:00:00,16.5150833,80.5181667,OZONE,13,81,21
India,Andhra_Pradesh,Anantapur,"Gulzarpet, Anantapur - APPCB",30-03-2026 08:00:00,14.675886,77.593027,SO2,10,10,10
India,Andhra_Pradesh,Chittoor,"Gangineni Cheruvu, Chittoor - APPCB",30-03-2026 08:00:00,13.204880,79.097889,PM10,37,73,62
India,Andhra_Pradesh,Chittoor,"Gangineni Cheruvu, Chittoor - APPCB",30-03-2026 08:00:00,13.204880,79.097889,NO2,34,37,36
India,Andhra_Pradesh,Eluru,"District Court, Eluru - APPCB",30-03-2026 08:00:00,16.711754,81.092095,PM10,24,58,42
India,Assam,Silchar,"Tarapur, Silchar - PCBA",30-03-2026 08:00:00,24.82827,92.79525,SO2,5,6,6
India,Assam,Sivasagar,"Girls College, Sivasagar - PCBA",30-03-2026 08:00:00,26.987634,94.636574,CO,18,32,27
India,Bihar,Araria,"Kharahiya Basti, Araria - BSPCB",30-03-2026 08:00:00,26.146529,87.454184,PM10,31,79,52
India,Bihar,Araria,"Kharahiya Basti, Araria - BSPCB",30-03-2026 08:00:00,26.146529,87.454184,NH3,5,6,6
India,Bihar,Hajipur,"Industrial Area, Hajipur - BSPCB",30-03-2026 08:00:00,25.697189,85.245900,CO,21,34,32
India,Bihar,Katihar,"Mirchaibari, Katihar - BSPCB",30-03-2026 08:00:00,25.560083,87.553265,SO2,12,20,16
India,Bihar,Kishanganj,"SDM Office_Khagra, Kishanganj - BSPCB",30-03-2026 08:00:00,26.0881305,87.93840336,PM10,20,36,28
India,Andhra_Pradesh,Vijayawada,"Rajiv Nagar, Vijayawada - APPCB",30-03-2026 08:00:00,16.554731,80.649110,NO2,NA,NA,NA
India,Andhra_Pradesh,Vijayawada,"Rajiv Nagar, Vijayawada - APPCB",30-03-2026 08:00:00,16.554731,80.649110,CO,19,31,20
India,Assam,Byrnihat,"Central Academy for SFS, Byrnihat - PCBA",30-03-2026 08:00:00,26.071318,91.87488,SO2,32,32,32
India,Assam,Guwahati,"Railway Colony, Guwahati - PCBA",30-03-2026 08:00:00,26.181742,91.78063,SO2,1,2,1
India,Assam,Nagaon,"Christianpatty, Nagaon - PCBA",30-03-2026 08:00:00,26.349082,92.68449,PM10,16,60,34
India,Assam,Nagaon,"Christianpatty, Nagaon - PCBA",30-03-2026 08:00:00,26.349082,92.68449,SO2,11,13,12
India,Bihar,Gaya,"Kareemganj, Gaya - BSPCB",30-03-2026 08:00:00,24.792403,84.992416,SO2,41,45,43
India,Bihar,Muzaffarpur,"Buddha Colony, Muzaffarpur - BSPCB",30-03-2026 08:00:00,26.11442,85.39813,PM10,39,82,56
India,Bihar,Muzaffarpur,"Buddha Colony, Muzaffarpur - BSPCB",30-03-2026 08:00:00,26.11442,85.39813,NH3,11,19,15
India,Bihar,Muzaffarpur,"MIT-Daudpur Kothi, Muzaffarpur - BSPCB",30-03-2026 08:00:00,26.1403345,85.3650192,SO2,6,18,12
India,Bihar,Muzaffarpur,"MIT-Daudpur Kothi, Muzaffarpur - BSPCB",30-03-2026 08:00:00,26.1403345,85.3650192,OZONE,6,49,7
India,Bihar,Muzaffarpur,"Muzaffarpur Collectorate, Muzaffarpur - BSPCB",30-03-2026 08:00:00,26.1209,85.3647,PM2.5,68,94,79
India,Bihar,Muzaffarpur,"Muzaffarpur Collectorate, Muzaffarpur - BSPCB",30-03-2026 08:00:00,26.1209,85.3647,CO,16,66,28
India,Bihar,Muzaffarpur,"Muzaffarpur Collectorate, Muzaffarpur - BSPCB",30-03-2026 08:00:00,26.1209,85.3647,OZONE,4,18,5
India,Bihar,Patna,"DRM Office Danapur, Patna - BSPCB",30-03-2026 08:00:00,25.586562,85.043586,PM10,76,101,89
India,Bihar,Patna,"DRM Office Danapur, Patna - BSPCB",30-03-2026 08:00:00,25.586562,85.043586,NO2,45,55,50
India,Bihar,Patna,"DRM Office Danapur, Patna - BSPCB",30-03-2026 08:00:00,25.586562,85.043586,CO,36,54,40
India,Bihar,Patna,"DRM Office Danapur, Patna - BSPCB",30-03-2026 08:00:00,25.586562,85.043586,OZONE,25,35,30
India,Bihar,Patna,"Govt. High School Shikarpur, Patna - BSPCB",30-03-2026 08:00:00,25.592539,85.227158,PM10,53,86,70
India,Bihar,Patna,"Govt. High School Shikarpur, Patna - BSPCB",30-03-2026 08:00:00,25.592539,85.227158,NO2,10,15,13
India,Bihar,Patna,"Rajbansi Nagar, Patna - BSPCB",30-03-2026 08:00:00,25.599486,85.113666,NH3,1,1,1
India,Bihar,Patna,"Samanpura, Patna - BSPCB",30-03-2026 08:00:00,25.596727,85.085624,PM10,78,134,109
India,Bihar,Patna,"Samanpura, Patna - BSPCB",30-03-2026 08:00:00,25.596727,85.085624,NO2,34,40,37
India,Bihar,Patna,"Samanpura, Patna - BSPCB",30-03-2026 08:00:00,25.596727,85.085624,NH3,3,3,3
India,Bihar,Patna,"Samanpura, Patna - BSPCB",30-03-2026 08:00:00,25.596727,85.085624,CO,38,55,46
India,Bihar,Patna,"Samanpura, Patna - BSPCB",30-03-2026 08:00:00,25.596727,85.085624,OZONE,26,36,31
India,Bihar,Purnia,"Mariam Nagar, Purnia - BSPCB",30-03-2026 08:00:00,25.366336,87.117468,PM2.5,60,70,64
India,Bihar,Saharsa,"Police Line, Saharsa - BSPCB",30-03-2026 08:00:00,25.892357,86.590325,SO2,14,17,15
India,Bihar,Samastipur,"DM Office_Kasipur, Samastipur - BSPCB",30-03-2026 08:00:00,25.859655,85.77944,PM2.5,35,90,50
India,Chhattisgarh,Bhilai,"Civic Center, Bhilai - Bhilai Steel Plant",30-03-2026 08:00:00,21.185571,81.343175,NO2,13,14,13
India,Chhattisgarh,Bhilai,"Civic Center, Bhilai - Bhilai Steel Plant",30-03-2026 08:00:00,21.185571,81.343175,SO2,7,10,8
India,Chhattisgarh,Bhilai,"Hathkhoj, Bhilai - CECB",30-03-2026 08:00:00,21.224231,81.408350,PM2.5,18,46,36
India,Chhattisgarh,Bhilai,"Hathkhoj, Bhilai - CECB",30-03-2026 08:00:00,21.224231,81.408350,CO,14,80,51
India,Chhattisgarh,Bilaspur,"Mangala, Bilaspur - NTPC",30-03-2026 08:00:00,22.08815,82.13737,NO2,29,113,34
India,Chhattisgarh,Chhal,"Nawapara SECL Colony, Chhal - CECB",30-03-2026 08:00:00,22.118125,83.140608,PM10,NA,NA,NA
India,Chhattisgarh,Korba,"Rampur, Korba - CECB",30-03-2026 08:00:00,22.368195,82.746431,NH3,1,1,1
India,Chhattisgarh,Korba,"Rampur, Korba - CECB",30-03-2026 08:00:00,22.368195,82.746431,OZONE,NA,NA,NA
India,Chhattisgarh,Korba,"Urja Nagar, Korba - CECB",30-03-2026 08:00:00,22.348441,82.549611,PM10,38,254,94
India,Chhattisgarh,Korba,"Urja Nagar, Korba - CECB",30-03-2026 08:00:00,22.348441,82.549611,NH3,1,1,1
India,Chhattisgarh,Raipur,"AIIMS, Raipur - CECB",30-03-2026 08:00:00,21.258815,81.578979,SO2,5,10,7
India,Chhattisgarh,Raipur,"Bhatagaon New ISBT, Raipur - CECB",30-03-2026 08:00:00,21.219665,81.630094,PM2.5,15,47,32
India,Chhattisgarh,Raipur,"Bhatagaon New ISBT, Raipur - CECB",30-03-2026 08:00:00,21.219665,81.630094,OZONE,1,7,1
India,Chhattisgarh,Raipur,"Krishak Nagar, Raipur - CECB",30-03-2026 08:00:00,21.237755,81.705301,PM10,34,66,50
India,Chhattisgarh,Raipur,"Krishak Nagar, Raipur - CECB",30-03-2026 08:00:00,21.237755,81.705301,NO2,12,32,17
India,Chhattisgarh,Tumidih,"OP Jindal Industrial Park, Tumidih - CECB",30-03-2026 08:00:00,22.06631475,83.33820077,NH3,1,3,1
India,Delhi,Delhi,"Alipur, Delhi - DPCC",30-03-2026 08:00:00,28.815329,77.153010,NO2,17,44,27
India,Delhi,Delhi,"Alipur, Delhi - DPCC",30-03-2026 08:00:00,28.815329,77.153010,CO,10,50,43
India,Delhi,Delhi,"Anand Vihar, Delhi - DPCC",30-03-2026 08:00:00,28.647622,77.3158090,SO2,11,64,41
India,Delhi,Delhi,"Anand Vihar, Delhi - DPCC",30-03-2026 08:00:00,28.647622,77.3158090,OZONE,12,98,16
India,Delhi,Delhi,"Ashok Vihar, Delhi - DPCC",30-03-2026 08:00:00,28.695381,77.181665,PM2.5,65,277,142
India,Delhi,Delhi,"Ashok Vihar, Delhi - DPCC",30-03-2026 08:00:00,28.695381,77.181665,NO2,21,104,54
India,Delhi,Delhi,"Bawana, Delhi - DPCC",30-03-2026 08:00:00,28.776200,77.051074,NO2,11,44,25
India,Delhi,Delhi,"Bawana, Delhi - DPCC",30-03-2026 08:00:00,28.776200,77.051074,OZONE,4,132,7
India,Delhi,Delhi,"Burari Crossing, Delhi - IMD",30-03-2026 08:00:00,28.7256504,77.2011573,CO,15,88,49
India,Delhi,Delhi,"CRRI Mathura Road, Delhi - IMD",30-03-2026 08:00:00,28.5512005,77.2735737,PM2.5,44,192,107
India,Delhi,Delhi,"Cantonment Area, Delhi - DPCC ",30-03-2026 08:00:00,28.594169 ,77.125100 ,NH3,1,14,3
India,Delhi,Delhi,"Cantonment Area, Delhi - DPCC ",30-03-2026 08:00:00,28.594169 ,77.125100 ,SO2,53,60,56
India,Delhi,Delhi,"Chandni Chowk, Delhi - IITM",30-03-2026 08:00:00,28.656756,77.227234,SO2,9,15,13
India,Bihar,Samastipur,"DM Office_Kasipur, Samastipur - BSPCB",30-03-2026 08:00:00,25.859655,85.77944,NH3,1,1,1
India,Bihar,Samastipur,"DM Office_Kasipur, Samastipur - BSPCB",30-03-2026 08:00:00,25.859655,85.77944,CO,10,12,12
India,Bihar,Siwan,"Chitragupta Nagar, Siwan - BSPCB",30-03-2026 08:00:00,26.2271665,84.3570427,PM10,13,103,40
India,Chandigarh,Chandigarh,"Sector 22, Chandigarh - CPCC",30-03-2026 08:00:00,30.735567,76.775714,OZONE,9,42,29
India,Chandigarh,Chandigarh,"Sector-25, Chandigarh - CPCC",30-03-2026 08:00:00,30.751462,76.762879,NH3,8,12,10
India,Chandigarh,Chandigarh,"Sector-25, Chandigarh - CPCC",30-03-2026 08:00:00,30.751462,76.762879,SO2,1,9,5
India,Chandigarh,Chandigarh,"Sector-25, Chandigarh - CPCC",30-03-2026 08:00:00,30.751462,76.762879,CO,11,34,15
India,Bihar,Manguraha,"Forest Rest House, Manguraha - BSPCB",30-03-2026 08:00:00,27.308328,84.531742,SO2,16,17,17
India,Bihar,Manguraha,"Forest Rest House, Manguraha - BSPCB",30-03-2026 08:00:00,27.308328,84.531742,CO,32,33,32
India,Bihar,Motihari,"Gandak Colony, Motihari - BSPCB",30-03-2026 08:00:00,26.63086,84.90051,NH3,3,3,3
India,Bihar,Motihari,"Gandak Colony, Motihari - BSPCB",30-03-2026 08:00:00,26.63086,84.90051,SO2,2,3,3
India,Bihar,Munger,"Town Hall, Munger - BSPCB",30-03-2026 08:00:00,25.376776,86.471523,PM2.5,17,85,31
India,Delhi,Delhi,"Ashok Vihar, Delhi - DPCC",30-03-2026 08:00:00,28.695381,77.181665,OZONE,2,118,7
India,Delhi,Delhi,"NSIT Dwarka, Delhi - CPCB",30-03-2026 08:00:00,28.60909,77.0325413,CO,28,97,34
India,Delhi,Delhi,"NSUT Jaffarpur, Delhi - DPCC",30-03-2026 08:00:00,28.594004 ,76.909423 ,PM2.5,51,320,138
India,Delhi,Delhi,"NSUT Jaffarpur, Delhi - DPCC",30-03-2026 08:00:00,28.594004 ,76.909423 ,PM10,123,230,157
India,Delhi,Delhi,"NSUT Jaffarpur, Delhi - DPCC",30-03-2026 08:00:00,28.594004 ,76.909423 ,NO2,4,71,26
India,Delhi,Delhi,"Najafgarh, Delhi - DPCC",30-03-2026 08:00:00,28.570173,76.933762,PM10,115,165,135
India,Delhi,Delhi,"Najafgarh, Delhi - DPCC",30-03-2026 08:00:00,28.570173,76.933762,OZONE,14,144,43
India,Delhi,Delhi,"Nehru Nagar, Delhi - DPCC",30-03-2026 08:00:00,28.567890,77.250515,SO2,17,77,26
India,Delhi,Delhi,"Nehru Nagar, Delhi - DPCC",30-03-2026 08:00:00,28.567890,77.250515,CO,94,126,108
India,Delhi,Delhi,"New Moti Bagh, Delhi - MHUA",30-03-2026 08:00:00,28.57834,77.18400,PM2.5,94,278,176
India,Delhi,Delhi,"North Campus, DU, Delhi - IMD",30-03-2026 08:00:00,28.6573814,77.1585447,PM2.5,38,247,128
India,Delhi,Delhi,"Commonwealth Sports Complex, Delhi - DPCC",30-03-2026 08:00:00,28.615828 ,77.271992 ,NH3,4,9,7
India,Delhi,Delhi,"DTU, Delhi - CPCB",30-03-2026 08:00:00,28.7500499,77.1112615,PM2.5,51,303,122
India,Delhi,Delhi,"DTU, Delhi - CPCB",30-03-2026 08:00:00,28.7500499,77.1112615,OZONE,17,33,27
India,Delhi,Delhi,"Dr. Karni Singh Shooting Range, Delhi - DPCC",30-03-2026 08:00:00,28.498571,77.264840,NH3,6,7,6
India,Delhi,Delhi,"Dr. Karni Singh Shooting Range, Delhi - DPCC",30-03-2026 08:00:00,28.498571,77.264840,CO,24,76,62
India,Delhi,Delhi,"Dwarka-Sector 8, Delhi - DPCC ",30-03-2026 08:00:00,28.5710274,77.0719006,PM2.5,50,311,133
India,Delhi,Delhi,"Dwarka-Sector 8, Delhi - DPCC ",30-03-2026 08:00:00,28.5710274,77.0719006,PM10,151,284,185
India,Delhi,Delhi,"Dwarka-Sector 8, Delhi - DPCC ",30-03-2026 08:00:00,28.5710274,77.0719006,CO,42,90,71
India,Delhi,Delhi,"IGI Airport (T3), Delhi - IMD",30-03-2026 08:00:00,28.5627763,77.1180053,NO2,17,37,27
India,Delhi,Delhi,"Sri Aurobindo Marg, Delhi - DPCC",30-03-2026 08:00:00,28.531346,77.190156,OZONE,2,73,2
India,Delhi,Delhi,"Talkatora Garden, Delhi - DPCC",30-03-2026 08:00:00,28.621810,77.1944633,PM2.5,16,316,149
India,Delhi,Delhi,"Talkatora Garden, Delhi - DPCC",30-03-2026 08:00:00,28.621810,77.1944633,NO2,13,37,18
India,Delhi,Delhi,"Talkatora Garden, Delhi - DPCC",30-03-2026 08:00:00,28.621810,77.1944633,SO2,59,87,71
India,Delhi,Delhi,"Talkatora Garden, Delhi - DPCC",30-03-2026 08:00:00,28.621810,77.1944633,CO,106,120,114
India,Delhi,Delhi,"Vivek Vihar, Delhi - DPCC",30-03-2026 08:00:00,28.672342,77.315260,PM2.5,55,340,163
India,Delhi,Delhi,"Vivek Vihar, Delhi - DPCC",30-03-2026 08:00:00,28.672342,77.315260,NO2,16,60,37
India,Gujarat,Ahmedabad,"Chandkheda, Ahmedabad - IITM",30-03-2026 08:00:00,23.107969,72.574648,PM10,67,178,102
India,Gujarat,Ahmedabad,"Chandkheda, Ahmedabad - IITM",30-03-2026 08:00:00,23.107969,72.574648,NH3,5,7,6
India,Delhi,Delhi,"Jawaharlal Nehru Stadium, Delhi - DPCC",30-03-2026 08:00:00,28.580280,77.233829,PM10,133,245,166
India,Delhi,Delhi,"Lodhi Road, Delhi - IMD",30-03-2026 08:00:00,28.5918245,77.2273074,CO,26,128,41
India,Delhi,Delhi,"Major Dhyan Chand National Stadium, Delhi - DPCC",30-03-2026 08:00:00,28.611281,77.237738,CO,2,100,83
India,Delhi,Delhi,"Mandir Marg, Delhi - DPCC",30-03-2026 08:00:00,28.636429,77.201067,PM2.5,163,312,230
India,Delhi,Delhi,"Mandir Marg, Delhi - DPCC",30-03-2026 08:00:00,28.636429,77.201067,SO2,NA,NA,NA
India,Delhi,Delhi,"Mundka, Delhi - DPCC",30-03-2026 08:00:00,28.684678,77.076574,CO,59,100,65
India,Gujarat,Ahmedabad,"Raikhad, Ahmedabad - IITM",30-03-2026 08:00:00,23.020509,72.579261,PM2.5,16,83,43
India,Gujarat,Ahmedabad,"Raikhad, Ahmedabad - IITM",30-03-2026 08:00:00,23.020509,72.579261,CO,38,79,46
India,Gujarat,Ahmedabad,"Rakhial, Ahmedabad - IITM",30-03-2026 08:00:00,23.016834,72.625775,NO2,26,116,48
India,Gujarat,Ahmedabad,"Rakhial, Ahmedabad - IITM",30-03-2026 08:00:00,23.016834,72.625775,NH3,9,14,11
India,Gujarat,Ahmedabad,"SAC ISRO Bopal, Ahmedabad - IITM",30-03-2026 08:00:00,23.041137,72.456691,PM2.5,15,46,30
India,Gujarat,Ahmedabad,"SVPI Airport Hansol, Ahmedabad - IITM",30-03-2026 08:00:00,23.076793,72.627874,NH3,3,8,4
India,Gujarat,Ahmedabad,"SVPI Airport Hansol, Ahmedabad - IITM",30-03-2026 08:00:00,23.076793,72.627874,CO,14,38,21
India,Delhi,Delhi,"IIT Delhi, Delhi - IITM",30-03-2026 08:00:00,28.542460,77.191651,NO2,142,150,146
India,Delhi,Delhi,"ITO, Delhi - CPCB",30-03-2026 08:00:00,28.628624,77.241060,PM10,113,188,145
India,Delhi,Delhi,"ITO, Delhi - CPCB",30-03-2026 08:00:00,28.628624,77.241060,OZONE,31,70,32
India,Delhi,Delhi,"JNU, Delhi - DPCC",30-03-2026 08:00:00,28.540721 ,77.168544 ,PM2.5,34,309,122
India,Delhi,Delhi,"JNU, Delhi - DPCC",30-03-2026 08:00:00,28.540721 ,77.168544 ,PM10,210,210,210
India,Delhi,Delhi,"JNU, Delhi - DPCC",30-03-2026 08:00:00,28.540721 ,77.168544 ,OZONE,4,35,9
India,Delhi,Delhi,"North Campus, DU, Delhi - IMD",30-03-2026 08:00:00,28.6573814,77.1585447,CO,38,106,92
India,Delhi,Delhi,"Patparganj, Delhi - DPCC",30-03-2026 08:00:00,28.623763,77.287209,PM2.5,48,309,139
India,Delhi,Delhi,"Patparganj, Delhi - DPCC",30-03-2026 08:00:00,28.623763,77.287209,CO,32,92,76
India,Delhi,Delhi,"Pusa, Delhi - DPCC",30-03-2026 08:00:00,28.639652,77.146275,NH3,3,10,8
India,Delhi,Delhi,"Pusa, Delhi - DPCC",30-03-2026 08:00:00,28.639652,77.146275,SO2,17,33,24
India,Delhi,Delhi,"Shadipur, Delhi - CPCB",30-03-2026 08:00:00,28.6514781,77.1473105,PM10,121,251,155
India,Delhi,Delhi,"Sirifort, Delhi - CPCB",30-03-2026 08:00:00,28.5504249,77.2159377,PM2.5,60,329,150
India,Delhi,Delhi,"Sirifort, Delhi - CPCB",30-03-2026 08:00:00,28.5504249,77.2159377,NH3,4,13,10
India,Delhi,Delhi,"Sirifort, Delhi - CPCB",30-03-2026 08:00:00,28.5504249,77.2159377,SO2,30,36,33
India,Delhi,Delhi,"R K Puram, Delhi - DPCC",30-03-2026 08:00:00,28.563262,77.186937,NH3,6,10,7
India,Delhi,Delhi,"Rohini, Delhi - DPCC",30-03-2026 08:00:00,28.732528,77.119920,NO2,13,79,41
India,Haryana,Ambala,"Patti Mehar, Ambala - HSPCB",30-03-2026 08:00:00,30.379589,76.778328,NH3,7,8,8
India,Haryana,Ambala,"Patti Mehar, Ambala - HSPCB",30-03-2026 08:00:00,30.379589,76.778328,CO,21,48,22
India,Haryana,Ballabgarh,"Nathu Colony, Ballabgarh - HSPCB",30-03-2026 08:00:00,28.3419248,77.319699,SO2,1,4,3
India,Haryana,Ballabgarh,"Nathu Colony, Ballabgarh - HSPCB",30-03-2026 08:00:00,28.3419248,77.319699,CO,15,87,50
India,Haryana,Ballabgarh,"Nathu Colony, Ballabgarh - HSPCB",30-03-2026 08:00:00,28.3419248,77.319699,OZONE,1,1,1
India,Haryana,Bhiwani,"H.B. Colony, Bhiwani - HSPCB",30-03-2026 08:00:00,28.806223,76.141105,CO,22,31,30
India,Haryana,Charkhi Dadri,"Mini Secretariat, Charkhi Dadri - HSPCB",30-03-2026 08:00:00,28.593883,76.270653,SO2,9,11,10
India,Haryana,Charkhi Dadri,"Mini Secretariat, Charkhi Dadri - HSPCB",30-03-2026 08:00:00,28.593883,76.270653,CO,18,50,28
India,Haryana,Charkhi Dadri,"Mini Secretariat, Charkhi Dadri - HSPCB",30-03-2026 08:00:00,28.593883,76.270653,OZONE,12,17,16
India,Haryana,Faridabad,"New Industrial Town, Faridabad - HSPCB",30-03-2026 08:00:00,28.39072,77.30059,CO,8,13,12
India,Haryana,Faridabad,"New Industrial Town, Faridabad - HSPCB",30-03-2026 08:00:00,28.39072,77.30059,OZONE,12,16,14
India,Haryana,Faridabad,"Sector 11, Faridabad - HSPCB",30-03-2026 08:00:00,28.376058,77.315741,PM2.5,34,427,248
India,Gujarat,Ankleshwar,"GIDC, Ankleshwar - GPCB",30-03-2026 08:00:00,21.613267,73.010555,SO2,26,27,26
India,Gujarat,Bhavnagar,"Vidhyanagar, Bhavnagar - Nexteng Enviro",30-03-2026 08:00:00,21.755417,72.139056,SO2,4,6,5
India,Gujarat,Gandhinagar,"GIFT City, Gandhinagar - IITM",30-03-2026 08:00:00,23.163798,72.677768,NH3,5,8,6
India,Gujarat,Gandhinagar,"GIFT City, Gandhinagar - IITM",30-03-2026 08:00:00,23.163798,72.677768,OZONE,3,43,7
India,Gujarat,Gandhinagar,"IIPHG Lekawada, Gandhinagar - IITM",30-03-2026 08:00:00,23.243639,72.68994,OZONE,1,17,3
India,Gujarat,Gandhinagar,"Sector-10, Gandhinagar - GPCB",30-03-2026 08:00:00,23.221714,72.654328,PM2.5,19,65,35
India,Gujarat,Gandhinagar,"Sector-10, Gandhinagar - GPCB",30-03-2026 08:00:00,23.221714,72.654328,NO2,19,26,23
India,Gujarat,Gandhinagar,"Sector-10, Gandhinagar - GPCB",30-03-2026 08:00:00,23.221714,72.654328,OZONE,27,57,42
India,Gujarat,Mehsana,"Sadanand Nagar, Mehsana - Nexteng Enviro",30-03-2026 08:00:00,23.593150,72.372792,NH3,2,2,2
India,Gujarat,Mehsana,"Sadanand Nagar, Mehsana - Nexteng Enviro",30-03-2026 08:00:00,23.593150,72.372792,CO,55,57,56
India,Haryana,Manesar,"Sector-2 IMT, Manesar - HSPCB",30-03-2026 08:00:00,28.360699,76.936090,NH3,8,10,9
India,Haryana,Narnaul,"Shastri Nagar, Narnaul - HSPCB",30-03-2026 08:00:00,28.060249,76.113115,PM2.5,64,120,88
India,Haryana,Narnaul,"Shastri Nagar, Narnaul - HSPCB",30-03-2026 08:00:00,28.060249,76.113115,NH3,4,6,5
India,Haryana,Palwal,"Shyam Nagar, Palwal - HSPCB",30-03-2026 08:00:00,28.1485564,77.3320667,NO2,23,24,24
India,Haryana,Panchgaon,"Amity University, Panchgaon - IITM",30-03-2026 08:00:00,28.3153,76.9143,NH3,2,3,2
India,Haryana,Panchgaon,"Amity University, Panchgaon - IITM",30-03-2026 08:00:00,28.3153,76.9143,CO,24,48,38
India,Haryana,Panchgaon,"Amity University, Panchgaon - IITM",30-03-2026 08:00:00,28.3153,76.9143,OZONE,14,89,37
India,Haryana,Panchkula,"Sector-6, Panchkula - HSPCB ",30-03-2026 08:00:00,30.7057778,76.8531805555555,NO2,22,25,24
India,Haryana,Panipat,"Sector-18, Panipat - HSPCB",30-03-2026 08:00:00,29.432304,76.972765,NH3,2,3,2
India,Haryana,Panipat,"Sector-18, Panipat - HSPCB",30-03-2026 08:00:00,29.432304,76.972765,SO2,11,11,11
India,Haryana,Panipat,"Sector-18, Panipat - HSPCB",30-03-2026 08:00:00,29.432304,76.972765,OZONE,30,30,30
India,Haryana,Sirsa,"F-Block, Sirsa - HSPCB",30-03-2026 08:00:00,29.536400,75.015800,CO,26,64,41
India,Haryana,Sonipat,"Murthal, Sonipat - HSPCB",30-03-2026 08:00:00,29.027200,77.062100,NO2,12,13,12
India,Haryana,Sonipat,"Murthal, Sonipat - HSPCB",30-03-2026 08:00:00,29.027200,77.062100,NH3,21,21,21
India,Haryana,Sonipat,"Murthal, Sonipat - HSPCB",30-03-2026 08:00:00,29.027200,77.062100,SO2,4,17,8
India,Haryana,Sonipat,"Murthal, Sonipat - HSPCB",30-03-2026 08:00:00,29.027200,77.062100,OZONE,25,26,26
India,Haryana,Yamuna Nagar,"Gobind Pura, Yamuna Nagar - HSPCB",30-03-2026 08:00:00,30.1480566,77.2893471,NO2,11,21,16
India,Himachal Pradesh,Baddi,"HIMUDA Complex Phase-1, Baddi - HPPCB",30-03-2026 08:00:00,30.943887,76.801991,NH3,4,6,4
India,Jammu_and_Kashmir,Pampore,"Khrew, Pampore - JKPCC",30-03-2026 08:00:00,34.031606,75.009712,SO2,3,5,4
India,Haryana,Jind,"Police Lines, Jind - HSPCB",30-03-2026 08:00:00,29.307814,76.337619,PM2.5,70,254,112
India,Haryana,Jind,"Police Lines, Jind - HSPCB",30-03-2026 08:00:00,29.307814,76.337619,NO2,28,50,36
India,Haryana,Kaithal,"Rishi Nagar, Kaithal - HSPCB",30-03-2026 08:00:00,29.8006,76.4155,SO2,43,45,44
India,Haryana,Karnal,"Sector-12, Karnal - HSPCB",30-03-2026 08:00:00,29.695300,77.002700,NO2,6,7,6
India,Haryana,Kurukshetra,"Sector-7, Kurukshetra - HSPCB",30-03-2026 08:00:00,29.966942,76.875879,NO2,4,4,4
India,Haryana,Kurukshetra,"Sector-7, Kurukshetra - HSPCB",30-03-2026 08:00:00,29.966942,76.875879,OZONE,15,65,18
India,Haryana,Mandikhera,"General Hospital, Mandikhera(Nuh) - HSPCB",30-03-2026 08:00:00,27.9002,76.9938,NO2,19,23,21
India,Haryana,Mandikhera,"General Hospital, Mandikhera(Nuh) - HSPCB",30-03-2026 08:00:00,27.9002,76.9938,OZONE,22,30,26
India,Haryana,Manesar,"Sector-2 IMT, Manesar - HSPCB",30-03-2026 08:00:00,28.360699,76.936090,NO2,33,41,38
India,Jammu_and_Kashmir,Srinagar,"Khunmoh, Srinagar - JKPCC",30-03-2026 08:00:00,34.06313,74.96017,PM2.5,5,17,11
India,Jammu_and_Kashmir,Srinagar,"Rajbagh, Srinagar - JKPCC",30-03-2026 08:00:00,34.066206,74.819820,CO,11,20,12
India,Jharkhand,Dhanbad,"Sardar Patel Nagar, Dhanbad - JSPCB",30-03-2026 08:00:00,23.80569,86.44268,PM10,49,169,114
India,Karnataka,Bagalkot,"Vidayagiri, Bagalkot - KSPCB",30-03-2026 08:00:00,16.172806,75.659694,NO2,6,12,11
India,Karnataka,Bengaluru,"BTM Layout, Bengaluru - CPCB",30-03-2026 08:00:00,12.9135218,77.5950804,PM2.5,29,55,42
India,Karnataka,Bengaluru,"BTM Layout, Bengaluru - CPCB",30-03-2026 08:00:00,12.9135218,77.5950804,NH3,NA,NA,NA
India,Karnataka,Bengaluru,"Bapuji Nagar, Bengaluru - KSPCB",30-03-2026 08:00:00,12.951913,77.539784,PM2.5,21,67,45
India,Haryana,Gurugram,"Sector-51, Gurugram - HSPCB",30-03-2026 08:00:00,28.4227,77.0667,PM2.5,150,364,294
India,Haryana,Gurugram,"Sector-51, Gurugram - HSPCB",30-03-2026 08:00:00,28.4227,77.0667,NH3,6,10,8
India,Haryana,Gurugram,"Sector-51, Gurugram - HSPCB",30-03-2026 08:00:00,28.4227,77.0667,CO,14,52,29
India,Haryana,Gurugram,"Teri Gram, Gurugram - HSPCB",30-03-2026 08:00:00,28.4275,77.1465,SO2,3,11,6
India,Haryana,Gurugram,"Teri Gram, Gurugram - HSPCB",30-03-2026 08:00:00,28.4275,77.1465,CO,27,48,32
India,Haryana,Gurugram,"Vikas Sadan, Gurugram - HSPCB",30-03-2026 08:00:00,28.4501238,77.0263051,OZONE,4,23,11
India,Haryana,Hisar,"Urban Estate-II, Hisar - HSPCB",30-03-2026 08:00:00,29.140560,75.744941,PM10,99,157,122
India,Haryana,Hisar,"Urban Estate-II, Hisar - HSPCB",30-03-2026 08:00:00,29.140560,75.744941,CO,20,74,50
India,Haryana,Hisar,"Urban Estate-II, Hisar - HSPCB",30-03-2026 08:00:00,29.140560,75.744941,OZONE,27,88,41
India,Gujarat,Rajkot,"Mavdi, Rajkot - Nexteng Enviro ",30-03-2026 08:00:00,22.248853,70.776774,NH3,1,3,2
India,Gujarat,Surat,"Katargam, Surat - Nexteng Enviro",30-03-2026 08:00:00,21.217779 ,72.834787 ,NO2,1,13,5
India,Gujarat,Surat,"Katargam, Surat - Nexteng Enviro",30-03-2026 08:00:00,21.217779 ,72.834787 ,SO2,3,10,5
India,Gujarat,Surat,"Katargam, Surat - Nexteng Enviro",30-03-2026 08:00:00,21.217779 ,72.834787 ,CO,32,37,34
India,Gujarat,Vadodara,"Bapunagar, Vadodara - Nexteng Enviro",30-03-2026 08:00:00,22.320153,73.216285,PM10,34,72,52
India,Gujarat,Vadodara,"Bapunagar, Vadodara - Nexteng Enviro",30-03-2026 08:00:00,22.320153,73.216285,NO2,1,7,3
India,Gujarat,Vapi,"Phase-1 GIDC, Vapi - GPCB",30-03-2026 08:00:00,20.362421,72.918013,NH3,2,2,2
India,Haryana,Faridabad,"Sector 30, Faridabad - HSPCB",30-03-2026 08:00:00,28.4417,77.3217,PM10,117,120,118
India,Haryana,Faridabad,"Sector 30, Faridabad - HSPCB",30-03-2026 08:00:00,28.4417,77.3217,SO2,6,6,6
India,Haryana,Fatehabad,"Huda Sector, Fatehabad - HSPCB",30-03-2026 08:00:00,29.503664,75.467934,PM2.5,43,91,66
India,Haryana,Fatehabad,"Huda Sector, Fatehabad - HSPCB",30-03-2026 08:00:00,29.503664,75.467934,CO,25,48,30
India,Haryana,Fatehabad,"Huda Sector, Fatehabad - HSPCB",30-03-2026 08:00:00,29.503664,75.467934,OZONE,63,121,80
India,Karnataka,Yadgir,"Collector Office, Yadgir - KSPCB",30-03-2026 08:00:00,16.7602,77.1428,PM10,56,131,99
India,Karnataka,Yadgir,"Collector Office, Yadgir - KSPCB",30-03-2026 08:00:00,16.7602,77.1428,NH3,1,1,1
India,Kerala,Kannur,"Thavakkara, Kannur - Kerala PCB",30-03-2026 08:00:00,11.875000,75.373200,CO,19,22,20
India,Kerala,Kannur,"Thavakkara, Kannur - Kerala PCB",30-03-2026 08:00:00,11.875000,75.373200,OZONE,27,32,28
India,Kerala,Kollam,"Polayathode, Kollam - Kerala PCB",30-03-2026 08:00:00,8.8787,76.6073,NH3,1,1,1
India,Kerala,Kollam,"Polayathode, Kollam - Kerala PCB",30-03-2026 08:00:00,8.8787,76.6073,SO2,2,3,2
India,Kerala,Thrissur,"Corporation Ground, Thrissur - Kerala PCB",30-03-2026 08:00:00,10.532400,76.215900,NO2,7,9,8
India,Madhya Pradesh,Bhopal,"Idgah Hills, Bhopal - MPPCB",30-03-2026 08:00:00,23.264759,77.381568,NO2,15,76,30
India,Madhya Pradesh,Bhopal,"Idgah Hills, Bhopal - MPPCB",30-03-2026 08:00:00,23.264759,77.381568,NH3,6,11,8
India,Madhya Pradesh,Bhopal,"Idgah Hills, Bhopal - MPPCB",30-03-2026 08:00:00,23.264759,77.381568,CO,12,103,16
India,Karnataka,Bengaluru,"Bapuji Nagar, Bengaluru - KSPCB",30-03-2026 08:00:00,12.951913,77.539784,NH3,1,3,2
India,Karnataka,Bengaluru,"Hebbal, Bengaluru - KSPCB",30-03-2026 08:00:00,13.029152,77.585901,SO2,11,16,14
India,Karnataka,Bengaluru,"Hebbal, Bengaluru - KSPCB",30-03-2026 08:00:00,13.029152,77.585901,OZONE,8,11,10
India,Karnataka,Bengaluru,"Hombegowda Nagar, Bengaluru - KSPCB",30-03-2026 08:00:00,12.938539,77.590100,NO2,20,63,30
India,Karnataka,Bengaluru,"Hombegowda Nagar, Bengaluru - KSPCB",30-03-2026 08:00:00,12.938539,77.590100,SO2,4,11,6
India,Karnataka,Bengaluru,"Hombegowda Nagar, Bengaluru - KSPCB",30-03-2026 08:00:00,12.938539,77.590100,OZONE,10,140,43
India,Karnataka,Bengaluru,"Jigani, Bengaluru - KSPCB",30-03-2026 08:00:00,12.7816279,77.6299145,PM2.5,45,77,56
India,Karnataka,Bengaluru,"Jigani, Bengaluru - KSPCB",30-03-2026 08:00:00,12.7816279,77.6299145,PM10,66,134,93
India,Karnataka,Bengaluru,"Peenya, Bengaluru - CPCB",30-03-2026 08:00:00,13.0270199,77.494094,PM10,62,86,73
India,Karnataka,Bengaluru,"Peenya, Bengaluru - CPCB",30-03-2026 08:00:00,13.0270199,77.494094,NO2,22,36,26
India,Karnataka,Bengaluru,"Peenya, Bengaluru - CPCB",30-03-2026 08:00:00,13.0270199,77.494094,OZONE,24,25,25
India,Karnataka,Mangalore,"Kadri, Mangalore - KSPCB",30-03-2026 08:00:00,12.889250,74.853000,OZONE,18,68,40
India,Karnataka,Mysuru,"Hebbal 1st Stage, Mysuru - KSPCB",30-03-2026 08:00:00,12.21041,76.37376,PM2.5,17,33,27
India,Karnataka,Mysuru,"Hebbal 1st Stage, Mysuru - KSPCB",30-03-2026 08:00:00,12.21041,76.37376,NO2,17,21,18
India,Karnataka,Mysuru,"Hebbal 1st Stage, Mysuru - KSPCB",30-03-2026 08:00:00,12.21041,76.37376,SO2,1,4,3
India,Karnataka,Ramanagara,"Vijay Nagar, Ramanagara - KSPCB",30-03-2026 08:00:00,12.733409,77.298051,OZONE,38,65,47
India,Karnataka,Vijayapura,"Ibrahimpur, Vijayapura - KSPCB",30-03-2026 08:00:00,16.802639,75.722694,PM2.5,20,32,30
India,Karnataka,Yadgir,"Collector Office, Yadgir - KSPCB",30-03-2026 08:00:00,16.7602,77.1428,PM2.5,49,94,67
India,Madhya Pradesh,Bhopal,"T T Nagar, Bhopal - MPPCB",30-03-2026 08:00:00,23.233584,77.400574,NO2,NA,NA,NA
India,Madhya Pradesh,Damoh,"Shrivastav Colony, Damoh - MPPCB",30-03-2026 08:00:00,23.81748678,79.446246,CO,18,24,20
India,Madhya Pradesh,Dewas,"Bhopal Chauraha, Dewas - MPPCB",30-03-2026 08:00:00,22.9682591,76.064118,PM10,54,111,83
India,Madhya Pradesh,Gwalior,"Deen Dayal Nagar, Gwalior - MPPCB",30-03-2026 08:00:00,26.259242,78.216432,SO2,2,20,8
India,Karnataka,Chamarajanagar,"Urban, Chamarajanagar - KSPCB",30-03-2026 08:00:00,11.55358,76.55521,NO2,14,30,21
India,Karnataka,Chikkaballapur,"Chikkaballapur Rural, Chikkaballapur - KSPCB",30-03-2026 08:00:00,13.428828,77.731418,PM2.5,51,89,61
India,Karnataka,Chikkaballapur,"Chikkaballapur Rural, Chikkaballapur - KSPCB",30-03-2026 08:00:00,13.428828,77.731418,NO2,6,42,15
India,Karnataka,Dharwad,"Kalabhavan, Dharwad - KSPCB",30-03-2026 08:00:00,15.459706,75.008381,PM2.5,38,57,46
India,Karnataka,Dharwad,"Kalabhavan, Dharwad - KSPCB",30-03-2026 08:00:00,15.459706,75.008381,PM10,50,74,60
India,Karnataka,Hubballi,"Lingaraj Nagar, Hubballi - KSPCB",30-03-2026 08:00:00,15.3714823,75.1160168,PM10,47,47,47
India,Karnataka,Hubballi,"Lingaraj Nagar, Hubballi - KSPCB",30-03-2026 08:00:00,15.3714823,75.1160168,OZONE,21,22,22
India,Karnataka,Madikeri,"Stuart Hill, Madikeri - KSPCB",30-03-2026 08:00:00,12.415911,75.735050,CO,10,23,16
India,Karnataka,Mangalore,"Kadri, Mangalore - KSPCB",30-03-2026 08:00:00,12.889250,74.853000,PM10,NA,NA,NA
India,Karnataka,Bengaluru,"Shivapura_Peenya, Bengaluru - KSPCB",30-03-2026 08:00:00,13.0246342,77.5080115,SO2,NA,NA,NA
India,Karnataka,Bengaluru,"Silk Board, Bengaluru - KSPCB",30-03-2026 08:00:00,12.917348,77.622813,PM10,42,154,99
India,Karnataka,Bengaluru,"Silk Board, Bengaluru - KSPCB",30-03-2026 08:00:00,12.917348,77.622813,NO2,26,89,56
India,Madhya Pradesh,Gwalior,"Maharaj Bada, Gwalior - MPPCB",30-03-2026 08:00:00,26.200388,78.147714,NH3,7,11,9
India,Madhya Pradesh,Indore,"Airport Area, Indore - IMC",30-03-2026 08:00:00,22.7289,75.8076,PM2.5,56,126,81
India,Karnataka,Chamarajanagar,"Urban, Chamarajanagar - KSPCB",30-03-2026 08:00:00,11.55358,76.55521,PM2.5,NA,NA,NA
India,Maharashtra,Chandrapur,"MIDC Khutala, Chandrapur - MPCB",30-03-2026 08:00:00,19.9775302,79.2337086,OZONE,8,132,15
India,Maharashtra,Dhule,"Deopur, Dhule - MPCB",30-03-2026 08:00:00,20.918946,74.776388,PM2.5,73,139,102
India,Maharashtra,Dhule,"Deopur, Dhule - MPCB",30-03-2026 08:00:00,20.918946,74.776388,SO2,3,26,13
India,Maharashtra,Dhule,"Deopur, Dhule - MPCB",30-03-2026 08:00:00,20.918946,74.776388,OZONE,16,51,18
India,Maharashtra,Dombivli,"Kalu Nagar, Dombivli - MPCB",30-03-2026 08:00:00,19.2268427 ,73.0788456 ,NO2,9,36,21
India,Maharashtra,Hingoli,"Ashta Vinayak Nagar, Hingoli - MPCB",30-03-2026 08:00:00,19.710842,77.151824,CO,8,70,23
India,Maharashtra,Jalgaon,"Prabhat Colony, Jalgaon - MPCB",30-03-2026 08:00:00,21.001264,75.565602,NH3,2,4,3
India,Maharashtra,Jalgaon,"Prabhat Colony, Jalgaon - MPCB",30-03-2026 08:00:00,21.001264,75.565602,OZONE,16,43,26
India,Maharashtra,Kalyan,"Khadakpada, Kalyan - MPCB",30-03-2026 08:00:00,19.25292,73.142019,PM2.5,17,97,43
India,Maharashtra,Kolhapur,"Shivaji University, Kolhapur - MPCB",30-03-2026 08:00:00,16.6870449,74.2505872,PM10,29,63,46
India,Maharashtra,Kolhapur,"Shivaji University, Kolhapur - MPCB",30-03-2026 08:00:00,16.6870449,74.2505872,NH3,3,4,4
India,Maharashtra,Kolhapur,"Shivaji University, Kolhapur - MPCB",30-03-2026 08:00:00,16.6870449,74.2505872,CO,7,24,12
India,Maharashtra,Kolhapur,"Shivaji University, Kolhapur - MPCB",30-03-2026 08:00:00,16.6870449,74.2505872,OZONE,5,43,8
India,Maharashtra,Kolhapur,"Sinchan Bhavan, Kolhapur - MPCB",30-03-2026 08:00:00,16.7143745,74.2426398,PM2.5,NA,NA,NA
India,Maharashtra,Kolhapur,"Sinchan Bhavan, Kolhapur - MPCB",30-03-2026 08:00:00,16.7143745,74.2426398,NO2,NA,NA,NA
India,Maharashtra,Latur,"Sawe Wadi, Latur - MPCB",30-03-2026 08:00:00,18.39963,76.57452,SO2,5,38,14
India,Maharashtra,Latur,"Sawe Wadi, Latur - MPCB",30-03-2026 08:00:00,18.39963,76.57452,CO,2,30,20
India,Maharashtra,Mahad,"Kamble Tarf Birwadi, Mahad - MPCB",30-03-2026 08:00:00,18.1023399,73.4783687,NH3,3,11,8
India,Maharashtra,Mahad,"Kamble Tarf Birwadi, Mahad - MPCB",30-03-2026 08:00:00,18.1023399,73.4783687,SO2,15,39,23
India,Maharashtra,Badlapur,"Katrap, Badlapur - MPCB",30-03-2026 08:00:00,19.16485,73.23409,SO2,4,17,8
India,Maharashtra,Beed,"Bir, Beed - MPCB",30-03-2026 08:00:00,18.988474,75.753873,CO,11,82,26
India,Maharashtra,Belapur,"CBD Belapur, Belapur - MPCB",30-03-2026 08:00:00,19.0243902,73.0406721,PM10,44,110,70
India,Maharashtra,Bhiwandi,"Gokul Nagar, Bhiwandi - MPCB",30-03-2026 08:00:00,19.309073,73.057223,NH3,4,9,6
India,Maharashtra,Bhiwandi,"Gokul Nagar, Bhiwandi - MPCB",30-03-2026 08:00:00,19.309073,73.057223,SO2,3,16,8
India,Maharashtra,Boisar,"Khaira, Boisar - MPCB",30-03-2026 08:00:00,19.786089,72.757971,CO,6,72,33
India,Maharashtra,Chandrapur,"Chauhan Colony, Chandrapur - MPCB",30-03-2026 08:00:00,19.962900,79.298714,PM10,60,197,127
India,Maharashtra,Chandrapur,"Chauhan Colony, Chandrapur - MPCB",30-03-2026 08:00:00,19.962900,79.298714,NH3,1,2,1
India,Maharashtra,Malegaon,"Mahesh Nagar, Malegaon - MPCB",30-03-2026 08:00:00,20.555712,74.529236,OZONE,37,56,45
India,Maharashtra,Mumbai,"Bandra Kurla Complex, Mumbai - IITM",30-03-2026 08:00:00,19.053536,72.84643,NO2,NA,NA,NA
India,Maharashtra,Mumbai,"Bandra Kurla Complex, Mumbai - MPCB",30-03-2026 08:00:00,19.065931,72.862131,PM10,15,41,27
India,Maharashtra,Mumbai,"Bandra Kurla Complex, Mumbai - MPCB",30-03-2026 08:00:00,19.065931,72.862131,OZONE,1,18,2
India,Maharashtra,Mumbai,"Borivali East, Mumbai - IITM",30-03-2026 08:00:00,19.23241,72.86895,PM10,18,58,40
India,Maharashtra,Mumbai,"Borivali East, Mumbai - IITM",30-03-2026 08:00:00,19.23241,72.86895,CO,32,74,54
India,Maharashtra,Mumbai,"Borivali East, Mumbai - IITM",30-03-2026 08:00:00,19.23241,72.86895,OZONE,6,57,13
India,Maharashtra,Mumbai,"Borivali East, Mumbai - MPCB",30-03-2026 08:00:00,19.2243333,72.8658113,NH3,1,7,4
India,Madhya Pradesh,Sagar,"Deen Dayal Nagar, Sagar - MPPCB",30-03-2026 08:00:00,23.8640158,78.80289321,NO2,1,44,16
India,Madhya Pradesh,Satna,"Bandhavgar Colony, Satna - Birla Cement",30-03-2026 08:00:00,24.58434363,80.8549414,PM2.5,48,52,50
India,Madhya Pradesh,Singrauli,"Suryakiran Bhawan NCL, Singrauli - MPPCB",30-03-2026 08:00:00,24.108970,82.645580,PM2.5,44,368,192
India,Madhya Pradesh,Ujjain,"Mahashweta Nagar, Ujjain - MPPCB",30-03-2026 08:00:00,23.1633321,75.800225,OZONE,18,48,38
India,Maharashtra,Ahmednagar,"Tarakpur, Ahmednagar - MPCB",30-03-2026 08:00:00,19.10122,74.73339,NH3,5,6,6
India,Maharashtra,Ahmednagar,"Tarakpur, Ahmednagar - MPCB",30-03-2026 08:00:00,19.10122,74.73339,CO,15,98,19
India,Madhya Pradesh,Jabalpur,"Suhagi, Jabalpur - JMC",30-03-2026 08:00:00,23.218135,79.957770,NO2,28,67,42
India,Madhya Pradesh,Jabalpur,"Suhagi, Jabalpur - JMC",30-03-2026 08:00:00,23.218135,79.957770,NH3,5,6,5
India,Madhya Pradesh,Katni,"Gole Bazar, Katni - MPPCB",30-03-2026 08:00:00,23.50016,80.23284,NO2,19,46,27
India,Madhya Pradesh,Katni,"Gole Bazar, Katni - MPPCB",30-03-2026 08:00:00,23.50016,80.23284,NH3,4,8,6
India,Madhya Pradesh,Katni,"Gole Bazar, Katni - MPPCB",30-03-2026 08:00:00,23.50016,80.23284,SO2,18,115,56
India,Madhya Pradesh,Maihar,"Sahilara, Maihar - KJS Cements",30-03-2026 08:00:00,24.2613009,80.7231783,CO,26,34,30
India,Madhya Pradesh,Ratlam,"Shasthri Nagar, Ratlam - IPCA Lab",30-03-2026 08:00:00,23.331731,75.045981,PM2.5,12,67,37
India,Madhya Pradesh,Ratlam,"Shasthri Nagar, Ratlam - IPCA Lab",30-03-2026 08:00:00,23.331731,75.045981,NO2,11,16,13
India,Maharashtra,Akola,"Ramdaspeth, Akola - MPCB",30-03-2026 08:00:00,20.719516,77.000253,CO,18,24,19
India,Maharashtra,Amravati,"Shivneri Colony, Amravati - MPCB",30-03-2026 08:00:00,20.9402359,77.7895248,PM2.5,25,58,42
India,Maharashtra,Amravati,"Shivneri Colony, Amravati - MPCB",30-03-2026 08:00:00,20.9402359,77.7895248,CO,9,43,19
India,Maharashtra,Amravati,"Shivneri Colony, Amravati - MPCB",30-03-2026 08:00:00,20.9402359,77.7895248,OZONE,4,54,10
India,Maharashtra,Amravati,"Shri Shivaji Science College, Amravati - MPCB",30-03-2026 08:00:00,20.939198,77.765701,CO,36,78,54
India,Maharashtra,Aurangabad,"More Chowk Waluj, Aurangabad - MPCB",30-03-2026 08:00:00,19.8389439,75.244448,PM10,12,140,75
India,Maharashtra,Badlapur,"Katrap, Badlapur - MPCB",30-03-2026 08:00:00,19.16485,73.23409,PM2.5,29,78,45
India,Madhya Pradesh,Indore,"Regional Park, Indore - IMC",30-03-2026 08:00:00,22.6780,75.8559,NH3,1,3,2
India,Madhya Pradesh,Jabalpur,"Govindh Bhavan Colony, Jabalpur - JMC",30-03-2026 08:00:00,23.163174,79.973061,PM2.5,22,140,52
India,Madhya Pradesh,Jabalpur,"Govindh Bhavan Colony, Jabalpur - JMC",30-03-2026 08:00:00,23.163174,79.973061,NH3,2,2,2
India,Madhya Pradesh,Jabalpur,"Marhatal, Jabalpur - MPPCB",30-03-2026 08:00:00,23.168606,79.932247,NH3,2,3,3
India,Madhya Pradesh,Indore,"Chhoti Gwaltoli, Indore - MPPCB",30-03-2026 08:00:00,22.4310,75.5213,OZONE,12,46,36
India,Madhya Pradesh,Indore,"Maguda Nagar, Indore - IMC",30-03-2026 08:00:00,22.7524,75.8872,PM10,21,50,36
India,Madhya Pradesh,Indore,"Maguda Nagar, Indore - IMC",30-03-2026 08:00:00,22.7524,75.8872,SO2,25,29,26
India,Maharashtra,Mumbai,"Borivali East, Mumbai - MPCB",30-03-2026 08:00:00,19.2243333,72.8658113,CO,14,18,16
India,Maharashtra,Mumbai,"Byculla, Mumbai - BMC",30-03-2026 08:00:00,18.9767,72.8380,PM10,9,60,31
India,Maharashtra,Mumbai,"Byculla, Mumbai - BMC",30-03-2026 08:00:00,18.9767,72.8380,NO2,15,36,22
India,Maharashtra,Mumbai,"Byculla, Mumbai - BMC",30-03-2026 08:00:00,18.9767,72.8380,NH3,3,9,4
India,Maharashtra,Mumbai,"Byculla, Mumbai - BMC",30-03-2026 08:00:00,18.9767,72.8380,OZONE,1,18,5
India,Maharashtra,Mumbai,"Chakala-Andheri East, Mumbai - IITM",30-03-2026 08:00:00,19.11074,72.86084,PM2.5,NA,NA,NA
India,Maharashtra,Mumbai,"Chakala-Andheri East, Mumbai - IITM",30-03-2026 08:00:00,19.11074,72.86084,CO,NA,NA,NA
India,Maharashtra,Mumbai,"Chembur, Mumbai - MPCB",30-03-2026 08:00:00,19.0364585,72.8954371,PM2.5,9,29,16
India,Maharashtra,Mumbai,"Chembur, Mumbai - MPCB",30-03-2026 08:00:00,19.0364585,72.8954371,SO2,4,58,10
India,Maharashtra,Mumbai,"Colaba, Mumbai - MPCB",30-03-2026 08:00:00,18.910000,72.820000,NH3,4,4,4
India,Maharashtra,Mumbai,"Deonar, Mumbai - IITM",30-03-2026 08:00:00,19.04946,72.9230,PM10,21,74,51
India,Maharashtra,Nagpur,"Opp GPO Civil Lines, Nagpur - MPCB",30-03-2026 08:00:00,21.152875,79.0517531,NO2,11,80,29
India,Maharashtra,Nagpur,"Opp GPO Civil Lines, Nagpur - MPCB",30-03-2026 08:00:00,21.152875,79.0517531,NH3,2,12,4
India,Maharashtra,Nagpur,"Ram Nagar, Nagpur - MPCB",30-03-2026 08:00:00,21.143383,79.048912,NO2,3,39,14
India,Maharashtra,Nanded,"Sneh Nagar, Nanded - MPCB",30-03-2026 08:00:00,19.173852,77.296291,NH3,3,5,4
India,Maharashtra,Nashik,"Gangapur Road, Nashik - MPCB",30-03-2026 08:00:00,20.0073285,73.7762427,CO,26,27,26
India,Maharashtra,Nashik,"Hirawadi, Nashik - MPCB",30-03-2026 08:00:00,20.021503,73.813844,PM10,40,69,58
India,Maharashtra,Nashik,"Hirawadi, Nashik - MPCB",30-03-2026 08:00:00,20.021503,73.813844,NO2,2,12,5
India,Maharashtra,Nashik,"Hirawadi, Nashik - MPCB",30-03-2026 08:00:00,20.021503,73.813844,NH3,1,4,2
India,Maharashtra,Nashik,"Hirawadi, Nashik - MPCB",30-03-2026 08:00:00,20.021503,73.813844,CO,5,23,16
India,Maharashtra,Mumbai,"Siddharth Nagar-Worli, Mumbai - IITM",30-03-2026 08:00:00,19.000083,72.813993,CO,16,42,32
India,Maharashtra,Mumbai,"Sion, Mumbai - MPCB",30-03-2026 08:00:00,19.047000,72.874600,PM10,18,80,32
India,Maharashtra,Mumbai,"Vile Parle West, Mumbai - MPCB",30-03-2026 08:00:00,19.10861,72.83622,NH3,6,6,6
India,Maharashtra,Mumbai,"Vile Parle West, Mumbai - MPCB",30-03-2026 08:00:00,19.10861,72.83622,SO2,47,52,49
India,Maharashtra,Mumbai,"Worli, Mumbai -MPCB",30-03-2026 08:00:00,18.9942180,72.8158167,PM2.5,NA,NA,NA
India,Maharashtra,Mumbai,"Worli, Mumbai -MPCB",30-03-2026 08:00:00,18.9942180,72.8158167,PM10,1,236,88
India,Maharashtra,Nagpur,"Ambazari, Nagpur - MPCB",30-03-2026 08:00:00,21.121801,79.04952,PM10,50,207,91
India,Maharashtra,Nagpur,"Ambazari, Nagpur - MPCB",30-03-2026 08:00:00,21.121801,79.04952,CO,5,139,17
India,Maharashtra,Nashik,"Pandav Nagari, Nashik - MPCB",30-03-2026 08:00:00,19.9591346,73.7788008,SO2,1,4,2
India,Maharashtra,Navi Mumbai,"Kopripada-Vashi, Navi Mumbai - MPCB",30-03-2026 08:00:00,19.090337,73.014232,PM2.5,34,107,58
India,Maharashtra,Navi Mumbai,"Kopripada-Vashi, Navi Mumbai - MPCB",30-03-2026 08:00:00,19.090337,73.014232,NO2,7,19,12
India,Maharashtra,Navi Mumbai,"Mahape, Navi Mumbai - MPCB",30-03-2026 08:00:00,19.1135051,73.008978,NH3,1,1,1
India,Maharashtra,Navi Mumbai,"Sanpada, Navi Mumbai - MPCB",30-03-2026 08:00:00,19.0575752,73.0151367,PM10,21,59,42
India,Maharashtra,Navi Mumbai,"Sanpada, Navi Mumbai - MPCB",30-03-2026 08:00:00,19.0575752,73.0151367,NH3,2,8,4
India,Maharashtra,Navi Mumbai,"Sector-2E Kalamboli, Navi Mumbai - MPCB",30-03-2026 08:00:00,19.02579,73.10297,NO2,7,17,12
India,Maharashtra,Mumbai,"Mulund West, Mumbai - MPCB",30-03-2026 08:00:00,19.1750,72.9419,PM10,NA,NA,NA
India,Maharashtra,Mumbai,"Mulund West, Mumbai - MPCB",30-03-2026 08:00:00,19.1750,72.9419,NH3,2,3,3
India,Maharashtra,Mumbai,"Navy Nagar-Colaba, Mumbai - IITM",30-03-2026 08:00:00,18.897756,72.813320,NH3,4,6,5
India,Maharashtra,Mumbai,"Powai, Mumbai - MPCB",30-03-2026 08:00:00,19.137500,72.915056,NO2,NA,NA,NA
India,Maharashtra,Mumbai,"Powai, Mumbai - MPCB",30-03-2026 08:00:00,19.137500,72.915056,SO2,NA,NA,NA
India,Maharashtra,Mumbai,"Shivaji Nagar, Mumbai - BMC",30-03-2026 08:00:00,19.060498,72.923356,SO2,1,7,1
India,Maharashtra,Mumbai,"Siddharth Nagar-Worli, Mumbai - IITM",30-03-2026 08:00:00,19.000083,72.813993,NH3,3,4,3
India,Maharashtra,Mumbai,"Ghatkopar, Mumbai - BMC",30-03-2026 08:00:00,19.083694,72.920967,PM10,21,53,36
India,Maharashtra,Mumbai,"Ghatkopar, Mumbai - BMC",30-03-2026 08:00:00,19.083694,72.920967,SO2,1,2,1
India,Maharashtra,Mumbai,"Kandivali East, Mumbai - MPCB",30-03-2026 08:00:00,19.205800,72.868200,PM10,2,21,12
India,Maharashtra,Mumbai,"Kandivali East, Mumbai - MPCB",30-03-2026 08:00:00,19.205800,72.868200,NO2,36,36,36
India,Maharashtra,Mumbai,"Kandivali West, Mumbai - BMC",30-03-2026 08:00:00,19.215859,72.831718,PM10,17,32,26
India,Maharashtra,Mumbai,"Kandivali West, Mumbai - BMC",30-03-2026 08:00:00,19.215859,72.831718,NO2,NA,NA,NA
India,Maharashtra,Mumbai,"Khindipada-Bhandup West, Mumbai - IITM",30-03-2026 08:00:00,19.1653323,72.922099,CO,11,20,14
India,Maharashtra,Pune,"Bhosari, Pune - IITM",30-03-2026 08:00:00,18.640051,73.848956,CO,2,54,2
India,Maharashtra,Pune,"Dhankawadi, Pune - IITM",30-03-2026 08:00:00,18.459883,73.852193,NO2,2,19,9
India,Maharashtra,Pune,"Dhankawadi, Pune - IITM",30-03-2026 08:00:00,18.459883,73.852193,OZONE,1,32,2
India,Maharashtra,Pune,"Katraj Dairy, Pune - MPCB",30-03-2026 08:00:00,18.454450,73.854155,OZONE,14,46,18
India,Maharashtra,Pune,"Mhada Colony, Pune - IITM",30-03-2026 08:00:00,18.573040,73.927715,PM10,52,95,71
India,Maharashtra,Pune,"Panchawati_Pashan, Pune - IITM",30-03-2026 08:00:00,18.536457,73.805454,PM2.5,11,60,35
India,Maharashtra,Parbhani,"Masoom Colony, Parbhani - MPCB",30-03-2026 08:00:00,19.265594,76.761463,PM2.5,12,33,18
India,Maharashtra,Parbhani,"Masoom Colony, Parbhani - MPCB",30-03-2026 08:00:00,19.265594,76.761463,OZONE,10,10,10
India,Maharashtra,Pimpri-Chinchwad,"Gavalinagar, Pimpri Chinchwad - MPCB",30-03-2026 08:00:00,18.63673,73.82487,PM2.5,NA,NA,NA
India,Maharashtra,Pimpri-Chinchwad,"Park Street Wakad, Pimpri Chinchwad - MPCB",30-03-2026 08:00:00,18.59051,73.77946,NH3,2,5,4
India,Maharashtra,Mumbai,"Malad West, Mumbai - IITM",30-03-2026 08:00:00,19.19709,72.82204,NO2,17,30,23
India,Maharashtra,Mumbai,"Mazgaon, Mumbai - IITM",30-03-2026 08:00:00,18.96702,72.84214,PM10,10,55,30
India,Maharashtra,Mumbai,"Mazgaon, Mumbai - IITM",30-03-2026 08:00:00,18.96702,72.84214,OZONE,9,40,18
India,Meghalaya,Shillong,"Lumpyngngad, Shillong - Meghalaya PCB",30-03-2026 08:00:00,25.5586,91.8985,NO2,NA,NA,NA
India,Mizoram,Aizawl,"Sikulpuikawn, Aizawl - Mizoram PCB",30-03-2026 08:00:00,23.7176342,92.7192841,PM10,39,82,62
India,Nagaland,Kohima,"PWD Junction, Kohima - NPCB",30-03-2026 08:00:00,25.6635413,94.0989878,PM10,14,43,26
India,Nagaland,Kohima,"PWD Junction, Kohima - NPCB",30-03-2026 08:00:00,25.6635413,94.0989878,NO2,3,4,3
India,Nagaland,Kohima,"PWD Junction, Kohima - NPCB",30-03-2026 08:00:00,25.6635413,94.0989878,NH3,1,1,1
India,Odisha,Angul,"Hakimapada, Angul - OSPCB",30-03-2026 08:00:00,20.832874,85.104082,PM2.5,12,316,104
India,Odisha,Angul,"Hakimapada, Angul - OSPCB",30-03-2026 08:00:00,20.832874,85.104082,SO2,3,118,30
India,Odisha,Angul,"Hakimapada, Angul - OSPCB",30-03-2026 08:00:00,20.832874,85.104082,CO,18,90,51
India,Odisha,Balasore,"Kalidaspur, Balasore - OSPCB",30-03-2026 08:00:00,21.51161,86.89088,PM10,23,103,50
India,Punjab,Rupnagar,"Ratanpura, Rupnagar - Ambuja Cements",30-03-2026 08:00:00,31.0325454,76.5623046,CO,44,51,46
India,Rajasthan,Ajmer,"Civil Lines,  Ajmer - RSPCB",30-03-2026 08:00:00,26.470859,74.646594,PM2.5,27,70,52
India,Rajasthan,Ajmer,"Civil Lines,  Ajmer - RSPCB",30-03-2026 08:00:00,26.470859,74.646594,PM10,34,121,89
India,Rajasthan,Ajmer,"Civil Lines,  Ajmer - RSPCB",30-03-2026 08:00:00,26.470859,74.646594,CO,15,92,42
India,Rajasthan,Ajmer,"Civil Lines,  Ajmer - RSPCB",30-03-2026 08:00:00,26.470859,74.646594,OZONE,4,44,10
India,Rajasthan,Banswara,"Rati Talai, Banswara - RSPCB",30-03-2026 08:00:00,23.555190,74.440010,NH3,5,11,7
India,Rajasthan,Baran,"Bamboliya, Baran - RSPCB",30-03-2026 08:00:00,25.106006,76.469948,NH3,2,10,6
India,Rajasthan,Baran,"Bamboliya, Baran - RSPCB",30-03-2026 08:00:00,25.106006,76.469948,OZONE,10,107,25
India,Rajasthan,Barmer,"Railway Colony, Barmer - RSPCB",30-03-2026 08:00:00,25.747299,71.393989,CO,8,16,11
India,Odisha,Cuttack,"CDA Area, Cuttack - OSPCB",30-03-2026 08:00:00,20.48891     ,85.84768     ,SO2,5,6,5
India,Odisha,Keonjhar,"Jagamohanpur, Keonjhar - OSPCB",30-03-2026 08:00:00,21.643900,85.599355,NO2,8,10,9
India,Odisha,Nayagarh,"Dabuna, Nayagarh - OSPCB",30-03-2026 08:00:00,21.847279,85.416905,PM10,79,408,156
India,Odisha,Nayagarh,"Dabuna, Nayagarh - OSPCB",30-03-2026 08:00:00,21.847279,85.416905,NO2,5,7,6
India,Odisha,Rairangpur,"Divisional Forest Office, Rairangpur - OSPCB",30-03-2026 08:00:00,22.265816,86.174829,PM10,54,98,75
India,Odisha,Rairangpur,"Divisional Forest Office, Rairangpur - OSPCB",30-03-2026 08:00:00,22.265816,86.174829,OZONE,4,37,5
India,Odisha,Rourkela,"Fertilizer Township, Rourkela - OSPCB",30-03-2026 08:00:00,22.18972222,84.86277778,NO2,11,11,11
India,Odisha,Rourkela,"Raghunathpali, Rourkela - OSPCB",30-03-2026 08:00:00,22.220833,84.809444,PM10,65,144,102
India,Punjab,Bathinda,"Hardev Nagar, Bathinda - PPCB",30-03-2026 08:00:00,30.233011,74.907758,SO2,2,17,9
India,Punjab,Jalandhar,"Civil Line, Jalandhar - PPCB",30-03-2026 08:00:00,31.321907,75.578914,PM10,35,102,59
India,Punjab,Khanna,"Kalal Majra, Khanna - PPCB",30-03-2026 08:00:00,30.736056 ,76.209694,PM10,18,69,35
India,Punjab,Khanna,"Kalal Majra, Khanna - PPCB",30-03-2026 08:00:00,30.736056 ,76.209694,SO2,13,16,14
India,Punjab,Mandi Gobindgarh,"RIMT University, Mandi Gobindgarh - PPCB",30-03-2026 08:00:00,30.649961,76.331442,PM2.5,11,77,32
India,Punjab,Mandi Gobindgarh,"RIMT University, Mandi Gobindgarh - PPCB",30-03-2026 08:00:00,30.649961,76.331442,PM10,14,96,41
India,Punjab,Mandi Gobindgarh,"RIMT University, Mandi Gobindgarh - PPCB",30-03-2026 08:00:00,30.649961,76.331442,CO,8,94,22
India,Punjab,Patiala,"Model Town, Patiala - PPCB",30-03-2026 08:00:00,30.349388,76.366642,SO2,7,21,13
India,Maharashtra,Pune,"Revenue Colony-Shivajinagar, Pune - IITM",30-03-2026 08:00:00,18.530085,73.849598,CO,18,54,26
India,Maharashtra,Pune,"Revenue Colony-Shivajinagar, Pune - IITM",30-03-2026 08:00:00,18.530085,73.849598,OZONE,10,62,16
India,Maharashtra,Pune,"Savitribai Phule Pune University, Pune - MPCB",30-03-2026 08:00:00,18.547056,73.826908,PM10,52,83,67
India,Maharashtra,Pune,"Transport Nagar-Nigdi, Pune - IITM",30-03-2026 08:00:00,18.664282,73.763966,NO2,17,62,28
India,Maharashtra,Pune,"Transport Nagar-Nigdi, Pune - IITM",30-03-2026 08:00:00,18.664282,73.763966,OZONE,NA,NA,NA
India,Maharashtra,Solapur,"Dnyaneshwar Nagar, Solapur - MPCB",30-03-2026 08:00:00,17.6336264,75.9132495,PM10,NA,NA,NA
India,Maharashtra,Solapur,"Ratandeep Housing Society, Solapur - MPCB",30-03-2026 08:00:00,17.65439,75.90649,NH3,3,12,7
India,Odisha,Talcher,"Talcher Coalfields,Talcher - OSPCB",30-03-2026 08:00:00,20.9360711,85.1707021,PM2.5,3,302,76
India,Odisha,Talcher,"Talcher Coalfields,Talcher - OSPCB",30-03-2026 08:00:00,20.9360711,85.1707021,NH3,6,10,7
India,Puducherry,Puducherry,"Jawahar Nagar, Puducherry - PPCC",30-03-2026 08:00:00,11.9309,79.8027,PM10,14,47,23
India,Puducherry,Puducherry,"Jawahar Nagar, Puducherry - PPCC",30-03-2026 08:00:00,11.9309,79.8027,OZONE,7,35,16
India,Punjab,Amritsar,"Golden Temple, Amritsar - PPCB",30-03-2026 08:00:00,31.620000,74.876512,NO2,34,79,56
India,Punjab,Amritsar,"Golden Temple, Amritsar - PPCB",30-03-2026 08:00:00,31.620000,74.876512,OZONE,32,42,38
India,Maharashtra,Ulhasnagar,"Sidhi Vinayak Nagar, Ulhasnagar - MPCB",30-03-2026 08:00:00,19.235581,73.159121,PM2.5,21,85,45
India,Maharashtra,Ulhasnagar,"Sidhi Vinayak Nagar, Ulhasnagar - MPCB",30-03-2026 08:00:00,19.235581,73.159121,CO,8,22,15
India,Maharashtra,Ulhasnagar,"Vithalwadi, Ulhasnagar - MPCB",30-03-2026 08:00:00,19.2307571 ,73.1551920,NO2,12,27,16
India,Maharashtra,Ulhasnagar,"Vithalwadi, Ulhasnagar - MPCB",30-03-2026 08:00:00,19.2307571 ,73.1551920,SO2,4,14,6
India,Meghalaya,Shillong,"JN Stadium, Shillong - Meghalaya PCB",30-03-2026 08:00:00,25.5803419,91.8942571,PM10,NA,NA,NA
India,Odisha,Barbil,"Forest Office, Barbil - OSPCB",30-03-2026 08:00:00,22.1166054,85.3945546,NO2,12,36,23
India,Odisha,Bhubaneswar,"Lingraj Mandir, Bhubaneswar - OSPCB",30-03-2026 08:00:00,20.240790,85.836784,NH3,4,13,5
India,Odisha,Bhubaneswar,"Lingraj Mandir, Bhubaneswar - OSPCB",30-03-2026 08:00:00,20.240790,85.836784,OZONE,6,228,12
India,Odisha,Brajrajnagar,"GM Office, Brajrajnagar - OSPCB",30-03-2026 08:00:00,21.8004996,83.8396977,PM2.5,4,90,40
India,Odisha,Brajrajnagar,"GM Office, Brajrajnagar - OSPCB",30-03-2026 08:00:00,21.8004996,83.8396977,SO2,20,21,20
India,Rajasthan,Chittorgarh,"Shastri Nagar, Chittorgarh - RSPCB",30-03-2026 08:00:00,24.892047,74.623527,PM2.5,22,58,44
India,Rajasthan,Chittorgarh,"Shastri Nagar, Chittorgarh - RSPCB",30-03-2026 08:00:00,24.892047,74.623527,NO2,6,50,26
India,Rajasthan,Chittorgarh,"Shastri Nagar, Chittorgarh - RSPCB",30-03-2026 08:00:00,24.892047,74.623527,CO,6,22,14
India,Rajasthan,Churu,"Subash Chowk, Churu - RSPCB",30-03-2026 08:00:00,28.296139,74.961696,NO2,9,42,16
India,Rajasthan,Churu,"Subash Chowk, Churu - RSPCB",30-03-2026 08:00:00,28.296139,74.961696,NH3,4,10,5
India,Rajasthan,Churu,"Subash Chowk, Churu - RSPCB",30-03-2026 08:00:00,28.296139,74.961696,CO,20,47,21
India,Rajasthan,Churu,"Subash Chowk, Churu - RSPCB",30-03-2026 08:00:00,28.296139,74.961696,OZONE,33,99,44
India,Rajasthan,Dausa,"Khatikan Mohalla, Dausa - RSPCB",30-03-2026 08:00:00,26.895552,76.334753,PM10,31,105,64
India,Rajasthan,Dausa,"Khatikan Mohalla, Dausa - RSPCB",30-03-2026 08:00:00,26.895552,76.334753,NO2,18,69,37
India,Rajasthan,Dausa,"Khatikan Mohalla, Dausa - RSPCB",30-03-2026 08:00:00,26.895552,76.334753,SO2,4,10,6
India,Rajasthan,Dausa,"Khatikan Mohalla, Dausa - RSPCB",30-03-2026 08:00:00,26.895552,76.334753,OZONE,11,75,24
India,Rajasthan,Dholpur,"Raja Ganj, Dholpur - RSPCB",30-03-2026 08:00:00,26.699557,77.898881,PM10,43,149,86
India,Rajasthan,Dholpur,"Raja Ganj, Dholpur - RSPCB",30-03-2026 08:00:00,26.699557,77.898881,SO2,1,8,4
India,Rajasthan,Hanumangarh,"Housing Board, Hanumangarh - RSPCB",30-03-2026 08:00:00,29.610750,74.283608,PM10,49,487,117
India,Rajasthan,Jodhpur,"Mandor, Jodhpur - RSPCB",30-03-2026 08:00:00,26.358805,73.047444,NO2,5,12,8
India,Rajasthan,Jodhpur,"Mandor, Jodhpur - RSPCB",30-03-2026 08:00:00,26.358805,73.047444,NH3,2,6,4
India,Rajasthan,Jodhpur,"Samrat Ashok Udhyan, Jodhpur - RSPCB",30-03-2026 08:00:00,26.253384,72.976571,NO2,3,10,6
India,Rajasthan,Jodhpur,"Samrat Ashok Udhyan, Jodhpur - RSPCB",30-03-2026 08:00:00,26.253384,72.976571,NH3,4,6,5
India,Rajasthan,Karauli,"Satyawati Vihar, Karauli - RSPCB",30-03-2026 08:00:00,26.506177,77.025989,PM2.5,9,99,36
India,Rajasthan,Karauli,"Satyawati Vihar, Karauli - RSPCB",30-03-2026 08:00:00,26.506177,77.025989,NO2,8,39,18
India,Rajasthan,Karauli,"Satyawati Vihar, Karauli - RSPCB",30-03-2026 08:00:00,26.506177,77.025989,SO2,3,7,5
India,Rajasthan,Karauli,"Satyawati Vihar, Karauli - RSPCB",30-03-2026 08:00:00,26.506177,77.025989,CO,3,36,9
India,Rajasthan,Kota,"Dhanmandi, Kota - RSPCB",30-03-2026 08:00:00,25.164090,75.858137,PM10,55,121,87
India,Rajasthan,Kota,"Nayapura, Kota - RSPCB",30-03-2026 08:00:00,25.196024,75.855668,OZONE,21,82,34
India,Rajasthan,Kota,"Shrinath Puram, Kota - RSPCB",30-03-2026 08:00:00,25.14389,75.821256,NO2,6,13,8
India,Rajasthan,Bharatpur,"Krishna Nagar, Bharatpur - RSPCB",30-03-2026 08:00:00,27.215415,77.50873,PM2.5,7,81,27
India,Rajasthan,Bhilwara,"Pratap Nagar, Bhilwara - RSPCB",30-03-2026 08:00:00,25.339605,74.618883,PM2.5,12,38,24
India,Rajasthan,Bhiwadi,"RIICO Ind. Area III, Bhiwadi - RSPCB",30-03-2026 08:00:00,28.194909,76.862296,PM10,114,190,142
India,Rajasthan,Bhiwadi,"RIICO Ind. Area III, Bhiwadi - RSPCB",30-03-2026 08:00:00,28.194909,76.862296,SO2,7,17,13
India,Rajasthan,Bhiwadi,"RIICO Ind. Area III, Bhiwadi - RSPCB",30-03-2026 08:00:00,28.194909,76.862296,OZONE,6,47,8
India,Rajasthan,Bhiwadi,"Vasundhara Nagar_UIT, Bhiwadi - RSPCB",30-03-2026 08:00:00,28.207266,76.829265,OZONE,1,87,20
India,Rajasthan,Bikaner,"MM Ground, Bikaner - RSPCB",30-03-2026 08:00:00,28.018792,73.292658,CO,8,58,13
India,Rajasthan,Bikaner,"MM Ground, Bikaner - RSPCB",30-03-2026 08:00:00,28.018792,73.292658,OZONE,53,99,75
India,Rajasthan,Jaipur,"RIICO Sitapura, Jaipur - RSPCB",30-03-2026 08:00:00,26.786682,75.827928,PM2.5,28,220,64
India,Rajasthan,Jaipur,"RIICO Sitapura, Jaipur - RSPCB",30-03-2026 08:00:00,26.786682,75.827928,OZONE,12,78,31
India,Rajasthan,Jaipur,"Sector-2 Murlipura, Jaipur - RSPCB",30-03-2026 08:00:00,26.960669,75.771817,PM10,109,191,139
India,Rajasthan,Jaipur,"Sector-2 Murlipura, Jaipur - RSPCB",30-03-2026 08:00:00,26.960669,75.771817,SO2,3,32,8
India,Rajasthan,Jaipur,"Shastri Nagar, Jaipur - RSPCB",30-03-2026 08:00:00,26.9502929,75.730943,PM2.5,53,100,78
India,Rajasthan,Jaipur,"Shastri Nagar, Jaipur - RSPCB",30-03-2026 08:00:00,26.9502929,75.730943,PM10,99,126,111
India,Rajasthan,Jaipur,"Shastri Nagar, Jaipur - RSPCB",30-03-2026 08:00:00,26.9502929,75.730943,CO,15,114,26
India,Rajasthan,Jalore,"Mudtra Sili, Jalore - RSPCB",30-03-2026 08:00:00,25.344694,72.626208,PM10,35,97,60
India,Rajasthan,Jalore,"Mudtra Sili, Jalore - RSPCB",30-03-2026 08:00:00,25.344694,72.626208,NO2,1,13,5
India,Rajasthan,Nagaur,"Karni Colony, Nagaur - RSPCB",30-03-2026 08:00:00,27.213494,73.734444,SO2,1,7,4
India,Rajasthan,Pali,"Indira Colony Vistar, Pali - RSPCB",30-03-2026 08:00:00,25.771061, 73.340227,PM2.5,44,121,70
India,Rajasthan,Pali,"Indira Colony Vistar, Pali - RSPCB",30-03-2026 08:00:00,25.771061, 73.340227,PM10,87,152,118
India,Rajasthan,Rajsamand,"Dhoinda, Rajsamand - RSPCB",30-03-2026 08:00:00,25.036360,73.883502,PM2.5,12,33,20
India,Rajasthan,Rajsamand,"Dhoinda, Rajsamand - RSPCB",30-03-2026 08:00:00,25.036360,73.883502,SO2,3,7,4
India,Rajasthan,Sawai Madhopur,"Sahu Nagar, Sawai Madhopur - RSPCB",30-03-2026 08:00:00,26.031443,76.359327,NH3,4,8,6
India,Rajasthan,Sawai Madhopur,"Sahu Nagar, Sawai Madhopur - RSPCB",30-03-2026 08:00:00,26.031443,76.359327,OZONE,18,105,36
India,Rajasthan,Jalore,"Mudtra Sili, Jalore - RSPCB",30-03-2026 08:00:00,25.344694,72.626208,SO2,3,11,4
India,Rajasthan,Jhalawar,"Rajlaxmi Nagar, Jhalawar - RSPCB",30-03-2026 08:00:00,24.588397,76.172782,PM10,57,117,91
India,Rajasthan,Jodhpur,"Collectorate, Jodhpur - RSPCB",30-03-2026 08:00:00,26.268249,73.0193853,NO2,15,22,18
India,Rajasthan,Jodhpur,"Digari Kalan, Jodhpur - RSPCB",30-03-2026 08:00:00,26.295810,73.082283,PM10,51,345,114
India,Rajasthan,Jodhpur,"Digari Kalan, Jodhpur - RSPCB",30-03-2026 08:00:00,26.295810,73.082283,CO,4,16,14
India,Rajasthan,Jodhpur,"Jhalamand, Jodhpur - RSPCB",30-03-2026 08:00:00,26.215415,73.070156,OZONE,28,62,33
India,Rajasthan,Sikar,"Radhakishan Pura, Sikar - RSPCB",30-03-2026 08:00:00,27.608912,75.153302,SO2,2,5,3
India,Rajasthan,Sirohi,"Vedhaynath Colony, Sirohi - RSPCB",30-03-2026 08:00:00,24.885261,72.857549,SO2,4,7,5
India,Rajasthan,Tonk,"Shastri Nagar, Tonk - RSPCB",30-03-2026 08:00:00,26.159933,75.780517,PM10,100,189,137
India,Rajasthan,Tonk,"Shastri Nagar, Tonk - RSPCB",30-03-2026 08:00:00,26.159933,75.780517,NO2,5,150,38
India,Rajasthan,Udaipur,"Ashok Nagar, Udaipur - RSPCB",30-03-2026 08:00:00,24.5886166,73.6321397,OZONE,8,52,11
India,TamilNadu,Chennai,"Arumbakkam, Chennai - TNPCB",30-03-2026 08:00:00,13.0664,80.2112 ,PM2.5,NA,NA,NA
India,TamilNadu,Chennai,"Arumbakkam, Chennai - TNPCB",30-03-2026 08:00:00,13.0664,80.2112 ,SO2,NA,NA,NA
India,TamilNadu,Chennai,"Manali Village, Chennai - TNPCB",30-03-2026 08:00:00,13.1662,80.2584,SO2,13,17,15
India,TamilNadu,Chennai,"Royapuram, Chennai - TNPCB",30-03-2026 08:00:00,13.1036,80.2909,PM2.5,1,40,25
India,TamilNadu,Chennai,"Royapuram, Chennai - TNPCB",30-03-2026 08:00:00,13.1036,80.2909,PM10,18,57,35
India,TamilNadu,Chennai,"Royapuram, Chennai - TNPCB",30-03-2026 08:00:00,13.1036,80.2909,NH3,4,4,4
India,Rajasthan,Jaipur,"Mansarovar Sector-12, Jaipur - RSPCB",30-03-2026 08:00:00,26.843698,75.766894,NO2,14,59,28
India,TamilNadu,Chennai,"Velachery Res. Area, Chennai - CPCB",30-03-2026 08:00:00,13.0052189,80.2398125,NH3,3,3,3
India,TamilNadu,Coimbatore,"SIDCO Kurichi, Coimbatore - TNPCB",30-03-2026 08:00:00,10.942451,76.978996,NO2,8,11,9
India,TamilNadu,Coimbatore,"SIDCO Kurichi, Coimbatore - TNPCB",30-03-2026 08:00:00,10.942451,76.978996,CO,32,40,34
India,TamilNadu,Gummidipoondi,"Anthoni Pillai Nagar, Gummidipoondi - TNPCB",30-03-2026 08:00:00,13.4127,80.1081,PM10,43,116,89
India,TamilNadu,Thoothukudi,"Meelavittan, Thoothukudi - TNPCB",30-03-2026 08:00:00,8.816428 ,78.099039,NO2,11,19,15
India,TamilNadu,Thoothukudi,"Meelavittan, Thoothukudi - TNPCB",30-03-2026 08:00:00,8.816428 ,78.099039,CO,14,42,32
India,TamilNadu,Thoothukudi,"Meelavittan, Thoothukudi - TNPCB",30-03-2026 08:00:00,8.816428 ,78.099039,OZONE,26,33,30
India,Telangana,Hyderabad,"Central University, Hyderabad - TSPCB",30-03-2026 08:00:00,17.460103,78.334361,NO2,1,53,24
India,Telangana,Hyderabad,"Central University, Hyderabad - TSPCB",30-03-2026 08:00:00,17.460103,78.334361,SO2,3,18,8
India,Telangana,Hyderabad,"Central University, Hyderabad - TSPCB",30-03-2026 08:00:00,17.460103,78.334361,OZONE,6,23,16
India,Telangana,Hyderabad,"ECIL Kapra, Hyderabad - TSPCB",30-03-2026 08:00:00,17.470431,78.566959,PM2.5,44,73,59
India,Uttar_Pradesh,Ghaziabad,"Sanjay Nagar, Ghaziabad - UPPCB",30-03-2026 08:00:00,28.685382,77.453839,CO,20,88,50
India,Uttar_Pradesh,Ghaziabad,"Vasundhara, Ghaziabad - UPPCB",30-03-2026 08:00:00,28.6603346,77.3572563,NH3,8,18,13
India,Uttar_Pradesh,Ghaziabad,"Vasundhara, Ghaziabad - UPPCB",30-03-2026 08:00:00,28.6603346,77.3572563,CO,50,87,62
India,Uttar_Pradesh,Gorakhpur,"Madan Mohan Malaviya University of Technology, Gorakhpur - UPPCB",30-03-2026 08:00:00,26.730136,83.433859,NO2,NA,NA,NA
India,Uttar_Pradesh,Gorakhpur,"Madan Mohan Malaviya University of Technology, Gorakhpur - UPPCB",30-03-2026 08:00:00,26.730136,83.433859,SO2,NA,NA,NA
India,Uttar_Pradesh,Greater Noida,"Knowledge Park - III, Greater Noida - UPPCB",30-03-2026 08:00:00,28.47272,77.482000,PM2.5,28,201,97
India,Uttar_Pradesh,Greater Noida,"Knowledge Park - III, Greater Noida - UPPCB",30-03-2026 08:00:00,28.47272,77.482000,PM10,98,215,149
India,Uttar_Pradesh,Greater Noida,"Knowledge Park - V, Greater Noida - UPPCB",30-03-2026 08:00:00,28.557054,77.453663,NH3,11,19,14
India,Uttar_Pradesh,Greater Noida,"Knowledge Park - V, Greater Noida - UPPCB",30-03-2026 08:00:00,28.557054,77.453663,SO2,9,21,14
India,Uttar_Pradesh,Greater Noida,"Knowledge Park - V, Greater Noida - UPPCB",30-03-2026 08:00:00,28.557054,77.453663,CO,6,72,44
India,Telangana,Hyderabad,"Zoo Park, Hyderabad - TSPCB",30-03-2026 08:00:00,17.349694,78.451437,PM10,148,159,153
India,Telangana,Hyderabad,"Zoo Park, Hyderabad - TSPCB",30-03-2026 08:00:00,17.349694,78.451437,SO2,2,2,2
India,Telangana,Hyderabad,"Zoo Park, Hyderabad - TSPCB",30-03-2026 08:00:00,17.349694,78.451437,OZONE,22,25,24
India,Tripura,Agartala,"Bardowali, Agartala - Tripura SPCB",30-03-2026 08:00:00,23.8175497,91.2726974,PM2.5,NA,NA,NA
India,Tripura,Agartala,"Bardowali, Agartala - Tripura SPCB",30-03-2026 08:00:00,23.8175497,91.2726974,NH3,NA,NA,NA
India,Uttar_Pradesh,Agra,"Manoharpur, Agra - UPPCB",30-03-2026 08:00:00,27.23711,78.01936,SO2,10,15,11
India,Uttar_Pradesh,Agra,"Rohta, Agra - UPPCB",30-03-2026 08:00:00,27.106972,78.000111,PM10,57,180,116
India,Uttar_Pradesh,Agra,"Rohta, Agra - UPPCB",30-03-2026 08:00:00,27.106972,78.000111,SO2,7,14,11
India,Uttar_Pradesh,Agra,"Sanjay Palace, Agra - UPPCB",30-03-2026 08:00:00,27.19865833,78.00598056,PM2.5,16,148,68
India,Uttar_Pradesh,Agra,"Sector-3B Avas Vikas Colony, Agra - UPPCB",30-03-2026 08:00:00,27.19412,77.96237,NH3,7,8,8
India,Uttar_Pradesh,Agra,"Sector-3B Avas Vikas Colony, Agra - UPPCB",30-03-2026 08:00:00,27.19412,77.96237,SO2,12,13,13
India,Uttar_Pradesh,Agra,"Shastripuram, Agra - UPPCB",30-03-2026 08:00:00,27.19862,77.92066,PM2.5,4,97,32
India,Uttar_Pradesh,Agra,"Shastripuram, Agra - UPPCB",30-03-2026 08:00:00,27.19862,77.92066,NO2,24,25,24
India,Uttar_Pradesh,Baghpat,"Sardar Patel Inter College, Baghpat - UPPCB",30-03-2026 08:00:00,28.964949,77.278761,NH3,1,3,2
India,Uttar_Pradesh,Bareilly,"Civil Lines, Bareilly - UPPCB",30-03-2026 08:00:00,28.359581,79.414455,SO2,67,101,87
India,Uttar_Pradesh,Bareilly,"Rajendra Nagar, Bareilly - UPPCB",30-03-2026 08:00:00,28.38910936,79.42963708,CO,32,43,37
India,Telangana,Hyderabad,"ICRISAT Patancheru, Hyderabad - TSPCB",30-03-2026 08:00:00,17.518400,78.278777,NH3,1,5,3
India,Telangana,Hyderabad,"IDA Pashamylaram, Hyderabad - TSPCB",30-03-2026 08:00:00,17.5316895,78.218939,NH3,1,1,1
India,Telangana,Hyderabad,"IDA Pashamylaram, Hyderabad - TSPCB",30-03-2026 08:00:00,17.5316895,78.218939,CO,2,104,60
India,Telangana,Hyderabad,"IITH Kandi, Hyderabad - TSPCB",30-03-2026 08:00:00,17.585705,78.126199,SO2,14,15,15
India,Telangana,Hyderabad,"Kompally Municipal Office, Hyderabad - TSPCB",30-03-2026 08:00:00,17.544899,78.486949,PM10,65,86,75
India,Uttar_Pradesh,Firozabad,"Vibhab Nagar, Firozabad - UPPCB",30-03-2026 08:00:00,27.1594,78.3953,PM10,57,133,98
India,Uttar_Pradesh,Ghaziabad,"Indirapuram, Ghaziabad - UPPCB",30-03-2026 08:00:00,28.646233,77.358075,PM10,126,278,164
India,Uttar_Pradesh,Ghaziabad,"Indirapuram, Ghaziabad - UPPCB",30-03-2026 08:00:00,28.646233,77.358075,NH3,13,17,15
India,Uttar_Pradesh,Ghaziabad,"Loni, Ghaziabad - UPPCB",30-03-2026 08:00:00,28.757294,77.278792,PM2.5,70,380,197
India,Uttar_Pradesh,Ghaziabad,"Loni, Ghaziabad - UPPCB",30-03-2026 08:00:00,28.757294,77.278792,PM10,183,423,256
India,Telangana,Hyderabad,"Kompally Municipal Office, Hyderabad - TSPCB",30-03-2026 08:00:00,17.544899,78.486949,OZONE,15,37,16
India,Telangana,Hyderabad,"Nacharam_TSIIC IALA, Hyderabad - TSPCB",30-03-2026 08:00:00,17.429398,78.569354,CO,NA,NA,NA
India,Telangana,Hyderabad,"Sanathnagar, Hyderabad - TSPCB",30-03-2026 08:00:00,17.4559458,78.4332152,NO2,10,41,27
India,Telangana,Hyderabad,"Somajiguda, Hyderabad - TSPCB",30-03-2026 08:00:00,17.417094,78.457437,PM10,NA,NA,NA
India,Uttar_Pradesh,Hapur,"Anand Vihar, Hapur - UPPCB",30-03-2026 08:00:00,28.725645,77.749675,NO2,1,18,7
India,Uttar_Pradesh,Jhansi,"Shivaji Nagar, Jhansi - UPPCB",30-03-2026 08:00:00,25.4547,78.6039,SO2,10,16,13
India,Uttar_Pradesh,Kanpur,"FTI Kidwai Nagar, Kanpur - UPPCB",30-03-2026 08:00:00,26.428282,80.327067,SO2,17,30,22
India,Uttar_Pradesh,Bulandshahr,"Yamunapuram, Bulandshahr - UPPCB",30-03-2026 08:00:00,28.406963,77.849831,PM2.5,22,182,75
India,Uttar_Pradesh,Bulandshahr,"Yamunapuram, Bulandshahr - UPPCB",30-03-2026 08:00:00,28.406963,77.849831,NO2,6,37,21
India,Uttar_Pradesh,Bulandshahr,"Yamunapuram, Bulandshahr - UPPCB",30-03-2026 08:00:00,28.406963,77.849831,OZONE,11,64,22
India,Uttar_Pradesh,Lucknow,"Gomti Nagar, Lucknow - UPPCB",30-03-2026 08:00:00,26.868120,81.005119,PM2.5,58,214,117
India,Uttar_Pradesh,Lucknow,"Gomti Nagar, Lucknow - UPPCB",30-03-2026 08:00:00,26.868120,81.005119,NO2,8,11,10
India,Uttar_Pradesh,Lucknow,"Gomti Nagar, Lucknow - UPPCB",30-03-2026 08:00:00,26.868120,81.005119,CO,36,44,36
India,Uttar_Pradesh,Lucknow,"Kendriya Vidyalaya, Lucknow - CPCB",30-03-2026 08:00:00,26.906111,80.948222,PM10,20,172,132
India,Uttar_Pradesh,Lucknow,"Kendriya Vidyalaya, Lucknow - CPCB",30-03-2026 08:00:00,26.906111,80.948222,NH3,5,19,10
India,Uttar_Pradesh,Lucknow,"Kukrail Picnic Spot-1, Lucknow - UPPCB",30-03-2026 08:00:00,26.90723,80.98579,NO2,31,32,32
India,Uttar_Pradesh,Lucknow,"Kukrail Picnic Spot-1, Lucknow - UPPCB",30-03-2026 08:00:00,26.90723,80.98579,SO2,20,22,21
India,Uttar_Pradesh,Lucknow,"Kukrail Picnic Spot-1, Lucknow - UPPCB",30-03-2026 08:00:00,26.90723,80.98579,CO,10,12,12
India,Uttar_Pradesh,Lucknow,"Lalbagh, Lucknow - CPCB",30-03-2026 08:00:00,26.8458805,80.9365541,NO2,34,38,36
India,Uttar_Pradesh,Lucknow,"Lalbagh, Lucknow - CPCB",30-03-2026 08:00:00,26.8458805,80.9365541,CO,12,78,44
India,Uttar_Pradesh,Lucknow,"Talkatora District Industries Center, Lucknow - CPCB",30-03-2026 08:00:00,26.83399722,80.8917361,PM2.5,65,308,151
India,Uttar_Pradesh,Lucknow,"Talkatora District Industries Center, Lucknow - CPCB",30-03-2026 08:00:00,26.83399722,80.8917361,PM10,96,135,115
India,Uttar_Pradesh,Lucknow,"Talkatora District Industries Center, Lucknow - CPCB",30-03-2026 08:00:00,26.83399722,80.8917361,NO2,44,48,46
India,West_Bengal,Durgapur,"PCBL Residential Complex, Durgapur - WBPCB",30-03-2026 08:00:00,23.5087640,87.3544400,SO2,5,6,5
India,West_Bengal,Durgapur,"Womens College_City Center, Durgapur - WBPCB",30-03-2026 08:00:00,23.549395,87.300496,PM10,40,82,61
India,West_Bengal,Durgapur,"Womens College_City Center, Durgapur - WBPCB",30-03-2026 08:00:00,23.549395,87.300496,CO,20,39,27
India,West_Bengal,Haldia,"Priyambada Housing Estate, Haldia - WBPCB",30-03-2026 08:00:00,22.06047,88.109737,NO2,9,52,30
India,West_Bengal,Haldia,"Priyambada Housing Estate, Haldia - WBPCB",30-03-2026 08:00:00,22.06047,88.109737,CO,38,51,41
India,West_Bengal,Haldia,"Priyambada Housing Estate, Haldia - WBPCB",30-03-2026 08:00:00,22.06047,88.109737,OZONE,24,28,26
India,West_Bengal,Howrah,"Belur Math, Howrah - WBPCB",30-03-2026 08:00:00,22.629801,88.352017,NH3,5,6,5
India,West_Bengal,Howrah,"Belur Math, Howrah - WBPCB",30-03-2026 08:00:00,22.629801,88.352017,SO2,6,11,9
India,West_Bengal,Howrah,"Belur Math, Howrah - WBPCB",30-03-2026 08:00:00,22.629801,88.352017,CO,14,26,17
India,West_Bengal,Howrah,"Botanical Garden, Howrah - WBPCB",30-03-2026 08:00:00,22.554954,88.292568,PM2.5,30,41,35
India,West_Bengal,Howrah,"Botanical Garden, Howrah - WBPCB",30-03-2026 08:00:00,22.554954,88.292568,NO2,2,13,7
India,Uttar_Pradesh,Raebareli," Indira Nagar, Raebareli - NTPC Unchahar",30-03-2026 08:00:00,26.207781,81.245571,OZONE,29,126,46
India,Uttar_Pradesh,Varanasi,"Ardhali Bazar, Varanasi - UPPCB",30-03-2026 08:00:00,25.3505986,82.9083074,CO,6,22,16
India,Uttar_Pradesh,Varanasi,"Bhelupur, Varanasi - UPPCB",30-03-2026 08:00:00,25.301778,82.996789,PM10,70,139,101
India,Uttar_Pradesh,Varanasi,"Bhelupur, Varanasi - UPPCB",30-03-2026 08:00:00,25.301778,82.996789,SO2,24,26,24
India,Uttar_Pradesh,Varanasi,"IESD Banaras Hindu University, Varanasi - UPPCB",30-03-2026 08:00:00,25.262326,82.995408,PM2.5,1,55,27
India,Uttar_Pradesh,Varanasi,"Maldahiya, Varanasi - UPPCB",30-03-2026 08:00:00,25.32393,82.99687,PM2.5,15,51,36
India,Uttar_Pradesh,Varanasi,"Maldahiya, Varanasi - UPPCB",30-03-2026 08:00:00,25.32393,82.99687,PM10,47,160,91
India,Uttar_Pradesh,Varanasi,"Maldahiya, Varanasi - UPPCB",30-03-2026 08:00:00,25.32393,82.99687,OZONE,3,12,4
India,Uttar_Pradesh,Vrindavan,"Omex Eternity, Vrindavan - UPPCB",30-03-2026 08:00:00,27.5714090,77.6557570,PM10,29,145,91
India,Uttar_Pradesh,Vrindavan,"Omex Eternity, Vrindavan - UPPCB",30-03-2026 08:00:00,27.5714090,77.6557570,CO,13,39,32
India,Uttarakhand,Dehradun,"Doon University, Dehradun - UKPCB",30-03-2026 08:00:00,30.269444,78.044167,NO2,1,3,1
India,Uttarakhand,Rishikesh,"Shivaji Nagar, Rishikesh - UKPCB",30-03-2026 08:00:00,30.075911,78.2859547,PM10,23,23,23
India,Uttarakhand,Rishikesh,"Shivaji Nagar, Rishikesh - UKPCB",30-03-2026 08:00:00,30.075911,78.2859547,OZONE,38,38,38
India,West_Bengal,Asansol,"Asansol Court Area, Asansol - WBPCB",30-03-2026 08:00:00,23.685297,86.945968,SO2,12,26,16
India,West_Bengal,Asansol,"Mahabir Colliery, Asansol - WBPCB",30-03-2026 08:00:00,23.6181830,87.1057180,PM10,53,104,72
India,West_Bengal,Asansol,"Mahabir Colliery, Asansol - WBPCB",30-03-2026 08:00:00,23.6181830,87.1057180,NH3,1,2,1
India,West_Bengal,Asansol,"Mahabir Colliery, Asansol - WBPCB",30-03-2026 08:00:00,23.6181830,87.1057180,SO2,5,7,6
India,West_Bengal,Asansol,"Trivenidevi Bhalotia College, Asansol - WBPCB",30-03-2026 08:00:00,23.616515,87.119133,NH3,4,5,4
India,Uttar_Pradesh,Meerut,"Jai Bhim Nagar, Meerut - UPPCB",30-03-2026 08:00:00,28.9535882,77.7622941,PM10,104,166,128
India,Uttar_Pradesh,Meerut,"Pallavpuram Phase 2, Meerut - UPPCB",30-03-2026 08:00:00,29.063510,77.709723,NH3,8,17,11
India,Uttar_Pradesh,Moradabad,"Buddhi Vihar, Moradabad - UPPCB",30-03-2026 08:00:00,28.83526,78.74460,PM10,46,105,66
India,Uttar_Pradesh,Moradabad,"Buddhi Vihar, Moradabad - UPPCB",30-03-2026 08:00:00,28.83526,78.74460,NO2,29,29,29
India,Uttar_Pradesh,Moradabad,"Eco Herbal Park, Moradabad - UPPCB",30-03-2026 08:00:00,28.840739,78.697531,PM10,80,126,105
India,Uttar_Pradesh,Moradabad,"Eco Herbal Park, Moradabad - UPPCB",30-03-2026 08:00:00,28.840739,78.697531,NH3,4,8,6
India,Uttar_Pradesh,Moradabad,"Employment Office, Moradabad - UPPCB",30-03-2026 08:00:00,28.88528,78.73880,PM2.5,50,127,84
India,Uttar_Pradesh,Moradabad,"Employment Office, Moradabad - UPPCB",30-03-2026 08:00:00,28.88528,78.73880,PM10,74,146,115
India,Uttar_Pradesh,Moradabad,"Employment Office, Moradabad - UPPCB",30-03-2026 08:00:00,28.88528,78.73880,OZONE,16,42,17
India,Uttar_Pradesh,Moradabad,"Kashiram Nagar, Moradabad - UPPCB",30-03-2026 08:00:00,28.849399,78.742362,NH3,4,4,4
India,Uttar_Pradesh,Moradabad,"Kashiram Nagar, Moradabad - UPPCB",30-03-2026 08:00:00,28.849399,78.742362,CO,22,35,29
India,Uttar_Pradesh,Moradabad,"Transport Nagar, Moradabad - UPPCB",30-03-2026 08:00:00,28.802625,78.753728,NO2,29,30,29
India,Uttar_Pradesh,Moradabad,"Transport Nagar, Moradabad - UPPCB",30-03-2026 08:00:00,28.802625,78.753728,OZONE,28,45,29
India,Uttar_Pradesh,Noida,"Sector - 125, Noida - UPPCB",30-03-2026 08:00:00,28.5447608,77.3231257,PM10,124,381,213
India,Uttar_Pradesh,Noida,"Sector - 125, Noida - UPPCB",30-03-2026 08:00:00,28.5447608,77.3231257,CO,6,104,70
India,Uttar_Pradesh,Noida,"Sector - 62, Noida - IMD",30-03-2026 08:00:00,28.6245479,77.3577104,PM2.5,26,174,112
India,Uttar_Pradesh,Noida,"Sector-1, Noida - UPPCB",30-03-2026 08:00:00,28.5898,77.3101,NH3,9,9,9
India,Uttar_Pradesh,Noida,"Sector-116, Noida - UPPCB",30-03-2026 08:00:00,28.569230,77.393848,NO2,32,132,62
India,Uttar_Pradesh,Noida,"Sector-116, Noida - UPPCB",30-03-2026 08:00:00,28.569230,77.393848,NH3,13,20,16
India,Uttar_Pradesh,Prayagraj,"Jhunsi, Prayagraj - UPPCB",30-03-2026 08:00:00,25.425602,81.917152,PM2.5,25,81,51
India,Uttar_Pradesh,Prayagraj,"Jhunsi, Prayagraj - UPPCB",30-03-2026 08:00:00,25.425602,81.917152,PM10,29,125,79
India,Uttar_Pradesh,Kanpur,"NSI Kalyanpur, Kanpur - UPPCB",30-03-2026 08:00:00,26.509954,80.249612,PM2.5,40,97,70
India,Uttar_Pradesh,Kanpur,"NSI Kalyanpur, Kanpur - UPPCB",30-03-2026 08:00:00,26.509954,80.249612,NO2,28,28,28
India,Uttar_Pradesh,Kanpur,"NSI Kalyanpur, Kanpur - UPPCB",30-03-2026 08:00:00,26.509954,80.249612,OZONE,15,19,16
India,Uttar_Pradesh,Kanpur,"Nehru Nagar, Kanpur - UPPCB",30-03-2026 08:00:00,26.4703136,80.3229863,PM2.5,42,240,103
India,Uttar_Pradesh,Kanpur,"Nehru Nagar, Kanpur - UPPCB",30-03-2026 08:00:00,26.4703136,80.3229863,SO2,6,15,13
India,West_Bengal,Durgapur,"Mahishkapur Road_B-Zone, Durgapur - WBPCB",30-03-2026 08:00:00,23.567923,87.306843,PM10,32,66,48
India,West_Bengal,Durgapur,"Mahishkapur Road_B-Zone, Durgapur - WBPCB",30-03-2026 08:00:00,23.567923,87.306843,NH3,1,2,1
India,West_Bengal,Durgapur,"Mahishkapur Road_B-Zone, Durgapur - WBPCB",30-03-2026 08:00:00,23.567923,87.306843,SO2,4,24,8
India,West_Bengal,Howrah,"Ghusuri, Howrah - WBPCB",30-03-2026 08:00:00,22.611968,88.347422,CO,9,36,16
India,West_Bengal,Howrah,"Padmapukur, Howrah - WBPCB",30-03-2026 08:00:00,22.5687319,88.2797276,NO2,5,52,29
India,West_Bengal,Kolkata,"Jadavpur, Kolkata - WBPCB",30-03-2026 08:00:00,22.49929,88.36917,PM2.5,38,54,47
India,West_Bengal,Kolkata,"Jadavpur, Kolkata - WBPCB",30-03-2026 08:00:00,22.49929,88.36917,NO2,10,16,13
India,West_Bengal,Kolkata,"Rabindra Bharati University, Kolkata - WBPCB",30-03-2026 08:00:00,22.627847,88.380669,PM2.5,35,71,51
India,West_Bengal,Kolkata,"Rabindra Bharati University, Kolkata - WBPCB",30-03-2026 08:00:00,22.627847,88.380669,SO2,5,10,8
India,West_Bengal,Kolkata,"Rabindra Bharati University, Kolkata - WBPCB",30-03-2026 08:00:00,22.627847,88.380669,CO,18,28,18
India,West_Bengal,Kolkata,"Rabindra Sarobar, Kolkata - WBPCB",30-03-2026 08:00:00,22.51106,88.35142,PM2.5,20,45,33
India,West_Bengal,Kolkata,"Rabindra Sarobar, Kolkata - WBPCB",30-03-2026 08:00:00,22.51106,88.35142,SO2,4,15,7
India,West_Bengal,Kolkata,"Victoria, Kolkata - WBPCB",30-03-2026 08:00:00,22.5448082,88.3403691,PM10,37,61,51
India,West_Bengal,Kolkata,"Victoria, Kolkata - WBPCB",30-03-2026 08:00:00,22.5448082,88.3403691,NO2,28,33,30
India,West_Bengal,Siliguri,"Ward-32 Bapupara, Siliguri - WBPCB",30-03-2026 08:00:00,26.6879226,88.4152495,OZONE,15,58,25
India,Andhra_Pradesh,Vijayawada,"Rajiv Gandhi Park, Vijayawada - APPCB",30-03-2026 08:00:00,16.509717,80.612222,NH3,7,8,8
India,Andhra_Pradesh,Vijayawada,"Rajiv Nagar, Vijayawada - APPCB",30-03-2026 08:00:00,16.554731,80.649110,PM10,NA,NA,NA
India,Arunachal_Pradesh,Naharlagun,"Naharlagun, Naharlagun - APSPCB",30-03-2026 08:00:00,27.103358,93.679645,PM10,23,65,41
India,Arunachal_Pradesh,Naharlagun,"Naharlagun, Naharlagun - APSPCB",30-03-2026 08:00:00,27.103358,93.679645,NO2,7,7,7
India,Arunachal_Pradesh,Naharlagun,"Naharlagun, Naharlagun - APSPCB",30-03-2026 08:00:00,27.103358,93.679645,SO2,10,10,10
India,Arunachal_Pradesh,Naharlagun,"Naharlagun, Naharlagun - APSPCB",30-03-2026 08:00:00,27.103358,93.679645,OZONE,6,6,6
India,Assam,Byrnihat,"Central Academy for SFS, Byrnihat - PCBA",30-03-2026 08:00:00,26.071318,91.87488,NH3,4,4,4
India,Assam,Byrnihat,"Central Academy for SFS, Byrnihat - PCBA",30-03-2026 08:00:00,26.071318,91.87488,CO,42,89,64
India,Assam,Guwahati,"IITG, Guwahati - PCBA",30-03-2026 08:00:00,26.2028636,91.70046436,NO2,NA,NA,NA
India,Assam,Guwahati,"IITG, Guwahati - PCBA",30-03-2026 08:00:00,26.2028636,91.70046436,NH3,4,5,5
India,Bihar,Araria,"Kharahiya Basti, Araria - BSPCB",30-03-2026 08:00:00,26.146529,87.454184,OZONE,9,11,10
India,Bihar,Arrah,"New DM Office, Arrah - BSPCB",30-03-2026 08:00:00,25.5626095,84.663264,PM2.5,NA,NA,NA
India,Bihar,Arrah,"New DM Office, Arrah - BSPCB",30-03-2026 08:00:00,25.5626095,84.663264,SO2,NA,NA,NA
India,Bihar,Aurangabad,"Gurdeo Nagar, Aurangabad - BSPCB",30-03-2026 08:00:00,24.75746,84.366208,SO2,6,16,11
India,Bihar,Aurangabad,"Gurdeo Nagar, Aurangabad - BSPCB",30-03-2026 08:00:00,24.75746,84.366208,CO,101,103,102
India,Bihar,Begusarai,"Lohiyanagar, Begusarai - BSPCB",30-03-2026 08:00:00,25.42742023,86.13886079,OZONE,39,49,42
India,Bihar,Bhagalpur,"DM Office_Kachari Chowk, Bhagalpur - BSPCB",30-03-2026 08:00:00,25.251013,86.989001,NH3,1,1,1
India,Andhra_Pradesh,Tirumala,"Toll Gate, Tirumala - APPCB",30-03-2026 08:00:00,13.67,79.35,CO,21,38,22
India,Andhra_Pradesh,Tirupati,"Vaikuntapuram, Tirupati - APPCB",30-03-2026 08:00:00,13.615387,79.409230,NH3,5,7,5
India,Andhra_Pradesh,Vijayawada,"HB Colony, Vijayawada - APPCB",30-03-2026 08:00:00,16.536107,80.594233,PM2.5,48,68,56
India,Andhra_Pradesh,Vijayawada,"HB Colony, Vijayawada - APPCB",30-03-2026 08:00:00,16.536107,80.594233,PM10,40,58,48
India,Andhra_Pradesh,Vijayawada,"HB Colony, Vijayawada - APPCB",30-03-2026 08:00:00,16.536107,80.594233,CO,30,44,36
India,Andhra_Pradesh,Vijayawada,"Kanuru, Vijayawada - APPCB",30-03-2026 08:00:00,16.486692,80.699436,PM10,NA,NA,NA
India,Andhra_Pradesh,Vijayawada,"Kanuru, Vijayawada - APPCB",30-03-2026 08:00:00,16.486692,80.699436,NH3,NA,NA,NA
India,Andhra_Pradesh,Vijayawada,"Kanuru, Vijayawada - APPCB",30-03-2026 08:00:00,16.486692,80.699436,OZONE,NA,NA,NA
India,Andhra_Pradesh,Guntur,"Rajendra Nagar North, Guntur - APPCB",30-03-2026 08:00:00,16.316553,80.413302,NO2,NA,NA,NA
India,Andhra_Pradesh,Guntur,"Rajendra Nagar North, Guntur - APPCB",30-03-2026 08:00:00,16.316553,80.413302,SO2,6,12,8
India,Andhra_Pradesh,Kadapa,"Yerramukkapalli, Kadapa - APPCB",30-03-2026 08:00:00,14.465052,78.824187,PM2.5,70,111,86
India,Andhra_Pradesh,Kadapa,"Yerramukkapalli, Kadapa - APPCB",30-03-2026 08:00:00,14.465052,78.824187,OZONE,17,18,18
India,Andhra_Pradesh,Machilipatnam,"Srinivas Nagar Colony, Machilipatnam - APPCB",30-03-2026 08:00:00,16.186555,81.13219,CO,NA,NA,NA
India,Andhra_Pradesh,Amaravati,"Secretariat, Amaravati - APPCB",30-03-2026 08:00:00,16.5150833,80.5181667,PM10,39,104,68
India,Andhra_Pradesh,Amaravati,"Secretariat, Amaravati - APPCB",30-03-2026 08:00:00,16.5150833,80.5181667,NH3,2,2,2
India,Andhra_Pradesh,Chittoor,"Gangineni Cheruvu, Chittoor - APPCB",30-03-2026 08:00:00,13.204880,79.097889,CO,46,82,62
India,Andhra_Pradesh,Eluru,"District Court, Eluru - APPCB",30-03-2026 08:00:00,16.711754,81.092095,NO2,6,18,11
India,Assam,Guwahati,"Pan Bazaar, Guwahati - PCBA",30-03-2026 08:00:00,26.187500,91.744194,NH3,1,1,1
India,Assam,Nagaon,"Christianpatty, Nagaon - PCBA",30-03-2026 08:00:00,26.349082,92.68449,CO,13,23,21
India,Assam,Nalbari,"Bata Chowk, Nalbari - PCBA",30-03-2026 08:00:00,26.446912,91.439057,PM2.5,NA,NA,NA
India,Assam,Silchar,"Tarapur, Silchar - PCBA",30-03-2026 08:00:00,24.82827,92.79525,PM2.5,23,68,39
India,Assam,Silchar,"Tarapur, Silchar - PCBA",30-03-2026 08:00:00,24.82827,92.79525,NH3,1,1,1
India,Assam,Silchar,"Tarapur, Silchar - PCBA",30-03-2026 08:00:00,24.82827,92.79525,OZONE,2,3,2
India,Assam,Sivasagar,"Girls College, Sivasagar - PCBA",30-03-2026 08:00:00,26.987634,94.636574,PM10,25,46,34
India,Bihar,Araria,"Kharahiya Basti, Araria - BSPCB",30-03-2026 08:00:00,26.146529,87.454184,CO,20,42,32
India,Bihar,Buxar,"Charitra Van, Buxar - BSPCB",30-03-2026 08:00:00,25.567520,83.966379,NH3,3,3,3
India,Bihar,Chhapra,"Darshan Nagar, Chhapra - BSPCB",30-03-2026 08:00:00,25.7808257,84.7446768,NO2,3,4,4
India,Assam,Silchar,"Tarapur, Silchar - PCBA",30-03-2026 08:00:00,24.82827,92.79525,NO2,23,31,29
India,Bihar,Gaya,"Kareemganj, Gaya - BSPCB",30-03-2026 08:00:00,24.792403,84.992416,CO,2,94,4
India,Chhattisgarh,Raipur,"Siltara Phase-II, Raipur - CECB",30-03-2026 08:00:00,21.371751,81.664929,CO,10,10,10
India,Chhattisgarh,Tumidih,"OP Jindal Industrial Park, Tumidih - CECB",30-03-2026 08:00:00,22.06631475,83.33820077,PM2.5,32,173,81
India,Chhattisgarh,Tumidih,"OP Jindal Industrial Park, Tumidih - CECB",30-03-2026 08:00:00,22.06631475,83.33820077,PM10,27,199,90
India,Chhattisgarh,Tumidih,"OP Jindal Industrial Park, Tumidih - CECB",30-03-2026 08:00:00,22.06631475,83.33820077,OZONE,18,18,18
India,Delhi,Delhi,"Alipur, Delhi - DPCC",30-03-2026 08:00:00,28.815329,77.153010,NH3,13,15,14
India,Delhi,Delhi,"Anand Vihar, Delhi - DPCC",30-03-2026 08:00:00,28.647622,77.3158090,PM2.5,67,324,191
India,Delhi,Delhi,"Anand Vihar, Delhi - DPCC",30-03-2026 08:00:00,28.647622,77.3158090,CO,60,108,91
India,Delhi,Delhi,"Ashok Vihar, Delhi - DPCC",30-03-2026 08:00:00,28.695381,77.181665,PM10,133,241,169
India,Chhattisgarh,Korba,"Urja Nagar, Korba - CECB",30-03-2026 08:00:00,22.348441,82.549611,CO,20,101,83
India,Chhattisgarh,Kunjemura,"OP Jindal School, Kunjemura - CECB",30-03-2026 08:00:00,22.126650,83.483212,PM10,48,210,119
India,Chhattisgarh,Kunjemura,"OP Jindal School, Kunjemura - CECB",30-03-2026 08:00:00,22.126650,83.483212,NO2,19,83,49
India,Chhattisgarh,Kunjemura,"OP Jindal School, Kunjemura - CECB",30-03-2026 08:00:00,22.126650,83.483212,SO2,13,88,37
India,Chhattisgarh,Kunjemura,"OP Jindal School, Kunjemura - CECB",30-03-2026 08:00:00,22.126650,83.483212,OZONE,2,41,3
India,Chhattisgarh,Raipur,"AIIMS, Raipur - CECB",30-03-2026 08:00:00,21.258815,81.578979,PM2.5,21,51,36
India,Chhattisgarh,Raipur,"AIIMS, Raipur - CECB",30-03-2026 08:00:00,21.258815,81.578979,NH3,3,4,3
India,Chhattisgarh,Raipur,"AIIMS, Raipur - CECB",30-03-2026 08:00:00,21.258815,81.578979,OZONE,5,23,5
India,Chhattisgarh,Raipur,"Krishak Nagar, Raipur - CECB",30-03-2026 08:00:00,21.237755,81.705301,SO2,3,12,5
India,Chhattisgarh,Raipur,"Krishak Nagar, Raipur - CECB",30-03-2026 08:00:00,21.237755,81.705301,OZONE,1,52,2
India,Bihar,Siwan,"Chitragupta Nagar, Siwan - BSPCB",30-03-2026 08:00:00,26.2271665,84.3570427,SO2,8,8,8
India,Chandigarh,Chandigarh,"Sector 22, Chandigarh - CPCC",30-03-2026 08:00:00,30.735567,76.775714,NO2,5,19,11
India,Chandigarh,Chandigarh,"Sector 22, Chandigarh - CPCC",30-03-2026 08:00:00,30.735567,76.775714,NH3,15,24,19
India,Chandigarh,Chandigarh,"Sector-25, Chandigarh - CPCC",30-03-2026 08:00:00,30.751462,76.762879,PM2.5,19,66,36
India,Chandigarh,Chandigarh,"Sector-53, Chandigarh - CPCC",30-03-2026 08:00:00,30.719859,76.738637,PM2.5,3,45,19
India,Chandigarh,Chandigarh,"Sector-53, Chandigarh - CPCC",30-03-2026 08:00:00,30.719859,76.738637,NO2,21,70,44
India,Bihar,Patna,"Muradpur, Patna - BSPCB",30-03-2026 08:00:00,25.619651,85.147382,NH3,5,6,6
India,Bihar,Patna,"Muradpur, Patna - BSPCB",30-03-2026 08:00:00,25.619651,85.147382,SO2,7,10,9
India,Bihar,Patna,"Rajbansi Nagar, Patna - BSPCB",30-03-2026 08:00:00,25.599486,85.113666,PM2.5,35,54,42
India,Bihar,Patna,"Rajbansi Nagar, Patna - BSPCB",30-03-2026 08:00:00,25.599486,85.113666,CO,25,75,54
India,Bihar,Rajgir,"Dangi Tola, Rajgir - BSPCB",30-03-2026 08:00:00,25.03280,85.41948,NO2,13,14,14
India,Bihar,Saharsa,"Police Line, Saharsa - BSPCB",30-03-2026 08:00:00,25.892357,86.590325,NH3,4,4,4
India,Delhi,Delhi,"Bawana, Delhi - DPCC",30-03-2026 08:00:00,28.776200,77.051074,SO2,10,24,16
India,Delhi,Delhi,"CRRI Mathura Road, Delhi - IMD",30-03-2026 08:00:00,28.5512005,77.2735737,PM10,111,189,147
India,Delhi,Delhi,"CRRI Mathura Road, Delhi - IMD",30-03-2026 08:00:00,28.5512005,77.2735737,OZONE,21,89,24
India,Delhi,Delhi,"Cantonment Area, Delhi - DPCC ",30-03-2026 08:00:00,28.594169 ,77.125100 ,PM2.5,25,65,42
India,Delhi,Delhi,"Chandni Chowk, Delhi - IITM",30-03-2026 08:00:00,28.656756,77.227234,PM10,156,221,196
India,Delhi,Delhi,"Chandni Chowk, Delhi - IITM",30-03-2026 08:00:00,28.656756,77.227234,NH3,6,10,7
India,Chhattisgarh,Bhilai,"Civic Center, Bhilai - Bhilai Steel Plant",30-03-2026 08:00:00,21.185571,81.343175,OZONE,9,13,11
India,Chhattisgarh,Bhilai,"Hathkhoj, Bhilai - CECB",30-03-2026 08:00:00,21.224231,81.408350,OZONE,4,20,8
India,Chhattisgarh,Chhal,"Nawapara SECL Colony, Chhal - CECB",30-03-2026 08:00:00,22.118125,83.140608,PM2.5,NA,NA,NA
India,Chhattisgarh,Chhal,"Nawapara SECL Colony, Chhal - CECB",30-03-2026 08:00:00,22.118125,83.140608,NH3,NA,NA,NA
India,Chhattisgarh,Korba,"Rampur, Korba - CECB",30-03-2026 08:00:00,22.368195,82.746431,NO2,13,44,25
India,Chhattisgarh,Korba,"Rampur, Korba - CECB",30-03-2026 08:00:00,22.368195,82.746431,CO,NA,NA,NA
India,Bihar,Muzaffarpur,"Buddha Colony, Muzaffarpur - BSPCB",30-03-2026 08:00:00,26.11442,85.39813,SO2,2,8,5
India,Bihar,Muzaffarpur,"Buddha Colony, Muzaffarpur - BSPCB",30-03-2026 08:00:00,26.11442,85.39813,CO,14,34,22
India,Bihar,Muzaffarpur,"MIT-Daudpur Kothi, Muzaffarpur - BSPCB",30-03-2026 08:00:00,26.1403345,85.3650192,PM2.5,55,77,66
India,Bihar,Patna,"Govt. High School Shikarpur, Patna - BSPCB",30-03-2026 08:00:00,25.592539,85.227158,SO2,4,7,6
India,Bihar,Patna,"Muradpur, Patna - BSPCB",30-03-2026 08:00:00,25.619651,85.147382,PM2.5,42,109,76
India,Bihar,Kishanganj,"SDM Office_Khagra, Kishanganj - BSPCB",30-03-2026 08:00:00,26.0881305,87.93840336,NH3,3,3,3
India,Bihar,Kishanganj,"SDM Office_Khagra, Kishanganj - BSPCB",30-03-2026 08:00:00,26.0881305,87.93840336,SO2,6,9,8
India,Bihar,Kishanganj,"SDM Office_Khagra, Kishanganj - BSPCB",30-03-2026 08:00:00,26.0881305,87.93840336,OZONE,32,34,33
India,Bihar,Motihari,"Gandak Colony, Motihari - BSPCB",30-03-2026 08:00:00,26.63086,84.90051,PM10,17,83,44
India,Bihar,Motihari,"Gandak Colony, Motihari - BSPCB",30-03-2026 08:00:00,26.63086,84.90051,CO,15,23,16
India,Bihar,Motihari,"Gandak Colony, Motihari - BSPCB",30-03-2026 08:00:00,26.63086,84.90051,OZONE,3,5,4
India,Bihar,Hajipur,"Industrial Area, Hajipur - BSPCB",30-03-2026 08:00:00,25.697189,85.245900,PM2.5,58,85,69
India,Bihar,Hajipur,"Industrial Area, Hajipur - BSPCB",30-03-2026 08:00:00,25.697189,85.245900,NH3,9,11,10
India,Bihar,Katihar,"Mirchaibari, Katihar - BSPCB",30-03-2026 08:00:00,25.560083,87.553265,CO,50,83,62
India,Bihar,Kishanganj,"SDM Office_Khagra, Kishanganj - BSPCB",30-03-2026 08:00:00,26.0881305,87.93840336,PM2.5,22,40,32
India,Delhi,Delhi,"Talkatora Garden, Delhi - DPCC",30-03-2026 08:00:00,28.621810,77.1944633,PM10,113,185,143
India,Delhi,Delhi,"Vivek Vihar, Delhi - DPCC",30-03-2026 08:00:00,28.672342,77.315260,CO,36,94,76
India,Delhi,Delhi,"Wazirpur, Delhi - DPCC",30-03-2026 08:00:00,28.699793,77.165453,NH3,8,11,9
India,Gujarat,Ahmedabad,"Chandkheda, Ahmedabad - IITM",30-03-2026 08:00:00,23.107969,72.574648,PM2.5,11,46,28
India,Gujarat,Ahmedabad,"Chandkheda, Ahmedabad - IITM",30-03-2026 08:00:00,23.107969,72.574648,NO2,6,27,13
India,Gujarat,Ahmedabad,"Chandkheda, Ahmedabad - IITM",30-03-2026 08:00:00,23.107969,72.574648,SO2,1,7,4
India,Gujarat,Ahmedabad,"Gyaspur, Ahmedabad - IITM",30-03-2026 08:00:00,22.977134,72.553024,NO2,20,89,48
India,Gujarat,Ahmedabad,"Gyaspur, Ahmedabad - IITM",30-03-2026 08:00:00,22.977134,72.553024,NH3,1,5,3
India,Gujarat,Ahmedabad,"Gyaspur, Ahmedabad - IITM",30-03-2026 08:00:00,22.977134,72.553024,SO2,8,68,24
India,Gujarat,Ahmedabad,"Gyaspur, Ahmedabad - IITM",30-03-2026 08:00:00,22.977134,72.553024,CO,1,53,14
India,Gujarat,Ahmedabad,"Maninagar, Ahmedabad - GPCB",30-03-2026 08:00:00,23.002657,72.591912,PM2.5,14,302,70
India,Gujarat,Ahmedabad,"Maninagar, Ahmedabad - GPCB",30-03-2026 08:00:00,23.002657,72.591912,PM10,32,159,79
India,Delhi,Delhi,"Okhla Phase-2, Delhi - DPCC",30-03-2026 08:00:00,28.530785,77.271255,NO2,24,121,71
India,Delhi,Delhi,"Okhla Phase-2, Delhi - DPCC",30-03-2026 08:00:00,28.530785,77.271255,NH3,8,13,10
India,Delhi,Delhi,"Patparganj, Delhi - DPCC",30-03-2026 08:00:00,28.623763,77.287209,NH3,8,10,9
India,Delhi,Delhi,"Patparganj, Delhi - DPCC",30-03-2026 08:00:00,28.623763,77.287209,SO2,18,49,26
India,Delhi,Delhi,"Punjabi Bagh, Delhi - DPCC",30-03-2026 08:00:00,28.674045,77.131023,PM2.5,52,304,147
India,Delhi,Delhi,"Punjabi Bagh, Delhi - DPCC",30-03-2026 08:00:00,28.674045,77.131023,SO2,33,41,37
India,Delhi,Delhi,"Punjabi Bagh, Delhi - DPCC",30-03-2026 08:00:00,28.674045,77.131023,CO,29,67,56
India,Delhi,Delhi,"Punjabi Bagh, Delhi - DPCC",30-03-2026 08:00:00,28.674045,77.131023,OZONE,4,153,8
India,Delhi,Delhi,"Pusa, Delhi - DPCC",30-03-2026 08:00:00,28.639652,77.146275,PM2.5,48,314,122
India,Delhi,Delhi,"Pusa, Delhi - DPCC",30-03-2026 08:00:00,28.639652,77.146275,PM10,130,200,154
India,Delhi,Delhi,"Pusa, Delhi - DPCC",30-03-2026 08:00:00,28.639652,77.146275,CO,48,100,72
India,Delhi,Delhi,"Pusa, Delhi - DPCC",30-03-2026 08:00:00,28.639652,77.146275,OZONE,3,187,5
India,Delhi,Delhi,"R K Puram, Delhi - DPCC",30-03-2026 08:00:00,28.563262,77.186937,PM2.5,38,374,136
India,Delhi,Delhi,"Commonwealth Sports Complex, Delhi - DPCC",30-03-2026 08:00:00,28.615828 ,77.271992 ,NO2,23,68,41
India,Delhi,Delhi,"Commonwealth Sports Complex, Delhi - DPCC",30-03-2026 08:00:00,28.615828 ,77.271992 ,SO2,51,54,53
India,Delhi,Delhi,"Commonwealth Sports Complex, Delhi - DPCC",30-03-2026 08:00:00,28.615828 ,77.271992 ,CO,100,113,108
India,Delhi,Delhi,"DTU, Delhi - CPCB",30-03-2026 08:00:00,28.7500499,77.1112615,PM10,86,149,118
India,Delhi,Delhi,"Dr. Karni Singh Shooting Range, Delhi - DPCC",30-03-2026 08:00:00,28.498571,77.264840,SO2,13,37,22
India,Delhi,Delhi,"Dr. Karni Singh Shooting Range, Delhi - DPCC",30-03-2026 08:00:00,28.498571,77.264840,OZONE,17,145,43
India,Delhi,Delhi,"Dwarka-Sector 8, Delhi - DPCC ",30-03-2026 08:00:00,28.5710274,77.0719006,SO2,18,41,26
India,Delhi,Delhi,"IGNOU_Maidan Garhi, Delhi - DPCC",30-03-2026 08:00:00,28.493624 ,77.201159 ,PM2.5,35,335,169
India,Gujarat,Ahmedabad,"Raikhad, Ahmedabad - IITM",30-03-2026 08:00:00,23.020509,72.579261,NH3,10,14,11
India,Gujarat,Ahmedabad,"Rakhial, Ahmedabad - IITM",30-03-2026 08:00:00,23.016834,72.625775,PM2.5,17,44,27
India,Gujarat,Ahmedabad,"Rakhial, Ahmedabad - IITM",30-03-2026 08:00:00,23.016834,72.625775,OZONE,1,32,2
India,Gujarat,Ahmedabad,"SAC ISRO Bopal, Ahmedabad - IITM",30-03-2026 08:00:00,23.041137,72.456691,PM10,18,53,35
India,Gujarat,Ahmedabad,"SAC ISRO Bopal, Ahmedabad - IITM",30-03-2026 08:00:00,23.041137,72.456691,OZONE,10,62,17
India,Gujarat,Ahmedabad,"SAC ISRO Satellite, Ahmedabad - IITM",30-03-2026 08:00:00,23.023389,72.515201,NO2,4,10,5
India,Gujarat,Ahmedabad,"SAC ISRO Satellite, Ahmedabad - IITM",30-03-2026 08:00:00,23.023389,72.515201,NH3,3,11,5
India,Gujarat,Ahmedabad,"SAC ISRO Satellite, Ahmedabad - IITM",30-03-2026 08:00:00,23.023389,72.515201,SO2,4,40,14
India,Gujarat,Ankleshwar,"GIDC, Ankleshwar - GPCB",30-03-2026 08:00:00,21.613267,73.010555,PM10,54,84,68
India,Delhi,Delhi,"Jawaharlal Nehru Stadium, Delhi - DPCC",30-03-2026 08:00:00,28.580280,77.233829,PM2.5,55,310,139
India,Delhi,Delhi,"Jawaharlal Nehru Stadium, Delhi - DPCC",30-03-2026 08:00:00,28.580280,77.233829,SO2,12,20,16
India,Delhi,Delhi,"Lodhi Road, Delhi - IMD",30-03-2026 08:00:00,28.5918245,77.2273074,PM10,118,190,143
India,Delhi,Delhi,"Lodhi Road, Delhi - IMD",30-03-2026 08:00:00,28.5918245,77.2273074,OZONE,20,103,22
India,Delhi,Delhi,"Major Dhyan Chand National Stadium, Delhi - DPCC",30-03-2026 08:00:00,28.611281,77.237738,NH3,14,16,15
India,Delhi,Delhi,"Mundka, Delhi - DPCC",30-03-2026 08:00:00,28.684678,77.076574,PM2.5,52,327,134
India,Delhi,Delhi,"Mundka, Delhi - DPCC",30-03-2026 08:00:00,28.684678,77.076574,NH3,6,9,7
India,Delhi,Delhi,"NSIT Dwarka, Delhi - CPCB",30-03-2026 08:00:00,28.60909,77.0325413,PM2.5,49,379,151
India,Delhi,Delhi,"NSIT Dwarka, Delhi - CPCB",30-03-2026 08:00:00,28.60909,77.0325413,SO2,11,21,15
India,Delhi,Delhi,"NSUT Jaffarpur, Delhi - DPCC",30-03-2026 08:00:00,28.594004 ,76.909423 ,NH3,12,16,14
India,Delhi,Delhi,"Najafgarh, Delhi - DPCC",30-03-2026 08:00:00,28.570173,76.933762,NH3,12,14,13
India,Delhi,Delhi,"Najafgarh, Delhi - DPCC",30-03-2026 08:00:00,28.570173,76.933762,CO,22,107,42
India,Delhi,Delhi,"Narela, Delhi - DPCC",30-03-2026 08:00:00,28.822836,77.101981,PM10,126,288,172
India,Delhi,Delhi,"Narela, Delhi - DPCC",30-03-2026 08:00:00,28.822836,77.101981,SO2,7,32,17
India,Delhi,Delhi,"Narela, Delhi - DPCC",30-03-2026 08:00:00,28.822836,77.101981,OZONE,5,108,9
India,Delhi,Delhi,"Nehru Nagar, Delhi - DPCC",30-03-2026 08:00:00,28.567890,77.250515,OZONE,2,142,3
India,Delhi,Delhi,"IHBAS, Dilshad Garden, Delhi - CPCB",30-03-2026 08:00:00,28.6811736,77.3025234,SO2,4,34,22
India,Delhi,Delhi,"JNU, Delhi - DPCC",30-03-2026 08:00:00,28.540721 ,77.168544 ,SO2,17,20,18
India,Delhi,Delhi,"Jahangirpuri, Delhi - DPCC",30-03-2026 08:00:00,28.732820,77.170633,PM10,139,405,182
India,Delhi,Delhi,"Jahangirpuri, Delhi - DPCC",30-03-2026 08:00:00,28.732820,77.170633,NO2,37,90,59
India,Delhi,Delhi,"Jahangirpuri, Delhi - DPCC",30-03-2026 08:00:00,28.732820,77.170633,NH3,7,11,9
India,Delhi,Delhi,"Jahangirpuri, Delhi - DPCC",30-03-2026 08:00:00,28.732820,77.170633,OZONE,9,171,12
India,Delhi,Delhi,"Shadipur, Delhi - CPCB",30-03-2026 08:00:00,28.6514781,77.1473105,PM2.5,114,285,193
India,Delhi,Delhi,"Shadipur, Delhi - CPCB",30-03-2026 08:00:00,28.6514781,77.1473105,CO,28,72,49
India,Delhi,Delhi,"Sirifort, Delhi - CPCB",30-03-2026 08:00:00,28.5504249,77.2159377,CO,11,54,29
India,Delhi,Delhi,"Sonia Vihar, Delhi - DPCC",30-03-2026 08:00:00,28.710508,77.249485,PM10,126,222,172
India,Delhi,Delhi,"R K Puram, Delhi - DPCC",30-03-2026 08:00:00,28.563262,77.186937,CO,24,96,75
India,Delhi,Delhi,"R K Puram, Delhi - DPCC",30-03-2026 08:00:00,28.563262,77.186937,OZONE,3,86,5
India,Delhi,Delhi,"Rohini, Delhi - DPCC",30-03-2026 08:00:00,28.732528,77.119920,PM10,139,255,173
India,Gujarat,Ankleshwar,"GIDC, Ankleshwar - GPCB",30-03-2026 08:00:00,21.613267,73.010555,CO,32,84,54
India,Gujarat,Bhavnagar,"Vidhyanagar, Bhavnagar - Nexteng Enviro",30-03-2026 08:00:00,21.755417,72.139056,NO2,35,42,37
India,Gujarat,Gandhinagar,"GIFT City, Gandhinagar - IITM",30-03-2026 08:00:00,23.163798,72.677768,PM10,67,167,105
India,Gujarat,Gandhinagar,"GIFT City, Gandhinagar - IITM",30-03-2026 08:00:00,23.163798,72.677768,CO,51,94,78
India,Gujarat,Gandhinagar,"IIPHG Lekawada, Gandhinagar - IITM",30-03-2026 08:00:00,23.243639,72.68994,PM10,35,79,58
India,Gujarat,Gandhinagar,"IIPHG Lekawada, Gandhinagar - IITM",30-03-2026 08:00:00,23.243639,72.68994,NO2,8,18,12
India,Gujarat,Gandhinagar,"IIPHG Lekawada, Gandhinagar - IITM",30-03-2026 08:00:00,23.243639,72.68994,NH3,5,7,6
India,Gujarat,Gandhinagar,"IIPHG Lekawada, Gandhinagar - IITM",30-03-2026 08:00:00,23.243639,72.68994,CO,1,12,4
India,Gujarat,Mehsana,"Sadanand Nagar, Mehsana - Nexteng Enviro",30-03-2026 08:00:00,23.593150,72.372792,NO2,33,49,40
India,Gujarat,Surat,"Katargam, Surat - Nexteng Enviro",30-03-2026 08:00:00,21.217779 ,72.834787 ,PM10,57,113,84
India,Gujarat,Surat,"Science Center, Surat - SMC",30-03-2026 08:00:00,21.170046,72.795405,PM2.5,6,55,32
India,Gujarat,Surat,"Science Center, Surat - SMC",30-03-2026 08:00:00,21.170046,72.795405,PM10,23,76,42
India,Gujarat,Surat,"Science Center, Surat - SMC",30-03-2026 08:00:00,21.170046,72.795405,SO2,19,27,22
India,Gujarat,Vadodara,"Bapunagar, Vadodara - Nexteng Enviro",30-03-2026 08:00:00,22.320153,73.216285,PM2.5,15,94,42
India,Gujarat,Vadodara,"Bapunagar, Vadodara - Nexteng Enviro",30-03-2026 08:00:00,22.320153,73.216285,NH3,3,3,3
India,Gujarat,Vadodara,"Bapunagar, Vadodara - Nexteng Enviro",30-03-2026 08:00:00,22.320153,73.216285,OZONE,3,8,3
India,Gujarat,Vapi,"Phase-1 GIDC, Vapi - GPCB",30-03-2026 08:00:00,20.362421,72.918013,SO2,20,23,22
India,Gujarat,Vatva,"Phase-4 GIDC, Vatva - GPCB",30-03-2026 08:00:00,22.969611,72.643500,NH3,28,37,33
India,Haryana,Manesar,"Sector-2 IMT, Manesar - HSPCB",30-03-2026 08:00:00,28.360699,76.936090,OZONE,10,50,14
India,Haryana,Narnaul,"Shastri Nagar, Narnaul - HSPCB",30-03-2026 08:00:00,28.060249,76.113115,CO,22,36,30
India,Haryana,Palwal,"Shyam Nagar, Palwal - HSPCB",30-03-2026 08:00:00,28.1485564,77.3320667,PM10,72,112,86
India,Haryana,Palwal,"Shyam Nagar, Palwal - HSPCB",30-03-2026 08:00:00,28.1485564,77.3320667,NH3,8,9,9
India,Haryana,Panchgaon,"Amity University, Panchgaon - IITM",30-03-2026 08:00:00,28.3153,76.9143,PM10,80,120,102
India,Haryana,Panchgaon,"Amity University, Panchgaon - IITM",30-03-2026 08:00:00,28.3153,76.9143,NO2,6,15,9
India,Haryana,Panchgaon,"Amity University, Panchgaon - IITM",30-03-2026 08:00:00,28.3153,76.9143,SO2,3,48,12
India,Haryana,Panipat,"Sector-18, Panipat - HSPCB",30-03-2026 08:00:00,29.432304,76.972765,PM10,104,191,138
India,Haryana,Jind,"Police Lines, Jind - HSPCB",30-03-2026 08:00:00,29.307814,76.337619,PM10,60,135,85
India,Haryana,Kaithal,"Rishi Nagar, Kaithal - HSPCB",30-03-2026 08:00:00,29.8006,76.4155,NO2,29,32,31
India,Haryana,Kaithal,"Rishi Nagar, Kaithal - HSPCB",30-03-2026 08:00:00,29.8006,76.4155,CO,4,57,30
India,Haryana,Karnal,"Sector-12, Karnal - HSPCB",30-03-2026 08:00:00,29.695300,77.002700,CO,12,16,13
India,Haryana,Kurukshetra,"Sector-7, Kurukshetra - HSPCB",30-03-2026 08:00:00,29.966942,76.875879,PM2.5,38,186,78
India,Haryana,Mandikhera,"General Hospital, Mandikhera(Nuh) - HSPCB",30-03-2026 08:00:00,27.9002,76.9938,PM2.5,57,241,98
India,Haryana,Mandikhera,"General Hospital, Mandikhera(Nuh) - HSPCB",30-03-2026 08:00:00,27.9002,76.9938,PM10,67,167,101
India,Haryana,Mandikhera,"General Hospital, Mandikhera(Nuh) - HSPCB",30-03-2026 08:00:00,27.9002,76.9938,NH3,12,14,13
India,Haryana,Gurugram,"Sector-51, Gurugram - HSPCB",30-03-2026 08:00:00,28.4227,77.0667,SO2,3,7,5
India,Haryana,Gurugram,"Sector-51, Gurugram - HSPCB",30-03-2026 08:00:00,28.4227,77.0667,OZONE,10,46,11
India,Haryana,Gurugram,"Teri Gram, Gurugram - HSPCB",30-03-2026 08:00:00,28.4275,77.1465,NH3,11,20,14
India,Haryana,Gurugram,"Vikas Sadan, Gurugram - HSPCB",30-03-2026 08:00:00,28.4501238,77.0263051,PM2.5,5,326,215
India,Haryana,Gurugram,"Vikas Sadan, Gurugram - HSPCB",30-03-2026 08:00:00,28.4501238,77.0263051,CO,64,114,96
India,Haryana,Hisar,"Urban Estate-II, Hisar - HSPCB",30-03-2026 08:00:00,29.140560,75.744941,NO2,27,28,28
India,Haryana,Hisar,"Urban Estate-II, Hisar - HSPCB",30-03-2026 08:00:00,29.140560,75.744941,SO2,7,15,12
India,Haryana,Ambala,"Patti Mehar, Ambala - HSPCB",30-03-2026 08:00:00,30.379589,76.778328,PM10,54,87,67
India,Haryana,Ambala,"Patti Mehar, Ambala - HSPCB",30-03-2026 08:00:00,30.379589,76.778328,OZONE,13,26,23
India,Haryana,Bhiwani,"H.B. Colony, Bhiwani - HSPCB",30-03-2026 08:00:00,28.806223,76.141105,NO2,2,22,11
India,Haryana,Faridabad,"New Industrial Town, Faridabad - HSPCB",30-03-2026 08:00:00,28.39072,77.30059,PM2.5,124,145,135
India,Haryana,Faridabad,"Sector 11, Faridabad - HSPCB",30-03-2026 08:00:00,28.376058,77.315741,NO2,30,33,31
