country,state,city,station,last_update,latitude,longitude,pollutant_id,min_value,max_value,avg_value
India,Bihar,Bihar Sharif,"D M Colony, Bihar Sharif - BSPCB",15-01-2026 08:00:00,25.204762,85.514960,PM2.5,53,117,80
India,Bihar,Buxar,"Charitra Van, Buxar - BSPCB",15-01-2026 08:00:00,25.567520,83.966379,NO2,5,10,9
India,Bihar,Buxar,"Charitra Van, Buxar - BSPCB",15-01-2026 08:00:00,25.567520,83.966379,CO,22,27,24
India,Bihar,Buxar,"Charitra Van, Buxar - BSPCB",15-01-2026 08:00:00,25.567520,83.966379,OZONE,12,80,22
India,Bihar,Gaya,"Collectorate, Gaya - BSPCB",15-01-2026 08:00:00,24.7955,84.9994,OZONE,NA,NA,NA
India,Bihar,Gaya,"Kareemganj, Gaya - BSPCB",15-01-2026 08:00:00,24.792403,84.992416,PM2.5,30,137,62
India,Bihar,Gaya,"Kareemganj, Gaya - BSPCB",15-01-2026 08:00:00,24.792403,84.992416,PM10,54,211,116
India,Bihar,Gaya,"Kareemganj, Gaya - BSPCB",15-01-2026 08:00:00,24.792403,84.992416,NH3,4,6,5
India,Andhra_Pradesh,Tirupati,"Vaikuntapuram, Tirupati - APPCB",15-01-2026 08:00:00,13.615387,79.409230,SO2,15,22,17
India,Andhra_Pradesh,Vijayawada,"HB Colony, Vijayawada - APPCB",15-01-2026 08:00:00,16.536107,80.594233,NO2,14,24,21
India,Andhra_Pradesh,Vijayawada,"HB Colony, Vijayawada - APPCB",15-01-2026 08:00:00,16.536107,80.594233,CO,29,46,46
India,Andhra_Pradesh,Vijayawada,"HB Colony, Vijayawada - APPCB",15-01-2026 08:00:00,16.536107,80.594233,OZONE,16,32,32
India,Andhra_Pradesh,Vijayawada,"Kanuru, Vijayawada - APPCB",15-01-2026 08:00:00,16.486692,80.699436,PM2.5,67,232,95
India,Andhra_Pradesh,Vijayawada,"Rajiv Gandhi Park, Vijayawada - APPCB",15-01-2026 08:00:00,16.509717,80.612222,PM2.5,54,251,92
India,Andhra_Pradesh,Vijayawada,"Rajiv Gandhi Park, Vijayawada - APPCB",15-01-2026 08:00:00,16.509717,80.612222,NO2,40,65,48
India,Andhra_Pradesh,Vijayawada,"Rajiv Nagar, Vijayawada - APPCB",15-01-2026 08:00:00,16.554731,80.649110,OZONE,15,20,20
India,Arunachal_Pradesh,Naharlagun,"Naharlagun, Naharlagun - APSPCB",15-01-2026 08:00:00,27.103358,93.679645,SO2,9,10,9
India,Assam,Byrnihat,"Central Academy for SFS, Byrnihat - PCBA",15-01-2026 08:00:00,26.071318,91.87488,PM10,71,107,90
India,Bihar,Hajipur,"Industrial Area, Hajipur - BSPCB",15-01-2026 08:00:00,25.697189,85.245900,NH3,6,11,8
India,Bihar,Katihar,"Mirchaibari, Katihar - BSPCB",15-01-2026 08:00:00,25.560083,87.553265,SO2,16,26,21
India,Bihar,Katihar,"Mirchaibari, Katihar - BSPCB",15-01-2026 08:00:00,25.560083,87.553265,CO,63,101,75
India,Bihar,Katihar,"Mirchaibari, Katihar - BSPCB",15-01-2026 08:00:00,25.560083,87.553265,OZONE,23,32,26
India,Bihar,Kishanganj,"SDM Office_Khagra, Kishanganj - BSPCB",15-01-2026 08:00:00,26.0881305,87.93840336,PM10,37,70,56
India,Assam,Silchar,"Tarapur, Silchar - PCBA",15-01-2026 08:00:00,24.82827,92.79525,PM2.5,10,69,40
India,Bihar,Arrah,"New DM Office, Arrah - BSPCB",15-01-2026 08:00:00,25.5626095,84.663264,OZONE,7,8,8
India,Bihar,Aurangabad,"Gurdeo Nagar, Aurangabad - BSPCB",15-01-2026 08:00:00,24.75746,84.366208,PM2.5,NA,NA,NA
India,Bihar,Aurangabad,"Gurdeo Nagar, Aurangabad - BSPCB",15-01-2026 08:00:00,24.75746,84.366208,PM10,73,137,100
India,Bihar,Begusarai,"Lohiyanagar, Begusarai - BSPCB",15-01-2026 08:00:00,25.42742023,86.13886079,PM2.5,57,305,106
India,Bihar,Bhagalpur,"DM Office_Kachari Chowk, Bhagalpur - BSPCB",15-01-2026 08:00:00,25.251013,86.989001,PM10,52,98,81
India,Bihar,Bhagalpur,"Mayaganj, Bhagalpur - BSPCB",15-01-2026 08:00:00,25.265194,87.012947,NO2,6,8,7
India,Bihar,Bhagalpur,"Mayaganj, Bhagalpur - BSPCB",15-01-2026 08:00:00,25.265194,87.012947,CO,68,84,74
India,Andhra_Pradesh,Anantapur,"Gulzarpet, Anantapur - APPCB",15-01-2026 08:00:00,14.675886,77.593027,SO2,10,16,11
India,Andhra_Pradesh,Anantapur,"Gulzarpet, Anantapur - APPCB",15-01-2026 08:00:00,14.675886,77.593027,OZONE,5,34,7
India,Andhra_Pradesh,Kadapa,"Yerramukkapalli, Kadapa - APPCB",15-01-2026 08:00:00,14.465052,78.824187,NO2,20,29,22
India,Andhra_Pradesh,Kadapa,"Yerramukkapalli, Kadapa - APPCB",15-01-2026 08:00:00,14.465052,78.824187,CO,13,52,14
India,Assam,Byrnihat,"Central Academy for SFS, Byrnihat - PCBA",15-01-2026 08:00:00,26.071318,91.87488,OZONE,14,22,18
India,Assam,Guwahati,"LGBI Airport, Guwahati - PCBA",15-01-2026 08:00:00,26.10887,91.589544,PM10,47,139,108
India,Assam,Guwahati,"LGBI Airport, Guwahati - PCBA",15-01-2026 08:00:00,26.10887,91.589544,NH3,4,6,5
India,Assam,Guwahati,"Pan Bazaar, Guwahati - PCBA",15-01-2026 08:00:00,26.187500,91.744194,OZONE,12,23,17
India,Assam,Nagaon,"Christianpatty, Nagaon - PCBA",15-01-2026 08:00:00,26.349082,92.68449,OZONE,9,9,9
India,Andhra_Pradesh,Amaravati,"Secretariat, Amaravati - APPCB",15-01-2026 08:00:00,16.5150833,80.5181667,PM10,94,198,124
India,Bihar,Patna,"IGSC Planetarium Complex, Patna - BSPCB",15-01-2026 08:00:00,25.610369,85.132568,OZONE,28,29,29
India,Bihar,Patna,"Muradpur, Patna - BSPCB",15-01-2026 08:00:00,25.619651,85.147382,PM2.5,96,272,186
India,Bihar,Patna,"Muradpur, Patna - BSPCB",15-01-2026 08:00:00,25.619651,85.147382,PM10,98,171,127
India,Bihar,Patna,"Muradpur, Patna - BSPCB",15-01-2026 08:00:00,25.619651,85.147382,NH3,4,5,5
India,Bihar,Patna,"Rajbansi Nagar, Patna - BSPCB",15-01-2026 08:00:00,25.599486,85.113666,PM10,62,230,110
India,Bihar,Patna,"Rajbansi Nagar, Patna - BSPCB",15-01-2026 08:00:00,25.599486,85.113666,NO2,22,127,67
India,Bihar,Patna,"Rajbansi Nagar, Patna - BSPCB",15-01-2026 08:00:00,25.599486,85.113666,SO2,6,7,6
India,Bihar,Patna,"Samanpura, Patna - BSPCB",15-01-2026 08:00:00,25.596727,85.085624,PM2.5,80,231,147
India,Bihar,Patna,"Samanpura, Patna - BSPCB",15-01-2026 08:00:00,25.596727,85.085624,SO2,1,2,2
India,Bihar,Purnia,"Mariam Nagar, Purnia - BSPCB",15-01-2026 08:00:00,25.366336,87.117468,CO,40,60,59
India,Bihar,Purnia,"Mariam Nagar, Purnia - BSPCB",15-01-2026 08:00:00,25.366336,87.117468,OZONE,22,43,24
India,Bihar,Kishanganj,"SDM Office_Khagra, Kishanganj - BSPCB",15-01-2026 08:00:00,26.0881305,87.93840336,SO2,5,10,8
India,Bihar,Kishanganj,"SDM Office_Khagra, Kishanganj - BSPCB",15-01-2026 08:00:00,26.0881305,87.93840336,OZONE,16,18,16
India,Bihar,Manguraha,"Forest Rest House, Manguraha - BSPCB",15-01-2026 08:00:00,27.308328,84.531742,NO2,4,9,6
India,Bihar,Manguraha,"Forest Rest House, Manguraha - BSPCB",15-01-2026 08:00:00,27.308328,84.531742,NH3,1,2,1
India,Bihar,Manguraha,"Forest Rest House, Manguraha - BSPCB",15-01-2026 08:00:00,27.308328,84.531742,SO2,16,17,16
India,Bihar,Manguraha,"Forest Rest House, Manguraha - BSPCB",15-01-2026 08:00:00,27.308328,84.531742,CO,16,34,33
India,Bihar,Motihari,"Gandak Colony, Motihari - BSPCB",15-01-2026 08:00:00,26.63086,84.90051,NH3,3,3,3
India,Bihar,Muzaffarpur,"Buddha Colony, Muzaffarpur - BSPCB",15-01-2026 08:00:00,26.11442,85.39813,NO2,37,64,46
India,Bihar,Muzaffarpur,"Buddha Colony, Muzaffarpur - BSPCB",15-01-2026 08:00:00,26.11442,85.39813,CO,30,76,41
India,Chhattisgarh,Bhilai,"32Bungalows, Bhilai - CECB",15-01-2026 08:00:00,21.194815,81.314770,NO2,30,88,51
India,Chhattisgarh,Bhilai,"Civic Center, Bhilai - Bhilai Steel Plant",15-01-2026 08:00:00,21.185571,81.343175,CO,26,34,33
India,Chhattisgarh,Bhilai,"Hathkhoj, Bhilai - CECB",15-01-2026 08:00:00,21.224231,81.408350,NO2,49,98,76
India,Chhattisgarh,Bilaspur,"Mangala, Bilaspur - NTPC",15-01-2026 08:00:00,22.08815,82.13737,PM2.5,41,144,67
India,Chhattisgarh,Bilaspur,"Mangala, Bilaspur - NTPC",15-01-2026 08:00:00,22.08815,82.13737,PM10,45,128,74
India,Chhattisgarh,Chhal,"Nawapara SECL Colony, Chhal - CECB",15-01-2026 08:00:00,22.118125,83.140608,NO2,7,25,11
India,Chhattisgarh,Chhal,"Nawapara SECL Colony, Chhal - CECB",15-01-2026 08:00:00,22.118125,83.140608,NH3,6,6,6
India,Chhattisgarh,Chhal,"Nawapara SECL Colony, Chhal - CECB",15-01-2026 08:00:00,22.118125,83.140608,CO,24,57,37
India,Bihar,Siwan,"Chitragupta Nagar, Siwan - BSPCB",15-01-2026 08:00:00,26.2271665,84.3570427,SO2,8,8,8
India,Bihar,Siwan,"Chitragupta Nagar, Siwan - BSPCB",15-01-2026 08:00:00,26.2271665,84.3570427,OZONE,14,14,14
India,Chandigarh,Chandigarh,"Sector 22, Chandigarh - CPCC",15-01-2026 08:00:00,30.735567,76.775714,PM2.5,63,213,121
India,Chandigarh,Chandigarh,"Sector 22, Chandigarh - CPCC",15-01-2026 08:00:00,30.735567,76.775714,NO2,32,74,45
India,Chandigarh,Chandigarh,"Sector-25, Chandigarh - CPCC",15-01-2026 08:00:00,30.751462,76.762879,CO,40,52,44
India,Chandigarh,Chandigarh,"Sector-53, Chandigarh - CPCC",15-01-2026 08:00:00,30.719859,76.738637,PM10,56,133,102
India,Chandigarh,Chandigarh,"Sector-53, Chandigarh - CPCC",15-01-2026 08:00:00,30.719859,76.738637,NH3,7,14,11
India,Chandigarh,Chandigarh,"Sector-53, Chandigarh - CPCC",15-01-2026 08:00:00,30.719859,76.738637,CO,64,85,66
India,Chhattisgarh,Chhal,"Nawapara SECL Colony, Chhal - CECB",15-01-2026 08:00:00,22.118125,83.140608,OZONE,9,103,14
India,Chhattisgarh,Korba,"Rampur, Korba - CECB",15-01-2026 08:00:00,22.368195,82.746431,NH3,1,1,1
India,Chhattisgarh,Korba,"Rampur, Korba - CECB",15-01-2026 08:00:00,22.368195,82.746431,CO,18,33,22
India,Chhattisgarh,Korba,"Urja Nagar, Korba - CECB",15-01-2026 08:00:00,22.348441,82.549611,NH3,1,1,1
India,Chhattisgarh,Korba,"Urja Nagar, Korba - CECB",15-01-2026 08:00:00,22.348441,82.549611,OZONE,NA,NA,NA
India,Chhattisgarh,Kunjemura,"OP Jindal School, Kunjemura - CECB",15-01-2026 08:00:00,22.126650,83.483212,NO2,12,57,35
India,Chhattisgarh,Milupara,"Govt. Higher Secondary School, Milupara - CECB",15-01-2026 08:00:00,22.1910172,83.5197009,PM2.5,41,72,58
India,Chhattisgarh,Raipur,"Krishak Nagar, Raipur - CECB",15-01-2026 08:00:00,21.237755,81.705301,PM2.5,38,62,50
India,Chhattisgarh,Raipur,"Krishak Nagar, Raipur - CECB",15-01-2026 08:00:00,21.237755,81.705301,NO2,21,29,24
India,Chhattisgarh,Raipur,"Krishak Nagar, Raipur - CECB",15-01-2026 08:00:00,21.237755,81.705301,NH3,2,2,2
India,Chhattisgarh,Raipur,"Krishak Nagar, Raipur - CECB",15-01-2026 08:00:00,21.237755,81.705301,OZONE,10,15,10
India,Chhattisgarh,Raipur,"Siltara Phase-II, Raipur - CECB",15-01-2026 08:00:00,21.371751,81.664929,PM2.5,44,163,84
India,Chhattisgarh,Raipur,"Siltara Phase-II, Raipur - CECB",15-01-2026 08:00:00,21.371751,81.664929,OZONE,3,3,3
India,Chhattisgarh,Tumidih,"OP Jindal Industrial Park, Tumidih - CECB",15-01-2026 08:00:00,22.06631475,83.33820077,PM2.5,10,88,53
India,Bihar,Muzaffarpur,"MIT-Daudpur Kothi, Muzaffarpur - BSPCB",15-01-2026 08:00:00,26.1403345,85.3650192,PM10,62,69,65
India,Bihar,Muzaffarpur,"MIT-Daudpur Kothi, Muzaffarpur - BSPCB",15-01-2026 08:00:00,26.1403345,85.3650192,SO2,10,14,13
India,Bihar,Muzaffarpur,"Muzaffarpur Collectorate, Muzaffarpur - BSPCB",15-01-2026 08:00:00,26.1209,85.3647,OZONE,6,22,6
India,Bihar,Patna,"Govt. High School Shikarpur, Patna - BSPCB",15-01-2026 08:00:00,25.592539,85.227158,NO2,14,18,16
India,Bihar,Patna,"Govt. High School Shikarpur, Patna - BSPCB",15-01-2026 08:00:00,25.592539,85.227158,SO2,10,15,13
India,Bihar,Patna,"Govt. High School Shikarpur, Patna - BSPCB",15-01-2026 08:00:00,25.592539,85.227158,CO,11,78,19
India,Bihar,Patna,"Govt. High School Shikarpur, Patna - BSPCB",15-01-2026 08:00:00,25.592539,85.227158,OZONE,7,12,10
India,Bihar,Saharsa,"Police Line, Saharsa - BSPCB",15-01-2026 08:00:00,25.892357,86.590325,SO2,17,19,18
India,Bihar,Saharsa,"Police Line, Saharsa - BSPCB",15-01-2026 08:00:00,25.892357,86.590325,CO,38,44,40
India,Bihar,Saharsa,"Police Line, Saharsa - BSPCB",15-01-2026 08:00:00,25.892357,86.590325,OZONE,10,11,10
India,Bihar,Sasaram,"Dada Peer, Sasaram - BSPCB",15-01-2026 08:00:00,24.952822,84.002396,NH3,3,3,3
India,Bihar,Sasaram,"Dada Peer, Sasaram - BSPCB",15-01-2026 08:00:00,24.952822,84.002396,OZONE,16,17,17
India,Chhattisgarh,Raipur,"AIIMS, Raipur - CECB",15-01-2026 08:00:00,21.258815,81.578979,OZONE,1,27,1
India,Chhattisgarh,Raipur,"Bhatagaon New ISBT, Raipur - CECB",15-01-2026 08:00:00,21.219665,81.630094,OZONE,2,11,2
India,Delhi,Delhi,"Dr. Karni Singh Shooting Range, Delhi - DPCC",15-01-2026 08:00:00,28.498571,77.264840,PM10,148,356,247
India,Delhi,Delhi,"Dwarka-Sector 8, Delhi - DPCC ",15-01-2026 08:00:00,28.5710274,77.0719006,CO,35,109,88
India,Delhi,Delhi,"IGI Airport (T3), Delhi - IMD",15-01-2026 08:00:00,28.5627763,77.1180053,PM2.5,200,367,327
India,Delhi,Delhi,"IGI Airport (T3), Delhi - IMD",15-01-2026 08:00:00,28.5627763,77.1180053,OZONE,8,64,9
India,Delhi,Delhi,"IHBAS, Dilshad Garden, Delhi - CPCB",15-01-2026 08:00:00,28.6811736,77.3025234,NO2,25,86,68
India,Delhi,Delhi,"IHBAS, Dilshad Garden, Delhi - CPCB",15-01-2026 08:00:00,28.6811736,77.3025234,CO,41,100,80
India,Delhi,Delhi,"Alipur, Delhi - DPCC",15-01-2026 08:00:00,28.815329,77.153010,OZONE,4,40,5
India,Delhi,Delhi,"Ashok Vihar, Delhi - DPCC",15-01-2026 08:00:00,28.695381,77.181665,PM2.5,312,462,376
India,Delhi,Delhi,"Ashok Vihar, Delhi - DPCC",15-01-2026 08:00:00,28.695381,77.181665,NO2,40,100,65
India,Delhi,Delhi,"Ashok Vihar, Delhi - DPCC",15-01-2026 08:00:00,28.695381,77.181665,SO2,9,22,15
India,Delhi,Delhi,"Ashok Vihar, Delhi - DPCC",15-01-2026 08:00:00,28.695381,77.181665,CO,66,107,78
India,Delhi,Delhi,"Aya Nagar, Delhi - IMD",15-01-2026 08:00:00,28.4706914,77.1099364,OZONE,8,80,8
India,Delhi,Delhi,"Narela, Delhi - DPCC",15-01-2026 08:00:00,28.822836,77.101981,NO2,21,56,32
India,Delhi,Delhi,"Narela, Delhi - DPCC",15-01-2026 08:00:00,28.822836,77.101981,SO2,4,20,9
India,Delhi,Delhi,"Narela, Delhi - DPCC",15-01-2026 08:00:00,28.822836,77.101981,OZONE,2,76,4
India,Delhi,Delhi,"Okhla Phase-2, Delhi - DPCC",15-01-2026 08:00:00,28.530785,77.271255,PM2.5,310,466,383
India,Delhi,Delhi,"Okhla Phase-2, Delhi - DPCC",15-01-2026 08:00:00,28.530785,77.271255,NO2,66,147,92
India,Delhi,Delhi,"Okhla Phase-2, Delhi - DPCC",15-01-2026 08:00:00,28.530785,77.271255,CO,54,117,109
India,Delhi,Delhi,"Bawana, Delhi - DPCC",15-01-2026 08:00:00,28.776200,77.051074,PM10,115,416,223
India,Delhi,Delhi,"Bawana, Delhi - DPCC",15-01-2026 08:00:00,28.776200,77.051074,NO2,15,42,25
India,Delhi,Delhi,"Chandni Chowk, Delhi - IITM",15-01-2026 08:00:00,28.656756,77.227234,PM10,163,499,384
India,Delhi,Delhi,"Chandni Chowk, Delhi - IITM",15-01-2026 08:00:00,28.656756,77.227234,NO2,29,111,59
India,Delhi,Delhi,"DTU, Delhi - CPCB",15-01-2026 08:00:00,28.7500499,77.1112615,NH3,9,10,9
India,Delhi,Delhi,"Jahangirpuri, Delhi - DPCC",15-01-2026 08:00:00,28.732820,77.170633,NH3,23,32,28
India,Delhi,Delhi,"Jawaharlal Nehru Stadium, Delhi - DPCC",15-01-2026 08:00:00,28.580280,77.233829,PM2.5,302,431,374
India,Delhi,Delhi,"Jawaharlal Nehru Stadium, Delhi - DPCC",15-01-2026 08:00:00,28.580280,77.233829,NO2,47,133,75
India,Delhi,Delhi,"Lodhi Road, Delhi - IMD",15-01-2026 08:00:00,28.5918245,77.2273074,NO2,19,65,39
India,Chhattisgarh,Tumidih,"OP Jindal Industrial Park, Tumidih - CECB",15-01-2026 08:00:00,22.06631475,83.33820077,NH3,2,2,2
India,Delhi,Delhi,"Alipur, Delhi - DPCC",15-01-2026 08:00:00,28.815329,77.153010,PM2.5,250,407,332
India,Delhi,Delhi,"Alipur, Delhi - DPCC",15-01-2026 08:00:00,28.815329,77.153010,PM10,130,339,206
India,Delhi,Delhi,"Major Dhyan Chand National Stadium, Delhi - DPCC",15-01-2026 08:00:00,28.611281,77.237738,NH3,19,25,22
India,Delhi,Delhi,"Mandir Marg, Delhi - DPCC",15-01-2026 08:00:00,28.636429,77.201067,PM10,140,394,246
India,Delhi,Delhi,"Mandir Marg, Delhi - DPCC",15-01-2026 08:00:00,28.636429,77.201067,NO2,2,88,35
India,Delhi,Delhi,"Mandir Marg, Delhi - DPCC",15-01-2026 08:00:00,28.636429,77.201067,NH3,12,25,17
India,Delhi,Delhi,"Mandir Marg, Delhi - DPCC",15-01-2026 08:00:00,28.636429,77.201067,OZONE,2,113,9
India,Delhi,Delhi,"Mundka, Delhi - DPCC",15-01-2026 08:00:00,28.684678,77.076574,PM10,157,350,253
India,Delhi,Delhi,"NSIT Dwarka, Delhi - CPCB",15-01-2026 08:00:00,28.60909,77.0325413,PM2.5,97,341,213
India,Chhattisgarh,Tumidih,"OP Jindal Industrial Park, Tumidih - CECB",15-01-2026 08:00:00,22.06631475,83.33820077,NO2,35,81,56
India,Gujarat,Ahmedabad,"Gyaspur, Ahmedabad - IITM",15-01-2026 08:00:00,22.977134,72.553024,CO,16,59,35
India,Gujarat,Ahmedabad,"Maninagar, Ahmedabad - GPCB",15-01-2026 08:00:00,23.002657,72.591912,SO2,NA,NA,NA
India,Gujarat,Ahmedabad,"Maninagar, Ahmedabad - GPCB",15-01-2026 08:00:00,23.002657,72.591912,CO,NA,NA,NA
India,Gujarat,Ahmedabad,"Raikhad, Ahmedabad - IITM",15-01-2026 08:00:00,23.020509,72.579261,PM2.5,56,184,114
India,Gujarat,Ahmedabad,"Rakhial, Ahmedabad - IITM",15-01-2026 08:00:00,23.016834,72.625775,PM10,87,170,122
India,Gujarat,Ahmedabad,"Rakhial, Ahmedabad - IITM",15-01-2026 08:00:00,23.016834,72.625775,CO,12,114,28
India,Gujarat,Ahmedabad,"Rakhial, Ahmedabad - IITM",15-01-2026 08:00:00,23.016834,72.625775,OZONE,2,100,18
India,Gujarat,Ahmedabad,"SAC ISRO Bopal, Ahmedabad - IITM",15-01-2026 08:00:00,23.041137,72.456691,PM2.5,47,145,105
India,Gujarat,Ahmedabad,"SAC ISRO Bopal, Ahmedabad - IITM",15-01-2026 08:00:00,23.041137,72.456691,NO2,13,39,20
India,Gujarat,Ahmedabad,"SAC ISRO Bopal, Ahmedabad - IITM",15-01-2026 08:00:00,23.041137,72.456691,NH3,7,12,9
India,Haryana,Charkhi Dadri,"Mini Secretariat, Charkhi Dadri - HSPCB",15-01-2026 08:00:00,28.593883,76.270653,OZONE,13,17,15
India,Haryana,Dharuhera,"Municipal Corporation Office, Dharuhera -  HSPCB",15-01-2026 08:00:00,28.206800,76.799700,PM10,129,347,225
India,Haryana,Dharuhera,"Municipal Corporation Office, Dharuhera -  HSPCB",15-01-2026 08:00:00,28.206800,76.799700,NH3,7,29,20
India,Haryana,Dharuhera,"Municipal Corporation Office, Dharuhera -  HSPCB",15-01-2026 08:00:00,28.206800,76.799700,OZONE,4,34,5
India,Haryana,Faridabad,"New Industrial Town, Faridabad - HSPCB",15-01-2026 08:00:00,28.39072,77.30059,PM2.5,206,222,214
India,Haryana,Faridabad,"New Industrial Town, Faridabad - HSPCB",15-01-2026 08:00:00,28.39072,77.30059,OZONE,26,35,31
India,Haryana,Faridabad,"Sector 11, Faridabad - HSPCB",15-01-2026 08:00:00,28.376058,77.315741,PM10,91,243,179
India,Haryana,Faridabad,"Sector 30, Faridabad - HSPCB",15-01-2026 08:00:00,28.4417,77.3217,PM2.5,209,243,218
India,Haryana,Ambala,"Patti Mehar, Ambala - HSPCB",15-01-2026 08:00:00,30.379589,76.778328,OZONE,12,39,12
India,Haryana,Ballabgarh,"Nathu Colony, Ballabgarh - HSPCB",15-01-2026 08:00:00,28.3419248,77.319699,PM2.5,17,195,56
India,Haryana,Bhiwani,"H.B. Colony, Bhiwani - HSPCB",15-01-2026 08:00:00,28.806223,76.141105,PM2.5,124,322,211
India,Haryana,Bhiwani,"H.B. Colony, Bhiwani - HSPCB",15-01-2026 08:00:00,28.806223,76.141105,NO2,1,34,32
India,Haryana,Bhiwani,"H.B. Colony, Bhiwani - HSPCB",15-01-2026 08:00:00,28.806223,76.141105,SO2,12,13,12
India,Haryana,Charkhi Dadri,"Mini Secretariat, Charkhi Dadri - HSPCB",15-01-2026 08:00:00,28.593883,76.270653,PM2.5,116,369,288
India,Haryana,Charkhi Dadri,"Mini Secretariat, Charkhi Dadri - HSPCB",15-01-2026 08:00:00,28.593883,76.270653,PM10,96,265,181
India,Haryana,Charkhi Dadri,"Mini Secretariat, Charkhi Dadri - HSPCB",15-01-2026 08:00:00,28.593883,76.270653,NO2,9,22,15
India,Delhi,Delhi,"Patparganj, Delhi - DPCC",15-01-2026 08:00:00,28.623763,77.287209,PM2.5,320,436,381
India,Delhi,Delhi,"Patparganj, Delhi - DPCC",15-01-2026 08:00:00,28.623763,77.287209,SO2,9,14,12
India,Delhi,Delhi,"Pusa, Delhi - DPCC",15-01-2026 08:00:00,28.639652,77.146275,PM2.5,335,446,399
India,Delhi,Delhi,"Pusa, Delhi - DPCC",15-01-2026 08:00:00,28.639652,77.146275,NO2,36,148,101
India,Delhi,Delhi,"Pusa, Delhi - DPCC",15-01-2026 08:00:00,28.639652,77.146275,SO2,2,12,6
India,Delhi,Delhi,"Pusa, Delhi - IMD",15-01-2026 08:00:00,28.636110,77.173332,PM2.5,161,347,286
India,Delhi,Delhi,"Pusa, Delhi - IMD",15-01-2026 08:00:00,28.636110,77.173332,CO,102,124,116
India,Delhi,Delhi,"R K Puram, Delhi - DPCC",15-01-2026 08:00:00,28.563262,77.186937,PM10,163,378,273
India,Delhi,Delhi,"Vivek Vihar, Delhi - DPCC",15-01-2026 08:00:00,28.672342,77.315260,PM10,144,401,293
India,Delhi,Delhi,"Vivek Vihar, Delhi - DPCC",15-01-2026 08:00:00,28.672342,77.315260,NH3,12,14,13
India,Delhi,Delhi,"Vivek Vihar, Delhi - DPCC",15-01-2026 08:00:00,28.672342,77.315260,SO2,6,34,12
India,Delhi,Delhi,"Wazirpur, Delhi - DPCC",15-01-2026 08:00:00,28.699793,77.165453,PM10,162,432,286
India,Delhi,Delhi,"Wazirpur, Delhi - DPCC",15-01-2026 08:00:00,28.699793,77.165453,SO2,1,8,5
India,Gujarat,Ahmedabad,"Chandkheda, Ahmedabad - IITM",15-01-2026 08:00:00,23.107969,72.574648,NO2,9,58,26
India,Gujarat,Ahmedabad,"Gyaspur, Ahmedabad - IITM",15-01-2026 08:00:00,22.977134,72.553024,NO2,25,97,59
India,Gujarat,Ahmedabad,"SVPI Airport Hansol, Ahmedabad - IITM",15-01-2026 08:00:00,23.076793,72.627874,SO2,4,14,7
India,Gujarat,Ahmedabad,"SVPI Airport Hansol, Ahmedabad - IITM",15-01-2026 08:00:00,23.076793,72.627874,CO,2,24,7
India,Gujarat,Ankleshwar,"GIDC, Ankleshwar - GPCB",15-01-2026 08:00:00,21.613267,73.010555,CO,NA,NA,NA
India,Gujarat,Gandhinagar,"GIFT City, Gandhinagar - IITM",15-01-2026 08:00:00,23.163798,72.677768,NO2,14,36,24
India,Gujarat,Gandhinagar,"GIFT City, Gandhinagar - IITM",15-01-2026 08:00:00,23.163798,72.677768,NH3,5,8,6
India,Gujarat,Gandhinagar,"GIFT City, Gandhinagar - IITM",15-01-2026 08:00:00,23.163798,72.677768,OZONE,3,62,14
India,Delhi,Delhi,"R K Puram, Delhi - DPCC",15-01-2026 08:00:00,28.563262,77.186937,OZONE,9,145,10
India,Delhi,Delhi,"Rohini, Delhi - DPCC",15-01-2026 08:00:00,28.732528,77.119920,PM10,142,410,260
India,Delhi,Delhi,"Rohini, Delhi - DPCC",15-01-2026 08:00:00,28.732528,77.119920,OZONE,3,117,4
India,Delhi,Delhi,"Shadipur, Delhi - CPCB",15-01-2026 08:00:00,28.6514781,77.1473105,PM2.5,235,328,314
India,Delhi,Delhi,"Shadipur, Delhi - CPCB",15-01-2026 08:00:00,28.6514781,77.1473105,SO2,5,7,6
India,Delhi,Delhi,"Shadipur, Delhi - CPCB",15-01-2026 08:00:00,28.6514781,77.1473105,CO,54,102,84
India,Haryana,Fatehabad,"Huda Sector, Fatehabad - HSPCB",15-01-2026 08:00:00,29.503664,75.467934,SO2,10,11,11
India,Haryana,Fatehabad,"Huda Sector, Fatehabad - HSPCB",15-01-2026 08:00:00,29.503664,75.467934,CO,25,38,28
India,Haryana,Gurugram,"Sector-51, Gurugram - HSPCB",15-01-2026 08:00:00,28.4227,77.0667,NH3,9,14,12
India,Haryana,Gurugram,"Teri Gram, Gurugram - HSPCB",15-01-2026 08:00:00,28.4275,77.1465,PM2.5,249,358,323
India,Haryana,Gurugram,"Teri Gram, Gurugram - HSPCB",15-01-2026 08:00:00,28.4275,77.1465,OZONE,4,18,5
India,Gujarat,Gandhinagar,"Sector-10, Gandhinagar - GPCB",15-01-2026 08:00:00,23.221714,72.654328,PM10,64,114,94
India,Gujarat,Vapi,"Phase-1 GIDC, Vapi - GPCB",15-01-2026 08:00:00,20.362421,72.918013,NH3,NA,NA,NA
India,Gujarat,Vapi,"Phase-1 GIDC, Vapi - GPCB",15-01-2026 08:00:00,20.362421,72.918013,SO2,NA,NA,NA
India,Gujarat,Vatva,"Phase-4 GIDC, Vatva - GPCB",15-01-2026 08:00:00,22.969611,72.643500,NH3,7,10,8
India,Jammu_and_Kashmir,Srinagar,"Khunmoh, Srinagar - JKPCC",15-01-2026 08:00:00,34.06313,74.96017,PM10,70,113,95
India,Jammu_and_Kashmir,Srinagar,"Khunmoh, Srinagar - JKPCC",15-01-2026 08:00:00,34.06313,74.96017,SO2,3,4,3
India,Jammu_and_Kashmir,Srinagar,"Rajbagh, Srinagar - JKPCC",15-01-2026 08:00:00,34.066206,74.819820,PM2.5,13,32,21
India,Jammu_and_Kashmir,Srinagar,"Rajbagh, Srinagar - JKPCC",15-01-2026 08:00:00,34.066206,74.819820,OZONE,NA,NA,NA
India,Jharkhand,Dhanbad,"Sardar Patel Nagar, Dhanbad - JSPCB",15-01-2026 08:00:00,23.80569,86.44268,SO2,26,29,27
India,Karnataka,Bagalkot,"Vidayagiri, Bagalkot - KSPCB",15-01-2026 08:00:00,16.172806,75.659694,NO2,11,12,12
India,Karnataka,Bagalkot,"Vidayagiri, Bagalkot - KSPCB",15-01-2026 08:00:00,16.172806,75.659694,SO2,7,7,7
India,Karnataka,Belgaum,"Ramteerth Nagar, Belgaum - KSPCB",15-01-2026 08:00:00,15.888653,74.541751,SO2,27,30,28
India,Karnataka,Bengaluru,"Hebbal, Bengaluru - KSPCB",15-01-2026 08:00:00,13.029152,77.585901,NH3,NA,NA,NA
India,Karnataka,Bengaluru,"Hebbal, Bengaluru - KSPCB",15-01-2026 08:00:00,13.029152,77.585901,CO,12,105,26
India,Karnataka,Bengaluru,"Hombegowda Nagar, Bengaluru - KSPCB",15-01-2026 08:00:00,12.938539,77.590100,PM10,27,60,41
India,Karnataka,Bengaluru,"Hombegowda Nagar, Bengaluru - KSPCB",15-01-2026 08:00:00,12.938539,77.590100,CO,13,58,22
India,Karnataka,Bengaluru,"Jayanagar 5th Block, Bengaluru - KSPCB",15-01-2026 08:00:00,12.920984,77.584908,PM10,62,134,88
India,Karnataka,Bengaluru,"Jayanagar 5th Block, Bengaluru - KSPCB",15-01-2026 08:00:00,12.920984,77.584908,CO,3,88,11
India,Karnataka,Bengaluru,"Jigani, Bengaluru - KSPCB",15-01-2026 08:00:00,12.7816279,77.6299145,PM2.5,35,68,52
India,Karnataka,Bengaluru,"Jigani, Bengaluru - KSPCB",15-01-2026 08:00:00,12.7816279,77.6299145,PM10,42,119,84
India,Karnataka,Bengaluru,"Jigani, Bengaluru - KSPCB",15-01-2026 08:00:00,12.7816279,77.6299145,SO2,22,22,22
India,Karnataka,Bengaluru,"Shivapura_Peenya, Bengaluru - KSPCB",15-01-2026 08:00:00,13.0246342,77.5080115,NH3,4,4,4
India,Karnataka,Bengaluru,"Shivapura_Peenya, Bengaluru - KSPCB",15-01-2026 08:00:00,13.0246342,77.5080115,CO,NA,NA,NA
India,Karnataka,Bengaluru,"Silk Board, Bengaluru - KSPCB",15-01-2026 08:00:00,12.917348,77.622813,PM2.5,NA,NA,NA
India,Karnataka,Bengaluru,"Silk Board, Bengaluru - KSPCB",15-01-2026 08:00:00,12.917348,77.622813,PM10,NA,NA,NA
India,Karnataka,Bengaluru,"Silk Board, Bengaluru - KSPCB",15-01-2026 08:00:00,12.917348,77.622813,CO,24,100,34
India,Karnataka,Chikkaballapur,"Chikkaballapur Rural, Chikkaballapur - KSPCB",15-01-2026 08:00:00,13.428828,77.731418,NO2,5,73,28
India,Karnataka,Chikkaballapur,"Chikkaballapur Rural, Chikkaballapur - KSPCB",15-01-2026 08:00:00,13.428828,77.731418,CO,4,22,14
India,Karnataka,Chikkamagaluru,"Kalyana Nagara, Chikkamagaluru - KSPCB",15-01-2026 08:00:00,13.328028,75.797056,PM2.5,7,36,27
India,Haryana,Rohtak,"MD University, Rohtak - HSPCB",15-01-2026 08:00:00,28.52123,76.37138,SO2,10,13,12
India,Haryana,Sirsa,"F-Block, Sirsa - HSPCB",15-01-2026 08:00:00,29.536400,75.015800,PM2.5,62,326,145
India,Haryana,Sirsa,"F-Block, Sirsa - HSPCB",15-01-2026 08:00:00,29.536400,75.015800,SO2,5,23,13
India,Haryana,Sonipat,"Murthal, Sonipat - HSPCB",15-01-2026 08:00:00,29.027200,77.062100,NO2,21,39,32
India,Haryana,Sonipat,"Murthal, Sonipat - HSPCB",15-01-2026 08:00:00,29.027200,77.062100,OZONE,25,26,26
India,Himachal Pradesh,Baddi,"HIMUDA Complex Phase-1, Baddi - HPPCB",15-01-2026 08:00:00,30.943887,76.801991,NH3,2,3,2
India,Himachal Pradesh,Baddi,"HIMUDA Complex Phase-1, Baddi - HPPCB",15-01-2026 08:00:00,30.943887,76.801991,OZONE,6,39,6
India,Karnataka,Bengaluru,"BTM Layout, Bengaluru - CPCB",15-01-2026 08:00:00,12.9135218,77.5950804,PM2.5,NA,NA,NA
India,Karnataka,Bengaluru,"BTM Layout, Bengaluru - CPCB",15-01-2026 08:00:00,12.9135218,77.5950804,PM10,NA,NA,NA
India,Karnataka,Bengaluru,"BTM Layout, Bengaluru - CPCB",15-01-2026 08:00:00,12.9135218,77.5950804,NH3,5,8,5
India,Karnataka,Bengaluru,"BTM Layout, Bengaluru - CPCB",15-01-2026 08:00:00,12.9135218,77.5950804,CO,56,58,57
India,Karnataka,Bengaluru,"Bapuji Nagar, Bengaluru - KSPCB",15-01-2026 08:00:00,12.951913,77.539784,PM2.5,28,84,51
India,Karnataka,Bengaluru,"City Railway Station, Bengaluru - KSPCB",15-01-2026 08:00:00,12.9756843,77.5660749,NO2,32,36,34
India,Karnataka,Bengaluru,"City Railway Station, Bengaluru - KSPCB",15-01-2026 08:00:00,12.9756843,77.5660749,SO2,21,22,22
India,Haryana,Hisar,"Urban Estate-II, Hisar - HSPCB",15-01-2026 08:00:00,29.140560,75.744941,PM2.5,21,356,138
India,Haryana,Hisar,"Urban Estate-II, Hisar - HSPCB",15-01-2026 08:00:00,29.140560,75.744941,OZONE,11,78,14
India,Haryana,Jind,"Police Lines, Jind - HSPCB",15-01-2026 08:00:00,29.307814,76.337619,PM2.5,114,354,224
India,Haryana,Jind,"Police Lines, Jind - HSPCB",15-01-2026 08:00:00,29.307814,76.337619,SO2,2,3,2
India,Haryana,Karnal,"Sector-12, Karnal - HSPCB",15-01-2026 08:00:00,29.695300,77.002700,PM2.5,88,337,188
India,Haryana,Karnal,"Sector-12, Karnal - HSPCB",15-01-2026 08:00:00,29.695300,77.002700,NO2,6,7,6
India,Haryana,Palwal,"Shyam Nagar, Palwal - HSPCB",15-01-2026 08:00:00,28.1485564,77.3320667,NO2,23,24,24
India,Haryana,Panchgaon,"Amity University, Panchgaon - IITM",15-01-2026 08:00:00,28.3153,76.9143,NH3,8,13,10
India,Haryana,Panchgaon,"Amity University, Panchgaon - IITM",15-01-2026 08:00:00,28.3153,76.9143,OZONE,NA,NA,NA
India,Haryana,Panipat,"Sector-18, Panipat - HSPCB",15-01-2026 08:00:00,29.432304,76.972765,PM10,124,287,186
India,Haryana,Panipat,"Sector-18, Panipat - HSPCB",15-01-2026 08:00:00,29.432304,76.972765,OZONE,30,30,30
India,Karnataka,Bengaluru,"Peenya, Bengaluru - CPCB",15-01-2026 08:00:00,13.0270199,77.494094,PM10,47,106,90
India,Karnataka,Bengaluru,"Sanegurava Halli, Bengaluru - KSPCB",15-01-2026 08:00:00,12.990328,77.5431385,SO2,6,6,6
India,Karnataka,Bengaluru,"Shivapura_Peenya, Bengaluru - KSPCB",15-01-2026 08:00:00,13.0246342,77.5080115,PM2.5,16,71,34
India,Haryana,Kurukshetra,"Sector-7, Kurukshetra - HSPCB",15-01-2026 08:00:00,29.966942,76.875879,NH3,5,5,5
India,Haryana,Manesar,"Sector-2 IMT, Manesar - HSPCB",15-01-2026 08:00:00,28.360699,76.936090,NO2,32,54,48
India,Haryana,Manesar,"Sector-2 IMT, Manesar - HSPCB",15-01-2026 08:00:00,28.360699,76.936090,SO2,5,13,10
India,Karnataka,Shivamogga,"Vinoba Nagara, Shivamogga - KSPCB",15-01-2026 08:00:00,13.940000,75.555917,CO,14,42,39
India,Karnataka,Shivamogga,"Vinoba Nagara, Shivamogga - KSPCB",15-01-2026 08:00:00,13.940000,75.555917,OZONE,8,41,15
India,Karnataka,Tumakuru,"Thimmalapura, Tumakuru - KSPCB",15-01-2026 08:00:00,13.377516,77.099072,NH3,6,6,6
India,Karnataka,Vijayapura,"Ibrahimpur, Vijayapura - KSPCB",15-01-2026 08:00:00,16.802639,75.722694,SO2,2,3,3
India,Karnataka,Vijayapura,"Ibrahimpur, Vijayapura - KSPCB",15-01-2026 08:00:00,16.802639,75.722694,CO,17,32,23
India,Karnataka,Yadgir,"Collector Office, Yadgir - KSPCB",15-01-2026 08:00:00,16.7602,77.1428,NH3,2,3,2
India,Kerala,Eloor,"Udyogamandal, Eloor - Kerala PCB",15-01-2026 08:00:00,10.073232,76.302765,SO2,1,1,1
India,Kerala,Eloor,"Udyogamandal, Eloor - Kerala PCB",15-01-2026 08:00:00,10.073232,76.302765,CO,9,107,25
India,Kerala,Eloor,"Udyogamandal, Eloor - Kerala PCB",15-01-2026 08:00:00,10.073232,76.302765,OZONE,11,16,13
India,Kerala,Kannur,"Thavakkara, Kannur - Kerala PCB",15-01-2026 08:00:00,11.875000,75.373200,PM2.5,44,51,47
India,Madhya Pradesh,Pithampur,"Sector-2 Industrial Area, Pithampur - MPPCB",15-01-2026 08:00:00,22.624758,75.675238,SO2,1,38,16
India,Madhya Pradesh,Pithampur,"Sector-2 Industrial Area, Pithampur - MPPCB",15-01-2026 08:00:00,22.624758,75.675238,OZONE,62,184,70
India,Madhya Pradesh,Sagar,"Deen Dayal Nagar, Sagar - MPPCB",15-01-2026 08:00:00,23.8640158,78.80289321,SO2,5,11,8
India,Madhya Pradesh,Satna,"Bandhavgar Colony, Satna - Birla Cement",15-01-2026 08:00:00,24.58434363,80.8549414,PM2.5,48,52,50
India,Madhya Pradesh,Satna,"Bandhavgar Colony, Satna - Birla Cement",15-01-2026 08:00:00,24.58434363,80.8549414,NO2,12,13,12
India,Madhya Pradesh,Satna,"Bandhavgar Colony, Satna - Birla Cement",15-01-2026 08:00:00,24.58434363,80.8549414,CO,24,59,38
India,Madhya Pradesh,Singrauli,"Suryakiran Bhawan NCL, Singrauli - MPPCB",15-01-2026 08:00:00,24.108970,82.645580,PM10,94,220,148
India,Madhya Pradesh,Singrauli,"Suryakiran Bhawan NCL, Singrauli - MPPCB",15-01-2026 08:00:00,24.108970,82.645580,NO2,8,13,10
India,Madhya Pradesh,Jabalpur,"Marhatal, Jabalpur - MPPCB",15-01-2026 08:00:00,23.168606,79.932247,NH3,2,3,2
India,Madhya Pradesh,Jabalpur,"Marhatal, Jabalpur - MPPCB",15-01-2026 08:00:00,23.168606,79.932247,OZONE,39,137,52
India,Madhya Pradesh,Jabalpur,"Suhagi, Jabalpur - JMC",15-01-2026 08:00:00,23.218135,79.957770,PM10,74,146,103
India,Madhya Pradesh,Jabalpur,"Suhagi, Jabalpur - JMC",15-01-2026 08:00:00,23.218135,79.957770,CO,36,114,78
India,Madhya Pradesh,Jabalpur,"Suhagi, Jabalpur - JMC",15-01-2026 08:00:00,23.218135,79.957770,OZONE,64,111,67
India,Madhya Pradesh,Katni,"Gole Bazar, Katni - MPPCB",15-01-2026 08:00:00,23.50016,80.23284,PM2.5,48,324,127
India,Madhya Pradesh,Katni,"Gole Bazar, Katni - MPPCB",15-01-2026 08:00:00,23.50016,80.23284,NO2,27,73,45
India,Madhya Pradesh,Katni,"Gole Bazar, Katni - MPPCB",15-01-2026 08:00:00,23.50016,80.23284,CO,26,96,86
India,Madhya Pradesh,Pithampur,"Sector-2 Industrial Area, Pithampur - MPPCB",15-01-2026 08:00:00,22.624758,75.675238,NO2,15,50,23
India,Karnataka,Kalaburagi,"Mahatma Basaveswar Colony, Kalaburgi - KSPCB",15-01-2026 08:00:00,17.336318,76.847397,NH3,2,4,3
India,Karnataka,Kalaburagi,"Mahatma Basaveswar Colony, Kalaburgi - KSPCB",15-01-2026 08:00:00,17.336318,76.847397,CO,40,82,45
India,Karnataka,Koppal,"Diwator Nagar, Koppal - KSPCB",15-01-2026 08:00:00,15.347630,76.181767,PM10,27,71,45
India,Karnataka,Ramanagara,"Vijay Nagar, Ramanagara - KSPCB",15-01-2026 08:00:00,12.733409,77.298051,SO2,11,28,19
India,Karnataka,Ramanagara,"Vijay Nagar, Ramanagara - KSPCB",15-01-2026 08:00:00,12.733409,77.298051,OZONE,19,60,23
India,Karnataka,Shivamogga,"Vinoba Nagara, Shivamogga - KSPCB",15-01-2026 08:00:00,13.940000,75.555917,PM2.5,25,37,35
India,Karnataka,Shivamogga,"Vinoba Nagara, Shivamogga - KSPCB",15-01-2026 08:00:00,13.940000,75.555917,PM10,40,57,51
India,Karnataka,Shivamogga,"Vinoba Nagara, Shivamogga - KSPCB",15-01-2026 08:00:00,13.940000,75.555917,NO2,13,19,17
India,Karnataka,Shivamogga,"Vinoba Nagara, Shivamogga - KSPCB",15-01-2026 08:00:00,13.940000,75.555917,SO2,3,8,6
India,Madhya Pradesh,Bhopal,"Paryavaran Parisar, Bhopal - MPPCB",15-01-2026 08:00:00,23.210494,77.425409,PM10,74,249,145
India,Madhya Pradesh,Bhopal,"Paryavaran Parisar, Bhopal - MPPCB",15-01-2026 08:00:00,23.210494,77.425409,SO2,1,11,7
India,Madhya Pradesh,Bhopal,"Paryavaran Parisar, Bhopal - MPPCB",15-01-2026 08:00:00,23.210494,77.425409,CO,6,92,23
India,Madhya Pradesh,Bhopal,"T T Nagar, Bhopal - MPPCB",15-01-2026 08:00:00,23.233584,77.400574,PM2.5,69,179,119
India,Madhya Pradesh,Bhopal,"T T Nagar, Bhopal - MPPCB",15-01-2026 08:00:00,23.233584,77.400574,NH3,7,8,7
India,Madhya Pradesh,Damoh,"Shrivastav Colony, Damoh - MPPCB",15-01-2026 08:00:00,23.81748678,79.446246,PM10,NA,NA,NA
India,Madhya Pradesh,Dewas,"Bhopal Chauraha, Dewas - MPPCB",15-01-2026 08:00:00,22.9682591,76.064118,SO2,22,41,32
India,Madhya Pradesh,Indore,"Regional Park, Indore - IMC",15-01-2026 08:00:00,22.6780,75.8559,PM10,32,104,64
India,Madhya Pradesh,Indore,"Regional Park, Indore - IMC",15-01-2026 08:00:00,22.6780,75.8559,NO2,9,13,11
India,Madhya Pradesh,Indore,"Residency Area, Indore - IMC",15-01-2026 08:00:00,22.7084,75.8815,SO2,25,29,27
India,Madhya Pradesh,Indore,"Residency Area, Indore - IMC",15-01-2026 08:00:00,22.7084,75.8815,OZONE,13,42,16
India,Madhya Pradesh,Jabalpur,"Govindh Bhavan Colony, Jabalpur - JMC",15-01-2026 08:00:00,23.163174,79.973061,PM10,66,113,85
India,Madhya Pradesh,Jabalpur,"Govindh Bhavan Colony, Jabalpur - JMC",15-01-2026 08:00:00,23.163174,79.973061,SO2,NA,NA,NA
India,Madhya Pradesh,Jabalpur,"Gupteshwar, Jabalpur - JMC",15-01-2026 08:00:00,23.142888,79.916147,NO2,19,118,38
India,Kerala,Kollam,"Polayathode, Kollam - Kerala PCB",15-01-2026 08:00:00,8.8787,76.6073,PM2.5,71,134,102
India,Kerala,Thiruvananthapuram,"Kariavattom, Thiruvananthapuram - Kerala PCB",15-01-2026 08:00:00,8.563700,76.886500,PM10,40,83,63
India,Kerala,Thiruvananthapuram,"Kariavattom, Thiruvananthapuram - Kerala PCB",15-01-2026 08:00:00,8.563700,76.886500,NH3,1,1,1
India,Kerala,Thiruvananthapuram,"Kariavattom, Thiruvananthapuram - Kerala PCB",15-01-2026 08:00:00,8.563700,76.886500,OZONE,36,37,36
India,Kerala,Thiruvananthapuram,"Plammoodu, Thiruvananthapuram - Kerala PCB",15-01-2026 08:00:00,8.5149093,76.9435879,PM2.5,13,36,24
India,Kerala,Thiruvananthapuram,"Plammoodu, Thiruvananthapuram - Kerala PCB",15-01-2026 08:00:00,8.5149093,76.9435879,PM10,19,54,36
India,Madhya Pradesh,Dewas,"Bhopal Chauraha, Dewas - MPPCB",15-01-2026 08:00:00,22.9682591,76.064118,CO,19,40,22
India,Madhya Pradesh,Gwalior,"City Center, Gwalior - MPPCB",15-01-2026 08:00:00,26.203442,78.193251,PM2.5,96,381,226
India,Madhya Pradesh,Gwalior,"Deen Dayal Nagar, Gwalior - MPPCB",15-01-2026 08:00:00,26.259242,78.216432,PM10,82,309,186
India,Madhya Pradesh,Indore,"Airport Area, Indore - IMC",15-01-2026 08:00:00,22.7289,75.8076,PM10,66,184,118
India,Madhya Pradesh,Indore,"Airport Area, Indore - IMC",15-01-2026 08:00:00,22.7289,75.8076,SO2,19,21,19
India,Karnataka,Davanagere,"Devaraj Urs Badavane, Davanagere - KSPCB",15-01-2026 08:00:00,14.475800,75.905200,NH3,2,4,3
India,Karnataka,Davanagere,"Devaraj Urs Badavane, Davanagere - KSPCB",15-01-2026 08:00:00,14.475800,75.905200,CO,6,26,18
India,Maharashtra,Mumbai,"Deonar, Mumbai - IITM",15-01-2026 08:00:00,19.04946,72.9230,CO,4,70,56
India,Maharashtra,Mumbai,"Ghatkopar, Mumbai - BMC",15-01-2026 08:00:00,19.083694,72.920967,SO2,1,5,2
India,Maharashtra,Mumbai,"Ghatkopar, Mumbai - BMC",15-01-2026 08:00:00,19.083694,72.920967,OZONE,1,73,2
India,Maharashtra,Mumbai,"Kandivali East, Mumbai - MPCB",15-01-2026 08:00:00,19.205800,72.868200,SO2,24,26,25
India,Maharashtra,Mumbai,"Kandivali West, Mumbai - BMC",15-01-2026 08:00:00,19.215859,72.831718,PM2.5,NA,NA,NA
India,Maharashtra,Mumbai,"Kandivali West, Mumbai - BMC",15-01-2026 08:00:00,19.215859,72.831718,PM10,NA,NA,NA
India,Maharashtra,Mumbai,"Kandivali West, Mumbai - BMC",15-01-2026 08:00:00,19.215859,72.831718,NO2,NA,NA,NA
India,Maharashtra,Mumbai,"Kherwadi_Bandra East, Mumbai - MPCB",15-01-2026 08:00:00,19.0632143,72.8456324,PM2.5,69,280,117
India,Maharashtra,Chandrapur,"MIDC Khutala, Chandrapur - MPCB",15-01-2026 08:00:00,19.9775302,79.2337086,SO2,8,9,9
India,Maharashtra,Chandrapur,"MIDC Khutala, Chandrapur - MPCB",15-01-2026 08:00:00,19.9775302,79.2337086,CO,34,41,38
India,Maharashtra,Chandrapur,"MIDC Khutala, Chandrapur - MPCB",15-01-2026 08:00:00,19.9775302,79.2337086,OZONE,17,19,18
India,Maharashtra,Dhule,"Deopur, Dhule - MPCB",15-01-2026 08:00:00,20.918946,74.776388,CO,20,37,24
India,Maharashtra,Dhule,"Deopur, Dhule - MPCB",15-01-2026 08:00:00,20.918946,74.776388,OZONE,15,71,19
India,Maharashtra,Jalgaon,"Prabhat Colony, Jalgaon - MPCB",15-01-2026 08:00:00,21.001264,75.565602,NO2,4,33,14
India,Maharashtra,Jalgaon,"Prabhat Colony, Jalgaon - MPCB",15-01-2026 08:00:00,21.001264,75.565602,OZONE,2,100,20
India,Maharashtra,Kolhapur,"Sinchan Bhavan, Kolhapur - MPCB",15-01-2026 08:00:00,16.7143745,74.2426398,CO,18,46,36
India,Maharashtra,Mahad,"Kamble Tarf Birwadi, Mahad - MPCB",15-01-2026 08:00:00,18.1023399,73.4783687,NH3,5,10,6
India,Maharashtra,Malegaon,"Mahesh Nagar, Malegaon - MPCB",15-01-2026 08:00:00,20.555712,74.529236,NH3,2,3,2
India,Maharashtra,Mira-Bhayandar,"Bhayandar West, Mira-Bhayandar - MPCB",15-01-2026 08:00:00,19.296481,72.840923,SO2,12,15,13
India,Maharashtra,Mira-Bhayandar,"Bhayandar West, Mira-Bhayandar - MPCB",15-01-2026 08:00:00,19.296481,72.840923,OZONE,2,47,8
India,Maharashtra,Mumbai,"Chakala-Andheri East, Mumbai - IITM",15-01-2026 08:00:00,19.11074,72.86084,PM10,101,136,117
India,Maharashtra,Mumbai,"Chakala-Andheri East, Mumbai - IITM",15-01-2026 08:00:00,19.11074,72.86084,NH3,NA,NA,NA
India,Maharashtra,Mumbai,"Chakala-Andheri East, Mumbai - IITM",15-01-2026 08:00:00,19.11074,72.86084,CO,2,56,13
India,Maharashtra,Mumbai,"Chembur, Mumbai - MPCB",15-01-2026 08:00:00,19.0364585,72.8954371,SO2,5,25,11
India,Maharashtra,Mumbai,"Chhatrapati Shivaji Intl. Airport (T2), Mumbai - MPCB",15-01-2026 08:00:00,19.10078,72.87462,NO2,1,1,1
India,Maharashtra,Mumbai,"Chhatrapati Shivaji Intl. Airport (T2), Mumbai - MPCB",15-01-2026 08:00:00,19.10078,72.87462,OZONE,7,8,7
India,Maharashtra,Mumbai,"Bandra Kurla Complex, Mumbai - IITM",15-01-2026 08:00:00,19.053536,72.84643,SO2,9,23,14
India,Maharashtra,Mumbai,"Bandra Kurla Complex, Mumbai - MPCB",15-01-2026 08:00:00,19.065931,72.862131,CO,13,20,16
India,Maharashtra,Mumbai,"Bandra Kurla Complex, Mumbai - MPCB",15-01-2026 08:00:00,19.065931,72.862131,OZONE,1,62,2
India,Maharashtra,Mumbai,"Borivali East, Mumbai - IITM",15-01-2026 08:00:00,19.23241,72.86895,NH3,3,5,5
India,Maharashtra,Mumbai,"Byculla, Mumbai - BMC",15-01-2026 08:00:00,18.9767,72.8380,PM10,62,121,86
India,Maharashtra,Mumbai,"Byculla, Mumbai - BMC",15-01-2026 08:00:00,18.9767,72.8380,SO2,1,5,3
India,Maharashtra,Amravati,"Shri Shivaji Science College, Amravati - MPCB",15-01-2026 08:00:00,20.939198,77.765701,NH3,2,16,5
India,Maharashtra,Amravati,"Shri Shivaji Science College, Amravati - MPCB",15-01-2026 08:00:00,20.939198,77.765701,OZONE,1,101,38
India,Maharashtra,Aurangabad,"MIDC Chilkalthana, Aurangabad - MPCB",15-01-2026 08:00:00,19.875620,75.387310,NO2,21,160,57
India,Maharashtra,Aurangabad,"Rachnakar Colony, Aurangabad - MPCB",15-01-2026 08:00:00,19.863756,75.321188,CO,19,121,36
India,Maharashtra,Jalna,"Old MIDC, Jalna - MPCB",15-01-2026 08:00:00,19.854616,75.905894,PM10,NA,NA,NA
India,Maharashtra,Kalyan,"Pimpleshwar Mandir, Kalyan - MPCB",15-01-2026 08:00:00,19.192056,72.9585188,NO2,4,9,5
India,Maharashtra,Kolhapur,"Sinchan Bhavan, Kolhapur - MPCB",15-01-2026 08:00:00,16.7143745,74.2426398,PM10,35,69,56
India,Maharashtra,Badlapur,"Katrap, Badlapur - MPCB",15-01-2026 08:00:00,19.16485,73.23409,SO2,6,13,10
India,Maharashtra,Bhiwandi,"Gokul Nagar, Bhiwandi - MPCB",15-01-2026 08:00:00,19.309073,73.057223,PM2.5,34,225,96
India,Maharashtra,Bhiwandi,"Gokul Nagar, Bhiwandi - MPCB",15-01-2026 08:00:00,19.309073,73.057223,NO2,17,43,28
India,Maharashtra,Bhiwandi,"Gokul Nagar, Bhiwandi - MPCB",15-01-2026 08:00:00,19.309073,73.057223,SO2,7,20,13
India,Maharashtra,Ahmednagar,"Tarakpur, Ahmednagar - MPCB",15-01-2026 08:00:00,19.10122,74.73339,SO2,NA,NA,NA
India,Maharashtra,Ahmednagar,"Tarakpur, Ahmednagar - MPCB",15-01-2026 08:00:00,19.10122,74.73339,OZONE,5,106,29
India,Maharashtra,Amravati,"Shivneri Colony, Amravati - MPCB",15-01-2026 08:00:00,20.9402359,77.7895248,PM10,NA,NA,NA
India,Maharashtra,Mumbai,"Sewri, Mumbai - BMC",15-01-2026 08:00:00,19.000084,72.856730,SO2,1,12,7
India,Maharashtra,Mumbai,"Shivaji Nagar, Mumbai - BMC",15-01-2026 08:00:00,19.060498,72.923356,PM10,85,137,106
India,Maharashtra,Mumbai,"Shivaji Nagar, Mumbai - BMC",15-01-2026 08:00:00,19.060498,72.923356,OZONE,1,77,18
India,Maharashtra,Mumbai,"Siddharth Nagar-Worli, Mumbai - IITM",15-01-2026 08:00:00,19.000083,72.813993,NH3,NA,NA,NA
India,Maharashtra,Mumbai,"Sion, Mumbai - MPCB",15-01-2026 08:00:00,19.047000,72.874600,PM2.5,39,120,78
India,Maharashtra,Mumbai,"Sion, Mumbai - MPCB",15-01-2026 08:00:00,19.047000,72.874600,PM10,NA,NA,NA
India,Maharashtra,Mumbai,"Sion, Mumbai - MPCB",15-01-2026 08:00:00,19.047000,72.874600,NH3,2,16,4
India,Maharashtra,Mumbai,"Vile Parle West, Mumbai - MPCB",15-01-2026 08:00:00,19.10861,72.83622,PM2.5,59,113,81
India,Maharashtra,Nashik,"MIDC Ambad, Nashik - MPCB",15-01-2026 08:00:00,19.950220,73.731480,OZONE,4,64,34
India,Maharashtra,Nashik,"Pandav Nagari, Nashik - MPCB",15-01-2026 08:00:00,19.9591346,73.7788008,CO,12,80,34
India,Maharashtra,Navi Mumbai,"Kopripada-Vashi, Navi Mumbai - MPCB",15-01-2026 08:00:00,19.090337,73.014232,PM10,88,150,117
India,Maharashtra,Navi Mumbai,"Kopripada-Vashi, Navi Mumbai - MPCB",15-01-2026 08:00:00,19.090337,73.014232,NO2,16,61,35
India,Maharashtra,Navi Mumbai,"Kopripada-Vashi, Navi Mumbai - MPCB",15-01-2026 08:00:00,19.090337,73.014232,CO,15,57,25
India,Maharashtra,Navi Mumbai,"Mahape, Navi Mumbai - MPCB",15-01-2026 08:00:00,19.1135051,73.008978,PM2.5,51,88,64
India,Maharashtra,Navi Mumbai,"Nerul, Navi Mumbai - MPCB",15-01-2026 08:00:00,19.008751,73.016620,NH3,4,5,5
India,Maharashtra,Nanded,"Sneh Nagar, Nanded - MPCB",15-01-2026 08:00:00,19.173852,77.296291,PM2.5,52,172,74
India,Maharashtra,Nashik,"Gangapur Road, Nashik - MPCB",15-01-2026 08:00:00,20.0073285,73.7762427,PM10,40,111,75
India,Maharashtra,Nashik,"Gangapur Road, Nashik - MPCB",15-01-2026 08:00:00,20.0073285,73.7762427,NO2,5,5,5
India,Maharashtra,Nashik,"Gangapur Road, Nashik - MPCB",15-01-2026 08:00:00,20.0073285,73.7762427,OZONE,9,47,47
India,Maharashtra,Nashik,"Hirawadi, Nashik - MPCB",15-01-2026 08:00:00,20.021503,73.813844,NO2,5,26,14
India,Maharashtra,Nashik,"MIDC Ambad, Nashik - MPCB",15-01-2026 08:00:00,19.950220,73.731480,PM10,97,145,113
India,Maharashtra,Nashik,"MIDC Ambad, Nashik - MPCB",15-01-2026 08:00:00,19.950220,73.731480,NH3,2,3,3
India,Maharashtra,Mumbai,"Mazgaon, Mumbai - IITM",15-01-2026 08:00:00,18.96702,72.84214,OZONE,7,79,32
India,Maharashtra,Mumbai,"Mindspace-Malad West, Mumbai - MPCB",15-01-2026 08:00:00,19.1878657,72.8304069,PM10,115,123,119
India,Maharashtra,Mumbai,"Mulund West, Mumbai - MPCB",15-01-2026 08:00:00,19.1750,72.9419,SO2,NA,NA,NA
India,Maharashtra,Mumbai,"Navy Nagar-Colaba, Mumbai - IITM",15-01-2026 08:00:00,18.897756,72.813320,PM10,106,170,131
India,Maharashtra,Mumbai,"Navy Nagar-Colaba, Mumbai - IITM",15-01-2026 08:00:00,18.897756,72.813320,SO2,18,36,28
India,Maharashtra,Mumbai,"Powai, Mumbai - MPCB",15-01-2026 08:00:00,19.137500,72.915056,NO2,7,8,8
India,Maharashtra,Nagpur,"Mahal, Nagpur - MPCB",15-01-2026 08:00:00,21.14472,79.107595,PM2.5,NA,NA,NA
India,Maharashtra,Nagpur,"Opp GPO Civil Lines, Nagpur - MPCB",15-01-2026 08:00:00,21.152875,79.0517531,OZONE,1,39,2
India,Maharashtra,Nagpur,"Ram Nagar, Nagpur - MPCB",15-01-2026 08:00:00,21.143383,79.048912,PM10,132,174,153
India,Maharashtra,Nagpur,"Ram Nagar, Nagpur - MPCB",15-01-2026 08:00:00,21.143383,79.048912,SO2,22,59,36
India,Maharashtra,Mumbai,"Malad West, Mumbai - IITM",15-01-2026 08:00:00,19.19709,72.82204,NO2,28,70,46
India,Maharashtra,Mumbai,"Malad West, Mumbai - IITM",15-01-2026 08:00:00,19.19709,72.82204,NH3,10,15,12
India,Maharashtra,Mumbai,"Malad West, Mumbai - IITM",15-01-2026 08:00:00,19.19709,72.82204,CO,2,39,6
India,Maharashtra,Mumbai,"Mazgaon, Mumbai - IITM",15-01-2026 08:00:00,18.96702,72.84214,PM2.5,63,181,116
India,Maharashtra,Mumbai,"Mazgaon, Mumbai - IITM",15-01-2026 08:00:00,18.96702,72.84214,SO2,9,25,17
India,Maharashtra,Parbhani,"Masoom Colony, Parbhani - MPCB",15-01-2026 08:00:00,19.265594,76.761463,OZONE,10,10,10
India,Maharashtra,Pimpri-Chinchwad,"Gavalinagar, Pimpri Chinchwad - MPCB",15-01-2026 08:00:00,18.63673,73.82487,PM10,68,178,98
India,Maharashtra,Pimpri-Chinchwad,"Park Street Wakad, Pimpri Chinchwad - MPCB",15-01-2026 08:00:00,18.59051,73.77946,PM10,63,121,98
India,Maharashtra,Navi Mumbai,"Sanpada, Navi Mumbai - MPCB",15-01-2026 08:00:00,19.0575752,73.0151367,PM2.5,47,166,77
India,Maharashtra,Navi Mumbai,"Sanpada, Navi Mumbai - MPCB",15-01-2026 08:00:00,19.0575752,73.0151367,PM10,40,170,90
India,Maharashtra,Parbhani,"Masoom Colony, Parbhani - MPCB",15-01-2026 08:00:00,19.265594,76.761463,NO2,28,96,71
India,Maharashtra,Pune,"Katraj Dairy, Pune - MPCB",15-01-2026 08:00:00,18.454450,73.854155,PM2.5,NA,NA,NA
India,Maharashtra,Pune,"Revenue Colony-Shivajinagar, Pune - IITM",15-01-2026 08:00:00,18.530085,73.849598,PM2.5,60,245,126
India,Maharashtra,Solapur,"Dnyaneshwar Nagar, Solapur - MPCB",15-01-2026 08:00:00,17.6336264,75.9132495,CO,8,100,21
India,Maharashtra,Solapur,"Dnyaneshwar Nagar, Solapur - MPCB",15-01-2026 08:00:00,17.6336264,75.9132495,OZONE,3,64,34
India,Maharashtra,Solapur,"Ratandeep Housing Society, Solapur - MPCB",15-01-2026 08:00:00,17.65439,75.90649,NO2,18,133,54
India,Maharashtra,Solapur,"Ratandeep Housing Society, Solapur - MPCB",15-01-2026 08:00:00,17.65439,75.90649,NH3,3,35,9
India,Maharashtra,Solapur,"Ratandeep Housing Society, Solapur - MPCB",15-01-2026 08:00:00,17.65439,75.90649,SO2,6,17,9
India,Maharashtra,Solapur,"Ratandeep Housing Society, Solapur - MPCB",15-01-2026 08:00:00,17.65439,75.90649,CO,26,136,33
India,Maharashtra,Thane,"Kasarvadavali, Thane - MPCB",15-01-2026 08:00:00,19.26777,72.97182,PM10,62,100,78
India,Maharashtra,Thane,"Kasarvadavali, Thane - MPCB",15-01-2026 08:00:00,19.26777,72.97182,SO2,3,17,8
India,Maharashtra,Thane,"Kasarvadavali, Thane - MPCB",15-01-2026 08:00:00,19.26777,72.97182,CO,10,42,29
India,Maharashtra,Thane,"Upvan Fort, Thane - MPCB",15-01-2026 08:00:00,19.222279,72.957979,PM2.5,51,143,83
India,Maharashtra,Ulhasnagar,"Sidhi Vinayak Nagar, Ulhasnagar - MPCB",15-01-2026 08:00:00,19.235581,73.159121,PM2.5,29,197,93
India,Maharashtra,Ulhasnagar,"Sidhi Vinayak Nagar, Ulhasnagar - MPCB",15-01-2026 08:00:00,19.235581,73.159121,NH3,3,8,6
India,Odisha,Rourkela,"Raghunathpali, Rourkela - OSPCB",15-01-2026 08:00:00,22.220833,84.809444,OZONE,5,13,12
India,Odisha,Rourkela,"Sector-2, Rourkela - OSPCB",15-01-2026 08:00:00,22.24500000,84.88111111,CO,32,56,34
India,Odisha,Suakati,"OMC Colony, Suakati - OSPCB",15-01-2026 08:00:00,21.606865,85.510538,PM2.5,78,240,130
India,Odisha,Suakati,"OMC Colony, Suakati - OSPCB",15-01-2026 08:00:00,21.606865,85.510538,PM10,63,136,90
India,Odisha,Suakati,"OMC Colony, Suakati - OSPCB",15-01-2026 08:00:00,21.606865,85.510538,CO,4,32,15
India,Odisha,Talcher,"Talcher Coalfields,Talcher - OSPCB",15-01-2026 08:00:00,20.9360711,85.1707021,SO2,9,59,23
India,Puducherry,Puducherry,"Jawahar Nagar, Puducherry - PPCC",15-01-2026 08:00:00,11.9309,79.8027,PM10,42,172,73
India,Puducherry,Puducherry,"Jawahar Nagar, Puducherry - PPCC",15-01-2026 08:00:00,11.9309,79.8027,NH3,2,5,3
India,Punjab,Amritsar,"Golden Temple, Amritsar - PPCB",15-01-2026 08:00:00,31.620000,74.876512,CO,24,48,47
India,Punjab,Amritsar,"Golden Temple, Amritsar - PPCB",15-01-2026 08:00:00,31.620000,74.876512,OZONE,29,46,34
India,Maharashtra,Virar,"Bolinj, Virar - MPCB",15-01-2026 08:00:00,19.4458210,72.7988231,NH3,3,5,4
India,Maharashtra,Virar,"Bolinj, Virar - MPCB",15-01-2026 08:00:00,19.4458210,72.7988231,CO,20,46,29
India,Maharashtra,Virar,"Bolinj, Virar - MPCB",15-01-2026 08:00:00,19.4458210,72.7988231,OZONE,9,70,21
India,Mizoram,Aizawl,"Sikulpuikawn, Aizawl - Mizoram PCB",15-01-2026 08:00:00,23.7176342,92.7192841,SO2,15,16,15
India,Mizoram,Aizawl,"Sikulpuikawn, Aizawl - Mizoram PCB",15-01-2026 08:00:00,23.7176342,92.7192841,CO,3,3,3
India,Mizoram,Aizawl,"Sikulpuikawn, Aizawl - Mizoram PCB",15-01-2026 08:00:00,23.7176342,92.7192841,OZONE,1,4,2
India,Nagaland,Kohima,"PWD Junction, Kohima - NPCB",15-01-2026 08:00:00,25.6635413,94.0989878,NH3,1,1,1
India,Odisha,Angul,"Hakimapada, Angul - OSPCB",15-01-2026 08:00:00,20.832874,85.104082,OZONE,6,174,29
India,Odisha,Balasore,"Kalidaspur, Balasore - OSPCB",15-01-2026 08:00:00,21.51161,86.89088,NO2,5,6,6
India,Odisha,Keonjhar,"Jagamohanpur, Keonjhar - OSPCB",15-01-2026 08:00:00,21.643900,85.599355,PM2.5,68,95,80
India,Odisha,Keonjhar,"Jagamohanpur, Keonjhar - OSPCB",15-01-2026 08:00:00,21.643900,85.599355,SO2,2,29,14
India,Odisha,Nayagarh,"Dabuna, Nayagarh - OSPCB",15-01-2026 08:00:00,21.847279,85.416905,PM2.5,13,54,37
India,Odisha,Nayagarh,"Dabuna, Nayagarh - OSPCB",15-01-2026 08:00:00,21.847279,85.416905,SO2,7,16,10
India,Odisha,Nayagarh,"Dabuna, Nayagarh - OSPCB",15-01-2026 08:00:00,21.847279,85.416905,CO,16,40,33
India,Odisha,Rourkela,"Fertilizer Township, Rourkela - OSPCB",15-01-2026 08:00:00,22.18972222,84.86277778,NO2,11,11,11
India,Odisha,Rourkela,"Raghunathpali, Rourkela - OSPCB",15-01-2026 08:00:00,22.220833,84.809444,PM2.5,92,309,201
India,Odisha,Rourkela,"Raghunathpali, Rourkela - OSPCB",15-01-2026 08:00:00,22.220833,84.809444,NO2,15,38,24
India,Punjab,Patiala,"Model Town, Patiala - PPCB",15-01-2026 08:00:00,30.349388,76.366642,CO,26,110,38
India,Rajasthan,Ajmer,"Civil Lines,  Ajmer - RSPCB",15-01-2026 08:00:00,26.470859,74.646594,PM10,66,191,113
India,Rajasthan,Ajmer,"Civil Lines,  Ajmer - RSPCB",15-01-2026 08:00:00,26.470859,74.646594,SO2,9,17,12
India,Rajasthan,Alwar,"Moti Doongri, Alwar - RSPCB",15-01-2026 08:00:00,27.554793,76.611536,PM10,98,169,129
India,Rajasthan,Alwar,"Moti Doongri, Alwar - RSPCB",15-01-2026 08:00:00,27.554793,76.611536,OZONE,12,99,16
India,Rajasthan,Banswara,"Rati Talai, Banswara - RSPCB",15-01-2026 08:00:00,23.555190,74.440010,PM2.5,42,202,77
India,Odisha,Bhubaneswar,"Patia, Bhubaneswar - OSPCB",15-01-2026 08:00:00,20.34652,85.81630,CO,40,110,68
India,Odisha,Bileipada,"Tata Township, Bileipada - OSPCB",15-01-2026 08:00:00,22.06156703,85.47409613,SO2,7,12,11
India,Odisha,Bileipada,"Tata Township, Bileipada - OSPCB",15-01-2026 08:00:00,22.06156703,85.47409613,OZONE,21,24,22
India,Odisha,Brajrajnagar,"GM Office, Brajrajnagar - OSPCB",15-01-2026 08:00:00,21.8004996,83.8396977,NO2,14,14,14
India,Odisha,Brajrajnagar,"GM Office, Brajrajnagar - OSPCB",15-01-2026 08:00:00,21.8004996,83.8396977,OZONE,28,31,30
India,Odisha,Cuttack,"CDA Area, Cuttack - OSPCB",15-01-2026 08:00:00,20.48891     ,85.84768     ,SO2,5,75,20
India,Punjab,Khanna,"Kalal Majra, Khanna - PPCB",15-01-2026 08:00:00,30.736056 ,76.209694,PM10,45,238,120
India,Punjab,Ludhiana,"Punjab Agricultural University, Ludhiana - PPCB",15-01-2026 08:00:00,30.9028,75.8086,CO,18,54,34
India,Punjab,Ludhiana,"Punjab Agricultural University, Ludhiana - PPCB",15-01-2026 08:00:00,30.9028,75.8086,OZONE,13,25,18
India,Punjab,Mandi Gobindgarh,"RIMT University, Mandi Gobindgarh - PPCB",15-01-2026 08:00:00,30.649961,76.331442,NH3,6,6,6
India,Odisha,Barbil,"Forest Office, Barbil - OSPCB",15-01-2026 08:00:00,22.1166054,85.3945546,NH3,1,2,2
India,Odisha,Barbil,"Forest Office, Barbil - OSPCB",15-01-2026 08:00:00,22.1166054,85.3945546,OZONE,4,70,8
India,Odisha,Baripada,"Meher Colony, Baripada - OSPCB",15-01-2026 08:00:00,21.941841,86.728318,CO,18,72,21
India,Odisha,Bhubaneswar,"Lingraj Mandir, Bhubaneswar - OSPCB",15-01-2026 08:00:00,20.240790,85.836784,NH3,8,12,10
India,Maharashtra,Sangli,"Vijay Nagar, Sangli - MPCB",15-01-2026 08:00:00, 16.5038,74.3623,NO2,11,103,36
India,Maharashtra,Sangli,"Vijay Nagar, Sangli - MPCB",15-01-2026 08:00:00, 16.5038,74.3623,NH3,1,3,1
India,Maharashtra,Sangli,"Vijay Nagar, Sangli - MPCB",15-01-2026 08:00:00, 16.5038,74.3623,CO,22,99,36
India,Maharashtra,Solapur,"Dnyaneshwar Nagar, Solapur - MPCB",15-01-2026 08:00:00,17.6336264,75.9132495,PM2.5,58,91,72
India,Rajasthan,Pali,"Indira Colony Vistar, Pali - RSPCB",15-01-2026 08:00:00,25.771061, 73.340227,SO2,6,11,9
India,Rajasthan,Pali,"Indira Colony Vistar, Pali - RSPCB",15-01-2026 08:00:00,25.771061, 73.340227,OZONE,4,38,18
India,Rajasthan,Pratapgarh,"Pragati Nagar, Pratapgarh - RSPCB",15-01-2026 08:00:00,24.041198,74.780702,PM2.5,47,328,160
India,Rajasthan,Pratapgarh,"Pragati Nagar, Pratapgarh - RSPCB",15-01-2026 08:00:00,24.041198,74.780702,SO2,3,13,6
India,Rajasthan,Pratapgarh,"Pragati Nagar, Pratapgarh - RSPCB",15-01-2026 08:00:00,24.041198,74.780702,OZONE,51,121,62
India,Rajasthan,Rajsamand,"Dhoinda, Rajsamand - RSPCB",15-01-2026 08:00:00,25.036360,73.883502,PM10,24,169,69
India,Rajasthan,Rajsamand,"Dhoinda, Rajsamand - RSPCB",15-01-2026 08:00:00,25.036360,73.883502,SO2,7,17,10
India,Rajasthan,Sawai Madhopur,"Sahu Nagar, Sawai Madhopur - RSPCB",15-01-2026 08:00:00,26.031443,76.359327,NO2,3,128,27
India,Rajasthan,Sawai Madhopur,"Sahu Nagar, Sawai Madhopur - RSPCB",15-01-2026 08:00:00,26.031443,76.359327,SO2,1,17,5
India,Rajasthan,Bhilwara,"Pratap Nagar, Bhilwara - RSPCB",15-01-2026 08:00:00,25.339605,74.618883,OZONE,1,62,4
India,Rajasthan,Bhiwadi,"RIICO Ind. Area III, Bhiwadi - RSPCB",15-01-2026 08:00:00,28.194909,76.862296,PM2.5,171,379,310
India,Rajasthan,Bhiwadi,"RIICO Ind. Area III, Bhiwadi - RSPCB",15-01-2026 08:00:00,28.194909,76.862296,PM10,121,275,202
India,Rajasthan,Bhiwadi,"RIICO Ind. Area III, Bhiwadi - RSPCB",15-01-2026 08:00:00,28.194909,76.862296,NH3,4,15,9
India,Rajasthan,Bhiwadi,"Vasundhara Nagar_UIT, Bhiwadi - RSPCB",15-01-2026 08:00:00,28.207266,76.829265,OZONE,7,136,12
India,Rajasthan,Bikaner,"MM Ground, Bikaner - RSPCB",15-01-2026 08:00:00,28.018792,73.292658,SO2,3,21,12
India,Rajasthan,Bundi,"New Colony, Bundi - RSPCB",15-01-2026 08:00:00,25.435774,75.644272,NH3,1,4,3
India,Rajasthan,Bundi,"New Colony, Bundi - RSPCB",15-01-2026 08:00:00,25.435774,75.644272,SO2,1,16,6
India,Rajasthan,Banswara,"Rati Talai, Banswara - RSPCB",15-01-2026 08:00:00,23.555190,74.440010,OZONE,7,107,39
India,Rajasthan,Baran,"Bamboliya, Baran - RSPCB",15-01-2026 08:00:00,25.106006,76.469948,NO2,15,57,28
India,Rajasthan,Barmer,"Railway Colony, Barmer - RSPCB",15-01-2026 08:00:00,25.747299,71.393989,PM10,67,318,129
India,Rajasthan,Barmer,"Railway Colony, Barmer - RSPCB",15-01-2026 08:00:00,25.747299,71.393989,CO,16,131,42
India,Rajasthan,Bharatpur,"Krishna Nagar, Bharatpur - RSPCB",15-01-2026 08:00:00,27.215415,77.50873,PM10,70,188,122
India,Rajasthan,Bharatpur,"Krishna Nagar, Bharatpur - RSPCB",15-01-2026 08:00:00,27.215415,77.50873,OZONE,5,152,38
India,Rajasthan,Bhilwara,"Pratap Nagar, Bhilwara - RSPCB",15-01-2026 08:00:00,25.339605,74.618883,NH3,1,5,2
India,Rajasthan,Dungarpur,"Bhoiwada, Dungarpur - RSPCB",15-01-2026 08:00:00,23.837789,73.714926,NH3,3,6,4
India,Rajasthan,Hanumangarh,"Housing Board, Hanumangarh - RSPCB",15-01-2026 08:00:00,29.610750,74.283608,NO2,25,114,54
India,Rajasthan,Jaipur,"Mansarovar Sector-12, Jaipur - RSPCB",15-01-2026 08:00:00,26.843698,75.766894,PM2.5,40,458,226
India,Rajasthan,Jaipur,"Police Commissionerate, Jaipur - RSPCB",15-01-2026 08:00:00,26.9164092,75.7994901,NH3,7,60,17
India,Rajasthan,Chittorgarh,"Shastri Nagar, Chittorgarh - RSPCB",15-01-2026 08:00:00,24.892047,74.623527,SO2,2,102,18
India,Rajasthan,Dausa,"Khatikan Mohalla, Dausa - RSPCB",15-01-2026 08:00:00,26.895552,76.334753,SO2,4,16,7
India,Rajasthan,Dausa,"Khatikan Mohalla, Dausa - RSPCB",15-01-2026 08:00:00,26.895552,76.334753,CO,54,123,65
India,Rajasthan,Dausa,"Khatikan Mohalla, Dausa - RSPCB",15-01-2026 08:00:00,26.895552,76.334753,OZONE,5,147,33
India,Rajasthan,Dungarpur,"Bhoiwada, Dungarpur - RSPCB",15-01-2026 08:00:00,23.837789,73.714926,PM2.5,72,339,132
India,Rajasthan,Jaipur,"Sector-2 Murlipura, Jaipur - RSPCB",15-01-2026 08:00:00,26.960669,75.771817,SO2,4,9,6
India,Rajasthan,Jaisalmer,"Sadar Bazar, Jaisalmer - RSPCB",15-01-2026 08:00:00,26.912329,70.909168,NH3,8,18,11
India,Rajasthan,Jaisalmer,"Sadar Bazar, Jaisalmer - RSPCB",15-01-2026 08:00:00,26.912329,70.909168,SO2,3,21,8
India,Rajasthan,Jalore,"Mudtra Sili, Jalore - RSPCB",15-01-2026 08:00:00,25.344694,72.626208,SO2,2,11,6
India,Rajasthan,Jalore,"Mudtra Sili, Jalore - RSPCB",15-01-2026 08:00:00,25.344694,72.626208,OZONE,4,95,10
India,Rajasthan,Kota,"Dhanmandi, Kota - RSPCB",15-01-2026 08:00:00,25.164090,75.858137,NO2,20,115,57
India,Rajasthan,Kota,"Dhanmandi, Kota - RSPCB",15-01-2026 08:00:00,25.164090,75.858137,OZONE,4,132,5
India,Rajasthan,Kota,"Nayapura, Kota - RSPCB",15-01-2026 08:00:00,25.196024,75.855668,CO,NA,NA,NA
India,Rajasthan,Nagaur,"Karni Colony, Nagaur - RSPCB",15-01-2026 08:00:00,27.213494,73.734444,PM2.5,72,384,196
India,Rajasthan,Nagaur,"Karni Colony, Nagaur - RSPCB",15-01-2026 08:00:00,27.213494,73.734444,SO2,4,11,7
India,Rajasthan,Jhalawar,"Rajlaxmi Nagar, Jhalawar - RSPCB",15-01-2026 08:00:00,24.588397,76.172782,NH3,1,1,1
India,Rajasthan,Jodhpur,"Collectorate, Jodhpur - RSPCB",15-01-2026 08:00:00,26.268249,73.0193853,NH3,8,102,28
India,Rajasthan,Jodhpur,"Collectorate, Jodhpur - RSPCB",15-01-2026 08:00:00,26.268249,73.0193853,OZONE,4,135,7
India,Rajasthan,Jodhpur,"Digari Kalan, Jodhpur - RSPCB",15-01-2026 08:00:00,26.295810,73.082283,NO2,19,93,50
India,Rajasthan,Jaipur,"RIICO Sitapura, Jaipur - RSPCB",15-01-2026 08:00:00,26.786682,75.827928,NH3,3,6,4
India,Rajasthan,Jaipur,"RIICO Sitapura, Jaipur - RSPCB",15-01-2026 08:00:00,26.786682,75.827928,CO,16,123,32
India,Telangana,Hyderabad,"Central University, Hyderabad - TSPCB",15-01-2026 08:00:00,17.460103,78.334361,CO,23,69,33
India,Telangana,Hyderabad,"ECIL Kapra, Hyderabad - TSPCB",15-01-2026 08:00:00,17.470431,78.566959,PM10,69,90,79
India,Telangana,Hyderabad,"ECIL Kapra, Hyderabad - TSPCB",15-01-2026 08:00:00,17.470431,78.566959,CO,23,43,28
India,Telangana,Hyderabad,"ICRISAT Patancheru, Hyderabad - TSPCB",15-01-2026 08:00:00,17.518400,78.278777,OZONE,1,62,10
India,Telangana,Hyderabad,"IITH Kandi, Hyderabad - TSPCB",15-01-2026 08:00:00,17.585705,78.126199,PM2.5,41,77,60
India,Telangana,Hyderabad,"IITH Kandi, Hyderabad - TSPCB",15-01-2026 08:00:00,17.585705,78.126199,PM10,65,85,71
India,Telangana,Hyderabad,"IITH Kandi, Hyderabad - TSPCB",15-01-2026 08:00:00,17.585705,78.126199,NO2,12,21,18
India,Telangana,Hyderabad,"IITH Kandi, Hyderabad - TSPCB",15-01-2026 08:00:00,17.585705,78.126199,NH3,3,5,4
India,Telangana,Hyderabad,"IITH Kandi, Hyderabad - TSPCB",15-01-2026 08:00:00,17.585705,78.126199,CO,12,75,45
India,Telangana,Hyderabad,"Kokapet, Hyderabad - TSPCB",15-01-2026 08:00:00,17.393559,78.339194,PM10,68,87,82
India,Sikkim,Gangtok,"Zero Point GICI, Gangtok - SSPCB",15-01-2026 08:00:00,27.338530,88.614099,PM2.5,NA,NA,NA
India,Sikkim,Gangtok,"Zero Point GICI, Gangtok - SSPCB",15-01-2026 08:00:00,27.338530,88.614099,NH3,NA,NA,NA
India,Sikkim,Gangtok,"Zero Point GICI, Gangtok - SSPCB",15-01-2026 08:00:00,27.338530,88.614099,OZONE,NA,NA,NA
India,TamilNadu,Chennai,"Arumbakkam, Chennai - TNPCB",15-01-2026 08:00:00,13.0664,80.2112 ,PM10,88,484,146
India,TamilNadu,Chennai,"Arumbakkam, Chennai - TNPCB",15-01-2026 08:00:00,13.0664,80.2112 ,SO2,2,11,5
India,TamilNadu,Chennai,"Gandhi Nagar_Ennore, Chennai - TNPCB",15-01-2026 08:00:00,13.218341,80.32027,PM2.5,22,163,74
India,TamilNadu,Chennai,"Kodungaiyur, Chennai - TNPCB",15-01-2026 08:00:00,13.1278,80.2642,PM10,68,400,115
India,TamilNadu,Chennai,"Kodungaiyur, Chennai - TNPCB",15-01-2026 08:00:00,13.1278,80.2642,CO,45,57,53
India,TamilNadu,Chennai,"Manali Village, Chennai - TNPCB",15-01-2026 08:00:00,13.1662,80.2584,NH3,2,2,2
India,TamilNadu,Pudukottai,"SIPCOT Nathampannai, Pudukottai - TNPCB",15-01-2026 08:00:00,10.423417,78.784889,NO2,1,9,4
India,TamilNadu,Pudukottai,"SIPCOT Nathampannai, Pudukottai - TNPCB",15-01-2026 08:00:00,10.423417,78.784889,NH3,1,1,1
India,TamilNadu,Ramanathapuram,"Chalai Bazaar, Ramanathapuram - TNPCB",15-01-2026 08:00:00,9.36399,78.831977,OZONE,5,7,5
India,TamilNadu,Thanjavur,"Parisutham Nagar, Thanjavur - TNPCB",15-01-2026 08:00:00,10.7654824,79.1389968,PM10,38,114,64
India,TamilNadu,Thanjavur,"Parisutham Nagar, Thanjavur - TNPCB",15-01-2026 08:00:00,10.7654824,79.1389968,SO2,16,17,17
India,Telangana,Hyderabad,"Bollaram Industrial Area, Hyderabad - TSPCB",15-01-2026 08:00:00,17.540891,78.358528,OZONE,41,52,42
India,Telangana,Hyderabad,"Central University, Hyderabad - TSPCB",15-01-2026 08:00:00,17.460103,78.334361,SO2,4,15,8
India,TamilNadu,Karur,"Kamadenu Nagar, Karur - TNPCB",15-01-2026 08:00:00,10.967820,78.080882,PM2.5,44,100,67
India,TamilNadu,Madurai,"Uchapatti, Madurai - TNPCB",15-01-2026 08:00:00,9.865935,78.022669,PM10,43,110,66
India,TamilNadu,Madurai,"Uchapatti, Madurai - TNPCB",15-01-2026 08:00:00,9.865935,78.022669,NO2,7,7,7
India,TamilNadu,Madurai,"Uchapatti, Madurai - TNPCB",15-01-2026 08:00:00,9.865935,78.022669,SO2,40,45,42
India,TamilNadu,Nagapattinam,"Velippalayam, Nagapattinam - TNPCB",15-01-2026 08:00:00,10.798548,79.838212,NH3,2,2,2
India,TamilNadu,Ooty,"Bombay Castel, Ooty - TNPCB",15-01-2026 08:00:00,11.4068288,76.7138973,SO2,NA,NA,NA
India,TamilNadu,Perundurai,"SIPCOT Industrial Park, Perundurai - TNPCB",15-01-2026 08:00:00,11.258242,77.552761,SO2,13,14,13
India,TamilNadu,Chennai,"Manali Village, Chennai - TNPCB",15-01-2026 08:00:00,13.1662,80.2584,CO,44,94,49
India,TamilNadu,Chennai,"Manali, Chennai - CPCB",15-01-2026 08:00:00,13.164544,80.26285,PM10,NA,NA,NA
India,TamilNadu,Chennai,"Manali, Chennai - CPCB",15-01-2026 08:00:00,13.164544,80.26285,NO2,NA,NA,NA
India,TamilNadu,Chennai,"Manali, Chennai - CPCB",15-01-2026 08:00:00,13.164544,80.26285,NH3,NA,NA,NA
India,TamilNadu,Chennai,"Perungudi, Chennai - TNPCB",15-01-2026 08:00:00,12.9533,80.2357,NH3,1,4,2
India,TamilNadu,Chennai,"Perungudi, Chennai - TNPCB",15-01-2026 08:00:00,12.9533,80.2357,OZONE,4,27,7
India,TamilNadu,Chennai,"Royapuram, Chennai - TNPCB",15-01-2026 08:00:00,13.1036,80.2909,PM10,26,181,48
India,TamilNadu,Coimbatore,"PSG College of Arts and Science, Coimbatore - TNPCB",15-01-2026 08:00:00,11.0328,77.0349,PM2.5,66,153,106
India,TamilNadu,Coimbatore,"PSG College of Arts and Science, Coimbatore - TNPCB",15-01-2026 08:00:00,11.0328,77.0349,PM10,52,96,76
India,TamilNadu,Coimbatore,"PSG College of Arts and Science, Coimbatore - TNPCB",15-01-2026 08:00:00,11.0328,77.0349,NH3,1,1,1
India,TamilNadu,Coimbatore,"PSG College of Arts and Science, Coimbatore - TNPCB",15-01-2026 08:00:00,11.0328,77.0349,OZONE,4,6,5
India,TamilNadu,Coimbatore,"SIDCO Kurichi, Coimbatore - TNPCB",15-01-2026 08:00:00,10.942451,76.978996,NH3,2,2,2
India,TamilNadu,Coimbatore,"SIDCO Kurichi, Coimbatore - TNPCB",15-01-2026 08:00:00,10.942451,76.978996,SO2,21,22,21
India,TamilNadu,Cuddalore,"Semmandalam, Cuddalore - TNPCB",15-01-2026 08:00:00,11.7637683,79.7499835,OZONE,1,2,2
India,TamilNadu,Dindigul,"Mendonsa Colony, Dindigul - TNPCB",15-01-2026 08:00:00,10.358535,77.984321,NO2,18,73,40
India,Telangana,Hyderabad,"Somajiguda, Hyderabad - TSPCB",15-01-2026 08:00:00,17.417094,78.457437,PM10,78,91,82
India,Telangana,Hyderabad,"Zoo Park, Hyderabad - TSPCB",15-01-2026 08:00:00,17.349694,78.451437,PM10,64,153,106
India,Telangana,Hyderabad,"Zoo Park, Hyderabad - TSPCB",15-01-2026 08:00:00,17.349694,78.451437,NH3,3,3,3
India,Tripura,Agartala,"Bardowali, Agartala - Tripura SPCB",15-01-2026 08:00:00,23.8175497,91.2726974,PM2.5,1,62,32
India,Tripura,Agartala,"Bardowali, Agartala - Tripura SPCB",15-01-2026 08:00:00,23.8175497,91.2726974,NO2,13,14,13
India,Tripura,Agartala,"Bardowali, Agartala - Tripura SPCB",15-01-2026 08:00:00,23.8175497,91.2726974,NH3,7,8,7
India,Rajasthan,Sikar,"Radhakishan Pura, Sikar - RSPCB",15-01-2026 08:00:00,27.608912,75.153302,SO2,1,7,4
India,Rajasthan,Sri Ganganagar,"Old City, Sri Ganganagar - RSPCB",15-01-2026 08:00:00,29.931624,73.864511,NO2,42,189,86
India,Rajasthan,Tonk,"Shastri Nagar, Tonk - RSPCB",15-01-2026 08:00:00,26.159933,75.780517,OZONE,1,120,15
India,Rajasthan,Udaipur,"Ashok Nagar, Udaipur - RSPCB",15-01-2026 08:00:00,24.5886166,73.6321397,PM2.5,27,188,95
India,Rajasthan,Udaipur,"Ashok Nagar, Udaipur - RSPCB",15-01-2026 08:00:00,24.5886166,73.6321397,NO2,23,52,39
India,Telangana,Hyderabad,"Kokapet, Hyderabad - TSPCB",15-01-2026 08:00:00,17.393559,78.339194,SO2,8,12,9
India,Telangana,Hyderabad,"Nacharam_TSIIC IALA, Hyderabad - TSPCB",15-01-2026 08:00:00,17.429398,78.569354,PM10,80,84,81
India,Telangana,Hyderabad,"Nacharam_TSIIC IALA, Hyderabad - TSPCB",15-01-2026 08:00:00,17.429398,78.569354,NO2,16,17,16
India,Telangana,Hyderabad,"Nacharam_TSIIC IALA, Hyderabad - TSPCB",15-01-2026 08:00:00,17.429398,78.569354,OZONE,32,34,33
India,Telangana,Hyderabad,"New Malakpet, Hyderabad - TSPCB",15-01-2026 08:00:00,17.37206,78.50864,PM2.5,49,83,63
India,Uttar_Pradesh,Lucknow,"Talkatora District Industries Center, Lucknow - CPCB",15-01-2026 08:00:00,26.83399722,80.8917361,PM2.5,95,405,261
India,Uttar_Pradesh,Lucknow,"Talkatora District Industries Center, Lucknow - CPCB",15-01-2026 08:00:00,26.83399722,80.8917361,PM10,118,381,183
India,Uttar_Pradesh,Lucknow,"Talkatora District Industries Center, Lucknow - CPCB",15-01-2026 08:00:00,26.83399722,80.8917361,SO2,1,13,6
India,Uttar_Pradesh,Meerut,"Ganga Nagar, Meerut - UPPCB",15-01-2026 08:00:00,28.999264,77.7590354,PM2.5,88,312,239
India,Uttar_Pradesh,Meerut,"Ganga Nagar, Meerut - UPPCB",15-01-2026 08:00:00,28.999264,77.7590354,NH3,11,17,15
India,Uttar_Pradesh,Meerut,"Ganga Nagar, Meerut - UPPCB",15-01-2026 08:00:00,28.999264,77.7590354,SO2,17,22,19
India,Uttar_Pradesh,Meerut,"Ganga Nagar, Meerut - UPPCB",15-01-2026 08:00:00,28.999264,77.7590354,CO,32,82,81
India,Uttar_Pradesh,Meerut,"Pallavpuram Phase 2, Meerut - UPPCB",15-01-2026 08:00:00,29.063510,77.709723,PM10,119,361,196
India,Uttar_Pradesh,Meerut,"Pallavpuram Phase 2, Meerut - UPPCB",15-01-2026 08:00:00,29.063510,77.709723,NO2,39,57,48
India,Uttar_Pradesh,Meerut,"Pallavpuram Phase 2, Meerut - UPPCB",15-01-2026 08:00:00,29.063510,77.709723,NH3,1,2,2
India,Uttar_Pradesh,Moradabad,"Buddhi Vihar, Moradabad - UPPCB",15-01-2026 08:00:00,28.83526,78.74460,NH3,5,5,5
India,Uttar_Pradesh,Agra,"Manoharpur, Agra - UPPCB",15-01-2026 08:00:00,27.23711,78.01936,OZONE,9,10,10
India,Uttar_Pradesh,Agra,"Rohta, Agra - UPPCB",15-01-2026 08:00:00,27.106972,78.000111,SO2,9,38,21
India,Uttar_Pradesh,Agra,"Rohta, Agra - UPPCB",15-01-2026 08:00:00,27.106972,78.000111,CO,16,68,41
India,Uttar_Pradesh,Agra,"Sanjay Palace, Agra - UPPCB",15-01-2026 08:00:00,27.19865833,78.00598056,PM10,131,401,213
India,Uttar_Pradesh,Agra,"Sanjay Palace, Agra - UPPCB",15-01-2026 08:00:00,27.19865833,78.00598056,CO,32,78,32
India,Uttar_Pradesh,Agra,"Sector-3B Avas Vikas Colony, Agra - UPPCB",15-01-2026 08:00:00,27.19412,77.96237,PM10,14,294,168
India,Uttar_Pradesh,Agra,"Sector-3B Avas Vikas Colony, Agra - UPPCB",15-01-2026 08:00:00,27.19412,77.96237,CO,12,60,34
India,Uttar_Pradesh,Agra,"Shahjahan Garden, Agra - UPPCB",15-01-2026 08:00:00,27.169338,78.03582,CO,1,61,17
India,Uttar_Pradesh,Agra,"Shastripuram, Agra - UPPCB",15-01-2026 08:00:00,27.19862,77.92066,NO2,32,33,33
India,Uttar_Pradesh,Baghpat,"Sardar Patel Inter College, Baghpat - UPPCB",15-01-2026 08:00:00,28.964949,77.278761,NH3,NA,NA,NA
India,Uttar_Pradesh,Bareilly,"Rajendra Nagar, Bareilly - UPPCB",15-01-2026 08:00:00,28.38910936,79.42963708,PM2.5,49,160,80
India,Uttar_Pradesh,Bulandshahr,"Yamunapuram, Bulandshahr - UPPCB",15-01-2026 08:00:00,28.406963,77.849831,PM2.5,71,350,281
India,Uttar_Pradesh,Bulandshahr,"Yamunapuram, Bulandshahr - UPPCB",15-01-2026 08:00:00,28.406963,77.849831,OZONE,1,81,3
India,Uttar_Pradesh,Firozabad,"Nagla Bhau, Firozabad - UPPCB",15-01-2026 08:00:00,27.168897,78.376960,PM10,51,134,85
India,Uttar_Pradesh,Firozabad,"Nagla Bhau, Firozabad - UPPCB",15-01-2026 08:00:00,27.168897,78.376960,NO2,17,17,17
India,Uttar_Pradesh,Firozabad,"Nagla Bhau, Firozabad - UPPCB",15-01-2026 08:00:00,27.168897,78.376960,NH3,2,2,2
India,Uttar_Pradesh,Kanpur,"FTI Kidwai Nagar, Kanpur - UPPCB",15-01-2026 08:00:00,26.428282,80.327067,PM2.5,43,371,200
India,Uttar_Pradesh,Kanpur,"FTI Kidwai Nagar, Kanpur - UPPCB",15-01-2026 08:00:00,26.428282,80.327067,NO2,22,23,22
India,Uttar_Pradesh,Kanpur,"FTI Kidwai Nagar, Kanpur - UPPCB",15-01-2026 08:00:00,26.428282,80.327067,SO2,21,29,24
India,Uttar_Pradesh,Kanpur,"FTI Kidwai Nagar, Kanpur - UPPCB",15-01-2026 08:00:00,26.428282,80.327067,OZONE,9,10,9
India,Uttar_Pradesh,Kanpur,"NSI Kalyanpur, Kanpur - UPPCB",15-01-2026 08:00:00,26.509954,80.249612,SO2,21,23,21
India,Uttar_Pradesh,Kanpur,"Nehru Nagar, Kanpur - UPPCB",15-01-2026 08:00:00,26.4703136,80.3229863,NO2,52,58,55
India,Uttar_Pradesh,Khurja,"Kalindi Kunj, Khurja - UPPCB",15-01-2026 08:00:00,28.2348927,77.8683002,PM2.5,55,374,213
India,Uttar_Pradesh,Khurja,"Kalindi Kunj, Khurja - UPPCB",15-01-2026 08:00:00,28.2348927,77.8683002,SO2,15,21,17
India,Uttar_Pradesh,Firozabad,"Vibhab Nagar, Firozabad - UPPCB",15-01-2026 08:00:00,27.1594,78.3953,PM2.5,50,219,95
India,Uttar_Pradesh,Firozabad,"Vibhab Nagar, Firozabad - UPPCB",15-01-2026 08:00:00,27.1594,78.3953,PM10,44,127,77
India,Uttar_Pradesh,Ghaziabad,"Loni, Ghaziabad - UPPCB",15-01-2026 08:00:00,28.757294,77.278792,PM2.5,NA,NA,NA
India,Uttar_Pradesh,Ghaziabad,"Loni, Ghaziabad - UPPCB",15-01-2026 08:00:00,28.757294,77.278792,SO2,NA,NA,NA
India,Uttar_Pradesh,Ghaziabad,"Sanjay Nagar, Ghaziabad - UPPCB",15-01-2026 08:00:00,28.685382,77.453839,NH3,7,16,12
India,Uttar_Pradesh,Ghaziabad,"Vasundhara, Ghaziabad - UPPCB",15-01-2026 08:00:00,28.6603346,77.3572563,NO2,NA,NA,NA
India,Uttar_Pradesh,Ghaziabad,"Vasundhara, Ghaziabad - UPPCB",15-01-2026 08:00:00,28.6603346,77.3572563,NH3,NA,NA,NA
India,Uttar_Pradesh,Gorakhpur,"Madan Mohan Malaviya University of Technology, Gorakhpur - UPPCB",15-01-2026 08:00:00,26.730136,83.433859,CO,5,6,6
India,Uttar_Pradesh,Gorakhpur,"Madan Mohan Malaviya University of Technology, Gorakhpur - UPPCB",15-01-2026 08:00:00,26.730136,83.433859,OZONE,3,7,5
India,Uttar_Pradesh,Greater Noida,"Knowledge Park - V, Greater Noida - UPPCB",15-01-2026 08:00:00,28.557054,77.453663,SO2,9,25,14
India,Uttar_Pradesh,Hapur,"Anand Vihar, Hapur - UPPCB",15-01-2026 08:00:00,28.725645,77.749675,OZONE,7,82,16
India,Uttar_Pradesh,Lucknow,"B R Ambedkar University, Lucknow - UPPCB",15-01-2026 08:00:00,26.766433,80.927299,PM10,49,134,96
India,Uttar_Pradesh,Lucknow,"B R Ambedkar University, Lucknow - UPPCB",15-01-2026 08:00:00,26.766433,80.927299,CO,17,31,26
India,Uttar_Pradesh,Lucknow,"B R Ambedkar University, Lucknow - UPPCB",15-01-2026 08:00:00,26.766433,80.927299,OZONE,17,85,18
India,Uttar_Pradesh,Lucknow,"Gomti Nagar, Lucknow - UPPCB",15-01-2026 08:00:00,26.868120,81.005119,PM2.5,70,280,161
India,Uttar_Pradesh,Lucknow,"Kukrail Picnic Spot-1, Lucknow - UPPCB",15-01-2026 08:00:00,26.90723,80.98579,PM2.5,27,254,110
India,Uttar_Pradesh,Lucknow,"Kukrail Picnic Spot-1, Lucknow - UPPCB",15-01-2026 08:00:00,26.90723,80.98579,NO2,31,33,32
India,Uttar_Pradesh,Lucknow,"Kukrail Picnic Spot-1, Lucknow - UPPCB",15-01-2026 08:00:00,26.90723,80.98579,NH3,6,6,6
India,Uttar_Pradesh,Ghaziabad,"Vasundhara, Ghaziabad - UPPCB",15-01-2026 08:00:00,28.6603346,77.3572563,OZONE,NA,NA,NA
India,Uttar_Pradesh,Moradabad,"Eco Herbal Park, Moradabad - UPPCB",15-01-2026 08:00:00,28.840739,78.697531,SO2,2,31,17
India,Uttar_Pradesh,Moradabad,"Employment Office, Moradabad - UPPCB",15-01-2026 08:00:00,28.88528,78.73880,NH3,4,4,4
India,Uttar_Pradesh,Moradabad,"Employment Office, Moradabad - UPPCB",15-01-2026 08:00:00,28.88528,78.73880,SO2,22,26,23
India,Uttar_Pradesh,Moradabad,"Jigar Colony, Moradabad - UPPCB",15-01-2026 08:00:00,28.856664,78.772638,PM10,98,155,118
India,Uttar_Pradesh,Moradabad,"Jigar Colony, Moradabad - UPPCB",15-01-2026 08:00:00,28.856664,78.772638,SO2,14,68,35
India,Uttar_Pradesh,Moradabad,"Kashiram Nagar, Moradabad - UPPCB",15-01-2026 08:00:00,28.849399,78.742362,PM2.5,64,273,119
India,Uttar_Pradesh,Moradabad,"Kashiram Nagar, Moradabad - UPPCB",15-01-2026 08:00:00,28.849399,78.742362,SO2,1,56,25
India,Uttar_Pradesh,Moradabad,"Transport Nagar, Moradabad - UPPCB",15-01-2026 08:00:00,28.802625,78.753728,SO2,36,41,39
India,Uttar_Pradesh,Prayagraj,"Jhunsi, Prayagraj - UPPCB",15-01-2026 08:00:00,25.425602,81.917152,SO2,18,18,18
India,Uttar_Pradesh,Prayagraj,"Jhunsi, Prayagraj - UPPCB",15-01-2026 08:00:00,25.425602,81.917152,OZONE,16,24,16
India,Uttar_Pradesh,Prayagraj,"Motilal Nehru NIT, Prayagraj - UPPCB",15-01-2026 08:00:00,25.494,81.863,PM2.5,49,191,110
India,Uttar_Pradesh,Prayagraj,"Motilal Nehru NIT, Prayagraj - UPPCB",15-01-2026 08:00:00,25.494,81.863,OZONE,7,60,7
India,Uttar_Pradesh,Prayagraj,"Nagar Nigam, Prayagraj - UPPCB",15-01-2026 08:00:00,25.44919916 ,81.82735986 ,NO2,5,5,5
India,Uttar_Pradesh,Varanasi,"Bhelupur, Varanasi - UPPCB",15-01-2026 08:00:00,25.301778,82.996789,SO2,26,29,28
India,Uttar_Pradesh,Varanasi,"IESD Banaras Hindu University, Varanasi - UPPCB",15-01-2026 08:00:00,25.262326,82.995408,NO2,2,3,2
India,Uttar_Pradesh,Noida,"Sector - 125, Noida - UPPCB",15-01-2026 08:00:00,28.5447608,77.3231257,CO,10,107,62
India,Uttar_Pradesh,Noida,"Sector - 62, Noida - IMD",15-01-2026 08:00:00,28.6245479,77.3577104,PM2.5,229,420,342
India,Uttar_Pradesh,Noida,"Sector - 62, Noida - IMD",15-01-2026 08:00:00,28.6245479,77.3577104,PM10,141,413,258
India,Uttar_Pradesh,Noida,"Sector-1, Noida - UPPCB",15-01-2026 08:00:00,28.5898,77.3101,PM10,137,294,212
India,Uttar_Pradesh,Noida,"Sector-116, Noida - UPPCB",15-01-2026 08:00:00,28.569230,77.393848,PM2.5,224,439,347
India,Uttar_Pradesh,Noida,"Sector-116, Noida - UPPCB",15-01-2026 08:00:00,28.569230,77.393848,OZONE,8,209,11
India,Uttar_Pradesh,Prayagraj,"Jhunsi, Prayagraj - UPPCB",15-01-2026 08:00:00,25.425602,81.917152,NH3,5,5,5
India,West_Bengal,Asansol,"Evelyn Lodge, Asansol - WBPCB",15-01-2026 08:00:00,23.6979360,86.9443950,NH3,5,7,6
India,West_Bengal,Asansol,"Mahabir Colliery, Asansol - WBPCB",15-01-2026 08:00:00,23.6181830,87.1057180,PM10,71,160,124
India,West_Bengal,Asansol,"Trivenidevi Bhalotia College, Asansol - WBPCB",15-01-2026 08:00:00,23.616515,87.119133,CO,42,82,66
India,West_Bengal,Barrackpore,"SVSPA Campus, Barrackpore - WBPCB",15-01-2026 08:00:00,22.7605581,88.3617589,PM10,92,154,114
India,West_Bengal,Durgapur,"Mahishkapur Road_B-Zone, Durgapur - WBPCB",15-01-2026 08:00:00,23.567923,87.306843,PM2.5,35,192,119
India,West_Bengal,Durgapur,"Mahishkapur Road_B-Zone, Durgapur - WBPCB",15-01-2026 08:00:00,23.567923,87.306843,CO,43,104,78
India,West_Bengal,Durgapur,"Womens College_City Center, Durgapur - WBPCB",15-01-2026 08:00:00,23.549395,87.300496,CO,33,66,45
India,West_Bengal,Haldia,"Priyambada Housing Estate, Haldia - WBPCB",15-01-2026 08:00:00,22.06047,88.109737,PM10,68,139,97
India,West_Bengal,Howrah,"Belur Math, Howrah - WBPCB",15-01-2026 08:00:00,22.629801,88.352017,PM10,151,308,194
India,West_Bengal,Howrah,"Belur Math, Howrah - WBPCB",15-01-2026 08:00:00,22.629801,88.352017,NH3,10,16,13
India,West_Bengal,Howrah,"Belur Math, Howrah - WBPCB",15-01-2026 08:00:00,22.629801,88.352017,SO2,11,42,20
India,West_Bengal,Howrah,"Botanical Garden, Howrah - WBPCB",15-01-2026 08:00:00,22.554954,88.292568,NO2,8,18,13
India,West_Bengal,Howrah,"Botanical Garden, Howrah - WBPCB",15-01-2026 08:00:00,22.554954,88.292568,CO,42,94,61
India,West_Bengal,Howrah,"Dasnagar, Howrah - WBPCB",15-01-2026 08:00:00,22.6025571,88.3105664,NO2,24,125,62
India,West_Bengal,Howrah,"Dasnagar, Howrah - WBPCB",15-01-2026 08:00:00,22.6025571,88.3105664,SO2,2,39,16
India,West_Bengal,Howrah,"Padmapukur, Howrah - WBPCB",15-01-2026 08:00:00,22.5687319,88.2797276,NH3,3,11,7
India,West_Bengal,Kolkata,"Ballygunge, Kolkata - WBPCB",15-01-2026 08:00:00,22.5367507,88.3638022,NH3,7,13,9
India,Uttar_Pradesh,Varanasi,"Maldahiya, Varanasi - UPPCB",15-01-2026 08:00:00,25.32393,82.99687,CO,1,20,13
India,Uttar_Pradesh,Varanasi,"Maldahiya, Varanasi - UPPCB",15-01-2026 08:00:00,25.32393,82.99687,OZONE,1,10,1
India,Uttarakhand,Dehradun,"Doon University, Dehradun - UKPCB",15-01-2026 08:00:00,30.269444,78.044167,SO2,2,3,2
India,Uttarakhand,Dehradun,"Doon University, Dehradun - UKPCB",15-01-2026 08:00:00,30.269444,78.044167,OZONE,21,88,30
India,West_Bengal,Asansol,"Asansol Court Area, Asansol - WBPCB",15-01-2026 08:00:00,23.685297,86.945968,NO2,15,28,23
India,West_Bengal,Kolkata,"Bidhannagar, Kolkata - WBPCB",15-01-2026 08:00:00,22.58157048,88.41002457,CO,19,74,43
India,West_Bengal,Kolkata,"Bidhannagar, Kolkata - WBPCB",15-01-2026 08:00:00,22.58157048,88.41002457,OZONE,14,42,15
India,West_Bengal,Kolkata,"Fort William, Kolkata - WBPCB",15-01-2026 08:00:00,22.556640,88.342674,NO2,16,21,18
India,West_Bengal,Kolkata,"Fort William, Kolkata - WBPCB",15-01-2026 08:00:00,22.556640,88.342674,OZONE,23,87,44
India,West_Bengal,Kolkata,"Jadavpur, Kolkata - WBPCB",15-01-2026 08:00:00,22.49929,88.36917,SO2,11,12,11
India,West_Bengal,Kolkata,"Jadavpur, Kolkata - WBPCB",15-01-2026 08:00:00,22.49929,88.36917,CO,31,88,64
India,West_Bengal,Kolkata,"Rabindra Bharati University, Kolkata - WBPCB",15-01-2026 08:00:00,22.627847,88.380669,PM10,133,192,162
India,West_Bengal,Kolkata,"Rabindra Sarobar, Kolkata - WBPCB",15-01-2026 08:00:00,22.51106,88.35142,PM10,107,170,134
India,West_Bengal,Kolkata,"Rabindra Sarobar, Kolkata - WBPCB",15-01-2026 08:00:00,22.51106,88.35142,OZONE,3,56,10
India,West_Bengal,Siliguri,"Ward-32 Bapupara, Siliguri - WBPCB",15-01-2026 08:00:00,26.6879226,88.4152495,NO2,17,23,20
India,West_Bengal,Siliguri,"Ward-32 Bapupara, Siliguri - WBPCB",15-01-2026 08:00:00,26.6879226,88.4152495,SO2,13,21,16
India,Assam,Silchar,"Tarapur, Silchar - PCBA",15-01-2026 08:00:00,24.82827,92.79525,PM10,47,63,53
India,Assam,Silchar,"Tarapur, Silchar - PCBA",15-01-2026 08:00:00,24.82827,92.79525,NH3,1,2,1
India,Assam,Sivasagar,"Girls College, Sivasagar - PCBA",15-01-2026 08:00:00,26.987634,94.636574,PM2.5,NA,NA,NA
India,Assam,Sivasagar,"Girls College, Sivasagar - PCBA",15-01-2026 08:00:00,26.987634,94.636574,SO2,11,13,12
India,Assam,Sivasagar,"Girls College, Sivasagar - PCBA",15-01-2026 08:00:00,26.987634,94.636574,CO,16,115,49
India,Bihar,Araria,"Kharahiya Basti, Araria - BSPCB",15-01-2026 08:00:00,26.146529,87.454184,PM2.5,37,302,122
India,Bihar,Araria,"Kharahiya Basti, Araria - BSPCB",15-01-2026 08:00:00,26.146529,87.454184,PM10,31,155,89
India,Bihar,Araria,"Kharahiya Basti, Araria - BSPCB",15-01-2026 08:00:00,26.146529,87.454184,NO2,1,14,5
India,Bihar,Araria,"Kharahiya Basti, Araria - BSPCB",15-01-2026 08:00:00,26.146529,87.454184,NH3,4,5,4
India,Bihar,Araria,"Kharahiya Basti, Araria - BSPCB",15-01-2026 08:00:00,26.146529,87.454184,SO2,1,21,11
India,Bihar,Arrah,"New DM Office, Arrah - BSPCB",15-01-2026 08:00:00,25.5626095,84.663264,PM10,44,105,74
India,Bihar,Manguraha,"Forest Rest House, Manguraha - BSPCB",15-01-2026 08:00:00,27.308328,84.531742,PM10,83,151,111
India,Bihar,Manguraha,"Forest Rest House, Manguraha - BSPCB",15-01-2026 08:00:00,27.308328,84.531742,OZONE,9,11,10
India,Bihar,Motihari,"Gandak Colony, Motihari - BSPCB",15-01-2026 08:00:00,26.63086,84.90051,PM10,76,173,114
India,Bihar,Motihari,"Gandak Colony, Motihari - BSPCB",15-01-2026 08:00:00,26.63086,84.90051,CO,14,31,17
India,Bihar,Motihari,"Gandak Colony, Motihari - BSPCB",15-01-2026 08:00:00,26.63086,84.90051,OZONE,3,10,4
India,Bihar,Munger,"Town Hall, Munger - BSPCB",15-01-2026 08:00:00,25.376776,86.471523,PM2.5,68,401,114
India,Bihar,Munger,"Town Hall, Munger - BSPCB",15-01-2026 08:00:00,25.376776,86.471523,NO2,4,5,5
India,Bihar,Muzaffarpur,"Buddha Colony, Muzaffarpur - BSPCB",15-01-2026 08:00:00,26.11442,85.39813,PM2.5,85,212,144
India,Bihar,Muzaffarpur,"Buddha Colony, Muzaffarpur - BSPCB",15-01-2026 08:00:00,26.11442,85.39813,NH3,6,9,7
India,Bihar,Muzaffarpur,"Buddha Colony, Muzaffarpur - BSPCB",15-01-2026 08:00:00,26.11442,85.39813,SO2,3,6,5
India,Andhra_Pradesh,Vijayawada,"Rajiv Gandhi Park, Vijayawada - APPCB",15-01-2026 08:00:00,16.509717,80.612222,SO2,14,20,17
India,Andhra_Pradesh,Vijayawada,"Rajiv Nagar, Vijayawada - APPCB",15-01-2026 08:00:00,16.554731,80.649110,NH3,4,5,4
India,Andhra_Pradesh,Vijayawada,"Rajiv Nagar, Vijayawada - APPCB",15-01-2026 08:00:00,16.554731,80.649110,SO2,12,16,15
India,Andhra_Pradesh,Visakhapatnam,"GVM Corporation, Visakhapatnam - APPCB",15-01-2026 08:00:00,17.72,83.3,PM2.5,105,321,226
India,Andhra_Pradesh,Visakhapatnam,"GVM Corporation, Visakhapatnam - APPCB",15-01-2026 08:00:00,17.72,83.3,NH3,3,4,4
India,Arunachal_Pradesh,Naharlagun,"Naharlagun, Naharlagun - APSPCB",15-01-2026 08:00:00,27.103358,93.679645,NH3,NA,NA,NA
India,Assam,Byrnihat,"Central Academy for SFS, Byrnihat - PCBA",15-01-2026 08:00:00,26.071318,91.87488,PM2.5,94,192,141
India,Bihar,Aurangabad,"Gurdeo Nagar, Aurangabad - BSPCB",15-01-2026 08:00:00,24.75746,84.366208,OZONE,NA,NA,NA
India,Bihar,Begusarai,"Lohiyanagar, Begusarai - BSPCB",15-01-2026 08:00:00,25.42742023,86.13886079,NO2,10,16,14
India,Bihar,Begusarai,"Lohiyanagar, Begusarai - BSPCB",15-01-2026 08:00:00,25.42742023,86.13886079,CO,38,74,56
India,Bihar,Bettiah,"Kamalnath Nagar, Bettiah - BSPCB",15-01-2026 08:00:00,26.80365,84.51954,NO2,7,9,8
India,Bihar,Bhagalpur,"DM Office_Kachari Chowk, Bhagalpur - BSPCB",15-01-2026 08:00:00,25.251013,86.989001,SO2,13,44,29
India,Bihar,Bhagalpur,"DM Office_Kachari Chowk, Bhagalpur - BSPCB",15-01-2026 08:00:00,25.251013,86.989001,CO,37,57,39
India,Bihar,Bhagalpur,"Mayaganj, Bhagalpur - BSPCB",15-01-2026 08:00:00,25.265194,87.012947,NH3,9,11,10
India,Bihar,Bihar Sharif,"D M Colony, Bihar Sharif - BSPCB",15-01-2026 08:00:00,25.204762,85.514960,NO2,9,10,9
India,Bihar,Buxar,"Charitra Van, Buxar - BSPCB",15-01-2026 08:00:00,25.567520,83.966379,PM2.5,78,187,126
India,Bihar,Buxar,"Charitra Van, Buxar - BSPCB",15-01-2026 08:00:00,25.567520,83.966379,NH3,3,3,3
India,Bihar,Chhapra,"Darshan Nagar, Chhapra - BSPCB",15-01-2026 08:00:00,25.7808257,84.7446768,OZONE,14,21,16
India,Bihar,Gaya,"Collectorate, Gaya - BSPCB",15-01-2026 08:00:00,24.7955,84.9994,PM2.5,NA,NA,NA
India,Bihar,Gaya,"Kareemganj, Gaya - BSPCB",15-01-2026 08:00:00,24.792403,84.992416,CO,8,40,32
India,Assam,Guwahati,"Pan Bazaar, Guwahati - PCBA",15-01-2026 08:00:00,26.187500,91.744194,CO,24,101,58
India,Assam,Guwahati,"Railway Colony, Guwahati - PCBA",15-01-2026 08:00:00,26.181742,91.78063,NO2,3,4,3
India,Assam,Nagaon,"Christianpatty, Nagaon - PCBA",15-01-2026 08:00:00,26.349082,92.68449,PM2.5,62,194,132
India,Assam,Nalbari,"Bata Chowk, Nalbari - PCBA",15-01-2026 08:00:00,26.446912,91.439057,PM2.5,97,191,140
India,Assam,Nalbari,"Bata Chowk, Nalbari - PCBA",15-01-2026 08:00:00,26.446912,91.439057,NO2,13,15,14
India,Assam,Nalbari,"Bata Chowk, Nalbari - PCBA",15-01-2026 08:00:00,26.446912,91.439057,CO,20,22,21
India,Andhra_Pradesh,Chittoor,"Gangineni Cheruvu, Chittoor - APPCB",15-01-2026 08:00:00,13.204880,79.097889,PM10,51,193,87
India,Andhra_Pradesh,Chittoor,"Gangineni Cheruvu, Chittoor - APPCB",15-01-2026 08:00:00,13.204880,79.097889,NO2,37,42,39
India,Andhra_Pradesh,Kadapa,"Yerramukkapalli, Kadapa - APPCB",15-01-2026 08:00:00,14.465052,78.824187,SO2,10,19,17
India,Andhra_Pradesh,Rajamahendravaram,"Anand Kala Kshetram, Rajamahendravaram - APPCB",15-01-2026 08:00:00,16.9872867,81.7363176,CO,26,96,53
India,Andhra_Pradesh,Rajamahendravaram,"Anand Kala Kshetram, Rajamahendravaram - APPCB",15-01-2026 08:00:00,16.9872867,81.7363176,OZONE,7,21,8
India,Andhra_Pradesh,Tirumala,"Toll Gate, Tirumala - APPCB",15-01-2026 08:00:00,13.67,79.35,PM10,54,117,83
India,Andhra_Pradesh,Vijayawada,"HB Colony, Vijayawada - APPCB",15-01-2026 08:00:00,16.536107,80.594233,PM10,56,169,92
India,Andhra_Pradesh,Vijayawada,"HB Colony, Vijayawada - APPCB",15-01-2026 08:00:00,16.536107,80.594233,SO2,6,21,16
India,Andhra_Pradesh,Vijayawada,"Kanuru, Vijayawada - APPCB",15-01-2026 08:00:00,16.486692,80.699436,NH3,2,5,4
India,Bihar,Gaya,"SFTI Kusdihra, Gaya - BSPCB",15-01-2026 08:00:00,24.762518,84.982348,CO,12,55,45
India,Bihar,Hajipur,"Industrial Area, Hajipur - BSPCB",15-01-2026 08:00:00,25.697189,85.245900,PM2.5,96,221,173
India,Andhra_Pradesh,Amaravati,"Secretariat, Amaravati - APPCB",15-01-2026 08:00:00,16.5150833,80.5181667,CO,2,24,13
India,Bihar,Patna,"IGSC Planetarium Complex, Patna - BSPCB",15-01-2026 08:00:00,25.610369,85.132568,SO2,1,30,2
India,Bihar,Patna,"Muradpur, Patna - BSPCB",15-01-2026 08:00:00,25.619651,85.147382,NO2,6,7,6
India,Bihar,Patna,"Muradpur, Patna - BSPCB",15-01-2026 08:00:00,25.619651,85.147382,CO,37,87,46
India,Bihar,Patna,"Rajbansi Nagar, Patna - BSPCB",15-01-2026 08:00:00,25.599486,85.113666,NH3,1,7,5
India,Bihar,Patna,"Samanpura, Patna - BSPCB",15-01-2026 08:00:00,25.596727,85.085624,OZONE,1,181,12
India,Bihar,Purnia,"Mariam Nagar, Purnia - BSPCB",15-01-2026 08:00:00,25.366336,87.117468,PM2.5,77,153,102
India,Bihar,Purnia,"Mariam Nagar, Purnia - BSPCB",15-01-2026 08:00:00,25.366336,87.117468,PM10,61,100,78
India,Bihar,Purnia,"Mariam Nagar, Purnia - BSPCB",15-01-2026 08:00:00,25.366336,87.117468,NO2,5,6,6
India,Bihar,Purnia,"Mariam Nagar, Purnia - BSPCB",15-01-2026 08:00:00,25.366336,87.117468,NH3,3,3,3
India,Bihar,Purnia,"Mariam Nagar, Purnia - BSPCB",15-01-2026 08:00:00,25.366336,87.117468,SO2,11,17,16
India,Chhattisgarh,Korba,"Rampur, Korba - CECB",15-01-2026 08:00:00,22.368195,82.746431,OZONE,4,17,6
India,Chhattisgarh,Korba,"Urja Nagar, Korba - CECB",15-01-2026 08:00:00,22.348441,82.549611,NO2,16,23,19
India,Chhattisgarh,Kunjemura,"OP Jindal School, Kunjemura - CECB",15-01-2026 08:00:00,22.126650,83.483212,PM2.5,34,83,55
India,Chhattisgarh,Kunjemura,"OP Jindal School, Kunjemura - CECB",15-01-2026 08:00:00,22.126650,83.483212,CO,24,50,48
India,Chhattisgarh,Milupara,"Govt. Higher Secondary School, Milupara - CECB",15-01-2026 08:00:00,22.1910172,83.5197009,NH3,1,2,2
India,Chhattisgarh,Milupara,"Govt. Higher Secondary School, Milupara - CECB",15-01-2026 08:00:00,22.1910172,83.5197009,SO2,13,17,14
India,Chhattisgarh,Milupara,"Govt. Higher Secondary School, Milupara - CECB",15-01-2026 08:00:00,22.1910172,83.5197009,OZONE,6,129,19
India,Chhattisgarh,Raipur,"AIIMS, Raipur - CECB",15-01-2026 08:00:00,21.258815,81.578979,PM2.5,39,195,72
India,Chhattisgarh,Raipur,"AIIMS, Raipur - CECB",15-01-2026 08:00:00,21.258815,81.578979,NH3,4,5,4
India,Chhattisgarh,Raipur,"AIIMS, Raipur - CECB",15-01-2026 08:00:00,21.258815,81.578979,SO2,3,20,7
India,Chhattisgarh,Raipur,"AIIMS, Raipur - CECB",15-01-2026 08:00:00,21.258815,81.578979,CO,24,93,73
India,Chhattisgarh,Raipur,"Bhatagaon New ISBT, Raipur - CECB",15-01-2026 08:00:00,21.219665,81.630094,NO2,24,77,44
India,Chhattisgarh,Raipur,"Bhatagaon New ISBT, Raipur - CECB",15-01-2026 08:00:00,21.219665,81.630094,SO2,6,27,9
India,Bihar,Muzaffarpur,"MIT-Daudpur Kothi, Muzaffarpur - BSPCB",15-01-2026 08:00:00,26.1403345,85.3650192,NH3,2,2,2
India,Bihar,Muzaffarpur,"Muzaffarpur Collectorate, Muzaffarpur - BSPCB",15-01-2026 08:00:00,26.1209,85.3647,PM2.5,87,117,95
India,Bihar,Patna,"DRM Office Danapur, Patna - BSPCB",15-01-2026 08:00:00,25.586562,85.043586,SO2,4,8,6
India,Bihar,Patna,"Govt. High School Shikarpur, Patna - BSPCB",15-01-2026 08:00:00,25.592539,85.227158,NH3,4,5,5
India,Bihar,Patna,"IGSC Planetarium Complex, Patna - BSPCB",15-01-2026 08:00:00,25.610369,85.132568,NO2,1,19,2
India,Bihar,Rajgir,"Dangi Tola, Rajgir - BSPCB",15-01-2026 08:00:00,25.03280,85.41948,NO2,8,10,9
India,Bihar,Rajgir,"Dangi Tola, Rajgir - BSPCB",15-01-2026 08:00:00,25.03280,85.41948,NH3,5,8,6
India,Bihar,Rajgir,"Dangi Tola, Rajgir - BSPCB",15-01-2026 08:00:00,25.03280,85.41948,CO,64,103,87
India,Bihar,Samastipur,"DM Office_Kasipur, Samastipur - BSPCB",15-01-2026 08:00:00,25.859655,85.77944,PM2.5,67,180,104
India,Bihar,Samastipur,"DM Office_Kasipur, Samastipur - BSPCB",15-01-2026 08:00:00,25.859655,85.77944,OZONE,7,9,8
India,Bihar,Sasaram,"Dada Peer, Sasaram - BSPCB",15-01-2026 08:00:00,24.952822,84.002396,CO,49,56,53
India,Chandigarh,Chandigarh,"Sector 22, Chandigarh - CPCC",15-01-2026 08:00:00,30.735567,76.775714,SO2,1,6,4
India,Chandigarh,Chandigarh,"Sector 22, Chandigarh - CPCC",15-01-2026 08:00:00,30.735567,76.775714,OZONE,5,22,12
India,Chandigarh,Chandigarh,"Sector-25, Chandigarh - CPCC",15-01-2026 08:00:00,30.751462,76.762879,NH3,5,6,6
India,Chandigarh,Chandigarh,"Sector-53, Chandigarh - CPCC",15-01-2026 08:00:00,30.719859,76.738637,NO2,26,70,41
India,Chandigarh,Chandigarh,"Sector-53, Chandigarh - CPCC",15-01-2026 08:00:00,30.719859,76.738637,SO2,5,10,7
India,Chhattisgarh,Bhilai,"Civic Center, Bhilai - Bhilai Steel Plant",15-01-2026 08:00:00,21.185571,81.343175,PM10,37,93,60
India,Chhattisgarh,Bilaspur,"Mangala, Bilaspur - NTPC",15-01-2026 08:00:00,22.08815,82.13737,NO2,22,122,35
India,Chhattisgarh,Bilaspur,"Mangala, Bilaspur - NTPC",15-01-2026 08:00:00,22.08815,82.13737,CO,32,107,54
India,Chhattisgarh,Raipur,"Krishak Nagar, Raipur - CECB",15-01-2026 08:00:00,21.237755,81.705301,PM10,38,71,54
India,Chhattisgarh,Raipur,"Siltara Phase-II, Raipur - CECB",15-01-2026 08:00:00,21.371751,81.664929,SO2,2,7,4
India,Delhi,Delhi,"Alipur, Delhi - DPCC",15-01-2026 08:00:00,28.815329,77.153010,NH3,18,22,20
India,Delhi,Delhi,"ITO, Delhi - CPCB",15-01-2026 08:00:00,28.628624,77.241060,NO2,10,58,30
India,Delhi,Delhi,"ITO, Delhi - CPCB",15-01-2026 08:00:00,28.628624,77.241060,SO2,6,18,12
India,Delhi,Delhi,"Jahangirpuri, Delhi - DPCC",15-01-2026 08:00:00,28.732820,77.170633,OZONE,4,73,5
India,Delhi,Delhi,"Jawaharlal Nehru Stadium, Delhi - DPCC",15-01-2026 08:00:00,28.580280,77.233829,NH3,5,6,6
India,Delhi,Delhi,"Lodhi Road, Delhi - IMD",15-01-2026 08:00:00,28.5918245,77.2273074,PM2.5,139,391,320
India,Delhi,Delhi,"Lodhi Road, Delhi - IMD",15-01-2026 08:00:00,28.5918245,77.2273074,PM10,140,273,206
India,Delhi,Delhi,"Lodhi Road, Delhi - IMD",15-01-2026 08:00:00,28.5918245,77.2273074,OZONE,12,82,14
India,Delhi,Delhi,"Major Dhyan Chand National Stadium, Delhi - DPCC",15-01-2026 08:00:00,28.611281,77.237738,PM10,153,375,232
India,Delhi,Delhi,"Dr. Karni Singh Shooting Range, Delhi - DPCC",15-01-2026 08:00:00,28.498571,77.264840,SO2,8,17,11
India,Delhi,Delhi,"Dr. Karni Singh Shooting Range, Delhi - DPCC",15-01-2026 08:00:00,28.498571,77.264840,CO,8,102,80
India,Delhi,Delhi,"Dwarka-Sector 8, Delhi - DPCC ",15-01-2026 08:00:00,28.5710274,77.0719006,PM10,168,416,264
India,Delhi,Delhi,"Dwarka-Sector 8, Delhi - DPCC ",15-01-2026 08:00:00,28.5710274,77.0719006,NH3,22,29,26
India,Delhi,Delhi,"IHBAS, Dilshad Garden, Delhi - CPCB",15-01-2026 08:00:00,28.6811736,77.3025234,OZONE,15,19,16
India,Delhi,Delhi,"IIT Delhi, Delhi - IITM",15-01-2026 08:00:00,28.542460,77.191651,PM2.5,163,402,321
India,Delhi,Delhi,"IIT Delhi, Delhi - IITM",15-01-2026 08:00:00,28.542460,77.191651,PM10,131,319,211
India,Delhi,Delhi,"IIT Delhi, Delhi - IITM",15-01-2026 08:00:00,28.542460,77.191651,CO,36,111,102
India,Delhi,Delhi,"Bawana, Delhi - DPCC",15-01-2026 08:00:00,28.776200,77.051074,NH3,7,11,9
India,Delhi,Delhi,"Bawana, Delhi - DPCC",15-01-2026 08:00:00,28.776200,77.051074,CO,63,104,86
India,Delhi,Delhi,"Burari Crossing, Delhi - IMD",15-01-2026 08:00:00,28.7256504,77.2011573,PM2.5,181,388,319
India,Delhi,Delhi,"CRRI Mathura Road, Delhi - IMD",15-01-2026 08:00:00,28.5512005,77.2735737,PM2.5,19,362,259
India,Delhi,Delhi,"Chandni Chowk, Delhi - IITM",15-01-2026 08:00:00,28.656756,77.227234,PM2.5,332,420,375
India,Delhi,Delhi,"DTU, Delhi - CPCB",15-01-2026 08:00:00,28.7500499,77.1112615,PM10,121,287,193
India,Delhi,Delhi,"DTU, Delhi - CPCB",15-01-2026 08:00:00,28.7500499,77.1112615,NO2,54,82,57
India,Delhi,Delhi,"Alipur, Delhi - DPCC",15-01-2026 08:00:00,28.815329,77.153010,SO2,4,9,5
India,Delhi,Delhi,"Anand Vihar, Delhi - DPCC",15-01-2026 08:00:00,28.647622,77.3158090,PM10,175,455,345
India,Delhi,Delhi,"Anand Vihar, Delhi - DPCC",15-01-2026 08:00:00,28.647622,77.3158090,CO,30,100,66
India,Delhi,Delhi,"Ashok Vihar, Delhi - DPCC",15-01-2026 08:00:00,28.695381,77.181665,NH3,6,9,8
India,Delhi,Delhi,"Ashok Vihar, Delhi - DPCC",15-01-2026 08:00:00,28.695381,77.181665,OZONE,4,104,5
India,Delhi,Delhi,"Aya Nagar, Delhi - IMD",15-01-2026 08:00:00,28.4706914,77.1099364,NO2,14,75,38
India,Delhi,Delhi,"Najafgarh, Delhi - DPCC",15-01-2026 08:00:00,28.570173,76.933762,CO,42,117,79
India,Delhi,Delhi,"Narela, Delhi - DPCC",15-01-2026 08:00:00,28.822836,77.101981,PM10,130,402,238
India,Delhi,Delhi,"Narela, Delhi - DPCC",15-01-2026 08:00:00,28.822836,77.101981,NH3,6,12,9
India,Delhi,Delhi,"Narela, Delhi - DPCC",15-01-2026 08:00:00,28.822836,77.101981,CO,29,87,47
India,Delhi,Delhi,"Nehru Nagar, Delhi - DPCC",15-01-2026 08:00:00,28.567890,77.250515,NH3,7,9,8
India,Delhi,Delhi,"Okhla Phase-2, Delhi - DPCC",15-01-2026 08:00:00,28.530785,77.271255,NH3,12,20,16
India,Delhi,Delhi,"Rohini, Delhi - DPCC",15-01-2026 08:00:00,28.732528,77.119920,NH3,10,18,14
India,Delhi,Delhi,"Shadipur, Delhi - CPCB",15-01-2026 08:00:00,28.6514781,77.1473105,NH3,13,16,15
India,Delhi,Delhi,"Sirifort, Delhi - CPCB",15-01-2026 08:00:00,28.5504249,77.2159377,PM2.5,306,434,383
India,Delhi,Delhi,"Sirifort, Delhi - CPCB",15-01-2026 08:00:00,28.5504249,77.2159377,NH3,1,8,4
India,Delhi,Delhi,"Sri Aurobindo Marg, Delhi - DPCC",15-01-2026 08:00:00,28.531346,77.190156,PM2.5,207,384,336
India,Delhi,Delhi,"Patparganj, Delhi - DPCC",15-01-2026 08:00:00,28.623763,77.287209,NO2,40,133,74
India,Delhi,Delhi,"Patparganj, Delhi - DPCC",15-01-2026 08:00:00,28.623763,77.287209,OZONE,1,255,5
India,Delhi,Delhi,"Punjabi Bagh, Delhi - DPCC",15-01-2026 08:00:00,28.674045,77.131023,OZONE,3,65,4
India,Delhi,Delhi,"Pusa, Delhi - DPCC",15-01-2026 08:00:00,28.639652,77.146275,OZONE,2,26,2
India,Delhi,Delhi,"Mundka, Delhi - DPCC",15-01-2026 08:00:00,28.684678,77.076574,NH3,10,15,13
India,Delhi,Delhi,"Mundka, Delhi - DPCC",15-01-2026 08:00:00,28.684678,77.076574,SO2,14,22,17
India,Delhi,Delhi,"NSIT Dwarka, Delhi - CPCB",15-01-2026 08:00:00,28.60909,77.0325413,OZONE,21,231,22
India,Delhi,Delhi,"Mandir Marg, Delhi - DPCC",15-01-2026 08:00:00,28.636429,77.201067,SO2,6,41,22
India,Haryana,Ambala,"Patti Mehar, Ambala - HSPCB",15-01-2026 08:00:00,30.379589,76.778328,CO,26,42,28
India,Haryana,Bahadurgarh,"Arya Nagar, Bahadurgarh - HSPCB",15-01-2026 08:00:00,28.6701,76.9254,PM2.5,54,308,187
India,Haryana,Bahadurgarh,"Arya Nagar, Bahadurgarh - HSPCB",15-01-2026 08:00:00,28.6701,76.9254,NH3,12,13,13
India,Haryana,Bahadurgarh,"Arya Nagar, Bahadurgarh - HSPCB",15-01-2026 08:00:00,28.6701,76.9254,CO,46,53,49
India,Haryana,Ballabgarh,"Nathu Colony, Ballabgarh - HSPCB",15-01-2026 08:00:00,28.3419248,77.319699,NO2,19,21,20
India,Haryana,Bhiwani,"H.B. Colony, Bhiwani - HSPCB",15-01-2026 08:00:00,28.806223,76.141105,OZONE,5,11,7
India,Haryana,Charkhi Dadri,"Mini Secretariat, Charkhi Dadri - HSPCB",15-01-2026 08:00:00,28.593883,76.270653,SO2,9,11,10
India,Haryana,Charkhi Dadri,"Mini Secretariat, Charkhi Dadri - HSPCB",15-01-2026 08:00:00,28.593883,76.270653,CO,8,25,14
India,Haryana,Gurugram,"Vikas Sadan, Gurugram - HSPCB",15-01-2026 08:00:00,28.4501238,77.0263051,SO2,2,8,5
India,Haryana,Gurugram,"Vikas Sadan, Gurugram - HSPCB",15-01-2026 08:00:00,28.4501238,77.0263051,OZONE,4,31,11
India,Haryana,Hisar,"Urban Estate-II, Hisar - HSPCB",15-01-2026 08:00:00,29.140560,75.744941,PM10,22,225,94
India,Haryana,Jind,"Police Lines, Jind - HSPCB",15-01-2026 08:00:00,29.307814,76.337619,NO2,36,50,43
India,Haryana,Kaithal,"Rishi Nagar, Kaithal - HSPCB",15-01-2026 08:00:00,29.8006,76.4155,PM2.5,NA,NA,NA
India,Haryana,Kaithal,"Rishi Nagar, Kaithal - HSPCB",15-01-2026 08:00:00,29.8006,76.4155,NH3,NA,NA,NA
India,Haryana,Kaithal,"Rishi Nagar, Kaithal - HSPCB",15-01-2026 08:00:00,29.8006,76.4155,SO2,NA,NA,NA
India,Haryana,Kaithal,"Rishi Nagar, Kaithal - HSPCB",15-01-2026 08:00:00,29.8006,76.4155,CO,NA,NA,NA
India,Haryana,Karnal,"Sector-12, Karnal - HSPCB",15-01-2026 08:00:00,29.695300,77.002700,SO2,6,7,6
India,Gujarat,Ahmedabad,"Gyaspur, Ahmedabad - IITM",15-01-2026 08:00:00,22.977134,72.553024,SO2,1,48,16
India,Gujarat,Ahmedabad,"Maninagar, Ahmedabad - GPCB",15-01-2026 08:00:00,23.002657,72.591912,PM2.5,NA,NA,NA
India,Gujarat,Ahmedabad,"Maninagar, Ahmedabad - GPCB",15-01-2026 08:00:00,23.002657,72.591912,PM10,NA,NA,NA
India,Gujarat,Ahmedabad,"Maninagar, Ahmedabad - GPCB",15-01-2026 08:00:00,23.002657,72.591912,OZONE,NA,NA,NA
India,Gujarat,Ahmedabad,"Raikhad, Ahmedabad - IITM",15-01-2026 08:00:00,23.020509,72.579261,PM10,95,177,123
India,Gujarat,Ahmedabad,"Raikhad, Ahmedabad - IITM",15-01-2026 08:00:00,23.020509,72.579261,NO2,NA,NA,NA
India,Gujarat,Ahmedabad,"Raikhad, Ahmedabad - IITM",15-01-2026 08:00:00,23.020509,72.579261,OZONE,7,76,26
India,Gujarat,Ahmedabad,"Rakhial, Ahmedabad - IITM",15-01-2026 08:00:00,23.016834,72.625775,PM2.5,53,319,168
India,Gujarat,Ahmedabad,"SAC ISRO Satellite, Ahmedabad - IITM",15-01-2026 08:00:00,23.023389,72.515201,PM2.5,42,135,62
India,Haryana,Fatehabad,"Huda Sector, Fatehabad - HSPCB",15-01-2026 08:00:00,29.503664,75.467934,OZONE,46,56,54
India,Haryana,Gurugram,"Sector-51, Gurugram - HSPCB",15-01-2026 08:00:00,28.4227,77.0667,PM10,14,179,150
India,Haryana,Gurugram,"Teri Gram, Gurugram - HSPCB",15-01-2026 08:00:00,28.4275,77.1465,PM10,149,275,215
India,Haryana,Gurugram,"Teri Gram, Gurugram - HSPCB",15-01-2026 08:00:00,28.4275,77.1465,NO2,48,99,64
India,Haryana,Gurugram,"Teri Gram, Gurugram - HSPCB",15-01-2026 08:00:00,28.4275,77.1465,CO,35,86,74
India,Haryana,Gurugram,"Vikas Sadan, Gurugram - HSPCB",15-01-2026 08:00:00,28.4501238,77.0263051,PM2.5,211,363,334
India,Delhi,Delhi,"Sri Aurobindo Marg, Delhi - DPCC",15-01-2026 08:00:00,28.531346,77.190156,NO2,19,76,44
India,Delhi,Delhi,"Sri Aurobindo Marg, Delhi - DPCC",15-01-2026 08:00:00,28.531346,77.190156,CO,22,102,94
India,Delhi,Delhi,"Vivek Vihar, Delhi - DPCC",15-01-2026 08:00:00,28.672342,77.315260,PM2.5,309,435,391
India,Delhi,Delhi,"Vivek Vihar, Delhi - DPCC",15-01-2026 08:00:00,28.672342,77.315260,CO,56,100,72
India,Gujarat,Ahmedabad,"Chandkheda, Ahmedabad - IITM",15-01-2026 08:00:00,23.107969,72.574648,PM2.5,49,151,88
India,Gujarat,Ahmedabad,"Chandkheda, Ahmedabad - IITM",15-01-2026 08:00:00,23.107969,72.574648,PM10,87,168,122
India,Haryana,Mandikhera,"General Hospital, Mandikhera(Nuh) - HSPCB",15-01-2026 08:00:00,27.9002,76.9938,PM2.5,48,180,130
India,Haryana,Manesar,"Sector-2 IMT, Manesar - HSPCB",15-01-2026 08:00:00,28.360699,76.936090,PM10,105,176,149
India,Haryana,Narnaul,"Shastri Nagar, Narnaul - HSPCB",15-01-2026 08:00:00,28.060249,76.113115,PM10,62,347,179
India,Haryana,Narnaul,"Shastri Nagar, Narnaul - HSPCB",15-01-2026 08:00:00,28.060249,76.113115,SO2,6,12,7
India,Haryana,Narnaul,"Shastri Nagar, Narnaul - HSPCB",15-01-2026 08:00:00,28.060249,76.113115,OZONE,6,30,6
India,Haryana,Dharuhera,"Municipal Corporation Office, Dharuhera -  HSPCB",15-01-2026 08:00:00,28.206800,76.799700,NO2,11,56,40
India,Haryana,Dharuhera,"Municipal Corporation Office, Dharuhera -  HSPCB",15-01-2026 08:00:00,28.206800,76.799700,SO2,1,1,1
India,Haryana,Faridabad,"Sector 11, Faridabad - HSPCB",15-01-2026 08:00:00,28.376058,77.315741,NH3,10,10,10
India,Haryana,Faridabad,"Sector 30, Faridabad - HSPCB",15-01-2026 08:00:00,28.4417,77.3217,PM10,157,169,160
India,Haryana,Faridabad,"Sector 30, Faridabad - HSPCB",15-01-2026 08:00:00,28.4417,77.3217,NO2,37,40,38
India,Gujarat,Ahmedabad,"SVPI Airport Hansol, Ahmedabad - IITM",15-01-2026 08:00:00,23.076793,72.627874,PM2.5,45,112,75
