country,state,city,station,last_update,latitude,longitude,pollutant_id,min_value,max_value,avg_value
India,Bihar,Gaya,"Kareemganj, Gaya - BSPCB",11-04-2026 09:00:00,24.792403,84.992416,SO2,33,47,44
India,Bihar,Gaya,"SFTI Kusdihra, Gaya - BSPCB",11-04-2026 09:00:00,24.762518,84.982348,NH3,2,5,3
India,Bihar,Gaya,"SFTI Kusdihra, Gaya - BSPCB",11-04-2026 09:00:00,24.762518,84.982348,CO,10,36,26
India,Bihar,Hajipur,"Industrial Area, Hajipur - BSPCB",11-04-2026 09:00:00,25.697189,85.245900,PM10,133,192,158
India,Bihar,Hajipur,"Industrial Area, Hajipur - BSPCB",11-04-2026 09:00:00,25.697189,85.245900,SO2,3,5,4
India,Bihar,Katihar,"Mirchaibari, Katihar - BSPCB",11-04-2026 09:00:00,25.560083,87.553265,PM2.5,12,58,33
India,Bihar,Katihar,"Mirchaibari, Katihar - BSPCB",11-04-2026 09:00:00,25.560083,87.553265,PM10,NA,NA,NA
India,Bihar,Katihar,"Mirchaibari, Katihar - BSPCB",11-04-2026 09:00:00,25.560083,87.553265,NH3,1,1,1
India,Bihar,Katihar,"Mirchaibari, Katihar - BSPCB",11-04-2026 09:00:00,25.560083,87.553265,SO2,15,22,19
India,Bihar,Kishanganj,"SDM Office_Khagra, Kishanganj - BSPCB",11-04-2026 09:00:00,26.0881305,87.93840336,PM2.5,25,137,41
India,Bihar,Kishanganj,"SDM Office_Khagra, Kishanganj - BSPCB",11-04-2026 09:00:00,26.0881305,87.93840336,CO,16,20,18
India,Bihar,Manguraha,"Forest Rest House, Manguraha - BSPCB",11-04-2026 09:00:00,27.308328,84.531742,PM10,45,112,75
India,Andhra_Pradesh,Vijayawada,"HB Colony, Vijayawada - APPCB",11-04-2026 09:00:00,16.536107,80.594233,CO,17,42,17
India,Andhra_Pradesh,Vijayawada,"Kanuru, Vijayawada - APPCB",11-04-2026 09:00:00,16.486692,80.699436,PM2.5,NA,NA,NA
India,Andhra_Pradesh,Vijayawada,"Rajiv Gandhi Park, Vijayawada - APPCB",11-04-2026 09:00:00,16.509717,80.612222,PM10,43,94,67
India,Andhra_Pradesh,Vijayawada,"Rajiv Gandhi Park, Vijayawada - APPCB",11-04-2026 09:00:00,16.509717,80.612222,SO2,17,21,18
India,Andhra_Pradesh,Vijayawada,"Rajiv Nagar, Vijayawada - APPCB",11-04-2026 09:00:00,16.554731,80.649110,NO2,20,28,25
India,Andhra_Pradesh,Visakhapatnam,"GVM Corporation, Visakhapatnam - APPCB",11-04-2026 09:00:00,17.72,83.3,PM10,48,120,88
India,Andhra_Pradesh,Visakhapatnam,"GVM Corporation, Visakhapatnam - APPCB",11-04-2026 09:00:00,17.72,83.3,CO,2,51,16
India,Arunachal_Pradesh,Naharlagun,"Naharlagun, Naharlagun - APSPCB",11-04-2026 09:00:00,27.103358,93.679645,PM10,12,71,38
India,Arunachal_Pradesh,Naharlagun,"Naharlagun, Naharlagun - APSPCB",11-04-2026 09:00:00,27.103358,93.679645,NO2,7,7,7
India,Arunachal_Pradesh,Naharlagun,"Naharlagun, Naharlagun - APSPCB",11-04-2026 09:00:00,27.103358,93.679645,CO,8,20,10
India,Bihar,Bhagalpur,"DM Office_Kachari Chowk, Bhagalpur - BSPCB",11-04-2026 09:00:00,25.251013,86.989001,SO2,1,59,31
India,Bihar,Bhagalpur,"DM Office_Kachari Chowk, Bhagalpur - BSPCB",11-04-2026 09:00:00,25.251013,86.989001,OZONE,5,28,16
India,Bihar,Bhagalpur,"Mayaganj, Bhagalpur - BSPCB",11-04-2026 09:00:00,25.265194,87.012947,PM10,62,225,124
India,Bihar,Bhagalpur,"Mayaganj, Bhagalpur - BSPCB",11-04-2026 09:00:00,25.265194,87.012947,NH3,5,8,6
India,Bihar,Bhagalpur,"Mayaganj, Bhagalpur - BSPCB",11-04-2026 09:00:00,25.265194,87.012947,SO2,44,62,52
India,Bihar,Bihar Sharif,"D M Colony, Bihar Sharif - BSPCB",11-04-2026 09:00:00,25.204762,85.514960,SO2,9,10,10
India,Bihar,Bihar Sharif,"D M Colony, Bihar Sharif - BSPCB",11-04-2026 09:00:00,25.204762,85.514960,OZONE,2,2,2
India,Bihar,Chhapra,"Darshan Nagar, Chhapra - BSPCB",11-04-2026 09:00:00,25.7808257,84.7446768,PM2.5,NA,NA,NA
India,Bihar,Chhapra,"Darshan Nagar, Chhapra - BSPCB",11-04-2026 09:00:00,25.7808257,84.7446768,PM10,NA,NA,NA
India,Bihar,Chhapra,"Darshan Nagar, Chhapra - BSPCB",11-04-2026 09:00:00,25.7808257,84.7446768,CO,3,15,10
India,Bihar,Gaya,"Collectorate, Gaya - BSPCB",11-04-2026 09:00:00,24.7955,84.9994,PM2.5,NA,NA,NA
India,Assam,Nagaon,"Christianpatty, Nagaon - PCBA",11-04-2026 09:00:00,26.349082,92.68449,OZONE,2,13,10
India,Assam,Nalbari,"Bata Chowk, Nalbari - PCBA",11-04-2026 09:00:00,26.446912,91.439057,PM2.5,30,48,40
India,Assam,Silchar,"Tarapur, Silchar - PCBA",11-04-2026 09:00:00,24.82827,92.79525,NO2,22,31,26
India,Assam,Silchar,"Tarapur, Silchar - PCBA",11-04-2026 09:00:00,24.82827,92.79525,NH3,1,1,1
India,Assam,Sivasagar,"Girls College, Sivasagar - PCBA",11-04-2026 09:00:00,26.987634,94.636574,CO,12,34,31
India,Andhra_Pradesh,Eluru,"District Court, Eluru - APPCB",11-04-2026 09:00:00,16.711754,81.092095,PM2.5,50,93,62
India,Andhra_Pradesh,Guntur,"Rajendra Nagar North, Guntur - APPCB",11-04-2026 09:00:00,16.316553,80.413302,SO2,10,20,13
India,Andhra_Pradesh,Kadapa,"Yerramukkapalli, Kadapa - APPCB",11-04-2026 09:00:00,14.465052,78.824187,SO2,NA,NA,NA
India,Andhra_Pradesh,Machilipatnam,"Srinivas Nagar Colony, Machilipatnam - APPCB",11-04-2026 09:00:00,16.186555,81.13219,PM2.5,68,77,73
India,Assam,Byrnihat,"Central Academy for SFS, Byrnihat - PCBA",11-04-2026 09:00:00,26.071318,91.87488,SO2,25,32,32
India,Assam,Guwahati,"IITG, Guwahati - PCBA",11-04-2026 09:00:00,26.2028636,91.70046436,SO2,30,33,32
India,Assam,Guwahati,"IITG, Guwahati - PCBA",11-04-2026 09:00:00,26.2028636,91.70046436,OZONE,1,22,11
India,Assam,Guwahati,"Pan Bazaar, Guwahati - PCBA",11-04-2026 09:00:00,26.187500,91.744194,PM10,NA,NA,NA
India,Assam,Guwahati,"Pan Bazaar, Guwahati - PCBA",11-04-2026 09:00:00,26.187500,91.744194,CO,16,34,18
India,Bihar,Begusarai,"Lohiyanagar, Begusarai - BSPCB",11-04-2026 09:00:00,25.42742023,86.13886079,NO2,9,17,13
India,Bihar,Bettiah,"Kamalnath Nagar, Bettiah - BSPCB",11-04-2026 09:00:00,26.80365,84.51954,PM2.5,NA,NA,NA
India,Bihar,Bettiah,"Kamalnath Nagar, Bettiah - BSPCB",11-04-2026 09:00:00,26.80365,84.51954,SO2,NA,NA,NA
India,Bihar,Bettiah,"Kamalnath Nagar, Bettiah - BSPCB",11-04-2026 09:00:00,26.80365,84.51954,CO,NA,NA,NA
India,Andhra_Pradesh,Rajamahendravaram,"Anand Kala Kshetram, Rajamahendravaram - APPCB",11-04-2026 09:00:00,16.9872867,81.7363176,NO2,4,18,10
India,Andhra_Pradesh,Rajamahendravaram,"Anand Kala Kshetram, Rajamahendravaram - APPCB",11-04-2026 09:00:00,16.9872867,81.7363176,OZONE,7,29,9
India,Andhra_Pradesh,Tirumala,"Toll Gate, Tirumala - APPCB",11-04-2026 09:00:00,13.67,79.35,OZONE,18,77,30
India,Bihar,Araria,"Kharahiya Basti, Araria - BSPCB",11-04-2026 09:00:00,26.146529,87.454184,NO2,1,7,2
India,Bihar,Araria,"Kharahiya Basti, Araria - BSPCB",11-04-2026 09:00:00,26.146529,87.454184,CO,62,105,87
India,Bihar,Aurangabad,"Gurdeo Nagar, Aurangabad - BSPCB",11-04-2026 09:00:00,24.75746,84.366208,OZONE,35,82,40
India,Andhra_Pradesh,Anantapur,"Gulzarpet, Anantapur - APPCB",11-04-2026 09:00:00,14.675886,77.593027,OZONE,29,52,43
India,Bihar,Manguraha,"Forest Rest House, Manguraha - BSPCB",11-04-2026 09:00:00,27.308328,84.531742,OZONE,9,11,10
India,Bihar,Motihari,"Gandak Colony, Motihari - BSPCB",11-04-2026 09:00:00,26.63086,84.90051,PM2.5,33,207,88
India,Bihar,Motihari,"Gandak Colony, Motihari - BSPCB",11-04-2026 09:00:00,26.63086,84.90051,NH3,3,3,3
India,Bihar,Motihari,"Gandak Colony, Motihari - BSPCB",11-04-2026 09:00:00,26.63086,84.90051,SO2,2,3,2
India,Bihar,Muzaffarpur,"Buddha Colony, Muzaffarpur - BSPCB",11-04-2026 09:00:00,26.11442,85.39813,PM2.5,59,203,126
India,Bihar,Muzaffarpur,"MIT-Daudpur Kothi, Muzaffarpur - BSPCB",11-04-2026 09:00:00,26.1403345,85.3650192,PM10,54,75,63
India,Chhattisgarh,Bhilai,"Hathkhoj, Bhilai - CECB",11-04-2026 09:00:00,21.224231,81.408350,PM2.5,19,54,37
India,Chhattisgarh,Bhilai,"Hathkhoj, Bhilai - CECB",11-04-2026 09:00:00,21.224231,81.408350,NO2,15,75,40
India,Chhattisgarh,Bhilai,"Hathkhoj, Bhilai - CECB",11-04-2026 09:00:00,21.224231,81.408350,NH3,4,6,5
India,Chhattisgarh,Bhilai,"Hathkhoj, Bhilai - CECB",11-04-2026 09:00:00,21.224231,81.408350,SO2,6,106,34
India,Chhattisgarh,Bilaspur,"Mangala, Bilaspur - NTPC",11-04-2026 09:00:00,22.08815,82.13737,PM2.5,41,84,59
India,Chhattisgarh,Bilaspur,"Mangala, Bilaspur - NTPC",11-04-2026 09:00:00,22.08815,82.13737,NO2,36,85,49
India,Chhattisgarh,Korba,"Rampur, Korba - CECB",11-04-2026 09:00:00,22.368195,82.746431,PM10,47,72,56
India,Bihar,Muzaffarpur,"Muzaffarpur Collectorate, Muzaffarpur - BSPCB",11-04-2026 09:00:00,26.1209,85.3647,OZONE,8,16,8
India,Bihar,Patna,"DRM Office Danapur, Patna - BSPCB",11-04-2026 09:00:00,25.586562,85.043586,PM10,97,258,138
India,Bihar,Patna,"DRM Office Danapur, Patna - BSPCB",11-04-2026 09:00:00,25.586562,85.043586,NO2,32,40,38
India,Bihar,Patna,"Govt. High School Shikarpur, Patna - BSPCB",11-04-2026 09:00:00,25.592539,85.227158,PM2.5,68,83,77
India,Bihar,Patna,"Govt. High School Shikarpur, Patna - BSPCB",11-04-2026 09:00:00,25.592539,85.227158,NO2,8,22,14
India,Bihar,Saharsa,"Police Line, Saharsa - BSPCB",11-04-2026 09:00:00,25.892357,86.590325,OZONE,2,48,17
India,Bihar,Samastipur,"DM Office_Kasipur, Samastipur - BSPCB",11-04-2026 09:00:00,25.859655,85.77944,NO2,NA,NA,NA
India,Bihar,Samastipur,"DM Office_Kasipur, Samastipur - BSPCB",11-04-2026 09:00:00,25.859655,85.77944,OZONE,6,9,8
India,Bihar,Sasaram,"Dada Peer, Sasaram - BSPCB",11-04-2026 09:00:00,24.952822,84.002396,PM10,NA,NA,NA
India,Bihar,Sasaram,"Dada Peer, Sasaram - BSPCB",11-04-2026 09:00:00,24.952822,84.002396,SO2,2,6,4
India,Bihar,Patna,"Rajbansi Nagar, Patna - BSPCB",11-04-2026 09:00:00,25.599486,85.113666,NO2,26,33,31
India,Bihar,Patna,"Rajbansi Nagar, Patna - BSPCB",11-04-2026 09:00:00,25.599486,85.113666,NH3,2,3,3
India,Bihar,Patna,"Rajbansi Nagar, Patna - BSPCB",11-04-2026 09:00:00,25.599486,85.113666,SO2,10,19,13
India,Bihar,Patna,"Samanpura, Patna - BSPCB",11-04-2026 09:00:00,25.596727,85.085624,OZONE,26,306,306
India,Bihar,Purnia,"Mariam Nagar, Purnia - BSPCB",11-04-2026 09:00:00,25.366336,87.117468,NH3,2,2,2
India,Chhattisgarh,Bhilai,"32Bungalows, Bhilai - CECB",11-04-2026 09:00:00,21.194815,81.314770,PM2.5,27,46,33
India,Chhattisgarh,Bhilai,"Civic Center, Bhilai - Bhilai Steel Plant",11-04-2026 09:00:00,21.185571,81.343175,PM2.5,15,88,41
India,Chhattisgarh,Bhilai,"Civic Center, Bhilai - Bhilai Steel Plant",11-04-2026 09:00:00,21.185571,81.343175,PM10,38,150,66
India,Chhattisgarh,Bhilai,"Civic Center, Bhilai - Bhilai Steel Plant",11-04-2026 09:00:00,21.185571,81.343175,NO2,13,14,13
India,Chhattisgarh,Bhilai,"Civic Center, Bhilai - Bhilai Steel Plant",11-04-2026 09:00:00,21.185571,81.343175,SO2,5,10,9
India,Bihar,Siwan,"Chitragupta Nagar, Siwan - BSPCB",11-04-2026 09:00:00,26.2271665,84.3570427,SO2,8,9,8
India,Bihar,Siwan,"Chitragupta Nagar, Siwan - BSPCB",11-04-2026 09:00:00,26.2271665,84.3570427,OZONE,14,15,14
India,Chandigarh,Chandigarh,"Sector-25, Chandigarh - CPCC",11-04-2026 09:00:00,30.751462,76.762879,OZONE,25,62,31
India,Bihar,Patna,"Govt. High School Shikarpur, Patna - BSPCB",11-04-2026 09:00:00,25.592539,85.227158,OZONE,20,88,29
India,Bihar,Patna,"IGSC Planetarium Complex, Patna - BSPCB",11-04-2026 09:00:00,25.610369,85.132568,PM2.5,22,79,49
India,Bihar,Patna,"Muradpur, Patna - BSPCB",11-04-2026 09:00:00,25.619651,85.147382,SO2,9,11,10
India,Bihar,Saharsa,"Police Line, Saharsa - BSPCB",11-04-2026 09:00:00,25.892357,86.590325,PM2.5,3,327,155
India,Delhi,Delhi,"ITO, Delhi - CPCB",11-04-2026 09:00:00,28.628624,77.241060,OZONE,32,62,40
India,Delhi,Delhi,"JNU, Delhi - DPCC",11-04-2026 09:00:00,28.540721 ,77.168544 ,PM2.5,5,302,69
India,Delhi,Delhi,"JNU, Delhi - DPCC",11-04-2026 09:00:00,28.540721 ,77.168544 ,SO2,17,22,19
India,Delhi,Delhi,"Jahangirpuri, Delhi - DPCC",11-04-2026 09:00:00,28.732820,77.170633,PM10,127,226,164
India,Delhi,Delhi,"Jawaharlal Nehru Stadium, Delhi - DPCC",11-04-2026 09:00:00,28.580280,77.233829,NO2,NA,NA,NA
India,Delhi,Delhi,"Lodhi Road, Delhi - IMD",11-04-2026 09:00:00,28.5918245,77.2273074,CO,15,28,24
India,Delhi,Delhi,"Major Dhyan Chand National Stadium, Delhi - DPCC",11-04-2026 09:00:00,28.611281,77.237738,PM2.5,3,75,34
India,Delhi,Delhi,"Major Dhyan Chand National Stadium, Delhi - DPCC",11-04-2026 09:00:00,28.611281,77.237738,NH3,12,14,13
India,Delhi,Delhi,"Major Dhyan Chand National Stadium, Delhi - DPCC",11-04-2026 09:00:00,28.611281,77.237738,SO2,10,24,17
India,Delhi,Delhi,"Major Dhyan Chand National Stadium, Delhi - DPCC",11-04-2026 09:00:00,28.611281,77.237738,CO,6,72,58
India,Chhattisgarh,Kunjemura,"OP Jindal School, Kunjemura - CECB",11-04-2026 09:00:00,22.126650,83.483212,SO2,7,24,14
India,Chhattisgarh,Kunjemura,"OP Jindal School, Kunjemura - CECB",11-04-2026 09:00:00,22.126650,83.483212,OZONE,1,46,5
India,Chhattisgarh,Milupara,"Govt. Higher Secondary School, Milupara - CECB",11-04-2026 09:00:00,22.1910172,83.5197009,PM10,NA,NA,NA
India,Chhattisgarh,Raipur,"AIIMS, Raipur - CECB",11-04-2026 09:00:00,21.258815,81.578979,NH3,3,4,4
India,Chhattisgarh,Raipur,"Bhatagaon New ISBT, Raipur - CECB",11-04-2026 09:00:00,21.219665,81.630094,NO2,19,49,30
India,Chhattisgarh,Raipur,"Bhatagaon New ISBT, Raipur - CECB",11-04-2026 09:00:00,21.219665,81.630094,SO2,4,79,22
India,Chhattisgarh,Raipur,"Siltara Phase-II, Raipur - CECB",11-04-2026 09:00:00,21.371751,81.664929,NH3,3,3,3
India,Chhattisgarh,Raipur,"Siltara Phase-II, Raipur - CECB",11-04-2026 09:00:00,21.371751,81.664929,CO,17,18,18
India,Delhi,Delhi,"Mandir Marg, Delhi - DPCC",11-04-2026 09:00:00,28.636429,77.201067,NO2,35,75,52
India,Delhi,Delhi,"Mundka, Delhi - DPCC",11-04-2026 09:00:00,28.684678,77.076574,SO2,18,100,31
India,Delhi,Delhi,"Mundka, Delhi - DPCC",11-04-2026 09:00:00,28.684678,77.076574,CO,36,54,44
India,Delhi,Delhi,"NSIT Dwarka, Delhi - CPCB",11-04-2026 09:00:00,28.60909,77.0325413,PM2.5,46,114,71
India,Delhi,Delhi,"NSIT Dwarka, Delhi - CPCB",11-04-2026 09:00:00,28.60909,77.0325413,PM10,115,150,130
India,Delhi,Delhi,"NSIT Dwarka, Delhi - CPCB",11-04-2026 09:00:00,28.60909,77.0325413,SO2,7,11,9
India,Delhi,Delhi,"NSUT Jaffarpur, Delhi - DPCC",11-04-2026 09:00:00,28.594004 ,76.909423 ,NH3,1,3,2
India,Delhi,Delhi,"Narela, Delhi - DPCC",11-04-2026 09:00:00,28.822836,77.101981,NH3,5,6,6
India,Delhi,Delhi,"IGI Airport (T3), Delhi - IMD",11-04-2026 09:00:00,28.5627763,77.1180053,NO2,15,35,22
India,Delhi,Delhi,"IGNOU_Maidan Garhi, Delhi - DPCC",11-04-2026 09:00:00,28.493624 ,77.201159 ,PM2.5,11,253,72
India,Delhi,Delhi,"IHBAS, Dilshad Garden, Delhi - CPCB",11-04-2026 09:00:00,28.6811736,77.3025234,SO2,11,41,22
India,Delhi,Delhi,"IHBAS, Dilshad Garden, Delhi - CPCB",11-04-2026 09:00:00,28.6811736,77.3025234,CO,28,117,61
India,Delhi,Delhi,"IHBAS, Dilshad Garden, Delhi - CPCB",11-04-2026 09:00:00,28.6811736,77.3025234,OZONE,15,82,32
India,Delhi,Delhi,"ITO, Delhi - CPCB",11-04-2026 09:00:00,28.628624,77.241060,PM2.5,28,119,56
India,Delhi,Delhi,"ITO, Delhi - CPCB",11-04-2026 09:00:00,28.628624,77.241060,NH3,2,7,5
India,Chhattisgarh,Tumidih,"OP Jindal Industrial Park, Tumidih - CECB",11-04-2026 09:00:00,22.06631475,83.33820077,NO2,28,100,64
India,Chhattisgarh,Tumidih,"OP Jindal Industrial Park, Tumidih - CECB",11-04-2026 09:00:00,22.06631475,83.33820077,CO,14,42,26
India,Delhi,Delhi,"Ashok Vihar, Delhi - DPCC",11-04-2026 09:00:00,28.695381,77.181665,PM2.5,30,217,72
India,Delhi,Delhi,"Aya Nagar, Delhi - IMD",11-04-2026 09:00:00,28.4706914,77.1099364,PM2.5,6,80,47
India,Delhi,Delhi,"Bawana, Delhi - DPCC",11-04-2026 09:00:00,28.776200,77.051074,NO2,7,28,16
India,Delhi,Delhi,"Bawana, Delhi - DPCC",11-04-2026 09:00:00,28.776200,77.051074,SO2,8,35,17
India,Delhi,Delhi,"Bawana, Delhi - DPCC",11-04-2026 09:00:00,28.776200,77.051074,CO,14,53,43
India,Delhi,Delhi,"Burari Crossing, Delhi - IMD",11-04-2026 09:00:00,28.7256504,77.2011573,PM2.5,4,111,60
India,Delhi,Delhi,"Cantonment Area, Delhi - DPCC ",11-04-2026 09:00:00,28.594169 ,77.125100 ,PM2.5,13,41,26
India,Delhi,Delhi,"Cantonment Area, Delhi - DPCC ",11-04-2026 09:00:00,28.594169 ,77.125100 ,PM10,90,142,112
India,Delhi,Delhi,"Dr. Karni Singh Shooting Range, Delhi - DPCC",11-04-2026 09:00:00,28.498571,77.264840,PM10,85,172,130
India,Delhi,Delhi,"Dr. Karni Singh Shooting Range, Delhi - DPCC",11-04-2026 09:00:00,28.498571,77.264840,NH3,3,4,3
India,Delhi,Delhi,"Dwarka-Sector 8, Delhi - DPCC ",11-04-2026 09:00:00,28.5710274,77.0719006,NH3,9,44,17
India,Delhi,Delhi,"Dwarka-Sector 8, Delhi - DPCC ",11-04-2026 09:00:00,28.5710274,77.0719006,SO2,13,49,24
India,Delhi,Delhi,"Commonwealth Sports Complex, Delhi - DPCC",11-04-2026 09:00:00,28.615828 ,77.271992 ,NH3,2,5,3
India,Delhi,Delhi,"DTU, Delhi - CPCB",11-04-2026 09:00:00,28.7500499,77.1112615,PM10,63,131,96
India,Delhi,Delhi,"DTU, Delhi - CPCB",11-04-2026 09:00:00,28.7500499,77.1112615,NH3,6,17,13
India,Delhi,Delhi,"Nehru Nagar, Delhi - DPCC",11-04-2026 09:00:00,28.567890,77.250515,NH3,4,10,7
India,Delhi,Delhi,"Okhla Phase-2, Delhi - DPCC",11-04-2026 09:00:00,28.530785,77.271255,NH3,7,13,10
India,Gujarat,Mehsana,"Sadanand Nagar, Mehsana - Nexteng Enviro",11-04-2026 09:00:00,23.593150,72.372792,NO2,38,52,44
India,Gujarat,Rajkot,"Mavdi, Rajkot - Nexteng Enviro ",11-04-2026 09:00:00,22.248853,70.776774,OZONE,6,19,8
India,Gujarat,Surat,"Katargam, Surat - Nexteng Enviro",11-04-2026 09:00:00,21.217779 ,72.834787 ,OZONE,11,12,11
India,Gujarat,Surat,"Science Center, Surat - SMC",11-04-2026 09:00:00,21.170046,72.795405,PM2.5,59,127,76
India,Gujarat,Vadodara,"Bapunagar, Vadodara - Nexteng Enviro",11-04-2026 09:00:00,22.320153,73.216285,NO2,9,18,14
India,Gujarat,Vadodara,"Bapunagar, Vadodara - Nexteng Enviro",11-04-2026 09:00:00,22.320153,73.216285,CO,68,90,82
India,Gujarat,Vatva,"Phase-4 GIDC, Vatva - GPCB",11-04-2026 09:00:00,22.969611,72.643500,PM10,77,438,174
India,Gujarat,Vatva,"Phase-4 GIDC, Vatva - GPCB",11-04-2026 09:00:00,22.969611,72.643500,NO2,55,84,67
India,Gujarat,Vatva,"Phase-4 GIDC, Vatva - GPCB",11-04-2026 09:00:00,22.969611,72.643500,NH3,14,69,34
India,Haryana,Ambala,"Patti Mehar, Ambala - HSPCB",11-04-2026 09:00:00,30.379589,76.778328,PM2.5,35,67,48
India,Haryana,Ambala,"Patti Mehar, Ambala - HSPCB",11-04-2026 09:00:00,30.379589,76.778328,NO2,9,12,10
India,Haryana,Bahadurgarh,"Arya Nagar, Bahadurgarh - HSPCB",11-04-2026 09:00:00,28.6701,76.9254,PM2.5,43,91,74
India,Haryana,Bahadurgarh,"Arya Nagar, Bahadurgarh - HSPCB",11-04-2026 09:00:00,28.6701,76.9254,PM10,59,92,79
India,Gujarat,Ahmedabad,"SVPI Airport Hansol, Ahmedabad - IITM",11-04-2026 09:00:00,23.076793,72.627874,OZONE,2,104,9
India,Gujarat,Gandhinagar,"GIFT City, Gandhinagar - IITM",11-04-2026 09:00:00,23.163798,72.677768,CO,48,104,85
India,Gujarat,Gandhinagar,"IIPHG Lekawada, Gandhinagar - IITM",11-04-2026 09:00:00,23.243639,72.68994,PM2.5,17,209,85
India,Gujarat,Gandhinagar,"IIPHG Lekawada, Gandhinagar - IITM",11-04-2026 09:00:00,23.243639,72.68994,PM10,68,410,134
India,Gujarat,Gandhinagar,"IIPHG Lekawada, Gandhinagar - IITM",11-04-2026 09:00:00,23.243639,72.68994,NO2,6,37,16
India,Gujarat,Gandhinagar,"IIPHG Lekawada, Gandhinagar - IITM",11-04-2026 09:00:00,23.243639,72.68994,SO2,2,6,3
India,Gujarat,Gandhinagar,"IIPHG Lekawada, Gandhinagar - IITM",11-04-2026 09:00:00,23.243639,72.68994,CO,14,107,62
India,Delhi,Delhi,"R K Puram, Delhi - DPCC",11-04-2026 09:00:00,28.563262,77.186937,NH3,4,6,4
India,Delhi,Delhi,"R K Puram, Delhi - DPCC",11-04-2026 09:00:00,28.563262,77.186937,OZONE,12,74,36
India,Delhi,Delhi,"Rohini, Delhi - DPCC",11-04-2026 09:00:00,28.732528,77.119920,PM10,101,175,138
India,Delhi,Delhi,"Rohini, Delhi - DPCC",11-04-2026 09:00:00,28.732528,77.119920,CO,14,42,20
India,Delhi,Delhi,"Shadipur, Delhi - CPCB",11-04-2026 09:00:00,28.6514781,77.1473105,NH3,5,8,6
India,Delhi,Delhi,"Shadipur, Delhi - CPCB",11-04-2026 09:00:00,28.6514781,77.1473105,CO,1,72,37
India,Delhi,Delhi,"Sirifort, Delhi - CPCB",11-04-2026 09:00:00,28.5504249,77.2159377,NO2,19,35,28
India,Delhi,Delhi,"Sonia Vihar, Delhi - DPCC",11-04-2026 09:00:00,28.710508,77.249485,NH3,6,7,6
India,Delhi,Delhi,"Talkatora Garden, Delhi - DPCC",11-04-2026 09:00:00,28.621810,77.1944633,PM2.5,23,128,62
India,Delhi,Delhi,"Talkatora Garden, Delhi - DPCC",11-04-2026 09:00:00,28.621810,77.1944633,SO2,17,28,23
India,Delhi,Delhi,"Wazirpur, Delhi - DPCC",11-04-2026 09:00:00,28.699793,77.165453,NO2,48,90,69
India,Gujarat,Ahmedabad,"Chandkheda, Ahmedabad - IITM",11-04-2026 09:00:00,23.107969,72.574648,SO2,4,40,10
India,Gujarat,Ahmedabad,"Gyaspur, Ahmedabad - IITM",11-04-2026 09:00:00,22.977134,72.553024,PM10,103,444,246
India,Gujarat,Ahmedabad,"Gyaspur, Ahmedabad - IITM",11-04-2026 09:00:00,22.977134,72.553024,SO2,NA,NA,NA
India,Gujarat,Ahmedabad,"SAC ISRO Bopal, Ahmedabad - IITM",11-04-2026 09:00:00,23.041137,72.456691,PM2.5,68,297,148
India,Gujarat,Ahmedabad,"SAC ISRO Bopal, Ahmedabad - IITM",11-04-2026 09:00:00,23.041137,72.456691,NO2,11,89,46
India,Delhi,Delhi,"Punjabi Bagh, Delhi - DPCC",11-04-2026 09:00:00,28.674045,77.131023,OZONE,17,51,27
India,Delhi,Delhi,"Okhla Phase-2, Delhi - DPCC",11-04-2026 09:00:00,28.530785,77.271255,CO,3,70,32
India,Haryana,Yamuna Nagar,"Gobind Pura, Yamuna Nagar - HSPCB",11-04-2026 09:00:00,30.1480566,77.2893471,NH3,1,6,3
India,Himachal Pradesh,Baddi,"HIMUDA Complex Phase-1, Baddi - HPPCB",11-04-2026 09:00:00,30.943887,76.801991,SO2,26,60,33
India,Jammu_and_Kashmir,Srinagar,"Khunmoh, Srinagar - JKPCC",11-04-2026 09:00:00,34.06313,74.96017,PM10,37,81,60
India,Jammu_and_Kashmir,Srinagar,"Khunmoh, Srinagar - JKPCC",11-04-2026 09:00:00,34.06313,74.96017,SO2,3,4,4
India,Jammu_and_Kashmir,Srinagar,"Rajbagh, Srinagar - JKPCC",11-04-2026 09:00:00,34.066206,74.819820,SO2,3,4,3
India,Jammu_and_Kashmir,Srinagar,"Rajbagh, Srinagar - JKPCC",11-04-2026 09:00:00,34.066206,74.819820,CO,10,20,12
India,Jharkhand,Dhanbad,"Sardar Patel Nagar, Dhanbad - JSPCB",11-04-2026 09:00:00,23.80569,86.44268,PM2.5,NA,NA,NA
India,Jharkhand,Dhanbad,"Sardar Patel Nagar, Dhanbad - JSPCB",11-04-2026 09:00:00,23.80569,86.44268,CO,2,28,11
India,Haryana,Ballabgarh,"Nathu Colony, Ballabgarh - HSPCB",11-04-2026 09:00:00,28.3419248,77.319699,PM2.5,46,107,77
India,Haryana,Ballabgarh,"Nathu Colony, Ballabgarh - HSPCB",11-04-2026 09:00:00,28.3419248,77.319699,NO2,19,21,20
India,Haryana,Ballabgarh,"Nathu Colony, Ballabgarh - HSPCB",11-04-2026 09:00:00,28.3419248,77.319699,SO2,3,7,5
India,Haryana,Bhiwani,"H.B. Colony, Bhiwani - HSPCB",11-04-2026 09:00:00,28.806223,76.141105,NO2,3,22,10
India,Haryana,Charkhi Dadri,"Mini Secretariat, Charkhi Dadri - HSPCB",11-04-2026 09:00:00,28.593883,76.270653,NH3,5,8,6
India,Haryana,Dharuhera,"Municipal Corporation Office, Dharuhera -  HSPCB",11-04-2026 09:00:00,28.206800,76.799700,PM10,55,102,77
India,Haryana,Dharuhera,"Municipal Corporation Office, Dharuhera -  HSPCB",11-04-2026 09:00:00,28.206800,76.799700,NO2,15,51,38
India,Haryana,Faridabad,"New Industrial Town, Faridabad - HSPCB",11-04-2026 09:00:00,28.39072,77.30059,CO,10,88,87
India,Haryana,Palwal,"Shyam Nagar, Palwal - HSPCB",11-04-2026 09:00:00,28.1485564,77.3320667,CO,28,29,28
India,Haryana,Palwal,"Shyam Nagar, Palwal - HSPCB",11-04-2026 09:00:00,28.1485564,77.3320667,OZONE,23,25,24
India,Haryana,Panchgaon,"Amity University, Panchgaon - IITM",11-04-2026 09:00:00,28.3153,76.9143,NH3,2,4,3
India,Haryana,Rohtak,"MD University, Rohtak - HSPCB",11-04-2026 09:00:00,28.52123,76.37138,PM2.5,71,125,86
India,Haryana,Rohtak,"MD University, Rohtak - HSPCB",11-04-2026 09:00:00,28.52123,76.37138,PM10,53,85,64
India,Haryana,Rohtak,"MD University, Rohtak - HSPCB",11-04-2026 09:00:00,28.52123,76.37138,CO,32,38,35
India,Haryana,Sonipat,"Murthal, Sonipat - HSPCB",11-04-2026 09:00:00,29.027200,77.062100,PM2.5,61,301,157
India,Karnataka,Bagalkot,"Vidayagiri, Bagalkot - KSPCB",11-04-2026 09:00:00,16.172806,75.659694,PM10,53,55,53
India,Karnataka,Bagalkot,"Vidayagiri, Bagalkot - KSPCB",11-04-2026 09:00:00,16.172806,75.659694,NH3,1,1,1
India,Karnataka,Bagalkot,"Vidayagiri, Bagalkot - KSPCB",11-04-2026 09:00:00,16.172806,75.659694,CO,4,62,27
India,Karnataka,Bengaluru,"BTM Layout, Bengaluru - CPCB",11-04-2026 09:00:00,12.9135218,77.5950804,PM2.5,NA,NA,NA
India,Karnataka,Bengaluru,"BTM Layout, Bengaluru - CPCB",11-04-2026 09:00:00,12.9135218,77.5950804,OZONE,NA,NA,NA
India,Karnataka,Bengaluru,"BWSSB Kadabesanahalli, Bengaluru - CPCB",11-04-2026 09:00:00,12.9352049,77.6814488,OZONE,11,34,13
India,Karnataka,Bengaluru,"Bapuji Nagar, Bengaluru - KSPCB",11-04-2026 09:00:00,12.951913,77.539784,NH3,1,3,2
India,Haryana,Faridabad,"Sector 11, Faridabad - HSPCB",11-04-2026 09:00:00,28.376058,77.315741,CO,26,40,40
India,Haryana,Faridabad,"Sector 30, Faridabad - HSPCB",11-04-2026 09:00:00,28.4417,77.3217,PM10,61,101,71
India,Haryana,Faridabad,"Sector 30, Faridabad - HSPCB",11-04-2026 09:00:00,28.4417,77.3217,OZONE,10,10,10
India,Haryana,Fatehabad,"Huda Sector, Fatehabad - HSPCB",11-04-2026 09:00:00,29.503664,75.467934,PM2.5,23,86,57
India,Haryana,Karnal,"Sector-12, Karnal - HSPCB",11-04-2026 09:00:00,29.695300,77.002700,NH3,6,6,6
India,Haryana,Mandikhera,"General Hospital, Mandikhera(Nuh) - HSPCB",11-04-2026 09:00:00,27.9002,76.9938,PM10,27,44,38
India,Haryana,Mandikhera,"General Hospital, Mandikhera(Nuh) - HSPCB",11-04-2026 09:00:00,27.9002,76.9938,SO2,32,36,34
India,Haryana,Gurugram,"Sector-51, Gurugram - HSPCB",11-04-2026 09:00:00,28.4227,77.0667,CO,11,33,22
India,Haryana,Gurugram,"Teri Gram, Gurugram - HSPCB",11-04-2026 09:00:00,28.4275,77.1465,SO2,4,11,8
India,Haryana,Gurugram,"Vikas Sadan, Gurugram - HSPCB",11-04-2026 09:00:00,28.4501238,77.0263051,CO,64,115,97
India,Haryana,Narnaul,"Shastri Nagar, Narnaul - HSPCB",11-04-2026 09:00:00,28.060249,76.113115,NH3,4,6,5
India,Haryana,Palwal,"Shyam Nagar, Palwal - HSPCB",11-04-2026 09:00:00,28.1485564,77.3320667,NH3,8,9,9
India,Haryana,Hisar,"Urban Estate-II, Hisar - HSPCB",11-04-2026 09:00:00,29.140560,75.744941,PM2.5,22,55,36
India,Karnataka,Bidar,"Naubad, Bidar - KSPCB",11-04-2026 09:00:00,17.930306,77.482194,NO2,NA,NA,NA
India,Karnataka,Bidar,"Naubad, Bidar - KSPCB",11-04-2026 09:00:00,17.930306,77.482194,SO2,NA,NA,NA
India,Karnataka,Chamarajanagar,"Urban, Chamarajanagar - KSPCB",11-04-2026 09:00:00,11.55358,76.55521,NO2,14,35,22
India,Karnataka,Chikkaballapur,"Chikkaballapur Rural, Chikkaballapur - KSPCB",11-04-2026 09:00:00,13.428828,77.731418,PM2.5,58,90,68
India,Karnataka,Chikkaballapur,"Chikkaballapur Rural, Chikkaballapur - KSPCB",11-04-2026 09:00:00,13.428828,77.731418,NO2,1,3,2
India,Karnataka,Chikkamagaluru,"Kalyana Nagara, Chikkamagaluru - KSPCB",11-04-2026 09:00:00,13.328028,75.797056,PM10,30,41,37
India,Karnataka,Chikkamagaluru,"Kalyana Nagara, Chikkamagaluru - KSPCB",11-04-2026 09:00:00,13.328028,75.797056,CO,6,44,15
India,Karnataka,Dharwad,"Kalabhavan, Dharwad - KSPCB",11-04-2026 09:00:00,15.459706,75.008381,NO2,27,31,30
India,Karnataka,Hubballi,"Lingaraj Nagar, Hubballi - KSPCB",11-04-2026 09:00:00,15.3714823,75.1160168,PM2.5,37,42,41
India,Karnataka,Udupi,"Brahmagiri, Udupi - KSPCB",11-04-2026 09:00:00,13.34194444,74.74694444,PM10,NA,NA,NA
India,Karnataka,Udupi,"Brahmagiri, Udupi - KSPCB",11-04-2026 09:00:00,13.34194444,74.74694444,NO2,4,12,10
India,Karnataka,Udupi,"Brahmagiri, Udupi - KSPCB",11-04-2026 09:00:00,13.34194444,74.74694444,SO2,20,21,20
India,Karnataka,Vijayapura,"Ibrahimpur, Vijayapura - KSPCB",11-04-2026 09:00:00,16.802639,75.722694,CO,8,46,19
India,Karnataka,Yadgir,"Collector Office, Yadgir - KSPCB",11-04-2026 09:00:00,16.7602,77.1428,PM10,108,168,136
India,Karnataka,Yadgir,"Collector Office, Yadgir - KSPCB",11-04-2026 09:00:00,16.7602,77.1428,NO2,10,43,17
India,Karnataka,Yadgir,"Collector Office, Yadgir - KSPCB",11-04-2026 09:00:00,16.7602,77.1428,SO2,6,16,12
India,Kerala,Kannur,"Thavakkara, Kannur - Kerala PCB",11-04-2026 09:00:00,11.875000,75.373200,NH3,2,2,2
India,Karnataka,Bengaluru,"Bapuji Nagar, Bengaluru - KSPCB",11-04-2026 09:00:00,12.951913,77.539784,OZONE,24,83,38
India,Karnataka,Bengaluru,"Hebbal, Bengaluru - KSPCB",11-04-2026 09:00:00,13.029152,77.585901,PM2.5,41,136,68
India,Karnataka,Bengaluru,"Hebbal, Bengaluru - KSPCB",11-04-2026 09:00:00,13.029152,77.585901,PM10,78,132,106
India,Karnataka,Bengaluru,"Hebbal, Bengaluru - KSPCB",11-04-2026 09:00:00,13.029152,77.585901,CO,6,104,20
India,Karnataka,Bengaluru,"Hombegowda Nagar, Bengaluru - KSPCB",11-04-2026 09:00:00,12.938539,77.590100,PM2.5,NA,NA,NA
India,Karnataka,Bengaluru,"Hombegowda Nagar, Bengaluru - KSPCB",11-04-2026 09:00:00,12.938539,77.590100,NH3,NA,NA,NA
India,Karnataka,Bengaluru,"Jayanagar 5th Block, Bengaluru - KSPCB",11-04-2026 09:00:00,12.920984,77.584908,CO,6,72,11
India,Karnataka,Bengaluru,"Jayanagar 5th Block, Bengaluru - KSPCB",11-04-2026 09:00:00,12.920984,77.584908,OZONE,16,73,35
India,Karnataka,Madikeri,"Stuart Hill, Madikeri - KSPCB",11-04-2026 09:00:00,12.415911,75.735050,PM2.5,7,489,74
India,Karnataka,Madikeri,"Stuart Hill, Madikeri - KSPCB",11-04-2026 09:00:00,12.415911,75.735050,OZONE,2,7,4
India,Karnataka,Mangalore,"Kadri, Mangalore - KSPCB",11-04-2026 09:00:00,12.889250,74.853000,PM10,88,135,117
India,Karnataka,Mangalore,"Kadri, Mangalore - KSPCB",11-04-2026 09:00:00,12.889250,74.853000,NH3,2,14,3
India,Karnataka,Mysuru,"Hebbal 1st Stage, Mysuru - KSPCB",11-04-2026 09:00:00,12.21041,76.37376,PM10,44,109,82
India,Karnataka,Mysuru,"Hebbal 1st Stage, Mysuru - KSPCB",11-04-2026 09:00:00,12.21041,76.37376,NH3,2,6,4
India,Karnataka,Ramanagara,"Vijay Nagar, Ramanagara - KSPCB",11-04-2026 09:00:00,12.733409,77.298051,PM2.5,40,78,61
India,Karnataka,Ramanagara,"Vijay Nagar, Ramanagara - KSPCB",11-04-2026 09:00:00,12.733409,77.298051,SO2,19,26,22
India,Karnataka,Shivamogga,"Vinoba Nagara, Shivamogga - KSPCB",11-04-2026 09:00:00,13.940000,75.555917,NH3,2,3,2
India,Karnataka,Tumakuru,"Thimmalapura, Tumakuru - KSPCB",11-04-2026 09:00:00,13.377516,77.099072,PM10,58,74,64
India,Kerala,Kollam,"Polayathode, Kollam - Kerala PCB",11-04-2026 09:00:00,8.8787,76.6073,NO2,8,10,9
India,Kerala,Thiruvananthapuram,"Kariavattom, Thiruvananthapuram - Kerala PCB",11-04-2026 09:00:00,8.563700,76.886500,PM10,30,92,62
India,Kerala,Thiruvananthapuram,"Kariavattom, Thiruvananthapuram - Kerala PCB",11-04-2026 09:00:00,8.563700,76.886500,NO2,6,7,6
India,Kerala,Thiruvananthapuram,"Kariavattom, Thiruvananthapuram - Kerala PCB",11-04-2026 09:00:00,8.563700,76.886500,CO,46,86,60
India,Karnataka,Bengaluru,"Jigani, Bengaluru - KSPCB",11-04-2026 09:00:00,12.7816279,77.6299145,OZONE,24,26,25
India,Karnataka,Bengaluru,"Peenya, Bengaluru - CPCB",11-04-2026 09:00:00,13.0270199,77.494094,NO2,17,31,24
India,Karnataka,Bengaluru,"Shivapura_Peenya, Bengaluru - KSPCB",11-04-2026 09:00:00,13.0246342,77.5080115,SO2,3,5,4
India,Madhya Pradesh,Bhopal,"T T Nagar, Bhopal - MPPCB",11-04-2026 09:00:00,23.233584,77.400574,NH3,5,6,5
India,Madhya Pradesh,Bhopal,"T T Nagar, Bhopal - MPPCB",11-04-2026 09:00:00,23.233584,77.400574,CO,30,87,40
India,Kerala,Thrissur,"Corporation Ground, Thrissur - Kerala PCB",11-04-2026 09:00:00,10.532400,76.215900,CO,NA,NA,NA
India,Madhya Pradesh,Jabalpur,"Gupteshwar, Jabalpur - JMC",11-04-2026 09:00:00,23.142888,79.916147,CO,28,91,53
India,Madhya Pradesh,Jabalpur,"Marhatal, Jabalpur - MPPCB",11-04-2026 09:00:00,23.168606,79.932247,PM2.5,12,309,142
India,Madhya Pradesh,Jabalpur,"Marhatal, Jabalpur - MPPCB",11-04-2026 09:00:00,23.168606,79.932247,NH3,2,8,6
India,Madhya Pradesh,Jabalpur,"Suhagi, Jabalpur - JMC",11-04-2026 09:00:00,23.218135,79.957770,PM10,22,149,76
India,Madhya Pradesh,Jabalpur,"Suhagi, Jabalpur - JMC",11-04-2026 09:00:00,23.218135,79.957770,NH3,5,6,5
India,Madhya Pradesh,Jabalpur,"Suhagi, Jabalpur - JMC",11-04-2026 09:00:00,23.218135,79.957770,SO2,8,24,12
India,Madhya Pradesh,Jabalpur,"Suhagi, Jabalpur - JMC",11-04-2026 09:00:00,23.218135,79.957770,CO,28,138,51
India,Madhya Pradesh,Katni,"Gole Bazar, Katni - MPPCB",11-04-2026 09:00:00,23.50016,80.23284,NO2,20,39,30
India,Madhya Pradesh,Mandideep,"Sector-D Industrial Area, Mandideep - MPPCB",11-04-2026 09:00:00,23.108440,77.511428,PM2.5,73,400,209
India,Madhya Pradesh,Mandideep,"Sector-D Industrial Area, Mandideep - MPPCB",11-04-2026 09:00:00,23.108440,77.511428,SO2,24,134,79
India,Madhya Pradesh,Pithampur,"Sector-2 Industrial Area, Pithampur - MPPCB",11-04-2026 09:00:00,22.624758,75.675238,CO,4,59,18
India,Madhya Pradesh,Sagar,"Civil Lines, Sagar - MPPCB",11-04-2026 09:00:00,23.838586,78.759431,PM2.5,7,39,19
India,Madhya Pradesh,Sagar,"Civil Lines, Sagar - MPPCB",11-04-2026 09:00:00,23.838586,78.759431,NO2,3,19,8
India,Madhya Pradesh,Sagar,"Civil Lines, Sagar - MPPCB",11-04-2026 09:00:00,23.838586,78.759431,NH3,1,2,1
India,Madhya Pradesh,Sagar,"Civil Lines, Sagar - MPPCB",11-04-2026 09:00:00,23.838586,78.759431,SO2,6,12,8
India,Madhya Pradesh,Sagar,"Deen Dayal Nagar, Sagar - MPPCB",11-04-2026 09:00:00,23.8640158,78.80289321,CO,70,90,84
India,Madhya Pradesh,Singrauli,"Suryakiran Bhawan NCL, Singrauli - MPPCB",11-04-2026 09:00:00,24.108970,82.645580,PM10,78,246,141
India,Madhya Pradesh,Singrauli,"Suryakiran Bhawan NCL, Singrauli - MPPCB",11-04-2026 09:00:00,24.108970,82.645580,SO2,23,63,40
India,Madhya Pradesh,Singrauli,"Suryakiran Bhawan NCL, Singrauli - MPPCB",11-04-2026 09:00:00,24.108970,82.645580,OZONE,3,5,3
India,Madhya Pradesh,Ujjain,"Mahashweta Nagar, Ujjain - MPPCB",11-04-2026 09:00:00,23.1633321,75.800225,OZONE,NA,NA,NA
India,Maharashtra,Ahmednagar,"Tarakpur, Ahmednagar - MPCB",11-04-2026 09:00:00,19.10122,74.73339,PM10,77,130,105
India,Maharashtra,Amravati,"Shivneri Colony, Amravati - MPCB",11-04-2026 09:00:00,20.9402359,77.7895248,PM10,57,131,104
India,Maharashtra,Amravati,"Shivneri Colony, Amravati - MPCB",11-04-2026 09:00:00,20.9402359,77.7895248,NH3,NA,NA,NA
India,Maharashtra,Amravati,"Shri Shivaji Science College, Amravati - MPCB",11-04-2026 09:00:00,20.939198,77.765701,PM10,86,136,107
India,Maharashtra,Amravati,"Shri Shivaji Science College, Amravati - MPCB",11-04-2026 09:00:00,20.939198,77.765701,SO2,12,26,17
India,Madhya Pradesh,Indore,"Airport Area, Indore - IMC",11-04-2026 09:00:00,22.7289,75.8076,CO,48,88,80
India,Madhya Pradesh,Indore,"Regional Park, Indore - IMC",11-04-2026 09:00:00,22.6780,75.8559,SO2,NA,NA,NA
India,Madhya Pradesh,Indore,"Residency Area, Indore - IMC",11-04-2026 09:00:00,22.7084,75.8815,PM10,34,104,66
India,Madhya Pradesh,Jabalpur,"Govindh Bhavan Colony, Jabalpur - JMC",11-04-2026 09:00:00,23.163174,79.973061,CO,10,44,32
India,Madhya Pradesh,Jabalpur,"Gupteshwar, Jabalpur - JMC",11-04-2026 09:00:00,23.142888,79.916147,PM2.5,25,301,128
India,Madhya Pradesh,Jabalpur,"Gupteshwar, Jabalpur - JMC",11-04-2026 09:00:00,23.142888,79.916147,SO2,11,16,13
India,Maharashtra,Belapur,"CBD Belapur, Belapur - MPCB",11-04-2026 09:00:00,19.0243902,73.0406721,PM10,152,261,183
India,Maharashtra,Boisar,"Khaira, Boisar - MPCB",11-04-2026 09:00:00,19.786089,72.757971,CO,26,33,27
India,Maharashtra,Boisar,"Khaira, Boisar - MPCB",11-04-2026 09:00:00,19.786089,72.757971,OZONE,25,31,26
India,Maharashtra,Chandrapur,"Chauhan Colony, Chandrapur - MPCB",11-04-2026 09:00:00,19.962900,79.298714,PM2.5,71,281,126
India,Maharashtra,Chandrapur,"Chauhan Colony, Chandrapur - MPCB",11-04-2026 09:00:00,19.962900,79.298714,PM10,108,225,134
India,Maharashtra,Chandrapur,"MIDC Khutala, Chandrapur - MPCB",11-04-2026 09:00:00,19.9775302,79.2337086,PM10,82,179,121
India,Madhya Pradesh,Damoh,"Shrivastav Colony, Damoh - MPPCB",11-04-2026 09:00:00,23.81748678,79.446246,SO2,34,55,50
India,Madhya Pradesh,Dewas,"Bhopal Chauraha, Dewas - MPPCB",11-04-2026 09:00:00,22.9682591,76.064118,NO2,66,120,98
India,Madhya Pradesh,Gwalior,"Deen Dayal Nagar, Gwalior - MPPCB",11-04-2026 09:00:00,26.259242,78.216432,NO2,20,56,40
India,Madhya Pradesh,Gwalior,"Maharaj Bada, Gwalior - MPPCB",11-04-2026 09:00:00,26.200388,78.147714,PM10,73,324,123
India,Maharashtra,Aurangabad,"MIDC Chilkalthana, Aurangabad - MPCB",11-04-2026 09:00:00,19.875620,75.387310,PM10,62,75,70
India,Maharashtra,Aurangabad,"MIDC Chilkalthana, Aurangabad - MPCB",11-04-2026 09:00:00,19.875620,75.387310,SO2,32,42,37
India,Maharashtra,Badlapur,"Katrap, Badlapur - MPCB",11-04-2026 09:00:00,19.16485,73.23409,PM2.5,65,145,85
India,Maharashtra,Chandrapur,"MIDC Khutala, Chandrapur - MPCB",11-04-2026 09:00:00,19.9775302,79.2337086,CO,34,42,39
India,Maharashtra,Dhule,"Deopur, Dhule - MPCB",11-04-2026 09:00:00,20.918946,74.776388,OZONE,19,65,21
India,Maharashtra,Badlapur,"Katrap, Badlapur - MPCB",11-04-2026 09:00:00,19.16485,73.23409,CO,30,57,47
India,Maharashtra,Mumbai,"Kherwadi_Bandra East, Mumbai - MPCB",11-04-2026 09:00:00,19.0632143,72.8456324,OZONE,21,60,33
India,Maharashtra,Mumbai,"Khindipada-Bhandup West, Mumbai - IITM",11-04-2026 09:00:00,19.1653323,72.922099,NO2,13,54,20
India,Maharashtra,Mumbai,"Khindipada-Bhandup West, Mumbai - IITM",11-04-2026 09:00:00,19.1653323,72.922099,SO2,4,16,9
India,Maharashtra,Mumbai,"Khindipada-Bhandup West, Mumbai - IITM",11-04-2026 09:00:00,19.1653323,72.922099,CO,22,46,32
India,Maharashtra,Mumbai,"Khindipada-Bhandup West, Mumbai - IITM",11-04-2026 09:00:00,19.1653323,72.922099,OZONE,38,80,44
India,Maharashtra,Mumbai,"Kurla, Mumbai - MPCB",11-04-2026 09:00:00,19.0863,72.8888,PM10,92,197,132
India,Maharashtra,Mumbai,"Kurla, Mumbai - MPCB",11-04-2026 09:00:00,19.0863,72.8888,CO,8,23,17
India,Maharashtra,Mumbai,"Malad West, Mumbai - IITM",11-04-2026 09:00:00,19.19709,72.82204,PM2.5,45,87,64
India,Maharashtra,Mumbai,"Malad West, Mumbai - IITM",11-04-2026 09:00:00,19.19709,72.82204,PM10,94,150,120
India,Maharashtra,Mumbai,"Malad West, Mumbai - IITM",11-04-2026 09:00:00,19.19709,72.82204,CO,22,52,32
India,Maharashtra,Mumbai,"Malad West, Mumbai - IITM",11-04-2026 09:00:00,19.19709,72.82204,OZONE,31,80,38
India,Maharashtra,Mumbai,"Mazgaon, Mumbai - IITM",11-04-2026 09:00:00,18.96702,72.84214,OZONE,51,82,77
India,Maharashtra,Mumbai,"Mulund West, Mumbai - MPCB",11-04-2026 09:00:00,19.1750,72.9419,NO2,23,35,29
India,Maharashtra,Mumbai,"Mulund West, Mumbai - MPCB",11-04-2026 09:00:00,19.1750,72.9419,NH3,2,3,2
India,Maharashtra,Mumbai,"Mulund West, Mumbai - MPCB",11-04-2026 09:00:00,19.1750,72.9419,SO2,NA,NA,NA
India,Maharashtra,Mumbai,"Navy Nagar-Colaba, Mumbai - IITM",11-04-2026 09:00:00,18.897756,72.813320,PM10,136,148,143
India,Maharashtra,Mumbai,"Sewri, Mumbai - BMC",11-04-2026 09:00:00,19.000084,72.856730,NH3,6,11,8
India,Maharashtra,Mumbai,"Sewri, Mumbai - BMC",11-04-2026 09:00:00,19.000084,72.856730,SO2,1,9,4
India,Maharashtra,Mumbai,"Sewri, Mumbai - BMC",11-04-2026 09:00:00,19.000084,72.856730,OZONE,16,38,30
India,Maharashtra,Mumbai,"Shivaji Nagar, Mumbai - BMC",11-04-2026 09:00:00,19.060498,72.923356,PM10,81,145,119
India,Maharashtra,Mumbai,"Shivaji Nagar, Mumbai - BMC",11-04-2026 09:00:00,19.060498,72.923356,OZONE,2,52,13
India,Maharashtra,Mumbai,"Siddharth Nagar-Worli, Mumbai - IITM",11-04-2026 09:00:00,19.000083,72.813993,OZONE,43,83,65
India,Maharashtra,Mumbai,"Sion, Mumbai - MPCB",11-04-2026 09:00:00,19.047000,72.874600,PM2.5,25,280,87
India,Maharashtra,Kalyan,"Pimpleshwar Mandir, Kalyan - MPCB",11-04-2026 09:00:00,19.192056,72.9585188,CO,NA,NA,NA
India,Maharashtra,Kolhapur,"Shivaji University, Kolhapur - MPCB",11-04-2026 09:00:00,16.6870449,74.2505872,SO2,6,8,7
India,Maharashtra,Kolhapur,"Sinchan Bhavan, Kolhapur - MPCB",11-04-2026 09:00:00,16.7143745,74.2426398,CO,6,54,16
India,Maharashtra,Latur,"Sawe Wadi, Latur - MPCB",11-04-2026 09:00:00,18.39963,76.57452,PM2.5,57,93,75
India,Maharashtra,Latur,"Sawe Wadi, Latur - MPCB",11-04-2026 09:00:00,18.39963,76.57452,PM10,59,92,77
India,Maharashtra,Latur,"Sawe Wadi, Latur - MPCB",11-04-2026 09:00:00,18.39963,76.57452,NO2,11,63,24
India,Maharashtra,Mahad,"Kamble Tarf Birwadi, Mahad - MPCB",11-04-2026 09:00:00,18.1023399,73.4783687,PM10,92,130,112
India,Maharashtra,Mahad,"Kamble Tarf Birwadi, Mahad - MPCB",11-04-2026 09:00:00,18.1023399,73.4783687,NH3,3,8,4
India,Maharashtra,Mahad,"Kamble Tarf Birwadi, Mahad - MPCB",11-04-2026 09:00:00,18.1023399,73.4783687,OZONE,21,75,33
India,Maharashtra,Hingoli,"Ashta Vinayak Nagar, Hingoli - MPCB",11-04-2026 09:00:00,19.710842,77.151824,NH3,3,4,3
India,Maharashtra,Hingoli,"Ashta Vinayak Nagar, Hingoli - MPCB",11-04-2026 09:00:00,19.710842,77.151824,CO,12,52,39
India,Maharashtra,Jalgaon,"Prabhat Colony, Jalgaon - MPCB",11-04-2026 09:00:00,21.001264,75.565602,NO2,5,68,19
India,Maharashtra,Jalgaon,"Prabhat Colony, Jalgaon - MPCB",11-04-2026 09:00:00,21.001264,75.565602,NH3,1,3,2
India,Maharashtra,Jalgaon,"Prabhat Colony, Jalgaon - MPCB",11-04-2026 09:00:00,21.001264,75.565602,CO,18,60,20
India,Maharashtra,Jalna,"Old MIDC, Jalna - MPCB",11-04-2026 09:00:00,19.854616,75.905894,PM2.5,37,85,53
India,Maharashtra,Jalna,"Old MIDC, Jalna - MPCB",11-04-2026 09:00:00,19.854616,75.905894,CO,3,55,19
India,Maharashtra,Jalna,"Old MIDC, Jalna - MPCB",11-04-2026 09:00:00,19.854616,75.905894,OZONE,4,78,14
India,Maharashtra,Kalyan,"Pimpleshwar Mandir, Kalyan - MPCB",11-04-2026 09:00:00,19.192056,72.9585188,PM10,NA,NA,NA
India,Maharashtra,Kalyan,"Pimpleshwar Mandir, Kalyan - MPCB",11-04-2026 09:00:00,19.192056,72.9585188,NO2,NA,NA,NA
India,Maharashtra,Mumbai,"Sion, Mumbai - MPCB",11-04-2026 09:00:00,19.047000,72.874600,PM10,32,222,102
India,Maharashtra,Mumbai,"Sion, Mumbai - MPCB",11-04-2026 09:00:00,19.047000,72.874600,NH3,6,7,7
India,Maharashtra,Mumbai,"Sion, Mumbai - MPCB",11-04-2026 09:00:00,19.047000,72.874600,CO,10,18,18
India,Maharashtra,Mumbai,"Worli, Mumbai -MPCB",11-04-2026 09:00:00,18.9942180,72.8158167,PM10,29,309,115
India,Maharashtra,Mumbai,"Worli, Mumbai -MPCB",11-04-2026 09:00:00,18.9942180,72.8158167,NO2,12,12,12
India,Maharashtra,Mumbai,"Worli, Mumbai -MPCB",11-04-2026 09:00:00,18.9942180,72.8158167,SO2,30,32,31
India,Maharashtra,Nagpur,"Ambazari, Nagpur - MPCB",11-04-2026 09:00:00,21.121801,79.04952,CO,8,66,29
India,Maharashtra,Nagpur,"Ambazari, Nagpur - MPCB",11-04-2026 09:00:00,21.121801,79.04952,OZONE,21,103,43
India,Maharashtra,Nagpur,"Opp GPO Civil Lines, Nagpur - MPCB",11-04-2026 09:00:00,21.152875,79.0517531,NO2,13,120,46
India,Maharashtra,Nagpur,"Opp GPO Civil Lines, Nagpur - MPCB",11-04-2026 09:00:00,21.152875,79.0517531,NH3,3,11,5
India,Maharashtra,Mumbai,"Borivali East, Mumbai - MPCB",11-04-2026 09:00:00,19.2243333,72.8658113,NH3,1,9,3
India,Maharashtra,Mumbai,"Byculla, Mumbai - BMC",11-04-2026 09:00:00,18.9767,72.8380,PM2.5,34,73,53
India,Maharashtra,Mumbai,"Byculla, Mumbai - BMC",11-04-2026 09:00:00,18.9767,72.8380,PM10,90,123,113
India,Maharashtra,Mumbai,"Byculla, Mumbai - BMC",11-04-2026 09:00:00,18.9767,72.8380,NO2,12,51,22
India,Maharashtra,Mumbai,"Chhatrapati Shivaji Intl. Airport (T2), Mumbai - MPCB",11-04-2026 09:00:00,19.10078,72.87462,PM10,91,134,113
India,Maharashtra,Nagpur,"Ram Nagar, Nagpur - MPCB",11-04-2026 09:00:00,21.143383,79.048912,PM10,82,115,103
India,Maharashtra,Nagpur,"Ram Nagar, Nagpur - MPCB",11-04-2026 09:00:00,21.143383,79.048912,CO,12,62,42
India,Maharashtra,Nanded,"Sneh Nagar, Nanded - MPCB",11-04-2026 09:00:00,19.173852,77.296291,CO,18,27,22
India,Maharashtra,Nashik,"Gangapur Road, Nashik - MPCB",11-04-2026 09:00:00,20.0073285,73.7762427,PM10,60,135,101
India,Maharashtra,Nashik,"Gangapur Road, Nashik - MPCB",11-04-2026 09:00:00,20.0073285,73.7762427,SO2,4,19,8
India,Maharashtra,Mumbai,"Colaba, Mumbai - MPCB",11-04-2026 09:00:00,18.910000,72.820000,PM10,23,63,40
India,Maharashtra,Mumbai,"Colaba, Mumbai - MPCB",11-04-2026 09:00:00,18.910000,72.820000,NO2,28,28,28
India,Maharashtra,Mumbai,"Kandivali East, Mumbai - MPCB",11-04-2026 09:00:00,19.205800,72.868200,PM10,25,65,42
India,Maharashtra,Mumbai,"Kandivali East, Mumbai - MPCB",11-04-2026 09:00:00,19.205800,72.868200,SO2,26,29,27
India,Maharashtra,Mumbai,"Kandivali East, Mumbai - MPCB",11-04-2026 09:00:00,19.205800,72.868200,OZONE,15,15,15
India,Maharashtra,Mumbai,"Kandivali West, Mumbai - BMC",11-04-2026 09:00:00,19.215859,72.831718,OZONE,29,56,35
India,Maharashtra,Mira-Bhayandar,"Bhayandar West, Mira-Bhayandar - MPCB",11-04-2026 09:00:00,19.296481,72.840923,NH3,4,8,5
India,Maharashtra,Mumbai,"Bandra Kurla Complex, Mumbai - IITM",11-04-2026 09:00:00,19.053536,72.84643,NH3,18,59,34
India,Maharashtra,Mumbai,"Bandra Kurla Complex, Mumbai - MPCB",11-04-2026 09:00:00,19.065931,72.862131,OZONE,9,36,23
India,Maharashtra,Pimpri-Chinchwad,"Gavalinagar, Pimpri Chinchwad - MPCB",11-04-2026 09:00:00,18.63673,73.82487,PM2.5,NA,NA,NA
India,Maharashtra,Pimpri-Chinchwad,"Gavalinagar, Pimpri Chinchwad - MPCB",11-04-2026 09:00:00,18.63673,73.82487,SO2,NA,NA,NA
India,Maharashtra,Pimpri-Chinchwad,"Gavalinagar, Pimpri Chinchwad - MPCB",11-04-2026 09:00:00,18.63673,73.82487,CO,14,42,34
India,Maharashtra,Pimpri-Chinchwad,"Gavalinagar, Pimpri Chinchwad - MPCB",11-04-2026 09:00:00,18.63673,73.82487,OZONE,9,73,22
India,Maharashtra,Pimpri-Chinchwad,"Thergaon, Pimpri Chinchwad - MPCB",11-04-2026 09:00:00,18.616318,73.765797,PM2.5,120,316,204
India,Maharashtra,Pimpri-Chinchwad,"Thergaon, Pimpri Chinchwad - MPCB",11-04-2026 09:00:00,18.616318,73.765797,PM10,114,207,146
India,Maharashtra,Pimpri-Chinchwad,"Thergaon, Pimpri Chinchwad - MPCB",11-04-2026 09:00:00,18.616318,73.765797,NH3,9,14,12
India,Maharashtra,Pimpri-Chinchwad,"Thergaon, Pimpri Chinchwad - MPCB",11-04-2026 09:00:00,18.616318,73.765797,CO,14,74,46
India,Maharashtra,Pimpri-Chinchwad,"Transport Nagar-Nigdi, Pune - IITM",11-04-2026 09:00:00,18.664282,73.763966,OZONE,4,37,7
India,Maharashtra,Pune,"Dhankawadi, Pune - IITM",11-04-2026 09:00:00,18.459883,73.852193,NO2,39,71,46
India,Maharashtra,Pune,"Dhankawadi, Pune - IITM",11-04-2026 09:00:00,18.459883,73.852193,OZONE,8,86,20
India,Maharashtra,Pune,"Hadapsar, Pune - IITM",11-04-2026 09:00:00,18.501793,73.927532,NO2,NA,NA,NA
India,Odisha,Angul,"Hakimapada, Angul - OSPCB",11-04-2026 09:00:00,20.832874,85.104082,PM2.5,42,340,170
India,Odisha,Angul,"Hakimapada, Angul - OSPCB",11-04-2026 09:00:00,20.832874,85.104082,SO2,4,108,22
India,Odisha,Balasore,"Kalidaspur, Balasore - OSPCB",11-04-2026 09:00:00,21.51161,86.89088,NH3,1,2,1
India,Odisha,Barbil,"Forest Office, Barbil - OSPCB",11-04-2026 09:00:00,22.1166054,85.3945546,NH3,1,1,1
India,Odisha,Baripada,"Meher Colony, Baripada - OSPCB",11-04-2026 09:00:00,21.941841,86.728318,PM2.5,32,74,54
India,Odisha,Bhubaneswar,"Lingraj Mandir, Bhubaneswar - OSPCB",11-04-2026 09:00:00,20.240790,85.836784,NO2,8,22,14
India,Odisha,Bhubaneswar,"Lingraj Mandir, Bhubaneswar - OSPCB",11-04-2026 09:00:00,20.240790,85.836784,NH3,6,8,7
India,Odisha,Bhubaneswar,"Lingraj Mandir, Bhubaneswar - OSPCB",11-04-2026 09:00:00,20.240790,85.836784,SO2,1,4,2
India,Odisha,Bhubaneswar,"Patia, Bhubaneswar - OSPCB",11-04-2026 09:00:00,20.34652,85.81630,NO2,5,18,9
India,Maharashtra,Solapur,"Dnyaneshwar Nagar, Solapur - MPCB",11-04-2026 09:00:00,17.6336264,75.9132495,SO2,1,8,5
India,Maharashtra,Solapur,"Ratandeep Housing Society, Solapur - MPCB",11-04-2026 09:00:00,17.65439,75.90649,PM10,105,139,122
India,Maharashtra,Thane,"Kasarvadavali, Thane - MPCB",11-04-2026 09:00:00,19.26777,72.97182,SO2,4,7,5
India,Maharashtra,Thane,"Upvan Fort, Thane - MPCB",11-04-2026 09:00:00,19.222279,72.957979,PM10,141,173,152
India,Maharashtra,Thane,"Upvan Fort, Thane - MPCB",11-04-2026 09:00:00,19.222279,72.957979,NO2,3,17,8
India,Maharashtra,Thane,"Upvan Fort, Thane - MPCB",11-04-2026 09:00:00,19.222279,72.957979,NH3,3,3,3
India,Maharashtra,Thane,"Upvan Fort, Thane - MPCB",11-04-2026 09:00:00,19.222279,72.957979,SO2,NA,NA,NA
India,Maharashtra,Ulhasnagar,"Sidhi Vinayak Nagar, Ulhasnagar - MPCB",11-04-2026 09:00:00,19.235581,73.159121,NO2,12,42,23
India,Maharashtra,Ulhasnagar,"Sidhi Vinayak Nagar, Ulhasnagar - MPCB",11-04-2026 09:00:00,19.235581,73.159121,CO,7,42,32
India,Maharashtra,Navi Mumbai,"Sanpada, Navi Mumbai - MPCB",11-04-2026 09:00:00,19.0575752,73.0151367,PM2.5,45,91,73
India,Maharashtra,Navi Mumbai,"Sector-2E Kalamboli, Navi Mumbai - MPCB",11-04-2026 09:00:00,19.02579,73.10297,PM2.5,80,231,127
India,Maharashtra,Navi Mumbai,"Sector-2E Kalamboli, Navi Mumbai - MPCB",11-04-2026 09:00:00,19.02579,73.10297,NH3,3,8,5
India,Maharashtra,Navi Mumbai,"Sector-2E Kalamboli, Navi Mumbai - MPCB",11-04-2026 09:00:00,19.02579,73.10297,SO2,5,13,7
India,Maharashtra,Navi Mumbai,"Tondare-Taloja, Navi Mumbai - MPCB",11-04-2026 09:00:00,19.0630,73.1209,OZONE,10,16,11
India,Maharashtra,Parbhani,"Masoom Colony, Parbhani - MPCB",11-04-2026 09:00:00,19.265594,76.761463,CO,8,14,11
India,Maharashtra,Pimpri-Chinchwad,"Bhosari, Pune - IITM",11-04-2026 09:00:00,18.640051,73.848956,PM2.5,19,90,62
India,Maharashtra,Pimpri-Chinchwad,"Bhosari, Pune - IITM",11-04-2026 09:00:00,18.640051,73.848956,PM10,84,154,122
India,Maharashtra,Nashik,"Hirawadi, Nashik - MPCB",11-04-2026 09:00:00,20.021503,73.813844,PM2.5,80,184,117
India,Maharashtra,Nashik,"MIDC Ambad, Nashik - MPCB",11-04-2026 09:00:00,19.950220,73.731480,SO2,7,51,15
India,Maharashtra,Nashik,"Pandav Nagari, Nashik - MPCB",11-04-2026 09:00:00,19.9591346,73.7788008,PM10,100,214,125
India,Maharashtra,Navi Mumbai,"Kopripada-Vashi, Navi Mumbai - MPCB",11-04-2026 09:00:00,19.090337,73.014232,PM10,69,188,87
India,Maharashtra,Navi Mumbai,"Kopripada-Vashi, Navi Mumbai - MPCB",11-04-2026 09:00:00,19.090337,73.014232,CO,18,103,60
India,Maharashtra,Navi Mumbai,"Mahape, Navi Mumbai - MPCB",11-04-2026 09:00:00,19.1135051,73.008978,NH3,1,1,1
India,Maharashtra,Navi Mumbai,"Mahape, Navi Mumbai - MPCB",11-04-2026 09:00:00,19.1135051,73.008978,SO2,17,19,18
India,Maharashtra,Navi Mumbai,"Mahape, Navi Mumbai - MPCB",11-04-2026 09:00:00,19.1135051,73.008978,OZONE,7,14,10
India,Maharashtra,Virar,"Bolinj, Virar - MPCB",11-04-2026 09:00:00,19.4458210,72.7988231,CO,12,115,75
India,Meghalaya,Shillong,"JN Stadium, Shillong - Meghalaya PCB",11-04-2026 09:00:00,25.5803419,91.8942571,NH3,NA,NA,NA
India,Meghalaya,Shillong,"Lumpyngngad, Shillong - Meghalaya PCB",11-04-2026 09:00:00,25.5586,91.8985,PM2.5,1,26,9
India,Meghalaya,Shillong,"Lumpyngngad, Shillong - Meghalaya PCB",11-04-2026 09:00:00,25.5586,91.8985,CO,6,18,6
India,Nagaland,Kohima,"PWD Junction, Kohima - NPCB",11-04-2026 09:00:00,25.6635413,94.0989878,PM2.5,16,54,28
India,Nagaland,Kohima,"PWD Junction, Kohima - NPCB",11-04-2026 09:00:00,25.6635413,94.0989878,PM10,14,57,25
India,Nagaland,Kohima,"PWD Junction, Kohima - NPCB",11-04-2026 09:00:00,25.6635413,94.0989878,SO2,20,25,22
India,Maharashtra,Pune,"Katraj Dairy, Pune - MPCB",11-04-2026 09:00:00,18.454450,73.854155,CO,18,94,39
India,Maharashtra,Pune,"Mhada Colony, Pune - IITM",11-04-2026 09:00:00,18.573040,73.927715,CO,14,107,88
India,Maharashtra,Pune,"Panchawati_Pashan, Pune - IITM",11-04-2026 09:00:00,18.536457,73.805454,CO,17,92,84
India,Maharashtra,Pune,"Panchawati_Pashan, Pune - IITM",11-04-2026 09:00:00,18.536457,73.805454,OZONE,5,56,13
India,Maharashtra,Sangli,"Vijay Nagar, Sangli - MPCB",11-04-2026 09:00:00, 16.5038,74.3623,PM2.5,54,152,83
India,Maharashtra,Sangli,"Vijay Nagar, Sangli - MPCB",11-04-2026 09:00:00, 16.5038,74.3623,SO2,22,41,26
India,Maharashtra,Virar,"Bolinj, Virar - MPCB",11-04-2026 09:00:00,19.4458210,72.7988231,PM2.5,31,135,74
India,Maharashtra,Virar,"Bolinj, Virar - MPCB",11-04-2026 09:00:00,19.4458210,72.7988231,SO2,1,10,6
India,Rajasthan,Dausa,"Khatikan Mohalla, Dausa - RSPCB",11-04-2026 09:00:00,26.895552,76.334753,CO,16,100,27
India,Rajasthan,Dholpur,"Raja Ganj, Dholpur - RSPCB",11-04-2026 09:00:00,26.699557,77.898881,PM10,50,190,90
India,Rajasthan,Dholpur,"Raja Ganj, Dholpur - RSPCB",11-04-2026 09:00:00,26.699557,77.898881,NO2,18,47,28
India,Rajasthan,Dungarpur,"Bhoiwada, Dungarpur - RSPCB",11-04-2026 09:00:00,23.837789,73.714926,OZONE,4,79,12
India,Rajasthan,Hanumangarh,"Housing Board, Hanumangarh - RSPCB",11-04-2026 09:00:00,29.610750,74.283608,NH3,4,10,5
India,Rajasthan,Hanumangarh,"Housing Board, Hanumangarh - RSPCB",11-04-2026 09:00:00,29.610750,74.283608,OZONE,22,85,37
India,Rajasthan,Jaipur,"Adarsh Nagar, Jaipur - RSPCB",11-04-2026 09:00:00,26.902909,75.836858,NH3,6,32,13
India,Rajasthan,Jaipur,"Mansarovar Sector-12, Jaipur - RSPCB",11-04-2026 09:00:00,26.843698,75.766894,PM2.5,12,177,66
India,Rajasthan,Jaipur,"Mansarovar Sector-12, Jaipur - RSPCB",11-04-2026 09:00:00,26.843698,75.766894,PM10,72,271,138
India,Rajasthan,Banswara,"Rati Talai, Banswara - RSPCB",11-04-2026 09:00:00,23.555190,74.440010,NO2,12,150,47
India,Rajasthan,Banswara,"Rati Talai, Banswara - RSPCB",11-04-2026 09:00:00,23.555190,74.440010,NH3,2,6,3
India,Rajasthan,Baran,"Bamboliya, Baran - RSPCB",11-04-2026 09:00:00,25.106006,76.469948,PM10,42,131,87
India,Rajasthan,Barmer,"Railway Colony, Barmer - RSPCB",11-04-2026 09:00:00,25.747299,71.393989,SO2,2,7,4
India,Rajasthan,Barmer,"Railway Colony, Barmer - RSPCB",11-04-2026 09:00:00,25.747299,71.393989,CO,8,62,14
India,Rajasthan,Bharatpur,"Krishna Nagar, Bharatpur - RSPCB",11-04-2026 09:00:00,27.215415,77.50873,PM2.5,12,63,27
India,Rajasthan,Bharatpur,"Krishna Nagar, Bharatpur - RSPCB",11-04-2026 09:00:00,27.215415,77.50873,PM10,56,130,94
India,Rajasthan,Bharatpur,"Krishna Nagar, Bharatpur - RSPCB",11-04-2026 09:00:00,27.215415,77.50873,CO,16,46,22
India,Rajasthan,Bhilwara,"Pratap Nagar, Bhilwara - RSPCB",11-04-2026 09:00:00,25.339605,74.618883,PM2.5,8,98,53
India,Rajasthan,Bhilwara,"Pratap Nagar, Bhilwara - RSPCB",11-04-2026 09:00:00,25.339605,74.618883,SO2,5,41,17
India,Odisha,Brajrajnagar,"GM Office, Brajrajnagar - OSPCB",11-04-2026 09:00:00,21.8004996,83.8396977,NH3,5,6,6
India,Odisha,Brajrajnagar,"GM Office, Brajrajnagar - OSPCB",11-04-2026 09:00:00,21.8004996,83.8396977,CO,3,56,17
India,Odisha,Brajrajnagar,"GM Office, Brajrajnagar - OSPCB",11-04-2026 09:00:00,21.8004996,83.8396977,OZONE,42,58,42
India,Odisha,Byasanagar,"Ferro Chrome Colony, Byasanagar - OSPCB",11-04-2026 09:00:00,20.94185,86.11510,SO2,2,16,9
India,Odisha,Byasanagar,"Ferro Chrome Colony, Byasanagar - OSPCB",11-04-2026 09:00:00,20.94185,86.11510,CO,2,18,12
India,Odisha,Cuttack,"CDA Area, Cuttack - OSPCB",11-04-2026 09:00:00,20.48891     ,85.84768     ,PM2.5,22,78,49
India,Odisha,Cuttack,"CDA Area, Cuttack - OSPCB",11-04-2026 09:00:00,20.48891     ,85.84768     ,NO2,5,11,8
India,Odisha,Cuttack,"CDA Area, Cuttack - OSPCB",11-04-2026 09:00:00,20.48891     ,85.84768     ,SO2,5,12,8
India,Odisha,Keonjhar,"Jagamohanpur, Keonjhar - OSPCB",11-04-2026 09:00:00,21.643900,85.599355,PM10,58,109,88
India,Punjab,Mandi Gobindgarh,"RIMT University, Mandi Gobindgarh - PPCB",11-04-2026 09:00:00,30.649961,76.331442,PM10,NA,NA,NA
India,Punjab,Patiala,"Model Town, Patiala - PPCB",11-04-2026 09:00:00,30.349388,76.366642,CO,6,29,25
India,Punjab,Rupnagar,"Ratanpura, Rupnagar - Ambuja Cements",11-04-2026 09:00:00,31.0325454,76.5623046,NO2,9,44,26
India,Punjab,Rupnagar,"Ratanpura, Rupnagar - Ambuja Cements",11-04-2026 09:00:00,31.0325454,76.5623046,SO2,15,22,17
India,Punjab,Rupnagar,"Ratanpura, Rupnagar - Ambuja Cements",11-04-2026 09:00:00,31.0325454,76.5623046,CO,28,39,36
India,Rajasthan,Ajmer,"Civil Lines,  Ajmer - RSPCB",11-04-2026 09:00:00,26.470859,74.646594,PM2.5,47,91,59
India,Rajasthan,Ajmer,"Civil Lines,  Ajmer - RSPCB",11-04-2026 09:00:00,26.470859,74.646594,PM10,67,140,93
India,Rajasthan,Ajmer,"Civil Lines,  Ajmer - RSPCB",11-04-2026 09:00:00,26.470859,74.646594,CO,15,59,38
India,Punjab,Amritsar,"Golden Temple, Amritsar - PPCB",11-04-2026 09:00:00,31.620000,74.876512,PM10,21,148,103
India,Punjab,Bathinda,"Hardev Nagar, Bathinda - PPCB",11-04-2026 09:00:00,30.233011,74.907758,PM10,29,72,47
India,Punjab,Bathinda,"Hardev Nagar, Bathinda - PPCB",11-04-2026 09:00:00,30.233011,74.907758,NO2,44,50,47
India,Punjab,Jalandhar,"Civil Line, Jalandhar - PPCB",11-04-2026 09:00:00,31.321907,75.578914,PM10,55,86,70
India,Punjab,Khanna,"Kalal Majra, Khanna - PPCB",11-04-2026 09:00:00,30.736056 ,76.209694,PM10,35,78,55
India,Punjab,Ludhiana,"Punjab Agricultural University, Ludhiana - PPCB",11-04-2026 09:00:00,30.9028,75.8086,PM10,55,69,58
India,Punjab,Ludhiana,"Punjab Agricultural University, Ludhiana - PPCB",11-04-2026 09:00:00,30.9028,75.8086,SO2,16,22,18
India,Odisha,Nayagarh,"Dabuna, Nayagarh - OSPCB",11-04-2026 09:00:00,21.847279,85.416905,OZONE,11,73,14
India,Odisha,Rairangpur,"Divisional Forest Office, Rairangpur - OSPCB",11-04-2026 09:00:00,22.265816,86.174829,PM10,30,103,62
India,Odisha,Rairangpur,"Divisional Forest Office, Rairangpur - OSPCB",11-04-2026 09:00:00,22.265816,86.174829,NO2,10,11,11
India,Odisha,Rairangpur,"Divisional Forest Office, Rairangpur - OSPCB",11-04-2026 09:00:00,22.265816,86.174829,NH3,1,1,1
India,Odisha,Rourkela,"Raghunathpali, Rourkela - OSPCB",11-04-2026 09:00:00,22.220833,84.809444,OZONE,21,32,26
India,Odisha,Rourkela,"Sector-2, Rourkela - OSPCB",11-04-2026 09:00:00,22.24500000,84.88111111,NO2,9,9,9
India,Rajasthan,Bundi,"New Colony, Bundi - RSPCB",11-04-2026 09:00:00,25.435774,75.644272,PM2.5,8,75,30
India,Rajasthan,Bundi,"New Colony, Bundi - RSPCB",11-04-2026 09:00:00,25.435774,75.644272,CO,10,66,20
India,Rajasthan,Chittorgarh,"Shastri Nagar, Chittorgarh - RSPCB",11-04-2026 09:00:00,24.892047,74.623527,SO2,6,81,29
India,Rajasthan,Chittorgarh,"Shastri Nagar, Chittorgarh - RSPCB",11-04-2026 09:00:00,24.892047,74.623527,CO,6,32,27
India,Rajasthan,Churu,"Subash Chowk, Churu - RSPCB",11-04-2026 09:00:00,28.296139,74.961696,NO2,9,49,22
India,Rajasthan,Churu,"Subash Chowk, Churu - RSPCB",11-04-2026 09:00:00,28.296139,74.961696,SO2,4,8,5
India,Odisha,Talcher,"Talcher Coalfields,Talcher - OSPCB",11-04-2026 09:00:00,20.9360711,85.1707021,NH3,4,4,4
India,Odisha,Talcher,"Talcher Coalfields,Talcher - OSPCB",11-04-2026 09:00:00,20.9360711,85.1707021,OZONE,26,55,33
India,Odisha,Tensa,"Barsua Iron Ore Mines, Tensa - OSPCB",11-04-2026 09:00:00,21.869985,85.167016,PM10,64,93,83
India,Puducherry,Puducherry,"Jawahar Nagar, Puducherry - PPCC",11-04-2026 09:00:00,11.9309,79.8027,PM10,24,56,40
India,Puducherry,Puducherry,"Jawahar Nagar, Puducherry - PPCC",11-04-2026 09:00:00,11.9309,79.8027,NH3,1,7,3
India,Rajasthan,Bhiwadi,"Vasundhara Nagar_UIT, Bhiwadi - RSPCB",11-04-2026 09:00:00,28.207266,76.829265,PM2.5,28,88,50
India,Rajasthan,Jaipur,"Mansarovar Sector-12, Jaipur - RSPCB",11-04-2026 09:00:00,26.843698,75.766894,OZONE,1,150,18
India,Rajasthan,Jaipur,"RIICO Sitapura, Jaipur - RSPCB",11-04-2026 09:00:00,26.786682,75.827928,PM2.5,NA,NA,NA
India,Rajasthan,Jaipur,"RIICO Sitapura, Jaipur - RSPCB",11-04-2026 09:00:00,26.786682,75.827928,CO,NA,NA,NA
India,Rajasthan,Jaipur,"Sector-2 Murlipura, Jaipur - RSPCB",11-04-2026 09:00:00,26.960669,75.771817,PM10,42,232,94
India,Rajasthan,Jaipur,"Shastri Nagar, Jaipur - RSPCB",11-04-2026 09:00:00,26.9502929,75.730943,OZONE,13,53,18
India,Rajasthan,Jaisalmer,"Sadar Bazar, Jaisalmer - RSPCB",11-04-2026 09:00:00,26.912329,70.909168,NO2,14,78,25
India,Rajasthan,Jaisalmer,"Sadar Bazar, Jaisalmer - RSPCB",11-04-2026 09:00:00,26.912329,70.909168,CO,12,78,16
India,Rajasthan,Jalore,"Mudtra Sili, Jalore - RSPCB",11-04-2026 09:00:00,25.344694,72.626208,PM10,66,408,121
India,Rajasthan,Jalore,"Mudtra Sili, Jalore - RSPCB",11-04-2026 09:00:00,25.344694,72.626208,NH3,NA,NA,NA
India,Rajasthan,Udaipur,"Ashok Nagar, Udaipur - RSPCB",11-04-2026 09:00:00,24.5886166,73.6321397,OZONE,2,103,10
India,Sikkim,Gangtok,"Zero Point GICI, Gangtok - SSPCB",11-04-2026 09:00:00,27.338530,88.614099,PM10,13,34,22
India,Sikkim,Gangtok,"Zero Point GICI, Gangtok - SSPCB",11-04-2026 09:00:00,27.338530,88.614099,NH3,1,1,1
India,TamilNadu,Chennai,"Arumbakkam, Chennai - TNPCB",11-04-2026 09:00:00,13.0664,80.2112 ,SO2,1,5,2
India,TamilNadu,Chennai,"Kodungaiyur, Chennai - TNPCB",11-04-2026 09:00:00,13.1278,80.2642,PM10,22,75,45
India,TamilNadu,Chennai,"Kodungaiyur, Chennai - TNPCB",11-04-2026 09:00:00,13.1278,80.2642,NO2,12,17,14
India,TamilNadu,Chennai,"Kodungaiyur, Chennai - TNPCB",11-04-2026 09:00:00,13.1278,80.2642,OZONE,25,33,30
India,TamilNadu,Chennai,"Manali Village, Chennai - TNPCB",11-04-2026 09:00:00,13.1662,80.2584,NO2,4,6,5
India,TamilNadu,Chennai,"Manali Village, Chennai - TNPCB",11-04-2026 09:00:00,13.1662,80.2584,SO2,11,14,12
India,Rajasthan,Kota,"Nayapura, Kota - RSPCB",11-04-2026 09:00:00,25.196024,75.855668,NO2,16,114,59
India,Rajasthan,Kota,"Nayapura, Kota - RSPCB",11-04-2026 09:00:00,25.196024,75.855668,SO2,2,25,11
India,Rajasthan,Kota,"Shrinath Puram, Kota - RSPCB",11-04-2026 09:00:00,25.14389,75.821256,PM2.5,66,152,107
India,Rajasthan,Kota,"Shrinath Puram, Kota - RSPCB",11-04-2026 09:00:00,25.14389,75.821256,NO2,5,15,11
India,Rajasthan,Kota,"Shrinath Puram, Kota - RSPCB",11-04-2026 09:00:00,25.14389,75.821256,CO,8,106,35
India,Rajasthan,Nagaur,"Karni Colony, Nagaur - RSPCB",11-04-2026 09:00:00,27.213494,73.734444,OZONE,19,116,58
India,Rajasthan,Pali,"Indira Colony Vistar, Pali - RSPCB",11-04-2026 09:00:00,25.771061, 73.340227,PM10,67,170,124
India,Rajasthan,Pali,"Indira Colony Vistar, Pali - RSPCB",11-04-2026 09:00:00,25.771061, 73.340227,NH3,1,10,4
India,TamilNadu,Chennai,"Manali, Chennai - CPCB",11-04-2026 09:00:00,13.164544,80.26285,NO2,10,13,11
India,TamilNadu,Chennai,"Perungudi, Chennai - TNPCB",11-04-2026 09:00:00,12.9533,80.2357,PM10,24,93,55
India,TamilNadu,Chennai,"Perungudi, Chennai - TNPCB",11-04-2026 09:00:00,12.9533,80.2357,NO2,3,7,4
India,TamilNadu,Chennai,"Perungudi, Chennai - TNPCB",11-04-2026 09:00:00,12.9533,80.2357,SO2,2,9,5
India,TamilNadu,Coimbatore,"PSG College of Arts and Science, Coimbatore - TNPCB",11-04-2026 09:00:00,11.0328,77.0349,PM2.5,48,84,66
India,TamilNadu,Coimbatore,"PSG College of Arts and Science, Coimbatore - TNPCB",11-04-2026 09:00:00,11.0328,77.0349,OZONE,4,7,6
India,TamilNadu,Coimbatore,"SIDCO Kurichi, Coimbatore - TNPCB",11-04-2026 09:00:00,10.942451,76.978996,PM10,44,66,53
India,Rajasthan,Pratapgarh,"Pragati Nagar, Pratapgarh - RSPCB",11-04-2026 09:00:00,24.041198,74.780702,OZONE,58,103,65
India,Rajasthan,Rajsamand,"Dhoinda, Rajsamand - RSPCB",11-04-2026 09:00:00,25.036360,73.883502,NO2,11,68,25
India,Rajasthan,Rajsamand,"Dhoinda, Rajsamand - RSPCB",11-04-2026 09:00:00,25.036360,73.883502,NH3,NA,NA,NA
India,Rajasthan,Rajsamand,"Dhoinda, Rajsamand - RSPCB",11-04-2026 09:00:00,25.036360,73.883502,SO2,4,23,10
India,Rajasthan,Sawai Madhopur,"Sahu Nagar, Sawai Madhopur - RSPCB",11-04-2026 09:00:00,26.031443,76.359327,SO2,NA,NA,NA
India,Rajasthan,Sirohi,"Vedhaynath Colony, Sirohi - RSPCB",11-04-2026 09:00:00,24.885261,72.857549,NO2,3,74,24
India,Rajasthan,Sirohi,"Vedhaynath Colony, Sirohi - RSPCB",11-04-2026 09:00:00,24.885261,72.857549,NH3,1,2,2
India,TamilNadu,Coimbatore,"SIDCO Kurichi, Coimbatore - TNPCB",11-04-2026 09:00:00,10.942451,76.978996,NH3,1,2,1
India,TamilNadu,Coimbatore,"SIDCO Kurichi, Coimbatore - TNPCB",11-04-2026 09:00:00,10.942451,76.978996,SO2,24,26,25
India,TamilNadu,Gummidipoondi,"Anthoni Pillai Nagar, Gummidipoondi - TNPCB",11-04-2026 09:00:00,13.4127,80.1081,PM10,56,271,117
India,TamilNadu,Madurai,"Uchapatti, Madurai - TNPCB",11-04-2026 09:00:00,9.865935,78.022669,PM10,NA,NA,NA
India,TamilNadu,Madurai,"Uchapatti, Madurai - TNPCB",11-04-2026 09:00:00,9.865935,78.022669,OZONE,1,1,1
India,Rajasthan,Jhalawar,"Rajlaxmi Nagar, Jhalawar - RSPCB",11-04-2026 09:00:00,24.588397,76.172782,PM2.5,7,130,54
India,Rajasthan,Jhalawar,"Rajlaxmi Nagar, Jhalawar - RSPCB",11-04-2026 09:00:00,24.588397,76.172782,OZONE,1,139,21
India,Rajasthan,Jodhpur,"Digari Kalan, Jodhpur - RSPCB",11-04-2026 09:00:00,26.295810,73.082283,NO2,9,83,31
India,Rajasthan,Jodhpur,"Digari Kalan, Jodhpur - RSPCB",11-04-2026 09:00:00,26.295810,73.082283,SO2,1,4,2
India,Rajasthan,Jodhpur,"Mandor, Jodhpur - RSPCB",11-04-2026 09:00:00,26.358805,73.047444,SO2,1,9,3
India,Rajasthan,Jodhpur,"Mandor, Jodhpur - RSPCB",11-04-2026 09:00:00,26.358805,73.047444,CO,11,38,16
India,Rajasthan,Jodhpur,"Samrat Ashok Udhyan, Jodhpur - RSPCB",11-04-2026 09:00:00,26.253384,72.976571,PM10,59,234,105
India,Rajasthan,Jodhpur,"Samrat Ashok Udhyan, Jodhpur - RSPCB",11-04-2026 09:00:00,26.253384,72.976571,OZONE,36,143,57
India,Rajasthan,Karauli,"Satyawati Vihar, Karauli - RSPCB",11-04-2026 09:00:00,26.506177,77.025989,NH3,8,19,11
India,Telangana,Hyderabad,"New Malakpet, Hyderabad - TSPCB",11-04-2026 09:00:00,17.37206,78.50864,CO,24,44,25
India,Telangana,Hyderabad,"New Malakpet, Hyderabad - TSPCB",11-04-2026 09:00:00,17.37206,78.50864,OZONE,14,47,20
India,Telangana,Hyderabad,"Ramachandrapuram, Hyderabad - TSPCB",11-04-2026 09:00:00,17.528544,78.286195,PM2.5,41,48,46
India,Telangana,Hyderabad,"Sanathnagar, Hyderabad - TSPCB",11-04-2026 09:00:00,17.4559458,78.4332152,CO,40,52,47
India,Telangana,Hyderabad,"Sanathnagar, Hyderabad - TSPCB",11-04-2026 09:00:00,17.4559458,78.4332152,OZONE,14,19,16
India,Telangana,Hyderabad,"Somajiguda, Hyderabad - TSPCB",11-04-2026 09:00:00,17.417094,78.457437,PM10,80,94,85
India,Telangana,Hyderabad,"Zoo Park, Hyderabad - TSPCB",11-04-2026 09:00:00,17.349694,78.451437,SO2,2,2,2
India,Tripura,Agartala,"Bardowali, Agartala - Tripura SPCB",11-04-2026 09:00:00,23.8175497,91.2726974,NH3,1,5,2
India,Tripura,Agartala,"Bardowali, Agartala - Tripura SPCB",11-04-2026 09:00:00,23.8175497,91.2726974,SO2,2,4,3
India,Tripura,Agartala,"Bardowali, Agartala - Tripura SPCB",11-04-2026 09:00:00,23.8175497,91.2726974,OZONE,2,19,7
India,Uttar_Pradesh,Agra,"Manoharpur, Agra - UPPCB",11-04-2026 09:00:00,27.23711,78.01936,SO2,10,12,11
India,Uttar_Pradesh,Agra,"Rohta, Agra - UPPCB",11-04-2026 09:00:00,27.106972,78.000111,PM2.5,24,227,70
India,Uttar_Pradesh,Agra,"Rohta, Agra - UPPCB",11-04-2026 09:00:00,27.106972,78.000111,PM10,61,176,110
India,Uttar_Pradesh,Agra,"Sanjay Palace, Agra - UPPCB",11-04-2026 09:00:00,27.19865833,78.00598056,CO,34,36,35
India,Uttar_Pradesh,Agra,"Sector-3B Avas Vikas Colony, Agra - UPPCB",11-04-2026 09:00:00,27.19412,77.96237,PM10,75,168,123
India,Uttar_Pradesh,Agra,"Sector-3B Avas Vikas Colony, Agra - UPPCB",11-04-2026 09:00:00,27.19412,77.96237,NH3,6,7,6
India,Uttar_Pradesh,Agra,"Sector-3B Avas Vikas Colony, Agra - UPPCB",11-04-2026 09:00:00,27.19412,77.96237,CO,8,32,16
India,Uttar_Pradesh,Agra,"Shahjahan Garden, Agra - UPPCB",11-04-2026 09:00:00,27.169338,78.03582,PM10,73,160,113
India,Uttar_Pradesh,Agra,"Shastripuram, Agra - UPPCB",11-04-2026 09:00:00,27.19862,77.92066,PM10,47,153,97
India,Uttar_Pradesh,Agra,"Shastripuram, Agra - UPPCB",11-04-2026 09:00:00,27.19862,77.92066,NH3,3,3,3
India,Uttar_Pradesh,Kanpur,"FTI Kidwai Nagar, Kanpur - UPPCB",11-04-2026 09:00:00,26.428282,80.327067,CO,34,38,35
India,Uttar_Pradesh,Kanpur,"NSI Kalyanpur, Kanpur - UPPCB",11-04-2026 09:00:00,26.509954,80.249612,NH3,2,2,2
India,Uttar_Pradesh,Kanpur,"NSI Kalyanpur, Kanpur - UPPCB",11-04-2026 09:00:00,26.509954,80.249612,CO,15,32,21
India,Uttar_Pradesh,Khora,"Prashant Garden, Khora - UPPCB",11-04-2026 09:00:00,28.61119,77.34206,PM10,139,177,159
India,Uttar_Pradesh,Khurja,"Kalindi Kunj, Khurja - UPPCB",11-04-2026 09:00:00,28.2348927,77.8683002,SO2,10,10,10
India,Uttar_Pradesh,Lucknow,"B R Ambedkar University, Lucknow - UPPCB",11-04-2026 09:00:00,26.766433,80.927299,PM2.5,15,79,53
India,Uttar_Pradesh,Lucknow,"B R Ambedkar University, Lucknow - UPPCB",11-04-2026 09:00:00,26.766433,80.927299,SO2,18,20,19
India,Uttar_Pradesh,Lucknow,"Gomti Nagar, Lucknow - UPPCB",11-04-2026 09:00:00,26.868120,81.005119,PM10,75,140,103
India,Uttar_Pradesh,Baghpat,"Sardar Patel Inter College, Baghpat - UPPCB",11-04-2026 09:00:00,28.964949,77.278761,NH3,1,2,2
India,Uttar_Pradesh,Baghpat,"Sardar Patel Inter College, Baghpat - UPPCB",11-04-2026 09:00:00,28.964949,77.278761,CO,60,112,80
India,Uttar_Pradesh,Bareilly,"Civil Lines, Bareilly - UPPCB",11-04-2026 09:00:00,28.359581,79.414455,PM2.5,31,56,38
India,Uttar_Pradesh,Bareilly,"Civil Lines, Bareilly - UPPCB",11-04-2026 09:00:00,28.359581,79.414455,NO2,2,3,2
India,Uttar_Pradesh,Bareilly,"Civil Lines, Bareilly - UPPCB",11-04-2026 09:00:00,28.359581,79.414455,NH3,1,1,1
India,Uttar_Pradesh,Bareilly,"Civil Lines, Bareilly - UPPCB",11-04-2026 09:00:00,28.359581,79.414455,SO2,3,40,20
India,Uttar_Pradesh,Bulandshahr,"Yamunapuram, Bulandshahr - UPPCB",11-04-2026 09:00:00,28.406963,77.849831,PM2.5,22,108,57
India,Uttar_Pradesh,Bulandshahr,"Yamunapuram, Bulandshahr - UPPCB",11-04-2026 09:00:00,28.406963,77.849831,CO,1,62,18
India,Uttar_Pradesh,Firozabad,"Nagla Bhau, Firozabad - UPPCB",11-04-2026 09:00:00,27.168897,78.376960,CO,22,73,26
India,Uttar_Pradesh,Greater Noida,"Knowledge Park - V, Greater Noida - UPPCB",11-04-2026 09:00:00,28.557054,77.453663,NO2,38,76,52
India,Uttar_Pradesh,Greater Noida,"Knowledge Park - V, Greater Noida - UPPCB",11-04-2026 09:00:00,28.557054,77.453663,CO,6,52,30
India,Uttar_Pradesh,Hapur,"Anand Vihar, Hapur - UPPCB",11-04-2026 09:00:00,28.725645,77.749675,NH3,10,16,11
India,Uttar_Pradesh,Hapur,"Anand Vihar, Hapur - UPPCB",11-04-2026 09:00:00,28.725645,77.749675,CO,27,86,61
India,Uttar_Pradesh,Hapur,"Anand Vihar, Hapur - UPPCB",11-04-2026 09:00:00,28.725645,77.749675,OZONE,12,28,13
India,Uttar_Pradesh,Jhansi,"Shivaji Nagar, Jhansi - UPPCB",11-04-2026 09:00:00,25.4547,78.6039,NH3,4,4,4
India,Uttar_Pradesh,Kanpur,"FTI Kidwai Nagar, Kanpur - UPPCB",11-04-2026 09:00:00,26.428282,80.327067,PM2.5,11,106,38
India,Uttar_Pradesh,Kanpur,"FTI Kidwai Nagar, Kanpur - UPPCB",11-04-2026 09:00:00,26.428282,80.327067,PM10,50,129,80
India,TamilNadu,Perundurai,"SIPCOT Industrial Park, Perundurai - TNPCB",11-04-2026 09:00:00,11.258242,77.552761,OZONE,1,30,30
India,TamilNadu,Thoothukudi,"Meelavittan, Thoothukudi - TNPCB",11-04-2026 09:00:00,8.816428 ,78.099039,PM10,49,119,81
India,TamilNadu,Tirupur,"Kumaran College, Tirupur - TNPCB",11-04-2026 09:00:00,11.0973603,77.3228673,SO2,NA,NA,NA
India,Telangana,Hyderabad,"Central University, Hyderabad - TSPCB",11-04-2026 09:00:00,17.460103,78.334361,NH3,3,7,5
India,Telangana,Hyderabad,"Central University, Hyderabad - TSPCB",11-04-2026 09:00:00,17.460103,78.334361,SO2,7,17,11
India,Telangana,Hyderabad,"ECIL Kapra, Hyderabad - TSPCB",11-04-2026 09:00:00,17.470431,78.566959,NH3,4,5,4
India,Telangana,Hyderabad,"ECIL Kapra, Hyderabad - TSPCB",11-04-2026 09:00:00,17.470431,78.566959,CO,19,32,27
India,Telangana,Hyderabad,"ECIL Kapra, Hyderabad - TSPCB",11-04-2026 09:00:00,17.470431,78.566959,OZONE,12,69,12
India,Telangana,Hyderabad,"ICRISAT Patancheru, Hyderabad - TSPCB",11-04-2026 09:00:00,17.518400,78.278777,PM2.5,142,186,165
India,Telangana,Hyderabad,"ICRISAT Patancheru, Hyderabad - TSPCB",11-04-2026 09:00:00,17.518400,78.278777,OZONE,11,64,16
India,Telangana,Hyderabad,"IITH Kandi, Hyderabad - TSPCB",11-04-2026 09:00:00,17.585705,78.126199,NO2,12,17,13
India,Telangana,Hyderabad,"Kokapet, Hyderabad - TSPCB",11-04-2026 09:00:00,17.393559,78.339194,SO2,13,20,16
India,Telangana,Hyderabad,"Kompally Municipal Office, Hyderabad - TSPCB",11-04-2026 09:00:00,17.544899,78.486949,NO2,14,16,14
India,Telangana,Hyderabad,"Nacharam_TSIIC IALA, Hyderabad - TSPCB",11-04-2026 09:00:00,17.429398,78.569354,SO2,10,17,13
India,Uttar_Pradesh,Firozabad,"Vibhab Nagar, Firozabad - UPPCB",11-04-2026 09:00:00,27.1594,78.3953,CO,14,17,16
India,Uttar_Pradesh,Ghaziabad,"Loni, Ghaziabad - UPPCB",11-04-2026 09:00:00,28.757294,77.278792,OZONE,30,82,38
India,Uttar_Pradesh,Ghaziabad,"Vasundhara, Ghaziabad - UPPCB",11-04-2026 09:00:00,28.6603346,77.3572563,NH3,NA,NA,NA
India,Uttar_Pradesh,Meerut,"Pallavpuram Phase 2, Meerut - UPPCB",11-04-2026 09:00:00,29.063510,77.709723,CO,20,50,26
India,Uttar_Pradesh,Modinagar,"SRM University, Modinagar - UPPCB",11-04-2026 09:00:00,28.798171 ,77.540243 ,NH3,3,3,3
India,Uttar_Pradesh,Moradabad,"Buddhi Vihar, Moradabad - UPPCB",11-04-2026 09:00:00,28.83526,78.74460,PM2.5,4,41,23
India,Uttar_Pradesh,Moradabad,"Buddhi Vihar, Moradabad - UPPCB",11-04-2026 09:00:00,28.83526,78.74460,NH3,5,5,5
India,Uttar_Pradesh,Moradabad,"Buddhi Vihar, Moradabad - UPPCB",11-04-2026 09:00:00,28.83526,78.74460,SO2,22,26,23
India,Uttar_Pradesh,Moradabad,"Buddhi Vihar, Moradabad - UPPCB",11-04-2026 09:00:00,28.83526,78.74460,CO,10,36,29
India,Uttar_Pradesh,Moradabad,"Buddhi Vihar, Moradabad - UPPCB",11-04-2026 09:00:00,28.83526,78.74460,OZONE,16,58,18
India,Uttar_Pradesh,Moradabad,"Eco Herbal Park, Moradabad - UPPCB",11-04-2026 09:00:00,28.840739,78.697531,PM10,43,112,71
India,Uttar_Pradesh,Moradabad,"Eco Herbal Park, Moradabad - UPPCB",11-04-2026 09:00:00,28.840739,78.697531,CO,11,32,26
India,Uttar_Pradesh,Moradabad,"Employment Office, Moradabad - UPPCB",11-04-2026 09:00:00,28.88528,78.73880,NH3,4,4,4
India,Uttar_Pradesh,Moradabad,"Jigar Colony, Moradabad - UPPCB",11-04-2026 09:00:00,28.856664,78.772638,PM10,53,101,74
India,Uttar_Pradesh,Moradabad,"Jigar Colony, Moradabad - UPPCB",11-04-2026 09:00:00,28.856664,78.772638,CO,39,40,39
India,Uttar_Pradesh,Moradabad,"Kashiram Nagar, Moradabad - UPPCB",11-04-2026 09:00:00,28.849399,78.742362,PM2.5,3,45,24
India,Uttar_Pradesh,Noida,"Sector-116, Noida - UPPCB",11-04-2026 09:00:00,28.569230,77.393848,PM10,80,145,117
India,Uttar_Pradesh,Prayagraj,"Jhunsi, Prayagraj - UPPCB",11-04-2026 09:00:00,25.425602,81.917152,OZONE,18,60,18
India,Uttar_Pradesh,Prayagraj,"Motilal Nehru NIT, Prayagraj - UPPCB",11-04-2026 09:00:00,25.494,81.863,CO,8,16,12
India,Uttar_Pradesh,Prayagraj,"Nagar Nigam, Prayagraj - UPPCB",11-04-2026 09:00:00,25.44919916 ,81.82735986 ,PM2.5,14,32,23
India,Uttar_Pradesh,Prayagraj,"Nagar Nigam, Prayagraj - UPPCB",11-04-2026 09:00:00,25.44919916 ,81.82735986 ,NH3,4,9,6
India,Uttar_Pradesh,Prayagraj,"Nagar Nigam, Prayagraj - UPPCB",11-04-2026 09:00:00,25.44919916 ,81.82735986 ,OZONE,11,12,12
India,Uttar_Pradesh,Raebareli," Indira Nagar, Raebareli - NTPC Unchahar",11-04-2026 09:00:00,26.207781,81.245571,PM2.5,NA,NA,NA
India,Uttar_Pradesh,Raebareli," Indira Nagar, Raebareli - NTPC Unchahar",11-04-2026 09:00:00,26.207781,81.245571,OZONE,NA,NA,NA
India,Uttar_Pradesh,Varanasi,"Ardhali Bazar, Varanasi - UPPCB",11-04-2026 09:00:00,25.3505986,82.9083074,PM2.5,82,401,150
India,Uttar_Pradesh,Varanasi,"Ardhali Bazar, Varanasi - UPPCB",11-04-2026 09:00:00,25.3505986,82.9083074,PM10,102,434,153
India,Uttar_Pradesh,Varanasi,"Ardhali Bazar, Varanasi - UPPCB",11-04-2026 09:00:00,25.3505986,82.9083074,CO,3,30,14
India,Uttar_Pradesh,Varanasi,"Bhelupur, Varanasi - UPPCB",11-04-2026 09:00:00,25.301778,82.996789,PM2.5,19,69,38
India,Uttar_Pradesh,Varanasi,"Bhelupur, Varanasi - UPPCB",11-04-2026 09:00:00,25.301778,82.996789,OZONE,8,26,12
India,Uttar_Pradesh,Varanasi,"Maldahiya, Varanasi - UPPCB",11-04-2026 09:00:00,25.32393,82.99687,NO2,2,5,3
India,Uttar_Pradesh,Varanasi,"Maldahiya, Varanasi - UPPCB",11-04-2026 09:00:00,25.32393,82.99687,SO2,30,33,31
India,Uttar_Pradesh,Vrindavan,"Omex Eternity, Vrindavan - UPPCB",11-04-2026 09:00:00,27.5714090,77.6557570,OZONE,15,16,15
India,Uttarakhand,Dehradun,"Doon University, Dehradun - UKPCB",11-04-2026 09:00:00,30.269444,78.044167,OZONE,2,85,9
India,Uttar_Pradesh,Moradabad,"Kashiram Nagar, Moradabad - UPPCB",11-04-2026 09:00:00,28.849399,78.742362,NO2,25,25,25
India,Uttar_Pradesh,Moradabad,"Transport Nagar, Moradabad - UPPCB",11-04-2026 09:00:00,28.802625,78.753728,PM2.5,4,58,21
India,Uttar_Pradesh,Muzaffarnagar,"New Mandi, Muzaffarnagar - UPPCB",11-04-2026 09:00:00,29.4723508,77.7194031,PM2.5,20,98,51
India,Uttar_Pradesh,Muzaffarnagar,"New Mandi, Muzaffarnagar - UPPCB",11-04-2026 09:00:00,29.4723508,77.7194031,SO2,8,42,19
India,Uttar_Pradesh,Noida,"Sector - 125, Noida - UPPCB",11-04-2026 09:00:00,28.5447608,77.3231257,NO2,12,75,35
India,West_Bengal,Asansol,"Mahabir Colliery, Asansol - WBPCB",11-04-2026 09:00:00,23.6181830,87.1057180,CO,2,124,91
India,West_Bengal,Asansol,"Trivenidevi Bhalotia College, Asansol - WBPCB",11-04-2026 09:00:00,23.616515,87.119133,SO2,10,14,12
India,West_Bengal,Barrackpore,"SVSPA Campus, Barrackpore - WBPCB",11-04-2026 09:00:00,22.7605581,88.3617589,PM10,47,147,93
India,Uttarakhand,Rishikesh,"Shivaji Nagar, Rishikesh - UKPCB",11-04-2026 09:00:00,30.075911,78.2859547,SO2,1,1,1
India,Uttarakhand,Rishikesh,"Shivaji Nagar, Rishikesh - UKPCB",11-04-2026 09:00:00,30.075911,78.2859547,CO,37,37,37
India,West_Bengal,Asansol,"Asansol Court Area, Asansol - WBPCB",11-04-2026 09:00:00,23.685297,86.945968,PM10,38,123,77
India,West_Bengal,Asansol,"Asansol Court Area, Asansol - WBPCB",11-04-2026 09:00:00,23.685297,86.945968,SO2,11,72,25
India,Uttar_Pradesh,Meerut,"Ganga Nagar, Meerut - UPPCB",11-04-2026 09:00:00,28.999264,77.7590354,CO,32,50,48
India,Uttar_Pradesh,Meerut,"Jai Bhim Nagar, Meerut - UPPCB",11-04-2026 09:00:00,28.9535882,77.7622941,PM10,73,159,119
India,West_Bengal,Asansol,"Evelyn Lodge, Asansol - WBPCB",11-04-2026 09:00:00,23.6979360,86.9443950,OZONE,1,58,11
India,West_Bengal,Asansol,"Mahabir Colliery, Asansol - WBPCB",11-04-2026 09:00:00,23.6181830,87.1057180,PM2.5,2,166,70
India,Uttar_Pradesh,Lucknow,"Kukrail Picnic Spot-1, Lucknow - UPPCB",11-04-2026 09:00:00,26.90723,80.98579,NH3,6,6,6
India,West_Bengal,Durgapur,"PCBL Residential Complex, Durgapur - WBPCB",11-04-2026 09:00:00,23.5087640,87.3544400,CO,48,119,87
India,West_Bengal,Durgapur,"Womens College_City Center, Durgapur - WBPCB",11-04-2026 09:00:00,23.549395,87.300496,PM2.5,33,99,62
India,West_Bengal,Durgapur,"Womens College_City Center, Durgapur - WBPCB",11-04-2026 09:00:00,23.549395,87.300496,NO2,23,36,29
India,West_Bengal,Durgapur,"Womens College_City Center, Durgapur - WBPCB",11-04-2026 09:00:00,23.549395,87.300496,CO,14,57,43
India,West_Bengal,Haldia,"Priyambada Housing Estate, Haldia - WBPCB",11-04-2026 09:00:00,22.06047,88.109737,NO2,10,43,20
India,West_Bengal,Howrah,"Belur Math, Howrah - WBPCB",11-04-2026 09:00:00,22.629801,88.352017,PM2.5,NA,NA,NA
India,West_Bengal,Howrah,"Belur Math, Howrah - WBPCB",11-04-2026 09:00:00,22.629801,88.352017,NH3,NA,NA,NA
India,West_Bengal,Howrah,"Belur Math, Howrah - WBPCB",11-04-2026 09:00:00,22.629801,88.352017,SO2,NA,NA,NA
India,West_Bengal,Howrah,"Belur Math, Howrah - WBPCB",11-04-2026 09:00:00,22.629801,88.352017,CO,NA,NA,NA
India,West_Bengal,Howrah,"Dasnagar, Howrah - WBPCB",11-04-2026 09:00:00,22.6025571,88.3105664,PM2.5,18,214,72
India,West_Bengal,Howrah,"Dasnagar, Howrah - WBPCB",11-04-2026 09:00:00,22.6025571,88.3105664,NO2,3,116,50
India,West_Bengal,Howrah,"Ghusuri, Howrah - WBPCB",11-04-2026 09:00:00,22.611968,88.347422,NH3,2,4,3
India,West_Bengal,Howrah,"Ghusuri, Howrah - WBPCB",11-04-2026 09:00:00,22.611968,88.347422,SO2,9,15,12
India,West_Bengal,Howrah,"Padmapukur, Howrah - WBPCB",11-04-2026 09:00:00,22.5687319,88.2797276,NO2,12,41,17
India,West_Bengal,Kolkata,"Ballygunge, Kolkata - WBPCB",11-04-2026 09:00:00,22.5367507,88.3638022,NH3,10,26,12
India,West_Bengal,Kolkata,"Bidhannagar, Kolkata - WBPCB",11-04-2026 09:00:00,22.58157048,88.41002457,PM2.5,33,158,84
India,West_Bengal,Kolkata,"Jadavpur, Kolkata - WBPCB",11-04-2026 09:00:00,22.49929,88.36917,NO2,9,63,20
India,West_Bengal,Kolkata,"Jadavpur, Kolkata - WBPCB",11-04-2026 09:00:00,22.49929,88.36917,CO,20,70,39
India,West_Bengal,Kolkata,"Jadavpur, Kolkata - WBPCB",11-04-2026 09:00:00,22.49929,88.36917,OZONE,7,90,10
India,West_Bengal,Kolkata,"Rabindra Bharati University, Kolkata - WBPCB",11-04-2026 09:00:00,22.627847,88.380669,SO2,3,11,7
India,West_Bengal,Kolkata,"Rabindra Bharati University, Kolkata - WBPCB",11-04-2026 09:00:00,22.627847,88.380669,CO,26,110,45
India,West_Bengal,Kolkata,"Victoria, Kolkata - WBPCB",11-04-2026 09:00:00,22.5448082,88.3403691,PM10,68,117,91
India,West_Bengal,Kolkata,"Victoria, Kolkata - WBPCB",11-04-2026 09:00:00,22.5448082,88.3403691,OZONE,7,84,16
India,West_Bengal,Siliguri,"Ward-32 Bapupara, Siliguri - WBPCB",11-04-2026 09:00:00,26.6879226,88.4152495,OZONE,11,85,34
India,Andhra_Pradesh,Tirupati,"Vaikuntapuram, Tirupati - APPCB",11-04-2026 09:00:00,13.615387,79.409230,NO2,NA,NA,NA
India,Andhra_Pradesh,Tirupati,"Vaikuntapuram, Tirupati - APPCB",11-04-2026 09:00:00,13.615387,79.409230,SO2,NA,NA,NA
India,Andhra_Pradesh,Tirupati,"Vaikuntapuram, Tirupati - APPCB",11-04-2026 09:00:00,13.615387,79.409230,OZONE,18,40,18
India,Andhra_Pradesh,Vijayawada,"HB Colony, Vijayawada - APPCB",11-04-2026 09:00:00,16.536107,80.594233,NO2,11,25,16
India,Andhra_Pradesh,Vijayawada,"HB Colony, Vijayawada - APPCB",11-04-2026 09:00:00,16.536107,80.594233,NH3,4,5,4
India,Andhra_Pradesh,Vijayawada,"HB Colony, Vijayawada - APPCB",11-04-2026 09:00:00,16.536107,80.594233,OZONE,24,47,40
India,Andhra_Pradesh,Vijayawada,"Kanuru, Vijayawada - APPCB",11-04-2026 09:00:00,16.486692,80.699436,NO2,NA,NA,NA
India,Andhra_Pradesh,Vijayawada,"Kanuru, Vijayawada - APPCB",11-04-2026 09:00:00,16.486692,80.699436,NH3,NA,NA,NA
India,Andhra_Pradesh,Vijayawada,"Rajiv Gandhi Park, Vijayawada - APPCB",11-04-2026 09:00:00,16.509717,80.612222,NO2,10,25,20
India,Andhra_Pradesh,Vijayawada,"Rajiv Nagar, Vijayawada - APPCB",11-04-2026 09:00:00,16.554731,80.649110,PM10,58,87,79
India,Andhra_Pradesh,Vijayawada,"Rajiv Nagar, Vijayawada - APPCB",11-04-2026 09:00:00,16.554731,80.649110,CO,16,44,19
India,Andhra_Pradesh,Visakhapatnam,"GVM Corporation, Visakhapatnam - APPCB",11-04-2026 09:00:00,17.72,83.3,PM2.5,18,66,35
India,Andhra_Pradesh,Guntur,"Rajendra Nagar North, Guntur - APPCB",11-04-2026 09:00:00,16.316553,80.413302,CO,12,34,14
India,Andhra_Pradesh,Kadapa,"Yerramukkapalli, Kadapa - APPCB",11-04-2026 09:00:00,14.465052,78.824187,PM2.5,NA,NA,NA
India,Andhra_Pradesh,Machilipatnam,"Srinivas Nagar Colony, Machilipatnam - APPCB",11-04-2026 09:00:00,16.186555,81.13219,OZONE,28,37,37
India,Andhra_Pradesh,Nellore,"Ambedkar Nagar, Nellore - APPCB ",11-04-2026 09:00:00,14.438164 ,79.966814 ,NH3,1,4,3
India,Andhra_Pradesh,Nellore,"Ambedkar Nagar, Nellore - APPCB ",11-04-2026 09:00:00,14.438164 ,79.966814 ,OZONE,6,30,8
India,Andhra_Pradesh,Rajamahendravaram,"Anand Kala Kshetram, Rajamahendravaram - APPCB",11-04-2026 09:00:00,16.9872867,81.7363176,PM10,29,82,53
India,Andhra_Pradesh,Rajamahendravaram,"Anand Kala Kshetram, Rajamahendravaram - APPCB",11-04-2026 09:00:00,16.9872867,81.7363176,NH3,2,4,2
India,Andhra_Pradesh,Tirumala,"Toll Gate, Tirumala - APPCB",11-04-2026 09:00:00,13.67,79.35,PM2.5,28,74,49
India,Andhra_Pradesh,Amaravati,"Secretariat, Amaravati - APPCB",11-04-2026 09:00:00,16.5150833,80.5181667,PM10,46,107,63
India,Andhra_Pradesh,Amaravati,"Secretariat, Amaravati - APPCB",11-04-2026 09:00:00,16.5150833,80.5181667,OZONE,20,78,24
India,Andhra_Pradesh,Anantapur,"Gulzarpet, Anantapur - APPCB",11-04-2026 09:00:00,14.675886,77.593027,PM2.5,73,96,83
India,Andhra_Pradesh,Chittoor,"Gangineni Cheruvu, Chittoor - APPCB",11-04-2026 09:00:00,13.204880,79.097889,PM2.5,43,65,49
India,Andhra_Pradesh,Chittoor,"Gangineni Cheruvu, Chittoor - APPCB",11-04-2026 09:00:00,13.204880,79.097889,CO,11,28,12
India,Andhra_Pradesh,Eluru,"District Court, Eluru - APPCB",11-04-2026 09:00:00,16.711754,81.092095,PM10,30,108,53
India,Andhra_Pradesh,Eluru,"District Court, Eluru - APPCB",11-04-2026 09:00:00,16.711754,81.092095,NO2,8,17,13
India,Andhra_Pradesh,Eluru,"District Court, Eluru - APPCB",11-04-2026 09:00:00,16.711754,81.092095,NH3,2,5,4
India,Andhra_Pradesh,Guntur,"Rajendra Nagar North, Guntur - APPCB",11-04-2026 09:00:00,16.316553,80.413302,PM10,48,71,56
India,Andhra_Pradesh,Visakhapatnam,"GVM Corporation, Visakhapatnam - APPCB",11-04-2026 09:00:00,17.72,83.3,SO2,1,75,17
India,Arunachal_Pradesh,Naharlagun,"Naharlagun, Naharlagun - APSPCB",11-04-2026 09:00:00,27.103358,93.679645,NH3,1,1,1
India,Assam,Byrnihat,"Central Academy for SFS, Byrnihat - PCBA",11-04-2026 09:00:00,26.071318,91.87488,CO,8,108,69
India,Assam,Guwahati,"IITG, Guwahati - PCBA",11-04-2026 09:00:00,26.2028636,91.70046436,PM2.5,1,48,25
India,Assam,Guwahati,"IITG, Guwahati - PCBA",11-04-2026 09:00:00,26.2028636,91.70046436,CO,4,10,5
India,Assam,Guwahati,"LGBI Airport, Guwahati - PCBA",11-04-2026 09:00:00,26.10887,91.589544,OZONE,12,14,14
India,Assam,Guwahati,"Pan Bazaar, Guwahati - PCBA",11-04-2026 09:00:00,26.187500,91.744194,NO2,NA,NA,NA
India,Bihar,Manguraha,"Forest Rest House, Manguraha - BSPCB",11-04-2026 09:00:00,27.308328,84.531742,NO2,3,9,5
India,Bihar,Manguraha,"Forest Rest House, Manguraha - BSPCB",11-04-2026 09:00:00,27.308328,84.531742,SO2,15,17,17
India,Bihar,Manguraha,"Forest Rest House, Manguraha - BSPCB",11-04-2026 09:00:00,27.308328,84.531742,CO,19,33,32
India,Bihar,Motihari,"Gandak Colony, Motihari - BSPCB",11-04-2026 09:00:00,26.63086,84.90051,NO2,4,13,7
India,Bihar,Motihari,"Gandak Colony, Motihari - BSPCB",11-04-2026 09:00:00,26.63086,84.90051,CO,18,57,21
India,Bihar,Muzaffarpur,"Buddha Colony, Muzaffarpur - BSPCB",11-04-2026 09:00:00,26.11442,85.39813,NO2,26,60,44
India,Bihar,Muzaffarpur,"Buddha Colony, Muzaffarpur - BSPCB",11-04-2026 09:00:00,26.11442,85.39813,NH3,14,22,18
India,Bihar,Muzaffarpur,"Buddha Colony, Muzaffarpur - BSPCB",11-04-2026 09:00:00,26.11442,85.39813,OZONE,29,214,54
India,Bihar,Muzaffarpur,"MIT-Daudpur Kothi, Muzaffarpur - BSPCB",11-04-2026 09:00:00,26.1403345,85.3650192,SO2,12,22,16
India,Bihar,Bhagalpur,"DM Office_Kachari Chowk, Bhagalpur - BSPCB",11-04-2026 09:00:00,25.251013,86.989001,PM10,37,154,84
India,Bihar,Bhagalpur,"DM Office_Kachari Chowk, Bhagalpur - BSPCB",11-04-2026 09:00:00,25.251013,86.989001,CO,1,20,11
India,Bihar,Bhagalpur,"Mayaganj, Bhagalpur - BSPCB",11-04-2026 09:00:00,25.265194,87.012947,CO,66,94,87
India,Bihar,Bhagalpur,"Mayaganj, Bhagalpur - BSPCB",11-04-2026 09:00:00,25.265194,87.012947,OZONE,8,37,10
India,Bihar,Bihar Sharif,"D M Colony, Bihar Sharif - BSPCB",11-04-2026 09:00:00,25.204762,85.514960,CO,52,74,58
India,Bihar,Buxar,"Charitra Van, Buxar - BSPCB",11-04-2026 09:00:00,25.567520,83.966379,PM2.5,40,63,55
India,Assam,Guwahati,"Railway Colony, Guwahati - PCBA",11-04-2026 09:00:00,26.181742,91.78063,PM10,19,50,32
India,Assam,Nagaon,"Christianpatty, Nagaon - PCBA",11-04-2026 09:00:00,26.349082,92.68449,CO,5,26,19
India,Assam,Nalbari,"Bata Chowk, Nalbari - PCBA",11-04-2026 09:00:00,26.446912,91.439057,NO2,13,16,14
India,Assam,Nalbari,"Bata Chowk, Nalbari - PCBA",11-04-2026 09:00:00,26.446912,91.439057,CO,20,23,21
India,Assam,Silchar,"Tarapur, Silchar - PCBA",11-04-2026 09:00:00,24.82827,92.79525,OZONE,2,6,2
India,Bihar,Araria,"Kharahiya Basti, Araria - BSPCB",11-04-2026 09:00:00,26.146529,87.454184,OZONE,9,11,10
India,Bihar,Arrah,"New DM Office, Arrah - BSPCB",11-04-2026 09:00:00,25.5626095,84.663264,NO2,5,9,7
India,Bihar,Arrah,"New DM Office, Arrah - BSPCB",11-04-2026 09:00:00,25.5626095,84.663264,NH3,1,2,2
India,Bihar,Aurangabad,"Gurdeo Nagar, Aurangabad - BSPCB",11-04-2026 09:00:00,24.75746,84.366208,SO2,12,15,14
India,Bihar,Aurangabad,"Gurdeo Nagar, Aurangabad - BSPCB",11-04-2026 09:00:00,24.75746,84.366208,CO,101,103,102
India,Bihar,Muzaffarpur,"Muzaffarpur Collectorate, Muzaffarpur - BSPCB",11-04-2026 09:00:00,26.1209,85.3647,CO,18,46,21
India,Bihar,Patna,"DRM Office Danapur, Patna - BSPCB",11-04-2026 09:00:00,25.586562,85.043586,OZONE,10,16,10
India,Bihar,Patna,"Govt. High School Shikarpur, Patna - BSPCB",11-04-2026 09:00:00,25.592539,85.227158,PM10,104,432,173
India,Bihar,Gaya,"SFTI Kusdihra, Gaya - BSPCB",11-04-2026 09:00:00,24.762518,84.982348,SO2,6,9,8
India,Bihar,Gaya,"SFTI Kusdihra, Gaya - BSPCB",11-04-2026 09:00:00,24.762518,84.982348,OZONE,15,53,19
India,Bihar,Kishanganj,"SDM Office_Khagra, Kishanganj - BSPCB",11-04-2026 09:00:00,26.0881305,87.93840336,SO2,3,7,5
India,Chhattisgarh,Raipur,"Bhatagaon New ISBT, Raipur - CECB",11-04-2026 09:00:00,21.219665,81.630094,PM10,40,127,74
India,Chhattisgarh,Raipur,"Bhatagaon New ISBT, Raipur - CECB",11-04-2026 09:00:00,21.219665,81.630094,CO,20,82,50
India,Chhattisgarh,Raipur,"Krishak Nagar, Raipur - CECB",11-04-2026 09:00:00,21.237755,81.705301,NH3,2,2,2
India,Chhattisgarh,Raipur,"Krishak Nagar, Raipur - CECB",11-04-2026 09:00:00,21.237755,81.705301,SO2,6,18,9
India,Chhattisgarh,Raipur,"Krishak Nagar, Raipur - CECB",11-04-2026 09:00:00,21.237755,81.705301,OZONE,1,44,1
India,Chhattisgarh,Raipur,"Siltara Phase-II, Raipur - CECB",11-04-2026 09:00:00,21.371751,81.664929,PM10,49,153,99
India,Chhattisgarh,Raipur,"Siltara Phase-II, Raipur - CECB",11-04-2026 09:00:00,21.371751,81.664929,NO2,11,56,24
India,Delhi,Delhi,"Alipur, Delhi - DPCC",11-04-2026 09:00:00,28.815329,77.153010,NH3,11,12,12
India,Chhattisgarh,Chhal,"Nawapara SECL Colony, Chhal - CECB",11-04-2026 09:00:00,22.118125,83.140608,NH3,5,5,5
India,Chhattisgarh,Korba,"Rampur, Korba - CECB",11-04-2026 09:00:00,22.368195,82.746431,CO,8,35,18
India,Chhattisgarh,Korba,"Urja Nagar, Korba - CECB",11-04-2026 09:00:00,22.348441,82.549611,NO2,16,22,20
India,Chhattisgarh,Korba,"Urja Nagar, Korba - CECB",11-04-2026 09:00:00,22.348441,82.549611,NH3,1,1,1
India,Chhattisgarh,Kunjemura,"OP Jindal School, Kunjemura - CECB",11-04-2026 09:00:00,22.126650,83.483212,NO2,13,71,40
India,Chhattisgarh,Raipur,"AIIMS, Raipur - CECB",11-04-2026 09:00:00,21.258815,81.578979,NO2,22,40,32
India,Chhattisgarh,Raipur,"AIIMS, Raipur - CECB",11-04-2026 09:00:00,21.258815,81.578979,CO,20,43,37
India,Chandigarh,Chandigarh,"Sector 22, Chandigarh - CPCC",11-04-2026 09:00:00,30.735567,76.775714,PM2.5,18,58,36
India,Chandigarh,Chandigarh,"Sector-25, Chandigarh - CPCC",11-04-2026 09:00:00,30.751462,76.762879,PM2.5,18,47,33
India,Chandigarh,Chandigarh,"Sector-25, Chandigarh - CPCC",11-04-2026 09:00:00,30.751462,76.762879,PM10,29,45,38
India,Chandigarh,Chandigarh,"Sector-25, Chandigarh - CPCC",11-04-2026 09:00:00,30.751462,76.762879,NH3,10,11,11
India,Chandigarh,Chandigarh,"Sector-25, Chandigarh - CPCC",11-04-2026 09:00:00,30.751462,76.762879,CO,8,15,11
India,Chandigarh,Chandigarh,"Sector-53, Chandigarh - CPCC",11-04-2026 09:00:00,30.719859,76.738637,PM2.5,3,33,18
India,Chandigarh,Chandigarh,"Sector-53, Chandigarh - CPCC",11-04-2026 09:00:00,30.719859,76.738637,NH3,13,14,14
India,Chhattisgarh,Bhilai,"32Bungalows, Bhilai - CECB",11-04-2026 09:00:00,21.194815,81.314770,NH3,3,10,4
India,Chhattisgarh,Bhilai,"Civic Center, Bhilai - Bhilai Steel Plant",11-04-2026 09:00:00,21.185571,81.343175,NH3,3,3,3
India,Chhattisgarh,Bhilai,"Civic Center, Bhilai - Bhilai Steel Plant",11-04-2026 09:00:00,21.185571,81.343175,OZONE,9,13,10
India,Bihar,Patna,"Govt. High School Shikarpur, Patna - BSPCB",11-04-2026 09:00:00,25.592539,85.227158,SO2,4,7,5
India,Bihar,Patna,"IGSC Planetarium Complex, Patna - BSPCB",11-04-2026 09:00:00,25.610369,85.132568,SO2,2,21,11
India,Bihar,Patna,"IGSC Planetarium Complex, Patna - BSPCB",11-04-2026 09:00:00,25.610369,85.132568,OZONE,59,60,59
India,Bihar,Patna,"Muradpur, Patna - BSPCB",11-04-2026 09:00:00,25.619651,85.147382,PM10,116,416,172
India,Bihar,Saharsa,"Police Line, Saharsa - BSPCB",11-04-2026 09:00:00,25.892357,86.590325,PM10,32,154,91
India,Bihar,Samastipur,"DM Office_Kasipur, Samastipur - BSPCB",11-04-2026 09:00:00,25.859655,85.77944,PM2.5,NA,NA,NA
India,Bihar,Samastipur,"DM Office_Kasipur, Samastipur - BSPCB",11-04-2026 09:00:00,25.859655,85.77944,CO,4,4,4
India,Bihar,Rajgir,"Dangi Tola, Rajgir - BSPCB",11-04-2026 09:00:00,25.03280,85.41948,PM10,18,50,35
India,Bihar,Rajgir,"Dangi Tola, Rajgir - BSPCB",11-04-2026 09:00:00,25.03280,85.41948,NO2,13,15,14
India,Bihar,Rajgir,"Dangi Tola, Rajgir - BSPCB",11-04-2026 09:00:00,25.03280,85.41948,NH3,3,3,3
India,Bihar,Rajgir,"Dangi Tola, Rajgir - BSPCB",11-04-2026 09:00:00,25.03280,85.41948,CO,33,48,41
India,Bihar,Patna,"Rajbansi Nagar, Patna - BSPCB",11-04-2026 09:00:00,25.599486,85.113666,OZONE,26,38,31
India,Bihar,Patna,"Samanpura, Patna - BSPCB",11-04-2026 09:00:00,25.596727,85.085624,PM10,93,163,138
India,Bihar,Patna,"Samanpura, Patna - BSPCB",11-04-2026 09:00:00,25.596727,85.085624,CO,39,110,91
India,Chhattisgarh,Bilaspur,"Mangala, Bilaspur - NTPC",11-04-2026 09:00:00,22.08815,82.13737,PM10,44,103,68
India,Chhattisgarh,Chhal,"Nawapara SECL Colony, Chhal - CECB",11-04-2026 09:00:00,22.118125,83.140608,NO2,12,31,19
India,Delhi,Delhi,"Jawaharlal Nehru Stadium, Delhi - DPCC",11-04-2026 09:00:00,28.580280,77.233829,NH3,NA,NA,NA
India,Delhi,Delhi,"Jawaharlal Nehru Stadium, Delhi - DPCC",11-04-2026 09:00:00,28.580280,77.233829,OZONE,NA,NA,NA
India,Delhi,Delhi,"Lodhi Road, Delhi - IMD",11-04-2026 09:00:00,28.5918245,77.2273074,PM2.5,9,69,48
India,Delhi,Delhi,"Lodhi Road, Delhi - IMD",11-04-2026 09:00:00,28.5918245,77.2273074,PM10,54,130,100
India,Delhi,Delhi,"Mandir Marg, Delhi - DPCC",11-04-2026 09:00:00,28.636429,77.201067,PM2.5,97,302,150
India,Delhi,Delhi,"Mandir Marg, Delhi - DPCC",11-04-2026 09:00:00,28.636429,77.201067,NH3,7,14,11
India,Delhi,Delhi,"Mandir Marg, Delhi - DPCC",11-04-2026 09:00:00,28.636429,77.201067,OZONE,25,44,28
India,Delhi,Delhi,"Mundka, Delhi - DPCC",11-04-2026 09:00:00,28.684678,77.076574,PM10,117,197,148
India,Delhi,Delhi,"Mundka, Delhi - DPCC",11-04-2026 09:00:00,28.684678,77.076574,OZONE,8,30,11
India,Delhi,Delhi,"NSIT Dwarka, Delhi - CPCB",11-04-2026 09:00:00,28.60909,77.0325413,NO2,74,108,92
India,Delhi,Delhi,"NSIT Dwarka, Delhi - CPCB",11-04-2026 09:00:00,28.60909,77.0325413,CO,29,94,38
India,Delhi,Delhi,"NSUT Jaffarpur, Delhi - DPCC",11-04-2026 09:00:00,28.594004 ,76.909423 ,NO2,6,95,27
India,Delhi,Delhi,"Najafgarh, Delhi - DPCC",11-04-2026 09:00:00,28.570173,76.933762,CO,8,107,40
India,Delhi,Delhi,"Narela, Delhi - DPCC",11-04-2026 09:00:00,28.822836,77.101981,PM10,95,185,134
India,Delhi,Delhi,"Narela, Delhi - DPCC",11-04-2026 09:00:00,28.822836,77.101981,NO2,7,25,14
India,Delhi,Delhi,"Narela, Delhi - DPCC",11-04-2026 09:00:00,28.822836,77.101981,SO2,1,31,12
India,Delhi,Delhi,"Narela, Delhi - DPCC",11-04-2026 09:00:00,28.822836,77.101981,OZONE,22,51,28
India,Delhi,Delhi,"Nehru Nagar, Delhi - DPCC",11-04-2026 09:00:00,28.567890,77.250515,OZONE,17,53,28
India,Delhi,Delhi,"Okhla Phase-2, Delhi - DPCC",11-04-2026 09:00:00,28.530785,77.271255,NO2,31,100,57
India,Delhi,Delhi,"Anand Vihar, Delhi - DPCC",11-04-2026 09:00:00,28.647622,77.3158090,CO,20,86,32
India,Delhi,Delhi,"Anand Vihar, Delhi - DPCC",11-04-2026 09:00:00,28.647622,77.3158090,OZONE,15,57,28
India,Delhi,Delhi,"Ashok Vihar, Delhi - DPCC",11-04-2026 09:00:00,28.695381,77.181665,PM10,100,414,199
India,Delhi,Delhi,"Aya Nagar, Delhi - IMD",11-04-2026 09:00:00,28.4706914,77.1099364,NO2,6,42,19
India,Delhi,Delhi,"Bawana, Delhi - DPCC",11-04-2026 09:00:00,28.776200,77.051074,PM2.5,23,316,96
India,Delhi,Delhi,"Bawana, Delhi - DPCC",11-04-2026 09:00:00,28.776200,77.051074,PM10,105,201,143
India,Delhi,Delhi,"IIT Delhi, Delhi - IITM",11-04-2026 09:00:00,28.542460,77.191651,CO,71,88,82
India,Delhi,Delhi,"IIT Delhi, Delhi - IITM",11-04-2026 09:00:00,28.542460,77.191651,OZONE,14,48,23
India,Delhi,Delhi,"JNU, Delhi - DPCC",11-04-2026 09:00:00,28.540721 ,77.168544 ,NO2,6,43,18
India,Delhi,Delhi,"JNU, Delhi - DPCC",11-04-2026 09:00:00,28.540721 ,77.168544 ,CO,21,62,48
India,Delhi,Delhi,"JNU, Delhi - DPCC",11-04-2026 09:00:00,28.540721 ,77.168544 ,OZONE,17,36,23
India,Delhi,Delhi,"Jahangirpuri, Delhi - DPCC",11-04-2026 09:00:00,28.732820,77.170633,PM2.5,70,243,131
India,Delhi,Delhi,"Jahangirpuri, Delhi - DPCC",11-04-2026 09:00:00,28.732820,77.170633,NH3,9,16,11
India,Delhi,Delhi,"Patparganj, Delhi - DPCC",11-04-2026 09:00:00,28.623763,77.287209,CO,39,71,52
India,Delhi,Delhi,"Punjabi Bagh, Delhi - DPCC",11-04-2026 09:00:00,28.674045,77.131023,NO2,16,44,28
India,Delhi,Delhi,"Punjabi Bagh, Delhi - DPCC",11-04-2026 09:00:00,28.674045,77.131023,NH3,3,4,4
India,Delhi,Delhi,"Punjabi Bagh, Delhi - DPCC",11-04-2026 09:00:00,28.674045,77.131023,CO,34,53,47
India,Delhi,Delhi,"Pusa, Delhi - DPCC",11-04-2026 09:00:00,28.639652,77.146275,CO,37,106,67
India,Delhi,Delhi,"Chandni Chowk, Delhi - IITM",11-04-2026 09:00:00,28.656756,77.227234,NH3,7,10,8
India,Delhi,Delhi,"Commonwealth Sports Complex, Delhi - DPCC",11-04-2026 09:00:00,28.615828 ,77.271992 ,SO2,25,32,28
India,Delhi,Delhi,"Commonwealth Sports Complex, Delhi - DPCC",11-04-2026 09:00:00,28.615828 ,77.271992 ,OZONE,8,171,54
India,Delhi,Delhi,"IGI Airport (T3), Delhi - IMD",11-04-2026 09:00:00,28.5627763,77.1180053,PM10,39,139,109
India,Delhi,Delhi,"IGI Airport (T3), Delhi - IMD",11-04-2026 09:00:00,28.5627763,77.1180053,CO,22,46,41
India,Delhi,Delhi,"IGNOU_Maidan Garhi, Delhi - DPCC",11-04-2026 09:00:00,28.493624 ,77.201159 ,NO2,12,70,29
India,Delhi,Delhi,"Dr. Karni Singh Shooting Range, Delhi - DPCC",11-04-2026 09:00:00,28.498571,77.264840,OZONE,30,73,39
India,Delhi,Delhi,"Dwarka-Sector 8, Delhi - DPCC ",11-04-2026 09:00:00,28.5710274,77.0719006,PM2.5,38,325,96
India,Delhi,Delhi,"Okhla Phase-2, Delhi - DPCC",11-04-2026 09:00:00,28.530785,77.271255,SO2,19,39,27
India,Delhi,Delhi,"Vivek Vihar, Delhi - DPCC",11-04-2026 09:00:00,28.672342,77.315260,PM10,89,151,122
India,Delhi,Delhi,"Vivek Vihar, Delhi - DPCC",11-04-2026 09:00:00,28.672342,77.315260,NO2,28,74,45
India,Delhi,Delhi,"Wazirpur, Delhi - DPCC",11-04-2026 09:00:00,28.699793,77.165453,PM2.5,51,263,89
India,Delhi,Delhi,"Wazirpur, Delhi - DPCC",11-04-2026 09:00:00,28.699793,77.165453,PM10,110,326,210
India,Gujarat,Ahmedabad,"Chandkheda, Ahmedabad - IITM",11-04-2026 09:00:00,23.107969,72.574648,PM10,85,405,167
India,Gujarat,Ahmedabad,"Chandkheda, Ahmedabad - IITM",11-04-2026 09:00:00,23.107969,72.574648,CO,6,142,41
India,Gujarat,Ahmedabad,"Chandkheda, Ahmedabad - IITM",11-04-2026 09:00:00,23.107969,72.574648,OZONE,1,132,14
India,Gujarat,Ahmedabad,"Gyaspur, Ahmedabad - IITM",11-04-2026 09:00:00,22.977134,72.553024,PM2.5,40,319,168
India,Gujarat,Ahmedabad,"Gyaspur, Ahmedabad - IITM",11-04-2026 09:00:00,22.977134,72.553024,NO2,NA,NA,NA
India,Gujarat,Ahmedabad,"Gyaspur, Ahmedabad - IITM",11-04-2026 09:00:00,22.977134,72.553024,NH3,2,54,19
India,Gujarat,Ahmedabad,"Gyaspur, Ahmedabad - IITM",11-04-2026 09:00:00,22.977134,72.553024,CO,48,138,103
India,Gujarat,Ahmedabad,"Gyaspur, Ahmedabad - IITM",11-04-2026 09:00:00,22.977134,72.553024,OZONE,1,98,1
India,Gujarat,Mehsana,"Sadanand Nagar, Mehsana - Nexteng Enviro",11-04-2026 09:00:00,23.593150,72.372792,NH3,1,4,3
India,Gujarat,Mehsana,"Sadanand Nagar, Mehsana - Nexteng Enviro",11-04-2026 09:00:00,23.593150,72.372792,OZONE,10,21,11
India,Gujarat,Nandesari,"GIDC, Nandesari - Nandesari Ind. Association",11-04-2026 09:00:00,22.410802,73.097923,PM10,37,141,84
India,Gujarat,Nandesari,"GIDC, Nandesari - Nandesari Ind. Association",11-04-2026 09:00:00,22.410802,73.097923,SO2,3,10,4
India,Gujarat,Rajkot,"Mavdi, Rajkot - Nexteng Enviro ",11-04-2026 09:00:00,22.248853,70.776774,PM10,58,136,92
India,Gujarat,Rajkot,"Mavdi, Rajkot - Nexteng Enviro ",11-04-2026 09:00:00,22.248853,70.776774,SO2,12,30,20
India,Gujarat,Surat,"Katargam, Surat - Nexteng Enviro",11-04-2026 09:00:00,21.217779 ,72.834787 ,CO,32,46,36
India,Gujarat,Surat,"Science Center, Surat - SMC",11-04-2026 09:00:00,21.170046,72.795405,PM10,80,139,107
India,Gujarat,Surat,"Science Center, Surat - SMC",11-04-2026 09:00:00,21.170046,72.795405,CO,40,65,50
India,Delhi,Delhi,"Shadipur, Delhi - CPCB",11-04-2026 09:00:00,28.6514781,77.1473105,NO2,28,48,40
India,Delhi,Delhi,"Sirifort, Delhi - CPCB",11-04-2026 09:00:00,28.5504249,77.2159377,PM10,101,141,116
India,Delhi,Delhi,"Sirifort, Delhi - CPCB",11-04-2026 09:00:00,28.5504249,77.2159377,CO,1,26,7
India,Delhi,Delhi,"Sonia Vihar, Delhi - DPCC",11-04-2026 09:00:00,28.710508,77.249485,SO2,25,44,35
India,Delhi,Delhi,"Sri Aurobindo Marg, Delhi - DPCC",11-04-2026 09:00:00,28.531346,77.190156,NO2,6,32,18
India,Delhi,Delhi,"Sri Aurobindo Marg, Delhi - DPCC",11-04-2026 09:00:00,28.531346,77.190156,NH3,4,7,4
India,Delhi,Delhi,"Sri Aurobindo Marg, Delhi - DPCC",11-04-2026 09:00:00,28.531346,77.190156,SO2,5,17,11
India,Delhi,Delhi,"Talkatora Garden, Delhi - DPCC",11-04-2026 09:00:00,28.621810,77.1944633,NO2,7,20,13
India,Delhi,Delhi,"Talkatora Garden, Delhi - DPCC",11-04-2026 09:00:00,28.621810,77.1944633,NH3,2,12,8
India,Gujarat,Ahmedabad,"Raikhad, Ahmedabad - IITM",11-04-2026 09:00:00,23.020509,72.579261,NH3,4,10,6
India,Gujarat,Ahmedabad,"Raikhad, Ahmedabad - IITM",11-04-2026 09:00:00,23.020509,72.579261,SO2,2,63,21
India,Gujarat,Ahmedabad,"Raikhad, Ahmedabad - IITM",11-04-2026 09:00:00,23.020509,72.579261,OZONE,1,66,4
India,Gujarat,Ahmedabad,"Rakhial, Ahmedabad - IITM",11-04-2026 09:00:00,23.016834,72.625775,PM10,95,414,205
India,Gujarat,Ahmedabad,"Rakhial, Ahmedabad - IITM",11-04-2026 09:00:00,23.016834,72.625775,CO,1,166,64
India,Gujarat,Ahmedabad,"SAC ISRO Bopal, Ahmedabad - IITM",11-04-2026 09:00:00,23.041137,72.456691,PM10,82,177,126
India,Gujarat,Ahmedabad,"SAC ISRO Bopal, Ahmedabad - IITM",11-04-2026 09:00:00,23.041137,72.456691,SO2,6,38,14
India,Gujarat,Ahmedabad,"SAC ISRO Bopal, Ahmedabad - IITM",11-04-2026 09:00:00,23.041137,72.456691,OZONE,2,119,17
India,Gujarat,Ahmedabad,"SAC ISRO Satellite, Ahmedabad - IITM",11-04-2026 09:00:00,23.023389,72.515201,NH3,1,18,6
India,Gujarat,Ahmedabad,"SAC ISRO Satellite, Ahmedabad - IITM",11-04-2026 09:00:00,23.023389,72.515201,SO2,6,52,18
India,Gujarat,Ahmedabad,"SVPI Airport Hansol, Ahmedabad - IITM",11-04-2026 09:00:00,23.076793,72.627874,SO2,2,35,11
India,Gujarat,Ankleshwar,"GIDC, Ankleshwar - GPCB",11-04-2026 09:00:00,21.613267,73.010555,NO2,26,34,33
India,Gujarat,Ankleshwar,"GIDC, Ankleshwar - GPCB",11-04-2026 09:00:00,21.613267,73.010555,NH3,4,8,7
India,Gujarat,Bhavnagar,"Vidhyanagar, Bhavnagar - Nexteng Enviro",11-04-2026 09:00:00,21.755417,72.139056,NH3,3,4,3
India,Gujarat,Bhavnagar,"Vidhyanagar, Bhavnagar - Nexteng Enviro",11-04-2026 09:00:00,21.755417,72.139056,SO2,5,8,7
