country,state,city,station,last_update,latitude,longitude,pollutant_id,min_value,max_value,avg_value
India,Andhra_Pradesh,Vijayawada,"Rajiv Gandhi Park, Vijayawada - APPCB",25-10-2025 07:00:00,16.509717,80.612222,OZONE,23,30,25
India,Andhra_Pradesh,Vijayawada,"Rajiv Nagar, Vijayawada - APPCB",25-10-2025 07:00:00,16.554731,80.649110,CO,24,44,40
India,Andhra_Pradesh,Visakhapatnam,"GVM Corporation, Visakhapatnam - APPCB",25-10-2025 07:00:00,17.72,83.3,PM2.5,12,65,44
India,Andhra_Pradesh,Visakhapatnam,"GVM Corporation, Visakhapatnam - APPCB",25-10-2025 07:00:00,17.72,83.3,PM10,20,92,50
India,Andhra_Pradesh,Visakhapatnam,"GVM Corporation, Visakhapatnam - APPCB",25-10-2025 07:00:00,17.72,83.3,NO2,6,67,29
India,Andhra_Pradesh,Visakhapatnam,"GVM Corporation, Visakhapatnam - APPCB",25-10-2025 07:00:00,17.72,83.3,CO,2,124,13
India,Arunachal_Pradesh,Naharlagun,"Naharlagun, Naharlagun - APSPCB",25-10-2025 07:00:00,27.103358,93.679645,SO2,8,8,8
India,Bihar,Bihar Sharif,"D M Colony, Bihar Sharif - BSPCB",25-10-2025 07:00:00,25.204762,85.514960,OZONE,23,36,30
India,Bihar,Buxar,"Charitra Van, Buxar - BSPCB",25-10-2025 07:00:00,25.567520,83.966379,NH3,3,3,3
India,Bihar,Buxar,"Charitra Van, Buxar - BSPCB",25-10-2025 07:00:00,25.567520,83.966379,CO,22,28,25
India,Bihar,Buxar,"Charitra Van, Buxar - BSPCB",25-10-2025 07:00:00,25.567520,83.966379,OZONE,1,89,1
India,Bihar,Chhapra,"Darshan Nagar, Chhapra - BSPCB",25-10-2025 07:00:00,25.7808257,84.7446768,NH3,2,3,3
India,Bihar,Chhapra,"Darshan Nagar, Chhapra - BSPCB",25-10-2025 07:00:00,25.7808257,84.7446768,SO2,20,21,20
India,Bihar,Gaya,"Collectorate, Gaya - BSPCB",25-10-2025 07:00:00,24.7955,84.9994,NO2,NA,NA,NA
India,Assam,Byrnihat,"Central Academy for SFS, Byrnihat - PCBA",25-10-2025 07:00:00,26.071318,91.87488,CO,NA,NA,NA
India,Assam,Guwahati,"IITG, Guwahati - PCBA",25-10-2025 07:00:00,26.2028636,91.70046436,PM2.5,4,88,38
India,Assam,Guwahati,"IITG, Guwahati - PCBA",25-10-2025 07:00:00,26.2028636,91.70046436,NO2,1,7,3
India,Assam,Guwahati,"IITG, Guwahati - PCBA",25-10-2025 07:00:00,26.2028636,91.70046436,OZONE,1,39,6
India,Assam,Guwahati,"LGBI Airport, Guwahati - PCBA",25-10-2025 07:00:00,26.10887,91.589544,SO2,3,16,11
India,Assam,Guwahati,"Railway Colony, Guwahati - PCBA",25-10-2025 07:00:00,26.181742,91.78063,PM2.5,NA,NA,NA
India,Assam,Guwahati,"Railway Colony, Guwahati - PCBA",25-10-2025 07:00:00,26.181742,91.78063,PM10,NA,NA,NA
India,Bihar,Katihar,"Mirchaibari, Katihar - BSPCB",25-10-2025 07:00:00,25.560083,87.553265,CO,47,83,64
India,Bihar,Kishanganj,"SDM Office_Khagra, Kishanganj - BSPCB",25-10-2025 07:00:00,26.0881305,87.93840336,NO2,7,8,8
India,Bihar,Kishanganj,"SDM Office_Khagra, Kishanganj - BSPCB",25-10-2025 07:00:00,26.0881305,87.93840336,NH3,2,3,3
India,Bihar,Manguraha,"Forest Rest House, Manguraha - BSPCB",25-10-2025 07:00:00,27.308328,84.531742,NH3,1,3,2
India,Bihar,Manguraha,"Forest Rest House, Manguraha - BSPCB",25-10-2025 07:00:00,27.308328,84.531742,SO2,16,17,17
India,Bihar,Motihari,"Gandak Colony, Motihari - BSPCB",25-10-2025 07:00:00,26.63086,84.90051,NO2,7,9,8
India,Andhra_Pradesh,Kadapa,"Yerramukkapalli, Kadapa - APPCB",25-10-2025 07:00:00,14.465052,78.824187,SO2,NA,NA,NA
India,Andhra_Pradesh,Kadapa,"Yerramukkapalli, Kadapa - APPCB",25-10-2025 07:00:00,14.465052,78.824187,OZONE,10,16,11
India,Andhra_Pradesh,Tirumala,"Toll Gate, Tirumala - APPCB",25-10-2025 07:00:00,13.67,79.35,OZONE,8,58,11
India,Andhra_Pradesh,Tirupati,"Vaikuntapuram, Tirupati - APPCB",25-10-2025 07:00:00,13.615387,79.409230,PM2.5,NA,NA,NA
India,Andhra_Pradesh,Vijayawada,"HB Colony, Vijayawada - APPCB",25-10-2025 07:00:00,16.536107,80.594233,PM2.5,46,80,62
India,Bihar,Arrah,"New DM Office, Arrah - BSPCB",25-10-2025 07:00:00,25.5626095,84.663264,NO2,5,10,7
India,Bihar,Arrah,"New DM Office, Arrah - BSPCB",25-10-2025 07:00:00,25.5626095,84.663264,CO,38,74,49
India,Bihar,Aurangabad,"Gurdeo Nagar, Aurangabad - BSPCB",25-10-2025 07:00:00,24.75746,84.366208,NH3,1,2,2
India,Bihar,Aurangabad,"Gurdeo Nagar, Aurangabad - BSPCB",25-10-2025 07:00:00,24.75746,84.366208,OZONE,6,62,8
India,Bihar,Begusarai,"Lohiyanagar, Begusarai - BSPCB",25-10-2025 07:00:00,25.42742023,86.13886079,PM2.5,104,141,121
India,Bihar,Begusarai,"Lohiyanagar, Begusarai - BSPCB",25-10-2025 07:00:00,25.42742023,86.13886079,SO2,44,68,55
India,Bihar,Bettiah,"Kamalnath Nagar, Bettiah - BSPCB",25-10-2025 07:00:00,26.80365,84.51954,CO,50,104,87
India,Bihar,Bhagalpur,"Mayaganj, Bhagalpur - BSPCB",25-10-2025 07:00:00,25.265194,87.012947,NH3,4,8,6
India,Assam,Nagaon,"Christianpatty, Nagaon - PCBA",25-10-2025 07:00:00,26.349082,92.68449,NO2,1,1,1
India,Assam,Silchar,"Tarapur, Silchar - PCBA",25-10-2025 07:00:00,24.82827,92.79525,PM10,30,52,41
India,Bihar,Hajipur,"Industrial Area, Hajipur - BSPCB",25-10-2025 07:00:00,25.697189,85.245900,NH3,4,13,7
India,Bihar,Katihar,"Mirchaibari, Katihar - BSPCB",25-10-2025 07:00:00,25.560083,87.553265,SO2,12,20,16
India,Andhra_Pradesh,Chittoor,"Gangineni Cheruvu, Chittoor - APPCB",25-10-2025 07:00:00,13.204880,79.097889,NO2,NA,NA,NA
India,Andhra_Pradesh,Chittoor,"Gangineni Cheruvu, Chittoor - APPCB",25-10-2025 07:00:00,13.204880,79.097889,NH3,NA,NA,NA
India,Andhra_Pradesh,Chittoor,"Gangineni Cheruvu, Chittoor - APPCB",25-10-2025 07:00:00,13.204880,79.097889,SO2,NA,NA,NA
India,Chhattisgarh,Tumidih,"OP Jindal Industrial Park, Tumidih - CECB",25-10-2025 07:00:00,22.06631475,83.33820077,CO,28,70,32
India,Chhattisgarh,Tumidih,"OP Jindal Industrial Park, Tumidih - CECB",25-10-2025 07:00:00,22.06631475,83.33820077,OZONE,3,119,5
India,Delhi,Delhi,"Alipur, Delhi - DPCC",25-10-2025 07:00:00,28.815329,77.153010,PM2.5,87,375,261
India,Delhi,Delhi,"Alipur, Delhi - DPCC",25-10-2025 07:00:00,28.815329,77.153010,NO2,19,109,68
India,Delhi,Delhi,"Alipur, Delhi - DPCC",25-10-2025 07:00:00,28.815329,77.153010,SO2,4,16,8
India,Delhi,Delhi,"Anand Vihar, Delhi - DPCC",25-10-2025 07:00:00,28.647622,77.3158090,PM2.5,95,442,328
India,Delhi,Delhi,"Anand Vihar, Delhi - DPCC",25-10-2025 07:00:00,28.647622,77.3158090,PM10,137,500,412
India,Bihar,Patna,"Govt. High School Shikarpur, Patna - BSPCB",25-10-2025 07:00:00,25.592539,85.227158,PM2.5,39,60,45
India,Bihar,Patna,"Govt. High School Shikarpur, Patna - BSPCB",25-10-2025 07:00:00,25.592539,85.227158,SO2,8,9,8
India,Bihar,Patna,"IGSC Planetarium Complex, Patna - BSPCB",25-10-2025 07:00:00,25.610369,85.132568,CO,34,62,62
India,Bihar,Patna,"Muradpur, Patna - BSPCB",25-10-2025 07:00:00,25.619651,85.147382,PM10,92,258,177
India,Bihar,Patna,"Muradpur, Patna - BSPCB",25-10-2025 07:00:00,25.619651,85.147382,CO,29,63,47
India,Bihar,Patna,"Muradpur, Patna - BSPCB",25-10-2025 07:00:00,25.619651,85.147382,OZONE,4,40,5
India,Bihar,Patna,"Rajbansi Nagar, Patna - BSPCB",25-10-2025 07:00:00,25.599486,85.113666,NH3,2,9,7
India,Chandigarh,Chandigarh,"Sector 22, Chandigarh - CPCC",25-10-2025 07:00:00,30.735567,76.775714,NH3,9,11,10
India,Chandigarh,Chandigarh,"Sector-53, Chandigarh - CPCC",25-10-2025 07:00:00,30.719859,76.738637,PM10,48,167,91
India,Chandigarh,Chandigarh,"Sector-53, Chandigarh - CPCC",25-10-2025 07:00:00,30.719859,76.738637,NH3,3,16,6
India,Chandigarh,Chandigarh,"Sector-53, Chandigarh - CPCC",25-10-2025 07:00:00,30.719859,76.738637,CO,30,118,64
India,Chhattisgarh,Bhilai,"32Bungalows, Bhilai - CECB",25-10-2025 07:00:00,21.194815,81.314770,NO2,6,21,12
India,Chhattisgarh,Bhilai,"32Bungalows, Bhilai - CECB",25-10-2025 07:00:00,21.194815,81.314770,NH3,5,5,5
India,Chhattisgarh,Bhilai,"32Bungalows, Bhilai - CECB",25-10-2025 07:00:00,21.194815,81.314770,SO2,6,22,15
India,Chhattisgarh,Bhilai,"Civic Center, Bhilai - Bhilai Steel Plant",25-10-2025 07:00:00,21.185571,81.343175,CO,22,22,22
India,Chhattisgarh,Bilaspur,"Mangala, Bilaspur - NTPC",25-10-2025 07:00:00,22.08815,82.13737,NO2,19,24,23
India,Chhattisgarh,Bilaspur,"Mangala, Bilaspur - NTPC",25-10-2025 07:00:00,22.08815,82.13737,CO,30,48,35
India,Chhattisgarh,Chhal,"Nawapara SECL Colony, Chhal - CECB",25-10-2025 07:00:00,22.118125,83.140608,CO,24,54,30
India,Chhattisgarh,Korba,"Rampur, Korba - CECB",25-10-2025 07:00:00,22.368195,82.746431,NH3,2,2,2
India,Chhattisgarh,Korba,"Urja Nagar, Korba - CECB",25-10-2025 07:00:00,22.348441,82.549611,NO2,23,30,25
India,Chhattisgarh,Kunjemura,"OP Jindal School, Kunjemura - CECB",25-10-2025 07:00:00,22.126650,83.483212,PM10,29,109,62
India,Chhattisgarh,Kunjemura,"OP Jindal School, Kunjemura - CECB",25-10-2025 07:00:00,22.126650,83.483212,NH3,2,2,2
India,Chhattisgarh,Kunjemura,"OP Jindal School, Kunjemura - CECB",25-10-2025 07:00:00,22.126650,83.483212,CO,18,50,21
India,Chhattisgarh,Milupara,"Govt. Higher Secondary School, Milupara - CECB",25-10-2025 07:00:00,22.1910172,83.5197009,OZONE,14,129,17
India,Chhattisgarh,Raipur,"AIIMS, Raipur - CECB",25-10-2025 07:00:00,21.258815,81.578979,SO2,10,15,12
India,Chhattisgarh,Raipur,"AIIMS, Raipur - CECB",25-10-2025 07:00:00,21.258815,81.578979,OZONE,6,14,6
India,Chhattisgarh,Raipur,"Bhatagaon New ISBT, Raipur - CECB",25-10-2025 07:00:00,21.219665,81.630094,NO2,12,36,19
India,Chhattisgarh,Raipur,"Krishak Nagar, Raipur - CECB",25-10-2025 07:00:00,21.237755,81.705301,SO2,5,9,7
India,Chhattisgarh,Raipur,"Siltara Phase-II, Raipur - CECB",25-10-2025 07:00:00,21.371751,81.664929,NO2,5,9,7
India,Bihar,Patna,"Samanpura, Patna - BSPCB",25-10-2025 07:00:00,25.596727,85.085624,PM2.5,67,334,294
India,Bihar,Purnia,"Mariam Nagar, Purnia - BSPCB",25-10-2025 07:00:00,25.366336,87.117468,NH3,3,3,3
India,Bihar,Rajgir,"Dangi Tola, Rajgir - BSPCB",25-10-2025 07:00:00,25.03280,85.41948,OZONE,31,37,32
India,Bihar,Saharsa,"Police Line, Saharsa - BSPCB",25-10-2025 07:00:00,25.892357,86.590325,NH3,4,4,4
India,Bihar,Muzaffarpur,"Buddha Colony, Muzaffarpur - BSPCB",25-10-2025 07:00:00,26.11442,85.39813,CO,25,77,43
India,Bihar,Muzaffarpur,"Buddha Colony, Muzaffarpur - BSPCB",25-10-2025 07:00:00,26.11442,85.39813,OZONE,17,109,37
India,Bihar,Muzaffarpur,"MIT-Daudpur Kothi, Muzaffarpur - BSPCB",25-10-2025 07:00:00,26.1403345,85.3650192,CO,38,49,40
India,Bihar,Muzaffarpur,"MIT-Daudpur Kothi, Muzaffarpur - BSPCB",25-10-2025 07:00:00,26.1403345,85.3650192,OZONE,21,60,43
India,Bihar,Samastipur,"DM Office_Kasipur, Samastipur - BSPCB",25-10-2025 07:00:00,25.859655,85.77944,CO,2,32,17
India,Bihar,Siwan,"Chitragupta Nagar, Siwan - BSPCB",25-10-2025 07:00:00,26.2271665,84.3570427,SO2,NA,NA,NA
India,Delhi,Delhi,"Bawana, Delhi - DPCC",25-10-2025 07:00:00,28.776200,77.051074,PM10,97,451,238
India,Delhi,Delhi,"Bawana, Delhi - DPCC",25-10-2025 07:00:00,28.776200,77.051074,NO2,7,91,41
India,Delhi,Delhi,"Bawana, Delhi - DPCC",25-10-2025 07:00:00,28.776200,77.051074,NH3,6,8,7
India,Delhi,Delhi,"Bawana, Delhi - DPCC",25-10-2025 07:00:00,28.776200,77.051074,OZONE,4,160,5
India,Delhi,Delhi,"Burari Crossing, Delhi - IMD",25-10-2025 07:00:00,28.7256504,77.2011573,NO2,1,32,20
India,Delhi,Delhi,"Burari Crossing, Delhi - IMD",25-10-2025 07:00:00,28.7256504,77.2011573,CO,29,137,117
India,Delhi,Delhi,"CRRI Mathura Road, Delhi - IMD",25-10-2025 07:00:00,28.5512005,77.2735737,PM10,134,387,247
India,Delhi,Delhi,"CRRI Mathura Road, Delhi - IMD",25-10-2025 07:00:00,28.5512005,77.2735737,CO,34,149,136
India,Delhi,Delhi,"Chandni Chowk, Delhi - IITM",25-10-2025 07:00:00,28.656756,77.227234,SO2,8,33,20
India,Delhi,Delhi,"DTU, Delhi - CPCB",25-10-2025 07:00:00,28.7500499,77.1112615,NH3,8,20,13
India,Delhi,Delhi,"DTU, Delhi - CPCB",25-10-2025 07:00:00,28.7500499,77.1112615,OZONE,14,24,20
India,Delhi,Delhi,"Dr. Karni Singh Shooting Range, Delhi - DPCC",25-10-2025 07:00:00,28.498571,77.264840,NO2,47,98,73
India,Delhi,Delhi,"Dr. Karni Singh Shooting Range, Delhi - DPCC",25-10-2025 07:00:00,28.498571,77.264840,SO2,17,25,22
India,Delhi,Delhi,"Dwarka-Sector 8, Delhi - DPCC ",25-10-2025 07:00:00,28.5710274,77.0719006,NO2,51,152,92
India,Delhi,Delhi,"Dwarka-Sector 8, Delhi - DPCC ",25-10-2025 07:00:00,28.5710274,77.0719006,CO,46,176,123
India,Delhi,Delhi,"IGI Airport (T3), Delhi - IMD",25-10-2025 07:00:00,28.5627763,77.1180053,NO2,58,238,158
India,Delhi,Delhi,"Pusa, Delhi - DPCC",25-10-2025 07:00:00,28.639652,77.146275,NO2,31,327,70
India,Delhi,Delhi,"Pusa, Delhi - IMD",25-10-2025 07:00:00,28.636110,77.173332,PM2.5,110,305,207
India,Delhi,Delhi,"Pusa, Delhi - IMD",25-10-2025 07:00:00,28.636110,77.173332,NO2,6,127,69
India,Delhi,Delhi,"R K Puram, Delhi - DPCC",25-10-2025 07:00:00,28.563262,77.186937,PM2.5,117,354,265
India,Delhi,Delhi,"Rohini, Delhi - DPCC",25-10-2025 07:00:00,28.732528,77.119920,PM2.5,80,369,274
India,Delhi,Delhi,"Shadipur, Delhi - CPCB",25-10-2025 07:00:00,28.6514781,77.1473105,PM2.5,303,376,328
India,Delhi,Delhi,"Shadipur, Delhi - CPCB",25-10-2025 07:00:00,28.6514781,77.1473105,PM10,140,368,208
India,Delhi,Delhi,"Okhla Phase-2, Delhi - DPCC",25-10-2025 07:00:00,28.530785,77.271255,NO2,39,170,103
India,Delhi,Delhi,"Okhla Phase-2, Delhi - DPCC",25-10-2025 07:00:00,28.530785,77.271255,NH3,6,10,8
India,Delhi,Delhi,"Patparganj, Delhi - DPCC",25-10-2025 07:00:00,28.623763,77.287209,PM2.5,93,315,262
India,Delhi,Delhi,"Patparganj, Delhi - DPCC",25-10-2025 07:00:00,28.623763,77.287209,SO2,7,12,9
India,Delhi,Delhi,"Patparganj, Delhi - DPCC",25-10-2025 07:00:00,28.623763,77.287209,CO,3,124,117
India,Delhi,Delhi,"Punjabi Bagh, Delhi - DPCC",25-10-2025 07:00:00,28.674045,77.131023,PM2.5,127,391,300
India,Delhi,Delhi,"Punjabi Bagh, Delhi - DPCC",25-10-2025 07:00:00,28.674045,77.131023,CO,24,125,93
India,Delhi,Delhi,"Shadipur, Delhi - CPCB",25-10-2025 07:00:00,28.6514781,77.1473105,CO,31,124,111
India,Delhi,Delhi,"Sonia Vihar, Delhi - DPCC",25-10-2025 07:00:00,28.710508,77.249485,PM10,111,301,183
India,Delhi,Delhi,"Sri Aurobindo Marg, Delhi - DPCC",25-10-2025 07:00:00,28.531346,77.190156,NO2,7,55,23
India,Delhi,Delhi,"Sri Aurobindo Marg, Delhi - DPCC",25-10-2025 07:00:00,28.531346,77.190156,NH3,3,5,4
India,Delhi,Delhi,"Sri Aurobindo Marg, Delhi - DPCC",25-10-2025 07:00:00,28.531346,77.190156,SO2,13,25,18
India,Delhi,Delhi,"ITO, Delhi - CPCB",25-10-2025 07:00:00,28.628624,77.241060,PM2.5,118,309,250
India,Delhi,Delhi,"Jahangirpuri, Delhi - DPCC",25-10-2025 07:00:00,28.732820,77.170633,PM10,127,479,311
India,Delhi,Delhi,"Jahangirpuri, Delhi - DPCC",25-10-2025 07:00:00,28.732820,77.170633,NH3,1,7,4
India,Delhi,Delhi,"Jahangirpuri, Delhi - DPCC",25-10-2025 07:00:00,28.732820,77.170633,CO,28,140,124
India,Delhi,Delhi,"Lodhi Road, Delhi - IITM",25-10-2025 07:00:00,28.588333,77.221667,NO2,92,152,117
India,Delhi,Delhi,"NSIT Dwarka, Delhi - CPCB",25-10-2025 07:00:00,28.60909,77.0325413,SO2,2,79,22
India,Delhi,Delhi,"Najafgarh, Delhi - DPCC",25-10-2025 07:00:00,28.570173,76.933762,OZONE,2,65,7
India,Delhi,Delhi,"Narela, Delhi - DPCC",25-10-2025 07:00:00,28.822836,77.101981,OZONE,8,138,10
India,Delhi,Delhi,"Nehru Nagar, Delhi - DPCC",25-10-2025 07:00:00,28.567890,77.250515,NO2,10,78,35
India,Delhi,Delhi,"Lodhi Road, Delhi - IMD",25-10-2025 07:00:00,28.5918245,77.2273074,PM10,106,204,153
India,Delhi,Delhi,"Lodhi Road, Delhi - IMD",25-10-2025 07:00:00,28.5918245,77.2273074,OZONE,25,268,28
India,Delhi,Delhi,"Major Dhyan Chand National Stadium, Delhi - DPCC",25-10-2025 07:00:00,28.611281,77.237738,CO,14,124,100
India,Delhi,Delhi,"Sri Aurobindo Marg, Delhi - DPCC",25-10-2025 07:00:00,28.531346,77.190156,OZONE,1,138,2
India,Haryana,Jind,"Police Lines, Jind - HSPCB",25-10-2025 07:00:00,29.307814,76.337619,CO,5,113,45
India,Haryana,Kaithal,"Rishi Nagar, Kaithal - HSPCB",25-10-2025 07:00:00,29.8006,76.4155,NO2,29,32,31
India,Haryana,Karnal,"Sector-12, Karnal - HSPCB",25-10-2025 07:00:00,29.695300,77.002700,PM2.5,83,388,235
India,Haryana,Karnal,"Sector-12, Karnal - HSPCB",25-10-2025 07:00:00,29.695300,77.002700,PM10,94,403,187
India,Haryana,Karnal,"Sector-12, Karnal - HSPCB",25-10-2025 07:00:00,29.695300,77.002700,CO,40,62,51
India,Haryana,Kurukshetra,"Sector-7, Kurukshetra - HSPCB",25-10-2025 07:00:00,29.966942,76.875879,NH3,NA,NA,NA
India,Haryana,Mandikhera,"General Hospital, Mandikhera - HSPCB",25-10-2025 07:00:00,27.9002,76.9938,NO2,19,23,21
India,Haryana,Mandikhera,"General Hospital, Mandikhera - HSPCB",25-10-2025 07:00:00,27.9002,76.9938,NH3,13,14,13
India,Haryana,Ambala,"Patti Mehar, Ambala - HSPCB",25-10-2025 07:00:00,30.379589,76.778328,PM10,50,362,131
India,Haryana,Ambala,"Patti Mehar, Ambala - HSPCB",25-10-2025 07:00:00,30.379589,76.778328,CO,101,105,103
India,Haryana,Ambala,"Patti Mehar, Ambala - HSPCB",25-10-2025 07:00:00,30.379589,76.778328,OZONE,41,57,48
India,Haryana,Bahadurgarh,"Arya Nagar, Bahadurgarh - HSPCB",25-10-2025 07:00:00,28.6701,76.9254,NO2,12,14,13
India,Haryana,Bahadurgarh,"Arya Nagar, Bahadurgarh - HSPCB",25-10-2025 07:00:00,28.6701,76.9254,NH3,12,13,13
India,Haryana,Bhiwani,"H.B. Colony, Bhiwani - HSPCB",25-10-2025 07:00:00,28.806223,76.141105,PM10,66,219,108
India,Haryana,Charkhi Dadri,"Mini Secretariat, Charkhi Dadri - HSPCB",25-10-2025 07:00:00,28.593883,76.270653,NO2,9,24,15
India,Haryana,Charkhi Dadri,"Mini Secretariat, Charkhi Dadri - HSPCB",25-10-2025 07:00:00,28.593883,76.270653,CO,9,25,14
India,Haryana,Charkhi Dadri,"Mini Secretariat, Charkhi Dadri - HSPCB",25-10-2025 07:00:00,28.593883,76.270653,OZONE,14,17,15
India,Haryana,Faridabad,"New Industrial Town, Faridabad - HSPCB",25-10-2025 07:00:00,28.39072,77.30059,PM2.5,220,234,228
India,Haryana,Faridabad,"New Industrial Town, Faridabad - HSPCB",25-10-2025 07:00:00,28.39072,77.30059,CO,8,12,10
India,Haryana,Faridabad,"Sector 30, Faridabad - HSPCB",25-10-2025 07:00:00,28.4417,77.3217,NO2,36,38,37
India,Haryana,Faridabad,"Sector 30, Faridabad - HSPCB",25-10-2025 07:00:00,28.4417,77.3217,NH3,11,12,11
India,Haryana,Fatehabad,"Huda Sector, Fatehabad - HSPCB",25-10-2025 07:00:00,29.503664,75.467934,NO2,18,20,19
India,Haryana,Narnaul,"Shastri Nagar, Narnaul - HSPCB",25-10-2025 07:00:00,28.060249,76.113115,NH3,6,17,10
India,Haryana,Narnaul,"Shastri Nagar, Narnaul - HSPCB",25-10-2025 07:00:00,28.060249,76.113115,SO2,23,25,24
India,Haryana,Palwal,"Shyam Nagar, Palwal - HSPCB",25-10-2025 07:00:00,28.1485564,77.3320667,PM2.5,116,122,119
India,Haryana,Palwal,"Shyam Nagar, Palwal - HSPCB",25-10-2025 07:00:00,28.1485564,77.3320667,NO2,23,25,24
India,Haryana,Palwal,"Shyam Nagar, Palwal - HSPCB",25-10-2025 07:00:00,28.1485564,77.3320667,NH3,8,9,9
India,Haryana,Palwal,"Shyam Nagar, Palwal - HSPCB",25-10-2025 07:00:00,28.1485564,77.3320667,OZONE,23,24,24
India,Haryana,Panchgaon,"Amity University, Panchgaon - IITM",25-10-2025 07:00:00,28.3153,76.9143,PM10,40,121,69
India,Gujarat,Ahmedabad,"Raikhad, Ahmedabad - IITM",25-10-2025 07:00:00,23.020509,72.579261,CO,14,83,42
India,Gujarat,Ahmedabad,"Rakhial, Ahmedabad - IITM",25-10-2025 07:00:00,23.016834,72.625775,CO,18,54,29
India,Gujarat,Ahmedabad,"SAC ISRO Bopal, Ahmedabad - IITM",25-10-2025 07:00:00,23.041137,72.456691,PM2.5,61,211,109
India,Gujarat,Ahmedabad,"SAC ISRO Bopal, Ahmedabad - IITM",25-10-2025 07:00:00,23.041137,72.456691,NH3,2,3,3
India,Gujarat,Ahmedabad,"SAC ISRO Bopal, Ahmedabad - IITM",25-10-2025 07:00:00,23.041137,72.456691,CO,27,47,36
India,Gujarat,Ahmedabad,"SAC ISRO Satellite, Ahmedabad - IITM",25-10-2025 07:00:00,23.023389,72.515201,PM2.5,40,78,56
India,Haryana,Gurugram,"NISE Gwal Pahari, Gurugram - IMD",25-10-2025 07:00:00,28.422681,77.148944,OZONE,11,103,14
India,Haryana,Hisar,"Urban Estate-II, Hisar - HSPCB",25-10-2025 07:00:00,29.140560,75.744941,PM10,107,195,142
India,Haryana,Hisar,"Urban Estate-II, Hisar - HSPCB",25-10-2025 07:00:00,29.140560,75.744941,SO2,15,18,16
India,Haryana,Hisar,"Urban Estate-II, Hisar - HSPCB",25-10-2025 07:00:00,29.140560,75.744941,OZONE,43,104,49
India,Haryana,Jind,"Police Lines, Jind - HSPCB",25-10-2025 07:00:00,29.307814,76.337619,PM2.5,220,320,281
India,Delhi,Delhi,"Wazirpur, Delhi - DPCC",25-10-2025 07:00:00,28.699793,77.165453,NO2,35,115,72
India,Gujarat,Ahmedabad,"Chandkheda, Ahmedabad - IITM",25-10-2025 07:00:00,23.107969,72.574648,NH3,10,47,13
India,Gujarat,Ahmedabad,"Chandkheda, Ahmedabad - IITM",25-10-2025 07:00:00,23.107969,72.574648,CO,16,96,39
India,Gujarat,Ahmedabad,"Maninagar, Ahmedabad - GPCB",25-10-2025 07:00:00,23.002657,72.591912,PM10,98,128,112
India,Gujarat,Gandhinagar,"Sector-10, Gandhinagar - GPCB",25-10-2025 07:00:00,23.221714,72.654328,OZONE,4,136,46
India,Gujarat,Surat,"Science Center, Surat - SMC",25-10-2025 07:00:00,21.170046,72.795405,NO2,15,21,18
India,Gujarat,Vapi,"Phase-1 GIDC, Vapi - GPCB",25-10-2025 07:00:00,20.362421,72.918013,SO2,41,45,43
India,Gujarat,Ankleshwar,"GIDC, Ankleshwar - GPCB",25-10-2025 07:00:00,21.613267,73.010555,PM2.5,55,112,89
India,Gujarat,Gandhinagar,"GIFT City, Gandhinagar - IITM",25-10-2025 07:00:00,23.163798,72.677768,NH3,1,4,3
India,Gujarat,Gandhinagar,"GIFT City, Gandhinagar - IITM",25-10-2025 07:00:00,23.163798,72.677768,OZONE,30,72,47
India,Haryana,Panchkula,"Sector-6, Panchkula - HSPCB ",25-10-2025 07:00:00,30.7057778,76.8531805555555,SO2,8,9,9
India,Haryana,Panipat,"Sector-18, Panipat - HSPCB",25-10-2025 07:00:00,29.432304,76.972765,SO2,4,10,8
India,Haryana,Sirsa,"F-Block, Sirsa - HSPCB",25-10-2025 07:00:00,29.536400,75.015800,PM2.5,56,461,159
India,Haryana,Sirsa,"F-Block, Sirsa - HSPCB",25-10-2025 07:00:00,29.536400,75.015800,NH3,11,20,14
India,Haryana,Yamuna Nagar,"Gobind Pura, Yamuna Nagar - HSPCB",25-10-2025 07:00:00,30.1480566,77.2893471,PM2.5,55,379,217
India,Karnataka,Bengaluru,"Jayanagar 5th Block, Bengaluru - KSPCB",25-10-2025 07:00:00,12.920984,77.584908,PM10,12,53,31
India,Karnataka,Bengaluru,"Jayanagar 5th Block, Bengaluru - KSPCB",25-10-2025 07:00:00,12.920984,77.584908,NO2,9,32,18
India,Karnataka,Bengaluru,"Jayanagar 5th Block, Bengaluru - KSPCB",25-10-2025 07:00:00,12.920984,77.584908,NH3,1,1,1
India,Karnataka,Bengaluru,"Jayanagar 5th Block, Bengaluru - KSPCB",25-10-2025 07:00:00,12.920984,77.584908,SO2,1,4,2
India,Karnataka,Bengaluru,"Jigani, Bengaluru - KSPCB",25-10-2025 07:00:00,12.7816279,77.6299145,OZONE,23,26,25
India,Karnataka,Bengaluru,"Kasturi Nagar, Bengaluru - KSPCB",25-10-2025 07:00:00,13.003872,77.664217,NH3,3,4,4
India,Karnataka,Bengaluru,"BTM Layout, Bengaluru - CPCB",25-10-2025 07:00:00,12.9135218,77.5950804,NO2,30,31,30
India,Karnataka,Bengaluru,"BTM Layout, Bengaluru - CPCB",25-10-2025 07:00:00,12.9135218,77.5950804,CO,40,52,43
India,Karnataka,Bengaluru,"BTM Layout, Bengaluru - CPCB",25-10-2025 07:00:00,12.9135218,77.5950804,OZONE,24,25,24
India,Karnataka,Bengaluru,"BWSSB Kadabesanahalli, Bengaluru - CPCB",25-10-2025 07:00:00,12.9352049,77.6814488,OZONE,26,26,26
India,Karnataka,Bengaluru,"Bapuji Nagar, Bengaluru - KSPCB",25-10-2025 07:00:00,12.951913,77.539784,PM2.5,28,105,55
India,Karnataka,Bengaluru,"Bapuji Nagar, Bengaluru - KSPCB",25-10-2025 07:00:00,12.951913,77.539784,CO,24,56,41
India,Jammu_and_Kashmir,Srinagar,"Rajbagh, Srinagar - JKSPCB",25-10-2025 07:00:00,34.066206,74.819820,PM10,66,109,87
India,Jharkhand,Dhanbad,"Sardar Patel Nagar, Dhanbad - JSPCB",25-10-2025 07:00:00,23.80569,86.44268,NO2,94,104,96
India,Karnataka,Belgaum,"Ramteerth Nagar, Belgaum - KSPCB",25-10-2025 07:00:00,15.888653,74.541751,PM10,NA,NA,NA
India,Karnataka,Belgaum,"Ramteerth Nagar, Belgaum - KSPCB",25-10-2025 07:00:00,15.888653,74.541751,NO2,NA,NA,NA
India,Karnataka,Belgaum,"Ramteerth Nagar, Belgaum - KSPCB",25-10-2025 07:00:00,15.888653,74.541751,NH3,NA,NA,NA
India,Karnataka,Chamarajanagar,"Urban, Chamarajanagar - KSPCB",25-10-2025 07:00:00,11.55358,76.55521,NO2,14,35,26
India,Karnataka,Chamarajanagar,"Urban, Chamarajanagar - KSPCB",25-10-2025 07:00:00,11.55358,76.55521,CO,14,120,31
India,Karnataka,Chamarajanagar,"Urban, Chamarajanagar - KSPCB",25-10-2025 07:00:00,11.55358,76.55521,OZONE,15,35,22
India,Karnataka,Chikkamagaluru,"Kalyana Nagara, Chikkamagaluru - KSPCB",25-10-2025 07:00:00,13.328028,75.797056,NO2,19,27,20
India,Karnataka,Chikkamagaluru,"Kalyana Nagara, Chikkamagaluru - KSPCB",25-10-2025 07:00:00,13.328028,75.797056,SO2,NA,NA,NA
India,Karnataka,Chikkamagaluru,"Kalyana Nagara, Chikkamagaluru - KSPCB",25-10-2025 07:00:00,13.328028,75.797056,OZONE,21,28,24
India,Karnataka,Koppal,"Diwator Nagar, Koppal - KSPCB",25-10-2025 07:00:00,15.347630,76.181767,SO2,NA,NA,NA
India,Karnataka,Koppal,"Diwator Nagar, Koppal - KSPCB",25-10-2025 07:00:00,15.347630,76.181767,OZONE,NA,NA,NA
India,Karnataka,Madikeri,"Stuart Hill, Madikeri - KSPCB",25-10-2025 07:00:00,12.415911,75.735050,PM10,15,39,26
India,Karnataka,Madikeri,"Stuart Hill, Madikeri - KSPCB",25-10-2025 07:00:00,12.415911,75.735050,OZONE,3,7,5
India,Karnataka,Mangalore,"Kadri, Mangalore - KSPCB",25-10-2025 07:00:00,12.889250,74.853000,PM2.5,27,83,46
India,Karnataka,Davanagere,"Devaraj Urs Badavane, Davanagere - KSPCB",25-10-2025 07:00:00,14.475800,75.905200,CO,18,30,22
India,Karnataka,Dharwad,"Kalabhavan, Dharwad - KSPCB",25-10-2025 07:00:00,15.459706,75.008381,PM2.5,36,41,39
India,Karnataka,Dharwad,"Kalabhavan, Dharwad - KSPCB",25-10-2025 07:00:00,15.459706,75.008381,NH3,3,4,4
India,Karnataka,Gadag,"Panchal Nagar, Gadag - KSPCB",25-10-2025 07:00:00,15.411456,75.638133,NO2,1,28,5
India,Karnataka,Hubballi,"Deshpande Nagar, Hubballi - KSPCB",25-10-2025 07:00:00,15.351773,75.140726,NO2,28,30,29
India,Karnataka,Kalaburagi,"Lal Bahadur Shastri Nagar, Kalaburagi - KSPCB",25-10-2025 07:00:00,17.321993,76.822628,SO2,63,63,63
India,Karnataka,Bengaluru,"Silk Board, Bengaluru - KSPCB",25-10-2025 07:00:00,12.917348,77.622813,PM10,78,145,116
India,Madhya Pradesh,Gwalior,"City Center, Gwalior - MPPCB",25-10-2025 07:00:00,26.203442,78.193251,NH3,2,4,3
India,Madhya Pradesh,Gwalior,"Deen Dayal Nagar, Gwalior - MPPCB",25-10-2025 07:00:00,26.259242,78.216432,PM10,98,500,224
India,Madhya Pradesh,Gwalior,"Deen Dayal Nagar, Gwalior - MPPCB",25-10-2025 07:00:00,26.259242,78.216432,NO2,11,103,43
India,Madhya Pradesh,Gwalior,"Deen Dayal Nagar, Gwalior - MPPCB",25-10-2025 07:00:00,26.259242,78.216432,NH3,6,7,7
India,Madhya Pradesh,Gwalior,"Maharaj Bada, Gwalior - MPPCB",25-10-2025 07:00:00,26.200388,78.147714,PM10,105,411,179
India,Madhya Pradesh,Gwalior,"Maharaj Bada, Gwalior - MPPCB",25-10-2025 07:00:00,26.200388,78.147714,CO,1,148,62
India,Madhya Pradesh,Gwalior,"Maharaj Bada, Gwalior - MPPCB",25-10-2025 07:00:00,26.200388,78.147714,OZONE,13,180,25
India,Madhya Pradesh,Indore,"Chhoti Gwaltoli, Indore - MPPCB",25-10-2025 07:00:00,22.4310,75.5213,NO2,51,123,73
India,Madhya Pradesh,Jabalpur,"Marhatal, Jabalpur - MPPCB",25-10-2025 07:00:00,23.168606,79.932247,SO2,2,37,21
India,Madhya Pradesh,Jabalpur,"Suhagi, Jabalpur - JMC",25-10-2025 07:00:00,23.218135,79.957770,PM2.5,95,319,222
India,Madhya Pradesh,Jabalpur,"Suhagi, Jabalpur - JMC",25-10-2025 07:00:00,23.218135,79.957770,NH3,2,4,3
India,Madhya Pradesh,Jabalpur,"Suhagi, Jabalpur - JMC",25-10-2025 07:00:00,23.218135,79.957770,CO,24,104,34
India,Madhya Pradesh,Jabalpur,"Suhagi, Jabalpur - JMC",25-10-2025 07:00:00,23.218135,79.957770,OZONE,1,124,21
India,Madhya Pradesh,Katni,"Gole Bazar, Katni - MPPCB",25-10-2025 07:00:00,23.50016,80.23284,PM2.5,89,224,130
India,Madhya Pradesh,Katni,"Gole Bazar, Katni - MPPCB",25-10-2025 07:00:00,23.50016,80.23284,NO2,4,83,44
India,Madhya Pradesh,Maihar,"Sahilara, Maihar - KJS Cements",25-10-2025 07:00:00,24.2613009,80.7231783,PM2.5,5,188,68
India,Madhya Pradesh,Mandideep,"Sector-D Industrial Area, Mandideep - MPPCB",25-10-2025 07:00:00,23.108440,77.511428,NO2,25,101,54
India,Madhya Pradesh,Mandideep,"Sector-D Industrial Area, Mandideep - MPPCB",25-10-2025 07:00:00,23.108440,77.511428,NH3,2,5,4
India,Madhya Pradesh,Mandideep,"Sector-D Industrial Area, Mandideep - MPPCB",25-10-2025 07:00:00,23.108440,77.511428,SO2,30,107,59
India,Madhya Pradesh,Pithampur,"Sector-2 Industrial Area, Pithampur - MPPCB",25-10-2025 07:00:00,22.624758,75.675238,OZONE,24,69,41
India,Madhya Pradesh,Ratlam,"Shasthri Nagar, Ratlam - IPCA Lab",25-10-2025 07:00:00,23.331731,75.045981,NO2,38,44,42
India,Madhya Pradesh,Sagar,"Civil Lines, Sagar - MPPCB",25-10-2025 07:00:00,23.838586,78.759431,PM2.5,153,338,219
India,Madhya Pradesh,Sagar,"Civil Lines, Sagar - MPPCB",25-10-2025 07:00:00,23.838586,78.759431,PM10,99,173,119
India,Madhya Pradesh,Bhopal,"Idgah Hills, Bhopal - MPPCB",25-10-2025 07:00:00,23.264759,77.381568,PM10,89,195,128
India,Madhya Pradesh,Bhopal,"Paryavaran Parisar, Bhopal - MPPCB",25-10-2025 07:00:00,23.210494,77.425409,PM2.5,82,280,162
India,Madhya Pradesh,Bhopal,"Paryavaran Parisar, Bhopal - MPPCB",25-10-2025 07:00:00,23.210494,77.425409,CO,14,80,20
India,Madhya Pradesh,Bhopal,"T T Nagar, Bhopal - MPPCB",25-10-2025 07:00:00,23.233584,77.400574,NO2,23,48,31
India,Madhya Pradesh,Bhopal,"T T Nagar, Bhopal - MPPCB",25-10-2025 07:00:00,23.233584,77.400574,NH3,6,6,6
India,Madhya Pradesh,Bhopal,"T T Nagar, Bhopal - MPPCB",25-10-2025 07:00:00,23.233584,77.400574,SO2,8,12,10
India,Madhya Pradesh,Bhopal,"T T Nagar, Bhopal - MPPCB",25-10-2025 07:00:00,23.233584,77.400574,CO,36,99,64
India,Madhya Pradesh,Bhopal,"T T Nagar, Bhopal - MPPCB",25-10-2025 07:00:00,23.233584,77.400574,OZONE,37,106,63
India,Karnataka,Udupi,"Brahmagiri, Udupi - KSPCB",25-10-2025 07:00:00,13.34194444,74.74694444,PM10,NA,NA,NA
India,Karnataka,Udupi,"Brahmagiri, Udupi - KSPCB",25-10-2025 07:00:00,13.34194444,74.74694444,SO2,NA,NA,NA
India,Karnataka,Vijayapura,"Ibrahimpur, Vijayapura - KSPCB",25-10-2025 07:00:00,16.802639,75.722694,PM2.5,26,31,30
India,Karnataka,Vijayapura,"Ibrahimpur, Vijayapura - KSPCB",25-10-2025 07:00:00,16.802639,75.722694,NH3,1,2,1
India,Karnataka,Yadgir,"Collector Office, Yadgir - KSPCB",25-10-2025 07:00:00,16.7602,77.1428,CO,8,48,22
India,Kerala,Eloor,"Udyogamandal, Eloor - Kerala PCB",25-10-2025 07:00:00,10.073232,76.302765,NO2,6,7,7
India,Karnataka,Mangalore,"Kadri, Mangalore - KSPCB",25-10-2025 07:00:00,12.889250,74.853000,NO2,3,7,5
India,Karnataka,Mysuru,"Hebbal 1st Stage, Mysuru - KSPCB",25-10-2025 07:00:00,12.21041,76.37376,PM10,17,48,32
India,Karnataka,Mysuru,"Hebbal 1st Stage, Mysuru - KSPCB",25-10-2025 07:00:00,12.21041,76.37376,NO2,15,30,21
India,Karnataka,Mysuru,"Hebbal 1st Stage, Mysuru - KSPCB",25-10-2025 07:00:00,12.21041,76.37376,SO2,NA,NA,NA
India,Karnataka,Tumakuru,"Thimmalapura, Tumakuru - KSPCB",25-10-2025 07:00:00,13.377516,77.099072,PM2.5,53,94,79
India,Madhya Pradesh,Indore,"Residency Area, Indore - IMC",25-10-2025 07:00:00,22.7084,75.8815,PM10,48,102,64
India,Madhya Pradesh,Jabalpur,"Govindh Bhavan Colony, Jabalpur - JMC",25-10-2025 07:00:00,23.163174,79.973061,CO,24,50,40
India,Madhya Pradesh,Jabalpur,"Govindh Bhavan Colony, Jabalpur - JMC",25-10-2025 07:00:00,23.163174,79.973061,OZONE,5,29,5
India,Madhya Pradesh,Jabalpur,"Gupteshwar, Jabalpur - JMC",25-10-2025 07:00:00,23.142888,79.916147,PM2.5,NA,NA,NA
India,Madhya Pradesh,Jabalpur,"Gupteshwar, Jabalpur - JMC",25-10-2025 07:00:00,23.142888,79.916147,PM10,NA,NA,NA
India,Kerala,Eloor,"Udyogamandal, Eloor - Kerala PCB",25-10-2025 07:00:00,10.073232,76.302765,SO2,1,1,1
India,Kerala,Thiruvananthapuram,"Plammoodu, Thiruvananthapuram - Kerala PCB",25-10-2025 07:00:00,8.5149093,76.9435879,NO2,60,102,76
India,Kerala,Thiruvananthapuram,"Plammoodu, Thiruvananthapuram - Kerala PCB",25-10-2025 07:00:00,8.5149093,76.9435879,OZONE,12,17,14
India,Madhya Pradesh,Indore,"Regional Park, Indore - IMC",25-10-2025 07:00:00,22.6780,75.8559,NH3,NA,NA,NA
India,Maharashtra,Mahad,"Kamble Tarf Birwadi, Mahad - MPCB",25-10-2025 07:00:00,18.1023399,73.4783687,OZONE,18,53,21
India,Maharashtra,Malegaon,"Mahesh Nagar, Malegaon - MPCB",25-10-2025 07:00:00,20.555712,74.529236,PM2.5,38,241,86
India,Maharashtra,Malegaon,"Mahesh Nagar, Malegaon - MPCB",25-10-2025 07:00:00,20.555712,74.529236,SO2,2,17,8
India,Maharashtra,Malegaon,"Mahesh Nagar, Malegaon - MPCB",25-10-2025 07:00:00,20.555712,74.529236,CO,11,54,22
India,Maharashtra,Mira-Bhayandar,"Bhayandar West, Mira-Bhayandar - MPCB",25-10-2025 07:00:00,19.296481,72.840923,NO2,10,40,20
India,Maharashtra,Mira-Bhayandar,"Bhayandar West, Mira-Bhayandar - MPCB",25-10-2025 07:00:00,19.296481,72.840923,SO2,3,8,6
India,Maharashtra,Mira-Bhayandar,"Bhayandar West, Mira-Bhayandar - MPCB",25-10-2025 07:00:00,19.296481,72.840923,OZONE,1,77,4
India,Maharashtra,Mumbai,"Bandra Kurla Complex, Mumbai - IITM",25-10-2025 07:00:00,19.053536,72.84643,PM10,NA,NA,NA
India,Maharashtra,Belapur,"CBD Belapur, Belapur - MPCB",25-10-2025 07:00:00,19.0243902,73.0406721,OZONE,2,47,7
India,Maharashtra,Bhiwandi,"Gokul Nagar, Bhiwandi - MPCB",25-10-2025 07:00:00,19.309073,73.057223,SO2,6,24,14
India,Maharashtra,Bhiwandi,"Gokul Nagar, Bhiwandi - MPCB",25-10-2025 07:00:00,19.309073,73.057223,OZONE,16,74,17
India,Maharashtra,Boisar,"Khaira, Boisar - MPCB",25-10-2025 07:00:00,19.786089,72.757971,NH3,5,8,6
India,Maharashtra,Chandrapur,"Chauhan Colony, Chandrapur - MPCB",25-10-2025 07:00:00,19.962900,79.298714,PM2.5,2,16,8
India,Maharashtra,Chandrapur,"Chauhan Colony, Chandrapur - MPCB",25-10-2025 07:00:00,19.962900,79.298714,PM10,4,47,24
India,Maharashtra,Chandrapur,"Chauhan Colony, Chandrapur - MPCB",25-10-2025 07:00:00,19.962900,79.298714,NO2,30,31,30
India,Maharashtra,Jalna,"Old MIDC, Jalna - MPCB",25-10-2025 07:00:00,19.854616,75.905894,OZONE,5,20,18
India,Maharashtra,Kalyan,"Khadakpada, Kalyan - MPCB",25-10-2025 07:00:00,19.25292,73.142019,PM2.5,NA,NA,NA
India,Maharashtra,Kalyan,"Khadakpada, Kalyan - MPCB",25-10-2025 07:00:00,19.25292,73.142019,NO2,NA,NA,NA
India,Maharashtra,Kalyan,"Pimpleshwar Mandir, Kalyan - MPCB",25-10-2025 07:00:00,19.192056,72.9585188,PM2.5,NA,NA,NA
India,Maharashtra,Kalyan,"Pimpleshwar Mandir, Kalyan - MPCB",25-10-2025 07:00:00,19.192056,72.9585188,NO2,NA,NA,NA
India,Maharashtra,Kalyan,"Pimpleshwar Mandir, Kalyan - MPCB",25-10-2025 07:00:00,19.192056,72.9585188,OZONE,7,15,9
India,Maharashtra,Latur,"Sawe Wadi, Latur - MPCB",25-10-2025 07:00:00,18.39963,76.57452,SO2,2,5,4
India,Maharashtra,Latur,"Sawe Wadi, Latur - MPCB",25-10-2025 07:00:00,18.39963,76.57452,OZONE,5,34,13
India,Maharashtra,Amravati,"Shri Shivaji Science College, Amravati - MPCB",25-10-2025 07:00:00,20.939198,77.765701,SO2,7,17,10
India,Maharashtra,Aurangabad,"Rachnakar Colony, Aurangabad - MPCB",25-10-2025 07:00:00,19.863756,75.321188,SO2,5,26,18
India,Maharashtra,Badlapur,"Katrap, Badlapur - MPCB",25-10-2025 07:00:00,19.16485,73.23409,NH3,2,7,5
India,Maharashtra,Badlapur,"Katrap, Badlapur - MPCB",25-10-2025 07:00:00,19.16485,73.23409,SO2,3,17,10
India,Maharashtra,Dhule,"Deopur, Dhule - MPCB",25-10-2025 07:00:00,20.918946,74.776388,CO,6,39,10
India,Maharashtra,Jalgaon,"Prabhat Colony, Jalgaon - MPCB",25-10-2025 07:00:00,21.001264,75.565602,PM2.5,21,75,45
India,Maharashtra,Jalgaon,"Prabhat Colony, Jalgaon - MPCB",25-10-2025 07:00:00,21.001264,75.565602,OZONE,5,44,12
India,Maharashtra,Jalna,"Old MIDC, Jalna - MPCB",25-10-2025 07:00:00,19.854616,75.905894,PM2.5,NA,NA,NA
India,Madhya Pradesh,Satna,"Bandhavgar Colony, Satna - Birla Cement",25-10-2025 07:00:00,24.58434363,80.8549414,SO2,20,22,21
India,Maharashtra,Akola,"Ramdaspeth, Akola - MPCB",25-10-2025 07:00:00,20.719516,77.000253,CO,14,28,18
India,Maharashtra,Mumbai,"Byculla, Mumbai - BMC",25-10-2025 07:00:00,18.9767,72.8380,PM2.5,16,56,28
India,Maharashtra,Mumbai,"Byculla, Mumbai - BMC",25-10-2025 07:00:00,18.9767,72.8380,NO2,27,48,34
India,Maharashtra,Mumbai,"Byculla, Mumbai - BMC",25-10-2025 07:00:00,18.9767,72.8380,NH3,6,12,8
India,Madhya Pradesh,Satna,"Bandhavgar Colony, Satna - Birla Cement",25-10-2025 07:00:00,24.58434363,80.8549414,PM2.5,53,62,60
India,Maharashtra,Chandrapur,"MIDC Khutala, Chandrapur - MPCB",25-10-2025 07:00:00,19.9775302,79.2337086,PM10,29,138,82
India,Maharashtra,Mumbai,"Siddharth Nagar-Worli, Mumbai - IITM",25-10-2025 07:00:00,19.000083,72.813993,OZONE,2,33,7
India,Maharashtra,Mumbai,"Sion, Mumbai - MPCB",25-10-2025 07:00:00,19.047000,72.874600,PM2.5,18,127,44
India,Maharashtra,Mumbai,"Sion, Mumbai - MPCB",25-10-2025 07:00:00,19.047000,72.874600,PM10,21,124,52
India,Maharashtra,Mumbai,"Vile Parle West, Mumbai - MPCB",25-10-2025 07:00:00,19.10861,72.83622,PM2.5,4,35,15
India,Maharashtra,Mumbai,"Vile Parle West, Mumbai - MPCB",25-10-2025 07:00:00,19.10861,72.83622,NH3,1,5,3
India,Maharashtra,Mumbai,"Vile Parle West, Mumbai - MPCB",25-10-2025 07:00:00,19.10861,72.83622,CO,10,26,25
India,Maharashtra,Mumbai,"Vile Parle West, Mumbai - MPCB",25-10-2025 07:00:00,19.10861,72.83622,OZONE,2,27,25
India,Maharashtra,Mumbai,"Worli, Mumbai - MPCB",25-10-2025 07:00:00,18.9936162,72.8128113,PM2.5,56,64,59
India,Maharashtra,Mumbai,"Worli, Mumbai - MPCB",25-10-2025 07:00:00,18.9936162,72.8128113,NO2,2,27,10
India,Maharashtra,Nashik,"Pandav Nagari, Nashik - MPCB",25-10-2025 07:00:00,19.9591346,73.7788008,NH3,2,3,2
India,Maharashtra,Nashik,"Pandav Nagari, Nashik - MPCB",25-10-2025 07:00:00,19.9591346,73.7788008,OZONE,8,38,16
India,Maharashtra,Navi Mumbai,"Kopripada-Vashi, Navi Mumbai - MPCB",25-10-2025 07:00:00,19.090337,73.014232,PM10,13,66,27
India,Maharashtra,Navi Mumbai,"Mahape, Navi Mumbai - MPCB",25-10-2025 07:00:00,19.1135051,73.008978,PM2.5,8,24,11
India,Maharashtra,Navi Mumbai,"Mahape, Navi Mumbai - MPCB",25-10-2025 07:00:00,19.1135051,73.008978,PM10,36,120,53
India,Maharashtra,Navi Mumbai,"Mahape, Navi Mumbai - MPCB",25-10-2025 07:00:00,19.1135051,73.008978,SO2,26,28,27
India,Maharashtra,Navi Mumbai,"Mahape, Navi Mumbai - MPCB",25-10-2025 07:00:00,19.1135051,73.008978,CO,58,108,67
India,Maharashtra,Navi Mumbai,"Nerul, Navi Mumbai - MPCB",25-10-2025 07:00:00,19.008751,73.016620,NO2,31,33,32
India,Maharashtra,Mumbai,"Mulund West, Mumbai - MPCB",25-10-2025 07:00:00,19.1750,72.9419,SO2,NA,NA,NA
India,Maharashtra,Mumbai,"Powai, Mumbai - MPCB",25-10-2025 07:00:00,19.137500,72.915056,NO2,7,8,7
India,Maharashtra,Mumbai,"Powai, Mumbai - MPCB",25-10-2025 07:00:00,19.137500,72.915056,NH3,2,2,2
India,Maharashtra,Mumbai,"Powai, Mumbai - MPCB",25-10-2025 07:00:00,19.137500,72.915056,CO,16,16,16
India,Maharashtra,Mumbai,"Powai, Mumbai - MPCB",25-10-2025 07:00:00,19.137500,72.915056,OZONE,9,9,9
India,Maharashtra,Mumbai,"Sewri, Mumbai - BMC",25-10-2025 07:00:00,19.000084,72.856730,PM10,5,32,17
India,Maharashtra,Mumbai,"Sewri, Mumbai - BMC",25-10-2025 07:00:00,19.000084,72.856730,SO2,1,27,9
India,Maharashtra,Mumbai,"Sewri, Mumbai - BMC",25-10-2025 07:00:00,19.000084,72.856730,OZONE,6,88,39
India,Maharashtra,Mumbai,"Worli, Mumbai - MPCB",25-10-2025 07:00:00,18.9936162,72.8128113,OZONE,20,21,20
India,Maharashtra,Nagpur,"Ambazari, Nagpur - MPCB",25-10-2025 07:00:00,21.121801,79.04952,PM10,38,91,61
India,Maharashtra,Nagpur,"Ambazari, Nagpur - MPCB",25-10-2025 07:00:00,21.121801,79.04952,NO2,10,51,23
India,Maharashtra,Nagpur,"Opp GPO Civil Lines, Nagpur - MPCB",25-10-2025 07:00:00,21.152875,79.0517531,SO2,4,23,10
India,Maharashtra,Nagpur,"Ram Nagar, Nagpur - MPCB",25-10-2025 07:00:00,21.143383,79.048912,NH3,2,4,3
India,Maharashtra,Navi Mumbai,"Sanpada, Navi Mumbai - MPCB",25-10-2025 07:00:00,19.0575752,73.0151367,OZONE,15,15,15
India,Maharashtra,Navi Mumbai,"Sector-2E Kalamboli, Navi Mumbai - MPCB",25-10-2025 07:00:00,19.02579,73.10297,PM10,42,84,61
India,Maharashtra,Pimpri-Chinchwad,"Gavalinagar, Pimpri Chinchwad - MPCB",25-10-2025 07:00:00,18.63673,73.82487,NO2,19,52,32
India,Maharashtra,Pimpri-Chinchwad,"Gavalinagar, Pimpri Chinchwad - MPCB",25-10-2025 07:00:00,18.63673,73.82487,NH3,7,8,7
India,Maharashtra,Mumbai,"Ghatkopar, Mumbai - BMC",25-10-2025 07:00:00,19.083694,72.920967,NH3,2,7,4
India,Maharashtra,Mumbai,"Kherwadi_Bandra East, Mumbai - MPCB",25-10-2025 07:00:00,19.0632143,72.8456324,NO2,1,39,18
India,Maharashtra,Mumbai,"Kherwadi_Bandra East, Mumbai - MPCB",25-10-2025 07:00:00,19.0632143,72.8456324,OZONE,1,32,1
India,Maharashtra,Mumbai,"Kurla, Mumbai - MPCB",25-10-2025 07:00:00,19.0863,72.8888,PM2.5,42,74,50
India,Maharashtra,Mumbai,"Kurla, Mumbai - MPCB",25-10-2025 07:00:00,19.0863,72.8888,CO,3,7,5
India,Maharashtra,Mumbai,"Malad West, Mumbai - IITM",25-10-2025 07:00:00,19.19709,72.82204,NH3,4,6,6
India,Maharashtra,Mumbai,"Malad West, Mumbai - IITM",25-10-2025 07:00:00,19.19709,72.82204,CO,19,56,38
India,Maharashtra,Mumbai,"Mazgaon, Mumbai - IITM",25-10-2025 07:00:00,18.96702,72.84214,NH3,14,21,16
India,Maharashtra,Mumbai,"Chhatrapati Shivaji Intl. Airport (T2), Mumbai - MPCB",25-10-2025 07:00:00,19.10078,72.87462,PM10,NA,NA,NA
India,Maharashtra,Mumbai,"Chhatrapati Shivaji Intl. Airport (T2), Mumbai - MPCB",25-10-2025 07:00:00,19.10078,72.87462,NH3,NA,NA,NA
India,Maharashtra,Mumbai,"Chhatrapati Shivaji Intl. Airport (T2), Mumbai - MPCB",25-10-2025 07:00:00,19.10078,72.87462,OZONE,NA,NA,NA
India,Maharashtra,Mumbai,"Colaba, Mumbai - MPCB",25-10-2025 07:00:00,18.910000,72.820000,NH3,3,3,3
India,Maharashtra,Nashik,"Hirawadi, Nashik - MPCB",25-10-2025 07:00:00,20.021503,73.813844,PM2.5,16,47,28
India,Maharashtra,Nashik,"Hirawadi, Nashik - MPCB",25-10-2025 07:00:00,20.021503,73.813844,PM10,23,58,40
India,Maharashtra,Nashik,"MIDC Ambad, Nashik - MPCB",25-10-2025 07:00:00,19.950220,73.731480,PM2.5,7,67,32
India,Maharashtra,Nashik,"MIDC Ambad, Nashik - MPCB",25-10-2025 07:00:00,19.950220,73.731480,OZONE,12,47,23
India,Odisha,Cuttack,"CDA Area, Cuttack - OSPCB",25-10-2025 07:00:00,20.48891     ,85.84768     ,SO2,NA,NA,NA
India,Odisha,Cuttack,"CDA Area, Cuttack - OSPCB",25-10-2025 07:00:00,20.48891     ,85.84768     ,CO,NA,NA,NA
India,Odisha,Keonjhar,"Jagamohanpur, Keonjhar - OSPCB",25-10-2025 07:00:00,21.643900,85.599355,PM10,107,188,151
India,Odisha,Keonjhar,"Jagamohanpur, Keonjhar - OSPCB",25-10-2025 07:00:00,21.643900,85.599355,NH3,7,16,11
India,Odisha,Nayagarh,"Dabuna, Nayagarh - OSPCB",25-10-2025 07:00:00,21.847279,85.416905,PM10,25,74,50
India,Odisha,Nayagarh,"Dabuna, Nayagarh - OSPCB",25-10-2025 07:00:00,21.847279,85.416905,OZONE,11,23,12
India,Odisha,Rairangpur,"Divisional Forest Office, Rairangpur - OSPCB",25-10-2025 07:00:00,22.265816,86.174829,NO2,13,18,15
India,Odisha,Rairangpur,"Divisional Forest Office, Rairangpur - OSPCB",25-10-2025 07:00:00,22.265816,86.174829,SO2,7,9,8
India,Odisha,Rairangpur,"Divisional Forest Office, Rairangpur - OSPCB",25-10-2025 07:00:00,22.265816,86.174829,CO,26,44,35
India,Maharashtra,Ulhasnagar,"Sidhi Vinayak Nagar, Ulhasnagar - MPCB",25-10-2025 07:00:00,19.235581,73.159121,NH3,3,7,5
India,Maharashtra,Ulhasnagar,"Sidhi Vinayak Nagar, Ulhasnagar - MPCB",25-10-2025 07:00:00,19.235581,73.159121,OZONE,13,63,16
India,Maharashtra,Virar,"Bolinj, Virar - MPCB",25-10-2025 07:00:00,19.4458210,72.7988231,PM2.5,NA,NA,NA
India,Maharashtra,Virar,"Bolinj, Virar - MPCB",25-10-2025 07:00:00,19.4458210,72.7988231,PM10,36,99,61
India,Maharashtra,Virar,"Bolinj, Virar - MPCB",25-10-2025 07:00:00,19.4458210,72.7988231,NO2,7,21,16
India,Maharashtra,Virar,"Bolinj, Virar - MPCB",25-10-2025 07:00:00,19.4458210,72.7988231,SO2,1,2,1
India,Meghalaya,Shillong,"JN Stadium, Shillong - Meghalaya PCB",25-10-2025 07:00:00,25.5803419,91.8942571,SO2,NA,NA,NA
India,Meghalaya,Shillong,"Lumpyngngad, Shillong - Meghalaya PCB",25-10-2025 07:00:00,25.5586,91.8985,OZONE,1,21,8
India,Odisha,Bhubaneswar,"Lingraj Mandir, Bhubaneswar - OSPCB",25-10-2025 07:00:00,20.240790,85.836784,NO2,6,33,20
India,Odisha,Bhubaneswar,"Patia, Bhubaneswar - OSPCB",25-10-2025 07:00:00,20.34652,85.81630,OZONE,8,57,19
India,Odisha,Bileipada,"Tata Township, Bileipada - OSPCB",25-10-2025 07:00:00,22.06156703,85.47409613,PM10,88,134,114
India,Odisha,Brajrajnagar,"GM Office, Brajrajnagar - OSPCB",25-10-2025 07:00:00,21.8004996,83.8396977,PM10,51,169,95
India,Odisha,Byasanagar,"Ferro Chrome Colony, Byasanagar - OSPCB",25-10-2025 07:00:00,20.94185,86.11510,NO2,5,32,13
India,Maharashtra,Pune,"Mhada Colony, Pune - IITM",25-10-2025 07:00:00,18.573040,73.927715,CO,22,68,33
India,Maharashtra,Pune,"Panchawati_Pashan, Pune - IITM",25-10-2025 07:00:00,18.536457,73.805454,PM2.5,8,41,23
India,Maharashtra,Pune,"Savitribai Phule Pune University, Pune - MPCB",25-10-2025 07:00:00,18.547056,73.826908,NH3,NA,NA,NA
India,Maharashtra,Pune,"Transport Nagar-Nigdi, Pune - IITM",25-10-2025 07:00:00,18.664282,73.763966,PM2.5,10,46,25
India,Maharashtra,Pune,"Transport Nagar-Nigdi, Pune - IITM",25-10-2025 07:00:00,18.664282,73.763966,CO,45,67,52
India,Maharashtra,Sangli,"Vijay Nagar, Sangli - MPCB",25-10-2025 07:00:00, 16.5038,74.3623,NO2,1,25,10
India,Odisha,Rourkela,"Fertilizer Township, Rourkela - OSPCB",25-10-2025 07:00:00,22.18972222,84.86277778,NO2,11,11,11
India,Odisha,Rourkela,"Raghunathpali, Rourkela - OSPCB",25-10-2025 07:00:00,22.220833,84.809444,CO,30,102,38
India,Odisha,Tensa,"Barsua Iron Ore Mines, Tensa - OSPCB",25-10-2025 07:00:00,21.869985,85.167016,NO2,NA,NA,NA
India,Odisha,Tensa,"Barsua Iron Ore Mines, Tensa - OSPCB",25-10-2025 07:00:00,21.869985,85.167016,SO2,13,46,19
India,Puducherry,Puducherry,"Jawahar Nagar, Puducherry - PPCC",25-10-2025 07:00:00,11.9309,79.8027,PM10,16,41,24
India,Maharashtra,Pimpri-Chinchwad,"Park Street Wakad, Pimpri Chinchwad - MPCB",25-10-2025 07:00:00,18.59051,73.77946,SO2,1,2,2
India,Maharashtra,Pimpri-Chinchwad,"Savta Mali Nagar, Pimpri-Chinchwad - IITM",25-10-2025 07:00:00,18.614767,73.799516,NO2,19,53,26
India,Maharashtra,Pimpri-Chinchwad,"Thergaon, Pimpri Chinchwad - MPCB",25-10-2025 07:00:00,18.616318,73.765797,PM2.5,29,76,46
India,Maharashtra,Pune,"Bhumkar Nagar, Pune - IITM",25-10-2025 07:00:00,18.605770,73.749976,CO,38,107,46
India,Maharashtra,Solapur,"Dnyaneshwar Nagar, Solapur - MPCB",25-10-2025 07:00:00,17.6336264,75.9132495,OZONE,4,17,11
India,Maharashtra,Thane,"Kasarvadavali, Thane - MPCB",25-10-2025 07:00:00,19.26777,72.97182,SO2,4,5,4
India,Maharashtra,Thane,"Upvan Fort, Thane - MPCB",25-10-2025 07:00:00,19.222279,72.957979,SO2,3,6,5
India,Maharashtra,Thane,"Upvan Fort, Thane - MPCB",25-10-2025 07:00:00,19.222279,72.957979,OZONE,1,25,1
India,Odisha,Barbil,"Forest Office, Barbil - OSPCB",25-10-2025 07:00:00,22.1166054,85.3945546,NH3,2,4,3
India,Odisha,Bhubaneswar,"Lingraj Mandir, Bhubaneswar - OSPCB",25-10-2025 07:00:00,20.240790,85.836784,PM2.5,65,230,111
India,Odisha,Bhubaneswar,"Lingraj Mandir, Bhubaneswar - OSPCB",25-10-2025 07:00:00,20.240790,85.836784,PM10,57,159,87
India,Maharashtra,Solapur,"Dnyaneshwar Nagar, Solapur - MPCB",25-10-2025 07:00:00,17.6336264,75.9132495,PM10,5,23,14
India,Maharashtra,Solapur,"Dnyaneshwar Nagar, Solapur - MPCB",25-10-2025 07:00:00,17.6336264,75.9132495,NO2,1,20,6
India,Maharashtra,Solapur,"Dnyaneshwar Nagar, Solapur - MPCB",25-10-2025 07:00:00,17.6336264,75.9132495,NH3,5,32,10
India,Rajasthan,Jaipur,"Shastri Nagar, Jaipur - RSPCB",25-10-2025 07:00:00,26.9502929,75.730943,NH3,9,38,18
India,Rajasthan,Jaipur,"Shastri Nagar, Jaipur - RSPCB",25-10-2025 07:00:00,26.9502929,75.730943,SO2,15,63,30
India,Rajasthan,Jaisalmer,"Sadar Bazar, Jaisalmer - RSPCB",25-10-2025 07:00:00,26.912329,70.909168,PM2.5,58,302,108
India,Rajasthan,Jalore,"Mudtra Sili, Jalore - RSPCB",25-10-2025 07:00:00,25.344694,72.626208,PM10,62,210,108
India,Rajasthan,Jalore,"Mudtra Sili, Jalore - RSPCB",25-10-2025 07:00:00,25.344694,72.626208,CO,20,101,28
India,Rajasthan,Jalore,"Mudtra Sili, Jalore - RSPCB",25-10-2025 07:00:00,25.344694,72.626208,OZONE,14,113,70
India,Rajasthan,Jhalawar,"Rajlaxmi Nagar, Jhalawar - RSPCB",25-10-2025 07:00:00,24.588397,76.172782,SO2,7,15,10
India,Rajasthan,Jhalawar,"Rajlaxmi Nagar, Jhalawar - RSPCB",25-10-2025 07:00:00,24.588397,76.172782,CO,38,50,47
India,Punjab,Amritsar,"Golden Temple, Amritsar - PPCB",25-10-2025 07:00:00,31.620000,74.876512,PM10,62,126,103
India,Punjab,Bathinda,"Hardev Nagar, Bathinda - PPCB",25-10-2025 07:00:00,30.233011,74.907758,PM2.5,78,332,211
India,Punjab,Bathinda,"Hardev Nagar, Bathinda - PPCB",25-10-2025 07:00:00,30.233011,74.907758,NO2,20,29,22
India,Punjab,Jalandhar,"Civil Line, Jalandhar - PPCB",25-10-2025 07:00:00,31.321907,75.578914,PM10,101,155,134
India,Punjab,Jalandhar,"Civil Line, Jalandhar - PPCB",25-10-2025 07:00:00,31.321907,75.578914,CO,70,84,75
India,Punjab,Jalandhar,"Civil Line, Jalandhar - PPCB",25-10-2025 07:00:00,31.321907,75.578914,OZONE,36,44,41
India,Punjab,Ludhiana,"Punjab Agricultural University, Ludhiana - PPCB",25-10-2025 07:00:00,30.9028,75.8086,PM2.5,168,307,208
India,Rajasthan,Bharatpur,"Krishna Nagar, Bharatpur - RSPCB",25-10-2025 07:00:00,27.215415,77.50873,NO2,17,102,43
India,Rajasthan,Bharatpur,"Krishna Nagar, Bharatpur - RSPCB",25-10-2025 07:00:00,27.215415,77.50873,OZONE,8,176,26
India,Rajasthan,Bhilwara,"Pratap Nagar, Bhilwara - RSPCB",25-10-2025 07:00:00,25.339605,74.618883,NO2,10,84,32
India,Rajasthan,Bhilwara,"Pratap Nagar, Bhilwara - RSPCB",25-10-2025 07:00:00,25.339605,74.618883,SO2,1,29,11
India,Rajasthan,Bhiwadi,"RIICO Ind. Area III, Bhiwadi - RSPCB",25-10-2025 07:00:00,28.194909,76.862296,PM2.5,81,321,202
India,Rajasthan,Bhiwadi,"Vasundhara Nagar_UIT, Bhiwadi - RSPCB",25-10-2025 07:00:00,28.207266,76.829265,SO2,6,40,16
India,Punjab,Mandi Gobindgarh,"RIMT University, Mandi Gobindgarh - PPCB",25-10-2025 07:00:00,30.649961,76.331442,OZONE,32,35,34
India,Punjab,Rupnagar,"Ratanpura, Rupnagar - Ambuja Cements",25-10-2025 07:00:00,31.0325454,76.5623046,PM10,39,217,124
India,Punjab,Rupnagar,"Ratanpura, Rupnagar - Ambuja Cements",25-10-2025 07:00:00,31.0325454,76.5623046,NO2,2,9,7
India,Rajasthan,Ajmer,"Civil Lines,  Ajmer - RSPCB",25-10-2025 07:00:00,26.470859,74.646594,NO2,24,43,33
India,Rajasthan,Dholpur,"Raja Ganj, Dholpur - RSPCB",25-10-2025 07:00:00,26.699557,77.898881,PM10,52,157,104
India,Rajasthan,Hanumangarh,"Housing Board, Hanumangarh - RSPCB",25-10-2025 07:00:00,29.610750,74.283608,NO2,9,84,31
India,Rajasthan,Jaipur,"Adarsh Nagar, Jaipur - RSPCB",25-10-2025 07:00:00,26.902909,75.836858,CO,32,106,71
India,Rajasthan,Jaipur,"Mansarovar Sector-12, Jaipur - RSPCB",25-10-2025 07:00:00,26.843698,75.766894,PM2.5,78,346,182
India,Rajasthan,Jaipur,"Mansarovar Sector-12, Jaipur - RSPCB",25-10-2025 07:00:00,26.843698,75.766894,PM10,111,409,192
India,Rajasthan,Jaipur,"Mansarovar Sector-12, Jaipur - RSPCB",25-10-2025 07:00:00,26.843698,75.766894,CO,36,129,103
India,Rajasthan,Jaipur,"Police Commissionerate, Jaipur - RSPCB",25-10-2025 07:00:00,26.9164092,75.7994901,PM10,55,123,84
India,Rajasthan,Jaipur,"RIICO Sitapura, Jaipur - RSPCB",25-10-2025 07:00:00,26.786682,75.827928,PM10,70,209,131
India,Rajasthan,Banswara,"Rati Talai, Banswara - RSPCB",25-10-2025 07:00:00,23.555190,74.440010,NH3,4,7,5
India,Rajasthan,Banswara,"Rati Talai, Banswara - RSPCB",25-10-2025 07:00:00,23.555190,74.440010,OZONE,49,117,93
India,Rajasthan,Baran,"Bamboliya, Baran - RSPCB",25-10-2025 07:00:00,25.106006,76.469948,PM2.5,60,237,144
India,Rajasthan,Barmer,"Railway Colony, Barmer - RSPCB",25-10-2025 07:00:00,25.747299,71.393989,NH3,3,7,5
India,Rajasthan,Churu,"Subash Chowk, Churu - RSPCB",25-10-2025 07:00:00,28.296139,74.961696,OZONE,28,135,52
India,Rajasthan,Dausa,"Khatikan Mohalla, Dausa - RSPCB",25-10-2025 07:00:00,26.895552,76.334753,NH3,5,19,9
India,Rajasthan,Alwar,"Moti Doongri, Alwar - RSPCB",25-10-2025 07:00:00,27.554793,76.611536,PM2.5,61,166,100
India,Rajasthan,Alwar,"Moti Doongri, Alwar - RSPCB",25-10-2025 07:00:00,27.554793,76.611536,SO2,16,61,42
India,TamilNadu,Coimbatore,"PSG College of Arts and Science, Coimbatore - TNPCB",25-10-2025 07:00:00,11.0328,77.0349,PM10,9,145,57
India,TamilNadu,Coimbatore,"PSG College of Arts and Science, Coimbatore - TNPCB",25-10-2025 07:00:00,11.0328,77.0349,NH3,1,2,1
India,TamilNadu,Coimbatore,"SIDCO Kurichi, Coimbatore - TNPCB",25-10-2025 07:00:00,10.942451,76.978996,NH3,2,2,2
India,TamilNadu,Coimbatore,"SIDCO Kurichi, Coimbatore - TNPCB",25-10-2025 07:00:00,10.942451,76.978996,CO,22,32,27
India,TamilNadu,Cuddalore,"Kudikadu, Cuddalore - TNPCB",25-10-2025 07:00:00,11.6829898,79.7532099,PM10,22,49,31
India,TamilNadu,Cuddalore,"Kudikadu, Cuddalore - TNPCB",25-10-2025 07:00:00,11.6829898,79.7532099,SO2,18,19,19
India,TamilNadu,Dindigul,"Mendonsa Colony, Dindigul - TNPCB",25-10-2025 07:00:00,10.358535,77.984321,PM2.5,8,38,25
India,TamilNadu,Dindigul,"Mendonsa Colony, Dindigul - TNPCB",25-10-2025 07:00:00,10.358535,77.984321,OZONE,NA,NA,NA
India,TamilNadu,Gummidipoondi,"Anthoni Pillai Nagar, Gummidipoondi - TNPCB",25-10-2025 07:00:00,13.4127,80.1081,PM2.5,5,421,153
India,TamilNadu,Hosur,"SIPCOT Phase-1, Hosur - TNPCB",25-10-2025 07:00:00,12.746998,77.813811,PM2.5,16,83,46
India,TamilNadu,Hosur,"SIPCOT Phase-1, Hosur - TNPCB",25-10-2025 07:00:00,12.746998,77.813811,NO2,1,2,2
India,TamilNadu,Hosur,"SIPCOT Phase-1, Hosur - TNPCB",25-10-2025 07:00:00,12.746998,77.813811,SO2,42,55,51
India,TamilNadu,Kanchipuram,"Kilambi, Kanchipuram - TNPCB",25-10-2025 07:00:00,12.864618,79.659968,NH3,4,4,4
India,TamilNadu,Karur,"Kamadenu Nagar, Karur - TNPCB",25-10-2025 07:00:00,10.967820,78.080882,PM10,8,61,24
India,TamilNadu,Karur,"Kamadenu Nagar, Karur - TNPCB",25-10-2025 07:00:00,10.967820,78.080882,NH3,3,3,3
India,TamilNadu,Karur,"Kamadenu Nagar, Karur - TNPCB",25-10-2025 07:00:00,10.967820,78.080882,SO2,12,19,14
India,TamilNadu,Karur,"Kamadenu Nagar, Karur - TNPCB",25-10-2025 07:00:00,10.967820,78.080882,CO,3,14,8
India,TamilNadu,Madurai,"Uchapatti, Madurai - TNPCB",25-10-2025 07:00:00,9.865935,78.022669,CO,23,30,27
India,TamilNadu,Nagapattinam,"Velippalayam, Nagapattinam - TNPCB",25-10-2025 07:00:00,10.798548,79.838212,PM2.5,12,78,40
India,TamilNadu,Chennai,"Manali Village, Chennai - TNPCB",25-10-2025 07:00:00,13.1662,80.2584,SO2,4,10,6
India,TamilNadu,Chennai,"Manali, Chennai - CPCB",25-10-2025 07:00:00,13.164544,80.26285,PM10,37,91,62
India,TamilNadu,Chennai,"Manali, Chennai - CPCB",25-10-2025 07:00:00,13.164544,80.26285,NO2,8,26,16
India,TamilNadu,Chennai,"Manali, Chennai - CPCB",25-10-2025 07:00:00,13.164544,80.26285,SO2,9,28,16
India,TamilNadu,Chennai,"Perungudi, Chennai - TNPCB",25-10-2025 07:00:00,12.9533,80.2357,NO2,1,9,3
India,TamilNadu,Chennai,"Perungudi, Chennai - TNPCB",25-10-2025 07:00:00,12.9533,80.2357,SO2,1,3,2
India,TamilNadu,Chennai,"Perungudi, Chennai - TNPCB",25-10-2025 07:00:00,12.9533,80.2357,CO,24,60,49
India,TamilNadu,Chennai,"Perungudi, Chennai - TNPCB",25-10-2025 07:00:00,12.9533,80.2357,OZONE,1,8,2
India,TamilNadu,Chennai,"Royapuram, Chennai - TNPCB",25-10-2025 07:00:00,13.1036,80.2909,PM10,NA,NA,NA
India,TamilNadu,Chennai,"Royapuram, Chennai - TNPCB",25-10-2025 07:00:00,13.1036,80.2909,OZONE,9,22,9
India,TamilNadu,Chennai,"Velachery Res. Area, Chennai - CPCB",25-10-2025 07:00:00,13.0052189,80.2398125,SO2,14,18,16
India,Rajasthan,Sri Ganganagar,"Old City, Sri Ganganagar - RSPCB",25-10-2025 07:00:00,29.931624,73.864511,OZONE,12,140,20
India,Rajasthan,Tonk,"Shastri Nagar, Tonk - RSPCB",25-10-2025 07:00:00,26.159933,75.780517,PM10,106,195,147
India,Rajasthan,Tonk,"Shastri Nagar, Tonk - RSPCB",25-10-2025 07:00:00,26.159933,75.780517,SO2,1,3,2
India,Rajasthan,Udaipur,"Ashok Nagar, Udaipur - RSPCB",25-10-2025 07:00:00,24.5886166,73.6321397,NO2,10,92,38
India,Rajasthan,Udaipur,"Ashok Nagar, Udaipur - RSPCB",25-10-2025 07:00:00,24.5886166,73.6321397,NH3,3,6,4
India,Rajasthan,Udaipur,"Ashok Nagar, Udaipur - RSPCB",25-10-2025 07:00:00,24.5886166,73.6321397,SO2,6,13,10
India,Rajasthan,Udaipur,"Ashok Nagar, Udaipur - RSPCB",25-10-2025 07:00:00,24.5886166,73.6321397,CO,8,72,25
India,TamilNadu,Ariyalur,"Keelapalur, Ariyalur - TNPCB",25-10-2025 07:00:00,11.06825,79.07033,PM10,24,121,46
India,TamilNadu,Ariyalur,"Keelapalur, Ariyalur - TNPCB",25-10-2025 07:00:00,11.06825,79.07033,SO2,11,16,12
India,Rajasthan,Rajsamand,"Dhoinda, Rajsamand - RSPCB",25-10-2025 07:00:00,25.036360,73.883502,OZONE,11,72,14
India,Rajasthan,Sawai Madhopur,"Sahu Nagar, Sawai Madhopur - RSPCB",25-10-2025 07:00:00,26.031443,76.359327,PM10,97,224,136
India,Rajasthan,Sawai Madhopur,"Sahu Nagar, Sawai Madhopur - RSPCB",25-10-2025 07:00:00,26.031443,76.359327,SO2,3,10,6
India,Rajasthan,Sikar,"Radhakishan Pura, Sikar - RSPCB",25-10-2025 07:00:00,27.608912,75.153302,NO2,10,119,50
India,Rajasthan,Sikar,"Radhakishan Pura, Sikar - RSPCB",25-10-2025 07:00:00,27.608912,75.153302,OZONE,6,142,14
India,Rajasthan,Sirohi,"Vedhaynath Colony, Sirohi - RSPCB",25-10-2025 07:00:00,24.885261,72.857549,OZONE,45,106,77
India,Rajasthan,Sri Ganganagar,"Old City, Sri Ganganagar - RSPCB",25-10-2025 07:00:00,29.931624,73.864511,PM2.5,53,308,144
India,Rajasthan,Sri Ganganagar,"Old City, Sri Ganganagar - RSPCB",25-10-2025 07:00:00,29.931624,73.864511,PM10,99,500,228
India,Rajasthan,Jodhpur,"Mandor, Jodhpur - RSPCB",25-10-2025 07:00:00,26.358805,73.047444,CO,14,32,24
India,Rajasthan,Jodhpur,"Samrat Ashok Udhyan, Jodhpur - RSPCB",25-10-2025 07:00:00,26.253384,72.976571,SO2,1,11,4
India,Rajasthan,Karauli,"Satyawati Vihar, Karauli - RSPCB",25-10-2025 07:00:00,26.506177,77.025989,PM2.5,102,287,189
India,Rajasthan,Karauli,"Satyawati Vihar, Karauli - RSPCB",25-10-2025 07:00:00,26.506177,77.025989,NO2,15,27,20
India,Rajasthan,Kota,"Dhanmandi, Kota - RSPCB",25-10-2025 07:00:00,25.164090,75.858137,NH3,3,6,4
India,TamilNadu,Chengalpattu,"Crescent University, Chengalpattu - TNPCB",25-10-2025 07:00:00,12.8777316,80.0834807,NO2,5,17,9
India,TamilNadu,Chengalpattu,"Crescent University, Chengalpattu - TNPCB",25-10-2025 07:00:00,12.8777316,80.0834807,OZONE,4,20,11
India,TamilNadu,Chennai,"Alandur Bus Depot, Chennai - CPCB",25-10-2025 07:00:00,12.9099161,80.1076538,CO,26,40,33
India,TamilNadu,Chennai,"Kodungaiyur, Chennai - TNPCB",25-10-2025 07:00:00,13.1278,80.2642,PM10,16,113,57
India,TamilNadu,Chennai,"Kodungaiyur, Chennai - TNPCB",25-10-2025 07:00:00,13.1278,80.2642,NH3,5,8,7
India,Rajasthan,Kota,"Shrinath Puram, Kota - RSPCB",25-10-2025 07:00:00,25.14389,75.821256,OZONE,28,45,33
India,Rajasthan,Pali,"Indira Colony Vistar, Pali - RSPCB",25-10-2025 07:00:00,25.771061, 73.340227,CO,21,38,28
India,Rajasthan,Rajsamand,"Dhoinda, Rajsamand - RSPCB",25-10-2025 07:00:00,25.036360,73.883502,NO2,9,32,18
India,Rajasthan,Jodhpur,"Collectorate, Jodhpur - RSPCB",25-10-2025 07:00:00,26.268249,73.0193853,PM10,52,230,108
India,Rajasthan,Jodhpur,"Collectorate, Jodhpur - RSPCB",25-10-2025 07:00:00,26.268249,73.0193853,NO2,10,24,15
India,Rajasthan,Jodhpur,"Collectorate, Jodhpur - RSPCB",25-10-2025 07:00:00,26.268249,73.0193853,SO2,1,15,6
India,Uttar_Pradesh,Baghpat,"Sardar Patel Inter College, Baghpat - UPPCB",25-10-2025 07:00:00,28.964949,77.278761,OZONE,4,83,9
India,Uttar_Pradesh,Bareilly,"Civil Lines, Bareilly - UPPCB",25-10-2025 07:00:00,28.359581,79.414455,SO2,21,29,24
India,Uttar_Pradesh,Bareilly,"Civil Lines, Bareilly - UPPCB",25-10-2025 07:00:00,28.359581,79.414455,OZONE,13,15,14
India,Uttar_Pradesh,Bareilly,"Rajendra Nagar, Bareilly - UPPCB",25-10-2025 07:00:00,28.38910936,79.42963708,NO2,9,10,9
India,Uttar_Pradesh,Bareilly,"Rajendra Nagar, Bareilly - UPPCB",25-10-2025 07:00:00,28.38910936,79.42963708,NH3,1,1,1
India,Uttar_Pradesh,Bulandshahr,"Yamunapuram, Bulandshahr - UPPCB",25-10-2025 07:00:00,28.406963,77.849831,CO,32,103,87
India,Uttar_Pradesh,Bulandshahr,"Yamunapuram, Bulandshahr - UPPCB",25-10-2025 07:00:00,28.406963,77.849831,OZONE,2,65,4
India,Uttar_Pradesh,Firozabad,"Nagla Bhau, Firozabad - UPPCB",25-10-2025 07:00:00,27.168897,78.376960,NO2,17,17,17
India,TamilNadu,Pudukottai,"SIPCOT Nathampannai, Pudukottai - TNPCB",25-10-2025 07:00:00,10.423417,78.784889,PM2.5,20,56,35
India,TamilNadu,Ramanathapuram,"Chalai Bazaar, Ramanathapuram - TNPCB",25-10-2025 07:00:00,9.36399,78.831977,PM10,13,58,27
India,TamilNadu,Ranipet,"VOC Nagar_SIPCOT, Ranipet - TNPCB",25-10-2025 07:00:00,12.952707,79.30394,PM2.5,45,130,82
India,TamilNadu,Ranipet,"VOC Nagar_SIPCOT, Ranipet - TNPCB",25-10-2025 07:00:00,12.952707,79.30394,NO2,1,1,1
India,TamilNadu,Salem,"Sona College of Technology, Salem - TNPCB",25-10-2025 07:00:00,11.679111,78.125052,NO2,12,12,12
India,TamilNadu,Thanjavur,"Parisutham Nagar, Thanjavur - TNPCB",25-10-2025 07:00:00,10.7654824,79.1389968,PM2.5,10,39,19
India,TamilNadu,Thanjavur,"Parisutham Nagar, Thanjavur - TNPCB",25-10-2025 07:00:00,10.7654824,79.1389968,SO2,16,16,16
India,Telangana,Hyderabad,"Kompally Municipal Office, Hyderabad - TSPCB",25-10-2025 07:00:00,17.544899,78.486949,SO2,NA,NA,NA
India,Telangana,Hyderabad,"Nacharam_TSIIC IALA, Hyderabad - TSPCB",25-10-2025 07:00:00,17.429398,78.569354,CO,28,52,48
India,Telangana,Hyderabad,"New Malakpet, Hyderabad - TSPCB",25-10-2025 07:00:00,17.37206,78.50864,PM10,77,94,81
India,Telangana,Hyderabad,"New Malakpet, Hyderabad - TSPCB",25-10-2025 07:00:00,17.37206,78.50864,NH3,2,3,3
India,Telangana,Hyderabad,"Ramachandrapuram, Hyderabad - TSPCB",25-10-2025 07:00:00,17.528544,78.286195,PM2.5,36,47,41
India,Telangana,Hyderabad,"Ramachandrapuram, Hyderabad - TSPCB",25-10-2025 07:00:00,17.528544,78.286195,NH3,2,3,3
India,Telangana,Hyderabad,"Sanathnagar, Hyderabad - TSPCB",25-10-2025 07:00:00,17.4559458,78.4332152,CO,2,20,9
India,Telangana,Hyderabad,"Sanathnagar, Hyderabad - TSPCB",25-10-2025 07:00:00,17.4559458,78.4332152,OZONE,13,16,14
India,Uttar_Pradesh,Agra,"Sector-3B Avas Vikas Colony, Agra - UPPCB",25-10-2025 07:00:00,27.19412,77.96237,NO2,25,37,30
India,Uttar_Pradesh,Agra,"Sector-3B Avas Vikas Colony, Agra - UPPCB",25-10-2025 07:00:00,27.19412,77.96237,CO,17,96,69
India,Uttar_Pradesh,Agra,"Shahjahan Garden, Agra - UPPCB",25-10-2025 07:00:00,27.169338,78.03582,PM2.5,22,114,59
India,Uttar_Pradesh,Agra,"Shastripuram, Agra - UPPCB",25-10-2025 07:00:00,27.19862,77.92066,SO2,9,24,19
India,Uttar_Pradesh,Agra,"Shastripuram, Agra - UPPCB",25-10-2025 07:00:00,27.19862,77.92066,CO,20,36,29
India,Uttar_Pradesh,Baghpat,"Sardar Patel Inter College, Baghpat - UPPCB",25-10-2025 07:00:00,28.964949,77.278761,PM2.5,58,327,212
India,TamilNadu,Thoothukudi,"Meelavittan, Thoothukudi - TNPCB",25-10-2025 07:00:00,8.816428 ,78.099039,PM10,17,48,32
India,TamilNadu,Thoothukudi,"Meelavittan, Thoothukudi - TNPCB",25-10-2025 07:00:00,8.816428 ,78.099039,SO2,1,5,3
India,TamilNadu,Tiruchirappalli,"St Joseph College, Tiruchirappalli - TNPCB",25-10-2025 07:00:00,10.830158,78.691849,NH3,1,1,1
India,TamilNadu,Tirunelveli,"Municipal Corporation Office, Tirunelveli - TNPCB",25-10-2025 07:00:00,8.728442,77.6962,CO,40,42,41
India,TamilNadu,Vellore,"Vasanthapuram, Vellore - TNPCB",25-10-2025 07:00:00,12.909494,79.131861,CO,7,8,7
India,Telangana,Hyderabad,"Somajiguda, Hyderabad - TSPCB",25-10-2025 07:00:00,17.417094,78.457437,NH3,3,5,4
India,Telangana,Hyderabad,"Somajiguda, Hyderabad - TSPCB",25-10-2025 07:00:00,17.417094,78.457437,CO,15,22,18
India,Telangana,Hyderabad,"Zoo Park, Hyderabad - TSPCB",25-10-2025 07:00:00,17.349694,78.451437,PM10,30,109,73
India,Uttar_Pradesh,Agra,"Rohta, Agra - UPPCB",25-10-2025 07:00:00,27.106972,78.000111,NH3,7,7,7
India,Uttar_Pradesh,Agra,"Sanjay Palace, Agra - UPPCB",25-10-2025 07:00:00,27.19865833,78.00598056,PM10,51,134,98
India,TamilNadu,Nagapattinam,"Velippalayam, Nagapattinam - TNPCB",25-10-2025 07:00:00,10.798548,79.838212,NH3,2,2,2
India,TamilNadu,Namakkal,"Ponnusamy Nagar, Namakkal - TNPCB",25-10-2025 07:00:00,11.273992,78.163545,NH3,3,3,3
India,TamilNadu,Palkalaiperur,"Bharathidasan University, Palkalaiperur - TNPCB",25-10-2025 07:00:00,10.681158,78.741746,NH3,1,1,1
India,TamilNadu,Perundurai,"SIPCOT Industrial Park, Perundurai - TNPCB",25-10-2025 07:00:00,11.258242,77.552761,CO,58,62,60
India,TamilNadu,Vellore,"Vasanthapuram, Vellore - TNPCB",25-10-2025 07:00:00,12.909494,79.131861,OZONE,1,36,13
India,Telangana,Hyderabad,"Central University, Hyderabad - TSPCB",25-10-2025 07:00:00,17.460103,78.334361,CO,10,24,14
India,Telangana,Hyderabad,"ECIL Kapra, Hyderabad - TSPCB",25-10-2025 07:00:00,17.470431,78.566959,NO2,13,23,19
India,Telangana,Hyderabad,"ICRISAT Patancheru, Hyderabad - TSPCB",25-10-2025 07:00:00,17.518400,78.278777,PM10,11,50,27
India,Telangana,Hyderabad,"IITH Kandi, Hyderabad - TSPCB",25-10-2025 07:00:00,17.585705,78.126199,PM2.5,58,76,66
India,Telangana,Hyderabad,"IITH Kandi, Hyderabad - TSPCB",25-10-2025 07:00:00,17.585705,78.126199,CO,19,30,27
India,Telangana,Hyderabad,"Kompally Municipal Office, Hyderabad - TSPCB",25-10-2025 07:00:00,17.544899,78.486949,NO2,12,17,13
India,Telangana,Hyderabad,"Kompally Municipal Office, Hyderabad - TSPCB",25-10-2025 07:00:00,17.544899,78.486949,NH3,3,4,3
India,Uttar_Pradesh,Hapur,"Anand Vihar, Hapur - UPPCB",25-10-2025 07:00:00,28.725645,77.749675,PM10,87,176,144
India,Uttar_Pradesh,Jhansi,"Shivaji Nagar, Jhansi - UPPCB",25-10-2025 07:00:00,25.4547,78.6039,PM10,52,107,81
India,Uttar_Pradesh,Jhansi,"Shivaji Nagar, Jhansi - UPPCB",25-10-2025 07:00:00,25.4547,78.6039,SO2,9,16,12
India,Uttar_Pradesh,Jhansi,"Shivaji Nagar, Jhansi - UPPCB",25-10-2025 07:00:00,25.4547,78.6039,CO,15,23,18
India,Uttar_Pradesh,Jhansi,"Shivaji Nagar, Jhansi - UPPCB",25-10-2025 07:00:00,25.4547,78.6039,OZONE,2,35,9
India,Uttar_Pradesh,Kanpur,"FTI Kidwai Nagar, Kanpur - UPPCB",25-10-2025 07:00:00,26.428282,80.327067,PM10,83,257,135
India,Uttar_Pradesh,Kanpur,"FTI Kidwai Nagar, Kanpur - UPPCB",25-10-2025 07:00:00,26.428282,80.327067,CO,34,73,49
India,Uttar_Pradesh,Kanpur,"NSI Kalyanpur, Kanpur - UPPCB",25-10-2025 07:00:00,26.509954,80.249612,PM10,96,181,135
India,Uttar_Pradesh,Kanpur,"NSI Kalyanpur, Kanpur - UPPCB",25-10-2025 07:00:00,26.509954,80.249612,CO,28,52,46
India,Uttar_Pradesh,Kanpur,"NSI Kalyanpur, Kanpur - UPPCB",25-10-2025 07:00:00,26.509954,80.249612,OZONE,20,22,21
India,Uttar_Pradesh,Kanpur,"Nehru Nagar, Kanpur - UPPCB",25-10-2025 07:00:00,26.4703136,80.3229863,PM10,48,142,88
India,Uttar_Pradesh,Firozabad,"Nagla Bhau, Firozabad - UPPCB",25-10-2025 07:00:00,27.168897,78.376960,NH3,2,2,2
India,Uttar_Pradesh,Firozabad,"Vibhab Nagar, Firozabad - UPPCB",25-10-2025 07:00:00,27.1594,78.3953,NH3,2,2,2
India,Uttar_Pradesh,Firozabad,"Vibhab Nagar, Firozabad - UPPCB",25-10-2025 07:00:00,27.1594,78.3953,CO,15,28,23
India,Uttar_Pradesh,Ghaziabad,"Indirapuram, Ghaziabad - UPPCB",25-10-2025 07:00:00,28.646233,77.358075,PM10,126,493,294
India,Uttar_Pradesh,Ghaziabad,"Indirapuram, Ghaziabad - UPPCB",25-10-2025 07:00:00,28.646233,77.358075,SO2,13,59,32
India,Uttar_Pradesh,Ghaziabad,"Loni, Ghaziabad - UPPCB",25-10-2025 07:00:00,28.757294,77.278792,PM10,109,457,277
India,Uttar_Pradesh,Ghaziabad,"Loni, Ghaziabad - UPPCB",25-10-2025 07:00:00,28.757294,77.278792,NO2,20,134,78
India,Uttar_Pradesh,Ghaziabad,"Sanjay Nagar, Ghaziabad - UPPCB",25-10-2025 07:00:00,28.685382,77.453839,NH3,6,19,10
India,Uttar_Pradesh,Noida,"Sector-116, Noida - UPPCB",25-10-2025 07:00:00,28.569230,77.393848,CO,4,140,113
India,Uttar_Pradesh,Noida,"Sector-116, Noida - UPPCB",25-10-2025 07:00:00,28.569230,77.393848,OZONE,10,304,11
India,Uttar_Pradesh,Prayagraj,"Jhunsi, Prayagraj - UPPCB",25-10-2025 07:00:00,25.425602,81.917152,SO2,8,22,12
India,Uttar_Pradesh,Prayagraj,"Jhunsi, Prayagraj - UPPCB",25-10-2025 07:00:00,25.425602,81.917152,CO,16,78,54
India,Uttar_Pradesh,Prayagraj,"Motilal Nehru NIT, Prayagraj - UPPCB",25-10-2025 07:00:00,25.494,81.863,SO2,36,37,36
India,Uttar_Pradesh,Prayagraj,"Motilal Nehru NIT, Prayagraj - UPPCB",25-10-2025 07:00:00,25.494,81.863,CO,16,36,24
India,Uttar_Pradesh,Prayagraj,"Nagar Nigam, Prayagraj - UPPCB",25-10-2025 07:00:00,25.44919916 ,81.82735986 ,PM2.5,95,222,158
India,Uttar_Pradesh,Prayagraj,"Nagar Nigam, Prayagraj - UPPCB",25-10-2025 07:00:00,25.44919916 ,81.82735986 ,PM10,113,172,135
India,Uttar_Pradesh,Kanpur,"Nehru Nagar, Kanpur - UPPCB",25-10-2025 07:00:00,26.4703136,80.3229863,OZONE,6,64,6
India,Uttar_Pradesh,Khurja,"Kalindi Kunj, Khurja - UPPCB",25-10-2025 07:00:00,28.2348927,77.8683002,NO2,3,4,4
India,Uttar_Pradesh,Khurja,"Kalindi Kunj, Khurja - UPPCB",25-10-2025 07:00:00,28.2348927,77.8683002,NH3,1,1,1
India,Uttar_Pradesh,Lucknow,"Gomti Nagar, Lucknow - UPPCB",25-10-2025 07:00:00,26.868120,81.005119,OZONE,36,47,38
India,Uttar_Pradesh,Lucknow,"Kendriya Vidyalaya, Lucknow - CPCB",25-10-2025 07:00:00,26.906111,80.948222,NH3,12,17,15
India,Uttar_Pradesh,Lucknow,"Kendriya Vidyalaya, Lucknow - CPCB",25-10-2025 07:00:00,26.906111,80.948222,SO2,5,25,15
India,Uttar_Pradesh,Lucknow,"Kendriya Vidyalaya, Lucknow - CPCB",25-10-2025 07:00:00,26.906111,80.948222,CO,24,63,43
India,Uttar_Pradesh,Ghaziabad,"Vasundhara, Ghaziabad - UPPCB",25-10-2025 07:00:00,28.6603346,77.3572563,NO2,21,37,28
India,Uttar_Pradesh,Ghaziabad,"Vasundhara, Ghaziabad - UPPCB",25-10-2025 07:00:00,28.6603346,77.3572563,OZONE,14,95,19
India,Uttar_Pradesh,Gorakhpur,"Madan Mohan Malaviya University of Technology, Gorakhpur - UPPCB",25-10-2025 07:00:00,26.730136,83.433859,PM2.5,9,162,100
India,Uttar_Pradesh,Greater Noida,"Knowledge Park - III, Greater Noida - UPPCB",25-10-2025 07:00:00,28.47272,77.482000,SO2,16,26,20
India,Uttar_Pradesh,Greater Noida,"Knowledge Park - V, Greater Noida - UPPCB",25-10-2025 07:00:00,28.557054,77.453663,PM10,116,495,249
India,Uttar_Pradesh,Lucknow,"Kukrail Picnic Spot-1, Lucknow - UPPCB",25-10-2025 07:00:00,26.90723,80.98579,NO2,31,32,32
India,Uttar_Pradesh,Lucknow,"Talkatora District Industries Center, Lucknow - CPCB",25-10-2025 07:00:00,26.83399722,80.8917361,PM2.5,67,316,191
India,Uttar_Pradesh,Lucknow,"Talkatora District Industries Center, Lucknow - CPCB",25-10-2025 07:00:00,26.83399722,80.8917361,NO2,53,60,57
India,Uttar_Pradesh,Meerut,"Ganga Nagar, Meerut - UPPCB",25-10-2025 07:00:00,28.999264,77.7590354,OZONE,20,150,22
India,Uttar_Pradesh,Meerut,"Jai Bhim Nagar, Meerut - UPPCB",25-10-2025 07:00:00,28.9535882,77.7622941,PM10,NA,NA,NA
India,Uttar_Pradesh,Moradabad,"Employment Office, Moradabad - UPPCB",25-10-2025 07:00:00,28.88528,78.73880,CO,4,65,20
India,Uttar_Pradesh,Moradabad,"Jigar Colony, Moradabad - UPPCB",25-10-2025 07:00:00,28.856664,78.772638,PM10,65,138,108
India,Uttar_Pradesh,Moradabad,"Jigar Colony, Moradabad - UPPCB",25-10-2025 07:00:00,28.856664,78.772638,CO,26,42,40
India,Uttar_Pradesh,Muzaffarnagar,"New Mandi, Muzaffarnagar - UPPCB",25-10-2025 07:00:00,29.4723508,77.7194031,PM2.5,59,327,197
India,Uttar_Pradesh,Moradabad,"Eco Herbal Park, Moradabad - UPPCB",25-10-2025 07:00:00,28.840739,78.697531,NH3,3,4,4
India,Uttar_Pradesh,Moradabad,"Eco Herbal Park, Moradabad - UPPCB",25-10-2025 07:00:00,28.840739,78.697531,OZONE,4,99,7
India,Uttar_Pradesh,Noida,"Sector - 125, Noida - UPPCB",25-10-2025 07:00:00,28.5447608,77.3231257,PM10,138,500,299
India,Uttar_Pradesh,Noida,"Sector - 125, Noida - UPPCB",25-10-2025 07:00:00,28.5447608,77.3231257,CO,18,122,114
India,Uttar_Pradesh,Vrindavan,"Omex Eternity, Vrindavan - UPPCB",25-10-2025 07:00:00,27.5714090,77.6557570,CO,24,78,69
India,Uttarakhand,Dehradun,"Doon University, Dehradun - UKPCB",25-10-2025 07:00:00,30.269444,78.044167,SO2,1,2,2
India,Uttarakhand,Dehradun,"Doon University, Dehradun - UKPCB",25-10-2025 07:00:00,30.269444,78.044167,CO,1,16,10
India,Uttarakhand,Kashipur,"Govt. Girls Inter College, Kashipur - UKPCB",25-10-2025 07:00:00,29.2124114,78.9611753,PM2.5,66,113,84
India,Uttarakhand,Kashipur,"Govt. Girls Inter College, Kashipur - UKPCB",25-10-2025 07:00:00,29.2124114,78.9611753,NO2,8,60,18
India,Uttarakhand,Kashipur,"Govt. Girls Inter College, Kashipur - UKPCB",25-10-2025 07:00:00,29.2124114,78.9611753,NH3,2,16,5
India,Uttarakhand,Kashipur,"Govt. Girls Inter College, Kashipur - UKPCB",25-10-2025 07:00:00,29.2124114,78.9611753,CO,32,40,36
India,Uttarakhand,Kashipur,"Govt. Girls Inter College, Kashipur - UKPCB",25-10-2025 07:00:00,29.2124114,78.9611753,OZONE,2,26,5
India,West_Bengal,Asansol,"Asansol Court Area, Asansol - WBPCB",25-10-2025 07:00:00,23.685297,86.945968,NO2,15,47,26
India,West_Bengal,Kolkata,"Fort William, Kolkata - WBPCB",25-10-2025 07:00:00,22.556640,88.342674,CO,25,91,62
India,West_Bengal,Kolkata,"Fort William, Kolkata - WBPCB",25-10-2025 07:00:00,22.556640,88.342674,OZONE,15,57,18
India,West_Bengal,Kolkata,"Rabindra Bharati University, Kolkata - WBPCB",25-10-2025 07:00:00,22.627847,88.380669,PM2.5,56,144,83
India,West_Bengal,Kolkata,"Rabindra Bharati University, Kolkata - WBPCB",25-10-2025 07:00:00,22.627847,88.380669,NH3,8,10,8
India,West_Bengal,Kolkata,"Rabindra Bharati University, Kolkata - WBPCB",25-10-2025 07:00:00,22.627847,88.380669,OZONE,19,44,23
India,West_Bengal,Kolkata,"Rabindra Sarobar, Kolkata - WBPCB",25-10-2025 07:00:00,22.51106,88.35142,NO2,20,200,113
India,West_Bengal,Kolkata,"Rabindra Sarobar, Kolkata - WBPCB",25-10-2025 07:00:00,22.51106,88.35142,CO,20,69,54
India,West_Bengal,Kolkata,"Victoria, Kolkata - WBPCB",25-10-2025 07:00:00,22.5448082,88.3403691,PM10,106,161,124
India,West_Bengal,Haldia,"Priyambada Housing Estate, Haldia - WBPCB",25-10-2025 07:00:00,22.06047,88.109737,OZONE,18,52,23
India,West_Bengal,Howrah,"Belur Math, Howrah - WBPCB",25-10-2025 07:00:00,22.629801,88.352017,NH3,7,13,10
India,West_Bengal,Howrah,"Botanical Garden, Howrah - WBPCB",25-10-2025 07:00:00,22.554954,88.292568,PM2.5,66,176,116
India,West_Bengal,Howrah,"Botanical Garden, Howrah - WBPCB",25-10-2025 07:00:00,22.554954,88.292568,NO2,NA,NA,NA
India,West_Bengal,Howrah,"Dasnagar, Howrah - WBPCB",25-10-2025 07:00:00,22.6025571,88.3105664,NO2,10,47,28
India,West_Bengal,Howrah,"Ghusuri, Howrah - WBPCB",25-10-2025 07:00:00,22.611968,88.347422,NO2,21,37,26
India,West_Bengal,Howrah,"Ghusuri, Howrah - WBPCB",25-10-2025 07:00:00,22.611968,88.347422,NH3,7,15,11
India,Uttar_Pradesh,Varanasi,"Bhelupur, Varanasi - UPPCB",25-10-2025 07:00:00,25.301778,82.996789,SO2,27,29,28
India,Uttar_Pradesh,Varanasi,"IESD Banaras Hindu University, Varanasi - UPPCB",25-10-2025 07:00:00,25.262326,82.995408,SO2,25,46,28
India,Uttar_Pradesh,Varanasi,"IESD Banaras Hindu University, Varanasi - UPPCB",25-10-2025 07:00:00,25.262326,82.995408,OZONE,13,36,16
India,Uttar_Pradesh,Varanasi,"Maldahiya, Varanasi - UPPCB",25-10-2025 07:00:00,25.32393,82.99687,NO2,1,1,1
India,Uttar_Pradesh,Varanasi,"Maldahiya, Varanasi - UPPCB",25-10-2025 07:00:00,25.32393,82.99687,SO2,40,43,42
India,Uttar_Pradesh,Varanasi,"Maldahiya, Varanasi - UPPCB",25-10-2025 07:00:00,25.32393,82.99687,CO,20,60,42
India,West_Bengal,Durgapur,"PCBL Residential Complex, Durgapur - WBPCB",25-10-2025 07:00:00,23.5087640,87.3544400,OZONE,4,25,6
India,West_Bengal,Haldia,"Priyambada Housing Estate, Haldia - WBPCB",25-10-2025 07:00:00,22.06047,88.109737,NO2,8,57,24
India,West_Bengal,Haldia,"Priyambada Housing Estate, Haldia - WBPCB",25-10-2025 07:00:00,22.06047,88.109737,NH3,5,8,7
India,West_Bengal,Howrah,"Padmapukur, Howrah - WBPCB",25-10-2025 07:00:00,22.5687319,88.2797276,NH3,3,11,7
India,West_Bengal,Kolkata,"Ballygunge, Kolkata - WBPCB",25-10-2025 07:00:00,22.5367507,88.3638022,PM2.5,74,200,127
India,West_Bengal,Kolkata,"Ballygunge, Kolkata - WBPCB",25-10-2025 07:00:00,22.5367507,88.3638022,CO,10,72,46
India,West_Bengal,Asansol,"Evelyn Lodge, Asansol - WBPCB",25-10-2025 07:00:00,23.6979360,86.9443950,SO2,5,9,6
India,West_Bengal,Asansol,"Evelyn Lodge, Asansol - WBPCB",25-10-2025 07:00:00,23.6979360,86.9443950,CO,18,68,54
India,West_Bengal,Kolkata,"Bidhannagar, Kolkata - WBPCB",25-10-2025 07:00:00,22.58157048,88.41002457,SO2,7,11,9
India,West_Bengal,Kolkata,"Bidhannagar, Kolkata - WBPCB",25-10-2025 07:00:00,22.58157048,88.41002457,OZONE,15,47,16
India,West_Bengal,Kolkata,"Victoria, Kolkata - WBPCB",25-10-2025 07:00:00,22.5448082,88.3403691,CO,50,80,73
India,West_Bengal,Kolkata,"Victoria, Kolkata - WBPCB",25-10-2025 07:00:00,22.5448082,88.3403691,OZONE,8,53,11
India,Andhra_Pradesh,Vijayawada,"HB Colony, Vijayawada - APPCB",25-10-2025 07:00:00,16.536107,80.594233,SO2,13,22,19
India,Andhra_Pradesh,Vijayawada,"HB Colony, Vijayawada - APPCB",25-10-2025 07:00:00,16.536107,80.594233,CO,20,38,32
India,Andhra_Pradesh,Vijayawada,"Rajiv Gandhi Park, Vijayawada - APPCB",25-10-2025 07:00:00,16.509717,80.612222,PM2.5,44,51,48
India,Andhra_Pradesh,Vijayawada,"Rajiv Gandhi Park, Vijayawada - APPCB",25-10-2025 07:00:00,16.509717,80.612222,NH3,3,5,5
India,Andhra_Pradesh,Vijayawada,"Rajiv Nagar, Vijayawada - APPCB",25-10-2025 07:00:00,16.554731,80.649110,OZONE,42,309,52
India,Andhra_Pradesh,Visakhapatnam,"GVM Corporation, Visakhapatnam - APPCB",25-10-2025 07:00:00,17.72,83.3,NH3,2,6,3
India,Andhra_Pradesh,Visakhapatnam,"GVM Corporation, Visakhapatnam - APPCB",25-10-2025 07:00:00,17.72,83.3,SO2,3,32,9
India,Andhra_Pradesh,Visakhapatnam,"GVM Corporation, Visakhapatnam - APPCB",25-10-2025 07:00:00,17.72,83.3,OZONE,3,50,24
India,Arunachal_Pradesh,Naharlagun,"Naharlagun, Naharlagun - APSPCB",25-10-2025 07:00:00,27.103358,93.679645,NO2,5,6,6
India,Assam,Guwahati,"Railway Colony, Guwahati - PCBA",25-10-2025 07:00:00,26.181742,91.78063,NO2,NA,NA,NA
India,Assam,Nagaon,"Christianpatty, Nagaon - PCBA",25-10-2025 07:00:00,26.349082,92.68449,PM2.5,NA,NA,NA
India,Assam,Nagaon,"Christianpatty, Nagaon - PCBA",25-10-2025 07:00:00,26.349082,92.68449,NH3,4,4,4
India,Assam,Nalbari,"Bata Chowk, Nalbari - PCBA",25-10-2025 07:00:00,26.446912,91.439057,NO2,11,18,15
India,Assam,Nalbari,"Bata Chowk, Nalbari - PCBA",25-10-2025 07:00:00,26.446912,91.439057,NH3,5,8,6
India,Assam,Nalbari,"Bata Chowk, Nalbari - PCBA",25-10-2025 07:00:00,26.446912,91.439057,OZONE,11,147,38
India,Assam,Silchar,"Tarapur, Silchar - PCBA",25-10-2025 07:00:00,24.82827,92.79525,NH3,1,1,1
India,Assam,Silchar,"Tarapur, Silchar - PCBA",25-10-2025 07:00:00,24.82827,92.79525,SO2,3,8,5
India,Bihar,Katihar,"Mirchaibari, Katihar - BSPCB",25-10-2025 07:00:00,25.560083,87.553265,OZONE,3,34,6
India,Bihar,Kishanganj,"SDM Office_Khagra, Kishanganj - BSPCB",25-10-2025 07:00:00,26.0881305,87.93840336,PM2.5,25,173,75
India,Bihar,Kishanganj,"SDM Office_Khagra, Kishanganj - BSPCB",25-10-2025 07:00:00,26.0881305,87.93840336,CO,12,16,13
India,Bihar,Manguraha,"Forest Rest House, Manguraha - BSPCB",25-10-2025 07:00:00,27.308328,84.531742,PM10,42,195,82
India,Bihar,Manguraha,"Forest Rest House, Manguraha - BSPCB",25-10-2025 07:00:00,27.308328,84.531742,OZONE,5,21,8
India,Bihar,Munger,"Town Hall, Munger - BSPCB",25-10-2025 07:00:00,25.376776,86.471523,PM2.5,37,240,96
India,Andhra_Pradesh,Rajamahendravaram,"Anand Kala Kshetram, Rajamahendravaram - APPCB",25-10-2025 07:00:00,16.9872867,81.7363176,PM2.5,NA,NA,NA
India,Andhra_Pradesh,Rajamahendravaram,"Anand Kala Kshetram, Rajamahendravaram - APPCB",25-10-2025 07:00:00,16.9872867,81.7363176,PM10,NA,NA,NA
India,Andhra_Pradesh,Rajamahendravaram,"Anand Kala Kshetram, Rajamahendravaram - APPCB",25-10-2025 07:00:00,16.9872867,81.7363176,NO2,NA,NA,NA
India,Andhra_Pradesh,Rajamahendravaram,"Anand Kala Kshetram, Rajamahendravaram - APPCB",25-10-2025 07:00:00,16.9872867,81.7363176,NH3,NA,NA,NA
India,Andhra_Pradesh,Tirumala,"Toll Gate, Tirumala - APPCB",25-10-2025 07:00:00,13.67,79.35,PM10,3,52,24
India,Andhra_Pradesh,Tirumala,"Toll Gate, Tirumala - APPCB",25-10-2025 07:00:00,13.67,79.35,SO2,1,12,6
India,Andhra_Pradesh,Tirumala,"Toll Gate, Tirumala - APPCB",25-10-2025 07:00:00,13.67,79.35,CO,24,42,34
India,Andhra_Pradesh,Tirupati,"Vaikuntapuram, Tirupati - APPCB",25-10-2025 07:00:00,13.615387,79.409230,NH3,NA,NA,NA
India,Andhra_Pradesh,Amaravati,"Secretariat, Amaravati - APPCB",25-10-2025 07:00:00,16.5150833,80.5181667,NO2,14,22,18
India,Andhra_Pradesh,Anantapur,"Gulzarpet, Anantapur - APPCB",25-10-2025 07:00:00,14.675886,77.593027,PM10,52,72,63
India,Andhra_Pradesh,Anantapur,"Gulzarpet, Anantapur - APPCB",25-10-2025 07:00:00,14.675886,77.593027,SO2,7,21,14
India,Andhra_Pradesh,Anantapur,"Gulzarpet, Anantapur - APPCB",25-10-2025 07:00:00,14.675886,77.593027,CO,4,34,11
India,Andhra_Pradesh,Chittoor,"Gangineni Cheruvu, Chittoor - APPCB",25-10-2025 07:00:00,13.204880,79.097889,PM10,NA,NA,NA
India,Arunachal_Pradesh,Naharlagun,"Naharlagun, Naharlagun - APSPCB",25-10-2025 07:00:00,27.103358,93.679645,CO,4,16,8
India,Assam,Byrnihat,"Central Academy for SFS, Byrnihat - PCBA",25-10-2025 07:00:00,26.071318,91.87488,PM2.5,NA,NA,NA
India,Assam,Byrnihat,"Central Academy for SFS, Byrnihat - PCBA",25-10-2025 07:00:00,26.071318,91.87488,SO2,NA,NA,NA
India,Assam,Guwahati,"LGBI Airport, Guwahati - PCBA",25-10-2025 07:00:00,26.10887,91.589544,PM10,58,107,88
India,Bihar,Gaya,"Collectorate, Gaya - BSPCB",25-10-2025 07:00:00,24.7955,84.9994,OZONE,NA,NA,NA
India,Bihar,Gaya,"Kareemganj, Gaya - BSPCB",25-10-2025 07:00:00,24.792403,84.992416,PM10,125,281,172
India,Bihar,Gaya,"SFTI Kusdihra, Gaya - BSPCB",25-10-2025 07:00:00,24.762518,84.982348,CO,28,41,34
India,Bihar,Katihar,"Mirchaibari, Katihar - BSPCB",25-10-2025 07:00:00,25.560083,87.553265,PM2.5,33,147,84
India,Bihar,Bhagalpur,"Mayaganj, Bhagalpur - BSPCB",25-10-2025 07:00:00,25.265194,87.012947,NO2,29,59,55
India,Bihar,Bihar Sharif,"D M Colony, Bihar Sharif - BSPCB",25-10-2025 07:00:00,25.204762,85.514960,PM10,56,143,100
India,Bihar,Bihar Sharif,"D M Colony, Bihar Sharif - BSPCB",25-10-2025 07:00:00,25.204762,85.514960,NH3,1,2,1
India,Bihar,Chhapra,"Darshan Nagar, Chhapra - BSPCB",25-10-2025 07:00:00,25.7808257,84.7446768,CO,4,9,6
India,Bihar,Bettiah,"Kamalnath Nagar, Bettiah - BSPCB",25-10-2025 07:00:00,26.80365,84.51954,SO2,13,27,20
India,Bihar,Bhagalpur,"DM Office_Kachari Chowk, Bhagalpur - BSPCB",25-10-2025 07:00:00,25.251013,86.989001,PM2.5,23,207,86
India,Bihar,Bhagalpur,"DM Office_Kachari Chowk, Bhagalpur - BSPCB",25-10-2025 07:00:00,25.251013,86.989001,OZONE,12,29,17
India,Assam,Silchar,"Tarapur, Silchar - PCBA",25-10-2025 07:00:00,24.82827,92.79525,CO,32,44,40
India,Assam,Sivasagar,"Girls College, Sivasagar - PCBA",25-10-2025 07:00:00,26.987634,94.636574,PM2.5,15,53,40
India,Assam,Sivasagar,"Girls College, Sivasagar - PCBA",25-10-2025 07:00:00,26.987634,94.636574,OZONE,2,22,2
India,Chhattisgarh,Raipur,"Siltara Phase-II, Raipur - CECB",25-10-2025 07:00:00,21.371751,81.664929,SO2,3,3,3
India,Chhattisgarh,Tumidih,"OP Jindal Industrial Park, Tumidih - CECB",25-10-2025 07:00:00,22.06631475,83.33820077,PM10,71,358,122
India,Chhattisgarh,Tumidih,"OP Jindal Industrial Park, Tumidih - CECB",25-10-2025 07:00:00,22.06631475,83.33820077,NO2,26,79,39
India,Delhi,Delhi,"Alipur, Delhi - DPCC",25-10-2025 07:00:00,28.815329,77.153010,NH3,1,2,1
India,Delhi,Delhi,"Alipur, Delhi - DPCC",25-10-2025 07:00:00,28.815329,77.153010,OZONE,3,78,4
India,Delhi,Delhi,"Anand Vihar, Delhi - DPCC",25-10-2025 07:00:00,28.647622,77.3158090,CO,22,151,138
India,Delhi,Delhi,"Anand Vihar, Delhi - DPCC",25-10-2025 07:00:00,28.647622,77.3158090,OZONE,17,28,21
India,Delhi,Delhi,"Ashok Vihar, Delhi - DPCC",25-10-2025 07:00:00,28.695381,77.181665,PM2.5,120,384,281
India,Bihar,Munger,"Town Hall, Munger - BSPCB",25-10-2025 07:00:00,25.376776,86.471523,CO,21,42,28
India,Bihar,Muzaffarpur,"Buddha Colony, Muzaffarpur - BSPCB",25-10-2025 07:00:00,26.11442,85.39813,PM2.5,55,145,104
India,Bihar,Muzaffarpur,"Buddha Colony, Muzaffarpur - BSPCB",25-10-2025 07:00:00,26.11442,85.39813,SO2,2,6,4
India,Bihar,Muzaffarpur,"MIT-Daudpur Kothi, Muzaffarpur - BSPCB",25-10-2025 07:00:00,26.1403345,85.3650192,PM2.5,46,72,58
India,Bihar,Muzaffarpur,"MIT-Daudpur Kothi, Muzaffarpur - BSPCB",25-10-2025 07:00:00,26.1403345,85.3650192,NH3,1,2,1
India,Bihar,Muzaffarpur,"Muzaffarpur Collectorate, Muzaffarpur - BSPCB",25-10-2025 07:00:00,26.1209,85.3647,CO,10,50,12
India,Bihar,Patna,"DRM Office Danapur, Patna - BSPCB",25-10-2025 07:00:00,25.586562,85.043586,PM10,105,193,141
India,Chhattisgarh,Bhilai,"Civic Center, Bhilai - Bhilai Steel Plant",25-10-2025 07:00:00,21.185571,81.343175,NH3,3,3,3
India,Chhattisgarh,Bhilai,"Hathkhoj, Bhilai - CECB",25-10-2025 07:00:00,21.224231,81.408350,SO2,3,19,10
India,Chhattisgarh,Bhilai,"Hathkhoj, Bhilai - CECB",25-10-2025 07:00:00,21.224231,81.408350,OZONE,8,31,10
India,Chhattisgarh,Bilaspur,"Mangala, Bilaspur - NTPC",25-10-2025 07:00:00,22.08815,82.13737,SO2,4,33,15
India,Chhattisgarh,Chhal,"Nawapara SECL Colony, Chhal - CECB",25-10-2025 07:00:00,22.118125,83.140608,PM2.5,50,194,111
India,Chhattisgarh,Chhal,"Nawapara SECL Colony, Chhal - CECB",25-10-2025 07:00:00,22.118125,83.140608,SO2,3,97,27
India,Bihar,Patna,"Rajbansi Nagar, Patna - BSPCB",25-10-2025 07:00:00,25.599486,85.113666,NO2,23,140,54
India,Bihar,Patna,"Rajbansi Nagar, Patna - BSPCB",25-10-2025 07:00:00,25.599486,85.113666,CO,20,75,36
India,Bihar,Patna,"Samanpura, Patna - BSPCB",25-10-2025 07:00:00,25.596727,85.085624,OZONE,19,43,35
India,Bihar,Purnia,"Mariam Nagar, Purnia - BSPCB",25-10-2025 07:00:00,25.366336,87.117468,PM2.5,25,90,62
India,Bihar,Purnia,"Mariam Nagar, Purnia - BSPCB",25-10-2025 07:00:00,25.366336,87.117468,NO2,4,6,6
India,Bihar,Purnia,"Mariam Nagar, Purnia - BSPCB",25-10-2025 07:00:00,25.366336,87.117468,CO,56,59,58
India,Bihar,Patna,"DRM Office Danapur, Patna - BSPCB",25-10-2025 07:00:00,25.586562,85.043586,NO2,16,60,38
India,Bihar,Patna,"Govt. High School Shikarpur, Patna - BSPCB",25-10-2025 07:00:00,25.592539,85.227158,NH3,2,6,5
India,Bihar,Patna,"Govt. High School Shikarpur, Patna - BSPCB",25-10-2025 07:00:00,25.592539,85.227158,OZONE,8,12,10
India,Bihar,Patna,"Rajbansi Nagar, Patna - BSPCB",25-10-2025 07:00:00,25.599486,85.113666,PM2.5,70,96,83
India,Bihar,Patna,"Rajbansi Nagar, Patna - BSPCB",25-10-2025 07:00:00,25.599486,85.113666,PM10,103,124,112
India,Bihar,Saharsa,"Police Line, Saharsa - BSPCB",25-10-2025 07:00:00,25.892357,86.590325,NO2,6,10,7
India,Bihar,Sasaram,"Dada Peer, Sasaram - BSPCB",25-10-2025 07:00:00,24.952822,84.002396,PM2.5,35,76,47
India,Bihar,Siwan,"Chitragupta Nagar, Siwan - BSPCB",25-10-2025 07:00:00,26.2271665,84.3570427,PM10,NA,NA,NA
India,Bihar,Siwan,"Chitragupta Nagar, Siwan - BSPCB",25-10-2025 07:00:00,26.2271665,84.3570427,NH3,NA,NA,NA
India,Chhattisgarh,Milupara,"Govt. Higher Secondary School, Milupara - CECB",25-10-2025 07:00:00,22.1910172,83.5197009,CO,22,32,22
India,Chhattisgarh,Raipur,"Krishak Nagar, Raipur - CECB",25-10-2025 07:00:00,21.237755,81.705301,NO2,8,14,10
India,Chhattisgarh,Raipur,"Siltara Phase-II, Raipur - CECB",25-10-2025 07:00:00,21.371751,81.664929,PM2.5,61,157,95
India,Chhattisgarh,Korba,"Rampur, Korba - CECB",25-10-2025 07:00:00,22.368195,82.746431,PM10,45,68,53
India,Chhattisgarh,Korba,"Rampur, Korba - CECB",25-10-2025 07:00:00,22.368195,82.746431,CO,20,31,26
India,Chhattisgarh,Korba,"Urja Nagar, Korba - CECB",25-10-2025 07:00:00,22.348441,82.549611,PM10,68,73,69
India,Chhattisgarh,Korba,"Urja Nagar, Korba - CECB",25-10-2025 07:00:00,22.348441,82.549611,CO,19,47,37
India,Chhattisgarh,Korba,"Urja Nagar, Korba - CECB",25-10-2025 07:00:00,22.348441,82.549611,OZONE,35,36,36
India,Chandigarh,Chandigarh,"Sector 22, Chandigarh - CPCC",25-10-2025 07:00:00,30.735567,76.775714,PM2.5,45,230,100
India,Chandigarh,Chandigarh,"Sector 22, Chandigarh - CPCC",25-10-2025 07:00:00,30.735567,76.775714,SO2,4,13,7
India,Chandigarh,Chandigarh,"Sector-53, Chandigarh - CPCC",25-10-2025 07:00:00,30.719859,76.738637,PM2.5,27,92,51
India,Delhi,Delhi,"Rohini, Delhi - DPCC",25-10-2025 07:00:00,28.732528,77.119920,CO,9,104,79
India,Delhi,Delhi,"Rohini, Delhi - DPCC",25-10-2025 07:00:00,28.732528,77.119920,OZONE,20,182,22
India,Delhi,Delhi,"Sirifort, Delhi - CPCB",25-10-2025 07:00:00,28.5504249,77.2159377,PM10,143,289,183
India,Delhi,Delhi,"Sirifort, Delhi - CPCB",25-10-2025 07:00:00,28.5504249,77.2159377,CO,2,120,112
India,Delhi,Delhi,"Sirifort, Delhi - CPCB",25-10-2025 07:00:00,28.5504249,77.2159377,OZONE,9,25,9
India,Delhi,Delhi,"Sonia Vihar, Delhi - DPCC",25-10-2025 07:00:00,28.710508,77.249485,PM2.5,110,344,263
India,Delhi,Delhi,"Sonia Vihar, Delhi - DPCC",25-10-2025 07:00:00,28.710508,77.249485,NH3,3,5,4
India,Delhi,Delhi,"Sri Aurobindo Marg, Delhi - DPCC",25-10-2025 07:00:00,28.531346,77.190156,PM2.5,96,241,173
India,Delhi,Delhi,"Sri Aurobindo Marg, Delhi - DPCC",25-10-2025 07:00:00,28.531346,77.190156,PM10,112,178,143
India,Delhi,Delhi,"Ashok Vihar, Delhi - DPCC",25-10-2025 07:00:00,28.695381,77.181665,SO2,20,38,26
India,Delhi,Delhi,"Ashok Vihar, Delhi - DPCC",25-10-2025 07:00:00,28.695381,77.181665,OZONE,8,144,10
India,Delhi,Delhi,"Aya Nagar, Delhi - IMD",25-10-2025 07:00:00,28.4706914,77.1099364,OZONE,21,207,29
India,Delhi,Delhi,"Bawana, Delhi - DPCC",25-10-2025 07:00:00,28.776200,77.051074,SO2,10,27,15
India,Delhi,Delhi,"Burari Crossing, Delhi - IMD",25-10-2025 07:00:00,28.7256504,77.2011573,PM10,115,405,231
India,Delhi,Delhi,"CRRI Mathura Road, Delhi - IMD",25-10-2025 07:00:00,28.5512005,77.2735737,NO2,1,97,32
India,Delhi,Delhi,"Chandni Chowk, Delhi - IITM",25-10-2025 07:00:00,28.656756,77.227234,PM10,128,431,315
India,Delhi,Delhi,"Mundka, Delhi - DPCC",25-10-2025 07:00:00,28.684678,77.076574,NH3,5,9,7
India,Delhi,Delhi,"NSIT Dwarka, Delhi - CPCB",25-10-2025 07:00:00,28.60909,77.0325413,PM2.5,106,314,209
India,Delhi,Delhi,"NSIT Dwarka, Delhi - CPCB",25-10-2025 07:00:00,28.60909,77.0325413,PM10,141,358,211
India,Delhi,Delhi,"NSIT Dwarka, Delhi - CPCB",25-10-2025 07:00:00,28.60909,77.0325413,CO,62,92,74
India,Delhi,Delhi,"Najafgarh, Delhi - DPCC",25-10-2025 07:00:00,28.570173,76.933762,PM2.5,68,302,177
India,Delhi,Delhi,"Najafgarh, Delhi - DPCC",25-10-2025 07:00:00,28.570173,76.933762,SO2,23,90,45
India,Delhi,Delhi,"Narela, Delhi - DPCC",25-10-2025 07:00:00,28.822836,77.101981,PM2.5,75,354,264
India,Delhi,Delhi,"IHBAS, Dilshad Garden, Delhi - CPCB",25-10-2025 07:00:00,28.6811736,77.3025234,SO2,10,18,13
India,Delhi,Delhi,"ITO, Delhi - CPCB",25-10-2025 07:00:00,28.628624,77.241060,NH3,6,10,8
India,Delhi,Delhi,"ITO, Delhi - CPCB",25-10-2025 07:00:00,28.628624,77.241060,CO,44,140,112
India,Delhi,Delhi,"Jawaharlal Nehru Stadium, Delhi - DPCC",25-10-2025 07:00:00,28.580280,77.233829,PM2.5,123,323,238
India,Delhi,Delhi,"Jawaharlal Nehru Stadium, Delhi - DPCC",25-10-2025 07:00:00,28.580280,77.233829,PM10,142,370,216
India,Delhi,Delhi,"Jawaharlal Nehru Stadium, Delhi - DPCC",25-10-2025 07:00:00,28.580280,77.233829,NO2,39,168,97
India,Delhi,Delhi,"Punjabi Bagh, Delhi - DPCC",25-10-2025 07:00:00,28.674045,77.131023,PM10,134,418,264
India,Delhi,Delhi,"Punjabi Bagh, Delhi - DPCC",25-10-2025 07:00:00,28.674045,77.131023,SO2,8,98,24
India,Delhi,Delhi,"Pusa, Delhi - DPCC",25-10-2025 07:00:00,28.639652,77.146275,OZONE,6,89,7
India,Delhi,Delhi,"Pusa, Delhi - IMD",25-10-2025 07:00:00,28.636110,77.173332,OZONE,NA,NA,NA
India,Delhi,Delhi,"R K Puram, Delhi - DPCC",25-10-2025 07:00:00,28.563262,77.186937,NH3,4,7,5
India,Delhi,Delhi,"Rohini, Delhi - DPCC",25-10-2025 07:00:00,28.732528,77.119920,PM10,101,436,276
India,Delhi,Delhi,"North Campus, DU, Delhi - IMD",25-10-2025 07:00:00,28.6573814,77.1585447,PM10,125,297,191
India,Delhi,Delhi,"North Campus, DU, Delhi - IMD",25-10-2025 07:00:00,28.6573814,77.1585447,OZONE,34,307,40
India,Delhi,Delhi,"Okhla Phase-2, Delhi - DPCC",25-10-2025 07:00:00,28.530785,77.271255,OZONE,6,217,7
India,Delhi,Delhi,"Patparganj, Delhi - DPCC",25-10-2025 07:00:00,28.623763,77.287209,PM10,131,274,213
India,Delhi,Delhi,"Patparganj, Delhi - DPCC",25-10-2025 07:00:00,28.623763,77.287209,NH3,9,14,11
India,Delhi,Delhi,"Patparganj, Delhi - DPCC",25-10-2025 07:00:00,28.623763,77.287209,OZONE,3,265,3
India,Delhi,Delhi,"Lodhi Road, Delhi - IMD",25-10-2025 07:00:00,28.5918245,77.2273074,CO,66,111,109
India,Delhi,Delhi,"Major Dhyan Chand National Stadium, Delhi - DPCC",25-10-2025 07:00:00,28.611281,77.237738,PM2.5,107,306,222
India,Delhi,Delhi,"Major Dhyan Chand National Stadium, Delhi - DPCC",25-10-2025 07:00:00,28.611281,77.237738,NH3,15,18,16
India,Delhi,Delhi,"Mandir Marg, Delhi - DPCC",25-10-2025 07:00:00,28.636429,77.201067,PM10,75,199,141
India,Delhi,Delhi,"Mandir Marg, Delhi - DPCC",25-10-2025 07:00:00,28.636429,77.201067,NO2,8,30,16
India,Delhi,Delhi,"Chandni Chowk, Delhi - IITM",25-10-2025 07:00:00,28.656756,77.227234,NO2,5,47,23
India,Delhi,Delhi,"Chandni Chowk, Delhi - IITM",25-10-2025 07:00:00,28.656756,77.227234,OZONE,2,113,2
India,Delhi,Delhi,"DTU, Delhi - CPCB",25-10-2025 07:00:00,28.7500499,77.1112615,PM2.5,50,263,132
India,Delhi,Delhi,"IGI Airport (T3), Delhi - IMD",25-10-2025 07:00:00,28.5627763,77.1180053,PM2.5,83,320,217
India,Delhi,Delhi,"Vivek Vihar, Delhi - DPCC",25-10-2025 07:00:00,28.672342,77.315260,NO2,15,109,68
India,Delhi,Delhi,"Wazirpur, Delhi - DPCC",25-10-2025 07:00:00,28.699793,77.165453,NH3,8,13,10
India,Delhi,Delhi,"Wazirpur, Delhi - DPCC",25-10-2025 07:00:00,28.699793,77.165453,OZONE,12,184,18
India,Gujarat,Ahmedabad,"Chandkheda, Ahmedabad - IITM",25-10-2025 07:00:00,23.107969,72.574648,OZONE,35,67,48
India,Haryana,Mandikhera,"General Hospital, Mandikhera - HSPCB",25-10-2025 07:00:00,27.9002,76.9938,PM10,32,111,66
India,Haryana,Manesar,"Sector-2 IMT, Manesar - HSPCB",25-10-2025 07:00:00,28.360699,76.936090,PM2.5,84,456,289
India,Haryana,Manesar,"Sector-2 IMT, Manesar - HSPCB",25-10-2025 07:00:00,28.360699,76.936090,OZONE,10,43,12
India,Haryana,Narnaul,"Shastri Nagar, Narnaul - HSPCB",25-10-2025 07:00:00,28.060249,76.113115,PM2.5,57,76,64
India,Haryana,Narnaul,"Shastri Nagar, Narnaul - HSPCB",25-10-2025 07:00:00,28.060249,76.113115,NO2,15,47,28
India,Haryana,Narnaul,"Shastri Nagar, Narnaul - HSPCB",25-10-2025 07:00:00,28.060249,76.113115,CO,32,46,40
India,Haryana,Narnaul,"Shastri Nagar, Narnaul - HSPCB",25-10-2025 07:00:00,28.060249,76.113115,OZONE,16,82,18
India,Haryana,Palwal,"Shyam Nagar, Palwal - HSPCB",25-10-2025 07:00:00,28.1485564,77.3320667,PM10,94,97,95
India,Haryana,Palwal,"Shyam Nagar, Palwal - HSPCB",25-10-2025 07:00:00,28.1485564,77.3320667,SO2,12,13,12
India,Haryana,Faridabad,"Sector 30, Faridabad - HSPCB",25-10-2025 07:00:00,28.4417,77.3217,SO2,6,6,6
India,Haryana,Faridabad,"Sector 30, Faridabad - HSPCB",25-10-2025 07:00:00,28.4417,77.3217,CO,57,66,62
India,Haryana,Fatehabad,"Huda Sector, Fatehabad - HSPCB",25-10-2025 07:00:00,29.503664,75.467934,CO,25,39,28
India,Haryana,Gurugram,"NISE Gwal Pahari, Gurugram - IMD",25-10-2025 07:00:00,28.422681,77.148944,CO,96,108,103
India,Haryana,Gurugram,"Sector-51, Gurugram - HSPCB",25-10-2025 07:00:00,28.4227,77.0667,OZONE,6,34,11
India,Haryana,Gurugram,"Vikas Sadan, Gurugram - HSPCB",25-10-2025 07:00:00,28.4501238,77.0263051,PM2.5,71,293,176
India,Haryana,Gurugram,"Vikas Sadan, Gurugram - HSPCB",25-10-2025 07:00:00,28.4501238,77.0263051,PM10,53,132,97
India,Haryana,Gurugram,"Vikas Sadan, Gurugram - HSPCB",25-10-2025 07:00:00,28.4501238,77.0263051,CO,100,142,120
India,Gujarat,Gandhinagar,"GIFT City, Gandhinagar - IITM",25-10-2025 07:00:00,23.163798,72.677768,CO,34,52,42
India,Gujarat,Gandhinagar,"IIPHG Lekawada, Gandhinagar - IITM",25-10-2025 07:00:00,23.243639,72.68994,NO2,5,20,10
India,Gujarat,Gandhinagar,"IIPHG Lekawada, Gandhinagar - IITM",25-10-2025 07:00:00,23.243639,72.68994,OZONE,3,43,10
India,Gujarat,Gandhinagar,"Sector-10, Gandhinagar - GPCB",25-10-2025 07:00:00,23.221714,72.654328,NH3,1,1,1
India,Gujarat,Surat,"Science Center, Surat - SMC",25-10-2025 07:00:00,21.170046,72.795405,SO2,57,77,63
India,Gujarat,Vapi,"Phase-1 GIDC, Vapi - GPCB",25-10-2025 07:00:00,20.362421,72.918013,PM2.5,28,137,60
India,Gujarat,Vapi,"Phase-1 GIDC, Vapi - GPCB",25-10-2025 07:00:00,20.362421,72.918013,PM10,34,103,69
India,Gujarat,Vapi,"Phase-1 GIDC, Vapi - GPCB",25-10-2025 07:00:00,20.362421,72.918013,NH3,10,10,10
India,Gujarat,Ahmedabad,"Gyaspur, Ahmedabad - IITM",25-10-2025 07:00:00,22.977134,72.553024,NO2,22,70,39
India,Gujarat,Ahmedabad,"Gyaspur, Ahmedabad - IITM",25-10-2025 07:00:00,22.977134,72.553024,SO2,2,55,28
India,Gujarat,Ahmedabad,"Gyaspur, Ahmedabad - IITM",25-10-2025 07:00:00,22.977134,72.553024,OZONE,15,46,29
India,Gujarat,Ahmedabad,"Maninagar, Ahmedabad - GPCB",25-10-2025 07:00:00,23.002657,72.591912,PM2.5,45,284,117
India,Gujarat,Ahmedabad,"Maninagar, Ahmedabad - GPCB",25-10-2025 07:00:00,23.002657,72.591912,NO2,25,39,33
India,Gujarat,Ahmedabad,"Maninagar, Ahmedabad - GPCB",25-10-2025 07:00:00,23.002657,72.591912,OZONE,53,115,65
India,Gujarat,Ahmedabad,"Raikhad, Ahmedabad - IITM",25-10-2025 07:00:00,23.020509,72.579261,NH3,8,11,9
India,Gujarat,Ahmedabad,"SAC ISRO Bopal, Ahmedabad - IITM",25-10-2025 07:00:00,23.041137,72.456691,PM10,65,158,109
India,Gujarat,Vapi,"Phase-1 GIDC, Vapi - GPCB",25-10-2025 07:00:00,20.362421,72.918013,OZONE,2,2,2
India,Gujarat,Vatva,"Phase-4 GIDC, Vatva - GPCB",25-10-2025 07:00:00,22.969611,72.643500,PM2.5,52,111,79
India,Gujarat,Vatva,"Phase-4 GIDC, Vatva - GPCB",25-10-2025 07:00:00,22.969611,72.643500,CO,20,40,21
India,Gujarat,Vatva,"Phase-4 GIDC, Vatva - GPCB",25-10-2025 07:00:00,22.969611,72.643500,OZONE,14,45,23
India,Haryana,Ambala,"Patti Mehar, Ambala - HSPCB",25-10-2025 07:00:00,30.379589,76.778328,PM2.5,50,392,162
India,Haryana,Bahadurgarh,"Arya Nagar, Bahadurgarh - HSPCB",25-10-2025 07:00:00,28.6701,76.9254,CO,23,52,44
India,Haryana,Charkhi Dadri,"Mini Secretariat, Charkhi Dadri - HSPCB",25-10-2025 07:00:00,28.593883,76.270653,NH3,5,8,6
India,Haryana,Dharuhera,"Municipal Corporation Office, Dharuhera -  HSPCB",25-10-2025 07:00:00,28.206800,76.799700,PM10,126,286,208
India,Haryana,Faridabad,"New Industrial Town, Faridabad - HSPCB",25-10-2025 07:00:00,28.39072,77.30059,PM10,162,169,166
India,Haryana,Faridabad,"New Industrial Town, Faridabad - HSPCB",25-10-2025 07:00:00,28.39072,77.30059,OZONE,25,32,30
India,Haryana,Faridabad,"Sector 30, Faridabad - HSPCB",25-10-2025 07:00:00,28.4417,77.3217,PM2.5,162,171,167
India,Gujarat,Ahmedabad,"SAC ISRO Satellite, Ahmedabad - IITM",25-10-2025 07:00:00,23.023389,72.515201,NO2,14,61,35
India,Gujarat,Ahmedabad,"SVPI Airport Hansol, Ahmedabad - IITM",25-10-2025 07:00:00,23.076793,72.627874,PM2.5,58,89,70
India,Gujarat,Ahmedabad,"SVPI Airport Hansol, Ahmedabad - IITM",25-10-2025 07:00:00,23.076793,72.627874,SO2,7,13,11
India,Gujarat,Ahmedabad,"SVPI Airport Hansol, Ahmedabad - IITM",25-10-2025 07:00:00,23.076793,72.627874,OZONE,25,55,40
India,Gujarat,Ankleshwar,"GIDC, Ankleshwar - GPCB",25-10-2025 07:00:00,21.613267,73.010555,PM10,40,100,73
India,Haryana,Panchgaon,"Amity University, Panchgaon - IITM",25-10-2025 07:00:00,28.3153,76.9143,NH3,9,15,11
India,Haryana,Panchkula,"Sector-6, Panchkula - HSPCB ",25-10-2025 07:00:00,30.7057778,76.8531805555555,NO2,24,26,25
India,Haryana,Sirsa,"F-Block, Sirsa - HSPCB",25-10-2025 07:00:00,29.536400,75.015800,OZONE,51,205,57
India,Haryana,Jind,"Police Lines, Jind - HSPCB",25-10-2025 07:00:00,29.307814,76.337619,NH3,4,6,5
India,Haryana,Jind,"Police Lines, Jind - HSPCB",25-10-2025 07:00:00,29.307814,76.337619,SO2,27,29,28
India,Haryana,Kurukshetra,"Sector-7, Kurukshetra - HSPCB",25-10-2025 07:00:00,29.966942,76.875879,NO2,NA,NA,NA
India,Karnataka,Hubballi,"Lingaraj Nagar, Hubballi - KSPCB",25-10-2025 07:00:00,15.3714823,75.1160168,CO,8,81,13
India,Karnataka,Hubballi,"Lingaraj Nagar, Hubballi - KSPCB",25-10-2025 07:00:00,15.3714823,75.1160168,OZONE,16,19,19
India,Karnataka,Kalaburagi,"Mahatma Basaveswar Colony, Kalaburgi - KSPCB",25-10-2025 07:00:00,17.336318,76.847397,PM2.5,25,37,31
India,Karnataka,Kalaburagi,"Mahatma Basaveswar Colony, Kalaburgi - KSPCB",25-10-2025 07:00:00,17.336318,76.847397,NO2,10,18,15
India,Karnataka,Karwar,"KHB Colony, Karwar - KSPCB",25-10-2025 07:00:00,14.816666,74.141003,PM2.5,NA,NA,NA
India,Karnataka,Karwar,"KHB Colony, Karwar - KSPCB",25-10-2025 07:00:00,14.816666,74.141003,NH3,1,14,2
India,Karnataka,Karwar,"KHB Colony, Karwar - KSPCB",25-10-2025 07:00:00,14.816666,74.141003,SO2,31,61,39
India,Karnataka,Koppal,"Diwator Nagar, Koppal - KSPCB",25-10-2025 07:00:00,15.347630,76.181767,NH3,NA,NA,NA
India,Karnataka,Hassan,"B.Katihalli, Hassan - KSPCB",25-10-2025 07:00:00,13.008556,76.125258,NO2,6,33,17
India,Karnataka,Hassan,"B.Katihalli, Hassan - KSPCB",25-10-2025 07:00:00,13.008556,76.125258,SO2,12,27,21
India,Karnataka,Hassan,"B.Katihalli, Hassan - KSPCB",25-10-2025 07:00:00,13.008556,76.125258,CO,5,14,10
India,Karnataka,Haveri,"Ashwini Nagar, Haveri - KSPCB",25-10-2025 07:00:00,14.791800,75.389600,NO2,17,22,19
India,Karnataka,Haveri,"Ashwini Nagar, Haveri - KSPCB",25-10-2025 07:00:00,14.791800,75.389600,NH3,4,5,4
India,Karnataka,Hubballi,"Deshpande Nagar, Hubballi - KSPCB",25-10-2025 07:00:00,15.351773,75.140726,NH3,4,4,4
India,Karnataka,Hubballi,"Lingaraj Nagar, Hubballi - KSPCB",25-10-2025 07:00:00,15.3714823,75.1160168,PM10,29,35,32
India,Jharkhand,Jorapokhar,"Tata Stadium, Jorapokhar - JSPCB",25-10-2025 07:00:00,23.707909,86.414670,PM10,27,152,70
India,Jharkhand,Jorapokhar,"Tata Stadium, Jorapokhar - JSPCB",25-10-2025 07:00:00,23.707909,86.414670,SO2,3,4,4
India,Jharkhand,Jorapokhar,"Tata Stadium, Jorapokhar - JSPCB",25-10-2025 07:00:00,23.707909,86.414670,OZONE,2,7,2
India,Karnataka,Bengaluru,"BWSSB Kadabesanahalli, Bengaluru - CPCB",25-10-2025 07:00:00,12.9352049,77.6814488,NO2,23,23,23
India,Karnataka,Bengaluru,"Bapuji Nagar, Bengaluru - KSPCB",25-10-2025 07:00:00,12.951913,77.539784,PM10,42,136,80
India,Karnataka,Bengaluru,"Bapuji Nagar, Bengaluru - KSPCB",25-10-2025 07:00:00,12.951913,77.539784,NO2,5,9,7
India,Karnataka,Bengaluru,"Shivapura_Peenya, Bengaluru - KSPCB",25-10-2025 07:00:00,13.0246342,77.5080115,SO2,8,10,9
India,Karnataka,Bengaluru,"Silk Board, Bengaluru - KSPCB",25-10-2025 07:00:00,12.917348,77.622813,NH3,2,2,2
India,Karnataka,Bengaluru,"Silk Board, Bengaluru - KSPCB",25-10-2025 07:00:00,12.917348,77.622813,CO,18,34,25
India,Karnataka,Bidar,"Naubad, Bidar - KSPCB",25-10-2025 07:00:00,17.930306,77.482194,SO2,NA,NA,NA
